{"last_updated":1753802029,"ttl":60,"version":"2.2","data":{"bikes":[{"bike_id":"a73b8cb2-d703-4e6e-853b-e17e166c1d93","system_id":"levelo_inurba_marseille","lat":43.3133,"lon":5.3969,"is_reserved":false,"is_disabled":false,"rental_uris":{"android":"levelo://app?vid=a73b8cb2-d703-4e6e-853b-e17e166c1d93","ios":"levelo://app?vid=a73b8cb2-d703-4e6e-853b-e17e166c1d93"},"vehicle_type_id":"4","last_reported":1753802029,"current_range_meters":2800,"station_id":"ce4bgvp2rcd13ifvqcu0","pricing_plan_id":"cebpf4jnsgd1na2vs0mg"},{"bike_id":"21260514-b72c-4a62-bc72-79fec8417655","system_id":"levelo_inurba_marseille","lat":43.2956,"lon":5.42282,"is_reserved":false,"is_disabled":false,"rental_uris":{"android":"levelo://app?vid=21260514-b72c-4a62-bc72-79fec8417655","ios":"levelo://app?vid=21260514-b72c-4a62-bc72-79fec8417655"},"vehicle_type_id":"4","last_reported":1753802029,"current_range_meters":3600,"station_id":"ce4bhph2rcd13ifvqhdg","pricing_plan_id":"cebpf4jnsgd1na2vs0mg"},{"bike_id":"ec75c8d6-9f77-4142-ba20-d7dc25ac4f01","system_id":"levelo_inurba_marseille","lat":43.28408,"lon":5.37508,"is_reserved":false,"is_disabled":false,"rental_uris":{"android":"levelo://app?vid=ec75c8d6-9f77-4142-ba20-d7dc25ac4f01","ios":"levelo://app?vid=ec75c8d6-9f77-4142-ba20-d7dc25ac4f01"},"vehicle_type_id":"4","last_reported":1753802029,"current_range_meters":3600,"station_id":"ce4bh412rcd13ifvqds0","pricing_plan_id":"cebpf4jnsgd1na2vs0mg"},{"bike_id":"8c0d6f36-197c-469b-9177-369b3e697482","system_id":"levelo_inurba_marseille","lat":43.31173,"lon":5.38717,"is_reserved":false,"is_disabled":false,"rental_uris":{"android":"levelo://app?vid=8c0d6f36-197c-469b-9177-369b3e697482","ios":"levelo://app?vid=8c0d6f36-197c-469b-9177-369b3e697482"},"vehicle_type_id":"4","last_reported":1753802029,"current_range_meters":3600,"station_id":"ce4bgv12rcd13ifvqcp0","pricing_plan_id":"cebpf4jnsgd1na2vs0mg"},{"bike_id":"c566fac1-bdc0-44b4-b51d-6079acd80ddc","system_id":"levelo_inurba_marseille","lat":43.32295,"lon":5.38281,"is_reserved":false,"is_disabled":false,"rental_uris":{"android":"levelo://app?vid=c566fac1-bdc0-44b4-b51d-6079acd80ddc","ios":"levelo://app?vid=c566fac1-bdc0-44b4-b51d-6079acd80ddc"},"vehicle_type_id":"4","last_reported":1753802029,"current_range_meters":3600,"station_id":"ce4bhr12rcd13ifvqhqg","pricing_plan_id":"cebpf4jnsgd1na2vs0mg"},{"bike_id":"2de39c44-1e1e-4653-949e-46c2d30c5fff","system_id":"levelo_inurba_marseille","lat":43.3095,"lon":5.40117,"is_reserved":false,"is_disabled":false,"rental_uris":{"android":"levelo://app?vid=2de39c44-1e1e-4653-949e-46c2d30c5fff","ios":"levelo://app?vid=2de39c44-1e1e-4653-949e-46c2d30c5fff"},"vehicle_type_id":"4","last_reported":1753802029,"current_range_meters":3600,"station_id":"ce4bgvp2rcd13ifvqct0","pricing_plan_id":"cebpf4jnsgd1na2vs0mg"},{"bike_id":"da0dea9a-07a2-4249-aa7c-2489e28d40de","system_id":"levelo_inurba_marseille","lat":43.2968,"lon":5.36243,"is_reserved":false,"is_disabled":false,"rental_uris":{"android":"levelo://app?vid=da0dea9a-07a2-4249-aa7c-2489e28d40de","ios":"levelo://app?vid=da0dea9a-07a2-4249-aa7c-2489e28d40de"},"vehicle_type_id":"4","last_reported":1753802029,"current_range_meters":4400,"station_id":"","pricing_plan_id":"cebpf4jnsgd1na2vs0mg"},{"bike_id":"b1fa3d7c-8ac9-4488-beaa-8752bab61a0a","system_id":"levelo_inurba_marseille","lat":43.27947,"lon":5.41051,"is_reserved":false,"is_disabled":false,"rental_uris":{"android":"levelo://app?vid=b1fa3d7c-8ac9-4488-beaa-8752bab61a0a","ios":"levelo://app?vid=b1fa3d7c-8ac9-4488-beaa-8752bab61a0a"},"vehicle_type_id":"4","last_reported":1753802029,"current_range_meters":4400,"station_id":"ce4bhnp2rcd13ifvqh0g","pricing_plan_id":"cebpf4jnsgd1na2vs0mg"},{"bike_id":"f2ed36f9-0f01-4b33-af18-8a277c95e69c","system_id":"levelo_inurba_marseille","lat":43.33774,"lon":5.37472,"is_reserved":false,"is_disabled":false,"rental_uris":{"android":"levelo://app?vid=f2ed36f9-0f01-4b33-af18-8a277c95e69c","ios":"levelo://app?vid=f2ed36f9-0f01-4b33-af18-8a277c95e69c"},"vehicle_type_id":"4","last_reported":1753802029,"current_range_meters":4400,"station_id":"","pricing_plan_id":"cebpf4jnsgd1na2vs0mg"},{"bike_id":"28bd1532-9350-4751-a581-ae26e9a73dcc","system_id":"levelo_inurba_marseille","lat":43.29257,"lon":5.4091,"is_reserved":false,"is_disabled":false,"rental_uris":{"android":"levelo://app?vid=28bd1532-9350-4751-a581-ae26e9a73dcc","ios":"levelo://app?vid=28bd1532-9350-4751-a581-ae26e9a73dcc"},"vehicle_type_id":"4","last_reported":1753802029,"current_range_meters":4400,"station_id":"ce4bh192rcd13ifvqdc0","pricing_plan_id":"cebpf4jnsgd1na2vs0mg"},{"bike_id":"f2044373-ea96-49a2-a4e2-8e193cd80215","system_id":"levelo_inurba_marseille","lat":43.265,"lon":5.39541,"is_reserved":false,"is_disabled":false,"rental_uris":{"android":"levelo://app?vid=f2044373-ea96-49a2-a4e2-8e193cd80215","ios":"levelo://app?vid=f2044373-ea96-49a2-a4e2-8e193cd80215"},"vehicle_type_id":"4","last_reported":1753802029,"current_range_meters":5600,"station_id":"ce4bhi12rcd13ifvqfq0","pricing_plan_id":"cebpf4jnsgd1na2vs0mg"},{"bike_id":"5a67886b-2f40-46df-b0be-1179491cb0a7","system_id":"levelo_inurba_marseille","lat":43.299683,"lon":5.386239,"is_reserved":false,"is_disabled":false,"rental_uris":{"android":"levelo://app?vid=5a67886b-2f40-46df-b0be-1179491cb0a7","ios":"levelo://app?vid=5a67886b-2f40-46df-b0be-1179491cb0a7"},"vehicle_type_id":"4","last_reported":1753802029,"current_range_meters":5600,"station_id":"","pricing_plan_id":"cebpf4jnsgd1na2vs0mg"},{"bike_id":"d26365d2-3cd7-4e3c-808d-3362d6bbfb56","system_id":"levelo_inurba_marseille","lat":43.33777,"lon":5.37464,"is_reserved":false,"is_disabled":false,"rental_uris":{"android":"levelo://app?vid=d26365d2-3cd7-4e3c-808d-3362d6bbfb56","ios":"levelo://app?vid=d26365d2-3cd7-4e3c-808d-3362d6bbfb56"},"vehicle_type_id":"4","last_reported":1753802029,"current_range_meters":5600,"station_id":"","pricing_plan_id":"cebpf4jnsgd1na2vs0mg"},{"bike_id":"b61d1274-9b98-43dd-9665-3a5ffc43bb24","system_id":"levelo_inurba_marseille","lat":43.27971,"lon":5.38736,"is_reserved":false,"is_disabled":false,"rental_uris":{"android":"levelo://app?vid=b61d1274-9b98-43dd-9665-3a5ffc43bb24","ios":"levelo://app?vid=b61d1274-9b98-43dd-9665-3a5ffc43bb24"},"vehicle_type_id":"4","last_reported":1753802029,"current_range_meters":5600,"station_id":"ce4bhg12rcd13ifvqf80","pricing_plan_id":"cebpf4jnsgd1na2vs0mg"},{"bike_id":"ca6e736a-ab77-4bfa-ae30-2ee5b78f6cbc","system_id":"levelo_inurba_marseille","lat":43.29314,"lon":5.37035,"is_reserved":false,"is_disabled":false,"rental_uris":{"android":"levelo://app?vid=ca6e736a-ab77-4bfa-ae30-2ee5b78f6cbc","ios":"levelo://app?vid=ca6e736a-ab77-4bfa-ae30-2ee5b78f6cbc"},"vehicle_type_id":"4","last_reported":1753802029,"current_range_meters":5600,"station_id":"","pricing_plan_id":"cebpf4jnsgd1na2vs0mg"},{"bike_id":"6a0870ef-8487-4afd-b5a4-c4e7106b59c5","system_id":"levelo_inurba_marseille","lat":43.29282,"lon":5.40126,"is_reserved":false,"is_disabled":false,"rental_uris":{"android":"levelo://app?vid=6a0870ef-8487-4afd-b5a4-c4e7106b59c5","ios":"levelo://app?vid=6a0870ef-8487-4afd-b5a4-c4e7106b59c5"},"vehicle_type_id":"4","last_reported":1753802029,"current_range_meters":5600,"station_id":"ce4bh312rcd13ifvqdk0","pricing_plan_id":"cebpf4jnsgd1na2vs0mg"},{"bike_id":"6cb11f4f-f451-4a1b-a7c5-61054d6b97f6","system_id":"levelo_inurba_marseille","lat":43.23639,"lon":5.4098,"is_reserved":false,"is_disabled":false,"rental_uris":{"android":"levelo://app?vid=6cb11f4f-f451-4a1b-a7c5-61054d6b97f6","ios":"levelo://app?vid=6cb11f4f-f451-4a1b-a7c5-61054d6b97f6"},"vehicle_type_id":"4","last_reported":1753802029,"current_range_meters":5600,"station_id":"","pricing_plan_id":"cebpf4jnsgd1na2vs0mg"},{"bike_id":"dfeef013-405d-4d83-bff9-fe3d4f9e6756","system_id":"levelo_inurba_marseille","lat":43.31693,"lon":5.4048,"is_reserved":false,"is_disabled":true,"rental_uris":{"android":"levelo://app?vid=dfeef013-405d-4d83-bff9-fe3d4f9e6756","ios":"levelo://app?vid=dfeef013-405d-4d83-bff9-fe3d4f9e6756"},"vehicle_type_id":"4","last_reported":1753802029,"current_range_meters":5600,"station_id":"ce4bh012rcd13ifvqd00","pricing_plan_id":"cebpf4jnsgd1na2vs0mg"},{"bike_id":"661fdb0f-eba6-4952-8255-71e84747fb60","system_id":"levelo_inurba_marseille","lat":43.27357,"lon":5.36218,"is_reserved":false,"is_disabled":false,"rental_uris":{"android":"levelo://app?vid=661fdb0f-eba6-4952-8255-71e84747fb60","ios":"levelo://app?vid=661fdb0f-eba6-4952-8255-71e84747fb60"},"vehicle_type_id":"4","last_reported":1753802029,"current_range_meters":6000,"station_id":"ce4bhbh2rcd13ifvqeo0","pricing_plan_id":"cebpf4jnsgd1na2vs0mg"},{"bike_id":"fb45cff3-08fa-4cc9-bf53-0d8295f6b8d1","system_id":"levelo_inurba_marseille","lat":43.278749,"lon":5.428117,"is_reserved":false,"is_disabled":false,"rental_uris":{"android":"levelo://app?vid=fb45cff3-08fa-4cc9-bf53-0d8295f6b8d1","ios":"levelo://app?vid=fb45cff3-08fa-4cc9-bf53-0d8295f6b8d1"},"vehicle_type_id":"4","last_reported":1753802029,"current_range_meters":6000,"station_id":"","pricing_plan_id":"cebpf4jnsgd1na2vs0mg"},{"bike_id":"3152576e-d602-4c3f-980e-717f41aed773","system_id":"levelo_inurba_marseille","lat":43.33737,"lon":5.37465,"is_reserved":false,"is_disabled":false,"rental_uris":{"android":"levelo://app?vid=3152576e-d602-4c3f-980e-717f41aed773","ios":"levelo://app?vid=3152576e-d602-4c3f-980e-717f41aed773"},"vehicle_type_id":"4","last_reported":1753802029,"current_range_meters":6000,"station_id":"","pricing_plan_id":"cebpf4jnsgd1na2vs0mg"},{"bike_id":"8cf1b88f-6e08-41e2-a658-682af7a50e84","system_id":"levelo_inurba_marseille","lat":43.239654,"lon":5.366203,"is_reserved":false,"is_disabled":false,"rental_uris":{"android":"levelo://app?vid=8cf1b88f-6e08-41e2-a658-682af7a50e84","ios":"levelo://app?vid=8cf1b88f-6e08-41e2-a658-682af7a50e84"},"vehicle_type_id":"4","last_reported":1753802029,"current_range_meters":6400,"station_id":"ce4bhah2rcd13ifvqei0","pricing_plan_id":"cebpf4jnsgd1na2vs0mg"},{"bike_id":"bb56ed90-35e8-458e-ab9e-1ccfcf7d2d8d","system_id":"levelo_inurba_marseille","lat":43.29909,"lon":5.37491,"is_reserved":false,"is_disabled":false,"rental_uris":{"android":"levelo://app?vid=bb56ed90-35e8-458e-ab9e-1ccfcf7d2d8d","ios":"levelo://app?vid=bb56ed90-35e8-458e-ab9e-1ccfcf7d2d8d"},"vehicle_type_id":"4","last_reported":1753802029,"current_range_meters":7200,"station_id":"ce4bgjh2rcd13ifvqbg0","pricing_plan_id":"cebpf4jnsgd1na2vs0mg"},{"bike_id":"a93081ab-f4f0-4d3f-9c63-faa0b9f34448","system_id":"levelo_inurba_marseille","lat":43.29284,"lon":5.40116,"is_reserved":false,"is_disabled":false,"rental_uris":{"android":"levelo://app?vid=a93081ab-f4f0-4d3f-9c63-faa0b9f34448","ios":"levelo://app?vid=a93081ab-f4f0-4d3f-9c63-faa0b9f34448"},"vehicle_type_id":"4","last_reported":1753802029,"current_range_meters":6400,"station_id":"ce4bh312rcd13ifvqdk0","pricing_plan_id":"cebpf4jnsgd1na2vs0mg"},{"bike_id":"4fa9ff64-590b-408e-8472-f24ccbf42aa0","system_id":"levelo_inurba_marseille","lat":43.27669,"lon":5.3887,"is_reserved":false,"is_disabled":false,"rental_uris":{"android":"levelo://app?vid=4fa9ff64-590b-408e-8472-f24ccbf42aa0","ios":"levelo://app?vid=4fa9ff64-590b-408e-8472-f24ccbf42aa0"},"vehicle_type_id":"4","last_reported":1753802029,"current_range_meters":6400,"station_id":"ce4bhi12rcd13ifvqfo0","pricing_plan_id":"cebpf4jnsgd1na2vs0mg"},{"bike_id":"66a73003-6b7b-4eb2-8090-cc60f418a640","system_id":"levelo_inurba_marseille","lat":43.29048,"lon":5.37173,"is_reserved":false,"is_disabled":false,"rental_uris":{"android":"levelo://app?vid=66a73003-6b7b-4eb2-8090-cc60f418a640","ios":"levelo://app?vid=66a73003-6b7b-4eb2-8090-cc60f418a640"},"vehicle_type_id":"4","last_reported":1753802029,"current_range_meters":6400,"station_id":"ce4bh5p2rcd13ifvqe4g","pricing_plan_id":"cebpf4jnsgd1na2vs0mg"},{"bike_id":"97f3f877-b45e-4bb1-aac3-1d37072c8899","system_id":"levelo_inurba_marseille","lat":43.30297,"lon":5.39219,"is_reserved":false,"is_disabled":false,"rental_uris":{"android":"levelo://app?vid=97f3f877-b45e-4bb1-aac3-1d37072c8899","ios":"levelo://app?vid=97f3f877-b45e-4bb1-aac3-1d37072c8899"},"vehicle_type_id":"4","last_reported":1753802029,"current_range_meters":6800,"station_id":"ce4bgkh2rcd13ifvqbk0","pricing_plan_id":"cebpf4jnsgd1na2vs0mg"},{"bike_id":"777fccd2-8ff8-4bc7-8248-aa1436f6adc0","system_id":"levelo_inurba_marseille","lat":43.28663,"lon":5.36341,"is_reserved":false,"is_disabled":false,"rental_uris":{"android":"levelo://app?vid=777fccd2-8ff8-4bc7-8248-aa1436f6adc0","ios":"levelo://app?vid=777fccd2-8ff8-4bc7-8248-aa1436f6adc0"},"vehicle_type_id":"4","last_reported":1753802029,"current_range_meters":7200,"station_id":"ce4bhah2rcd13ifvqej0","pricing_plan_id":"cebpf4jnsgd1na2vs0mg"},{"bike_id":"c0e29085-48cb-44a0-9731-7dab67201fcf","system_id":"levelo_inurba_marseille","lat":43.29915,"lon":5.37469,"is_reserved":false,"is_disabled":false,"rental_uris":{"android":"levelo://app?vid=c0e29085-48cb-44a0-9731-7dab67201fcf","ios":"levelo://app?vid=c0e29085-48cb-44a0-9731-7dab67201fcf"},"vehicle_type_id":"4","last_reported":1753802029,"current_range_meters":7200,"station_id":"ce4bgjh2rcd13ifvqbg0","pricing_plan_id":"cebpf4jnsgd1na2vs0mg"},{"bike_id":"a6922362-229d-41a8-aeb7-b5772e221610","system_id":"levelo_inurba_marseille","lat":43.29206,"lon":5.39316,"is_reserved":false,"is_disabled":true,"rental_uris":{"android":"levelo://app?vid=a6922362-229d-41a8-aeb7-b5772e221610","ios":"levelo://app?vid=a6922362-229d-41a8-aeb7-b5772e221610"},"vehicle_type_id":"4","last_reported":1753802029,"current_range_meters":7200,"station_id":"ce4bh192rcd13ifvqdd0","pricing_plan_id":"cebpf4jnsgd1na2vs0mg"},{"bike_id":"ef91db2b-f127-453d-8a28-a77d77f3f86d","system_id":"levelo_inurba_marseille","lat":43.27921,"lon":5.39562,"is_reserved":false,"is_disabled":false,"rental_uris":{"android":"levelo://app?vid=ef91db2b-f127-453d-8a28-a77d77f3f86d","ios":"levelo://app?vid=ef91db2b-f127-453d-8a28-a77d77f3f86d"},"vehicle_type_id":"4","last_reported":1753802029,"current_range_meters":7200,"station_id":"ce4bhf92rcd13ifvqf40","pricing_plan_id":"cebpf4jnsgd1na2vs0mg"},{"bike_id":"6512fd8c-8864-49b3-8a58-5f7ab1d7ecc4","system_id":"levelo_inurba_marseille","lat":43.28452,"lon":5.35011,"is_reserved":false,"is_disabled":false,"rental_uris":{"android":"levelo://app?vid=6512fd8c-8864-49b3-8a58-5f7ab1d7ecc4","ios":"levelo://app?vid=6512fd8c-8864-49b3-8a58-5f7ab1d7ecc4"},"vehicle_type_id":"4","last_reported":1753802029,"current_range_meters":7200,"station_id":"ce4bhbh2rcd13ifvqepg","pricing_plan_id":"cebpf4jnsgd1na2vs0mg"},{"bike_id":"00241cdb-e247-4610-b5d4-916b406ad340","system_id":"levelo_inurba_marseille","lat":43.29381,"lon":5.37841,"is_reserved":false,"is_disabled":false,"rental_uris":{"android":"levelo://app?vid=00241cdb-e247-4610-b5d4-916b406ad340","ios":"levelo://app?vid=00241cdb-e247-4610-b5d4-916b406ad340"},"vehicle_type_id":"4","last_reported":1753802029,"current_range_meters":7200,"station_id":"ce4bgjh2rcd13ifvqbf0","pricing_plan_id":"cebpf4jnsgd1na2vs0mg"},{"bike_id":"83319504-c1ea-409a-a78f-37fabc62b15e","system_id":"levelo_inurba_marseille","lat":43.29715,"lon":5.36623,"is_reserved":false,"is_disabled":false,"rental_uris":{"android":"levelo://app?vid=83319504-c1ea-409a-a78f-37fabc62b15e","ios":"levelo://app?vid=83319504-c1ea-409a-a78f-37fabc62b15e"},"vehicle_type_id":"4","last_reported":1753802029,"current_range_meters":7200,"station_id":"ce4bgn12rcd13ifvqbt0","pricing_plan_id":"cebpf4jnsgd1na2vs0mg"},{"bike_id":"8e37ef79-bd01-46c2-9d9e-3d3f7741a07a","system_id":"levelo_inurba_marseille","lat":43.297302,"lon":5.374166,"is_reserved":false,"is_disabled":false,"rental_uris":{"android":"levelo://app?vid=8e37ef79-bd01-46c2-9d9e-3d3f7741a07a","ios":"levelo://app?vid=8e37ef79-bd01-46c2-9d9e-3d3f7741a07a"},"vehicle_type_id":"4","last_reported":1753802029,"current_range_meters":8000,"station_id":"","pricing_plan_id":"cebpf4jnsgd1na2vs0mg"},{"bike_id":"db3096b7-4d4f-46db-9c0f-c7f42af020cc","system_id":"levelo_inurba_marseille","lat":43.286108,"lon":5.351037,"is_reserved":false,"is_disabled":false,"rental_uris":{"android":"levelo://app?vid=db3096b7-4d4f-46db-9c0f-c7f42af020cc","ios":"levelo://app?vid=db3096b7-4d4f-46db-9c0f-c7f42af020cc"},"vehicle_type_id":"4","last_reported":1753802029,"current_range_meters":8000,"station_id":"ce4bhch2rcd13ifvqeug","pricing_plan_id":"cebpf4jnsgd1na2vs0mg"},{"bike_id":"7e4c4b62-dc6c-4eec-8a29-d2d4d5bcc035","system_id":"levelo_inurba_marseille","lat":43.30649,"lon":5.40087,"is_reserved":false,"is_disabled":false,"rental_uris":{"android":"levelo://app?vid=7e4c4b62-dc6c-4eec-8a29-d2d4d5bcc035","ios":"levelo://app?vid=7e4c4b62-dc6c-4eec-8a29-d2d4d5bcc035"},"vehicle_type_id":"4","last_reported":1753802029,"current_range_meters":8000,"station_id":"ce4bh112rcd13ifvqda0","pricing_plan_id":"cebpf4jnsgd1na2vs0mg"},{"bike_id":"64f258c6-1e92-4dd0-a4f6-11b336a5b138","system_id":"levelo_inurba_marseille","lat":43.22506,"lon":5.347793,"is_reserved":false,"is_disabled":false,"rental_uris":{"android":"levelo://app?vid=64f258c6-1e92-4dd0-a4f6-11b336a5b138","ios":"levelo://app?vid=64f258c6-1e92-4dd0-a4f6-11b336a5b138"},"vehicle_type_id":"4","last_reported":1753802029,"current_range_meters":8000,"station_id":"st_cvj5dfep6f1abm77gieg","pricing_plan_id":"cebpf4jnsgd1na2vs0mg"},{"bike_id":"98037d40-48fc-4938-bbe8-dd4250ca296a","system_id":"levelo_inurba_marseille","lat":43.28267,"lon":5.35066,"is_reserved":false,"is_disabled":false,"rental_uris":{"android":"levelo://app?vid=98037d40-48fc-4938-bbe8-dd4250ca296a","ios":"levelo://app?vid=98037d40-48fc-4938-bbe8-dd4250ca296a"},"vehicle_type_id":"4","last_reported":1753802029,"current_range_meters":8400,"station_id":"ce4bhbp2rcd13ifvqerg","pricing_plan_id":"cebpf4jnsgd1na2vs0mg"},{"bike_id":"285d45df-c1dc-431b-9ff6-aa04b30c3d87","system_id":"levelo_inurba_marseille","lat":43.28412,"lon":5.34981,"is_reserved":false,"is_disabled":false,"rental_uris":{"android":"levelo://app?vid=285d45df-c1dc-431b-9ff6-aa04b30c3d87","ios":"levelo://app?vid=285d45df-c1dc-431b-9ff6-aa04b30c3d87"},"vehicle_type_id":"4","last_reported":1753802029,"current_range_meters":8400,"station_id":"ce4bhbh2rcd13ifvqepg","pricing_plan_id":"cebpf4jnsgd1na2vs0mg"},{"bike_id":"80915a30-ef88-4d81-b5d1-969d1c17a42d","system_id":"levelo_inurba_marseille","lat":43.30418,"lon":5.4083,"is_reserved":false,"is_disabled":false,"rental_uris":{"android":"levelo://app?vid=80915a30-ef88-4d81-b5d1-969d1c17a42d","ios":"levelo://app?vid=80915a30-ef88-4d81-b5d1-969d1c17a42d"},"vehicle_type_id":"4","last_reported":1753802029,"current_range_meters":8400,"station_id":"","pricing_plan_id":"cebpf4jnsgd1na2vs0mg"},{"bike_id":"37fcf059-83b8-4b6e-bc28-0c83f77e3c05","system_id":"levelo_inurba_marseille","lat":43.337444,"lon":5.374475,"is_reserved":false,"is_disabled":false,"rental_uris":{"android":"levelo://app?vid=37fcf059-83b8-4b6e-bc28-0c83f77e3c05","ios":"levelo://app?vid=37fcf059-83b8-4b6e-bc28-0c83f77e3c05"},"vehicle_type_id":"4","last_reported":1753802029,"current_range_meters":8400,"station_id":"","pricing_plan_id":"cebpf4jnsgd1na2vs0mg"},{"bike_id":"b952762a-e1c8-4858-87c5-767e304a2f00","system_id":"levelo_inurba_marseille","lat":43.31501,"lon":5.37296,"is_reserved":false,"is_disabled":false,"rental_uris":{"android":"levelo://app?vid=b952762a-e1c8-4858-87c5-767e304a2f00","ios":"levelo://app?vid=b952762a-e1c8-4858-87c5-767e304a2f00"},"vehicle_type_id":"4","last_reported":1753802029,"current_range_meters":8400,"station_id":"ce4bgt12rcd13ifvqcd0","pricing_plan_id":"cebpf4jnsgd1na2vs0mg"},{"bike_id":"d99716cc-03d7-4ec6-9afb-f243b2d67578","system_id":"levelo_inurba_marseille","lat":43.33756,"lon":5.37482,"is_reserved":false,"is_disabled":false,"rental_uris":{"android":"levelo://app?vid=d99716cc-03d7-4ec6-9afb-f243b2d67578","ios":"levelo://app?vid=d99716cc-03d7-4ec6-9afb-f243b2d67578"},"vehicle_type_id":"4","last_reported":1753802029,"current_range_meters":8400,"station_id":"","pricing_plan_id":"cebpf4jnsgd1na2vs0mg"},{"bike_id":"95dd70e4-879c-49e7-b318-a6c71b22a43e","system_id":"levelo_inurba_marseille","lat":43.2703,"lon":5.39295,"is_reserved":false,"is_disabled":false,"rental_uris":{"android":"levelo://app?vid=95dd70e4-879c-49e7-b318-a6c71b22a43e","ios":"levelo://app?vid=95dd70e4-879c-49e7-b318-a6c71b22a43e"},"vehicle_type_id":"4","last_reported":1753802029,"current_range_meters":8400,"station_id":"","pricing_plan_id":"cebpf4jnsgd1na2vs0mg"},{"bike_id":"fb617266-2dc4-4f49-aed9-ff11838c6540","system_id":"levelo_inurba_marseille","lat":43.31484,"lon":5.37303,"is_reserved":false,"is_disabled":false,"rental_uris":{"android":"levelo://app?vid=fb617266-2dc4-4f49-aed9-ff11838c6540","ios":"levelo://app?vid=fb617266-2dc4-4f49-aed9-ff11838c6540"},"vehicle_type_id":"4","last_reported":1753802029,"current_range_meters":8400,"station_id":"ce4bgt12rcd13ifvqcd0","pricing_plan_id":"cebpf4jnsgd1na2vs0mg"},{"bike_id":"209c73e6-1f69-4d13-9fed-77cb46eecd05","system_id":"levelo_inurba_marseille","lat":43.34681,"lon":5.38065,"is_reserved":false,"is_disabled":false,"rental_uris":{"android":"levelo://app?vid=209c73e6-1f69-4d13-9fed-77cb46eecd05","ios":"levelo://app?vid=209c73e6-1f69-4d13-9fed-77cb46eecd05"},"vehicle_type_id":"4","last_reported":1753802029,"current_range_meters":8400,"station_id":"","pricing_plan_id":"cebpf4jnsgd1na2vs0mg"},{"bike_id":"43029eb9-cd79-4378-a342-ed7d5760c117","system_id":"levelo_inurba_marseille","lat":43.3037,"lon":5.42483,"is_reserved":false,"is_disabled":false,"rental_uris":{"android":"levelo://app?vid=43029eb9-cd79-4378-a342-ed7d5760c117","ios":"levelo://app?vid=43029eb9-cd79-4378-a342-ed7d5760c117"},"vehicle_type_id":"4","last_reported":1753802029,"current_range_meters":8800,"station_id":"ce4bhoh2rcd13ifvqh6g","pricing_plan_id":"cebpf4jnsgd1na2vs0mg"},{"bike_id":"485c3b47-3dcc-43c9-a148-f2e2760a2b77","system_id":"levelo_inurba_marseille","lat":43.29532,"lon":5.39268,"is_reserved":false,"is_disabled":false,"rental_uris":{"android":"levelo://app?vid=485c3b47-3dcc-43c9-a148-f2e2760a2b77","ios":"levelo://app?vid=485c3b47-3dcc-43c9-a148-f2e2760a2b77"},"vehicle_type_id":"4","last_reported":1753802029,"current_range_meters":8800,"station_id":"","pricing_plan_id":"cebpf4jnsgd1na2vs0mg"},{"bike_id":"05cbfde1-bc8b-4494-8924-fea2291ddb1f","system_id":"levelo_inurba_marseille","lat":43.29546,"lon":5.36569,"is_reserved":false,"is_disabled":false,"rental_uris":{"android":"levelo://app?vid=05cbfde1-bc8b-4494-8924-fea2291ddb1f","ios":"levelo://app?vid=05cbfde1-bc8b-4494-8924-fea2291ddb1f"},"vehicle_type_id":"4","last_reported":1753802029,"current_range_meters":8800,"station_id":"","pricing_plan_id":"cebpf4jnsgd1na2vs0mg"},{"bike_id":"65e3db07-f188-422b-b687-3d06cfe2bcf8","system_id":"levelo_inurba_marseille","lat":43.28022,"lon":5.35101,"is_reserved":false,"is_disabled":false,"rental_uris":{"android":"levelo://app?vid=65e3db07-f188-422b-b687-3d06cfe2bcf8","ios":"levelo://app?vid=65e3db07-f188-422b-b687-3d06cfe2bcf8"},"vehicle_type_id":"4","last_reported":1753802029,"current_range_meters":8800,"station_id":"","pricing_plan_id":"cebpf4jnsgd1na2vs0mg"},{"bike_id":"24e4fbdb-edb3-4f7d-8c37-f4ec34322a64","system_id":"levelo_inurba_marseille","lat":43.30907,"lon":5.3717,"is_reserved":false,"is_disabled":false,"rental_uris":{"android":"levelo://app?vid=24e4fbdb-edb3-4f7d-8c37-f4ec34322a64","ios":"levelo://app?vid=24e4fbdb-edb3-4f7d-8c37-f4ec34322a64"},"vehicle_type_id":"4","last_reported":1753802029,"current_range_meters":9200,"station_id":"ce4bguh2rcd13ifvqckg","pricing_plan_id":"cebpf4jnsgd1na2vs0mg"},{"bike_id":"149fbe11-3bce-47a0-b584-c7c7bd6bb12f","system_id":"levelo_inurba_marseille","lat":43.21619,"lon":5.34445,"is_reserved":false,"is_disabled":false,"rental_uris":{"android":"levelo://app?vid=149fbe11-3bce-47a0-b584-c7c7bd6bb12f","ios":"levelo://app?vid=149fbe11-3bce-47a0-b584-c7c7bd6bb12f"},"vehicle_type_id":"4","last_reported":1753802029,"current_range_meters":9200,"station_id":"","pricing_plan_id":"cebpf4jnsgd1na2vs0mg"},{"bike_id":"742decbd-75ee-46e3-8d5d-a5ed0fdfc7d6","system_id":"levelo_inurba_marseille","lat":43.24666,"lon":5.38169,"is_reserved":false,"is_disabled":false,"rental_uris":{"android":"levelo://app?vid=742decbd-75ee-46e3-8d5d-a5ed0fdfc7d6","ios":"levelo://app?vid=742decbd-75ee-46e3-8d5d-a5ed0fdfc7d6"},"vehicle_type_id":"4","last_reported":1753802029,"current_range_meters":9600,"station_id":"ce4bhih2rcd13ifvqfr0","pricing_plan_id":"cebpf4jnsgd1na2vs0mg"},{"bike_id":"9f90e81c-82b6-4e93-8820-47a6570c2ab4","system_id":"levelo_inurba_marseille","lat":43.28422,"lon":5.34991,"is_reserved":false,"is_disabled":false,"rental_uris":{"android":"levelo://app?vid=9f90e81c-82b6-4e93-8820-47a6570c2ab4","ios":"levelo://app?vid=9f90e81c-82b6-4e93-8820-47a6570c2ab4"},"vehicle_type_id":"4","last_reported":1753802029,"current_range_meters":9600,"station_id":"ce4bhbh2rcd13ifvqepg","pricing_plan_id":"cebpf4jnsgd1na2vs0mg"},{"bike_id":"c39ce60f-c066-4df0-9c3b-7f99adcb09c0","system_id":"levelo_inurba_marseille","lat":43.2828,"lon":5.35068,"is_reserved":false,"is_disabled":false,"rental_uris":{"android":"levelo://app?vid=c39ce60f-c066-4df0-9c3b-7f99adcb09c0","ios":"levelo://app?vid=c39ce60f-c066-4df0-9c3b-7f99adcb09c0"},"vehicle_type_id":"4","last_reported":1753802029,"current_range_meters":9600,"station_id":"ce4bhbp2rcd13ifvqerg","pricing_plan_id":"cebpf4jnsgd1na2vs0mg"},{"bike_id":"927cb585-5a3e-422b-8c25-d1081a91d1a6","system_id":"levelo_inurba_marseille","lat":43.28414,"lon":5.34984,"is_reserved":false,"is_disabled":false,"rental_uris":{"android":"levelo://app?vid=927cb585-5a3e-422b-8c25-d1081a91d1a6","ios":"levelo://app?vid=927cb585-5a3e-422b-8c25-d1081a91d1a6"},"vehicle_type_id":"4","last_reported":1753802029,"current_range_meters":9600,"station_id":"ce4bhbh2rcd13ifvqepg","pricing_plan_id":"cebpf4jnsgd1na2vs0mg"},{"bike_id":"e0ce0053-71c4-4b07-8b9e-379e7ce2bf22","system_id":"levelo_inurba_marseille","lat":43.30275,"lon":5.39801,"is_reserved":false,"is_disabled":false,"rental_uris":{"android":"levelo://app?vid=e0ce0053-71c4-4b07-8b9e-379e7ce2bf22","ios":"levelo://app?vid=e0ce0053-71c4-4b07-8b9e-379e7ce2bf22"},"vehicle_type_id":"4","last_reported":1753802029,"current_range_meters":9600,"station_id":"","pricing_plan_id":"cebpf4jnsgd1na2vs0mg"},{"bike_id":"c17167ad-d7d4-4a67-8813-57c45710e08f","system_id":"levelo_inurba_marseille","lat":43.311641,"lon":5.387237,"is_reserved":false,"is_disabled":false,"rental_uris":{"android":"levelo://app?vid=c17167ad-d7d4-4a67-8813-57c45710e08f","ios":"levelo://app?vid=c17167ad-d7d4-4a67-8813-57c45710e08f"},"vehicle_type_id":"4","last_reported":1753802029,"current_range_meters":9600,"station_id":"ce4bgv12rcd13ifvqcp0","pricing_plan_id":"cebpf4jnsgd1na2vs0mg"},{"bike_id":"962879c5-ede6-4ad1-8ad6-e3e238b6e210","system_id":"levelo_inurba_marseille","lat":43.28282,"lon":5.3509,"is_reserved":false,"is_disabled":false,"rental_uris":{"android":"levelo://app?vid=962879c5-ede6-4ad1-8ad6-e3e238b6e210","ios":"levelo://app?vid=962879c5-ede6-4ad1-8ad6-e3e238b6e210"},"vehicle_type_id":"4","last_reported":1753802029,"current_range_meters":10000,"station_id":"ce4bhbp2rcd13ifvqerg","pricing_plan_id":"cebpf4jnsgd1na2vs0mg"},{"bike_id":"882bdff1-651a-41c1-9ab0-596f43205cf1","system_id":"levelo_inurba_marseille","lat":43.337444,"lon":5.374475,"is_reserved":false,"is_disabled":false,"rental_uris":{"android":"levelo://app?vid=882bdff1-651a-41c1-9ab0-596f43205cf1","ios":"levelo://app?vid=882bdff1-651a-41c1-9ab0-596f43205cf1"},"vehicle_type_id":"4","last_reported":1753802029,"current_range_meters":10000,"station_id":"ce4bgkp2rcd13ifvqbmg","pricing_plan_id":"cebpf4jnsgd1na2vs0mg"},{"bike_id":"55ba520c-4797-40d4-86c5-bf11ff6e5566","system_id":"levelo_inurba_marseille","lat":43.30376,"lon":5.42484,"is_reserved":false,"is_disabled":false,"rental_uris":{"android":"levelo://app?vid=55ba520c-4797-40d4-86c5-bf11ff6e5566","ios":"levelo://app?vid=55ba520c-4797-40d4-86c5-bf11ff6e5566"},"vehicle_type_id":"4","last_reported":1753802029,"current_range_meters":10000,"station_id":"ce4bhoh2rcd13ifvqh6g","pricing_plan_id":"cebpf4jnsgd1na2vs0mg"},{"bike_id":"c13ce413-660f-4ff8-9547-d17d0704485e","system_id":"levelo_inurba_marseille","lat":43.21192,"lon":5.35071,"is_reserved":false,"is_disabled":false,"rental_uris":{"android":"levelo://app?vid=c13ce413-660f-4ff8-9547-d17d0704485e","ios":"levelo://app?vid=c13ce413-660f-4ff8-9547-d17d0704485e"},"vehicle_type_id":"4","last_reported":1753802029,"current_range_meters":10000,"station_id":"","pricing_plan_id":"cebpf4jnsgd1na2vs0mg"},{"bike_id":"1d5be4ee-5ffc-4f29-8a12-4347aec148fe","system_id":"levelo_inurba_marseille","lat":43.28422,"lon":5.34994,"is_reserved":false,"is_disabled":false,"rental_uris":{"android":"levelo://app?vid=1d5be4ee-5ffc-4f29-8a12-4347aec148fe","ios":"levelo://app?vid=1d5be4ee-5ffc-4f29-8a12-4347aec148fe"},"vehicle_type_id":"4","last_reported":1753802029,"current_range_meters":10000,"station_id":"ce4bhbh2rcd13ifvqepg","pricing_plan_id":"cebpf4jnsgd1na2vs0mg"},{"bike_id":"c5d6c16c-667e-4c61-9e09-b5efae6e86bc","system_id":"levelo_inurba_marseille","lat":43.29901,"lon":5.43669,"is_reserved":false,"is_disabled":false,"rental_uris":{"android":"levelo://app?vid=c5d6c16c-667e-4c61-9e09-b5efae6e86bc","ios":"levelo://app?vid=c5d6c16c-667e-4c61-9e09-b5efae6e86bc"},"vehicle_type_id":"4","last_reported":1753802029,"current_range_meters":10000,"station_id":"ce4bhpp2rcd13ifvqhfg","pricing_plan_id":"cebpf4jnsgd1na2vs0mg"},{"bike_id":"2a3a9f20-00d1-4c95-a093-ba8e28724bc0","system_id":"levelo_inurba_marseille","lat":43.30658,"lon":5.37568,"is_reserved":false,"is_disabled":false,"rental_uris":{"android":"levelo://app?vid=2a3a9f20-00d1-4c95-a093-ba8e28724bc0","ios":"levelo://app?vid=2a3a9f20-00d1-4c95-a093-ba8e28724bc0"},"vehicle_type_id":"4","last_reported":1753802029,"current_range_meters":10000,"station_id":"","pricing_plan_id":"cebpf4jnsgd1na2vs0mg"},{"bike_id":"4af76c79-29bb-47b2-b7c3-69871ae90fba","system_id":"levelo_inurba_marseille","lat":43.30305,"lon":5.39219,"is_reserved":false,"is_disabled":false,"rental_uris":{"android":"levelo://app?vid=4af76c79-29bb-47b2-b7c3-69871ae90fba","ios":"levelo://app?vid=4af76c79-29bb-47b2-b7c3-69871ae90fba"},"vehicle_type_id":"4","last_reported":1753802029,"current_range_meters":10000,"station_id":"ce4bgkh2rcd13ifvqbk0","pricing_plan_id":"cebpf4jnsgd1na2vs0mg"},{"bike_id":"9634b80a-cf65-4157-9b52-d316ad7986c3","system_id":"levelo_inurba_marseille","lat":43.2996,"lon":5.41317,"is_reserved":false,"is_disabled":false,"rental_uris":{"android":"levelo://app?vid=9634b80a-cf65-4157-9b52-d316ad7986c3","ios":"levelo://app?vid=9634b80a-cf65-4157-9b52-d316ad7986c3"},"vehicle_type_id":"4","last_reported":1753802029,"current_range_meters":14000,"station_id":"ce4bhp12rcd13ifvqh9g","pricing_plan_id":"cebpf4jnsgd1na2vs0mg"},{"bike_id":"ded3ca32-79cf-499e-a93e-78e8e0a58def","system_id":"levelo_inurba_marseille","lat":43.29195,"lon":5.35794,"is_reserved":false,"is_disabled":true,"rental_uris":{"android":"levelo://app?vid=ded3ca32-79cf-499e-a93e-78e8e0a58def","ios":"levelo://app?vid=ded3ca32-79cf-499e-a93e-78e8e0a58def"},"vehicle_type_id":"4","last_reported":1753802029,"current_range_meters":10800,"station_id":"ce4bhb12rcd13ifvqel0","pricing_plan_id":"cebpf4jnsgd1na2vs0mg"},{"bike_id":"d4b0442d-37e3-4887-8827-87b59f4e9086","system_id":"levelo_inurba_marseille","lat":43.2977,"lon":5.38108,"is_reserved":false,"is_disabled":false,"rental_uris":{"android":"levelo://app?vid=d4b0442d-37e3-4887-8827-87b59f4e9086","ios":"levelo://app?vid=d4b0442d-37e3-4887-8827-87b59f4e9086"},"vehicle_type_id":"4","last_reported":1753802029,"current_range_meters":10800,"station_id":"","pricing_plan_id":"cebpf4jnsgd1na2vs0mg"},{"bike_id":"dcbfcbac-c7f2-4567-a10c-9bb97abccd81","system_id":"levelo_inurba_marseille","lat":43.271576,"lon":5.409217,"is_reserved":false,"is_disabled":false,"rental_uris":{"android":"levelo://app?vid=dcbfcbac-c7f2-4567-a10c-9bb97abccd81","ios":"levelo://app?vid=dcbfcbac-c7f2-4567-a10c-9bb97abccd81"},"vehicle_type_id":"4","last_reported":1753802029,"current_range_meters":10800,"station_id":"ce4bhl12rcd13ifvqgf0","pricing_plan_id":"cebpf4jnsgd1na2vs0mg"},{"bike_id":"f4c59c80-40f0-4999-896e-9e0a199046c0","system_id":"levelo_inurba_marseille","lat":43.28419,"lon":5.34992,"is_reserved":false,"is_disabled":false,"rental_uris":{"android":"levelo://app?vid=f4c59c80-40f0-4999-896e-9e0a199046c0","ios":"levelo://app?vid=f4c59c80-40f0-4999-896e-9e0a199046c0"},"vehicle_type_id":"4","last_reported":1753802029,"current_range_meters":10800,"station_id":"ce4bhbh2rcd13ifvqepg","pricing_plan_id":"cebpf4jnsgd1na2vs0mg"},{"bike_id":"5dec02eb-e64a-487f-ba18-38817336aca8","system_id":"levelo_inurba_marseille","lat":43.28983,"lon":5.37832,"is_reserved":false,"is_disabled":true,"rental_uris":{"android":"levelo://app?vid=5dec02eb-e64a-487f-ba18-38817336aca8","ios":"levelo://app?vid=5dec02eb-e64a-487f-ba18-38817336aca8"},"vehicle_type_id":"4","last_reported":1753802029,"current_range_meters":10800,"station_id":"ce4bh9p2rcd13ifvqed0","pricing_plan_id":"cebpf4jnsgd1na2vs0mg"},{"bike_id":"1d599ca9-96fe-4939-8af9-7954ed58ad38","system_id":"levelo_inurba_marseille","lat":43.23552,"lon":5.36019,"is_reserved":false,"is_disabled":false,"rental_uris":{"android":"levelo://app?vid=1d599ca9-96fe-4939-8af9-7954ed58ad38","ios":"levelo://app?vid=1d599ca9-96fe-4939-8af9-7954ed58ad38"},"vehicle_type_id":"4","last_reported":1753802029,"current_range_meters":11200,"station_id":"","pricing_plan_id":"cebpf4jnsgd1na2vs0mg"},{"bike_id":"4b03818f-38c0-4721-8299-a39ad77b6df1","system_id":"levelo_inurba_marseille","lat":43.32467,"lon":5.36547,"is_reserved":false,"is_disabled":false,"rental_uris":{"android":"levelo://app?vid=4b03818f-38c0-4721-8299-a39ad77b6df1","ios":"levelo://app?vid=4b03818f-38c0-4721-8299-a39ad77b6df1"},"vehicle_type_id":"4","last_reported":1753802029,"current_range_meters":11200,"station_id":"ce4bhs12rcd13ifvqhvg","pricing_plan_id":"cebpf4jnsgd1na2vs0mg"},{"bike_id":"afc585c0-a036-46c3-af16-d4622004cfb2","system_id":"levelo_inurba_marseille","lat":43.30648,"lon":5.40103,"is_reserved":false,"is_disabled":false,"rental_uris":{"android":"levelo://app?vid=afc585c0-a036-46c3-af16-d4622004cfb2","ios":"levelo://app?vid=afc585c0-a036-46c3-af16-d4622004cfb2"},"vehicle_type_id":"4","last_reported":1753802029,"current_range_meters":11200,"station_id":"ce4bh112rcd13ifvqda0","pricing_plan_id":"cebpf4jnsgd1na2vs0mg"},{"bike_id":"cdebde32-65f3-40d4-9237-32a74e70e437","system_id":"levelo_inurba_marseille","lat":43.29076,"lon":5.37172,"is_reserved":false,"is_disabled":false,"rental_uris":{"android":"levelo://app?vid=cdebde32-65f3-40d4-9237-32a74e70e437","ios":"levelo://app?vid=cdebde32-65f3-40d4-9237-32a74e70e437"},"vehicle_type_id":"4","last_reported":1753802029,"current_range_meters":11200,"station_id":"ce4bh5p2rcd13ifvqe4g","pricing_plan_id":"cebpf4jnsgd1na2vs0mg"},{"bike_id":"1bf9a58f-1ac0-4d9f-95b0-0c1d86e883f2","system_id":"levelo_inurba_marseille","lat":43.29231,"lon":5.36067,"is_reserved":false,"is_disabled":false,"rental_uris":{"android":"levelo://app?vid=1bf9a58f-1ac0-4d9f-95b0-0c1d86e883f2","ios":"levelo://app?vid=1bf9a58f-1ac0-4d9f-95b0-0c1d86e883f2"},"vehicle_type_id":"4","last_reported":1753802029,"current_range_meters":11600,"station_id":"ce4bhbh2rcd13ifvqeqg","pricing_plan_id":"cebpf4jnsgd1na2vs0mg"},{"bike_id":"92d1e238-1573-4b7a-9ad4-6f54fa914a21","system_id":"levelo_inurba_marseille","lat":43.32061,"lon":5.41537,"is_reserved":false,"is_disabled":false,"rental_uris":{"android":"levelo://app?vid=92d1e238-1573-4b7a-9ad4-6f54fa914a21","ios":"levelo://app?vid=92d1e238-1573-4b7a-9ad4-6f54fa914a21"},"vehicle_type_id":"4","last_reported":1753802029,"current_range_meters":11600,"station_id":"ce4bhq92rcd13ifvqhkg","pricing_plan_id":"cebpf4jnsgd1na2vs0mg"},{"bike_id":"b3cc7bb1-f616-407f-b555-7e0ca12eefc4","system_id":"levelo_inurba_marseille","lat":43.27934,"lon":5.41042,"is_reserved":false,"is_disabled":false,"rental_uris":{"android":"levelo://app?vid=b3cc7bb1-f616-407f-b555-7e0ca12eefc4","ios":"levelo://app?vid=b3cc7bb1-f616-407f-b555-7e0ca12eefc4"},"vehicle_type_id":"4","last_reported":1753802029,"current_range_meters":11600,"station_id":"ce4bhnp2rcd13ifvqh0g","pricing_plan_id":"cebpf4jnsgd1na2vs0mg"},{"bike_id":"da913aa8-3d8c-4ab2-b48f-187998fd2a99","system_id":"levelo_inurba_marseille","lat":43.3377,"lon":5.37469,"is_reserved":false,"is_disabled":false,"rental_uris":{"android":"levelo://app?vid=da913aa8-3d8c-4ab2-b48f-187998fd2a99","ios":"levelo://app?vid=da913aa8-3d8c-4ab2-b48f-187998fd2a99"},"vehicle_type_id":"4","last_reported":1753802029,"current_range_meters":11600,"station_id":"","pricing_plan_id":"cebpf4jnsgd1na2vs0mg"},{"bike_id":"fbb22464-f10e-449f-a8b8-ff2dcb30a686","system_id":"levelo_inurba_marseille","lat":43.27659,"lon":5.38854,"is_reserved":false,"is_disabled":false,"rental_uris":{"android":"levelo://app?vid=fbb22464-f10e-449f-a8b8-ff2dcb30a686","ios":"levelo://app?vid=fbb22464-f10e-449f-a8b8-ff2dcb30a686"},"vehicle_type_id":"4","last_reported":1753802029,"current_range_meters":11600,"station_id":"ce4bhi12rcd13ifvqfo0","pricing_plan_id":"cebpf4jnsgd1na2vs0mg"},{"bike_id":"34f42d03-a232-4599-8832-330509d6383d","system_id":"levelo_inurba_marseille","lat":43.23874,"lon":5.39819,"is_reserved":false,"is_disabled":false,"rental_uris":{"android":"levelo://app?vid=34f42d03-a232-4599-8832-330509d6383d","ios":"levelo://app?vid=34f42d03-a232-4599-8832-330509d6383d"},"vehicle_type_id":"4","last_reported":1753802029,"current_range_meters":11600,"station_id":"","pricing_plan_id":"cebpf4jnsgd1na2vs0mg"},{"bike_id":"7cf62c04-91f9-4e0a-bdd9-c677d355fb11","system_id":"levelo_inurba_marseille","lat":43.29901,"lon":5.383,"is_reserved":false,"is_disabled":false,"rental_uris":{"android":"levelo://app?vid=7cf62c04-91f9-4e0a-bdd9-c677d355fb11","ios":"levelo://app?vid=7cf62c04-91f9-4e0a-bdd9-c677d355fb11"},"vehicle_type_id":"4","last_reported":1753802029,"current_range_meters":11600,"station_id":"","pricing_plan_id":"cebpf4jnsgd1na2vs0mg"},{"bike_id":"90e44683-c23a-4024-97e1-64b56099c0de","system_id":"levelo_inurba_marseille","lat":43.28463,"lon":5.35893,"is_reserved":false,"is_disabled":false,"rental_uris":{"android":"levelo://app?vid=90e44683-c23a-4024-97e1-64b56099c0de","ios":"levelo://app?vid=90e44683-c23a-4024-97e1-64b56099c0de"},"vehicle_type_id":"4","last_reported":1753802029,"current_range_meters":12000,"station_id":"ce4bhah2rcd13ifvqei0","pricing_plan_id":"cebpf4jnsgd1na2vs0mg"},{"bike_id":"45212c79-9ef8-4253-8b95-ad8f29b8aba0","system_id":"levelo_inurba_marseille","lat":43.27363,"lon":5.36246,"is_reserved":false,"is_disabled":false,"rental_uris":{"android":"levelo://app?vid=45212c79-9ef8-4253-8b95-ad8f29b8aba0","ios":"levelo://app?vid=45212c79-9ef8-4253-8b95-ad8f29b8aba0"},"vehicle_type_id":"4","last_reported":1753802029,"current_range_meters":12000,"station_id":"ce4bhbh2rcd13ifvqeo0","pricing_plan_id":"cebpf4jnsgd1na2vs0mg"},{"bike_id":"a3f6fcde-afcd-45f1-92b0-72893fa8786e","system_id":"levelo_inurba_marseille","lat":43.273702,"lon":5.362564,"is_reserved":false,"is_disabled":false,"rental_uris":{"android":"levelo://app?vid=a3f6fcde-afcd-45f1-92b0-72893fa8786e","ios":"levelo://app?vid=a3f6fcde-afcd-45f1-92b0-72893fa8786e"},"vehicle_type_id":"4","last_reported":1753802029,"current_range_meters":12000,"station_id":"ce4bhbh2rcd13ifvqeo0","pricing_plan_id":"cebpf4jnsgd1na2vs0mg"},{"bike_id":"d0c1a256-9ab1-4326-9fb3-6eaf0c104d63","system_id":"levelo_inurba_marseille","lat":43.2828,"lon":5.35061,"is_reserved":false,"is_disabled":false,"rental_uris":{"android":"levelo://app?vid=d0c1a256-9ab1-4326-9fb3-6eaf0c104d63","ios":"levelo://app?vid=d0c1a256-9ab1-4326-9fb3-6eaf0c104d63"},"vehicle_type_id":"4","last_reported":1753802029,"current_range_meters":12400,"station_id":"ce4bhbp2rcd13ifvqerg","pricing_plan_id":"cebpf4jnsgd1na2vs0mg"},{"bike_id":"edeebce6-e3cf-4eac-ac64-0399354a083c","system_id":"levelo_inurba_marseille","lat":43.308994,"lon":5.372059,"is_reserved":false,"is_disabled":false,"rental_uris":{"android":"levelo://app?vid=edeebce6-e3cf-4eac-ac64-0399354a083c","ios":"levelo://app?vid=edeebce6-e3cf-4eac-ac64-0399354a083c"},"vehicle_type_id":"4","last_reported":1753802029,"current_range_meters":12400,"station_id":"ce4bguh2rcd13ifvqckg","pricing_plan_id":"cebpf4jnsgd1na2vs0mg"},{"bike_id":"62f5da51-1009-4002-b725-5765ccaaf3ec","system_id":"levelo_inurba_marseille","lat":43.294333,"lon":5.432479,"is_reserved":false,"is_disabled":false,"rental_uris":{"android":"levelo://app?vid=62f5da51-1009-4002-b725-5765ccaaf3ec","ios":"levelo://app?vid=62f5da51-1009-4002-b725-5765ccaaf3ec"},"vehicle_type_id":"4","last_reported":1753802029,"current_range_meters":12400,"station_id":"","pricing_plan_id":"cebpf4jnsgd1na2vs0mg"},{"bike_id":"149441a1-4a20-4aba-ad8b-5cb0f28aa1c9","system_id":"levelo_inurba_marseille","lat":43.23069,"lon":5.35494,"is_reserved":false,"is_disabled":false,"rental_uris":{"android":"levelo://app?vid=149441a1-4a20-4aba-ad8b-5cb0f28aa1c9","ios":"levelo://app?vid=149441a1-4a20-4aba-ad8b-5cb0f28aa1c9"},"vehicle_type_id":"4","last_reported":1753802029,"current_range_meters":12400,"station_id":"cpo3342slgdg3j2ifvpg","pricing_plan_id":"cebpf4jnsgd1na2vs0mg"},{"bike_id":"393477db-10af-44dc-b60b-0f4f5e2e576e","system_id":"levelo_inurba_marseille","lat":43.31691,"lon":5.40478,"is_reserved":false,"is_disabled":false,"rental_uris":{"android":"levelo://app?vid=393477db-10af-44dc-b60b-0f4f5e2e576e","ios":"levelo://app?vid=393477db-10af-44dc-b60b-0f4f5e2e576e"},"vehicle_type_id":"4","last_reported":1753802029,"current_range_meters":12000,"station_id":"ce4bh012rcd13ifvqd00","pricing_plan_id":"cebpf4jnsgd1na2vs0mg"},{"bike_id":"fd7c228a-74ed-4201-aa41-704c1a3fdd8c","system_id":"levelo_inurba_marseille","lat":43.2468,"lon":5.38147,"is_reserved":false,"is_disabled":false,"rental_uris":{"android":"levelo://app?vid=fd7c228a-74ed-4201-aa41-704c1a3fdd8c","ios":"levelo://app?vid=fd7c228a-74ed-4201-aa41-704c1a3fdd8c"},"vehicle_type_id":"4","last_reported":1753802029,"current_range_meters":12400,"station_id":"ce4bhih2rcd13ifvqfr0","pricing_plan_id":"cebpf4jnsgd1na2vs0mg"},{"bike_id":"4c95b51d-132a-4d3c-a203-3618173863ac","system_id":"levelo_inurba_marseille","lat":43.2857,"lon":5.395,"is_reserved":false,"is_disabled":false,"rental_uris":{"android":"levelo://app?vid=4c95b51d-132a-4d3c-a203-3618173863ac","ios":"levelo://app?vid=4c95b51d-132a-4d3c-a203-3618173863ac"},"vehicle_type_id":"4","last_reported":1753802029,"current_range_meters":11600,"station_id":"ce4bh292rcd13ifvqdg0","pricing_plan_id":"cebpf4jnsgd1na2vs0mg"},{"bike_id":"781d1b23-d4f9-4493-9221-7e7d3ffb798d","system_id":"levelo_inurba_marseille","lat":43.28412,"lon":5.34981,"is_reserved":false,"is_disabled":false,"rental_uris":{"android":"levelo://app?vid=781d1b23-d4f9-4493-9221-7e7d3ffb798d","ios":"levelo://app?vid=781d1b23-d4f9-4493-9221-7e7d3ffb798d"},"vehicle_type_id":"4","last_reported":1753802029,"current_range_meters":12800,"station_id":"ce4bhbh2rcd13ifvqepg","pricing_plan_id":"cebpf4jnsgd1na2vs0mg"},{"bike_id":"50427cb4-f7c5-45fa-9402-39ede650aa5c","system_id":"levelo_inurba_marseille","lat":43.31275,"lon":5.40172,"is_reserved":false,"is_disabled":true,"rental_uris":{"android":"levelo://app?vid=50427cb4-f7c5-45fa-9402-39ede650aa5c","ios":"levelo://app?vid=50427cb4-f7c5-45fa-9402-39ede650aa5c"},"vehicle_type_id":"4","last_reported":1753802029,"current_range_meters":12800,"station_id":"ce4bh092rcd13ifvqd30","pricing_plan_id":"cebpf4jnsgd1na2vs0mg"},{"bike_id":"43348ea9-7f7d-45e7-9344-a5a742188c65","system_id":"levelo_inurba_marseille","lat":43.28697,"lon":5.37396,"is_reserved":false,"is_disabled":true,"rental_uris":{"android":"levelo://app?vid=43348ea9-7f7d-45e7-9344-a5a742188c65","ios":"levelo://app?vid=43348ea9-7f7d-45e7-9344-a5a742188c65"},"vehicle_type_id":"4","last_reported":1753802029,"current_range_meters":12800,"station_id":"ce4bh3p2rcd13ifvqdq0","pricing_plan_id":"cebpf4jnsgd1na2vs0mg"},{"bike_id":"b0f2b2c1-b378-4164-a22b-6eceaa434acc","system_id":"levelo_inurba_marseille","lat":43.29313,"lon":5.42812,"is_reserved":false,"is_disabled":false,"rental_uris":{"android":"levelo://app?vid=b0f2b2c1-b378-4164-a22b-6eceaa434acc","ios":"levelo://app?vid=b0f2b2c1-b378-4164-a22b-6eceaa434acc"},"vehicle_type_id":"4","last_reported":1753802029,"current_range_meters":12800,"station_id":"","pricing_plan_id":"cebpf4jnsgd1na2vs0mg"},{"bike_id":"cb1cc6ba-5b77-40fb-ad0c-c41a4d15d014","system_id":"levelo_inurba_marseille","lat":43.2175,"lon":5.34597,"is_reserved":false,"is_disabled":false,"rental_uris":{"android":"levelo://app?vid=cb1cc6ba-5b77-40fb-ad0c-c41a4d15d014","ios":"levelo://app?vid=cb1cc6ba-5b77-40fb-ad0c-c41a4d15d014"},"vehicle_type_id":"4","last_reported":1753802029,"current_range_meters":12800,"station_id":"st_cvj6r9ubvosntc0bgbag","pricing_plan_id":"cebpf4jnsgd1na2vs0mg"},{"bike_id":"3d9f2061-7fb9-4387-9262-8d2451911c2b","system_id":"levelo_inurba_marseille","lat":43.22926,"lon":5.35381,"is_reserved":false,"is_disabled":false,"rental_uris":{"android":"levelo://app?vid=3d9f2061-7fb9-4387-9262-8d2451911c2b","ios":"levelo://app?vid=3d9f2061-7fb9-4387-9262-8d2451911c2b"},"vehicle_type_id":"4","last_reported":1753802029,"current_range_meters":12800,"station_id":"cpo3532slgdg3j2ikp40","pricing_plan_id":"cebpf4jnsgd1na2vs0mg"},{"bike_id":"1c2cee29-6d27-4bdf-b97c-eecf71616341","system_id":"levelo_inurba_marseille","lat":43.23178,"lon":5.35565,"is_reserved":false,"is_disabled":false,"rental_uris":{"android":"levelo://app?vid=1c2cee29-6d27-4bdf-b97c-eecf71616341","ios":"levelo://app?vid=1c2cee29-6d27-4bdf-b97c-eecf71616341"},"vehicle_type_id":"4","last_reported":1753802029,"current_range_meters":13600,"station_id":"ce4bhu92rcd13ifvqi70","pricing_plan_id":"cebpf4jnsgd1na2vs0mg"},{"bike_id":"e101e50b-21bd-45a0-b214-c938397e4d5c","system_id":"levelo_inurba_marseille","lat":43.26937,"lon":5.38916,"is_reserved":false,"is_disabled":false,"rental_uris":{"android":"levelo://app?vid=e101e50b-21bd-45a0-b214-c938397e4d5c","ios":"levelo://app?vid=e101e50b-21bd-45a0-b214-c938397e4d5c"},"vehicle_type_id":"4","last_reported":1753802029,"current_range_meters":13600,"station_id":"ce4bhhh2rcd13ifvqfl0","pricing_plan_id":"cebpf4jnsgd1na2vs0mg"},{"bike_id":"73367fd7-3df8-4b2f-b346-77cb93967851","system_id":"levelo_inurba_marseille","lat":43.278839,"lon":5.387789,"is_reserved":false,"is_disabled":false,"rental_uris":{"android":"levelo://app?vid=73367fd7-3df8-4b2f-b346-77cb93967851","ios":"levelo://app?vid=73367fd7-3df8-4b2f-b346-77cb93967851"},"vehicle_type_id":"4","last_reported":1753802029,"current_range_meters":13600,"station_id":"ce4bhi12rcd13ifvqfo0","pricing_plan_id":"cebpf4jnsgd1na2vs0mg"},{"bike_id":"e137dc03-26cf-440c-b3ea-1ea522645199","system_id":"levelo_inurba_marseille","lat":43.280815,"lon":5.396626,"is_reserved":false,"is_disabled":false,"rental_uris":{"android":"levelo://app?vid=e137dc03-26cf-440c-b3ea-1ea522645199","ios":"levelo://app?vid=e137dc03-26cf-440c-b3ea-1ea522645199"},"vehicle_type_id":"4","last_reported":1753802029,"current_range_meters":13600,"station_id":"","pricing_plan_id":"cebpf4jnsgd1na2vs0mg"},{"bike_id":"e0e6f85d-cbe2-4ea1-8a76-5c79a838094f","system_id":"levelo_inurba_marseille","lat":43.23062,"lon":5.35493,"is_reserved":false,"is_disabled":false,"rental_uris":{"android":"levelo://app?vid=e0e6f85d-cbe2-4ea1-8a76-5c79a838094f","ios":"levelo://app?vid=e0e6f85d-cbe2-4ea1-8a76-5c79a838094f"},"vehicle_type_id":"4","last_reported":1753802029,"current_range_meters":13600,"station_id":"cpo3342slgdg3j2ifvpg","pricing_plan_id":"cebpf4jnsgd1na2vs0mg"},{"bike_id":"371878f2-4b75-4c38-89d2-bbd6e0178058","system_id":"levelo_inurba_marseille","lat":43.28268,"lon":5.35069,"is_reserved":false,"is_disabled":false,"rental_uris":{"android":"levelo://app?vid=371878f2-4b75-4c38-89d2-bbd6e0178058","ios":"levelo://app?vid=371878f2-4b75-4c38-89d2-bbd6e0178058"},"vehicle_type_id":"4","last_reported":1753802029,"current_range_meters":13600,"station_id":"ce4bhbp2rcd13ifvqerg","pricing_plan_id":"cebpf4jnsgd1na2vs0mg"},{"bike_id":"4ffc9d79-d56a-482d-b7d9-a5892348f435","system_id":"levelo_inurba_marseille","lat":43.28414,"lon":5.34991,"is_reserved":false,"is_disabled":false,"rental_uris":{"android":"levelo://app?vid=4ffc9d79-d56a-482d-b7d9-a5892348f435","ios":"levelo://app?vid=4ffc9d79-d56a-482d-b7d9-a5892348f435"},"vehicle_type_id":"4","last_reported":1753802029,"current_range_meters":14000,"station_id":"ce4bhbh2rcd13ifvqepg","pricing_plan_id":"cebpf4jnsgd1na2vs0mg"},{"bike_id":"13886c75-e622-4209-9da9-5aeb03c3a8ea","system_id":"levelo_inurba_marseille","lat":43.28415,"lon":5.34998,"is_reserved":false,"is_disabled":false,"rental_uris":{"android":"levelo://app?vid=13886c75-e622-4209-9da9-5aeb03c3a8ea","ios":"levelo://app?vid=13886c75-e622-4209-9da9-5aeb03c3a8ea"},"vehicle_type_id":"4","last_reported":1753802029,"current_range_meters":14000,"station_id":"ce4bhbh2rcd13ifvqepg","pricing_plan_id":"cebpf4jnsgd1na2vs0mg"},{"bike_id":"6417f94c-7833-42a3-8770-bee520a8551e","system_id":"levelo_inurba_marseille","lat":43.25017,"lon":5.38932,"is_reserved":false,"is_disabled":false,"rental_uris":{"android":"levelo://app?vid=6417f94c-7833-42a3-8770-bee520a8551e","ios":"levelo://app?vid=6417f94c-7833-42a3-8770-bee520a8551e"},"vehicle_type_id":"4","last_reported":1753802029,"current_range_meters":14000,"station_id":"ce4bhgp2rcd13ifvqfd0","pricing_plan_id":"cebpf4jnsgd1na2vs0mg"},{"bike_id":"5dfabdc2-b806-44aa-94b4-47dba92b8204","system_id":"levelo_inurba_marseille","lat":43.229321,"lon":5.353873,"is_reserved":false,"is_disabled":false,"rental_uris":{"android":"levelo://app?vid=5dfabdc2-b806-44aa-94b4-47dba92b8204","ios":"levelo://app?vid=5dfabdc2-b806-44aa-94b4-47dba92b8204"},"vehicle_type_id":"4","last_reported":1753802029,"current_range_meters":14000,"station_id":"cpo3532slgdg3j2ikp40","pricing_plan_id":"cebpf4jnsgd1na2vs0mg"},{"bike_id":"75aa074a-8804-4fec-88d9-260a8abf5ca1","system_id":"levelo_inurba_marseille","lat":43.2655,"lon":5.37295,"is_reserved":false,"is_disabled":false,"rental_uris":{"android":"levelo://app?vid=75aa074a-8804-4fec-88d9-260a8abf5ca1","ios":"levelo://app?vid=75aa074a-8804-4fec-88d9-260a8abf5ca1"},"vehicle_type_id":"4","last_reported":1753802029,"current_range_meters":14000,"station_id":"ce4bhg12rcd13ifvqf70","pricing_plan_id":"cebpf4jnsgd1na2vs0mg"},{"bike_id":"248f93b9-0385-40cd-b314-ff9a02343996","system_id":"levelo_inurba_marseille","lat":43.26575,"lon":5.39012,"is_reserved":false,"is_disabled":false,"rental_uris":{"android":"levelo://app?vid=248f93b9-0385-40cd-b314-ff9a02343996","ios":"levelo://app?vid=248f93b9-0385-40cd-b314-ff9a02343996"},"vehicle_type_id":"4","last_reported":1753802029,"current_range_meters":14000,"station_id":"ce4bhe12rcd13ifvqf30","pricing_plan_id":"cebpf4jnsgd1na2vs0mg"},{"bike_id":"7f3262f8-b9db-4ce0-9f33-68bc0d73023a","system_id":"levelo_inurba_marseille","lat":43.29219,"lon":5.36034,"is_reserved":false,"is_disabled":false,"rental_uris":{"android":"levelo://app?vid=7f3262f8-b9db-4ce0-9f33-68bc0d73023a","ios":"levelo://app?vid=7f3262f8-b9db-4ce0-9f33-68bc0d73023a"},"vehicle_type_id":"4","last_reported":1753802029,"current_range_meters":14000,"station_id":"ce4bhbh2rcd13ifvqeqg","pricing_plan_id":"cebpf4jnsgd1na2vs0mg"},{"bike_id":"e08e0047-3d28-4501-931c-d60f557708bc","system_id":"levelo_inurba_marseille","lat":43.28449,"lon":5.39206,"is_reserved":false,"is_disabled":false,"rental_uris":{"android":"levelo://app?vid=e08e0047-3d28-4501-931c-d60f557708bc","ios":"levelo://app?vid=e08e0047-3d28-4501-931c-d60f557708bc"},"vehicle_type_id":"4","last_reported":1753802029,"current_range_meters":14800,"station_id":"ce4bhoh2rcd13ifvqh5g","pricing_plan_id":"cebpf4jnsgd1na2vs0mg"},{"bike_id":"73c28b44-fb9a-4083-b9eb-e60de241e4cb","system_id":"levelo_inurba_marseille","lat":43.32373,"lon":5.38887,"is_reserved":false,"is_disabled":false,"rental_uris":{"android":"levelo://app?vid=73c28b44-fb9a-4083-b9eb-e60de241e4cb","ios":"levelo://app?vid=73c28b44-fb9a-4083-b9eb-e60de241e4cb"},"vehicle_type_id":"4","last_reported":1753802029,"current_range_meters":14400,"station_id":"ce4bhqp2rcd13ifvqhog","pricing_plan_id":"cebpf4jnsgd1na2vs0mg"},{"bike_id":"a71cdfa7-3a0a-4b0c-8f76-b68ffae70e4f","system_id":"levelo_inurba_marseille","lat":43.291961,"lon":5.357986,"is_reserved":false,"is_disabled":false,"rental_uris":{"android":"levelo://app?vid=a71cdfa7-3a0a-4b0c-8f76-b68ffae70e4f","ios":"levelo://app?vid=a71cdfa7-3a0a-4b0c-8f76-b68ffae70e4f"},"vehicle_type_id":"4","last_reported":1753802029,"current_range_meters":14400,"station_id":"ce4bhb12rcd13ifvqel0","pricing_plan_id":"cebpf4jnsgd1na2vs0mg"},{"bike_id":"4c5cd655-33cc-4c97-9a36-e4ecd4d82554","system_id":"levelo_inurba_marseille","lat":43.282765,"lon":5.350684,"is_reserved":false,"is_disabled":false,"rental_uris":{"android":"levelo://app?vid=4c5cd655-33cc-4c97-9a36-e4ecd4d82554","ios":"levelo://app?vid=4c5cd655-33cc-4c97-9a36-e4ecd4d82554"},"vehicle_type_id":"4","last_reported":1753802029,"current_range_meters":14400,"station_id":"ce4bhbp2rcd13ifvqerg","pricing_plan_id":"cebpf4jnsgd1na2vs0mg"},{"bike_id":"a5d21f19-a2f8-4c79-9341-84f97b97beb0","system_id":"levelo_inurba_marseille","lat":43.33408,"lon":5.40074,"is_reserved":false,"is_disabled":false,"rental_uris":{"android":"levelo://app?vid=a5d21f19-a2f8-4c79-9341-84f97b97beb0","ios":"levelo://app?vid=a5d21f19-a2f8-4c79-9341-84f97b97beb0"},"vehicle_type_id":"4","last_reported":1753802029,"current_range_meters":14400,"station_id":"","pricing_plan_id":"cebpf4jnsgd1na2vs0mg"},{"bike_id":"0284b153-ed18-4aff-854a-398618bd67fc","system_id":"levelo_inurba_marseille","lat":43.284211,"lon":5.3499,"is_reserved":false,"is_disabled":false,"rental_uris":{"android":"levelo://app?vid=0284b153-ed18-4aff-854a-398618bd67fc","ios":"levelo://app?vid=0284b153-ed18-4aff-854a-398618bd67fc"},"vehicle_type_id":"4","last_reported":1753802029,"current_range_meters":14400,"station_id":"ce4bhbh2rcd13ifvqepg","pricing_plan_id":"cebpf4jnsgd1na2vs0mg"},{"bike_id":"0dc99cab-1546-4588-8ef9-e9c6ae8e0a6f","system_id":"levelo_inurba_marseille","lat":43.230575,"lon":5.35491,"is_reserved":false,"is_disabled":false,"rental_uris":{"android":"levelo://app?vid=0dc99cab-1546-4588-8ef9-e9c6ae8e0a6f","ios":"levelo://app?vid=0dc99cab-1546-4588-8ef9-e9c6ae8e0a6f"},"vehicle_type_id":"4","last_reported":1753802029,"current_range_meters":14400,"station_id":"cpo3342slgdg3j2ifvpg","pricing_plan_id":"cebpf4jnsgd1na2vs0mg"},{"bike_id":"82bde7ca-70b9-4f0e-a19f-f761e37d819e","system_id":"levelo_inurba_marseille","lat":43.28424,"lon":5.34998,"is_reserved":false,"is_disabled":false,"rental_uris":{"android":"levelo://app?vid=82bde7ca-70b9-4f0e-a19f-f761e37d819e","ios":"levelo://app?vid=82bde7ca-70b9-4f0e-a19f-f761e37d819e"},"vehicle_type_id":"4","last_reported":1753802029,"current_range_meters":14400,"station_id":"ce4bhbh2rcd13ifvqepg","pricing_plan_id":"cebpf4jnsgd1na2vs0mg"},{"bike_id":"590af998-9244-4ce2-be55-4177d8c9c195","system_id":"levelo_inurba_marseille","lat":43.30884,"lon":5.37199,"is_reserved":false,"is_disabled":false,"rental_uris":{"android":"levelo://app?vid=590af998-9244-4ce2-be55-4177d8c9c195","ios":"levelo://app?vid=590af998-9244-4ce2-be55-4177d8c9c195"},"vehicle_type_id":"4","last_reported":1753802029,"current_range_meters":14800,"station_id":"ce4bguh2rcd13ifvqckg","pricing_plan_id":"cebpf4jnsgd1na2vs0mg"},{"bike_id":"2f5a766e-3ece-4a36-9442-eef7b36a8a22","system_id":"levelo_inurba_marseille","lat":43.2481,"lon":5.37459,"is_reserved":false,"is_disabled":false,"rental_uris":{"android":"levelo://app?vid=2f5a766e-3ece-4a36-9442-eef7b36a8a22","ios":"levelo://app?vid=2f5a766e-3ece-4a36-9442-eef7b36a8a22"},"vehicle_type_id":"4","last_reported":1753802029,"current_range_meters":14800,"station_id":"ce4bhgh2rcd13ifvqfb0","pricing_plan_id":"cebpf4jnsgd1na2vs0mg"},{"bike_id":"7ae9a301-af81-4c61-b264-f97fbac78c92","system_id":"levelo_inurba_marseille","lat":43.24815,"lon":5.37465,"is_reserved":false,"is_disabled":false,"rental_uris":{"android":"levelo://app?vid=7ae9a301-af81-4c61-b264-f97fbac78c92","ios":"levelo://app?vid=7ae9a301-af81-4c61-b264-f97fbac78c92"},"vehicle_type_id":"4","last_reported":1753802029,"current_range_meters":14800,"station_id":"ce4bhgh2rcd13ifvqfb0","pricing_plan_id":"cebpf4jnsgd1na2vs0mg"},{"bike_id":"bc4d347a-7cbd-4834-a15f-6ff631d3f07c","system_id":"levelo_inurba_marseille","lat":43.25729,"lon":5.41094,"is_reserved":false,"is_disabled":false,"rental_uris":{"android":"levelo://app?vid=bc4d347a-7cbd-4834-a15f-6ff631d3f07c","ios":"levelo://app?vid=bc4d347a-7cbd-4834-a15f-6ff631d3f07c"},"vehicle_type_id":"4","last_reported":1753802029,"current_range_meters":14800,"station_id":"ce4bhkp2rcd13ifvqgd0","pricing_plan_id":"cebpf4jnsgd1na2vs0mg"},{"bike_id":"a027973f-c8c9-4811-a512-806c935b4c27","system_id":"levelo_inurba_marseille","lat":43.21195,"lon":5.35067,"is_reserved":false,"is_disabled":true,"rental_uris":{"android":"levelo://app?vid=a027973f-c8c9-4811-a512-806c935b4c27","ios":"levelo://app?vid=a027973f-c8c9-4811-a512-806c935b4c27"},"vehicle_type_id":"4","last_reported":1753802029,"current_range_meters":14800,"station_id":"st_cvj6sg6p6f1abm77japg","pricing_plan_id":"cebpf4jnsgd1na2vs0mg"},{"bike_id":"b7234136-bf62-4ef1-9964-a9c43529d354","system_id":"levelo_inurba_marseille","lat":43.31816,"lon":5.39438,"is_reserved":false,"is_disabled":false,"rental_uris":{"android":"levelo://app?vid=b7234136-bf62-4ef1-9964-a9c43529d354","ios":"levelo://app?vid=b7234136-bf62-4ef1-9964-a9c43529d354"},"vehicle_type_id":"4","last_reported":1753802029,"current_range_meters":14800,"station_id":"","pricing_plan_id":"cebpf4jnsgd1na2vs0mg"},{"bike_id":"d8e6094c-0de7-412e-bab8-3969f4a35524","system_id":"levelo_inurba_marseille","lat":43.29847,"lon":5.37574,"is_reserved":false,"is_disabled":false,"rental_uris":{"android":"levelo://app?vid=d8e6094c-0de7-412e-bab8-3969f4a35524","ios":"levelo://app?vid=d8e6094c-0de7-412e-bab8-3969f4a35524"},"vehicle_type_id":"4","last_reported":1753802029,"current_range_meters":14800,"station_id":"","pricing_plan_id":"cebpf4jnsgd1na2vs0mg"},{"bike_id":"f8dc5321-8955-4a32-a70e-fa1dc7d0e8d6","system_id":"levelo_inurba_marseille","lat":43.28419,"lon":5.34984,"is_reserved":false,"is_disabled":false,"rental_uris":{"android":"levelo://app?vid=f8dc5321-8955-4a32-a70e-fa1dc7d0e8d6","ios":"levelo://app?vid=f8dc5321-8955-4a32-a70e-fa1dc7d0e8d6"},"vehicle_type_id":"4","last_reported":1753802029,"current_range_meters":14800,"station_id":"ce4bhbh2rcd13ifvqepg","pricing_plan_id":"cebpf4jnsgd1na2vs0mg"},{"bike_id":"28625a05-7e86-4728-8d8f-7db6dbb657d6","system_id":"levelo_inurba_marseille","lat":43.27676,"lon":5.38877,"is_reserved":false,"is_disabled":false,"rental_uris":{"android":"levelo://app?vid=28625a05-7e86-4728-8d8f-7db6dbb657d6","ios":"levelo://app?vid=28625a05-7e86-4728-8d8f-7db6dbb657d6"},"vehicle_type_id":"4","last_reported":1753802029,"current_range_meters":15200,"station_id":"ce4bhi12rcd13ifvqfo0","pricing_plan_id":"cebpf4jnsgd1na2vs0mg"},{"bike_id":"e8a0c05d-7272-4138-a1f4-e9de17058e9b","system_id":"levelo_inurba_marseille","lat":43.28274,"lon":5.35065,"is_reserved":false,"is_disabled":true,"rental_uris":{"android":"levelo://app?vid=e8a0c05d-7272-4138-a1f4-e9de17058e9b","ios":"levelo://app?vid=e8a0c05d-7272-4138-a1f4-e9de17058e9b"},"vehicle_type_id":"4","last_reported":1753802029,"current_range_meters":15200,"station_id":"ce4bhbp2rcd13ifvqerg","pricing_plan_id":"cebpf4jnsgd1na2vs0mg"},{"bike_id":"0b90fd43-2f58-415c-b6c6-0d49d6d91bc7","system_id":"levelo_inurba_marseille","lat":43.2883,"lon":5.3587,"is_reserved":false,"is_disabled":false,"rental_uris":{"android":"levelo://app?vid=0b90fd43-2f58-415c-b6c6-0d49d6d91bc7","ios":"levelo://app?vid=0b90fd43-2f58-415c-b6c6-0d49d6d91bc7"},"vehicle_type_id":"4","last_reported":1753802029,"current_range_meters":15200,"station_id":"ce4bhb12rcd13ifvqem0","pricing_plan_id":"cebpf4jnsgd1na2vs0mg"},{"bike_id":"76ff30d2-d14b-4ecc-a4b3-f7d7f258f0e1","system_id":"levelo_inurba_marseille","lat":43.28611,"lon":5.37061,"is_reserved":false,"is_disabled":false,"rental_uris":{"android":"levelo://app?vid=76ff30d2-d14b-4ecc-a4b3-f7d7f258f0e1","ios":"levelo://app?vid=76ff30d2-d14b-4ecc-a4b3-f7d7f258f0e1"},"vehicle_type_id":"4","last_reported":1753802029,"current_range_meters":15200,"station_id":"","pricing_plan_id":"cebpf4jnsgd1na2vs0mg"},{"bike_id":"9fb67c58-13f4-407e-b540-634fa5208cc9","system_id":"levelo_inurba_marseille","lat":43.28268,"lon":5.35064,"is_reserved":false,"is_disabled":false,"rental_uris":{"android":"levelo://app?vid=9fb67c58-13f4-407e-b540-634fa5208cc9","ios":"levelo://app?vid=9fb67c58-13f4-407e-b540-634fa5208cc9"},"vehicle_type_id":"4","last_reported":1753802029,"current_range_meters":15200,"station_id":"ce4bhbp2rcd13ifvqerg","pricing_plan_id":"cebpf4jnsgd1na2vs0mg"},{"bike_id":"6ad44a24-4533-4da0-9fd0-e52d1925d207","system_id":"levelo_inurba_marseille","lat":43.229264,"lon":5.353827,"is_reserved":false,"is_disabled":false,"rental_uris":{"android":"levelo://app?vid=6ad44a24-4533-4da0-9fd0-e52d1925d207","ios":"levelo://app?vid=6ad44a24-4533-4da0-9fd0-e52d1925d207"},"vehicle_type_id":"4","last_reported":1753802029,"current_range_meters":16000,"station_id":"cpo3532slgdg3j2ikp40","pricing_plan_id":"cebpf4jnsgd1na2vs0mg"},{"bike_id":"5b87f277-f056-49e4-b30e-61c7f334baf1","system_id":"levelo_inurba_marseille","lat":43.26235,"lon":5.4045,"is_reserved":false,"is_disabled":false,"rental_uris":{"android":"levelo://app?vid=5b87f277-f056-49e4-b30e-61c7f334baf1","ios":"levelo://app?vid=5b87f277-f056-49e4-b30e-61c7f334baf1"},"vehicle_type_id":"4","last_reported":1753802029,"current_range_meters":16000,"station_id":"ce4bhmh2rcd13ifvqgmg","pricing_plan_id":"cebpf4jnsgd1na2vs0mg"},{"bike_id":"96f2817b-2168-4f43-87e5-f90384c5b505","system_id":"levelo_inurba_marseille","lat":43.23203,"lon":5.35541,"is_reserved":false,"is_disabled":false,"rental_uris":{"android":"levelo://app?vid=96f2817b-2168-4f43-87e5-f90384c5b505","ios":"levelo://app?vid=96f2817b-2168-4f43-87e5-f90384c5b505"},"vehicle_type_id":"4","last_reported":1753802029,"current_range_meters":16000,"station_id":"ce4bhu92rcd13ifvqi70","pricing_plan_id":"cebpf4jnsgd1na2vs0mg"},{"bike_id":"4bb9d00d-14a8-4971-8b13-50318202f61e","system_id":"levelo_inurba_marseille","lat":43.29099,"lon":5.38139,"is_reserved":false,"is_disabled":false,"rental_uris":{"android":"levelo://app?vid=4bb9d00d-14a8-4971-8b13-50318202f61e","ios":"levelo://app?vid=4bb9d00d-14a8-4971-8b13-50318202f61e"},"vehicle_type_id":"4","last_reported":1753802029,"current_range_meters":16000,"station_id":"ce4bh512rcd13ifvqe2g","pricing_plan_id":"cebpf4jnsgd1na2vs0mg"},{"bike_id":"2d3500d6-bdc5-47ef-9b89-86db267cde5e","system_id":"levelo_inurba_marseille","lat":43.28483,"lon":5.38441,"is_reserved":false,"is_disabled":false,"rental_uris":{"android":"levelo://app?vid=2d3500d6-bdc5-47ef-9b89-86db267cde5e","ios":"levelo://app?vid=2d3500d6-bdc5-47ef-9b89-86db267cde5e"},"vehicle_type_id":"4","last_reported":1753802029,"current_range_meters":16000,"station_id":"ce4bh512rcd13ifvqe3g","pricing_plan_id":"cebpf4jnsgd1na2vs0mg"},{"bike_id":"3e632e67-e785-475b-93e1-b0a668624c02","system_id":"levelo_inurba_marseille","lat":43.28143,"lon":5.42644,"is_reserved":false,"is_disabled":false,"rental_uris":{"android":"levelo://app?vid=3e632e67-e785-475b-93e1-b0a668624c02","ios":"levelo://app?vid=3e632e67-e785-475b-93e1-b0a668624c02"},"vehicle_type_id":"4","last_reported":1753802029,"current_range_meters":16000,"station_id":"ce4bhnh2rcd13ifvqgug","pricing_plan_id":"cebpf4jnsgd1na2vs0mg"},{"bike_id":"ef65f066-de96-432a-a3bf-b1b3ad0e62a1","system_id":"levelo_inurba_marseille","lat":43.32113,"lon":5.36766,"is_reserved":false,"is_disabled":false,"rental_uris":{"android":"levelo://app?vid=ef65f066-de96-432a-a3bf-b1b3ad0e62a1","ios":"levelo://app?vid=ef65f066-de96-432a-a3bf-b1b3ad0e62a1"},"vehicle_type_id":"4","last_reported":1753802029,"current_range_meters":16000,"station_id":"ce4bhrh2rcd13ifvqhug","pricing_plan_id":"cebpf4jnsgd1na2vs0mg"},{"bike_id":"ab9c577b-9cc3-4d9b-9e71-2ee231744295","system_id":"levelo_inurba_marseille","lat":43.281212,"lon":5.38335,"is_reserved":false,"is_disabled":false,"rental_uris":{"android":"levelo://app?vid=ab9c577b-9cc3-4d9b-9e71-2ee231744295","ios":"levelo://app?vid=ab9c577b-9cc3-4d9b-9e71-2ee231744295"},"vehicle_type_id":"4","last_reported":1753802029,"current_range_meters":16400,"station_id":"","pricing_plan_id":"cebpf4jnsgd1na2vs0mg"},{"bike_id":"b9d1584e-b290-4358-969e-2ed4ca58eaad","system_id":"levelo_inurba_marseille","lat":43.24016,"lon":5.365335,"is_reserved":false,"is_disabled":false,"rental_uris":{"android":"levelo://app?vid=b9d1584e-b290-4358-969e-2ed4ca58eaad","ios":"levelo://app?vid=b9d1584e-b290-4358-969e-2ed4ca58eaad"},"vehicle_type_id":"4","last_reported":1753802029,"current_range_meters":16400,"station_id":"","pricing_plan_id":"cebpf4jnsgd1na2vs0mg"},{"bike_id":"a16d408b-87b7-4ea5-b6d0-ce9b4fba403c","system_id":"levelo_inurba_marseille","lat":43.28606,"lon":5.37065,"is_reserved":false,"is_disabled":false,"rental_uris":{"android":"levelo://app?vid=a16d408b-87b7-4ea5-b6d0-ce9b4fba403c","ios":"levelo://app?vid=a16d408b-87b7-4ea5-b6d0-ce9b4fba403c"},"vehicle_type_id":"4","last_reported":1753802029,"current_range_meters":16400,"station_id":"ce4bht12rcd13ifvqi60","pricing_plan_id":"cebpf4jnsgd1na2vs0mg"},{"bike_id":"2c66b562-6499-4aaa-b037-4406411b2ae5","system_id":"levelo_inurba_marseille","lat":43.29553,"lon":5.42292,"is_reserved":false,"is_disabled":false,"rental_uris":{"android":"levelo://app?vid=2c66b562-6499-4aaa-b037-4406411b2ae5","ios":"levelo://app?vid=2c66b562-6499-4aaa-b037-4406411b2ae5"},"vehicle_type_id":"4","last_reported":1753802029,"current_range_meters":16400,"station_id":"ce4bhph2rcd13ifvqhdg","pricing_plan_id":"cebpf4jnsgd1na2vs0mg"},{"bike_id":"3295fd34-7607-4135-beed-a8cd63ab4d4e","system_id":"levelo_inurba_marseille","lat":43.27373,"lon":5.36256,"is_reserved":false,"is_disabled":false,"rental_uris":{"android":"levelo://app?vid=3295fd34-7607-4135-beed-a8cd63ab4d4e","ios":"levelo://app?vid=3295fd34-7607-4135-beed-a8cd63ab4d4e"},"vehicle_type_id":"4","last_reported":1753802029,"current_range_meters":16400,"station_id":"ce4bhbh2rcd13ifvqeo0","pricing_plan_id":"cebpf4jnsgd1na2vs0mg"},{"bike_id":"3c65e3a4-d98b-4db2-8d36-951b9612ba65","system_id":"levelo_inurba_marseille","lat":43.23186,"lon":5.355601,"is_reserved":false,"is_disabled":false,"rental_uris":{"android":"levelo://app?vid=3c65e3a4-d98b-4db2-8d36-951b9612ba65","ios":"levelo://app?vid=3c65e3a4-d98b-4db2-8d36-951b9612ba65"},"vehicle_type_id":"4","last_reported":1753802029,"current_range_meters":16400,"station_id":"ce4bhu92rcd13ifvqi70","pricing_plan_id":"cebpf4jnsgd1na2vs0mg"},{"bike_id":"e293ed13-a5f8-47d4-bbe1-9c9b52c0a2e5","system_id":"levelo_inurba_marseille","lat":43.28987,"lon":5.3783,"is_reserved":false,"is_disabled":true,"rental_uris":{"android":"levelo://app?vid=e293ed13-a5f8-47d4-bbe1-9c9b52c0a2e5","ios":"levelo://app?vid=e293ed13-a5f8-47d4-bbe1-9c9b52c0a2e5"},"vehicle_type_id":"4","last_reported":1753802029,"current_range_meters":16400,"station_id":"ce4bh9p2rcd13ifvqed0","pricing_plan_id":"cebpf4jnsgd1na2vs0mg"},{"bike_id":"45141418-1de7-4321-a5ac-3e73e63f79d2","system_id":"levelo_inurba_marseille","lat":43.28432,"lon":5.34969,"is_reserved":false,"is_disabled":false,"rental_uris":{"android":"levelo://app?vid=45141418-1de7-4321-a5ac-3e73e63f79d2","ios":"levelo://app?vid=45141418-1de7-4321-a5ac-3e73e63f79d2"},"vehicle_type_id":"4","last_reported":1753802029,"current_range_meters":16400,"station_id":"ce4bhbh2rcd13ifvqepg","pricing_plan_id":"cebpf4jnsgd1na2vs0mg"},{"bike_id":"bcd4db20-7cfd-4c69-92d5-9b1c35a388f7","system_id":"levelo_inurba_marseille","lat":43.23074,"lon":5.35491,"is_reserved":false,"is_disabled":false,"rental_uris":{"android":"levelo://app?vid=bcd4db20-7cfd-4c69-92d5-9b1c35a388f7","ios":"levelo://app?vid=bcd4db20-7cfd-4c69-92d5-9b1c35a388f7"},"vehicle_type_id":"4","last_reported":1753802029,"current_range_meters":16800,"station_id":"cpo3342slgdg3j2ifvpg","pricing_plan_id":"cebpf4jnsgd1na2vs0mg"},{"bike_id":"b284b620-aa7d-4811-a5e8-71e127544b9e","system_id":"levelo_inurba_marseille","lat":43.30907,"lon":5.37215,"is_reserved":false,"is_disabled":false,"rental_uris":{"android":"levelo://app?vid=b284b620-aa7d-4811-a5e8-71e127544b9e","ios":"levelo://app?vid=b284b620-aa7d-4811-a5e8-71e127544b9e"},"vehicle_type_id":"4","last_reported":1753802029,"current_range_meters":16800,"station_id":"ce4bguh2rcd13ifvqckg","pricing_plan_id":"cebpf4jnsgd1na2vs0mg"},{"bike_id":"863b2e2b-1f2d-4c94-b7fc-5e3cf1d176ec","system_id":"levelo_inurba_marseille","lat":43.32109,"lon":5.36812,"is_reserved":false,"is_disabled":false,"rental_uris":{"android":"levelo://app?vid=863b2e2b-1f2d-4c94-b7fc-5e3cf1d176ec","ios":"levelo://app?vid=863b2e2b-1f2d-4c94-b7fc-5e3cf1d176ec"},"vehicle_type_id":"4","last_reported":1753802029,"current_range_meters":16800,"station_id":"ce4bhrh2rcd13ifvqhug","pricing_plan_id":"cebpf4jnsgd1na2vs0mg"},{"bike_id":"eb385f98-c550-4c9d-99fd-8ca76106c286","system_id":"levelo_inurba_marseille","lat":43.26214,"lon":5.3744,"is_reserved":false,"is_disabled":false,"rental_uris":{"android":"levelo://app?vid=eb385f98-c550-4c9d-99fd-8ca76106c286","ios":"levelo://app?vid=eb385f98-c550-4c9d-99fd-8ca76106c286"},"vehicle_type_id":"4","last_reported":1753802029,"current_range_meters":16800,"station_id":"ce4bhgp2rcd13ifvqfc0","pricing_plan_id":"cebpf4jnsgd1na2vs0mg"},{"bike_id":"daabd21d-fe72-4bef-9caa-c5886e1b6fe4","system_id":"levelo_inurba_marseille","lat":43.31967,"lon":5.37386,"is_reserved":false,"is_disabled":false,"rental_uris":{"android":"levelo://app?vid=daabd21d-fe72-4bef-9caa-c5886e1b6fe4","ios":"levelo://app?vid=daabd21d-fe72-4bef-9caa-c5886e1b6fe4"},"vehicle_type_id":"4","last_reported":1753802029,"current_range_meters":16800,"station_id":"","pricing_plan_id":"cebpf4jnsgd1na2vs0mg"},{"bike_id":"00de3457-bb26-4f86-be97-d29604933a4d","system_id":"levelo_inurba_marseille","lat":43.286388,"lon":5.371872,"is_reserved":false,"is_disabled":false,"rental_uris":{"android":"levelo://app?vid=00de3457-bb26-4f86-be97-d29604933a4d","ios":"levelo://app?vid=00de3457-bb26-4f86-be97-d29604933a4d"},"vehicle_type_id":"4","last_reported":1753802029,"current_range_meters":16800,"station_id":"","pricing_plan_id":"cebpf4jnsgd1na2vs0mg"},{"bike_id":"2a764c8f-72d4-4cc8-beed-70a7bd6ad2b4","system_id":"levelo_inurba_marseille","lat":43.24663,"lon":5.38164,"is_reserved":false,"is_disabled":false,"rental_uris":{"android":"levelo://app?vid=2a764c8f-72d4-4cc8-beed-70a7bd6ad2b4","ios":"levelo://app?vid=2a764c8f-72d4-4cc8-beed-70a7bd6ad2b4"},"vehicle_type_id":"4","last_reported":1753802029,"current_range_meters":17200,"station_id":"ce4bhih2rcd13ifvqfr0","pricing_plan_id":"cebpf4jnsgd1na2vs0mg"},{"bike_id":"135ab1ea-fc9a-4785-9240-6bfa3adf7c7c","system_id":"levelo_inurba_marseille","lat":43.32369,"lon":5.36771,"is_reserved":false,"is_disabled":false,"rental_uris":{"android":"levelo://app?vid=135ab1ea-fc9a-4785-9240-6bfa3adf7c7c","ios":"levelo://app?vid=135ab1ea-fc9a-4785-9240-6bfa3adf7c7c"},"vehicle_type_id":"4","last_reported":1753802029,"current_range_meters":17200,"station_id":"ce4bhsh2rcd13ifvqi2g","pricing_plan_id":"cebpf4jnsgd1na2vs0mg"},{"bike_id":"eefe40c6-052e-444e-9ada-c575e923c128","system_id":"levelo_inurba_marseille","lat":43.29522,"lon":5.39399,"is_reserved":false,"is_disabled":false,"rental_uris":{"android":"levelo://app?vid=eefe40c6-052e-444e-9ada-c575e923c128","ios":"levelo://app?vid=eefe40c6-052e-444e-9ada-c575e923c128"},"vehicle_type_id":"4","last_reported":1753802029,"current_range_meters":17200,"station_id":"ce4bh292rcd13ifvqdf0","pricing_plan_id":"cebpf4jnsgd1na2vs0mg"},{"bike_id":"04a0a857-f250-46d4-b434-1e74374a0a2a","system_id":"levelo_inurba_marseille","lat":43.30893,"lon":5.36866,"is_reserved":false,"is_disabled":false,"rental_uris":{"android":"levelo://app?vid=04a0a857-f250-46d4-b434-1e74374a0a2a","ios":"levelo://app?vid=04a0a857-f250-46d4-b434-1e74374a0a2a"},"vehicle_type_id":"4","last_reported":1753802029,"current_range_meters":17200,"station_id":"ce4bgn92rcd13ifvqbvg","pricing_plan_id":"cebpf4jnsgd1na2vs0mg"},{"bike_id":"843bf82c-bde5-4e68-b8d3-e332dd30886f","system_id":"levelo_inurba_marseille","lat":43.24806,"lon":5.37459,"is_reserved":false,"is_disabled":false,"rental_uris":{"android":"levelo://app?vid=843bf82c-bde5-4e68-b8d3-e332dd30886f","ios":"levelo://app?vid=843bf82c-bde5-4e68-b8d3-e332dd30886f"},"vehicle_type_id":"4","last_reported":1753802029,"current_range_meters":17200,"station_id":"ce4bhgh2rcd13ifvqfb0","pricing_plan_id":"cebpf4jnsgd1na2vs0mg"},{"bike_id":"d2a74895-e846-45f5-a706-f79dccbdde17","system_id":"levelo_inurba_marseille","lat":43.28613,"lon":5.351,"is_reserved":false,"is_disabled":false,"rental_uris":{"android":"levelo://app?vid=d2a74895-e846-45f5-a706-f79dccbdde17","ios":"levelo://app?vid=d2a74895-e846-45f5-a706-f79dccbdde17"},"vehicle_type_id":"4","last_reported":1753802029,"current_range_meters":17200,"station_id":"ce4bhch2rcd13ifvqeug","pricing_plan_id":"cebpf4jnsgd1na2vs0mg"},{"bike_id":"e835e740-02a8-4b55-b83d-8f7e332e158e","system_id":"levelo_inurba_marseille","lat":43.23066,"lon":5.35493,"is_reserved":false,"is_disabled":false,"rental_uris":{"android":"levelo://app?vid=e835e740-02a8-4b55-b83d-8f7e332e158e","ios":"levelo://app?vid=e835e740-02a8-4b55-b83d-8f7e332e158e"},"vehicle_type_id":"4","last_reported":1753802029,"current_range_meters":17200,"station_id":"cpo3342slgdg3j2ifvpg","pricing_plan_id":"cebpf4jnsgd1na2vs0mg"},{"bike_id":"5d7dd856-5f7f-4fc5-b98b-977b1f0a5c02","system_id":"levelo_inurba_marseille","lat":43.309309,"lon":5.401414,"is_reserved":false,"is_disabled":false,"rental_uris":{"android":"levelo://app?vid=5d7dd856-5f7f-4fc5-b98b-977b1f0a5c02","ios":"levelo://app?vid=5d7dd856-5f7f-4fc5-b98b-977b1f0a5c02"},"vehicle_type_id":"4","last_reported":1753802029,"current_range_meters":17200,"station_id":"ce4bgvp2rcd13ifvqct0","pricing_plan_id":"cebpf4jnsgd1na2vs0mg"},{"bike_id":"24ddc855-9db1-447b-8cc7-fb33f85a47fb","system_id":"levelo_inurba_marseille","lat":43.30595,"lon":5.37213,"is_reserved":false,"is_disabled":false,"rental_uris":{"android":"levelo://app?vid=24ddc855-9db1-447b-8cc7-fb33f85a47fb","ios":"levelo://app?vid=24ddc855-9db1-447b-8cc7-fb33f85a47fb"},"vehicle_type_id":"4","last_reported":1753802029,"current_range_meters":17200,"station_id":"ce4bgqh2rcd13ifvqc4g","pricing_plan_id":"cebpf4jnsgd1na2vs0mg"},{"bike_id":"ff87242a-451d-4689-ac15-5422906838ef","system_id":"levelo_inurba_marseille","lat":43.31692,"lon":5.37785,"is_reserved":false,"is_disabled":false,"rental_uris":{"android":"levelo://app?vid=ff87242a-451d-4689-ac15-5422906838ef","ios":"levelo://app?vid=ff87242a-451d-4689-ac15-5422906838ef"},"vehicle_type_id":"4","last_reported":1753802029,"current_range_meters":17200,"station_id":"ce4bgth2rcd13ifvqch0","pricing_plan_id":"cebpf4jnsgd1na2vs0mg"},{"bike_id":"c686771c-e4d6-4ee5-934b-f3ca190b833e","system_id":"levelo_inurba_marseille","lat":43.32765,"lon":5.39204,"is_reserved":false,"is_disabled":false,"rental_uris":{"android":"levelo://app?vid=c686771c-e4d6-4ee5-934b-f3ca190b833e","ios":"levelo://app?vid=c686771c-e4d6-4ee5-934b-f3ca190b833e"},"vehicle_type_id":"4","last_reported":1753802029,"current_range_meters":17200,"station_id":"","pricing_plan_id":"cebpf4jnsgd1na2vs0mg"},{"bike_id":"55c7b4b4-184e-4c1e-aaad-441f24ad4e6f","system_id":"levelo_inurba_marseille","lat":43.27377,"lon":5.36261,"is_reserved":false,"is_disabled":false,"rental_uris":{"android":"levelo://app?vid=55c7b4b4-184e-4c1e-aaad-441f24ad4e6f","ios":"levelo://app?vid=55c7b4b4-184e-4c1e-aaad-441f24ad4e6f"},"vehicle_type_id":"4","last_reported":1753802029,"current_range_meters":17600,"station_id":"ce4bhbh2rcd13ifvqeo0","pricing_plan_id":"cebpf4jnsgd1na2vs0mg"},{"bike_id":"a186bdc7-b9ff-4a98-8414-7f1cfa00d32e","system_id":"levelo_inurba_marseille","lat":43.30548,"lon":5.36713,"is_reserved":false,"is_disabled":false,"rental_uris":{"android":"levelo://app?vid=a186bdc7-b9ff-4a98-8414-7f1cfa00d32e","ios":"levelo://app?vid=a186bdc7-b9ff-4a98-8414-7f1cfa00d32e"},"vehicle_type_id":"4","last_reported":1753802029,"current_range_meters":17600,"station_id":"ce4bgrp2rcd13ifvqc9g","pricing_plan_id":"cebpf4jnsgd1na2vs0mg"},{"bike_id":"b48f5dd0-6dba-4454-bab2-8fe0e77c0439","system_id":"levelo_inurba_marseille","lat":43.24159,"lon":5.36416,"is_reserved":false,"is_disabled":false,"rental_uris":{"android":"levelo://app?vid=b48f5dd0-6dba-4454-bab2-8fe0e77c0439","ios":"levelo://app?vid=b48f5dd0-6dba-4454-bab2-8fe0e77c0439"},"vehicle_type_id":"4","last_reported":1753802029,"current_range_meters":17600,"station_id":"cpo36qri1sfpv3e86is0","pricing_plan_id":"cebpf4jnsgd1na2vs0mg"},{"bike_id":"64c0f7db-806d-4f64-9223-4dc39c52a1ee","system_id":"levelo_inurba_marseille","lat":43.29615,"lon":5.37575,"is_reserved":false,"is_disabled":false,"rental_uris":{"android":"levelo://app?vid=64c0f7db-806d-4f64-9223-4dc39c52a1ee","ios":"levelo://app?vid=64c0f7db-806d-4f64-9223-4dc39c52a1ee"},"vehicle_type_id":"4","last_reported":1753802029,"current_range_meters":17600,"station_id":"","pricing_plan_id":"cebpf4jnsgd1na2vs0mg"},{"bike_id":"6a8221ad-83c9-40bd-8997-bb175766af1b","system_id":"levelo_inurba_marseille","lat":43.284183,"lon":5.349983,"is_reserved":false,"is_disabled":false,"rental_uris":{"android":"levelo://app?vid=6a8221ad-83c9-40bd-8997-bb175766af1b","ios":"levelo://app?vid=6a8221ad-83c9-40bd-8997-bb175766af1b"},"vehicle_type_id":"4","last_reported":1753802029,"current_range_meters":17600,"station_id":"ce4bhbh2rcd13ifvqepg","pricing_plan_id":"cebpf4jnsgd1na2vs0mg"},{"bike_id":"98d83178-7faf-4c66-b9e2-3a5b2b3d14e3","system_id":"levelo_inurba_marseille","lat":43.23962,"lon":5.36642,"is_reserved":false,"is_disabled":false,"rental_uris":{"android":"levelo://app?vid=98d83178-7faf-4c66-b9e2-3a5b2b3d14e3","ios":"levelo://app?vid=98d83178-7faf-4c66-b9e2-3a5b2b3d14e3"},"vehicle_type_id":"4","last_reported":1753802029,"current_range_meters":17600,"station_id":"ce4bhi12rcd13ifvqfp0","pricing_plan_id":"cebpf4jnsgd1na2vs0mg"},{"bike_id":"6f865df7-db91-4988-aa46-abb1a28dea07","system_id":"levelo_inurba_marseille","lat":43.269349,"lon":5.402768,"is_reserved":false,"is_disabled":false,"rental_uris":{"android":"levelo://app?vid=6f865df7-db91-4988-aa46-abb1a28dea07","ios":"levelo://app?vid=6f865df7-db91-4988-aa46-abb1a28dea07"},"vehicle_type_id":"4","last_reported":1753802029,"current_range_meters":17600,"station_id":"cjm6bp8fraef2m0cb0m0","pricing_plan_id":"cebpf4jnsgd1na2vs0mg"},{"bike_id":"a6a46ae2-d764-44ee-baf2-a76e49bd9084","system_id":"levelo_inurba_marseille","lat":43.26985,"lon":5.40302,"is_reserved":false,"is_disabled":false,"rental_uris":{"android":"levelo://app?vid=a6a46ae2-d764-44ee-baf2-a76e49bd9084","ios":"levelo://app?vid=a6a46ae2-d764-44ee-baf2-a76e49bd9084"},"vehicle_type_id":"4","last_reported":1753802029,"current_range_meters":17600,"station_id":"","pricing_plan_id":"cebpf4jnsgd1na2vs0mg"},{"bike_id":"5aae0171-8e81-41e3-9059-0b6db07bd8e8","system_id":"levelo_inurba_marseille","lat":43.28439,"lon":5.35002,"is_reserved":false,"is_disabled":false,"rental_uris":{"android":"levelo://app?vid=5aae0171-8e81-41e3-9059-0b6db07bd8e8","ios":"levelo://app?vid=5aae0171-8e81-41e3-9059-0b6db07bd8e8"},"vehicle_type_id":"4","last_reported":1753802029,"current_range_meters":17600,"station_id":"ce4bhbh2rcd13ifvqepg","pricing_plan_id":"cebpf4jnsgd1na2vs0mg"},{"bike_id":"1bc9600f-a8ce-4d3c-94c3-9f21ec2a6a2e","system_id":"levelo_inurba_marseille","lat":43.3054,"lon":5.36707,"is_reserved":false,"is_disabled":false,"rental_uris":{"android":"levelo://app?vid=1bc9600f-a8ce-4d3c-94c3-9f21ec2a6a2e","ios":"levelo://app?vid=1bc9600f-a8ce-4d3c-94c3-9f21ec2a6a2e"},"vehicle_type_id":"4","last_reported":1753802029,"current_range_meters":17600,"station_id":"ce4bgrp2rcd13ifvqc9g","pricing_plan_id":"cebpf4jnsgd1na2vs0mg"},{"bike_id":"e7b8bda8-b8dc-4986-9f70-10e085c378c2","system_id":"levelo_inurba_marseille","lat":43.294498,"lon":5.396969,"is_reserved":false,"is_disabled":false,"rental_uris":{"android":"levelo://app?vid=e7b8bda8-b8dc-4986-9f70-10e085c378c2","ios":"levelo://app?vid=e7b8bda8-b8dc-4986-9f70-10e085c378c2"},"vehicle_type_id":"4","last_reported":1753802029,"current_range_meters":17600,"station_id":"ce4bh3h2rcd13ifvqdo0","pricing_plan_id":"cebpf4jnsgd1na2vs0mg"},{"bike_id":"387c87e1-c5b1-48c0-9404-1355c544d5a6","system_id":"levelo_inurba_marseille","lat":43.28619,"lon":5.35105,"is_reserved":false,"is_disabled":false,"rental_uris":{"android":"levelo://app?vid=387c87e1-c5b1-48c0-9404-1355c544d5a6","ios":"levelo://app?vid=387c87e1-c5b1-48c0-9404-1355c544d5a6"},"vehicle_type_id":"4","last_reported":1753802029,"current_range_meters":18000,"station_id":"ce4bhch2rcd13ifvqeug","pricing_plan_id":"cebpf4jnsgd1na2vs0mg"},{"bike_id":"3b0fc468-0f53-43b2-bdc9-2accbf6297e5","system_id":"levelo_inurba_marseille","lat":43.29638,"lon":5.37924,"is_reserved":false,"is_disabled":false,"rental_uris":{"android":"levelo://app?vid=3b0fc468-0f53-43b2-bdc9-2accbf6297e5","ios":"levelo://app?vid=3b0fc468-0f53-43b2-bdc9-2accbf6297e5"},"vehicle_type_id":"4","last_reported":1753802029,"current_range_meters":18000,"station_id":"","pricing_plan_id":"cebpf4jnsgd1na2vs0mg"},{"bike_id":"23cb5642-15b1-4dff-8751-77349dab4204","system_id":"levelo_inurba_marseille","lat":43.22907,"lon":5.35378,"is_reserved":false,"is_disabled":false,"rental_uris":{"android":"levelo://app?vid=23cb5642-15b1-4dff-8751-77349dab4204","ios":"levelo://app?vid=23cb5642-15b1-4dff-8751-77349dab4204"},"vehicle_type_id":"4","last_reported":1753802029,"current_range_meters":18000,"station_id":"cpo3532slgdg3j2ikp40","pricing_plan_id":"cebpf4jnsgd1na2vs0mg"},{"bike_id":"e5025d75-0be2-4ade-983e-e7b1f4a71865","system_id":"levelo_inurba_marseille","lat":43.243807,"lon":5.370805,"is_reserved":false,"is_disabled":false,"rental_uris":{"android":"levelo://app?vid=e5025d75-0be2-4ade-983e-e7b1f4a71865","ios":"levelo://app?vid=e5025d75-0be2-4ade-983e-e7b1f4a71865"},"vehicle_type_id":"4","last_reported":1753802029,"current_range_meters":18000,"station_id":"ce4bhhh2rcd13ifvqfk0","pricing_plan_id":"cebpf4jnsgd1na2vs0mg"},{"bike_id":"2fad1b6f-d0b7-4211-9b9d-661d7c090096","system_id":"levelo_inurba_marseille","lat":43.29815,"lon":5.43355,"is_reserved":false,"is_disabled":false,"rental_uris":{"android":"levelo://app?vid=2fad1b6f-d0b7-4211-9b9d-661d7c090096","ios":"levelo://app?vid=2fad1b6f-d0b7-4211-9b9d-661d7c090096"},"vehicle_type_id":"4","last_reported":1753802029,"current_range_meters":18000,"station_id":"","pricing_plan_id":"cebpf4jnsgd1na2vs0mg"},{"bike_id":"ae6c8428-e39e-40be-9df7-f418521aa777","system_id":"levelo_inurba_marseille","lat":43.2293,"lon":5.35367,"is_reserved":false,"is_disabled":false,"rental_uris":{"android":"levelo://app?vid=ae6c8428-e39e-40be-9df7-f418521aa777","ios":"levelo://app?vid=ae6c8428-e39e-40be-9df7-f418521aa777"},"vehicle_type_id":"4","last_reported":1753802029,"current_range_meters":18000,"station_id":"cpo3532slgdg3j2ikp40","pricing_plan_id":"cebpf4jnsgd1na2vs0mg"},{"bike_id":"ba5ccac4-44bb-4155-b86e-66c3eabc2e54","system_id":"levelo_inurba_marseille","lat":43.30425,"lon":5.41293,"is_reserved":false,"is_disabled":false,"rental_uris":{"android":"levelo://app?vid=ba5ccac4-44bb-4155-b86e-66c3eabc2e54","ios":"levelo://app?vid=ba5ccac4-44bb-4155-b86e-66c3eabc2e54"},"vehicle_type_id":"4","last_reported":1753802029,"current_range_meters":18000,"station_id":"ce4bhop2rcd13ifvqh8g","pricing_plan_id":"cebpf4jnsgd1na2vs0mg"},{"bike_id":"17b23f6f-8523-4ede-9192-841d6e39ec2d","system_id":"levelo_inurba_marseille","lat":43.312589,"lon":5.395213,"is_reserved":false,"is_disabled":false,"rental_uris":{"android":"levelo://app?vid=17b23f6f-8523-4ede-9192-841d6e39ec2d","ios":"levelo://app?vid=17b23f6f-8523-4ede-9192-841d6e39ec2d"},"vehicle_type_id":"4","last_reported":1753802029,"current_range_meters":18000,"station_id":"","pricing_plan_id":"cebpf4jnsgd1na2vs0mg"},{"bike_id":"9334f34a-980a-401c-82f4-9a8b79f8762a","system_id":"levelo_inurba_marseille","lat":43.324811,"lon":5.365905,"is_reserved":false,"is_disabled":false,"rental_uris":{"android":"levelo://app?vid=9334f34a-980a-401c-82f4-9a8b79f8762a","ios":"levelo://app?vid=9334f34a-980a-401c-82f4-9a8b79f8762a"},"vehicle_type_id":"4","last_reported":1753802029,"current_range_meters":18000,"station_id":"ce4bhs12rcd13ifvqhvg","pricing_plan_id":"cebpf4jnsgd1na2vs0mg"},{"bike_id":"a7305548-e2f5-4b08-a034-b68d2d653561","system_id":"levelo_inurba_marseille","lat":43.28417,"lon":5.35008,"is_reserved":false,"is_disabled":false,"rental_uris":{"android":"levelo://app?vid=a7305548-e2f5-4b08-a034-b68d2d653561","ios":"levelo://app?vid=a7305548-e2f5-4b08-a034-b68d2d653561"},"vehicle_type_id":"4","last_reported":1753802029,"current_range_meters":18000,"station_id":"ce4bhbh2rcd13ifvqepg","pricing_plan_id":"cebpf4jnsgd1na2vs0mg"},{"bike_id":"7fa23570-233d-4150-b4ef-59df4eca4b20","system_id":"levelo_inurba_marseille","lat":43.28281,"lon":5.3506,"is_reserved":false,"is_disabled":false,"rental_uris":{"android":"levelo://app?vid=7fa23570-233d-4150-b4ef-59df4eca4b20","ios":"levelo://app?vid=7fa23570-233d-4150-b4ef-59df4eca4b20"},"vehicle_type_id":"4","last_reported":1753802029,"current_range_meters":18000,"station_id":"ce4bhbp2rcd13ifvqerg","pricing_plan_id":"cebpf4jnsgd1na2vs0mg"},{"bike_id":"915513aa-2ef0-4e1b-9aa3-73608a47efab","system_id":"levelo_inurba_marseille","lat":43.22512,"lon":5.34779,"is_reserved":false,"is_disabled":false,"rental_uris":{"android":"levelo://app?vid=915513aa-2ef0-4e1b-9aa3-73608a47efab","ios":"levelo://app?vid=915513aa-2ef0-4e1b-9aa3-73608a47efab"},"vehicle_type_id":"4","last_reported":1753802029,"current_range_meters":18000,"station_id":"st_cvj5dfep6f1abm77gieg","pricing_plan_id":"cebpf4jnsgd1na2vs0mg"},{"bike_id":"811e05aa-5986-436a-8bdb-b783469d08bc","system_id":"levelo_inurba_marseille","lat":43.27312,"lon":5.39082,"is_reserved":false,"is_disabled":false,"rental_uris":{"android":"levelo://app?vid=811e05aa-5986-436a-8bdb-b783469d08bc","ios":"levelo://app?vid=811e05aa-5986-436a-8bdb-b783469d08bc"},"vehicle_type_id":"4","last_reported":1753802029,"current_range_meters":18000,"station_id":"ce4bhgp2rcd13ifvqfe0","pricing_plan_id":"cebpf4jnsgd1na2vs0mg"},{"bike_id":"fef62b02-fe4e-411d-91bc-5602429530d8","system_id":"levelo_inurba_marseille","lat":43.28263,"lon":5.35061,"is_reserved":false,"is_disabled":false,"rental_uris":{"android":"levelo://app?vid=fef62b02-fe4e-411d-91bc-5602429530d8","ios":"levelo://app?vid=fef62b02-fe4e-411d-91bc-5602429530d8"},"vehicle_type_id":"4","last_reported":1753802029,"current_range_meters":18000,"station_id":"","pricing_plan_id":"cebpf4jnsgd1na2vs0mg"},{"bike_id":"8ab41208-9cf9-4433-84fb-1c0a9a4a1dbf","system_id":"levelo_inurba_marseille","lat":43.29576,"lon":5.37491,"is_reserved":false,"is_disabled":false,"rental_uris":{"android":"levelo://app?vid=8ab41208-9cf9-4433-84fb-1c0a9a4a1dbf","ios":"levelo://app?vid=8ab41208-9cf9-4433-84fb-1c0a9a4a1dbf"},"vehicle_type_id":"4","last_reported":1753802029,"current_range_meters":18000,"station_id":"ce4bgh92rcd13ifvqb50","pricing_plan_id":"cebpf4jnsgd1na2vs0mg"},{"bike_id":"7d63cf5a-0da2-4b18-a94a-562fda8ccf0c","system_id":"levelo_inurba_marseille","lat":43.241703,"lon":5.364123,"is_reserved":false,"is_disabled":false,"rental_uris":{"android":"levelo://app?vid=7d63cf5a-0da2-4b18-a94a-562fda8ccf0c","ios":"levelo://app?vid=7d63cf5a-0da2-4b18-a94a-562fda8ccf0c"},"vehicle_type_id":"4","last_reported":1753802029,"current_range_meters":18000,"station_id":"cpo36qri1sfpv3e86is0","pricing_plan_id":"cebpf4jnsgd1na2vs0mg"},{"bike_id":"6c40ec02-1921-499d-8c43-12f25ee6244b","system_id":"levelo_inurba_marseille","lat":43.240931,"lon":5.377612,"is_reserved":false,"is_disabled":false,"rental_uris":{"android":"levelo://app?vid=6c40ec02-1921-499d-8c43-12f25ee6244b","ios":"levelo://app?vid=6c40ec02-1921-499d-8c43-12f25ee6244b"},"vehicle_type_id":"4","last_reported":1753802029,"current_range_meters":18000,"station_id":"ce4bhnp2rcd13ifvqgvg","pricing_plan_id":"cebpf4jnsgd1na2vs0mg"},{"bike_id":"3d60e95a-8706-4e13-b31f-ac7a913f607a","system_id":"levelo_inurba_marseille","lat":43.22935,"lon":5.35375,"is_reserved":false,"is_disabled":false,"rental_uris":{"android":"levelo://app?vid=3d60e95a-8706-4e13-b31f-ac7a913f607a","ios":"levelo://app?vid=3d60e95a-8706-4e13-b31f-ac7a913f607a"},"vehicle_type_id":"4","last_reported":1753802029,"current_range_meters":18800,"station_id":"cpo3532slgdg3j2ikp40","pricing_plan_id":"cebpf4jnsgd1na2vs0mg"},{"bike_id":"c6df4eb5-c995-4ce6-a87d-ce4a360f3236","system_id":"levelo_inurba_marseille","lat":43.26684,"lon":5.38274,"is_reserved":false,"is_disabled":false,"rental_uris":{"android":"levelo://app?vid=c6df4eb5-c995-4ce6-a87d-ce4a360f3236","ios":"levelo://app?vid=c6df4eb5-c995-4ce6-a87d-ce4a360f3236"},"vehicle_type_id":"4","last_reported":1753802029,"current_range_meters":18000,"station_id":"ce4bhg92rcd13ifvqf90","pricing_plan_id":"cebpf4jnsgd1na2vs0mg"},{"bike_id":"b44d763b-4f92-4731-b76a-85ebcd91acd5","system_id":"levelo_inurba_marseille","lat":43.30209,"lon":5.37133,"is_reserved":false,"is_disabled":false,"rental_uris":{"android":"levelo://app?vid=b44d763b-4f92-4731-b76a-85ebcd91acd5","ios":"levelo://app?vid=b44d763b-4f92-4731-b76a-85ebcd91acd5"},"vehicle_type_id":"4","last_reported":1753802029,"current_range_meters":18800,"station_id":"","pricing_plan_id":"cebpf4jnsgd1na2vs0mg"},{"bike_id":"94701e02-c6f1-443a-81ad-610be4f78b1d","system_id":"levelo_inurba_marseille","lat":43.28116,"lon":5.38913,"is_reserved":false,"is_disabled":false,"rental_uris":{"android":"levelo://app?vid=94701e02-c6f1-443a-81ad-610be4f78b1d","ios":"levelo://app?vid=94701e02-c6f1-443a-81ad-610be4f78b1d"},"vehicle_type_id":"4","last_reported":1753802029,"current_range_meters":18800,"station_id":"","pricing_plan_id":"cebpf4jnsgd1na2vs0mg"},{"bike_id":"c82c831a-70ad-4dec-9357-81f2ca9afed7","system_id":"levelo_inurba_marseille","lat":43.27918,"lon":5.39577,"is_reserved":false,"is_disabled":false,"rental_uris":{"android":"levelo://app?vid=c82c831a-70ad-4dec-9357-81f2ca9afed7","ios":"levelo://app?vid=c82c831a-70ad-4dec-9357-81f2ca9afed7"},"vehicle_type_id":"4","last_reported":1753802029,"current_range_meters":18800,"station_id":"ce4bhf92rcd13ifvqf40","pricing_plan_id":"cebpf4jnsgd1na2vs0mg"},{"bike_id":"fcf3c907-054f-4560-bfe5-130637c0d402","system_id":"levelo_inurba_marseille","lat":43.27368,"lon":5.36256,"is_reserved":false,"is_disabled":false,"rental_uris":{"android":"levelo://app?vid=fcf3c907-054f-4560-bfe5-130637c0d402","ios":"levelo://app?vid=fcf3c907-054f-4560-bfe5-130637c0d402"},"vehicle_type_id":"4","last_reported":1753802029,"current_range_meters":18800,"station_id":"ce4bhbh2rcd13ifvqeo0","pricing_plan_id":"cebpf4jnsgd1na2vs0mg"},{"bike_id":"ee16921e-772d-43e9-a89b-d898a5590b54","system_id":"levelo_inurba_marseille","lat":43.27317,"lon":5.39067,"is_reserved":false,"is_disabled":false,"rental_uris":{"android":"levelo://app?vid=ee16921e-772d-43e9-a89b-d898a5590b54","ios":"levelo://app?vid=ee16921e-772d-43e9-a89b-d898a5590b54"},"vehicle_type_id":"4","last_reported":1753802029,"current_range_meters":18800,"station_id":"ce4bhgp2rcd13ifvqfe0","pricing_plan_id":"cebpf4jnsgd1na2vs0mg"},{"bike_id":"8efdccc2-da9e-4734-abd8-9ac619250289","system_id":"levelo_inurba_marseille","lat":43.27611,"lon":5.36111,"is_reserved":false,"is_disabled":false,"rental_uris":{"android":"levelo://app?vid=8efdccc2-da9e-4734-abd8-9ac619250289","ios":"levelo://app?vid=8efdccc2-da9e-4734-abd8-9ac619250289"},"vehicle_type_id":"4","last_reported":1753802029,"current_range_meters":18800,"station_id":"ce4bgj92rcd13ifvqbe0","pricing_plan_id":"cebpf4jnsgd1na2vs0mg"},{"bike_id":"c54882ca-203c-491d-ad79-365faa01d205","system_id":"levelo_inurba_marseille","lat":43.28617,"lon":5.35103,"is_reserved":false,"is_disabled":false,"rental_uris":{"android":"levelo://app?vid=c54882ca-203c-491d-ad79-365faa01d205","ios":"levelo://app?vid=c54882ca-203c-491d-ad79-365faa01d205"},"vehicle_type_id":"4","last_reported":1753802029,"current_range_meters":18800,"station_id":"ce4bhch2rcd13ifvqeug","pricing_plan_id":"cebpf4jnsgd1na2vs0mg"},{"bike_id":"a9010a5c-efdd-4f38-8a73-74629a53ec79","system_id":"levelo_inurba_marseille","lat":43.28694,"lon":5.37392,"is_reserved":false,"is_disabled":false,"rental_uris":{"android":"levelo://app?vid=a9010a5c-efdd-4f38-8a73-74629a53ec79","ios":"levelo://app?vid=a9010a5c-efdd-4f38-8a73-74629a53ec79"},"vehicle_type_id":"4","last_reported":1753802029,"current_range_meters":18800,"station_id":"ce4bh3p2rcd13ifvqdq0","pricing_plan_id":"cebpf4jnsgd1na2vs0mg"},{"bike_id":"5ff7b424-be72-460e-9279-c80ac3b388ac","system_id":"levelo_inurba_marseille","lat":43.23189,"lon":5.39993,"is_reserved":false,"is_disabled":false,"rental_uris":{"android":"levelo://app?vid=5ff7b424-be72-460e-9279-c80ac3b388ac","ios":"levelo://app?vid=5ff7b424-be72-460e-9279-c80ac3b388ac"},"vehicle_type_id":"4","last_reported":1753802029,"current_range_meters":18800,"station_id":"ce4bhn12rcd13ifvqgqg","pricing_plan_id":"cebpf4jnsgd1na2vs0mg"},{"bike_id":"db2b065a-1748-4ded-8fcd-0b0813a100c0","system_id":"levelo_inurba_marseille","lat":43.23151,"lon":5.43723,"is_reserved":false,"is_disabled":false,"rental_uris":{"android":"levelo://app?vid=db2b065a-1748-4ded-8fcd-0b0813a100c0","ios":"levelo://app?vid=db2b065a-1748-4ded-8fcd-0b0813a100c0"},"vehicle_type_id":"4","last_reported":1753802029,"current_range_meters":18800,"station_id":"ce4bhmp2rcd13ifvqgog","pricing_plan_id":"cebpf4jnsgd1na2vs0mg"},{"bike_id":"7057191e-62bc-424d-a2f2-091282267a37","system_id":"levelo_inurba_marseille","lat":43.23075,"lon":5.35475,"is_reserved":false,"is_disabled":false,"rental_uris":{"android":"levelo://app?vid=7057191e-62bc-424d-a2f2-091282267a37","ios":"levelo://app?vid=7057191e-62bc-424d-a2f2-091282267a37"},"vehicle_type_id":"4","last_reported":1753802029,"current_range_meters":19200,"station_id":"cpo3342slgdg3j2ifvpg","pricing_plan_id":"cebpf4jnsgd1na2vs0mg"},{"bike_id":"69d38a7e-1fcd-4d86-82ea-8c496eb3852b","system_id":"levelo_inurba_marseille","lat":43.290156,"lon":5.356026,"is_reserved":false,"is_disabled":false,"rental_uris":{"android":"levelo://app?vid=69d38a7e-1fcd-4d86-82ea-8c496eb3852b","ios":"levelo://app?vid=69d38a7e-1fcd-4d86-82ea-8c496eb3852b"},"vehicle_type_id":"4","last_reported":1753802029,"current_range_meters":19200,"station_id":"ce4bhb92rcd13ifvqen0","pricing_plan_id":"cebpf4jnsgd1na2vs0mg"},{"bike_id":"c0961671-9575-428c-81fe-8ab2980e4ada","system_id":"levelo_inurba_marseille","lat":43.28264,"lon":5.35076,"is_reserved":false,"is_disabled":false,"rental_uris":{"android":"levelo://app?vid=c0961671-9575-428c-81fe-8ab2980e4ada","ios":"levelo://app?vid=c0961671-9575-428c-81fe-8ab2980e4ada"},"vehicle_type_id":"4","last_reported":1753802029,"current_range_meters":19200,"station_id":"ce4bhbp2rcd13ifvqerg","pricing_plan_id":"cebpf4jnsgd1na2vs0mg"},{"bike_id":"5f72df66-2d68-4c6e-a917-44e1dcfede98","system_id":"levelo_inurba_marseille","lat":43.229337,"lon":5.353795,"is_reserved":false,"is_disabled":false,"rental_uris":{"android":"levelo://app?vid=5f72df66-2d68-4c6e-a917-44e1dcfede98","ios":"levelo://app?vid=5f72df66-2d68-4c6e-a917-44e1dcfede98"},"vehicle_type_id":"4","last_reported":1753802029,"current_range_meters":19200,"station_id":"cpo3532slgdg3j2ikp40","pricing_plan_id":"cebpf4jnsgd1na2vs0mg"},{"bike_id":"b63ee568-8c57-4bf4-a72d-cad1d8d57237","system_id":"levelo_inurba_marseille","lat":43.29237,"lon":5.36057,"is_reserved":false,"is_disabled":false,"rental_uris":{"android":"levelo://app?vid=b63ee568-8c57-4bf4-a72d-cad1d8d57237","ios":"levelo://app?vid=b63ee568-8c57-4bf4-a72d-cad1d8d57237"},"vehicle_type_id":"4","last_reported":1753802029,"current_range_meters":19200,"station_id":"ce4bhbh2rcd13ifvqeqg","pricing_plan_id":"cebpf4jnsgd1na2vs0mg"},{"bike_id":"6f72a999-8cbb-4630-999b-52e53e67d483","system_id":"levelo_inurba_marseille","lat":43.26236,"lon":5.40444,"is_reserved":false,"is_disabled":false,"rental_uris":{"android":"levelo://app?vid=6f72a999-8cbb-4630-999b-52e53e67d483","ios":"levelo://app?vid=6f72a999-8cbb-4630-999b-52e53e67d483"},"vehicle_type_id":"4","last_reported":1753802029,"current_range_meters":19200,"station_id":"ce4bhmh2rcd13ifvqgmg","pricing_plan_id":"cebpf4jnsgd1na2vs0mg"},{"bike_id":"1c551052-93aa-4f27-a7a0-ce7ef92bf860","system_id":"levelo_inurba_marseille","lat":43.32485,"lon":5.3656,"is_reserved":false,"is_disabled":false,"rental_uris":{"android":"levelo://app?vid=1c551052-93aa-4f27-a7a0-ce7ef92bf860","ios":"levelo://app?vid=1c551052-93aa-4f27-a7a0-ce7ef92bf860"},"vehicle_type_id":"4","last_reported":1753802029,"current_range_meters":19200,"station_id":"ce4bhs12rcd13ifvqhvg","pricing_plan_id":"cebpf4jnsgd1na2vs0mg"},{"bike_id":"729eb7d8-7f34-4c34-afea-99048325196b","system_id":"levelo_inurba_marseille","lat":43.28415,"lon":5.34992,"is_reserved":false,"is_disabled":false,"rental_uris":{"android":"levelo://app?vid=729eb7d8-7f34-4c34-afea-99048325196b","ios":"levelo://app?vid=729eb7d8-7f34-4c34-afea-99048325196b"},"vehicle_type_id":"4","last_reported":1753802029,"current_range_meters":19200,"station_id":"ce4bhbh2rcd13ifvqepg","pricing_plan_id":"cebpf4jnsgd1na2vs0mg"},{"bike_id":"7b76ad51-e0de-403d-aeec-e8a6cf825f5e","system_id":"levelo_inurba_marseille","lat":43.26202,"lon":5.3793,"is_reserved":false,"is_disabled":false,"rental_uris":{"android":"levelo://app?vid=7b76ad51-e0de-403d-aeec-e8a6cf825f5e","ios":"levelo://app?vid=7b76ad51-e0de-403d-aeec-e8a6cf825f5e"},"vehicle_type_id":"4","last_reported":1753802029,"current_range_meters":19200,"station_id":"ce4bhjp2rcd13ifvqg90","pricing_plan_id":"cebpf4jnsgd1na2vs0mg"},{"bike_id":"4bf24824-712e-4879-9aea-8a3178a74908","system_id":"levelo_inurba_marseille","lat":43.28156,"lon":5.42648,"is_reserved":false,"is_disabled":false,"rental_uris":{"android":"levelo://app?vid=4bf24824-712e-4879-9aea-8a3178a74908","ios":"levelo://app?vid=4bf24824-712e-4879-9aea-8a3178a74908"},"vehicle_type_id":"4","last_reported":1753802029,"current_range_meters":19200,"station_id":"ce4bhnh2rcd13ifvqgug","pricing_plan_id":"cebpf4jnsgd1na2vs0mg"},{"bike_id":"0642bec0-d5df-45d1-8f24-13fa0bd6adc2","system_id":"levelo_inurba_marseille","lat":43.27817,"lon":5.40708,"is_reserved":false,"is_disabled":false,"rental_uris":{"android":"levelo://app?vid=0642bec0-d5df-45d1-8f24-13fa0bd6adc2","ios":"levelo://app?vid=0642bec0-d5df-45d1-8f24-13fa0bd6adc2"},"vehicle_type_id":"4","last_reported":1753802029,"current_range_meters":19200,"station_id":"ce4bhnh2rcd13ifvqgtg","pricing_plan_id":"cebpf4jnsgd1na2vs0mg"},{"bike_id":"0b026106-9617-4409-9aed-3551a7462329","system_id":"levelo_inurba_marseille","lat":43.24171,"lon":5.36403,"is_reserved":false,"is_disabled":false,"rental_uris":{"android":"levelo://app?vid=0b026106-9617-4409-9aed-3551a7462329","ios":"levelo://app?vid=0b026106-9617-4409-9aed-3551a7462329"},"vehicle_type_id":"4","last_reported":1753802029,"current_range_meters":19200,"station_id":"cpo36qri1sfpv3e86is0","pricing_plan_id":"cebpf4jnsgd1na2vs0mg"},{"bike_id":"cf5da371-739c-4c08-8c1e-4bab0bca165e","system_id":"levelo_inurba_marseille","lat":43.24817,"lon":5.37447,"is_reserved":false,"is_disabled":false,"rental_uris":{"android":"levelo://app?vid=cf5da371-739c-4c08-8c1e-4bab0bca165e","ios":"levelo://app?vid=cf5da371-739c-4c08-8c1e-4bab0bca165e"},"vehicle_type_id":"4","last_reported":1753802029,"current_range_meters":19600,"station_id":"ce4bhgh2rcd13ifvqfb0","pricing_plan_id":"cebpf4jnsgd1na2vs0mg"},{"bike_id":"6a202fe6-fa26-464f-9439-7093a0b6cee8","system_id":"levelo_inurba_marseille","lat":43.21751,"lon":5.34602,"is_reserved":false,"is_disabled":false,"rental_uris":{"android":"levelo://app?vid=6a202fe6-fa26-464f-9439-7093a0b6cee8","ios":"levelo://app?vid=6a202fe6-fa26-464f-9439-7093a0b6cee8"},"vehicle_type_id":"4","last_reported":1753802029,"current_range_meters":19600,"station_id":"st_cvj6r9ubvosntc0bgbag","pricing_plan_id":"cebpf4jnsgd1na2vs0mg"},{"bike_id":"848c56c7-2a0b-4468-ac75-c997f31d827c","system_id":"levelo_inurba_marseille","lat":43.21752,"lon":5.34608,"is_reserved":false,"is_disabled":false,"rental_uris":{"android":"levelo://app?vid=848c56c7-2a0b-4468-ac75-c997f31d827c","ios":"levelo://app?vid=848c56c7-2a0b-4468-ac75-c997f31d827c"},