{"last_updated":1727680184,"ttl":60,"version":"2.2","data":{"bikes":[{"bike_id":"cedb71a4-c1dd-4ca4-89cb-3f13fed4029c","system_id":"levelo_inurba_marseille","lat":43.2407,"lon":5.37764,"is_reserved":false,"is_disabled":false,"rental_uris":{"android":"levelo://app?vid=cedb71a4-c1dd-4ca4-89cb-3f13fed4029c","ios":"levelo://app?vid=cedb71a4-c1dd-4ca4-89cb-3f13fed4029c"},"vehicle_type_id":"4","last_reported":1727680185,"current_range_meters":27600,"station_id":"ce4bhnp2rcd13ifvqgvg","pricing_plan_id":"cebpf4jnsgd1na2vs0mg"},{"bike_id":"a78ef135-8636-4c7f-8ea0-04e46d0f96bc","system_id":"levelo_inurba_marseille","lat":43.27553,"lon":5.38441,"is_reserved":false,"is_disabled":false,"rental_uris":{"android":"levelo://app?vid=a78ef135-8636-4c7f-8ea0-04e46d0f96bc","ios":"levelo://app?vid=a78ef135-8636-4c7f-8ea0-04e46d0f96bc"},"vehicle_type_id":"4","last_reported":1727680185,"current_range_meters":28800,"station_id":"ce4bhh92rcd13ifvqfi0","pricing_plan_id":"cebpf4jnsgd1na2vs0mg"},{"bike_id":"fad06edd-02b7-4219-9ed7-a9ae19fc9c65","system_id":"levelo_inurba_marseille","lat":43.31343,"lon":5.36724,"is_reserved":false,"is_disabled":false,"rental_uris":{"android":"levelo://app?vid=fad06edd-02b7-4219-9ed7-a9ae19fc9c65","ios":"levelo://app?vid=fad06edd-02b7-4219-9ed7-a9ae19fc9c65"},"vehicle_type_id":"4","last_reported":1727680185,"current_range_meters":20400,"station_id":"ce4bgr92rcd13ifvqc6g","pricing_plan_id":"cebpf4jnsgd1na2vs0mg"},{"bike_id":"1d0683ce-a119-4daa-8a98-5da02c602b48","system_id":"levelo_inurba_marseille","lat":43.30603,"lon":5.37229,"is_reserved":false,"is_disabled":false,"rental_uris":{"android":"levelo://app?vid=1d0683ce-a119-4daa-8a98-5da02c602b48","ios":"levelo://app?vid=1d0683ce-a119-4daa-8a98-5da02c602b48"},"vehicle_type_id":"4","last_reported":1727680185,"current_range_meters":30000,"station_id":"ce4bgqh2rcd13ifvqc4g","pricing_plan_id":"cebpf4jnsgd1na2vs0mg"},{"bike_id":"851623aa-a5ab-48ff-9ad4-d53f2098701a","system_id":"levelo_inurba_marseille","lat":43.30542,"lon":5.36565,"is_reserved":false,"is_disabled":false,"rental_uris":{"android":"levelo://app?vid=851623aa-a5ab-48ff-9ad4-d53f2098701a","ios":"levelo://app?vid=851623aa-a5ab-48ff-9ad4-d53f2098701a"},"vehicle_type_id":"4","last_reported":1727680185,"current_range_meters":25600,"station_id":"ce4bgs12rcd13ifvqcag","pricing_plan_id":"cebpf4jnsgd1na2vs0mg"},{"bike_id":"87ff90c8-0484-40bf-ad1b-8a3b005ef37c","system_id":"levelo_inurba_marseille","lat":43.29062,"lon":5.42623,"is_reserved":false,"is_disabled":false,"rental_uris":{"android":"levelo://app?vid=87ff90c8-0484-40bf-ad1b-8a3b005ef37c","ios":"levelo://app?vid=87ff90c8-0484-40bf-ad1b-8a3b005ef37c"},"vehicle_type_id":"4","last_reported":1727680185,"current_range_meters":6000,"station_id":"","pricing_plan_id":"cebpf4jnsgd1na2vs0mg"},{"bike_id":"fa4abf17-6682-49c9-a508-1300440dc793","system_id":"levelo_inurba_marseille","lat":43.27371,"lon":5.36267,"is_reserved":false,"is_disabled":false,"rental_uris":{"android":"levelo://app?vid=fa4abf17-6682-49c9-a508-1300440dc793","ios":"levelo://app?vid=fa4abf17-6682-49c9-a508-1300440dc793"},"vehicle_type_id":"4","last_reported":1727680185,"current_range_meters":35600,"station_id":"ce4bhbh2rcd13ifvqeo0","pricing_plan_id":"cebpf4jnsgd1na2vs0mg"},{"bike_id":"8b9bb4f6-468c-4017-a156-e4487c76f222","system_id":"levelo_inurba_marseille","lat":43.26565,"lon":5.39014,"is_reserved":false,"is_disabled":false,"rental_uris":{"android":"levelo://app?vid=8b9bb4f6-468c-4017-a156-e4487c76f222","ios":"levelo://app?vid=8b9bb4f6-468c-4017-a156-e4487c76f222"},"vehicle_type_id":"4","last_reported":1727680185,"current_range_meters":20400,"station_id":"ce4bhe12rcd13ifvqf30","pricing_plan_id":"cebpf4jnsgd1na2vs0mg"},{"bike_id":"94ce00e1-49a0-4c02-ae7c-d37adbd3dd71","system_id":"levelo_inurba_marseille","lat":43.31888,"lon":5.40729,"is_reserved":false,"is_disabled":false,"rental_uris":{"android":"levelo://app?vid=94ce00e1-49a0-4c02-ae7c-d37adbd3dd71","ios":"levelo://app?vid=94ce00e1-49a0-4c02-ae7c-d37adbd3dd71"},"vehicle_type_id":"4","last_reported":1727680185,"current_range_meters":32400,"station_id":"ce4bhq12rcd13ifvqhig","pricing_plan_id":"cebpf4jnsgd1na2vs0mg"},{"bike_id":"431acd76-2fda-479a-af23-895917a7252a","system_id":"levelo_inurba_marseille","lat":43.3221,"lon":5.38739,"is_reserved":false,"is_disabled":false,"rental_uris":{"android":"levelo://app?vid=431acd76-2fda-479a-af23-895917a7252a","ios":"levelo://app?vid=431acd76-2fda-479a-af23-895917a7252a"},"vehicle_type_id":"4","last_reported":1727680185,"current_range_meters":22000,"station_id":"","pricing_plan_id":"cebpf4jnsgd1na2vs0mg"},{"bike_id":"5816cec8-8917-4734-9ca3-2441e17f7ba1","system_id":"levelo_inurba_marseille","lat":43.24171,"lon":5.36405,"is_reserved":false,"is_disabled":false,"rental_uris":{"android":"levelo://app?vid=5816cec8-8917-4734-9ca3-2441e17f7ba1","ios":"levelo://app?vid=5816cec8-8917-4734-9ca3-2441e17f7ba1"},"vehicle_type_id":"4","last_reported":1727680185,"current_range_meters":22400,"station_id":"cpo36qri1sfpv3e86is0","pricing_plan_id":"cebpf4jnsgd1na2vs0mg"},{"bike_id":"194255f3-46fc-49f5-addc-d907b864f0e5","system_id":"levelo_inurba_marseille","lat":43.30308,"lon":5.36898,"is_reserved":false,"is_disabled":false,"rental_uris":{"android":"levelo://app?vid=194255f3-46fc-49f5-addc-d907b864f0e5","ios":"levelo://app?vid=194255f3-46fc-49f5-addc-d907b864f0e5"},"vehicle_type_id":"4","last_reported":1727680185,"current_range_meters":8000,"station_id":"ce4bgqh2rcd13ifvqc5g","pricing_plan_id":"cebpf4jnsgd1na2vs0mg"},{"bike_id":"d4c74265-2442-4454-aa29-65e3cce400cc","system_id":"levelo_inurba_marseille","lat":43.31854,"lon":5.38799,"is_reserved":false,"is_disabled":false,"rental_uris":{"android":"levelo://app?vid=d4c74265-2442-4454-aa29-65e3cce400cc","ios":"levelo://app?vid=d4c74265-2442-4454-aa29-65e3cce400cc"},"vehicle_type_id":"4","last_reported":1727680185,"current_range_meters":36400,"station_id":"","pricing_plan_id":"cebpf4jnsgd1na2vs0mg"},{"bike_id":"af6ac25d-d36b-4e61-82a0-7e16798e6711","system_id":"levelo_inurba_marseille","lat":43.26563,"lon":5.38999,"is_reserved":false,"is_disabled":false,"rental_uris":{"android":"levelo://app?vid=af6ac25d-d36b-4e61-82a0-7e16798e6711","ios":"levelo://app?vid=af6ac25d-d36b-4e61-82a0-7e16798e6711"},"vehicle_type_id":"4","last_reported":1727680185,"current_range_meters":38000,"station_id":"ce4bhe12rcd13ifvqf30","pricing_plan_id":"cebpf4jnsgd1na2vs0mg"},{"bike_id":"be0e4c5b-8079-4c61-b218-6f9e92849133","system_id":"levelo_inurba_marseille","lat":43.23128,"lon":5.43692,"is_reserved":false,"is_disabled":false,"rental_uris":{"android":"levelo://app?vid=be0e4c5b-8079-4c61-b218-6f9e92849133","ios":"levelo://app?vid=be0e4c5b-8079-4c61-b218-6f9e92849133"},"vehicle_type_id":"4","last_reported":1727680185,"current_range_meters":36400,"station_id":"ce4bhmp2rcd13ifvqgog","pricing_plan_id":"cebpf4jnsgd1na2vs0mg"},{"bike_id":"9c0bc3dd-3e82-4feb-bf8a-bd21fbb65b2c","system_id":"levelo_inurba_marseille","lat":43.31222,"lon":5.36854,"is_reserved":false,"is_disabled":false,"rental_uris":{"android":"levelo://app?vid=9c0bc3dd-3e82-4feb-bf8a-bd21fbb65b2c","ios":"levelo://app?vid=9c0bc3dd-3e82-4feb-bf8a-bd21fbb65b2c"},"vehicle_type_id":"4","last_reported":1727680185,"current_range_meters":38000,"station_id":"ce4bgl92rcd13ifvqbq0","pricing_plan_id":"cebpf4jnsgd1na2vs0mg"},{"bike_id":"abac24ec-41d1-4e93-a315-ef71ba832150","system_id":"levelo_inurba_marseille","lat":43.26197,"lon":5.37934,"is_reserved":false,"is_disabled":false,"rental_uris":{"android":"levelo://app?vid=abac24ec-41d1-4e93-a315-ef71ba832150","ios":"levelo://app?vid=abac24ec-41d1-4e93-a315-ef71ba832150"},"vehicle_type_id":"4","last_reported":1727680185,"current_range_meters":8000,"station_id":"ce4bhjp2rcd13ifvqg90","pricing_plan_id":"cebpf4jnsgd1na2vs0mg"},{"bike_id":"ce0aaa8a-c9fd-45a4-baa7-833213abde39","system_id":"levelo_inurba_marseille","lat":43.30909,"lon":5.36847,"is_reserved":false,"is_disabled":false,"rental_uris":{"android":"levelo://app?vid=ce0aaa8a-c9fd-45a4-baa7-833213abde39","ios":"levelo://app?vid=ce0aaa8a-c9fd-45a4-baa7-833213abde39"},"vehicle_type_id":"4","last_reported":1727680185,"current_range_meters":38800,"station_id":"ce4bgn92rcd13ifvqbvg","pricing_plan_id":"cebpf4jnsgd1na2vs0mg"},{"bike_id":"a9739188-f961-4ead-812b-0e1aef88d271","system_id":"levelo_inurba_marseille","lat":43.30542,"lon":5.36555,"is_reserved":false,"is_disabled":false,"rental_uris":{"android":"levelo://app?vid=a9739188-f961-4ead-812b-0e1aef88d271","ios":"levelo://app?vid=a9739188-f961-4ead-812b-0e1aef88d271"},"vehicle_type_id":"4","last_reported":1727680185,"current_range_meters":32800,"station_id":"ce4bgs12rcd13ifvqcag","pricing_plan_id":"cebpf4jnsgd1na2vs0mg"},{"bike_id":"f744d668-44d7-4ad0-a2ee-b0948384a190","system_id":"levelo_inurba_marseille","lat":43.291,"lon":5.3812,"is_reserved":false,"is_disabled":false,"rental_uris":{"android":"levelo://app?vid=f744d668-44d7-4ad0-a2ee-b0948384a190","ios":"levelo://app?vid=f744d668-44d7-4ad0-a2ee-b0948384a190"},"vehicle_type_id":"4","last_reported":1727680185,"current_range_meters":32400,"station_id":"ce4bh512rcd13ifvqe2g","pricing_plan_id":"cebpf4jnsgd1na2vs0mg"},{"bike_id":"53a604b9-1fa6-483d-8322-69400e38509b","system_id":"levelo_inurba_marseille","lat":43.26686,"lon":5.38275,"is_reserved":false,"is_disabled":false,"rental_uris":{"android":"levelo://app?vid=53a604b9-1fa6-483d-8322-69400e38509b","ios":"levelo://app?vid=53a604b9-1fa6-483d-8322-69400e38509b"},"vehicle_type_id":"4","last_reported":1727680185,"current_range_meters":30400,"station_id":"ce4bhg92rcd13ifvqf90","pricing_plan_id":"cebpf4jnsgd1na2vs0mg"},{"bike_id":"e3e14dad-567d-4dd0-97a2-394078a6587d","system_id":"levelo_inurba_marseille","lat":43.29846,"lon":5.36254,"is_reserved":false,"is_disabled":false,"rental_uris":{"android":"levelo://app?vid=e3e14dad-567d-4dd0-97a2-394078a6587d","ios":"levelo://app?vid=e3e14dad-567d-4dd0-97a2-394078a6587d"},"vehicle_type_id":"4","last_reported":1727680185,"current_range_meters":9600,"station_id":"ce4bgpp2rcd13ifvqc3g","pricing_plan_id":"cebpf4jnsgd1na2vs0mg"},{"bike_id":"ad39acce-a3c1-44d4-971b-ebc578fc76ab","system_id":"levelo_inurba_marseille","lat":43.28158,"lon":5.42638,"is_reserved":false,"is_disabled":false,"rental_uris":{"android":"levelo://app?vid=ad39acce-a3c1-44d4-971b-ebc578fc76ab","ios":"levelo://app?vid=ad39acce-a3c1-44d4-971b-ebc578fc76ab"},"vehicle_type_id":"4","last_reported":1727680185,"current_range_meters":29600,"station_id":"ce4bhnh2rcd13ifvqgug","pricing_plan_id":"cebpf4jnsgd1na2vs0mg"},{"bike_id":"2d2c08a5-9497-4cd5-9bb5-18482d13e2c1","system_id":"levelo_inurba_marseille","lat":43.3047,"lon":5.379,"is_reserved":false,"is_disabled":false,"rental_uris":{"android":"levelo://app?vid=2d2c08a5-9497-4cd5-9bb5-18482d13e2c1","ios":"levelo://app?vid=2d2c08a5-9497-4cd5-9bb5-18482d13e2c1"},"vehicle_type_id":"4","last_reported":1727680185,"current_range_meters":28000,"station_id":"ce4bgup2rcd13ifvqcn0","pricing_plan_id":"cebpf4jnsgd1na2vs0mg"},{"bike_id":"07e2661f-ae71-4164-93c8-d9da7c3de42a","system_id":"levelo_inurba_marseille","lat":43.30146,"lon":5.38084,"is_reserved":false,"is_disabled":false,"rental_uris":{"android":"levelo://app?vid=07e2661f-ae71-4164-93c8-d9da7c3de42a","ios":"levelo://app?vid=07e2661f-ae71-4164-93c8-d9da7c3de42a"},"vehicle_type_id":"4","last_reported":1727680185,"current_range_meters":32400,"station_id":"ce4bgjp2rcd13ifvqbh0","pricing_plan_id":"cebpf4jnsgd1na2vs0mg"},{"bike_id":"2ddc6b05-9288-483f-9da4-6953fce52caf","system_id":"levelo_inurba_marseille","lat":43.29918,"lon":5.37479,"is_reserved":false,"is_disabled":false,"rental_uris":{"android":"levelo://app?vid=2ddc6b05-9288-483f-9da4-6953fce52caf","ios":"levelo://app?vid=2ddc6b05-9288-483f-9da4-6953fce52caf"},"vehicle_type_id":"4","last_reported":1727680185,"current_range_meters":9600,"station_id":"ce4bgjh2rcd13ifvqbg0","pricing_plan_id":"cebpf4jnsgd1na2vs0mg"},{"bike_id":"0521cc37-3a0f-4bc8-964a-96f026706e98","system_id":"levelo_inurba_marseille","lat":43.28023,"lon":5.36078,"is_reserved":false,"is_disabled":false,"rental_uris":{"android":"levelo://app?vid=0521cc37-3a0f-4bc8-964a-96f026706e98","ios":"levelo://app?vid=0521cc37-3a0f-4bc8-964a-96f026706e98"},"vehicle_type_id":"4","last_reported":1727680185,"current_range_meters":19600,"station_id":"","pricing_plan_id":"cebpf4jnsgd1na2vs0mg"},{"bike_id":"85e14133-988d-4b21-9098-bd3c14cace39","system_id":"levelo_inurba_marseille","lat":43.27495,"lon":5.42448,"is_reserved":false,"is_disabled":false,"rental_uris":{"android":"levelo://app?vid=85e14133-988d-4b21-9098-bd3c14cace39","ios":"levelo://app?vid=85e14133-988d-4b21-9098-bd3c14cace39"},"vehicle_type_id":"4","last_reported":1727680185,"current_range_meters":33200,"station_id":"ce4bhn92rcd13ifvqgrg","pricing_plan_id":"cebpf4jnsgd1na2vs0mg"},{"bike_id":"3a2ba1c6-0034-408d-bbc8-754ee52df5a0","system_id":"levelo_inurba_marseille","lat":43.27496,"lon":5.42453,"is_reserved":false,"is_disabled":false,"rental_uris":{"android":"levelo://app?vid=3a2ba1c6-0034-408d-bbc8-754ee52df5a0","ios":"levelo://app?vid=3a2ba1c6-0034-408d-bbc8-754ee52df5a0"},"vehicle_type_id":"4","last_reported":1727680185,"current_range_meters":12000,"station_id":"ce4bhn92rcd13ifvqgrg","pricing_plan_id":"cebpf4jnsgd1na2vs0mg"},{"bike_id":"de9541b9-cbca-4692-a5ed-01ba084f79f5","system_id":"levelo_inurba_marseille","lat":43.32473,"lon":5.36562,"is_reserved":false,"is_disabled":false,"rental_uris":{"android":"levelo://app?vid=de9541b9-cbca-4692-a5ed-01ba084f79f5","ios":"levelo://app?vid=de9541b9-cbca-4692-a5ed-01ba084f79f5"},"vehicle_type_id":"4","last_reported":1727680185,"current_range_meters":33200,"station_id":"ce4bhs12rcd13ifvqhvg","pricing_plan_id":"cebpf4jnsgd1na2vs0mg"},{"bike_id":"00ec7c2f-d5eb-4b68-8325-159a97d856e6","system_id":"levelo_inurba_marseille","lat":43.25716,"lon":5.41109,"is_reserved":false,"is_disabled":false,"rental_uris":{"android":"levelo://app?vid=00ec7c2f-d5eb-4b68-8325-159a97d856e6","ios":"levelo://app?vid=00ec7c2f-d5eb-4b68-8325-159a97d856e6"},"vehicle_type_id":"4","last_reported":1727680185,"current_range_meters":36400,"station_id":"ce4bhkp2rcd13ifvqgd0","pricing_plan_id":"cebpf4jnsgd1na2vs0mg"},{"bike_id":"cffe39b5-9dad-4cbd-af59-5cd9e7f7a0cf","system_id":"levelo_inurba_marseille","lat":43.30588,"lon":5.39357,"is_reserved":false,"is_disabled":false,"rental_uris":{"android":"levelo://app?vid=cffe39b5-9dad-4cbd-af59-5cd9e7f7a0cf","ios":"levelo://app?vid=cffe39b5-9dad-4cbd-af59-5cd9e7f7a0cf"},"vehicle_type_id":"4","last_reported":1727680185,"current_range_meters":35200,"station_id":"ce4bh0p2rcd13ifvqd80","pricing_plan_id":"cebpf4jnsgd1na2vs0mg"},{"bike_id":"71b2fac6-df49-42fb-af2a-b340aea86b28","system_id":"levelo_inurba_marseille","lat":43.31359,"lon":5.3849,"is_reserved":false,"is_disabled":false,"rental_uris":{"android":"levelo://app?vid=71b2fac6-df49-42fb-af2a-b340aea86b28","ios":"levelo://app?vid=71b2fac6-df49-42fb-af2a-b340aea86b28"},"vehicle_type_id":"4","last_reported":1727680185,"current_range_meters":8400,"station_id":"ce4bgt92rcd13ifvqcf0","pricing_plan_id":"cebpf4jnsgd1na2vs0mg"},{"bike_id":"2cfbebee-2e3d-4295-841d-f91ce0d6dc6f","system_id":"levelo_inurba_marseille","lat":43.33605,"lon":5.41023,"is_reserved":false,"is_disabled":false,"rental_uris":{"android":"levelo://app?vid=2cfbebee-2e3d-4295-841d-f91ce0d6dc6f","ios":"levelo://app?vid=2cfbebee-2e3d-4295-841d-f91ce0d6dc6f"},"vehicle_type_id":"4","last_reported":1727680185,"current_range_meters":38800,"station_id":"ce4bhqh2rcd13ifvqhmg","pricing_plan_id":"cebpf4jnsgd1na2vs0mg"},{"bike_id":"1ce7c25b-6bd2-4b64-b4ae-543ea784fc5d","system_id":"levelo_inurba_marseille","lat":43.337444,"lon":5.374475,"is_reserved":false,"is_disabled":false,"rental_uris":{"android":"levelo://app?vid=1ce7c25b-6bd2-4b64-b4ae-543ea784fc5d","ios":"levelo://app?vid=1ce7c25b-6bd2-4b64-b4ae-543ea784fc5d"},"vehicle_type_id":"4","last_reported":1727680185,"current_range_meters":28800,"station_id":"","pricing_plan_id":"cebpf4jnsgd1na2vs0mg"},{"bike_id":"8e923b95-9920-4db3-95cf-4c32fcd41a80","system_id":"levelo_inurba_marseille","lat":43.317212,"lon":5.436378,"is_reserved":false,"is_disabled":false,"rental_uris":{"android":"levelo://app?vid=8e923b95-9920-4db3-95cf-4c32fcd41a80","ios":"levelo://app?vid=8e923b95-9920-4db3-95cf-4c32fcd41a80"},"vehicle_type_id":"4","last_reported":1727680185,"current_range_meters":14400,"station_id":"","pricing_plan_id":"cebpf4jnsgd1na2vs0mg"},{"bike_id":"944448a2-f788-4397-8bf9-9e18b0b6b5d1","system_id":"levelo_inurba_marseille","lat":43.27496,"lon":5.42446,"is_reserved":false,"is_disabled":false,"rental_uris":{"android":"levelo://app?vid=944448a2-f788-4397-8bf9-9e18b0b6b5d1","ios":"levelo://app?vid=944448a2-f788-4397-8bf9-9e18b0b6b5d1"},"vehicle_type_id":"4","last_reported":1727680185,"current_range_meters":9200,"station_id":"ce4bhn92rcd13ifvqgrg","pricing_plan_id":"cebpf4jnsgd1na2vs0mg"},{"bike_id":"eeb4b54b-284a-4a51-af38-bfe005d55c3e","system_id":"levelo_inurba_marseille","lat":43.24809,"lon":5.37453,"is_reserved":false,"is_disabled":false,"rental_uris":{"android":"levelo://app?vid=eeb4b54b-284a-4a51-af38-bfe005d55c3e","ios":"levelo://app?vid=eeb4b54b-284a-4a51-af38-bfe005d55c3e"},"vehicle_type_id":"4","last_reported":1727680185,"current_range_meters":36800,"station_id":"ce4bhgh2rcd13ifvqfb0","pricing_plan_id":"cebpf4jnsgd1na2vs0mg"},{"bike_id":"fe3dba5a-c9e3-4f44-b076-3f3dcf4f1aec","system_id":"levelo_inurba_marseille","lat":43.2799,"lon":5.38745,"is_reserved":false,"is_disabled":false,"rental_uris":{"android":"levelo://app?vid=fe3dba5a-c9e3-4f44-b076-3f3dcf4f1aec","ios":"levelo://app?vid=fe3dba5a-c9e3-4f44-b076-3f3dcf4f1aec"},"vehicle_type_id":"4","last_reported":1727680185,"current_range_meters":36800,"station_id":"ce4bhg12rcd13ifvqf80","pricing_plan_id":"cebpf4jnsgd1na2vs0mg"},{"bike_id":"0c6a3edd-0259-43fd-a8d1-3d4bb6023605","system_id":"levelo_inurba_marseille","lat":43.24393,"lon":5.37059,"is_reserved":false,"is_disabled":false,"rental_uris":{"android":"levelo://app?vid=0c6a3edd-0259-43fd-a8d1-3d4bb6023605","ios":"levelo://app?vid=0c6a3edd-0259-43fd-a8d1-3d4bb6023605"},"vehicle_type_id":"4","last_reported":1727680185,"current_range_meters":38800,"station_id":"ce4bhhh2rcd13ifvqfk0","pricing_plan_id":"cebpf4jnsgd1na2vs0mg"},{"bike_id":"560b16ee-a2a1-4ea6-8979-7b2096d0f470","system_id":"levelo_inurba_marseille","lat":43.32473,"lon":5.36564,"is_reserved":false,"is_disabled":false,"rental_uris":{"android":"levelo://app?vid=560b16ee-a2a1-4ea6-8979-7b2096d0f470","ios":"levelo://app?vid=560b16ee-a2a1-4ea6-8979-7b2096d0f470"},"vehicle_type_id":"4","last_reported":1727680185,"current_range_meters":22000,"station_id":"ce4bhs12rcd13ifvqhvg","pricing_plan_id":"cebpf4jnsgd1na2vs0mg"},{"bike_id":"56c4046b-e612-4234-b6c5-29a1163019d6","system_id":"levelo_inurba_marseille","lat":43.28961,"lon":5.38269,"is_reserved":false,"is_disabled":false,"rental_uris":{"android":"levelo://app?vid=56c4046b-e612-4234-b6c5-29a1163019d6","ios":"levelo://app?vid=56c4046b-e612-4234-b6c5-29a1163019d6"},"vehicle_type_id":"4","last_reported":1727680185,"current_range_meters":17200,"station_id":"ce4bgjh2rcd13ifvqbf0","pricing_plan_id":"cebpf4jnsgd1na2vs0mg"},{"bike_id":"2d6275cc-7366-4d7e-8321-3495c41b4d77","system_id":"levelo_inurba_marseille","lat":43.29725,"lon":5.37692,"is_reserved":false,"is_disabled":false,"rental_uris":{"android":"levelo://app?vid=2d6275cc-7366-4d7e-8321-3495c41b4d77","ios":"levelo://app?vid=2d6275cc-7366-4d7e-8321-3495c41b4d77"},"vehicle_type_id":"4","last_reported":1727680185,"current_range_meters":20400,"station_id":"ce4bgkh2rcd13ifvqbl0","pricing_plan_id":"cebpf4jnsgd1na2vs0mg"},{"bike_id":"7c08f845-ae6c-4d6e-9891-6265195c40fc","system_id":"levelo_inurba_marseille","lat":43.24544,"lon":5.39518,"is_reserved":false,"is_disabled":false,"rental_uris":{"android":"levelo://app?vid=7c08f845-ae6c-4d6e-9891-6265195c40fc","ios":"levelo://app?vid=7c08f845-ae6c-4d6e-9891-6265195c40fc"},"vehicle_type_id":"4","last_reported":1727680185,"current_range_meters":19200,"station_id":"ce4bhlp2rcd13ifvqgjg","pricing_plan_id":"cebpf4jnsgd1na2vs0mg"},{"bike_id":"9fdde57c-440c-45dc-9fbb-cb54c0aa4043","system_id":"levelo_inurba_marseille","lat":43.23139,"lon":5.43737,"is_reserved":false,"is_disabled":false,"rental_uris":{"android":"levelo://app?vid=9fdde57c-440c-45dc-9fbb-cb54c0aa4043","ios":"levelo://app?vid=9fdde57c-440c-45dc-9fbb-cb54c0aa4043"},"vehicle_type_id":"4","last_reported":1727680185,"current_range_meters":13600,"station_id":"ce4bhmp2rcd13ifvqgog","pricing_plan_id":"cebpf4jnsgd1na2vs0mg"},{"bike_id":"869b9120-f6c8-451d-ab0c-23c067f07531","system_id":"levelo_inurba_marseille","lat":43.240662,"lon":5.377605,"is_reserved":false,"is_disabled":false,"rental_uris":{"android":"levelo://app?vid=869b9120-f6c8-451d-ab0c-23c067f07531","ios":"levelo://app?vid=869b9120-f6c8-451d-ab0c-23c067f07531"},"vehicle_type_id":"4","last_reported":1727680185,"current_range_meters":38400,"station_id":"ce4bhnp2rcd13ifvqgvg","pricing_plan_id":"cebpf4jnsgd1na2vs0mg"},{"bike_id":"594467aa-d042-46e6-a521-511a3034de0d","system_id":"levelo_inurba_marseille","lat":43.30461,"lon":5.37896,"is_reserved":false,"is_disabled":false,"rental_uris":{"android":"levelo://app?vid=594467aa-d042-46e6-a521-511a3034de0d","ios":"levelo://app?vid=594467aa-d042-46e6-a521-511a3034de0d"},"vehicle_type_id":"4","last_reported":1727680185,"current_range_meters":24000,"station_id":"ce4bgup2rcd13ifvqcn0","pricing_plan_id":"cebpf4jnsgd1na2vs0mg"},{"bike_id":"855cc9d5-5f4c-4a0b-b9bd-6fd5142a08b8","system_id":"levelo_inurba_marseille","lat":43.24085,"lon":5.37751,"is_reserved":false,"is_disabled":false,"rental_uris":{"android":"levelo://app?vid=855cc9d5-5f4c-4a0b-b9bd-6fd5142a08b8","ios":"levelo://app?vid=855cc9d5-5f4c-4a0b-b9bd-6fd5142a08b8"},"vehicle_type_id":"4","last_reported":1727680185,"current_range_meters":24400,"station_id":"ce4bhnp2rcd13ifvqgvg","pricing_plan_id":"cebpf4jnsgd1na2vs0mg"},{"bike_id":"662377ca-a910-4716-ace2-86901b6a8e67","system_id":"levelo_inurba_marseille","lat":43.3014,"lon":5.38086,"is_reserved":false,"is_disabled":false,"rental_uris":{"android":"levelo://app?vid=662377ca-a910-4716-ace2-86901b6a8e67","ios":"levelo://app?vid=662377ca-a910-4716-ace2-86901b6a8e67"},"vehicle_type_id":"4","last_reported":1727680185,"current_range_meters":8800,"station_id":"ce4bgjp2rcd13ifvqbh0","pricing_plan_id":"cebpf4jnsgd1na2vs0mg"},{"bike_id":"a7699da9-a62f-4d9e-a63b-1d32daa4307f","system_id":"levelo_inurba_marseille","lat":43.27495,"lon":5.42454,"is_reserved":false,"is_disabled":false,"rental_uris":{"android":"levelo://app?vid=a7699da9-a62f-4d9e-a63b-1d32daa4307f","ios":"levelo://app?vid=a7699da9-a62f-4d9e-a63b-1d32daa4307f"},"vehicle_type_id":"4","last_reported":1727680185,"current_range_meters":32400,"station_id":"ce4bhn92rcd13ifvqgrg","pricing_plan_id":"cebpf4jnsgd1na2vs0mg"},{"bike_id":"c5d3ce40-aba5-406c-8699-a57ef63a76d4","system_id":"levelo_inurba_marseille","lat":43.30538,"lon":5.36545,"is_reserved":false,"is_disabled":false,"rental_uris":{"android":"levelo://app?vid=c5d3ce40-aba5-406c-8699-a57ef63a76d4","ios":"levelo://app?vid=c5d3ce40-aba5-406c-8699-a57ef63a76d4"},"vehicle_type_id":"4","last_reported":1727680185,"current_range_meters":8400,"station_id":"ce4bgs12rcd13ifvqcag","pricing_plan_id":"cebpf4jnsgd1na2vs0mg"},{"bike_id":"d44939cd-0aed-4575-9cd6-0d087f0bad31","system_id":"levelo_inurba_marseille","lat":43.3135,"lon":5.36698,"is_reserved":false,"is_disabled":false,"rental_uris":{"android":"levelo://app?vid=d44939cd-0aed-4575-9cd6-0d087f0bad31","ios":"levelo://app?vid=d44939cd-0aed-4575-9cd6-0d087f0bad31"},"vehicle_type_id":"4","last_reported":1727680185,"current_range_meters":28800,"station_id":"ce4bgr92rcd13ifvqc6g","pricing_plan_id":"cebpf4jnsgd1na2vs0mg"},{"bike_id":"9cab4b77-e73b-485b-9196-05681379298d","system_id":"levelo_inurba_marseille","lat":43.32313,"lon":5.38282,"is_reserved":false,"is_disabled":false,"rental_uris":{"android":"levelo://app?vid=9cab4b77-e73b-485b-9196-05681379298d","ios":"levelo://app?vid=9cab4b77-e73b-485b-9196-05681379298d"},"vehicle_type_id":"4","last_reported":1727680185,"current_range_meters":34000,"station_id":"ce4bhr12rcd13ifvqhqg","pricing_plan_id":"cebpf4jnsgd1na2vs0mg"},{"bike_id":"be9da5be-7fb9-4808-84e4-3e1fbf8d7bcc","system_id":"levelo_inurba_marseille","lat":43.33606,"lon":5.41029,"is_reserved":false,"is_disabled":false,"rental_uris":{"android":"levelo://app?vid=be9da5be-7fb9-4808-84e4-3e1fbf8d7bcc","ios":"levelo://app?vid=be9da5be-7fb9-4808-84e4-3e1fbf8d7bcc"},"vehicle_type_id":"4","last_reported":1727680185,"current_range_meters":16000,"station_id":"ce4bhqh2rcd13ifvqhmg","pricing_plan_id":"cebpf4jnsgd1na2vs0mg"},{"bike_id":"3b11f84d-9693-435a-b10d-5f4d60aec8bd","system_id":"levelo_inurba_marseille","lat":43.33604,"lon":5.41024,"is_reserved":false,"is_disabled":false,"rental_uris":{"android":"levelo://app?vid=3b11f84d-9693-435a-b10d-5f4d60aec8bd","ios":"levelo://app?vid=3b11f84d-9693-435a-b10d-5f4d60aec8bd"},"vehicle_type_id":"4","last_reported":1727680185,"current_range_meters":34000,"station_id":"ce4bhqh2rcd13ifvqhmg","pricing_plan_id":"cebpf4jnsgd1na2vs0mg"},{"bike_id":"14b16226-72d1-4b1f-b853-d2b23cfd6f6e","system_id":"levelo_inurba_marseille","lat":43.30465,"lon":5.3789,"is_reserved":false,"is_disabled":false,"rental_uris":{"android":"levelo://app?vid=14b16226-72d1-4b1f-b853-d2b23cfd6f6e","ios":"levelo://app?vid=14b16226-72d1-4b1f-b853-d2b23cfd6f6e"},"vehicle_type_id":"4","last_reported":1727680185,"current_range_meters":22400,"station_id":"ce4bgup2rcd13ifvqcn0","pricing_plan_id":"cebpf4jnsgd1na2vs0mg"},{"bike_id":"e150718b-3b11-4746-aaf5-ed9fe54bd243","system_id":"levelo_inurba_marseille","lat":43.24077,"lon":5.37746,"is_reserved":false,"is_disabled":false,"rental_uris":{"android":"levelo://app?vid=e150718b-3b11-4746-aaf5-ed9fe54bd243","ios":"levelo://app?vid=e150718b-3b11-4746-aaf5-ed9fe54bd243"},"vehicle_type_id":"4","last_reported":1727680185,"current_range_meters":12400,"station_id":"ce4bhnp2rcd13ifvqgvg","pricing_plan_id":"cebpf4jnsgd1na2vs0mg"},{"bike_id":"f675718c-9af4-4902-b658-fc903325dca7","system_id":"levelo_inurba_marseille","lat":43.27493,"lon":5.42469,"is_reserved":false,"is_disabled":false,"rental_uris":{"android":"levelo://app?vid=f675718c-9af4-4902-b658-fc903325dca7","ios":"levelo://app?vid=f675718c-9af4-4902-b658-fc903325dca7"},"vehicle_type_id":"4","last_reported":1727680185,"current_range_meters":19600,"station_id":"ce4bhn92rcd13ifvqgrg","pricing_plan_id":"cebpf4jnsgd1na2vs0mg"},{"bike_id":"73bc85b9-959b-4487-b86b-75e0a4fe28a2","system_id":"levelo_inurba_marseille","lat":43.27068,"lon":5.42272,"is_reserved":false,"is_disabled":false,"rental_uris":{"android":"levelo://app?vid=73bc85b9-959b-4487-b86b-75e0a4fe28a2","ios":"levelo://app?vid=73bc85b9-959b-4487-b86b-75e0a4fe28a2"},"vehicle_type_id":"4","last_reported":1727680185,"current_range_meters":18000,"station_id":"ce4bhk92rcd13ifvqgb0","pricing_plan_id":"cebpf4jnsgd1na2vs0mg"},{"bike_id":"883dbd06-c2fc-4488-9b5e-ef4f05339f9b","system_id":"levelo_inurba_marseille","lat":43.30214,"lon":5.36604,"is_reserved":false,"is_disabled":false,"rental_uris":{"android":"levelo://app?vid=883dbd06-c2fc-4488-9b5e-ef4f05339f9b","ios":"levelo://app?vid=883dbd06-c2fc-4488-9b5e-ef4f05339f9b"},"vehicle_type_id":"4","last_reported":1727680185,"current_range_meters":26000,"station_id":"ce4bgrh2rcd13ifvqc8g","pricing_plan_id":"cebpf4jnsgd1na2vs0mg"},{"bike_id":"6c8b138c-21e2-45bf-a989-ce45493ac988","system_id":"levelo_inurba_marseille","lat":43.232,"lon":5.35544,"is_reserved":false,"is_disabled":false,"rental_uris":{"android":"levelo://app?vid=6c8b138c-21e2-45bf-a989-ce45493ac988","ios":"levelo://app?vid=6c8b138c-21e2-45bf-a989-ce45493ac988"},"vehicle_type_id":"4","last_reported":1727680185,"current_range_meters":36800,"station_id":"ce4bhu92rcd13ifvqi70","pricing_plan_id":"cebpf4jnsgd1na2vs0mg"},{"bike_id":"61b80206-8211-4df0-b90b-eee6dba44a64","system_id":"levelo_inurba_marseille","lat":43.27562,"lon":5.38416,"is_reserved":false,"is_disabled":false,"rental_uris":{"android":"levelo://app?vid=61b80206-8211-4df0-b90b-eee6dba44a64","ios":"levelo://app?vid=61b80206-8211-4df0-b90b-eee6dba44a64"},"vehicle_type_id":"4","last_reported":1727680185,"current_range_meters":20000,"station_id":"ce4bhh92rcd13ifvqfi0","pricing_plan_id":"cebpf4jnsgd1na2vs0mg"},{"bike_id":"cf2a99f0-171d-46e2-b5f9-b8e518581e33","system_id":"levelo_inurba_marseille","lat":43.23958,"lon":5.36625,"is_reserved":false,"is_disabled":false,"rental_uris":{"android":"levelo://app?vid=cf2a99f0-171d-46e2-b5f9-b8e518581e33","ios":"levelo://app?vid=cf2a99f0-171d-46e2-b5f9-b8e518581e33"},"vehicle_type_id":"4","last_reported":1727680185,"current_range_meters":28800,"station_id":"ce4bhi12rcd13ifvqfp0","pricing_plan_id":"cebpf4jnsgd1na2vs0mg"},{"bike_id":"554bbcc4-9094-4d74-9383-9c5cb23648a2","system_id":"levelo_inurba_marseille","lat":43.28987,"lon":5.37842,"is_reserved":false,"is_disabled":false,"rental_uris":{"android":"levelo://app?vid=554bbcc4-9094-4d74-9383-9c5cb23648a2","ios":"levelo://app?vid=554bbcc4-9094-4d74-9383-9c5cb23648a2"},"vehicle_type_id":"4","last_reported":1727680185,"current_range_meters":36800,"station_id":"ce4bh9p2rcd13ifvqed0","pricing_plan_id":"cebpf4jnsgd1na2vs0mg"},{"bike_id":"2e3a2c59-c749-47fc-8dbc-55139ba72613","system_id":"levelo_inurba_marseille","lat":43.27432,"lon":5.39402,"is_reserved":false,"is_disabled":false,"rental_uris":{"android":"levelo://app?vid=2e3a2c59-c749-47fc-8dbc-55139ba72613","ios":"levelo://app?vid=2e3a2c59-c749-47fc-8dbc-55139ba72613"},"vehicle_type_id":"4","last_reported":1727680185,"current_range_meters":3600,"station_id":"ce4bhdp2rcd13ifvqf20","pricing_plan_id":"cebpf4jnsgd1na2vs0mg"},{"bike_id":"de8acde5-f2dc-4298-a3d3-4a64b6639a47","system_id":"levelo_inurba_marseille","lat":43.303009,"lon":5.392034,"is_reserved":false,"is_disabled":false,"rental_uris":{"android":"levelo://app?vid=de8acde5-f2dc-4298-a3d3-4a64b6639a47","ios":"levelo://app?vid=de8acde5-f2dc-4298-a3d3-4a64b6639a47"},"vehicle_type_id":"4","last_reported":1727680185,"current_range_meters":22800,"station_id":"ce4bgkh2rcd13ifvqbk0","pricing_plan_id":"cebpf4jnsgd1na2vs0mg"},{"bike_id":"4c59b6a6-13a5-4f15-8ea7-e82f231118a7","system_id":"levelo_inurba_marseille","lat":43.29895,"lon":5.4366,"is_reserved":false,"is_disabled":false,"rental_uris":{"android":"levelo://app?vid=4c59b6a6-13a5-4f15-8ea7-e82f231118a7","ios":"levelo://app?vid=4c59b6a6-13a5-4f15-8ea7-e82f231118a7"},"vehicle_type_id":"4","last_reported":1727680185,"current_range_meters":38400,"station_id":"ce4bhpp2rcd13ifvqhfg","pricing_plan_id":"cebpf4jnsgd1na2vs0mg"},{"bike_id":"0b309523-490b-484a-a81d-e4085a44fba0","system_id":"levelo_inurba_marseille","lat":43.26784,"lon":5.3941,"is_reserved":false,"is_disabled":false,"rental_uris":{"android":"levelo://app?vid=0b309523-490b-484a-a81d-e4085a44fba0","ios":"levelo://app?vid=0b309523-490b-484a-a81d-e4085a44fba0"},"vehicle_type_id":"4","last_reported":1727680185,"current_range_meters":24000,"station_id":"ce4bhh12rcd13ifvqfg0","pricing_plan_id":"cebpf4jnsgd1na2vs0mg"},{"bike_id":"ec5110fe-d233-4931-9806-8e0a9dfe3451","system_id":"levelo_inurba_marseille","lat":43.26029,"lon":5.37548,"is_reserved":false,"is_disabled":false,"rental_uris":{"android":"levelo://app?vid=ec5110fe-d233-4931-9806-8e0a9dfe3451","ios":"levelo://app?vid=ec5110fe-d233-4931-9806-8e0a9dfe3451"},"vehicle_type_id":"4","last_reported":1727680185,"current_range_meters":11200,"station_id":"ce4bhgh2rcd13ifvqfa0","pricing_plan_id":"cebpf4jnsgd1na2vs0mg"},{"bike_id":"efce4339-6a6f-4f2c-b410-ffcdab80b550","system_id":"levelo_inurba_marseille","lat":43.32539,"lon":5.4144,"is_reserved":false,"is_disabled":false,"rental_uris":{"android":"levelo://app?vid=efce4339-6a6f-4f2c-b410-ffcdab80b550","ios":"levelo://app?vid=efce4339-6a6f-4f2c-b410-ffcdab80b550"},"vehicle_type_id":"4","last_reported":1727680185,"current_range_meters":22800,"station_id":"ce4bhq12rcd13ifvqhhg","pricing_plan_id":"cebpf4jnsgd1na2vs0mg"},{"bike_id":"97b52c58-ee1b-4aa3-8bcc-864e016e5a28","system_id":"levelo_inurba_marseille","lat":43.2572,"lon":5.41108,"is_reserved":false,"is_disabled":false,"rental_uris":{"android":"levelo://app?vid=97b52c58-ee1b-4aa3-8bcc-864e016e5a28","ios":"levelo://app?vid=97b52c58-ee1b-4aa3-8bcc-864e016e5a28"},"vehicle_type_id":"4","last_reported":1727680185,"current_range_meters":36800,"station_id":"ce4bhkp2rcd13ifvqgd0","pricing_plan_id":"cebpf4jnsgd1na2vs0mg"},{"bike_id":"1a00221f-aae4-4ab0-a6df-b37bd531256d","system_id":"levelo_inurba_marseille","lat":43.27492,"lon":5.42456,"is_reserved":false,"is_disabled":false,"rental_uris":{"android":"levelo://app?vid=1a00221f-aae4-4ab0-a6df-b37bd531256d","ios":"levelo://app?vid=1a00221f-aae4-4ab0-a6df-b37bd531256d"},"vehicle_type_id":"4","last_reported":1727680185,"current_range_meters":33600,"station_id":"ce4bhn92rcd13ifvqgrg","pricing_plan_id":"cebpf4jnsgd1na2vs0mg"},{"bike_id":"feb3bc30-b582-4695-a0fd-6e1cde5b74a1","system_id":"levelo_inurba_marseille","lat":43.28263,"lon":5.35061,"is_reserved":false,"is_disabled":false,"rental_uris":{"android":"levelo://app?vid=feb3bc30-b582-4695-a0fd-6e1cde5b74a1","ios":"levelo://app?vid=feb3bc30-b582-4695-a0fd-6e1cde5b74a1"},"vehicle_type_id":"4","last_reported":1727680185,"current_range_meters":22400,"station_id":"ce4bhbp2rcd13ifvqerg","pricing_plan_id":"cebpf4jnsgd1na2vs0mg"},{"bike_id":"e9c9a824-77dd-4a8d-b5f7-16a11637475b","system_id":"levelo_inurba_marseille","lat":43.32547,"lon":5.41425,"is_reserved":false,"is_disabled":false,"rental_uris":{"android":"levelo://app?vid=e9c9a824-77dd-4a8d-b5f7-16a11637475b","ios":"levelo://app?vid=e9c9a824-77dd-4a8d-b5f7-16a11637475b"},"vehicle_type_id":"4","last_reported":1727680185,"current_range_meters":39200,"station_id":"ce4bhq12rcd13ifvqhhg","pricing_plan_id":"cebpf4jnsgd1na2vs0mg"},{"bike_id":"a2cebfe8-17a6-4c8a-9675-79b8388fe63f","system_id":"levelo_inurba_marseille","lat":43.30155,"lon":5.38081,"is_reserved":false,"is_disabled":false,"rental_uris":{"android":"levelo://app?vid=a2cebfe8-17a6-4c8a-9675-79b8388fe63f","ios":"levelo://app?vid=a2cebfe8-17a6-4c8a-9675-79b8388fe63f"},"vehicle_type_id":"4","last_reported":1727680185,"current_range_meters":38000,"station_id":"ce4bgjp2rcd13ifvqbh0","pricing_plan_id":"cebpf4jnsgd1na2vs0mg"},{"bike_id":"53922870-e7aa-4e36-a183-ae9cdb53ed16","system_id":"levelo_inurba_marseille","lat":43.28494,"lon":5.38583,"is_reserved":false,"is_disabled":false,"rental_uris":{"android":"levelo://app?vid=53922870-e7aa-4e36-a183-ae9cdb53ed16","ios":"levelo://app?vid=53922870-e7aa-4e36-a183-ae9cdb53ed16"},"vehicle_type_id":"4","last_reported":1727680185,"current_range_meters":38800,"station_id":"ce4bh8p2rcd13ifvqeb0","pricing_plan_id":"cebpf4jnsgd1na2vs0mg"},{"bike_id":"0bd9f675-75fd-4f7a-8ce7-28244076c338","system_id":"levelo_inurba_marseille","lat":43.29299,"lon":5.37456,"is_reserved":false,"is_disabled":false,"rental_uris":{"android":"levelo://app?vid=0bd9f675-75fd-4f7a-8ce7-28244076c338","ios":"levelo://app?vid=0bd9f675-75fd-4f7a-8ce7-28244076c338"},"vehicle_type_id":"4","last_reported":1727680185,"current_range_meters":30800,"station_id":"ce4bgi12rcd13ifvqb70","pricing_plan_id":"cebpf4jnsgd1na2vs0mg"},{"bike_id":"124cc49e-bc3f-4ee2-96b6-78f4c29aba27","system_id":"levelo_inurba_marseille","lat":43.25005,"lon":5.38918,"is_reserved":false,"is_disabled":false,"rental_uris":{"android":"levelo://app?vid=124cc49e-bc3f-4ee2-96b6-78f4c29aba27","ios":"levelo://app?vid=124cc49e-bc3f-4ee2-96b6-78f4c29aba27"},"vehicle_type_id":"4","last_reported":1727680185,"current_range_meters":18800,"station_id":"ce4bhgp2rcd13ifvqfd0","pricing_plan_id":"cebpf4jnsgd1na2vs0mg"},{"bike_id":"fd14ba81-3f44-4ac1-b066-8941269a20c6","system_id":"levelo_inurba_marseille","lat":43.29243,"lon":5.42675,"is_reserved":false,"is_disabled":false,"rental_uris":{"android":"levelo://app?vid=fd14ba81-3f44-4ac1-b066-8941269a20c6","ios":"levelo://app?vid=fd14ba81-3f44-4ac1-b066-8941269a20c6"},"vehicle_type_id":"4","last_reported":1727680185,"current_range_meters":14000,"station_id":"ce4bhnh2rcd13ifvqgug","pricing_plan_id":"cebpf4jnsgd1na2vs0mg"},{"bike_id":"c1a1b9e4-f961-4823-b111-afdf24cf4ace","system_id":"levelo_inurba_marseille","lat":43.2991,"lon":5.37469,"is_reserved":false,"is_disabled":false,"rental_uris":{"android":"levelo://app?vid=c1a1b9e4-f961-4823-b111-afdf24cf4ace","ios":"levelo://app?vid=c1a1b9e4-f961-4823-b111-afdf24cf4ace"},"vehicle_type_id":"4","last_reported":1727680185,"current_range_meters":38000,"station_id":"ce4bgjh2rcd13ifvqbg0","pricing_plan_id":"cebpf4jnsgd1na2vs0mg"},{"bike_id":"213b4e20-8ecc-4415-9c56-bf513aacb34c","system_id":"levelo_inurba_marseille","lat":43.24072,"lon":5.3776,"is_reserved":false,"is_disabled":false,"rental_uris":{"android":"levelo://app?vid=213b4e20-8ecc-4415-9c56-bf513aacb34c","ios":"levelo://app?vid=213b4e20-8ecc-4415-9c56-bf513aacb34c"},"vehicle_type_id":"4","last_reported":1727680185,"current_range_meters":27200,"station_id":"ce4bhnp2rcd13ifvqgvg","pricing_plan_id":"cebpf4jnsgd1na2vs0mg"},{"bike_id":"cd797280-ce26-4eb1-a6db-17ebdf24c284","system_id":"levelo_inurba_marseille","lat":43.29037,"lon":5.39977,"is_reserved":false,"is_disabled":false,"rental_uris":{"android":"levelo://app?vid=cd797280-ce26-4eb1-a6db-17ebdf24c284","ios":"levelo://app?vid=cd797280-ce26-4eb1-a6db-17ebdf24c284"},"vehicle_type_id":"4","last_reported":1727680185,"current_range_meters":22400,"station_id":"ce4bh392rcd13ifvqdm0","pricing_plan_id":"cebpf4jnsgd1na2vs0mg"},{"bike_id":"47425dd0-2682-44bb-9b66-1ff9f3d2d2ab","system_id":"levelo_inurba_marseille","lat":43.245504,"lon":5.395072,"is_reserved":false,"is_disabled":false,"rental_uris":{"android":"levelo://app?vid=47425dd0-2682-44bb-9b66-1ff9f3d2d2ab","ios":"levelo://app?vid=47425dd0-2682-44bb-9b66-1ff9f3d2d2ab"},"vehicle_type_id":"4","last_reported":1727680185,"current_range_meters":23200,"station_id":"ce4bhlp2rcd13ifvqgjg","pricing_plan_id":"cebpf4jnsgd1na2vs0mg"},{"bike_id":"405b5f1d-b9eb-4659-95d5-5c2ff06d8e1a","system_id":"levelo_inurba_marseille","lat":43.27495,"lon":5.42455,"is_reserved":false,"is_disabled":false,"rental_uris":{"android":"levelo://app?vid=405b5f1d-b9eb-4659-95d5-5c2ff06d8e1a","ios":"levelo://app?vid=405b5f1d-b9eb-4659-95d5-5c2ff06d8e1a"},"vehicle_type_id":"4","last_reported":1727680185,"current_range_meters":18800,"station_id":"ce4bhn92rcd13ifvqgrg","pricing_plan_id":"cebpf4jnsgd1na2vs0mg"},{"bike_id":"113aab23-9d41-4a5f-95c0-d776ac45c2b9","system_id":"levelo_inurba_marseille","lat":43.2594,"lon":5.40902,"is_reserved":false,"is_disabled":false,"rental_uris":{"android":"levelo://app?vid=113aab23-9d41-4a5f-95c0-d776ac45c2b9","ios":"levelo://app?vid=113aab23-9d41-4a5f-95c0-d776ac45c2b9"},"vehicle_type_id":"4","last_reported":1727680185,"current_range_meters":19600,"station_id":"ce4bhm92rcd13ifvqglg","pricing_plan_id":"cebpf4jnsgd1na2vs0mg"},{"bike_id":"85a7ce6d-c78a-4356-8d69-4e768e529bde","system_id":"levelo_inurba_marseille","lat":43.32263,"lon":5.40649,"is_reserved":false,"is_disabled":false,"rental_uris":{"android":"levelo://app?vid=85a7ce6d-c78a-4356-8d69-4e768e529bde","ios":"levelo://app?vid=85a7ce6d-c78a-4356-8d69-4e768e529bde"},"vehicle_type_id":"4","last_reported":1727680185,"current_range_meters":27200,"station_id":"","pricing_plan_id":"cebpf4jnsgd1na2vs0mg"},{"bike_id":"18b188e6-aa6a-4bd7-ad05-6ca16854b93f","system_id":"levelo_inurba_marseille","lat":43.27066,"lon":5.42274,"is_reserved":false,"is_disabled":false,"rental_uris":{"android":"levelo://app?vid=18b188e6-aa6a-4bd7-ad05-6ca16854b93f","ios":"levelo://app?vid=18b188e6-aa6a-4bd7-ad05-6ca16854b93f"},"vehicle_type_id":"4","last_reported":1727680185,"current_range_meters":30000,"station_id":"ce4bhk92rcd13ifvqgb0","pricing_plan_id":"cebpf4jnsgd1na2vs0mg"},{"bike_id":"408d9401-5194-45b1-948e-a2c15040c41f","system_id":"levelo_inurba_marseille","lat":43.23191,"lon":5.35536,"is_reserved":false,"is_disabled":false,"rental_uris":{"android":"levelo://app?vid=408d9401-5194-45b1-948e-a2c15040c41f","ios":"levelo://app?vid=408d9401-5194-45b1-948e-a2c15040c41f"},"vehicle_type_id":"4","last_reported":1727680185,"current_range_meters":11200,"station_id":"ce4bhu92rcd13ifvqi70","pricing_plan_id":"cebpf4jnsgd1na2vs0mg"},{"bike_id":"94fdfe10-8c09-41e0-b800-38c859b3f321","system_id":"levelo_inurba_marseille","lat":43.32917,"lon":5.39055,"is_reserved":false,"is_disabled":false,"rental_uris":{"android":"levelo://app?vid=94fdfe10-8c09-41e0-b800-38c859b3f321","ios":"levelo://app?vid=94fdfe10-8c09-41e0-b800-38c859b3f321"},"vehicle_type_id":"4","last_reported":1727680185,"current_range_meters":34000,"station_id":"","pricing_plan_id":"cebpf4jnsgd1na2vs0mg"},{"bike_id":"45f7fed1-ab4b-4a5f-b418-a46557244602","system_id":"levelo_inurba_marseille","lat":43.309114,"lon":5.368465,"is_reserved":false,"is_disabled":false,"rental_uris":{"android":"levelo://app?vid=45f7fed1-ab4b-4a5f-b418-a46557244602","ios":"levelo://app?vid=45f7fed1-ab4b-4a5f-b418-a46557244602"},"vehicle_type_id":"4","last_reported":1727680185,"current_range_meters":36800,"station_id":"ce4bgn92rcd13ifvqbvg","pricing_plan_id":"cebpf4jnsgd1na2vs0mg"},{"bike_id":"8dc50db5-124c-4633-a931-fd48cea9c94b","system_id":"levelo_inurba_marseille","lat":43.23153,"lon":5.43716,"is_reserved":false,"is_disabled":false,"rental_uris":{"android":"levelo://app?vid=8dc50db5-124c-4633-a931-fd48cea9c94b","ios":"levelo://app?vid=8dc50db5-124c-4633-a931-fd48cea9c94b"},"vehicle_type_id":"4","last_reported":1727680185,"current_range_meters":20800,"station_id":"ce4bhmp2rcd13ifvqgog","pricing_plan_id":"cebpf4jnsgd1na2vs0mg"},{"bike_id":"826b3619-d5fd-4e06-ad36-d0bfcef692af","system_id":"levelo_inurba_marseille","lat":43.26505,"lon":5.39539,"is_reserved":false,"is_disabled":false,"rental_uris":{"android":"levelo://app?vid=826b3619-d5fd-4e06-ad36-d0bfcef692af","ios":"levelo://app?vid=826b3619-d5fd-4e06-ad36-d0bfcef692af"},"vehicle_type_id":"4","last_reported":1727680185,"current_range_meters":22000,"station_id":"ce4bhi12rcd13ifvqfq0","pricing_plan_id":"cebpf4jnsgd1na2vs0mg"},{"bike_id":"24f66ba0-9728-4d6c-96ef-74d761c96131","system_id":"levelo_inurba_marseille","lat":43.30462,"lon":5.379,"is_reserved":false,"is_disabled":false,"rental_uris":{"android":"levelo://app?vid=24f66ba0-9728-4d6c-96ef-74d761c96131","ios":"levelo://app?vid=24f66ba0-9728-4d6c-96ef-74d761c96131"},"vehicle_type_id":"4","last_reported":1727680185,"current_range_meters":38800,"station_id":"ce4bgup2rcd13ifvqcn0","pricing_plan_id":"cebpf4jnsgd1na2vs0mg"},{"bike_id":"b4a0c9b3-a962-403a-8921-adccaae64d6c","system_id":"levelo_inurba_marseille","lat":43.31236,"lon":5.3686,"is_reserved":false,"is_disabled":false,"rental_uris":{"android":"levelo://app?vid=b4a0c9b3-a962-403a-8921-adccaae64d6c","ios":"levelo://app?vid=b4a0c9b3-a962-403a-8921-adccaae64d6c"},"vehicle_type_id":"4","last_reported":1727680185,"current_range_meters":38000,"station_id":"ce4bgl92rcd13ifvqbq0","pricing_plan_id":"cebpf4jnsgd1na2vs0mg"},{"bike_id":"40af7eb4-6cd7-462c-b9fb-34273e78aa71","system_id":"levelo_inurba_marseille","lat":43.2407,"lon":5.37755,"is_reserved":false,"is_disabled":false,"rental_uris":{"android":"levelo://app?vid=40af7eb4-6cd7-462c-b9fb-34273e78aa71","ios":"levelo://app?vid=40af7eb4-6cd7-462c-b9fb-34273e78aa71"},"vehicle_type_id":"4","last_reported":1727680185,"current_range_meters":8000,"station_id":"ce4bhnp2rcd13ifvqgvg","pricing_plan_id":"cebpf4jnsgd1na2vs0mg"},{"bike_id":"a63d4449-4f5a-4f1c-9a3c-27c8d74bd2a3","system_id":"levelo_inurba_marseille","lat":43.24392,"lon":5.37061,"is_reserved":false,"is_disabled":false,"rental_uris":{"android":"levelo://app?vid=a63d4449-4f5a-4f1c-9a3c-27c8d74bd2a3","ios":"levelo://app?vid=a63d4449-4f5a-4f1c-9a3c-27c8d74bd2a3"},"vehicle_type_id":"4","last_reported":1727680185,"current_range_meters":7200,"station_id":"ce4bhhh2rcd13ifvqfk0","pricing_plan_id":"cebpf4jnsgd1na2vs0mg"},{"bike_id":"431fd07b-7141-48dc-8ce2-ed25e62e0064","system_id":"levelo_inurba_marseille","lat":43.2408,"lon":5.3775,"is_reserved":false,"is_disabled":false,"rental_uris":{"android":"levelo://app?vid=431fd07b-7141-48dc-8ce2-ed25e62e0064","ios":"levelo://app?vid=431fd07b-7141-48dc-8ce2-ed25e62e0064"},"vehicle_type_id":"4","last_reported":1727680185,"current_range_meters":24800,"station_id":"ce4bhnp2rcd13ifvqgvg","pricing_plan_id":"cebpf4jnsgd1na2vs0mg"},{"bike_id":"b187d656-363f-4d58-ae4c-249a3172d21b","system_id":"levelo_inurba_marseille","lat":43.27069,"lon":5.42278,"is_reserved":false,"is_disabled":false,"rental_uris":{"android":"levelo://app?vid=b187d656-363f-4d58-ae4c-249a3172d21b","ios":"levelo://app?vid=b187d656-363f-4d58-ae4c-249a3172d21b"},"vehicle_type_id":"4","last_reported":1727680185,"current_range_meters":32800,"station_id":"ce4bhk92rcd13ifvqgb0","pricing_plan_id":"cebpf4jnsgd1na2vs0mg"},{"bike_id":"f0d756a4-9211-4b22-83eb-7505e550378a","system_id":"levelo_inurba_marseille","lat":43.28427,"lon":5.34994,"is_reserved":false,"is_disabled":false,"rental_uris":{"android":"levelo://app?vid=f0d756a4-9211-4b22-83eb-7505e550378a","ios":"levelo://app?vid=f0d756a4-9211-4b22-83eb-7505e550378a"},"vehicle_type_id":"4","last_reported":1727680185,"current_range_meters":35600,"station_id":"ce4bhbh2rcd13ifvqepg","pricing_plan_id":"cebpf4jnsgd1na2vs0mg"},{"bike_id":"d63764fe-4050-43f1-b54b-11b976aea0d8","system_id":"levelo_inurba_marseille","lat":43.29043,"lon":5.39965,"is_reserved":false,"is_disabled":false,"rental_uris":{"android":"levelo://app?vid=d63764fe-4050-43f1-b54b-11b976aea0d8","ios":"levelo://app?vid=d63764fe-4050-43f1-b54b-11b976aea0d8"},"vehicle_type_id":"4","last_reported":1727680185,"current_range_meters":36800,"station_id":"ce4bh392rcd13ifvqdm0","pricing_plan_id":"cebpf4jnsgd1na2vs0mg"},{"bike_id":"81a3242c-03a9-4973-8513-f9f3502e650e","system_id":"levelo_inurba_marseille","lat":43.23151,"lon":5.43716,"is_reserved":false,"is_disabled":false,"rental_uris":{"android":"levelo://app?vid=81a3242c-03a9-4973-8513-f9f3502e650e","ios":"levelo://app?vid=81a3242c-03a9-4973-8513-f9f3502e650e"},"vehicle_type_id":"4","last_reported":1727680185,"current_range_meters":24800,"station_id":"ce4bhmp2rcd13ifvqgog","pricing_plan_id":"cebpf4jnsgd1na2vs0mg"},{"bike_id":"cd4ce21f-42e9-4fc0-aed4-f067c3cecd8a","system_id":"levelo_inurba_marseille","lat":43.30548,"lon":5.36711,"is_reserved":false,"is_disabled":false,"rental_uris":{"android":"levelo://app?vid=cd4ce21f-42e9-4fc0-aed4-f067c3cecd8a","ios":"levelo://app?vid=cd4ce21f-42e9-4fc0-aed4-f067c3cecd8a"},"vehicle_type_id":"4","last_reported":1727680185,"current_range_meters":16400,"station_id":"ce4bgrp2rcd13ifvqc9g","pricing_plan_id":"cebpf4jnsgd1na2vs0mg"},{"bike_id":"32a469eb-f63a-4351-8088-6a91370d4ec3","system_id":"levelo_inurba_marseille","lat":43.2846,"lon":5.359,"is_reserved":false,"is_disabled":false,"rental_uris":{"android":"levelo://app?vid=32a469eb-f63a-4351-8088-6a91370d4ec3","ios":"levelo://app?vid=32a469eb-f63a-4351-8088-6a91370d4ec3"},"vehicle_type_id":"4","last_reported":1727680185,"current_range_meters":28800,"station_id":"ce4bhah2rcd13ifvqei0","pricing_plan_id":"cebpf4jnsgd1na2vs0mg"},{"bike_id":"b5649e49-dd00-41c5-9844-687f278fac4b","system_id":"levelo_inurba_marseille","lat":43.30543,"lon":5.36559,"is_reserved":false,"is_disabled":false,"rental_uris":{"android":"levelo://app?vid=b5649e49-dd00-41c5-9844-687f278fac4b","ios":"levelo://app?vid=b5649e49-dd00-41c5-9844-687f278fac4b"},"vehicle_type_id":"4","last_reported":1727680185,"current_range_meters":6400,"station_id":"ce4bgs12rcd13ifvqcag","pricing_plan_id":"cebpf4jnsgd1na2vs0mg"},{"bike_id":"7a30f522-2744-40d3-bdf0-9c972c11a926","system_id":"levelo_inurba_marseille","lat":43.30951,"lon":5.39028,"is_reserved":false,"is_disabled":false,"rental_uris":{"android":"levelo://app?vid=7a30f522-2744-40d3-bdf0-9c972c11a926","ios":"levelo://app?vid=7a30f522-2744-40d3-bdf0-9c972c11a926"},"vehicle_type_id":"4","last_reported":1727680185,"current_range_meters":22800,"station_id":"ce4bgup2rcd13ifvqco0","pricing_plan_id":"cebpf4jnsgd1na2vs0mg"},{"bike_id":"b2dfaa66-0562-4ed1-b307-76c5b622af8b","system_id":"levelo_inurba_marseille","lat":43.28341,"lon":5.38192,"is_reserved":false,"is_disabled":false,"rental_uris":{"android":"levelo://app?vid=b2dfaa66-0562-4ed1-b307-76c5b622af8b","ios":"levelo://app?vid=b2dfaa66-0562-4ed1-b307-76c5b622af8b"},"vehicle_type_id":"4","last_reported":1727680185,"current_range_meters":32800,"station_id":"","pricing_plan_id":"cebpf4jnsgd1na2vs0mg"},{"bike_id":"23f1a8ad-c84d-4189-af53-44e7534f25f7","system_id":"levelo_inurba_marseille","lat":43.23154,"lon":5.43709,"is_reserved":false,"is_disabled":false,"rental_uris":{"android":"levelo://app?vid=23f1a8ad-c84d-4189-af53-44e7534f25f7","ios":"levelo://app?vid=23f1a8ad-c84d-4189-af53-44e7534f25f7"},"vehicle_type_id":"4","last_reported":1727680185,"current_range_meters":18800,"station_id":"ce4bhmp2rcd13ifvqgog","pricing_plan_id":"cebpf4jnsgd1na2vs0mg"},{"bike_id":"263086d4-fe32-42d3-9223-82a79c2f5238","system_id":"levelo_inurba_marseille","lat":43.30461,"lon":5.37911,"is_reserved":false,"is_disabled":false,"rental_uris":{"android":"levelo://app?vid=263086d4-fe32-42d3-9223-82a79c2f5238","ios":"levelo://app?vid=263086d4-fe32-42d3-9223-82a79c2f5238"},"vehicle_type_id":"4","last_reported":1727680185,"current_range_meters":17600,"station_id":"ce4bgup2rcd13ifvqcn0","pricing_plan_id":"cebpf4jnsgd1na2vs0mg"},{"bike_id":"bb95ca68-7139-4cd1-9c20-3ac229a34ec8","system_id":"levelo_inurba_marseille","lat":43.24072,"lon":5.37756,"is_reserved":false,"is_disabled":false,"rental_uris":{"android":"levelo://app?vid=bb95ca68-7139-4cd1-9c20-3ac229a34ec8","ios":"levelo://app?vid=bb95ca68-7139-4cd1-9c20-3ac229a34ec8"},"vehicle_type_id":"4","last_reported":1727680185,"current_range_meters":22800,"station_id":"ce4bhnp2rcd13ifvqgvg","pricing_plan_id":"cebpf4jnsgd1na2vs0mg"},{"bike_id":"a03e5656-5b58-4316-ab31-efa2960e129f","system_id":"levelo_inurba_marseille","lat":43.26564,"lon":5.38993,"is_reserved":false,"is_disabled":false,"rental_uris":{"android":"levelo://app?vid=a03e5656-5b58-4316-ab31-efa2960e129f","ios":"levelo://app?vid=a03e5656-5b58-4316-ab31-efa2960e129f"},"vehicle_type_id":"4","last_reported":1727680185,"current_range_meters":18800,"station_id":"ce4bhe12rcd13ifvqf30","pricing_plan_id":"cebpf4jnsgd1na2vs0mg"},{"bike_id":"120bd313-1b12-4c52-b326-310c0bdee22b","system_id":"levelo_inurba_marseille","lat":43.29975,"lon":5.3849,"is_reserved":false,"is_disabled":false,"rental_uris":{"android":"levelo://app?vid=120bd313-1b12-4c52-b326-310c0bdee22b","ios":"levelo://app?vid=120bd313-1b12-4c52-b326-310c0bdee22b"},"vehicle_type_id":"4","last_reported":1727680185,"current_range_meters":38800,"station_id":"ce4bgj92rcd13ifvqbd0","pricing_plan_id":"cebpf4jnsgd1na2vs0mg"},{"bike_id":"9c4259ed-9abf-4ef8-b8f0-00377a29f549","system_id":"levelo_inurba_marseille","lat":43.240816,"lon":5.377516,"is_reserved":false,"is_disabled":false,"rental_uris":{"android":"levelo://app?vid=9c4259ed-9abf-4ef8-b8f0-00377a29f549","ios":"levelo://app?vid=9c4259ed-9abf-4ef8-b8f0-00377a29f549"},"vehicle_type_id":"4","last_reported":1727680185,"current_range_meters":24400,"station_id":"","pricing_plan_id":"cebpf4jnsgd1na2vs0mg"},{"bike_id":"7089082d-97af-45bc-8f8b-59c1786bb8c7","system_id":"levelo_inurba_marseille","lat":43.24178,"lon":5.39719,"is_reserved":false,"is_disabled":false,"rental_uris":{"android":"levelo://app?vid=7089082d-97af-45bc-8f8b-59c1786bb8c7","ios":"levelo://app?vid=7089082d-97af-45bc-8f8b-59c1786bb8c7"},"vehicle_type_id":"4","last_reported":1727680185,"current_range_meters":31200,"station_id":"ce4bhn12rcd13ifvqgpg","pricing_plan_id":"cebpf4jnsgd1na2vs0mg"},{"bike_id":"953bd029-fd51-44a6-95c9-35a39526fc46","system_id":"levelo_inurba_marseille","lat":43.26063,"lon":5.39393,"is_reserved":false,"is_disabled":false,"rental_uris":{"android":"levelo://app?vid=953bd029-fd51-44a6-95c9-35a39526fc46","ios":"levelo://app?vid=953bd029-fd51-44a6-95c9-35a39526fc46"},"vehicle_type_id":"4","last_reported":1727680185,"current_range_meters":38800,"station_id":"ce4bhh92rcd13ifvqfj0","pricing_plan_id":"cebpf4jnsgd1na2vs0mg"},{"bike_id":"bd681dc6-59c5-40c9-b24b-67b88a000f88","system_id":"levelo_inurba_marseille","lat":43.31353,"lon":5.36716,"is_reserved":false,"is_disabled":false,"rental_uris":{"android":"levelo://app?vid=bd681dc6-59c5-40c9-b24b-67b88a000f88","ios":"levelo://app?vid=bd681dc6-59c5-40c9-b24b-67b88a000f88"},"vehicle_type_id":"4","last_reported":1727680185,"current_range_meters":25200,"station_id":"ce4bgr92rcd13ifvqc6g","pricing_plan_id":"cebpf4jnsgd1na2vs0mg"},{"bike_id":"a479afc6-e4b0-4b7d-925a-663cafaecb0e","system_id":"levelo_inurba_marseille","lat":43.24075,"lon":5.37759,"is_reserved":false,"is_disabled":false,"rental_uris":{"android":"levelo://app?vid=a479afc6-e4b0-4b7d-925a-663cafaecb0e","ios":"levelo://app?vid=a479afc6-e4b0-4b7d-925a-663cafaecb0e"},"vehicle_type_id":"4","last_reported":1727680185,"current_range_meters":24000,"station_id":"ce4bhnp2rcd13ifvqgvg","pricing_plan_id":"cebpf4jnsgd1na2vs0mg"},{"bike_id":"7497ada0-4e52-442c-9aa1-86afe522b93f","system_id":"levelo_inurba_marseille","lat":43.29902,"lon":5.43662,"is_reserved":false,"is_disabled":false,"rental_uris":{"android":"levelo://app?vid=7497ada0-4e52-442c-9aa1-86afe522b93f","ios":"levelo://app?vid=7497ada0-4e52-442c-9aa1-86afe522b93f"},"vehicle_type_id":"4","last_reported":1727680185,"current_range_meters":20400,"station_id":"ce4bhpp2rcd13ifvqhfg","pricing_plan_id":"cebpf4jnsgd1na2vs0mg"},{"bike_id":"d31565ef-bfc4-4f47-b8f2-e14f7f1689f5","system_id":"levelo_inurba_marseille","lat":43.30549,"lon":5.36693,"is_reserved":false,"is_disabled":false,"rental_uris":{"android":"levelo://app?vid=d31565ef-bfc4-4f47-b8f2-e14f7f1689f5","ios":"levelo://app?vid=d31565ef-bfc4-4f47-b8f2-e14f7f1689f5"},"vehicle_type_id":"4","last_reported":1727680185,"current_range_meters":36800,"station_id":"ce4bgrp2rcd13ifvqc9g","pricing_plan_id":"cebpf4jnsgd1na2vs0mg"},{"bike_id":"315880d6-2164-456e-b31d-c53f62b4acb8","system_id":"levelo_inurba_marseille","lat":43.30147,"lon":5.38081,"is_reserved":false,"is_disabled":false,"rental_uris":{"android":"levelo://app?vid=315880d6-2164-456e-b31d-c53f62b4acb8","ios":"levelo://app?vid=315880d6-2164-456e-b31d-c53f62b4acb8"},"vehicle_type_id":"4","last_reported":1727680185,"current_range_meters":33600,"station_id":"ce4bgjp2rcd13ifvqbh0","pricing_plan_id":"cebpf4jnsgd1na2vs0mg"},{"bike_id":"f414b21f-848f-44ec-af44-5bc3096d6ed1","system_id":"levelo_inurba_marseille","lat":43.30306,"lon":5.36885,"is_reserved":false,"is_disabled":false,"rental_uris":{"android":"levelo://app?vid=f414b21f-848f-44ec-af44-5bc3096d6ed1","ios":"levelo://app?vid=f414b21f-848f-44ec-af44-5bc3096d6ed1"},"vehicle_type_id":"4","last_reported":1727680185,"current_range_meters":34800,"station_id":"ce4bgqh2rcd13ifvqc5g","pricing_plan_id":"cebpf4jnsgd1na2vs0mg"},{"bike_id":"530ebee0-3821-4918-8f9b-3c2003125331","system_id":"levelo_inurba_marseille","lat":43.24082,"lon":5.37744,"is_reserved":false,"is_disabled":false,"rental_uris":{"android":"levelo://app?vid=530ebee0-3821-4918-8f9b-3c2003125331","ios":"levelo://app?vid=530ebee0-3821-4918-8f9b-3c2003125331"},"vehicle_type_id":"4","last_reported":1727680185,"current_range_meters":8400,"station_id":"ce4bhnp2rcd13ifvqgvg","pricing_plan_id":"cebpf4jnsgd1na2vs0mg"},{"bike_id":"87039c6c-3a2f-44e3-9ded-90190baf7c99","system_id":"levelo_inurba_marseille","lat":43.25931,"lon":5.4091,"is_reserved":false,"is_disabled":false,"rental_uris":{"android":"levelo://app?vid=87039c6c-3a2f-44e3-9ded-90190baf7c99","ios":"levelo://app?vid=87039c6c-3a2f-44e3-9ded-90190baf7c99"},"vehicle_type_id":"4","last_reported":1727680185,"current_range_meters":19600,"station_id":"ce4bhm92rcd13ifvqglg","pricing_plan_id":"cebpf4jnsgd1na2vs0mg"},{"bike_id":"f7cc80ad-77bd-4c96-a101-ec548afd2b85","system_id":"levelo_inurba_marseille","lat":43.24069,"lon":5.37758,"is_reserved":false,"is_disabled":false,"rental_uris":{"android":"levelo://app?vid=f7cc80ad-77bd-4c96-a101-ec548afd2b85","ios":"levelo://app?vid=f7cc80ad-77bd-4c96-a101-ec548afd2b85"},"vehicle_type_id":"4","last_reported":1727680185,"current_range_meters":21600,"station_id":"ce4bhnp2rcd13ifvqgvg","pricing_plan_id":"cebpf4jnsgd1na2vs0mg"},{"bike_id":"a062e986-4d6c-44c4-9c62-8e69d5cd5a09","system_id":"levelo_inurba_marseille","lat":43.26482,"lon":5.39546,"is_reserved":false,"is_disabled":false,"rental_uris":{"android":"levelo://app?vid=a062e986-4d6c-44c4-9c62-8e69d5cd5a09","ios":"levelo://app?vid=a062e986-4d6c-44c4-9c62-8e69d5cd5a09"},"vehicle_type_id":"4","last_reported":1727680185,"current_range_meters":14400,"station_id":"ce4bhi12rcd13ifvqfq0","pricing_plan_id":"cebpf4jnsgd1na2vs0mg"},{"bike_id":"bc1e9473-ffb7-43e8-86bc-dfe53d3bb365","system_id":"levelo_inurba_marseille","lat":43.25108,"lon":5.40325,"is_reserved":false,"is_disabled":false,"rental_uris":{"android":"levelo://app?vid=bc1e9473-ffb7-43e8-86bc-dfe53d3bb365","ios":"levelo://app?vid=bc1e9473-ffb7-43e8-86bc-dfe53d3bb365"},"vehicle_type_id":"4","last_reported":1727680185,"current_range_meters":28400,"station_id":"ce4bhlh2rcd13ifvqgig","pricing_plan_id":"cebpf4jnsgd1na2vs0mg"},{"bike_id":"db4a67dd-3afe-428b-b928-424c51b31f24","system_id":"levelo_inurba_marseille","lat":43.30309,"lon":5.36899,"is_reserved":false,"is_disabled":false,"rental_uris":{"android":"levelo://app?vid=db4a67dd-3afe-428b-b928-424c51b31f24","ios":"levelo://app?vid=db4a67dd-3afe-428b-b928-424c51b31f24"},"vehicle_type_id":"4","last_reported":1727680185,"current_range_meters":38800,"station_id":"ce4bgqh2rcd13ifvqc5g","pricing_plan_id":"cebpf4jnsgd1na2vs0mg"},{"bike_id":"88b03e43-181a-428b-85a8-9b6f0f93a2ec","system_id":"levelo_inurba_marseille","lat":43.33715,"lon":5.39177,"is_reserved":false,"is_disabled":false,"rental_uris":{"android":"levelo://app?vid=88b03e43-181a-428b-85a8-9b6f0f93a2ec","ios":"levelo://app?vid=88b03e43-181a-428b-85a8-9b6f0f93a2ec"},"vehicle_type_id":"4","last_reported":1727680185,"current_range_meters":26000,"station_id":"ce4bhr92rcd13ifvqhsg","pricing_plan_id":"cebpf4jnsgd1na2vs0mg"},{"bike_id":"6d713e72-44cf-4d8b-adc7-d7681c25c3cd","system_id":"levelo_inurba_marseille","lat":43.29567,"lon":5.37484,"is_reserved":false,"is_disabled":false,"rental_uris":{"android":"levelo://app?vid=6d713e72-44cf-4d8b-adc7-d7681c25c3cd","ios":"levelo://app?vid=6d713e72-44cf-4d8b-adc7-d7681c25c3cd"},"vehicle_type_id":"4","last_reported":1727680185,"current_range_meters":6800,"station_id":"ce4bgh92rcd13ifvqb50","pricing_plan_id":"cebpf4jnsgd1na2vs0mg"},{"bike_id":"83115145-dad2-4ef0-984d-db9d4390c153","system_id":"levelo_inurba_marseille","lat":43.24083,"lon":5.37749,"is_reserved":false,"is_disabled":false,"rental_uris":{"android":"levelo://app?vid=83115145-dad2-4ef0-984d-db9d4390c153","ios":"levelo://app?vid=83115145-dad2-4ef0-984d-db9d4390c153"},"vehicle_type_id":"4","last_reported":1727680185,"current_range_meters":6800,"station_id":"ce4bhnp2rcd13ifvqgvg","pricing_plan_id":"cebpf4jnsgd1na2vs0mg"},{"bike_id":"8ed776a1-a273-47f5-bd5e-e3e0683b8847","system_id":"levelo_inurba_marseille","lat":43.29038,"lon":5.3758,"is_reserved":false,"is_disabled":false,"rental_uris":{"android":"levelo://app?vid=8ed776a1-a273-47f5-bd5e-e3e0683b8847","ios":"levelo://app?vid=8ed776a1-a273-47f5-bd5e-e3e0683b8847"},"vehicle_type_id":"4","last_reported":1727680185,"current_range_meters":32000,"station_id":"ce4bh692rcd13ifvqe90","pricing_plan_id":"cebpf4jnsgd1na2vs0mg"},{"bike_id":"7e96e272-77c6-4c7f-9738-135ce0a1a91f","system_id":"levelo_inurba_marseille","lat":43.29371,"lon":5.37846,"is_reserved":false,"is_disabled":false,"rental_uris":{"android":"levelo://app?vid=7e96e272-77c6-4c7f-9738-135ce0a1a91f","ios":"levelo://app?vid=7e96e272-77c6-4c7f-9738-135ce0a1a91f"},"vehicle_type_id":"4","last_reported":1727680185,"current_range_meters":30800,"station_id":"ce4bgjh2rcd13ifvqbf0","pricing_plan_id":"cebpf4jnsgd1na2vs0mg"},{"bike_id":"4bf17278-821c-44d9-9e1b-8440f028916f","system_id":"levelo_inurba_marseille","lat":43.248047,"lon":5.374573,"is_reserved":false,"is_disabled":false,"rental_uris":{"android":"levelo://app?vid=4bf17278-821c-44d9-9e1b-8440f028916f","ios":"levelo://app?vid=4bf17278-821c-44d9-9e1b-8440f028916f"},"vehicle_type_id":"4","last_reported":1727680185,"current_range_meters":8800,"station_id":"ce4bhgh2rcd13ifvqfb0","pricing_plan_id":"cebpf4jnsgd1na2vs0mg"},{"bike_id":"9867d4fd-ff3e-4548-bfcd-bb42d6314c2a","system_id":"levelo_inurba_marseille","lat":43.31493,"lon":5.37303,"is_reserved":false,"is_disabled":false,"rental_uris":{"android":"levelo://app?vid=9867d4fd-ff3e-4548-bfcd-bb42d6314c2a","ios":"levelo://app?vid=9867d4fd-ff3e-4548-bfcd-bb42d6314c2a"},"vehicle_type_id":"4","last_reported":1727680185,"current_range_meters":38000,"station_id":"ce4bgt12rcd13ifvqcd0","pricing_plan_id":"cebpf4jnsgd1na2vs0mg"},{"bike_id":"efdb6d89-2d54-42e1-85c1-ccc9e19e3a19","system_id":"levelo_inurba_marseille","lat":43.23149,"lon":5.43717,"is_reserved":false,"is_disabled":false,"rental_uris":{"android":"levelo://app?vid=efdb6d89-2d54-42e1-85c1-ccc9e19e3a19","ios":"levelo://app?vid=efdb6d89-2d54-42e1-85c1-ccc9e19e3a19"},"vehicle_type_id":"4","last_reported":1727680185,"current_range_meters":26800,"station_id":"ce4bhmp2rcd13ifvqgog","pricing_plan_id":"cebpf4jnsgd1na2vs0mg"},{"bike_id":"80052677-a184-47b6-b7ba-4401badcd8a9","system_id":"levelo_inurba_marseille","lat":43.3229,"lon":5.38243,"is_reserved":false,"is_disabled":false,"rental_uris":{"android":"levelo://app?vid=80052677-a184-47b6-b7ba-4401badcd8a9","ios":"levelo://app?vid=80052677-a184-47b6-b7ba-4401badcd8a9"},"vehicle_type_id":"4","last_reported":1727680185,"current_range_meters":38800,"station_id":"ce4bhr12rcd13ifvqhqg","pricing_plan_id":"cebpf4jnsgd1na2vs0mg"},{"bike_id":"105e42e4-8068-41c8-85a4-c23266291b6f","system_id":"levelo_inurba_marseille","lat":43.30152,"lon":5.38074,"is_reserved":false,"is_disabled":false,"rental_uris":{"android":"levelo://app?vid=105e42e4-8068-41c8-85a4-c23266291b6f","ios":"levelo://app?vid=105e42e4-8068-41c8-85a4-c23266291b6f"},"vehicle_type_id":"4","last_reported":1727680185,"current_range_meters":27600,"station_id":"ce4bgjp2rcd13ifvqbh0","pricing_plan_id":"cebpf4jnsgd1na2vs0mg"},{"bike_id":"058e9cd7-c8c0-4b19-b947-ea021825101d","system_id":"levelo_inurba_marseille","lat":43.30464,"lon":5.37891,"is_reserved":false,"is_disabled":false,"rental_uris":{"android":"levelo://app?vid=058e9cd7-c8c0-4b19-b947-ea021825101d","ios":"levelo://app?vid=058e9cd7-c8c0-4b19-b947-ea021825101d"},"vehicle_type_id":"4","last_reported":1727680185,"current_range_meters":5600,"station_id":"ce4bgup2rcd13ifvqcn0","pricing_plan_id":"cebpf4jnsgd1na2vs0mg"},{"bike_id":"c429f741-e09b-4c0e-8c65-ff71e1baa928","system_id":"levelo_inurba_marseille","lat":43.30143,"lon":5.40458,"is_reserved":false,"is_disabled":false,"rental_uris":{"android":"levelo://app?vid=c429f741-e09b-4c0e-8c65-ff71e1baa928","ios":"levelo://app?vid=c429f741-e09b-4c0e-8c65-ff71e1baa928"},"vehicle_type_id":"4","last_reported":1727680185,"current_range_meters":15200,"station_id":"","pricing_plan_id":"cebpf4jnsgd1na2vs0mg"},{"bike_id":"0fd73f05-8e43-492f-90cc-fb7f2fe4e440","system_id":"levelo_inurba_marseille","lat":43.24073,"lon":5.37763,"is_reserved":false,"is_disabled":false,"rental_uris":{"android":"levelo://app?vid=0fd73f05-8e43-492f-90cc-fb7f2fe4e440","ios":"levelo://app?vid=0fd73f05-8e43-492f-90cc-fb7f2fe4e440"},"vehicle_type_id":"4","last_reported":1727680185,"current_range_meters":34800,"station_id":"ce4bhnp2rcd13ifvqgvg","pricing_plan_id":"cebpf4jnsgd1na2vs0mg"},{"bike_id":"a974d009-942e-477b-b4db-19f84bd48313","system_id":"levelo_inurba_marseille","lat":43.31871,"lon":5.387,"is_reserved":false,"is_disabled":false,"rental_uris":{"android":"levelo://app?vid=a974d009-942e-477b-b4db-19f84bd48313","ios":"levelo://app?vid=a974d009-942e-477b-b4db-19f84bd48313"},"vehicle_type_id":"4","last_reported":1727680185,"current_range_meters":38400,"station_id":"","pricing_plan_id":"cebpf4jnsgd1na2vs0mg"},{"bike_id":"625d6a88-eabd-4781-bcf3-17f173c69536","system_id":"levelo_inurba_marseille","lat":43.28154,"lon":5.42643,"is_reserved":false,"is_disabled":false,"rental_uris":{"android":"levelo://app?vid=625d6a88-eabd-4781-bcf3-17f173c69536","ios":"levelo://app?vid=625d6a88-eabd-4781-bcf3-17f173c69536"},"vehicle_type_id":"4","last_reported":1727680185,"current_range_meters":30000,"station_id":"ce4bhnh2rcd13ifvqgug","pricing_plan_id":"cebpf4jnsgd1na2vs0mg"},{"bike_id":"eae568a8-5dcd-4cf7-8902-d8cb05ec95c8","system_id":"levelo_inurba_marseille","lat":43.26685,"lon":5.38274,"is_reserved":false,"is_disabled":false,"rental_uris":{"android":"levelo://app?vid=eae568a8-5dcd-4cf7-8902-d8cb05ec95c8","ios":"levelo://app?vid=eae568a8-5dcd-4cf7-8902-d8cb05ec95c8"},"vehicle_type_id":"4","last_reported":1727680185,"current_range_meters":35200,"station_id":"ce4bhg92rcd13ifvqf90","pricing_plan_id":"cebpf4jnsgd1na2vs0mg"},{"bike_id":"acb4089f-c4d6-40a3-96a6-de7c216e4312","system_id":"levelo_inurba_marseille","lat":43.28716,"lon":5.3793,"is_reserved":false,"is_disabled":false,"rental_uris":{"android":"levelo://app?vid=acb4089f-c4d6-40a3-96a6-de7c216e4312","ios":"levelo://app?vid=acb4089f-c4d6-40a3-96a6-de7c216e4312"},"vehicle_type_id":"4","last_reported":1727680185,"current_range_meters":9200,"station_id":"ce4bh9p2rcd13ifvqec0","pricing_plan_id":"cebpf4jnsgd1na2vs0mg"},{"bike_id":"3ae16357-9b43-46d1-bbc8-483fcc70804b","system_id":"levelo_inurba_marseille","lat":43.25723,"lon":5.41107,"is_reserved":false,"is_disabled":false,"rental_uris":{"android":"levelo://app?vid=3ae16357-9b43-46d1-bbc8-483fcc70804b","ios":"levelo://app?vid=3ae16357-9b43-46d1-bbc8-483fcc70804b"},"vehicle_type_id":"4","last_reported":1727680185,"current_range_meters":25200,"station_id":"ce4bhkp2rcd13ifvqgd0","pricing_plan_id":"cebpf4jnsgd1na2vs0mg"},{"bike_id":"5b1e6b45-b9f7-4757-8096-289c0ad74507","system_id":"levelo_inurba_marseille","lat":43.30904,"lon":5.36837,"is_reserved":false,"is_disabled":false,"rental_uris":{"android":"levelo://app?vid=5b1e6b45-b9f7-4757-8096-289c0ad74507","ios":"levelo://app?vid=5b1e6b45-b9f7-4757-8096-289c0ad74507"},"vehicle_type_id":"4","last_reported":1727680185,"current_range_meters":26800,"station_id":"ce4bgn92rcd13ifvqbvg","pricing_plan_id":"cebpf4jnsgd1na2vs0mg"},{"bike_id":"df361b3e-d4f6-4f76-9887-5f4f249d5d52","system_id":"levelo_inurba_marseille","lat":43.31338,"lon":5.36725,"is_reserved":false,"is_disabled":false,"rental_uris":{"android":"levelo://app?vid=df361b3e-d4f6-4f76-9887-5f4f249d5d52","ios":"levelo://app?vid=df361b3e-d4f6-4f76-9887-5f4f249d5d52"},"vehicle_type_id":"4","last_reported":1727680185,"current_range_meters":31200,"station_id":"ce4bgr92rcd13ifvqc6g","pricing_plan_id":"cebpf4jnsgd1na2vs0mg"},{"bike_id":"15e6c52c-2e8e-4646-b211-8568e363d640","system_id":"levelo_inurba_marseille","lat":43.34142,"lon":5.40906,"is_reserved":false,"is_disabled":false,"rental_uris":{"android":"levelo://app?vid=15e6c52c-2e8e-4646-b211-8568e363d640","ios":"levelo://app?vid=15e6c52c-2e8e-4646-b211-8568e363d640"},"vehicle_type_id":"4","last_reported":1727680185,"current_range_meters":20000,"station_id":"ce4bhqh2rcd13ifvqhlg","pricing_plan_id":"cebpf4jnsgd1na2vs0mg"},{"bike_id":"0701cf2a-674c-4c9d-af1e-6650acbaaf74","system_id":"levelo_inurba_marseille","lat":43.28384,"lon":5.37302,"is_reserved":false,"is_disabled":false,"rental_uris":{"android":"levelo://app?vid=0701cf2a-674c-4c9d-af1e-6650acbaaf74","ios":"levelo://app?vid=0701cf2a-674c-4c9d-af1e-6650acbaaf74"},"vehicle_type_id":"4","last_reported":1727680185,"current_range_meters":6400,"station_id":"","pricing_plan_id":"cebpf4jnsgd1na2vs0mg"},{"bike_id":"54ce340b-8244-4276-b90d-16ea1884eb65","system_id":"levelo_inurba_marseille","lat":43.27677,"lon":5.38899,"is_reserved":false,"is_disabled":false,"rental_uris":{"android":"levelo://app?vid=54ce340b-8244-4276-b90d-16ea1884eb65","ios":"levelo://app?vid=54ce340b-8244-4276-b90d-16ea1884eb65"},"vehicle_type_id":"4","last_reported":1727680185,"current_range_meters":28800,"station_id":"ce4bhi12rcd13ifvqfo0","pricing_plan_id":"cebpf4jnsgd1na2vs0mg"},{"bike_id":"12d64567-b332-463d-9fc5-419146ebd006","system_id":"levelo_inurba_marseille","lat":43.30157,"lon":5.38086,"is_reserved":false,"is_disabled":false,"rental_uris":{"android":"levelo://app?vid=12d64567-b332-463d-9fc5-419146ebd006","ios":"levelo://app?vid=12d64567-b332-463d-9fc5-419146ebd006"},"vehicle_type_id":"4","last_reported":1727680185,"current_range_meters":24000,"station_id":"ce4bgjp2rcd13ifvqbh0","pricing_plan_id":"cebpf4jnsgd1na2vs0mg"},{"bike_id":"6fed74f2-1353-48f3-9825-479d416e26f0","system_id":"levelo_inurba_marseille","lat":43.30461,"lon":5.37897,"is_reserved":false,"is_disabled":false,"rental_uris":{"android":"levelo://app?vid=6fed74f2-1353-48f3-9825-479d416e26f0","ios":"levelo://app?vid=6fed74f2-1353-48f3-9825-479d416e26f0"},"vehicle_type_id":"4","last_reported":1727680185,"current_range_meters":31200,"station_id":"ce4bgup2rcd13ifvqcn0","pricing_plan_id":"cebpf4jnsgd1na2vs0mg"},{"bike_id":"08aa4a0f-6472-4dd1-9ab2-6f45d502de3f","system_id":"levelo_inurba_marseille","lat":43.30144,"lon":5.37427,"is_reserved":false,"is_disabled":false,"rental_uris":{"android":"levelo://app?vid=08aa4a0f-6472-4dd1-9ab2-6f45d502de3f","ios":"levelo://app?vid=08aa4a0f-6472-4dd1-9ab2-6f45d502de3f"},"vehicle_type_id":"4","last_reported":1727680185,"current_range_meters":38800,"station_id":"ce4bgs92rcd13ifvqcc0","pricing_plan_id":"cebpf4jnsgd1na2vs0mg"},{"bike_id":"7199a17f-8505-4d54-b9b6-2ec943c49cf2","system_id":"levelo_inurba_marseille","lat":43.33031,"lon":5.39381,"is_reserved":false,"is_disabled":false,"rental_uris":{"android":"levelo://app?vid=7199a17f-8505-4d54-b9b6-2ec943c49cf2","ios":"levelo://app?vid=7199a17f-8505-4d54-b9b6-2ec943c49cf2"},"vehicle_type_id":"4","last_reported":1727680185,"current_range_meters":36800,"station_id":"","pricing_plan_id":"cebpf4jnsgd1na2vs0mg"},{"bike_id":"9f4b8806-0737-4c36-bde4-6bc8c0d0630a","system_id":"levelo_inurba_marseille","lat":43.239575,"lon":5.366225,"is_reserved":false,"is_disabled":false,"rental_uris":{"android":"levelo://app?vid=9f4b8806-0737-4c36-bde4-6bc8c0d0630a","ios":"levelo://app?vid=9f4b8806-0737-4c36-bde4-6bc8c0d0630a"},"vehicle_type_id":"4","last_reported":1727680185,"current_range_meters":38000,"station_id":"ce4bhi12rcd13ifvqfp0","pricing_plan_id":"cebpf4jnsgd1na2vs0mg"},{"bike_id":"e3931778-988b-4915-9d0a-b8542670c10b","system_id":"levelo_inurba_marseille","lat":43.32542,"lon":5.41427,"is_reserved":false,"is_disabled":false,"rental_uris":{"android":"levelo://app?vid=e3931778-988b-4915-9d0a-b8542670c10b","ios":"levelo://app?vid=e3931778-988b-4915-9d0a-b8542670c10b"},"vehicle_type_id":"4","last_reported":1727680185,"current_range_meters":25200,"station_id":"ce4bhq12rcd13ifvqhhg","pricing_plan_id":"cebpf4jnsgd1na2vs0mg"},{"bike_id":"c89039fe-3b7f-4d0f-81d3-7a380e2b76b7","system_id":"levelo_inurba_marseille","lat":43.23154,"lon":5.43714,"is_reserved":false,"is_disabled":false,"rental_uris":{"android":"levelo://app?vid=c89039fe-3b7f-4d0f-81d3-7a380e2b76b7","ios":"levelo://app?vid=c89039fe-3b7f-4d0f-81d3-7a380e2b76b7"},"vehicle_type_id":"4","last_reported":1727680185,"current_range_meters":17200,"station_id":"ce4bhmp2rcd13ifvqgog","pricing_plan_id":"cebpf4jnsgd1na2vs0mg"},{"bike_id":"78323160-a684-4351-8108-f7ebcc0842b2","system_id":"levelo_inurba_marseille","lat":43.23153,"lon":5.43711,"is_reserved":false,"is_disabled":false,"rental_uris":{"android":"levelo://app?vid=78323160-a684-4351-8108-f7ebcc0842b2","ios":"levelo://app?vid=78323160-a684-4351-8108-f7ebcc0842b2"},"vehicle_type_id":"4","last_reported":1727680185,"current_range_meters":16000,"station_id":"ce4bhmp2rcd13ifvqgog","pricing_plan_id":"cebpf4jnsgd1na2vs0mg"},{"bike_id":"0aff8ccb-c6d1-4d37-bc76-1b17caf59258","system_id":"levelo_inurba_marseille","lat":43.301395,"lon":5.374186,"is_reserved":false,"is_disabled":false,"rental_uris":{"android":"levelo://app?vid=0aff8ccb-c6d1-4d37-bc76-1b17caf59258","ios":"levelo://app?vid=0aff8ccb-c6d1-4d37-bc76-1b17caf59258"},"vehicle_type_id":"4","last_reported":1727680185,"current_range_meters":37600,"station_id":"ce4bgs92rcd13ifvqcc0","pricing_plan_id":"cebpf4jnsgd1na2vs0mg"},{"bike_id":"9bd34010-dda1-43a8-87b6-b41c6d206ee7","system_id":"levelo_inurba_marseille","lat":43.30285,"lon":5.37711,"is_reserved":false,"is_disabled":false,"rental_uris":{"android":"levelo://app?vid=9bd34010-dda1-43a8-87b6-b41c6d206ee7","ios":"levelo://app?vid=9bd34010-dda1-43a8-87b6-b41c6d206ee7"},"vehicle_type_id":"4","last_reported":1727680185,"current_range_meters":6400,"station_id":"ce4bguh2rcd13ifvqcj0","pricing_plan_id":"cebpf4jnsgd1na2vs0mg"},{"bike_id":"895d2516-b4b7-42ee-b0e9-958fd4e8c2e2","system_id":"levelo_inurba_marseille","lat":43.27994,"lon":5.40017,"is_reserved":false,"is_disabled":false,"rental_uris":{"android":"levelo://app?vid=895d2516-b4b7-42ee-b0e9-958fd4e8c2e2","ios":"levelo://app?vid=895d2516-b4b7-42ee-b0e9-958fd4e8c2e2"},"vehicle_type_id":"4","last_reported":1727680185,"current_range_meters":38800,"station_id":"ce4bho92rcd13ifvqh4g","pricing_plan_id":"cebpf4jnsgd1na2vs0mg"},{"bike_id":"50e1af3d-05da-4f52-bc9e-73ac6c89bc76","system_id":"levelo_inurba_marseille","lat":43.26941,"lon":5.40253,"is_reserved":false,"is_disabled":false,"rental_uris":{"android":"levelo://app?vid=50e1af3d-05da-4f52-bc9e-73ac6c89bc76","ios":"levelo://app?vid=50e1af3d-05da-4f52-bc9e-73ac6c89bc76"},"vehicle_type_id":"4","last_reported":1727680185,"current_range_meters":38400,"station_id":"cjm6bp8fraef2m0cb0m0","pricing_plan_id":"cebpf4jnsgd1na2vs0mg"},{"bike_id":"ca622d70-8938-4b45-88db-a133ce4c9906","system_id":"levelo_inurba_marseille","lat":43.32482,"lon":5.36579,"is_reserved":false,"is_disabled":false,"rental_uris":{"android":"levelo://app?vid=ca622d70-8938-4b45-88db-a133ce4c9906","ios":"levelo://app?vid=ca622d70-8938-4b45-88db-a133ce4c9906"},"vehicle_type_id":"4","last_reported":1727680185,"current_range_meters":24800,"station_id":"ce4bhs12rcd13ifvqhvg","pricing_plan_id":"cebpf4jnsgd1na2vs0mg"},{"bike_id":"b90e47d3-eb17-47a7-bb12-a33cc6a8d663","system_id":"levelo_inurba_marseille","lat":43.282532,"lon":5.350729,"is_reserved":false,"is_disabled":false,"rental_uris":{"android":"levelo://app?vid=b90e47d3-eb17-47a7-bb12-a33cc6a8d663","ios":"levelo://app?vid=b90e47d3-eb17-47a7-bb12-a33cc6a8d663"},"vehicle_type_id":"4","last_reported":1727680185,"current_range_meters":31200,"station_id":"","pricing_plan_id":"cebpf4jnsgd1na2vs0mg"},{"bike_id":"aa69ea77-4a91-4601-9261-d3cacee7eb3d","system_id":"levelo_inurba_marseille","lat":43.30911,"lon":5.3684,"is_reserved":false,"is_disabled":false,"rental_uris":{"android":"levelo://app?vid=aa69ea77-4a91-4601-9261-d3cacee7eb3d","ios":"levelo://app?vid=aa69ea77-4a91-4601-9261-d3cacee7eb3d"},"vehicle_type_id":"4","last_reported":1727680185,"current_range_meters":35600,"station_id":"ce4bgn92rcd13ifvqbvg","pricing_plan_id":"cebpf4jnsgd1na2vs0mg"},{"bike_id":"c7bd2519-2094-49e9-9d5a-56c00b1a2b1c","system_id":"levelo_inurba_marseille","lat":43.26566,"lon":5.38999,"is_reserved":false,"is_disabled":false,"rental_uris":{"android":"levelo://app?vid=c7bd2519-2094-49e9-9d5a-56c00b1a2b1c","ios":"levelo://app?vid=c7bd2519-2094-49e9-9d5a-56c00b1a2b1c"},"vehicle_type_id":"4","last_reported":1727680185,"current_range_meters":38800,"station_id":"ce4bhe12rcd13ifvqf30","pricing_plan_id":"cebpf4jnsgd1na2vs0mg"},{"bike_id":"1ed095f5-d992-439d-8293-42cd1e535d29","system_id":"levelo_inurba_marseille","lat":43.33611,"lon":5.41031,"is_reserved":false,"is_disabled":false,"rental_uris":{"android":"levelo://app?vid=1ed095f5-d992-439d-8293-42cd1e535d29","ios":"levelo://app?vid=1ed095f5-d992-439d-8293-42cd1e535d29"},"vehicle_type_id":"4","last_reported":1727680185,"current_range_meters":30400,"station_id":"ce4bhqh2rcd13ifvqhmg","pricing_plan_id":"cebpf4jnsgd1na2vs0mg"},{"bike_id":"ad74eb91-1b07-4d1c-be32-c25e2bdd80e9","system_id":"levelo_inurba_marseille","lat":43.24082,"lon":5.37753,"is_reserved":false,"is_disabled":false,"rental_uris":{"android":"levelo://app?vid=ad74eb91-1b07-4d1c-be32-c25e2bdd80e9","ios":"levelo://app?vid=ad74eb91-1b07-4d1c-be32-c25e2bdd80e9"},"vehicle_type_id":"4","last_reported":1727680185,"current_range_meters":12000,"station_id":"ce4bhnp2rcd13ifvqgvg","pricing_plan_id":"cebpf4jnsgd1na2vs0mg"},{"bike_id":"2ab05bf8-eca7-437d-b897-4c5c531ec1af","system_id":"levelo_inurba_marseille","lat":43.31693,"lon":5.377383,"is_reserved":false,"is_disabled":false,"rental_uris":{"android":"levelo://app?vid=2ab05bf8-eca7-437d-b897-4c5c531ec1af","ios":"levelo://app?vid=2ab05bf8-eca7-437d-b897-4c5c531ec1af"},"vehicle_type_id":"4","last_reported":1727680185,"current_range_meters":4800,"station_id":"ce4bgth2rcd13ifvqch0","pricing_plan_id":"cebpf4jnsgd1na2vs0mg"},{"bike_id":"e509df0c-5f36-4daf-ba2a-4d8da772d702","system_id":"levelo_inurba_marseille","lat":43.27627,"lon":5.361,"is_reserved":false,"is_disabled":false,"rental_uris":{"android":"levelo://app?vid=e509df0c-5f36-4daf-ba2a-4d8da772d702","ios":"levelo://app?vid=e509df0c-5f36-4daf-ba2a-4d8da772d702"},"vehicle_type_id":"4","last_reported":1727680185,"current_range_meters":29600,"station_id":"ce4bgj92rcd13ifvqbe0","pricing_plan_id":"cebpf4jnsgd1na2vs0mg"},{"bike_id":"ece9fc5e-e0ee-4ca0-8f59-27887a2142cd","system_id":"levelo_inurba_marseille","lat":43.30541,"lon":5.36528,"is_reserved":false,"is_disabled":false,"rental_uris":{"android":"levelo://app?vid=ece9fc5e-e0ee-4ca0-8f59-27887a2142cd","ios":"levelo://app?vid=ece9fc5e-e0ee-4ca0-8f59-27887a2142cd"},"vehicle_type_id":"4","last_reported":1727680185,"current_range_meters":40000,"station_id":"ce4bgs12rcd13ifvqcag","pricing_plan_id":"cebpf4jnsgd1na2vs0mg"},{"bike_id":"593d4694-b30f-4bb6-9159-8d4ed8d9b09e","system_id":"levelo_inurba_marseille","lat":43.34143,"lon":5.40902,"is_reserved":false,"is_disabled":false,"rental_uris":{"android":"levelo://app?vid=593d4694-b30f-4bb6-9159-8d4ed8d9b09e","ios":"levelo://app?vid=593d4694-b30f-4bb6-9159-8d4ed8d9b09e"},"vehicle_type_id":"4","last_reported":1727680185,"current_range_meters":31200,"station_id":"ce4bhqh2rcd13ifvqhlg","pricing_plan_id":"cebpf4jnsgd1na2vs0mg"},{"bike_id":"37b4aafb-2b43-44ac-9811-3822d689cd57","system_id":"levelo_inurba_marseille","lat":43.30903,"lon":5.3684,"is_reserved":false,"is_disabled":false,"rental_uris":{"android":"levelo://app?vid=37b4aafb-2b43-44ac-9811-3822d689cd57","ios":"levelo://app?vid=37b4aafb-2b43-44ac-9811-3822d689cd57"},"vehicle_type_id":"4","last_reported":1727680185,"current_range_meters":25200,"station_id":"ce4bgn92rcd13ifvqbvg","pricing_plan_id":"cebpf4jnsgd1na2vs0mg"},{"bike_id":"16aef7bc-6e34-4da1-be38-669be00420e2","system_id":"levelo_inurba_marseille","lat":43.299,"lon":5.43677,"is_reserved":false,"is_disabled":false,"rental_uris":{"android":"levelo://app?vid=16aef7bc-6e34-4da1-be38-669be00420e2","ios":"levelo://app?vid=16aef7bc-6e34-4da1-be38-669be00420e2"},"vehicle_type_id":"4","last_reported":1727680185,"current_range_meters":24400,"station_id":"ce4bhpp2rcd13ifvqhfg","pricing_plan_id":"cebpf4jnsgd1na2vs0mg"},{"bike_id":"53f1b2f7-4012-4f91-9de8-ccd7a852925e","system_id":"levelo_inurba_marseille","lat":43.27493,"lon":5.42455,"is_reserved":false,"is_disabled":false,"rental_uris":{"android":"levelo://app?vid=53f1b2f7-4012-4f91-9de8-ccd7a852925e","ios":"levelo://app?vid=53f1b2f7-4012-4f91-9de8-ccd7a852925e"},"vehicle_type_id":"4","last_reported":1727680185,"current_range_meters":24800,"station_id":"ce4bhn92rcd13ifvqgrg","pricing_plan_id":"cebpf4jnsgd1na2vs0mg"},{"bike_id":"de6a9ca1-3625-4e92-b6fc-cd71be0895d9","system_id":"levelo_inurba_marseille","lat":43.27492,"lon":5.42453,"is_reserved":false,"is_disabled":false,"rental_uris":{"android":"levelo://app?vid=de6a9ca1-3625-4e92-b6fc-cd71be0895d9","ios":"levelo://app?vid=de6a9ca1-3625-4e92-b6fc-cd71be0895d9"},"vehicle_type_id":"4","last_reported":1727680185,"current_range_meters":23200,"station_id":"ce4bhn92rcd13ifvqgrg","pricing_plan_id":"cebpf4jnsgd1na2vs0mg"},{"bike_id":"f3eb5318-be75-4013-92e8-342d3c54666e","system_id":"levelo_inurba_marseille","lat":43.32543,"lon":5.41421,"is_reserved":false,"is_disabled":false,"rental_uris":{"android":"levelo://app?vid=f3eb5318-be75-4013-92e8-342d3c54666e","ios":"levelo://app?vid=f3eb5318-be75-4013-92e8-342d3c54666e"},"vehicle_type_id":"4","last_reported":1727680185,"current_range_meters":39200,"station_id":"ce4bhq12rcd13ifvqhhg","pricing_plan_id":"cebpf4jnsgd1na2vs0mg"},{"bike_id":"275b0a25-1a9f-498c-9202-be550b06c3de","system_id":"levelo_inurba_marseille","lat":43.32295,"lon":5.38275,"is_reserved":false,"is_disabled":false,"rental_uris":{"android":"levelo://app?vid=275b0a25-1a9f-498c-9202-be550b06c3de","ios":"levelo://app?vid=275b0a25-1a9f-498c-9202-be550b06c3de"},"vehicle_type_id":"4","last_reported":1727680185,"current_range_meters":38800,"station_id":"ce4bhr12rcd13ifvqhqg","pricing_plan_id":"cebpf4jnsgd1na2vs0mg"},{"bike_id":"5ff5c59b-a0ee-4fc7-a5d6-d26bc584b96f","system_id":"levelo_inurba_marseille","lat":43.31361,"lon":5.36697,"is_reserved":false,"is_disabled":false,"rental_uris":{"android":"levelo://app?vid=5ff5c59b-a0ee-4fc7-a5d6-d26bc584b96f","ios":"levelo://app?vid=5ff5c59b-a0ee-4fc7-a5d6-d26bc584b96f"},"vehicle_type_id":"4","last_reported":1727680185,"current_range_meters":18800,"station_id":"ce4bgr92rcd13ifvqc6g","pricing_plan_id":"cebpf4jnsgd1na2vs0mg"},{"bike_id":"743aaec9-5f87-4532-a234-302310d7174f","system_id":"levelo_inurba_marseille","lat":43.23153,"lon":5.43711,"is_reserved":false,"is_disabled":false,"rental_uris":{"android":"levelo://app?vid=743aaec9-5f87-4532-a234-302310d7174f","ios":"levelo://app?vid=743aaec9-5f87-4532-a234-302310d7174f"},"vehicle_type_id":"4","last_reported":1727680185,"current_range_meters":22000,"station_id":"ce4bhmp2rcd13ifvqgog","pricing_plan_id":"cebpf4jnsgd1na2vs0mg"},{"bike_id":"25275fb2-a5f3-47cb-b210-880fe5447bc9","system_id":"levelo_inurba_marseille","lat":43.32482,"lon":5.36578,"is_reserved":false,"is_disabled":false,"rental_uris":{"android":"levelo://app?vid=25275fb2-a5f3-47cb-b210-880fe5447bc9","ios":"levelo://app?vid=25275fb2-a5f3-47cb-b210-880fe5447bc9"},"vehicle_type_id":"4","last_reported":1727680185,"current_range_meters":36000,"station_id":"ce4bhs12rcd13ifvqhvg","pricing_plan_id":"cebpf4jnsgd1na2vs0mg"},{"bike_id":"b94c96fc-1b72-4aa8-867f-bc16ebc8e217","system_id":"levelo_inurba_marseille","lat":43.29022,"lon":5.3813,"is_reserved":false,"is_disabled":false,"rental_uris":{"android":"levelo://app?vid=b94c96fc-1b72-4aa8-867f-bc16ebc8e217","ios":"levelo://app?vid=b94c96fc-1b72-4aa8-867f-bc16ebc8e217"},"vehicle_type_id":"4","last_reported":1727680185,"current_range_meters":28000,"station_id":"ce4bh4p2rcd13ifvqe1g","pricing_plan_id":"cebpf4jnsgd1na2vs0mg"},{"bike_id":"c4797f9f-bef0-4f03-932a-9f2b11599736","system_id":"levelo_inurba_marseille","lat":43.29264,"lon":5.40122,"is_reserved":false,"is_disabled":false,"rental_uris":{"android":"levelo://app?vid=c4797f9f-bef0-4f03-932a-9f2b11599736","ios":"levelo://app?vid=c4797f9f-bef0-4f03-932a-9f2b11599736"},"vehicle_type_id":"4","last_reported":1727680185,"current_range_meters":34000,"station_id":"ce4bh312rcd13ifvqdk0","pricing_plan_id":"cebpf4jnsgd1na2vs0mg"},{"bike_id":"c3840656-d50f-4e0e-8444-9f4d33172a37","system_id":"levelo_inurba_marseille","lat":43.27497,"lon":5.42449,"is_reserved":false,"is_disabled":false,"rental_uris":{"android":"levelo://app?vid=c3840656-d50f-4e0e-8444-9f4d33172a37","ios":"levelo://app?vid=c3840656-d50f-4e0e-8444-9f4d33172a37"},"vehicle_type_id":"4","last_reported":1727680185,"current_range_meters":31200,"station_id":"ce4bhn92rcd13ifvqgrg","pricing_plan_id":"cebpf4jnsgd1na2vs0mg"},{"bike_id":"20cb3451-c87b-4134-b73b-5aa2b7adc4a8","system_id":"levelo_inurba_marseille","lat":43.30901,"lon":5.36839,"is_reserved":false,"is_disabled":false,"rental_uris":{"android":"levelo://app?vid=20cb3451-c87b-4134-b73b-5aa2b7adc4a8","ios":"levelo://app?vid=20cb3451-c87b-4134-b73b-5aa2b7adc4a8"},"vehicle_type_id":"4","last_reported":1727680185,"current_range_meters":18000,"station_id":"ce4bgn92rcd13ifvqbvg","pricing_plan_id":"cebpf4jnsgd1na2vs0mg"},{"bike_id":"03127d5b-4d21-4c1c-8753-af36215e309d","system_id":"levelo_inurba_marseille","lat":43.23155,"lon":5.43711,"is_reserved":false,"is_disabled":false,"rental_uris":{"android":"levelo://app?vid=03127d5b-4d21-4c1c-8753-af36215e309d","ios":"levelo://app?vid=03127d5b-4d21-4c1c-8753-af36215e309d"},"vehicle_type_id":"4","last_reported":1727680185,"current_range_meters":24800,"station_id":"ce4bhmp2rcd13ifvqgog","pricing_plan_id":"cebpf4jnsgd1na2vs0mg"},{"bike_id":"98a09996-2d0a-4949-a68c-797355264897","system_id":"levelo_inurba_marseille","lat":43.27491,"lon":5.42463,"is_reserved":false,"is_disabled":false,"rental_uris":{"android":"levelo://app?vid=98a09996-2d0a-4949-a68c-797355264897","ios":"levelo://app?vid=98a09996-2d0a-4949-a68c-797355264897"},"vehicle_type_id":"4","last_reported":1727680185,"current_range_meters":24000,"station_id":"ce4bhn92rcd13ifvqgrg","pricing_plan_id":"cebpf4jnsgd1na2vs0mg"},{"bike_id":"e7de440b-45ed-46a8-99b6-cf20a42fade8","system_id":"levelo_inurba_marseille","lat":43.32286,"lon":5.38277,"is_reserved":false,"is_disabled":false,"rental_uris":{"android":"levelo://app?vid=e7de440b-45ed-46a8-99b6-cf20a42fade8","ios":"levelo://app?vid=e7de440b-45ed-46a8-99b6-cf20a42fade8"},"vehicle_type_id":"4","last_reported":1727680185,"current_range_meters":30400,"station_id":"ce4bhr12rcd13ifvqhqg","pricing_plan_id":"cebpf4jnsgd1na2vs0mg"},{"bike_id":"e4361fa2-90d9-45ff-9d8a-e7b112f4e011","system_id":"levelo_inurba_marseille","lat":43.2851,"lon":5.39136,"is_reserved":false,"is_disabled":false,"rental_uris":{"android":"levelo://app?vid=e4361fa2-90d9-45ff-9d8a-e7b112f4e011","ios":"levelo://app?vid=e4361fa2-90d9-45ff-9d8a-e7b112f4e011"},"vehicle_type_id":"4","last_reported":1727680185,"current_range_meters":24800,"station_id":"ce4bh3p2rcd13ifvqdp0","pricing_plan_id":"cebpf4jnsgd1na2vs0mg"},{"bike_id":"6d4229e8-13ca-4e6b-8873-615ad0f90a03","system_id":"levelo_inurba_marseille","lat":43.2679,"lon":5.39413,"is_reserved":false,"is_disabled":false,"rental_uris":{"android":"levelo://app?vid=6d4229e8-13ca-4e6b-8873-615ad0f90a03","ios":"levelo://app?vid=6d4229e8-13ca-4e6b-8873-615ad0f90a03"},"vehicle_type_id":"4","last_reported":1727680185,"current_range_meters":12800,"station_id":"ce4bhh12rcd13ifvqfg0","pricing_plan_id":"cebpf4jnsgd1na2vs0mg"},{"bike_id":"238dd7bb-5ad8-4e43-a0ca-0adde20a0833","system_id":"levelo_inurba_marseille","lat":43.27321,"lon":5.39079,"is_reserved":false,"is_disabled":false,"rental_uris":{"android":"levelo://app?vid=238dd7bb-5ad8-4e43-a0ca-0adde20a0833","ios":"levelo://app?vid=238dd7bb-5ad8-4e43-a0ca-0adde20a0833"},"vehicle_type_id":"4","last_reported":1727680185,"current_range_meters":28400,"station_id":"ce4bhgp2rcd13ifvqfe0","pricing_plan_id":"cebpf4jnsgd1na2vs0mg"},{"bike_id":"6f5d9a77-177d-414d-a2b4-25e5b96ee88e","system_id":"levelo_inurba_marseille","lat":43.291701,"lon":5.371469,"is_reserved":false,"is_disabled":false,"rental_uris":{"android":"levelo://app?vid=6f5d9a77-177d-414d-a2b4-25e5b96ee88e","ios":"levelo://app?vid=6f5d9a77-177d-414d-a2b4-25e5b96ee88e"},"vehicle_type_id":"4","last_reported":1727680185,"current_range_meters":25600,"station_id":"ce4bha92rcd13ifvqeh0","pricing_plan_id":"cebpf4jnsgd1na2vs0mg"},{"bike_id":"07fb6db2-12f2-44b6-a790-083d53ef1d57","system_id":"levelo_inurba_marseille","lat":43.28706,"lon":5.3739,"is_reserved":false,"is_disabled":false,"rental_uris":{"android":"levelo://app?vid=07fb6db2-12f2-44b6-a790-083d53ef1d57","ios":"levelo://app?vid=07fb6db2-12f2-44b6-a790-083d53ef1d57"},"vehicle_type_id":"4","last_reported":1727680185,"current_range_meters":38800,"station_id":"ce4bh3p2rcd13ifvqdq0","pricing_plan_id":"cebpf4jnsgd1na2vs0mg"},{"bike_id":"324cb41a-41dd-4f0b-b509-9535a4584d99","system_id":"levelo_inurba_marseille","lat":43.29638,"lon":5.37212,"is_reserved":false,"is_disabled":false,"rental_uris":{"android":"levelo://app?vid=324cb41a-41dd-4f0b-b509-9535a4584d99","ios":"levelo://app?vid=324cb41a-41dd-4f0b-b509-9535a4584d99"},"vehicle_type_id":"4","last_reported":1727680185,"current_range_meters":32800,"station_id":"ce4bgpp2rcd13ifvqc3g","pricing_plan_id":"cebpf4jnsgd1na2vs0mg"},{"bike_id":"5561ba97-cc61-4a9c-bb93-36a893b9716f","system_id":"levelo_inurba_marseille","lat":43.28919,"lon":5.4243,"is_reserved":false,"is_disabled":false,"rental_uris":{"android":"levelo://app?vid=5561ba97-cc61-4a9c-bb93-36a893b9716f","ios":"levelo://app?vid=5561ba97-cc61-4a9c-bb93-36a893b9716f"},"vehicle_type_id":"4","last_reported":1727680185,"current_range_meters":32400,"station_id":"","pricing_plan_id":"cebpf4jnsgd1na2vs0mg"},{"bike_id":"36f05c4b-38b9-4722-994c-67db57214abb","system_id":"levelo_inurba_marseille","lat":43.31216,"lon":5.36834,"is_reserved":false,"is_disabled":false,"rental_uris":{"android":"levelo://app?vid=36f05c4b-38b9-4722-994c-67db57214abb","ios":"levelo://app?vid=36f05c4b-38b9-4722-994c-67db57214abb"},"vehicle_type_id":"4","last_reported":1727680185,"current_range_meters":24000,"station_id":"ce4bgl92rcd13ifvqbq0","pricing_plan_id":"cebpf4jnsgd1na2vs0mg"},{"bike_id":"b4c39d4b-0aff-4869-989b-ba0d1edc59c1","system_id":"levelo_inurba_marseille","lat":43.274825,"lon":5.424554,"is_reserved":false,"is_disabled":false,"rental_uris":{"android":"levelo://app?vid=b4c39d4b-0aff-4869-989b-ba0d1edc59c1","ios":"levelo://app?vid=b4c39d4b-0aff-4869-989b-ba0d1edc59c1"},"vehicle_type_id":"4","last_reported":1727680185,"current_range_meters":30400,"station_id":"ce4bhn92rcd13ifvqgrg","pricing_plan_id":"cebpf4jnsgd1na2vs0mg"},{"bike_id":"406f3d7c-8f11-41f4-857b-2d92be57ddb4","system_id":"levelo_inurba_marseille","lat":43.30467,"lon":5.37901,"is_reserved":false,"is_disabled":false,"rental_uris":{"android":"levelo://app?vid=406f3d7c-8f11-41f4-857b-2d92be57ddb4","ios":"levelo://app?vid=406f3d7c-8f11-41f4-857b-2d92be57ddb4"},"vehicle_type_id":"4","last_reported":1727680185,"current_range_meters":10800,"station_id":"ce4bgup2rcd13ifvqcn0","pricing_plan_id":"cebpf4jnsgd1na2vs0mg"},{"bike_id":"8513c244-5dce-407d-9ac0-b3127525d896","system_id":"levelo_inurba_marseille","lat":43.32343,"lon":5.40615,"is_reserved":false,"is_disabled":false,"rental_uris":{"android":"levelo://app?vid=8513c244-5dce-407d-9ac0-b3127525d896","ios":"levelo://app?vid=8513c244-5dce-407d-9ac0-b3127525d896"},"vehicle_type_id":"4","last_reported":1727680185,"current_range_meters":36800,"station_id":"ce4bhq92rcd13ifvqhjg","pricing_plan_id":"cebpf4jnsgd1na2vs0mg"},{"bike_id":"49103c36-092f-43a6-a665-96ac4218adb8","system_id":"levelo_inurba_marseille","lat":43.32288,"lon":5.3826,"is_reserved":false,"is_disabled":false,"rental_uris":{"android":"levelo://app?vid=49103c36-092f-43a6-a665-96ac4218adb8","ios":"levelo://app?vid=49103c36-092f-43a6-a665-96ac4218adb8"},"vehicle_type_id":"4","last_reported":1727680185,"current_range_meters":38800,"station_id":"ce4bhr12rcd13ifvqhqg","pricing_plan_id":"cebpf4jnsgd1na2vs0mg"},{"bike_id":"e0de1742-9d94-403a-a3a3-2cfc26e18c8f","system_id":"levelo_inurba_marseille","lat":43.31201,"lon":5.36827,"is_reserved":false,"is_disabled":false,"rental_uris":{"android":"levelo://app?vid=e0de1742-9d94-403a-a3a3-2cfc26e18c8f","ios":"levelo://app?vid=e0de1742-9d94-403a-a3a3-2cfc26e18c8f"},"vehicle_type_id":"4","last_reported":1727680185,"current_range_meters":23200,"station_id":"ce4bgl92rcd13ifvqbq0","pricing_plan_id":"cebpf4jnsgd1na2vs0mg"},{"bike_id":"659d253e-0229-453c-85e5-3ade3b9ea1fe","system_id":"levelo_inurba_marseille","lat":43.27491,"lon":5.42455,"is_reserved":false,"is_disabled":false,"rental_uris":{"android":"levelo://app?vid=659d253e-0229-453c-85e5-3ade3b9ea1fe","ios":"levelo://app?vid=659d253e-0229-453c-85e5-3ade3b9ea1fe"},"vehicle_type_id":"4","last_reported":1727680185,"current_range_meters":3200,"station_id":"ce4bhn92rcd13ifvqgrg","pricing_plan_id":"cebpf4jnsgd1na2vs0mg"},{"bike_id":"acbda63c-dbd1-4c18-8049-4209d813bc5e","system_id":"levelo_inurba_marseille","lat":43.27488,"lon":5.42442,"is_reserved":false,"is_disabled":false,"rental_uris":{"android":"levelo://app?vid=acbda63c-dbd1-4c18-8049-4209d813bc5e","ios":"levelo://app?vid=acbda63c-dbd1-4c18-8049-4209d813bc5e"},"vehicle_type_id":"4","last_reported":1727680185,"current_range_meters":29600,"station_id":"ce4bhn92rcd13ifvqgrg","pricing_plan_id":"cebpf4jnsgd1na2vs0mg"},{"bike_id":"6f0f9c32-de70-4574-9b89-cca29ab0554e","system_id":"levelo_inurba_marseille","lat":43.337444,"lon":5.374475,"is_reserved":false,"is_disabled":false,"rental_uris":{"android":"levelo://app?vid=6f0f9c32-de70-4574-9b89-cca29ab0554e","ios":"levelo://app?vid=6f0f9c32-de70-4574-9b89-cca29ab0554e"},"vehicle_type_id":"4","last_reported":1727680185,"current_range_meters":22800,"station_id":"","pricing_plan_id":"cebpf4jnsgd1na2vs0mg"},{"bike_id":"e81c534f-9b46-49f6-a76e-ba049404d3cf","system_id":"levelo_inurba_marseille","lat":43.3134,"lon":5.36709,"is_reserved":false,"is_disabled":false,"rental_uris":{"android":"levelo://app?vid=e81c534f-9b46-49f6-a76e-ba049404d3cf","ios":"levelo://app?vid=e81c534f-9b46-49f6-a76e-ba049404d3cf"},"vehicle_type_id":"4","last_reported":1727680185,"current_range_meters":34800,"station_id":"ce4bgr92rcd13ifvqc6g","pricing_plan_id":"cebpf4jnsgd1na2vs0mg"},{"bike_id":"44ebb7f9-81e7-4737-8a9e-afd85c147f3d","system_id":"levelo_inurba_marseille","lat":43.31228,"lon":5.36864,"is_reserved":false,"is_disabled":false,"rental_uris":{"android":"levelo://app?vid=44ebb7f9-81e7-4737-8a9e-afd85c147f3d","ios":"levelo://app?vid=44ebb7f9-81e7-4737-8a9e-afd85c147f3d"},"vehicle_type_id":"4","last_reported":1727680185,"current_range_meters":35600,"station_id":"ce4bgl92rcd13ifvqbq0","pricing_plan_id":"cebpf4jnsgd1na2vs0mg"},{"bike_id":"b9897cf6-b27e-4987-8a36-ce737823aa7b","system_id":"levelo_inurba_marseille","lat":43.32313,"lon":5.38288,"is_reserved":false,"is_disabled":false,"rental_uris":{"android":"levelo://app?vid=b9897cf6-b27e-4987-8a36-ce737823aa7b","ios":"levelo://app?vid=b9897cf6-b27e-4987-8a36-ce737823aa7b"},"vehicle_type_id":"4","last_reported":1727680185,"current_range_meters":37600,"station_id":"ce4bhr12rcd13ifvqhqg","pricing_plan_id":"cebpf4jnsgd1na2vs0mg"},{"bike_id":"0687a646-be72-47a3-8907-22e0afb02a46","system_id":"levelo_inurba_marseille","lat":43.23957,"lon":5.36629,"is_reserved":false,"is_disabled":false,"rental_uris":{"android":"levelo://app?vid=0687a646-be72-47a3-8907-22e0afb02a46","ios":"levelo://app?vid=0687a646-be72-47a3-8907-22e0afb02a46"},"vehicle_type_id":"4","last_reported":1727680185,"current_range_meters":25600,"station_id":"ce4bhi12rcd13ifvqfp0","pricing_plan_id":"cebpf4jnsgd1na2vs0mg"},{"bike_id":"7cd461bf-fd57-40be-9cef-8bd1ae7fe910","system_id":"levelo_inurba_marseille","lat":43.29039,"lon":5.37576,"is_reserved":false,"is_disabled":false,"rental_uris":{"android":"levelo://app?vid=7cd461bf-fd57-40be-9cef-8bd1ae7fe910","ios":"levelo://app?vid=7cd461bf-fd57-40be-9cef-8bd1ae7fe910"},"vehicle_type_id":"4","last_reported":1727680185,"current_range_meters":12000,"station_id":"ce4bh692rcd13ifvqe90","pricing_plan_id":"cebpf4jnsgd1na2vs0mg"},{"bike_id":"c5b2cbcc-f9a8-45cd-a86a-42bb728e037e","system_id":"levelo_inurba_marseille","lat":43.34494,"lon":5.41632,"is_reserved":false,"is_disabled":false,"rental_uris":{"android":"levelo://app?vid=c5b2cbcc-f9a8-45cd-a86a-42bb728e037e","ios":"levelo://app?vid=c5b2cbcc-f9a8-45cd-a86a-42bb728e037e"},"vehicle_type_id":"4","last_reported":1727680185,"current_range_meters":33600,"station_id":"","pricing_plan_id":"cebpf4jnsgd1na2vs0mg"},{"bike_id":"591df501-a73f-43d2-bbfb-9426ba66c201","system_id":"levelo_inurba_marseille","lat":43.30553,"lon":5.36709,"is_reserved":false,"is_disabled":false,"rental_uris":{"android":"levelo://app?vid=591df501-a73f-43d2-bbfb-9426ba66c201","ios":"levelo://app?vid=591df501-a73f-43d2-bbfb-9426ba66c201"},"vehicle_type_id":"4","last_reported":1727680185,"current_range_meters":28000,"station_id":"ce4bgrp2rcd13ifvqc9g","pricing_plan_id":"cebpf4jnsgd1na2vs0mg"},{"bike_id":"42fd3cd1-306b-4016-a450-887036fe9efa","system_id":"levelo_inurba_marseille","lat":43.28352,"lon":5.38104,"is_reserved":false,"is_disabled":false,"rental_uris":{"android":"levelo://app?vid=42fd3cd1-306b-4016-a450-887036fe9efa","ios":"levelo://app?vid=42fd3cd1-306b-4016-a450-887036fe9efa"},"vehicle_type_id":"4","last_reported":1727680185,"current_range_meters":39200,"station_id":"ce4bh412rcd13ifvqdr0","pricing_plan_id":"cebpf4jnsgd1na2vs0mg"},{"bike_id":"b2cd956b-29f0-444a-a192-5438bfb7e219","system_id":"levelo_inurba_marseille","lat":43.29783,"lon":5.38108,"is_reserved":false,"is_disabled":false,"rental_uris":{"android":"levelo://app?vid=b2cd956b-29f0-444a-a192-5438bfb7e219","ios":"levelo://app?vid=b2cd956b-29f0-444a-a192-5438bfb7e219"},"vehicle_type_id":"4","last_reported":1727680185,"current_range_meters":30400,"station_id":"ce4bgip2rcd13ifvqbb0","pricing_plan_id":"cebpf4jnsgd1na2vs0mg"},{"bike_id":"90c05d40-f5db-4a12-95b3-f8d41ae2e51b","system_id":"levelo_inurba_marseille","lat":43.32377,"lon":5.3892,"is_reserved":false,"is_disabled":false,"rental_uris":{"android":"levelo://app?vid=90c05d40-f5db-4a12-95b3-f8d41ae2e51b","ios":"levelo://app?vid=90c05d40-f5db-4a12-95b3-f8d41ae2e51b"},"vehicle_type_id":"4","last_reported":1727680185,"current_range_meters":26800,"station_id":"ce4bhqp2rcd13ifvqhog","pricing_plan_id":"cebpf4jnsgd1na2vs0mg"},{"bike_id":"5a7b5aba-b9c2-4755-a53c-3a4f0498653f","system_id":"levelo_inurba_marseille","lat":43.29776,"lon":5.37113,"is_reserved":false,"is_disabled":false,"rental_uris":{"android":"levelo://app?vid=5a7b5aba-b9c2-4755-a53c-3a4f0498653f","ios":"levelo://app?vid=5a7b5aba-b9c2-4755-a53c-3a4f0498653f"},"vehicle_type_id":"4","last_reported":1727680185,"current_range_meters":32800,"station_id":"ce4bgop2rcd13ifvqc1g","pricing_plan_id":"cebpf4jnsgd1na2vs0mg"},{"bike_id":"b18fb3e3-4ebe-4164-ba10-8087d6fcc0f0","system_id":"levelo_inurba_marseille","lat":43.24808,"lon":5.37457,"is_reserved":false,"is_disabled":false,"rental_uris":{"android":"levelo://app?vid=b18fb3e3-4ebe-4164-ba10-8087d6fcc0f0","ios":"levelo://app?vid=b18fb3e3-4ebe-4164-ba10-8087d6fcc0f0"},"vehicle_type_id":"4","last_reported":1727680185,"current_range_meters":38400,"station_id":"ce4bhgh2rcd13ifvqfb0","pricing_plan_id":"cebpf4jnsgd1na2vs0mg"},{"bike_id":"2c793a78-0085-4506-84db-b08b8320a47d","system_id":"levelo_inurba_marseille","lat":43.30133,"lon":5.37403,"is_reserved":false,"is_disabled":false,"rental_uris":{"android":"levelo://app?vid=2c793a78-0085-4506-84db-b08b8320a47d","ios":"levelo://app?vid=2c793a78-0085-4506-84db-b08b8320a47d"},"vehicle_type_id":"4","last_reported":1727680185,"current_range_meters":36800,"station_id":"ce4bgs92rcd13ifvqcc0","pricing_plan_id":"cebpf4jnsgd1na2vs0mg"},{"bike_id":"e9f32dbe-ba67-415b-9422-5dc434d97a53","system_id":"levelo_inurba_marseille","lat":43.23151,"lon":5.43711,"is_reserved":false,"is_disabled":false,"rental_uris":{"android":"levelo://app?vid=e9f32dbe-ba67-415b-9422-5dc434d97a53","ios":"levelo://app?vid=e9f32dbe-ba67-415b-9422-5dc434d97a53"},"vehicle_type_id":"4","last_reported":1727680185,"current_range_meters":22000,"station_id":"ce4bhmp2rcd13ifvqgog","pricing_plan_id":"cebpf4jnsgd1na2vs0mg"},{"bike_id":"a84e7496-240d-41ff-a813-e1a4ceb3ee38","system_id":"levelo_inurba_marseille","lat":43.30138,"lon":5.37419,"is_reserved":false,"is_disabled":false,"rental_uris":{"android":"levelo://app?vid=a84e7496-240d-41ff-a813-e1a4ceb3ee38","ios":"levelo://app?vid=a84e7496-240d-41ff-a813-e1a4ceb3ee38"},"vehicle_type_id":"4","last_reported":1727680185,"current_range_meters":36400,"station_id":"ce4bgs92rcd13ifvqcc0","pricing_plan_id":"cebpf4jnsgd1na2vs0mg"},{"bike_id":"0fa8b223-8090-4672-8b04-b57125694314","system_id":"levelo_inurba_marseille","lat":43.28951,"lon":5.3683,"is_reserved":false,"is_disabled":false,"rental_uris":{"android":"levelo://app?vid=0fa8b223-8090-4672-8b04-b57125694314","ios":"levelo://app?vid=0fa8b223-8090-4672-8b04-b57125694314"},"vehicle_type_id":"4","last_reported":1727680185,"current_range_meters":30800,"station_id":"","pricing_plan_id":"cebpf4jnsgd1na2vs0mg"},