{"last_updated":1756145737,"ttl":60,"version":"2.2","data":{"bikes":[{"bike_id":"3786bc3f-a1ef-4971-82b5-53ee21f255a9","system_id":"levelo_inurba_marseille","lat":43.337444,"lon":5.374475,"is_reserved":false,"is_disabled":true,"rental_uris":{"android":"levelo://app?vid=3786bc3f-a1ef-4971-82b5-53ee21f255a9","ios":"levelo://app?vid=3786bc3f-a1ef-4971-82b5-53ee21f255a9"},"vehicle_type_id":"4","last_reported":1756145737,"current_range_meters":0,"station_id":"","pricing_plan_id":"cebpf4jnsgd1na2vs0mg"},{"bike_id":"eaf33fba-ed97-48de-8903-7533cbd22295","system_id":"levelo_inurba_marseille","lat":43.337444,"lon":5.374475,"is_reserved":false,"is_disabled":true,"rental_uris":{"android":"levelo://app?vid=eaf33fba-ed97-48de-8903-7533cbd22295","ios":"levelo://app?vid=eaf33fba-ed97-48de-8903-7533cbd22295"},"vehicle_type_id":"4","last_reported":1756145737,"current_range_meters":0,"station_id":"","pricing_plan_id":"cebpf4jnsgd1na2vs0mg"},{"bike_id":"d165ff19-8e79-4669-a0ec-2766941625b3","system_id":"levelo_inurba_marseille","lat":43.337444,"lon":5.374475,"is_reserved":false,"is_disabled":true,"rental_uris":{"android":"levelo://app?vid=d165ff19-8e79-4669-a0ec-2766941625b3","ios":"levelo://app?vid=d165ff19-8e79-4669-a0ec-2766941625b3"},"vehicle_type_id":"4","last_reported":1756145737,"current_range_meters":0,"station_id":"","pricing_plan_id":"cebpf4jnsgd1na2vs0mg"},{"bike_id":"fee6e365-1410-47ff-aac6-460fe19870cf","system_id":"levelo_inurba_marseille","lat":43.33771,"lon":5.37424,"is_reserved":false,"is_disabled":true,"rental_uris":{"android":"levelo://app?vid=fee6e365-1410-47ff-aac6-460fe19870cf","ios":"levelo://app?vid=fee6e365-1410-47ff-aac6-460fe19870cf"},"vehicle_type_id":"4","last_reported":1756145737,"current_range_meters":0,"station_id":"","pricing_plan_id":"cebpf4jnsgd1na2vs0mg"},{"bike_id":"e7907bf2-9f85-4fec-b00b-f77b1a4a873c","system_id":"levelo_inurba_marseille","lat":43.33751,"lon":5.37456,"is_reserved":false,"is_disabled":true,"rental_uris":{"android":"levelo://app?vid=e7907bf2-9f85-4fec-b00b-f77b1a4a873c","ios":"levelo://app?vid=e7907bf2-9f85-4fec-b00b-f77b1a4a873c"},"vehicle_type_id":"4","last_reported":1756145737,"current_range_meters":0,"station_id":"","pricing_plan_id":"cebpf4jnsgd1na2vs0mg"},{"bike_id":"c060c1ec-0d33-42db-9a3d-6fb7fae5ea5e","system_id":"levelo_inurba_marseille","lat":43.33747,"lon":5.37463,"is_reserved":false,"is_disabled":true,"rental_uris":{"android":"levelo://app?vid=c060c1ec-0d33-42db-9a3d-6fb7fae5ea5e","ios":"levelo://app?vid=c060c1ec-0d33-42db-9a3d-6fb7fae5ea5e"},"vehicle_type_id":"1","last_reported":1756145737,"current_range_meters":0,"station_id":"","pricing_plan_id":"cebpf4jnsgd1na2vs0mg"},{"bike_id":"e6546109-cd3c-4cd0-ac12-e78c09da4ae6","system_id":"levelo_inurba_marseille","lat":43.33737,"lon":5.37465,"is_reserved":false,"is_disabled":true,"rental_uris":{"android":"levelo://app?vid=e6546109-cd3c-4cd0-ac12-e78c09da4ae6","ios":"levelo://app?vid=e6546109-cd3c-4cd0-ac12-e78c09da4ae6"},"vehicle_type_id":"4","last_reported":1756145737,"current_range_meters":0,"station_id":"","pricing_plan_id":"cebpf4jnsgd1na2vs0mg"},{"bike_id":"8facfda0-e588-46c6-8323-70578ba699b1","system_id":"levelo_inurba_marseille","lat":43.30485,"lon":5.37051,"is_reserved":false,"is_disabled":true,"rental_uris":{"android":"levelo://app?vid=8facfda0-e588-46c6-8323-70578ba699b1","ios":"levelo://app?vid=8facfda0-e588-46c6-8323-70578ba699b1"},"vehicle_type_id":"4","last_reported":1756145737,"current_range_meters":0,"station_id":"","pricing_plan_id":"cebpf4jnsgd1na2vs0mg"},{"bike_id":"b3fa04f4-753f-44ec-9319-e8b6b49d76a7","system_id":"levelo_inurba_marseille","lat":43.28845,"lon":5.38525,"is_reserved":false,"is_disabled":true,"rental_uris":{"android":"levelo://app?vid=b3fa04f4-753f-44ec-9319-e8b6b49d76a7","ios":"levelo://app?vid=b3fa04f4-753f-44ec-9319-e8b6b49d76a7"},"vehicle_type_id":"4","last_reported":1756145737,"current_range_meters":0,"station_id":"","pricing_plan_id":"cebpf4jnsgd1na2vs0mg"},{"bike_id":"65deae7e-1810-42e0-8e8e-c5f10d1d3b85","system_id":"levelo_inurba_marseille","lat":43.29193,"lon":5.39321,"is_reserved":false,"is_disabled":false,"rental_uris":{"android":"levelo://app?vid=65deae7e-1810-42e0-8e8e-c5f10d1d3b85","ios":"levelo://app?vid=65deae7e-1810-42e0-8e8e-c5f10d1d3b85"},"vehicle_type_id":"4","last_reported":1756145737,"current_range_meters":6800,"station_id":"ce4bh192rcd13ifvqdd0","pricing_plan_id":"cebpf4jnsgd1na2vs0mg"},{"bike_id":"0d006835-dfc4-460a-8c56-acc02ce01133","system_id":"levelo_inurba_marseille","lat":43.28111,"lon":5.39819,"is_reserved":false,"is_disabled":true,"rental_uris":{"android":"levelo://app?vid=0d006835-dfc4-460a-8c56-acc02ce01133","ios":"levelo://app?vid=0d006835-dfc4-460a-8c56-acc02ce01133"},"vehicle_type_id":"4","last_reported":1756145737,"current_range_meters":0,"station_id":"","pricing_plan_id":"cebpf4jnsgd1na2vs0mg"},{"bike_id":"2f5601ef-bcb8-40a8-a1be-d9974a0e6480","system_id":"levelo_inurba_marseille","lat":43.33138,"lon":5.38952,"is_reserved":false,"is_disabled":true,"rental_uris":{"android":"levelo://app?vid=2f5601ef-bcb8-40a8-a1be-d9974a0e6480","ios":"levelo://app?vid=2f5601ef-bcb8-40a8-a1be-d9974a0e6480"},"vehicle_type_id":"4","last_reported":1756145737,"current_range_meters":0,"station_id":"","pricing_plan_id":"cebpf4jnsgd1na2vs0mg"},{"bike_id":"5d315e57-bb67-481f-b455-26ecfe9889ad","system_id":"levelo_inurba_marseille","lat":43.28069,"lon":5.34773,"is_reserved":false,"is_disabled":true,"rental_uris":{"android":"levelo://app?vid=5d315e57-bb67-481f-b455-26ecfe9889ad","ios":"levelo://app?vid=5d315e57-bb67-481f-b455-26ecfe9889ad"},"vehicle_type_id":"4","last_reported":1756145737,"current_range_meters":0,"station_id":"","pricing_plan_id":"cebpf4jnsgd1na2vs0mg"},{"bike_id":"38ba3d68-3b96-46a4-b2d0-cdc7f5294c22","system_id":"levelo_inurba_marseille","lat":43.33139,"lon":5.3894,"is_reserved":false,"is_disabled":true,"rental_uris":{"android":"levelo://app?vid=38ba3d68-3b96-46a4-b2d0-cdc7f5294c22","ios":"levelo://app?vid=38ba3d68-3b96-46a4-b2d0-cdc7f5294c22"},"vehicle_type_id":"4","last_reported":1756145737,"current_range_meters":0,"station_id":"","pricing_plan_id":"cebpf4jnsgd1na2vs0mg"},{"bike_id":"14fbad4c-786a-4a4b-8a18-f35c5e17a984","system_id":"levelo_inurba_marseille","lat":43.24468,"lon":5.3693,"is_reserved":false,"is_disabled":true,"rental_uris":{"android":"levelo://app?vid=14fbad4c-786a-4a4b-8a18-f35c5e17a984","ios":"levelo://app?vid=14fbad4c-786a-4a4b-8a18-f35c5e17a984"},"vehicle_type_id":"4","last_reported":1756145737,"current_range_meters":0,"station_id":"","pricing_plan_id":"cebpf4jnsgd1na2vs0mg"},{"bike_id":"2a2c596d-5f0e-4de8-9c54-88627e7b9e4b","system_id":"levelo_inurba_marseille","lat":43.34254,"lon":5.38131,"is_reserved":false,"is_disabled":true,"rental_uris":{"android":"levelo://app?vid=2a2c596d-5f0e-4de8-9c54-88627e7b9e4b","ios":"levelo://app?vid=2a2c596d-5f0e-4de8-9c54-88627e7b9e4b"},"vehicle_type_id":"4","last_reported":1756145737,"current_range_meters":0,"station_id":"","pricing_plan_id":"cebpf4jnsgd1na2vs0mg"},{"bike_id":"8fecfd98-872d-4b0c-86da-8c5bcd09eca9","system_id":"levelo_inurba_marseille","lat":43.24775,"lon":5.41049,"is_reserved":false,"is_disabled":true,"rental_uris":{"android":"levelo://app?vid=8fecfd98-872d-4b0c-86da-8c5bcd09eca9","ios":"levelo://app?vid=8fecfd98-872d-4b0c-86da-8c5bcd09eca9"},"vehicle_type_id":"4","last_reported":1756145737,"current_range_meters":0,"station_id":"","pricing_plan_id":"cebpf4jnsgd1na2vs0mg"},{"bike_id":"dc966711-a8a0-4884-a2c4-f00eb61127f6","system_id":"levelo_inurba_marseille","lat":43.27808,"lon":5.4071,"is_reserved":false,"is_disabled":true,"rental_uris":{"android":"levelo://app?vid=dc966711-a8a0-4884-a2c4-f00eb61127f6","ios":"levelo://app?vid=dc966711-a8a0-4884-a2c4-f00eb61127f6"},"vehicle_type_id":"4","last_reported":1756145737,"current_range_meters":0,"station_id":"","pricing_plan_id":"cebpf4jnsgd1na2vs0mg"},{"bike_id":"24cc5286-3146-4130-bc4a-5bee8f2f6b44","system_id":"levelo_inurba_marseille","lat":43.31697,"lon":5.39843,"is_reserved":false,"is_disabled":true,"rental_uris":{"android":"levelo://app?vid=24cc5286-3146-4130-bc4a-5bee8f2f6b44","ios":"levelo://app?vid=24cc5286-3146-4130-bc4a-5bee8f2f6b44"},"vehicle_type_id":"4","last_reported":1756145737,"current_range_meters":0,"station_id":"","pricing_plan_id":"cebpf4jnsgd1na2vs0mg"},{"bike_id":"1ce2accc-201d-4974-a7f0-b3c0c62b704b","system_id":"levelo_inurba_marseille","lat":43.33352,"lon":5.39854,"is_reserved":false,"is_disabled":true,"rental_uris":{"android":"levelo://app?vid=1ce2accc-201d-4974-a7f0-b3c0c62b704b","ios":"levelo://app?vid=1ce2accc-201d-4974-a7f0-b3c0c62b704b"},"vehicle_type_id":"4","last_reported":1756145737,"current_range_meters":0,"station_id":"","pricing_plan_id":"cebpf4jnsgd1na2vs0mg"},{"bike_id":"838dba12-bcaf-4dfe-bf81-73a584a33eb2","system_id":"levelo_inurba_marseille","lat":43.296,"lon":5.36047,"is_reserved":false,"is_disabled":true,"rental_uris":{"android":"levelo://app?vid=838dba12-bcaf-4dfe-bf81-73a584a33eb2","ios":"levelo://app?vid=838dba12-bcaf-4dfe-bf81-73a584a33eb2"},"vehicle_type_id":"4","last_reported":1756145737,"current_range_meters":0,"station_id":"","pricing_plan_id":"cebpf4jnsgd1na2vs0mg"},{"bike_id":"4dca8c2f-f9d1-4702-a077-556d00c035ea","system_id":"levelo_inurba_marseille","lat":43.318556,"lon":5.374788,"is_reserved":false,"is_disabled":true,"rental_uris":{"android":"levelo://app?vid=4dca8c2f-f9d1-4702-a077-556d00c035ea","ios":"levelo://app?vid=4dca8c2f-f9d1-4702-a077-556d00c035ea"},"vehicle_type_id":"4","last_reported":1756145737,"current_range_meters":0,"station_id":"","pricing_plan_id":"cebpf4jnsgd1na2vs0mg"},{"bike_id":"fbda88ae-f1cd-4492-9f13-4be5d0f359a2","system_id":"levelo_inurba_marseille","lat":43.29797,"lon":5.38112,"is_reserved":false,"is_disabled":true,"rental_uris":{"android":"levelo://app?vid=fbda88ae-f1cd-4492-9f13-4be5d0f359a2","ios":"levelo://app?vid=fbda88ae-f1cd-4492-9f13-4be5d0f359a2"},"vehicle_type_id":"4","last_reported":1756145737,"current_range_meters":0,"station_id":"ce4bgip2rcd13ifvqbb0","pricing_plan_id":"cebpf4jnsgd1na2vs0mg"},{"bike_id":"72329634-a8de-44e5-b621-720bf6176af7","system_id":"levelo_inurba_marseille","lat":43.27617,"lon":5.36124,"is_reserved":false,"is_disabled":true,"rental_uris":{"android":"levelo://app?vid=72329634-a8de-44e5-b621-720bf6176af7","ios":"levelo://app?vid=72329634-a8de-44e5-b621-720bf6176af7"},"vehicle_type_id":"4","last_reported":1756145737,"current_range_meters":0,"station_id":"ce4bgj92rcd13ifvqbe0","pricing_plan_id":"cebpf4jnsgd1na2vs0mg"},{"bike_id":"30354029-ca90-4c76-ae43-d5d5cf7bf7e8","system_id":"levelo_inurba_marseille","lat":43.313541,"lon":5.384917,"is_reserved":false,"is_disabled":true,"rental_uris":{"android":"levelo://app?vid=30354029-ca90-4c76-ae43-d5d5cf7bf7e8","ios":"levelo://app?vid=30354029-ca90-4c76-ae43-d5d5cf7bf7e8"},"vehicle_type_id":"4","last_reported":1756145737,"current_range_meters":0,"station_id":"ce4bgt92rcd13ifvqcf0","pricing_plan_id":"cebpf4jnsgd1na2vs0mg"},{"bike_id":"be2135e8-0260-4e9f-9b2c-fae09bea8dd9","system_id":"levelo_inurba_marseille","lat":43.31068,"lon":5.38356,"is_reserved":false,"is_disabled":true,"rental_uris":{"android":"levelo://app?vid=be2135e8-0260-4e9f-9b2c-fae09bea8dd9","ios":"levelo://app?vid=be2135e8-0260-4e9f-9b2c-fae09bea8dd9"},"vehicle_type_id":"4","last_reported":1756145737,"current_range_meters":0,"station_id":"ce4bgv92rcd13ifvqcr0","pricing_plan_id":"cebpf4jnsgd1na2vs0mg"},{"bike_id":"840ec469-94f9-40a3-8191-095ec15848ab","system_id":"levelo_inurba_marseille","lat":43.28374,"lon":5.38653,"is_reserved":false,"is_disabled":true,"rental_uris":{"android":"levelo://app?vid=840ec469-94f9-40a3-8191-095ec15848ab","ios":"levelo://app?vid=840ec469-94f9-40a3-8191-095ec15848ab"},"vehicle_type_id":"4","last_reported":1756145737,"current_range_meters":0,"station_id":"ce4bh492rcd13ifvqdvg","pricing_plan_id":"cebpf4jnsgd1na2vs0mg"},{"bike_id":"cf9958ef-b32f-40d6-a0f4-69a5606a7778","system_id":"levelo_inurba_marseille","lat":43.29029,"lon":5.38653,"is_reserved":false,"is_disabled":true,"rental_uris":{"android":"levelo://app?vid=cf9958ef-b32f-40d6-a0f4-69a5606a7778","ios":"levelo://app?vid=cf9958ef-b32f-40d6-a0f4-69a5606a7778"},"vehicle_type_id":"4","last_reported":1756145737,"current_range_meters":0,"station_id":"ce4bh4p2rcd13ifvqe0g","pricing_plan_id":"cebpf4jnsgd1na2vs0mg"},{"bike_id":"0ce66347-8c90-4090-aff6-ed7eb6857727","system_id":"levelo_inurba_marseille","lat":43.288115,"lon":5.366313,"is_reserved":false,"is_disabled":true,"rental_uris":{"android":"levelo://app?vid=0ce66347-8c90-4090-aff6-ed7eb6857727","ios":"levelo://app?vid=0ce66347-8c90-4090-aff6-ed7eb6857727"},"vehicle_type_id":"4","last_reported":1756145737,"current_range_meters":0,"station_id":"ce4bhap2rcd13ifvqek0","pricing_plan_id":"cebpf4jnsgd1na2vs0mg"},{"bike_id":"304aa105-f93a-42e3-b9ba-2eb72156f8df","system_id":"levelo_inurba_marseille","lat":43.27363,"lon":5.36274,"is_reserved":false,"is_disabled":true,"rental_uris":{"android":"levelo://app?vid=304aa105-f93a-42e3-b9ba-2eb72156f8df","ios":"levelo://app?vid=304aa105-f93a-42e3-b9ba-2eb72156f8df"},"vehicle_type_id":"4","last_reported":1756145737,"current_range_meters":0,"station_id":"ce4bhbh2rcd13ifvqeo0","pricing_plan_id":"cebpf4jnsgd1na2vs0mg"},{"bike_id":"e5ec0b32-a96f-4c91-8dd4-2435c6e06438","system_id":"levelo_inurba_marseille","lat":43.27322,"lon":5.39091,"is_reserved":false,"is_disabled":true,"rental_uris":{"android":"levelo://app?vid=e5ec0b32-a96f-4c91-8dd4-2435c6e06438","ios":"levelo://app?vid=e5ec0b32-a96f-4c91-8dd4-2435c6e06438"},"vehicle_type_id":"4","last_reported":1756145737,"current_range_meters":0,"station_id":"ce4bhgp2rcd13ifvqfe0","pricing_plan_id":"cebpf4jnsgd1na2vs0mg"},{"bike_id":"d5517417-64ea-4753-a5d0-20c304e47a69","system_id":"levelo_inurba_marseille","lat":43.254862,"lon":5.376478,"is_reserved":false,"is_disabled":true,"rental_uris":{"android":"levelo://app?vid=d5517417-64ea-4753-a5d0-20c304e47a69","ios":"levelo://app?vid=d5517417-64ea-4753-a5d0-20c304e47a69"},"vehicle_type_id":"4","last_reported":1756145737,"current_range_meters":0,"station_id":"ce4bhh12rcd13ifvqff0","pricing_plan_id":"cebpf4jnsgd1na2vs0mg"},{"bike_id":"53965643-74c1-44b5-8dda-406f22caa455","system_id":"levelo_inurba_marseille","lat":43.2695,"lon":5.38629,"is_reserved":false,"is_disabled":true,"rental_uris":{"android":"levelo://app?vid=53965643-74c1-44b5-8dda-406f22caa455","ios":"levelo://app?vid=53965643-74c1-44b5-8dda-406f22caa455"},"vehicle_type_id":"4","last_reported":1756145737,"current_range_meters":0,"station_id":"ce4bhh92rcd13ifvqfh0","pricing_plan_id":"cebpf4jnsgd1na2vs0mg"},{"bike_id":"3f1187c8-9177-4311-82f3-14d53139d8e6","system_id":"levelo_inurba_marseille","lat":43.27495,"lon":5.42451,"is_reserved":false,"is_disabled":true,"rental_uris":{"android":"levelo://app?vid=3f1187c8-9177-4311-82f3-14d53139d8e6","ios":"levelo://app?vid=3f1187c8-9177-4311-82f3-14d53139d8e6"},"vehicle_type_id":"4","last_reported":1756145737,"current_range_meters":0,"station_id":"ce4bhn92rcd13ifvqgrg","pricing_plan_id":"cebpf4jnsgd1na2vs0mg"},{"bike_id":"d6c262a8-ac7a-4ad7-a9db-fb9327378431","system_id":"levelo_inurba_marseille","lat":43.32533,"lon":5.41435,"is_reserved":false,"is_disabled":true,"rental_uris":{"android":"levelo://app?vid=d6c262a8-ac7a-4ad7-a9db-fb9327378431","ios":"levelo://app?vid=d6c262a8-ac7a-4ad7-a9db-fb9327378431"},"vehicle_type_id":"4","last_reported":1756145737,"current_range_meters":0,"station_id":"ce4bhq12rcd13ifvqhhg","pricing_plan_id":"cebpf4jnsgd1na2vs0mg"},{"bike_id":"86300d8a-9cc0-47e7-88eb-970dcce93f82","system_id":"levelo_inurba_marseille","lat":43.3237,"lon":5.38889,"is_reserved":false,"is_disabled":true,"rental_uris":{"android":"levelo://app?vid=86300d8a-9cc0-47e7-88eb-970dcce93f82","ios":"levelo://app?vid=86300d8a-9cc0-47e7-88eb-970dcce93f82"},"vehicle_type_id":"4","last_reported":1756145737,"current_range_meters":0,"station_id":"ce4bhqp2rcd13ifvqhog","pricing_plan_id":"cebpf4jnsgd1na2vs0mg"},{"bike_id":"90e47907-ac8b-4816-8d0d-6723bcebe903","system_id":"levelo_inurba_marseille","lat":43.323648,"lon":5.367486,"is_reserved":false,"is_disabled":true,"rental_uris":{"android":"levelo://app?vid=90e47907-ac8b-4816-8d0d-6723bcebe903","ios":"levelo://app?vid=90e47907-ac8b-4816-8d0d-6723bcebe903"},"vehicle_type_id":"4","last_reported":1756145737,"current_range_meters":0,"station_id":"ce4bhsh2rcd13ifvqi2g","pricing_plan_id":"cebpf4jnsgd1na2vs0mg"},{"bike_id":"1ba3bdde-aab8-4f07-9fdc-3fb6cd576a01","system_id":"levelo_inurba_marseille","lat":43.2176,"lon":5.34607,"is_reserved":false,"is_disabled":true,"rental_uris":{"android":"levelo://app?vid=1ba3bdde-aab8-4f07-9fdc-3fb6cd576a01","ios":"levelo://app?vid=1ba3bdde-aab8-4f07-9fdc-3fb6cd576a01"},"vehicle_type_id":"4","last_reported":1756145737,"current_range_meters":0,"station_id":"st_cvj6r9ubvosntc0bgbag","pricing_plan_id":"cebpf4jnsgd1na2vs0mg"},{"bike_id":"043a02fa-5492-4bcb-b4f2-739fbbfcc18b","system_id":"levelo_inurba_marseille","lat":43.21188,"lon":5.3508,"is_reserved":false,"is_disabled":true,"rental_uris":{"android":"levelo://app?vid=043a02fa-5492-4bcb-b4f2-739fbbfcc18b","ios":"levelo://app?vid=043a02fa-5492-4bcb-b4f2-739fbbfcc18b"},"vehicle_type_id":"4","last_reported":1756145737,"current_range_meters":0,"station_id":"st_cvj6sg6p6f1abm77japg","pricing_plan_id":"cebpf4jnsgd1na2vs0mg"},{"bike_id":"ba9b61a4-caf5-457d-aec4-4a9e3b81758a","system_id":"levelo_inurba_marseille","lat":43.21187,"lon":5.35085,"is_reserved":false,"is_disabled":true,"rental_uris":{"android":"levelo://app?vid=ba9b61a4-caf5-457d-aec4-4a9e3b81758a","ios":"levelo://app?vid=ba9b61a4-caf5-457d-aec4-4a9e3b81758a"},"vehicle_type_id":"4","last_reported":1756145737,"current_range_meters":0,"station_id":"st_cvj6sg6p6f1abm77japg","pricing_plan_id":"cebpf4jnsgd1na2vs0mg"},{"bike_id":"f8b1d212-8990-4b42-bad4-1dfe3f44ce35","system_id":"levelo_inurba_marseille","lat":43.292498,"lon":5.384514,"is_reserved":false,"is_disabled":true,"rental_uris":{"android":"levelo://app?vid=f8b1d212-8990-4b42-bad4-1dfe3f44ce35","ios":"levelo://app?vid=f8b1d212-8990-4b42-bad4-1dfe3f44ce35"},"vehicle_type_id":"4","last_reported":1756145737,"current_range_meters":400,"station_id":"ce4bh692rcd13ifvqea0","pricing_plan_id":"cebpf4jnsgd1na2vs0mg"},{"bike_id":"8d417a22-9624-4615-9048-7cc7981cec49","system_id":"levelo_inurba_marseille","lat":43.32296,"lon":5.38281,"is_reserved":false,"is_disabled":true,"rental_uris":{"android":"levelo://app?vid=8d417a22-9624-4615-9048-7cc7981cec49","ios":"levelo://app?vid=8d417a22-9624-4615-9048-7cc7981cec49"},"vehicle_type_id":"4","last_reported":1756145737,"current_range_meters":400,"station_id":"ce4bhr12rcd13ifvqhqg","pricing_plan_id":"cebpf4jnsgd1na2vs0mg"},{"bike_id":"abf5a455-60d0-4975-8fd5-5fcb12877869","system_id":"levelo_inurba_marseille","lat":43.30437,"lon":5.38901,"is_reserved":false,"is_disabled":true,"rental_uris":{"android":"levelo://app?vid=abf5a455-60d0-4975-8fd5-5fcb12877869","ios":"levelo://app?vid=abf5a455-60d0-4975-8fd5-5fcb12877869"},"vehicle_type_id":"4","last_reported":1756145737,"current_range_meters":800,"station_id":"ce4bgk12rcd13ifvqbi0","pricing_plan_id":"cebpf4jnsgd1na2vs0mg"},{"bike_id":"3a0c0227-fc27-49a0-bb84-43b8383cad8e","system_id":"levelo_inurba_marseille","lat":43.31223,"lon":5.36857,"is_reserved":false,"is_disabled":true,"rental_uris":{"android":"levelo://app?vid=3a0c0227-fc27-49a0-bb84-43b8383cad8e","ios":"levelo://app?vid=3a0c0227-fc27-49a0-bb84-43b8383cad8e"},"vehicle_type_id":"4","last_reported":1756145737,"current_range_meters":800,"station_id":"ce4bgl92rcd13ifvqbq0","pricing_plan_id":"cebpf4jnsgd1na2vs0mg"},{"bike_id":"db72a3b5-f2db-4be8-b50e-db8e60527ef7","system_id":"levelo_inurba_marseille","lat":43.29039,"lon":5.39948,"is_reserved":false,"is_disabled":true,"rental_uris":{"android":"levelo://app?vid=db72a3b5-f2db-4be8-b50e-db8e60527ef7","ios":"levelo://app?vid=db72a3b5-f2db-4be8-b50e-db8e60527ef7"},"vehicle_type_id":"4","last_reported":1756145737,"current_range_meters":800,"station_id":"ce4bh392rcd13ifvqdm0","pricing_plan_id":"cebpf4jnsgd1na2vs0mg"},{"bike_id":"10991771-50a1-48d0-ae64-c5941c9a46f5","system_id":"levelo_inurba_marseille","lat":43.29258,"lon":5.38436,"is_reserved":false,"is_disabled":true,"rental_uris":{"android":"levelo://app?vid=10991771-50a1-48d0-ae64-c5941c9a46f5","ios":"levelo://app?vid=10991771-50a1-48d0-ae64-c5941c9a46f5"},"vehicle_type_id":"4","last_reported":1756145737,"current_range_meters":800,"station_id":"ce4bh692rcd13ifvqea0","pricing_plan_id":"cebpf4jnsgd1na2vs0mg"},{"bike_id":"9abfb8f7-43b8-4e44-b128-333f02f418a7","system_id":"levelo_inurba_marseille","lat":43.29005,"lon":5.35615,"is_reserved":false,"is_disabled":true,"rental_uris":{"android":"levelo://app?vid=9abfb8f7-43b8-4e44-b128-333f02f418a7","ios":"levelo://app?vid=9abfb8f7-43b8-4e44-b128-333f02f418a7"},"vehicle_type_id":"4","last_reported":1756145737,"current_range_meters":800,"station_id":"ce4bhb92rcd13ifvqen0","pricing_plan_id":"cebpf4jnsgd1na2vs0mg"},{"bike_id":"8f37becd-4c44-4159-8bf4-bcdaff9696e0","system_id":"levelo_inurba_marseille","lat":43.28617,"lon":5.35107,"is_reserved":false,"is_disabled":true,"rental_uris":{"android":"levelo://app?vid=8f37becd-4c44-4159-8bf4-bcdaff9696e0","ios":"levelo://app?vid=8f37becd-4c44-4159-8bf4-bcdaff9696e0"},"vehicle_type_id":"4","last_reported":1756145737,"current_range_meters":800,"station_id":"ce4bhch2rcd13ifvqeug","pricing_plan_id":"cebpf4jnsgd1na2vs0mg"},{"bike_id":"5963acbf-518b-452c-900a-2fce06b73293","system_id":"levelo_inurba_marseille","lat":43.28611,"lon":5.37087,"is_reserved":false,"is_disabled":true,"rental_uris":{"android":"levelo://app?vid=5963acbf-518b-452c-900a-2fce06b73293","ios":"levelo://app?vid=5963acbf-518b-452c-900a-2fce06b73293"},"vehicle_type_id":"4","last_reported":1756145737,"current_range_meters":800,"station_id":"ce4bht12rcd13ifvqi60","pricing_plan_id":"cebpf4jnsgd1na2vs0mg"},{"bike_id":"f8c327db-4511-4dd8-bf71-319ef2702dad","system_id":"levelo_inurba_marseille","lat":43.30421,"lon":5.38883,"is_reserved":false,"is_disabled":true,"rental_uris":{"android":"levelo://app?vid=f8c327db-4511-4dd8-bf71-319ef2702dad","ios":"levelo://app?vid=f8c327db-4511-4dd8-bf71-319ef2702dad"},"vehicle_type_id":"4","last_reported":1756145737,"current_range_meters":1200,"station_id":"ce4bgk12rcd13ifvqbi0","pricing_plan_id":"cebpf4jnsgd1na2vs0mg"},{"bike_id":"54572e7e-43fe-4676-b23f-d01d38e1f611","system_id":"levelo_inurba_marseille","lat":43.28272,"lon":5.35083,"is_reserved":false,"is_disabled":true,"rental_uris":{"android":"levelo://app?vid=54572e7e-43fe-4676-b23f-d01d38e1f611","ios":"levelo://app?vid=54572e7e-43fe-4676-b23f-d01d38e1f611"},"vehicle_type_id":"4","last_reported":1756145737,"current_range_meters":1200,"station_id":"ce4bhbp2rcd13ifvqerg","pricing_plan_id":"cebpf4jnsgd1na2vs0mg"},{"bike_id":"5a4b49a2-b2ab-49d2-a328-1a50ee359d04","system_id":"levelo_inurba_marseille","lat":43.33,"lon":5.39066,"is_reserved":false,"is_disabled":true,"rental_uris":{"android":"levelo://app?vid=5a4b49a2-b2ab-49d2-a328-1a50ee359d04","ios":"levelo://app?vid=5a4b49a2-b2ab-49d2-a328-1a50ee359d04"},"vehicle_type_id":"4","last_reported":1756145737,"current_range_meters":1200,"station_id":"ce4bhr92rcd13ifvqhrg","pricing_plan_id":"cebpf4jnsgd1na2vs0mg"},{"bike_id":"0c161c17-7075-465f-8c2b-768ac39d7c84","system_id":"levelo_inurba_marseille","lat":43.30635,"lon":5.40063,"is_reserved":false,"is_disabled":true,"rental_uris":{"android":"levelo://app?vid=0c161c17-7075-465f-8c2b-768ac39d7c84","ios":"levelo://app?vid=0c161c17-7075-465f-8c2b-768ac39d7c84"},"vehicle_type_id":"4","last_reported":1756145737,"current_range_meters":1600,"station_id":"ce4bh112rcd13ifvqda0","pricing_plan_id":"cebpf4jnsgd1na2vs0mg"},{"bike_id":"ba7fc171-e06d-4b57-9595-a0409ba7dffd","system_id":"levelo_inurba_marseille","lat":43.29215,"lon":5.36067,"is_reserved":false,"is_disabled":true,"rental_uris":{"android":"levelo://app?vid=ba7fc171-e06d-4b57-9595-a0409ba7dffd","ios":"levelo://app?vid=ba7fc171-e06d-4b57-9595-a0409ba7dffd"},"vehicle_type_id":"4","last_reported":1756145737,"current_range_meters":1600,"station_id":"ce4bhbh2rcd13ifvqeqg","pricing_plan_id":"cebpf4jnsgd1na2vs0mg"},{"bike_id":"a7a7e7d2-04c1-407d-8b57-ddd292ab82e6","system_id":"levelo_inurba_marseille","lat":43.28266,"lon":5.35089,"is_reserved":false,"is_disabled":true,"rental_uris":{"android":"levelo://app?vid=a7a7e7d2-04c1-407d-8b57-ddd292ab82e6","ios":"levelo://app?vid=a7a7e7d2-04c1-407d-8b57-ddd292ab82e6"},"vehicle_type_id":"4","last_reported":1756145737,"current_range_meters":1600,"station_id":"ce4bhbp2rcd13ifvqerg","pricing_plan_id":"cebpf4jnsgd1na2vs0mg"},{"bike_id":"01c944e9-6572-42c3-9ee2-6c06a5e19c52","system_id":"levelo_inurba_marseille","lat":43.24651,"lon":5.38898,"is_reserved":false,"is_disabled":true,"rental_uris":{"android":"levelo://app?vid=01c944e9-6572-42c3-9ee2-6c06a5e19c52","ios":"levelo://app?vid=01c944e9-6572-42c3-9ee2-6c06a5e19c52"},"vehicle_type_id":"4","last_reported":1756145737,"current_range_meters":1600,"station_id":"ce4bhg12rcd13ifvqf60","pricing_plan_id":"cebpf4jnsgd1na2vs0mg"},{"bike_id":"f5fe6f8f-dfd7-48c9-b005-531ff56901f9","system_id":"levelo_inurba_marseille","lat":43.29558,"lon":5.42303,"is_reserved":false,"is_disabled":true,"rental_uris":{"android":"levelo://app?vid=f5fe6f8f-dfd7-48c9-b005-531ff56901f9","ios":"levelo://app?vid=f5fe6f8f-dfd7-48c9-b005-531ff56901f9"},"vehicle_type_id":"4","last_reported":1756145737,"current_range_meters":2000,"station_id":"ce4bhph2rcd13ifvqhdg","pricing_plan_id":"cebpf4jnsgd1na2vs0mg"},{"bike_id":"aaa86072-4651-4cc2-abca-2adbc925d32c","system_id":"levelo_inurba_marseille","lat":43.29889,"lon":5.38888,"is_reserved":false,"is_disabled":false,"rental_uris":{"android":"levelo://app?vid=aaa86072-4651-4cc2-abca-2adbc925d32c","ios":"levelo://app?vid=aaa86072-4651-4cc2-abca-2adbc925d32c"},"vehicle_type_id":"4","last_reported":1756145737,"current_range_meters":2800,"station_id":"ce4bh392rcd13ifvqdl0","pricing_plan_id":"cebpf4jnsgd1na2vs0mg"},{"bike_id":"c79e3ce3-9aae-4c13-9dc8-c9ccd2da6054","system_id":"levelo_inurba_marseille","lat":43.29558,"lon":5.42285,"is_reserved":false,"is_disabled":false,"rental_uris":{"android":"levelo://app?vid=c79e3ce3-9aae-4c13-9dc8-c9ccd2da6054","ios":"levelo://app?vid=c79e3ce3-9aae-4c13-9dc8-c9ccd2da6054"},"vehicle_type_id":"4","last_reported":1756145737,"current_range_meters":2800,"station_id":"ce4bhph2rcd13ifvqhdg","pricing_plan_id":"cebpf4jnsgd1na2vs0mg"},{"bike_id":"a916761e-4357-41be-924c-a9527870011b","system_id":"levelo_inurba_marseille","lat":43.337185,"lon":5.391773,"is_reserved":false,"is_disabled":false,"rental_uris":{"android":"levelo://app?vid=a916761e-4357-41be-924c-a9527870011b","ios":"levelo://app?vid=a916761e-4357-41be-924c-a9527870011b"},"vehicle_type_id":"4","last_reported":1756145737,"current_range_meters":2800,"station_id":"ce4bhr92rcd13ifvqhsg","pricing_plan_id":"cebpf4jnsgd1na2vs0mg"},{"bike_id":"5251ff3d-5ea1-416c-96e4-d4bfa85362ec","system_id":"levelo_inurba_marseille","lat":43.30943,"lon":5.40138,"is_reserved":false,"is_disabled":false,"rental_uris":{"android":"levelo://app?vid=5251ff3d-5ea1-416c-96e4-d4bfa85362ec","ios":"levelo://app?vid=5251ff3d-5ea1-416c-96e4-d4bfa85362ec"},"vehicle_type_id":"4","last_reported":1756145737,"current_range_meters":3200,"station_id":"ce4bgvp2rcd13ifvqct0","pricing_plan_id":"cebpf4jnsgd1na2vs0mg"},{"bike_id":"74e4b6db-8c22-4c42-8883-438912fb4f22","system_id":"levelo_inurba_marseille","lat":43.298971,"lon":5.436738,"is_reserved":false,"is_disabled":false,"rental_uris":{"android":"levelo://app?vid=74e4b6db-8c22-4c42-8883-438912fb4f22","ios":"levelo://app?vid=74e4b6db-8c22-4c42-8883-438912fb4f22"},"vehicle_type_id":"4","last_reported":1756145737,"current_range_meters":3200,"station_id":"ce4bhpp2rcd13ifvqhfg","pricing_plan_id":"cebpf4jnsgd1na2vs0mg"},{"bike_id":"67010c27-624a-43d8-a583-cf50db2c16e8","system_id":"levelo_inurba_marseille","lat":43.32233,"lon":5.36864,"is_reserved":false,"is_disabled":false,"rental_uris":{"android":"levelo://app?vid=67010c27-624a-43d8-a583-cf50db2c16e8","ios":"levelo://app?vid=67010c27-624a-43d8-a583-cf50db2c16e8"},"vehicle_type_id":"4","last_reported":1756145737,"current_range_meters":4000,"station_id":"","pricing_plan_id":"cebpf4jnsgd1na2vs0mg"},{"bike_id":"7adbac07-0a90-46d2-a401-d44336298bdb","system_id":"levelo_inurba_marseille","lat":43.30036,"lon":5.3755,"is_reserved":false,"is_disabled":false,"rental_uris":{"android":"levelo://app?vid=7adbac07-0a90-46d2-a401-d44336298bdb","ios":"levelo://app?vid=7adbac07-0a90-46d2-a401-d44336298bdb"},"vehicle_type_id":"4","last_reported":1756145737,"current_range_meters":4000,"station_id":"","pricing_plan_id":"cebpf4jnsgd1na2vs0mg"},{"bike_id":"c848d32a-72a1-4672-8eef-20eea6bfdb4d","system_id":"levelo_inurba_marseille","lat":43.30149,"lon":5.38101,"is_reserved":false,"is_disabled":false,"rental_uris":{"android":"levelo://app?vid=c848d32a-72a1-4672-8eef-20eea6bfdb4d","ios":"levelo://app?vid=c848d32a-72a1-4672-8eef-20eea6bfdb4d"},"vehicle_type_id":"4","last_reported":1756145737,"current_range_meters":4000,"station_id":"ce4bgjp2rcd13ifvqbh0","pricing_plan_id":"cebpf4jnsgd1na2vs0mg"},{"bike_id":"6e4e1c1a-b3be-42ea-8c32-3cccea89bd89","system_id":"levelo_inurba_marseille","lat":43.31737,"lon":5.4237,"is_reserved":false,"is_disabled":false,"rental_uris":{"android":"levelo://app?vid=6e4e1c1a-b3be-42ea-8c32-3cccea89bd89","ios":"levelo://app?vid=6e4e1c1a-b3be-42ea-8c32-3cccea89bd89"},"vehicle_type_id":"4","last_reported":1756145737,"current_range_meters":4000,"station_id":"ce4bhp92rcd13ifvqhbg","pricing_plan_id":"cebpf4jnsgd1na2vs0mg"},{"bike_id":"8ea08cf4-f92b-45d0-adcd-98eee75d868a","system_id":"levelo_inurba_marseille","lat":43.34255,"lon":5.38129,"is_reserved":false,"is_disabled":false,"rental_uris":{"android":"levelo://app?vid=8ea08cf4-f92b-45d0-adcd-98eee75d868a","ios":"levelo://app?vid=8ea08cf4-f92b-45d0-adcd-98eee75d868a"},"vehicle_type_id":"4","last_reported":1756145737,"current_range_meters":4400,"station_id":"","pricing_plan_id":"cebpf4jnsgd1na2vs0mg"},{"bike_id":"21ff115a-79ea-46d2-abeb-0360c26c109b","system_id":"levelo_inurba_marseille","lat":43.28805,"lon":5.38876,"is_reserved":false,"is_disabled":false,"rental_uris":{"android":"levelo://app?vid=21ff115a-79ea-46d2-abeb-0360c26c109b","ios":"levelo://app?vid=21ff115a-79ea-46d2-abeb-0360c26c109b"},"vehicle_type_id":"4","last_reported":1756145737,"current_range_meters":4400,"station_id":"","pricing_plan_id":"cebpf4jnsgd1na2vs0mg"},{"bike_id":"f3ff9de5-db79-4656-a5aa-f69ec5a630a8","system_id":"levelo_inurba_marseille","lat":43.30436,"lon":5.389,"is_reserved":false,"is_disabled":false,"rental_uris":{"android":"levelo://app?vid=f3ff9de5-db79-4656-a5aa-f69ec5a630a8","ios":"levelo://app?vid=f3ff9de5-db79-4656-a5aa-f69ec5a630a8"},"vehicle_type_id":"4","last_reported":1756145737,"current_range_meters":4400,"station_id":"ce4bgk12rcd13ifvqbi0","pricing_plan_id":"cebpf4jnsgd1na2vs0mg"},{"bike_id":"1fa77172-de79-44c7-aba5-51b214a2580f","system_id":"levelo_inurba_marseille","lat":43.30814,"lon":5.38157,"is_reserved":false,"is_disabled":false,"rental_uris":{"android":"levelo://app?vid=1fa77172-de79-44c7-aba5-51b214a2580f","ios":"levelo://app?vid=1fa77172-de79-44c7-aba5-51b214a2580f"},"vehicle_type_id":"4","last_reported":1756145737,"current_range_meters":4400,"station_id":"ce4bgt12rcd13ifvqce0","pricing_plan_id":"cebpf4jnsgd1na2vs0mg"},{"bike_id":"6c78b604-06f8-4997-81bd-8fbc74b231b7","system_id":"levelo_inurba_marseille","lat":43.31076,"lon":5.38352,"is_reserved":false,"is_disabled":false,"rental_uris":{"android":"levelo://app?vid=6c78b604-06f8-4997-81bd-8fbc74b231b7","ios":"levelo://app?vid=6c78b604-06f8-4997-81bd-8fbc74b231b7"},"vehicle_type_id":"4","last_reported":1756145737,"current_range_meters":4400,"station_id":"ce4bgv92rcd13ifvqcr0","pricing_plan_id":"cebpf4jnsgd1na2vs0mg"},{"bike_id":"f102c3d7-44e0-4fcb-96b3-8e52eca086df","system_id":"levelo_inurba_marseille","lat":43.28356,"lon":5.38101,"is_reserved":false,"is_disabled":false,"rental_uris":{"android":"levelo://app?vid=f102c3d7-44e0-4fcb-96b3-8e52eca086df","ios":"levelo://app?vid=f102c3d7-44e0-4fcb-96b3-8e52eca086df"},"vehicle_type_id":"4","last_reported":1756145737,"current_range_meters":4400,"station_id":"ce4bh412rcd13ifvqdr0","pricing_plan_id":"cebpf4jnsgd1na2vs0mg"},{"bike_id":"1e7b67f7-6bc7-46ae-aa5d-8dff3a7542cd","system_id":"levelo_inurba_marseille","lat":43.2905,"lon":5.35909,"is_reserved":false,"is_disabled":false,"rental_uris":{"android":"levelo://app?vid=1e7b67f7-6bc7-46ae-aa5d-8dff3a7542cd","ios":"levelo://app?vid=1e7b67f7-6bc7-46ae-aa5d-8dff3a7542cd"},"vehicle_type_id":"4","last_reported":1756145737,"current_range_meters":4400,"station_id":"ce4bha92rcd13ifvqeg0","pricing_plan_id":"cebpf4jnsgd1na2vs0mg"},{"bike_id":"994d988c-62f9-4dad-b358-ff05934af945","system_id":"levelo_inurba_marseille","lat":43.28856,"lon":5.35864,"is_reserved":false,"is_disabled":false,"rental_uris":{"android":"levelo://app?vid=994d988c-62f9-4dad-b358-ff05934af945","ios":"levelo://app?vid=994d988c-62f9-4dad-b358-ff05934af945"},"vehicle_type_id":"4","last_reported":1756145737,"current_range_meters":4400,"station_id":"ce4bhb12rcd13ifvqem0","pricing_plan_id":"cebpf4jnsgd1na2vs0mg"},{"bike_id":"0f3e62bd-8f6d-4cef-90e7-21a9d20b10e8","system_id":"levelo_inurba_marseille","lat":43.27323,"lon":5.39071,"is_reserved":false,"is_disabled":false,"rental_uris":{"android":"levelo://app?vid=0f3e62bd-8f6d-4cef-90e7-21a9d20b10e8","ios":"levelo://app?vid=0f3e62bd-8f6d-4cef-90e7-21a9d20b10e8"},"vehicle_type_id":"4","last_reported":1756145737,"current_range_meters":4400,"station_id":"ce4bhgp2rcd13ifvqfe0","pricing_plan_id":"cebpf4jnsgd1na2vs0mg"},{"bike_id":"287419bd-ce68-4328-80fb-5fc2b2018244","system_id":"levelo_inurba_marseille","lat":43.25503,"lon":5.37646,"is_reserved":false,"is_disabled":false,"rental_uris":{"android":"levelo://app?vid=287419bd-ce68-4328-80fb-5fc2b2018244","ios":"levelo://app?vid=287419bd-ce68-4328-80fb-5fc2b2018244"},"vehicle_type_id":"4","last_reported":1756145737,"current_range_meters":4400,"station_id":"ce4bhh12rcd13ifvqff0","pricing_plan_id":"cebpf4jnsgd1na2vs0mg"},{"bike_id":"b77a2e15-4277-4f65-a24d-cfa568910d31","system_id":"levelo_inurba_marseille","lat":43.28108,"lon":5.37844,"is_reserved":false,"is_disabled":false,"rental_uris":{"android":"levelo://app?vid=b77a2e15-4277-4f65-a24d-cfa568910d31","ios":"levelo://app?vid=b77a2e15-4277-4f65-a24d-cfa568910d31"},"vehicle_type_id":"4","last_reported":1756145737,"current_range_meters":4800,"station_id":"ce4bha12rcd13ifvqee0","pricing_plan_id":"cebpf4jnsgd1na2vs0mg"},{"bike_id":"f8912e5e-db40-4550-b6a0-150c9892039d","system_id":"levelo_inurba_marseille","lat":43.25117,"lon":5.40327,"is_reserved":false,"is_disabled":false,"rental_uris":{"android":"levelo://app?vid=f8912e5e-db40-4550-b6a0-150c9892039d","ios":"levelo://app?vid=f8912e5e-db40-4550-b6a0-150c9892039d"},"vehicle_type_id":"4","last_reported":1756145737,"current_range_meters":4800,"station_id":"ce4bhlh2rcd13ifvqgig","pricing_plan_id":"cebpf4jnsgd1na2vs0mg"},{"bike_id":"c24c7eb6-3b89-4232-828a-b2d9419fd479","system_id":"levelo_inurba_marseille","lat":43.298,"lon":5.38095,"is_reserved":false,"is_disabled":false,"rental_uris":{"android":"levelo://app?vid=c24c7eb6-3b89-4232-828a-b2d9419fd479","ios":"levelo://app?vid=c24c7eb6-3b89-4232-828a-b2d9419fd479"},"vehicle_type_id":"4","last_reported":1756145737,"current_range_meters":5600,"station_id":"ce4bgip2rcd13ifvqbb0","pricing_plan_id":"cebpf4jnsgd1na2vs0mg"},{"bike_id":"f8ce835a-9cfb-4cce-a52a-6d865bc4c3d3","system_id":"levelo_inurba_marseille","lat":43.30938,"lon":5.40151,"is_reserved":false,"is_disabled":false,"rental_uris":{"android":"levelo://app?vid=f8ce835a-9cfb-4cce-a52a-6d865bc4c3d3","ios":"levelo://app?vid=f8ce835a-9cfb-4cce-a52a-6d865bc4c3d3"},"vehicle_type_id":"4","last_reported":1756145737,"current_range_meters":5600,"station_id":"ce4bgvp2rcd13ifvqct0","pricing_plan_id":"cebpf4jnsgd1na2vs0mg"},{"bike_id":"d454d867-0d8f-41fb-ab0c-ba27df36255f","system_id":"levelo_inurba_marseille","lat":43.313754,"lon":5.384968,"is_reserved":false,"is_disabled":false,"rental_uris":{"android":"levelo://app?vid=d454d867-0d8f-41fb-ab0c-ba27df36255f","ios":"levelo://app?vid=d454d867-0d8f-41fb-ab0c-ba27df36255f"},"vehicle_type_id":"4","last_reported":1756145737,"current_range_meters":6000,"station_id":"ce4bgt92rcd13ifvqcf0","pricing_plan_id":"cebpf4jnsgd1na2vs0mg"},{"bike_id":"55109174-fe98-4631-83c4-d6dff8bf45da","system_id":"levelo_inurba_marseille","lat":43.31123,"lon":5.37768,"is_reserved":false,"is_disabled":false,"rental_uris":{"android":"levelo://app?vid=55109174-fe98-4631-83c4-d6dff8bf45da","ios":"levelo://app?vid=55109174-fe98-4631-83c4-d6dff8bf45da"},"vehicle_type_id":"4","last_reported":1756145737,"current_range_meters":6000,"station_id":"ce4bgt92rcd13ifvqcg0","pricing_plan_id":"cebpf4jnsgd1na2vs0mg"},{"bike_id":"5e78667b-5297-4cb5-81d9-64190a1a85ad","system_id":"levelo_inurba_marseille","lat":43.29522,"lon":5.39042,"is_reserved":false,"is_disabled":false,"rental_uris":{"android":"levelo://app?vid=5e78667b-5297-4cb5-81d9-64190a1a85ad","ios":"levelo://app?vid=5e78667b-5297-4cb5-81d9-64190a1a85ad"},"vehicle_type_id":"4","last_reported":1756145737,"current_range_meters":6000,"station_id":"ce4bh3p2rcd13ifvqdp0","pricing_plan_id":"cebpf4jnsgd1na2vs0mg"},{"bike_id":"150ed2d7-b61e-4a45-9816-0c26fa2e8020","system_id":"levelo_inurba_marseille","lat":43.29966,"lon":5.38489,"is_reserved":false,"is_disabled":false,"rental_uris":{"android":"levelo://app?vid=150ed2d7-b61e-4a45-9816-0c26fa2e8020","ios":"levelo://app?vid=150ed2d7-b61e-4a45-9816-0c26fa2e8020"},"vehicle_type_id":"4","last_reported":1756145737,"current_range_meters":6400,"station_id":"ce4bgj92rcd13ifvqbd0","pricing_plan_id":"cebpf4jnsgd1na2vs0mg"},{"bike_id":"cd368320-454d-472f-9595-501da41433cd","system_id":"levelo_inurba_marseille","lat":43.29522,"lon":5.39046,"is_reserved":false,"is_disabled":false,"rental_uris":{"android":"levelo://app?vid=cd368320-454d-472f-9595-501da41433cd","ios":"levelo://app?vid=cd368320-454d-472f-9595-501da41433cd"},"vehicle_type_id":"4","last_reported":1756145737,"current_range_meters":6400,"station_id":"ce4bh3p2rcd13ifvqdp0","pricing_plan_id":"cebpf4jnsgd1na2vs0mg"},{"bike_id":"170a5019-15a7-458e-9447-5a84c70c3473","system_id":"levelo_inurba_marseille","lat":43.2847,"lon":5.38565,"is_reserved":false,"is_disabled":false,"rental_uris":{"android":"levelo://app?vid=170a5019-15a7-458e-9447-5a84c70c3473","ios":"levelo://app?vid=170a5019-15a7-458e-9447-5a84c70c3473"},"vehicle_type_id":"4","last_reported":1756145737,"current_range_meters":6400,"station_id":"ce4bh8p2rcd13ifvqeb0","pricing_plan_id":"cebpf4jnsgd1na2vs0mg"},{"bike_id":"e58fc0fe-9229-49df-aa25-5aad1ce61c10","system_id":"levelo_inurba_marseille","lat":43.28872,"lon":5.35873,"is_reserved":false,"is_disabled":false,"rental_uris":{"android":"levelo://app?vid=e58fc0fe-9229-49df-aa25-5aad1ce61c10","ios":"levelo://app?vid=e58fc0fe-9229-49df-aa25-5aad1ce61c10"},"vehicle_type_id":"4","last_reported":1756145737,"current_range_meters":6400,"station_id":"ce4bhb12rcd13ifvqem0","pricing_plan_id":"cebpf4jnsgd1na2vs0mg"},{"bike_id":"3fcb1ecf-014d-414b-8e46-6cb5a3a18d8d","system_id":"levelo_inurba_marseille","lat":43.27105,"lon":5.38719,"is_reserved":false,"is_disabled":false,"rental_uris":{"android":"levelo://app?vid=3fcb1ecf-014d-414b-8e46-6cb5a3a18d8d","ios":"levelo://app?vid=3fcb1ecf-014d-414b-8e46-6cb5a3a18d8d"},"vehicle_type_id":"4","last_reported":1756145737,"current_range_meters":6800,"station_id":"","pricing_plan_id":"cebpf4jnsgd1na2vs0mg"},{"bike_id":"158fe4a9-48cc-491f-95fd-2aa73bd55cc0","system_id":"levelo_inurba_marseille","lat":43.30561,"lon":5.36919,"is_reserved":false,"is_disabled":false,"rental_uris":{"android":"levelo://app?vid=158fe4a9-48cc-491f-95fd-2aa73bd55cc0","ios":"levelo://app?vid=158fe4a9-48cc-491f-95fd-2aa73bd55cc0"},"vehicle_type_id":"4","last_reported":1756145737,"current_range_meters":6800,"station_id":"","pricing_plan_id":"cebpf4jnsgd1na2vs0mg"},{"bike_id":"7212a79d-d919-44ee-ac27-3a4472363afd","system_id":"levelo_inurba_marseille","lat":43.30641,"lon":5.40101,"is_reserved":false,"is_disabled":false,"rental_uris":{"android":"levelo://app?vid=7212a79d-d919-44ee-ac27-3a4472363afd","ios":"levelo://app?vid=7212a79d-d919-44ee-ac27-3a4472363afd"},"vehicle_type_id":"4","last_reported":1756145737,"current_range_meters":6800,"station_id":"ce4bh112rcd13ifvqda0","pricing_plan_id":"cebpf4jnsgd1na2vs0mg"},{"bike_id":"2d9cd7be-87b8-46ec-b089-4bf44fd5c586","system_id":"levelo_inurba_marseille","lat":43.24649,"lon":5.38894,"is_reserved":false,"is_disabled":false,"rental_uris":{"android":"levelo://app?vid=2d9cd7be-87b8-46ec-b089-4bf44fd5c586","ios":"levelo://app?vid=2d9cd7be-87b8-46ec-b089-4bf44fd5c586"},"vehicle_type_id":"4","last_reported":1756145737,"current_range_meters":6800,"station_id":"ce4bhg12rcd13ifvqf60","pricing_plan_id":"cebpf4jnsgd1na2vs0mg"},{"bike_id":"0490c530-845d-44f9-bf75-09a8b4d2b9b9","system_id":"levelo_inurba_marseille","lat":43.29751,"lon":5.38084,"is_reserved":false,"is_disabled":false,"rental_uris":{"android":"levelo://app?vid=0490c530-845d-44f9-bf75-09a8b4d2b9b9","ios":"levelo://app?vid=0490c530-845d-44f9-bf75-09a8b4d2b9b9"},"vehicle_type_id":"4","last_reported":1756145737,"current_range_meters":7200,"station_id":"","pricing_plan_id":"cebpf4jnsgd1na2vs0mg"},{"bike_id":"8e3c1d96-db3d-493f-9f1f-6750dcd1e8bc","system_id":"levelo_inurba_marseille","lat":43.33038,"lon":5.39541,"is_reserved":false,"is_disabled":false,"rental_uris":{"android":"levelo://app?vid=8e3c1d96-db3d-493f-9f1f-6750dcd1e8bc","ios":"levelo://app?vid=8e3c1d96-db3d-493f-9f1f-6750dcd1e8bc"},"vehicle_type_id":"4","last_reported":1756145737,"current_range_meters":7200,"station_id":"","pricing_plan_id":"cebpf4jnsgd1na2vs0mg"},{"bike_id":"7b5b786a-fd5a-4fea-ac6d-d0d13f46b46c","system_id":"levelo_inurba_marseille","lat":43.317031,"lon":5.377056,"is_reserved":false,"is_disabled":false,"rental_uris":{"android":"levelo://app?vid=7b5b786a-fd5a-4fea-ac6d-d0d13f46b46c","ios":"levelo://app?vid=7b5b786a-fd5a-4fea-ac6d-d0d13f46b46c"},"vehicle_type_id":"4","last_reported":1756145737,"current_range_meters":7200,"station_id":"ce4bgth2rcd13ifvqch0","pricing_plan_id":"cebpf4jnsgd1na2vs0mg"},{"bike_id":"ea0310b3-b82f-4d71-8ad1-110592a3a68c","system_id":"levelo_inurba_marseille","lat":43.29247,"lon":5.40895,"is_reserved":false,"is_disabled":false,"rental_uris":{"android":"levelo://app?vid=ea0310b3-b82f-4d71-8ad1-110592a3a68c","ios":"levelo://app?vid=ea0310b3-b82f-4d71-8ad1-110592a3a68c"},"vehicle_type_id":"4","last_reported":1756145737,"current_range_meters":7200,"station_id":"ce4bh192rcd13ifvqdc0","pricing_plan_id":"cebpf4jnsgd1na2vs0mg"},{"bike_id":"d314ee59-022f-43d8-8c75-5c2377da3a14","system_id":"levelo_inurba_marseille","lat":43.293542,"lon":5.387934,"is_reserved":false,"is_disabled":false,"rental_uris":{"android":"levelo://app?vid=d314ee59-022f-43d8-8c75-5c2377da3a14","ios":"levelo://app?vid=d314ee59-022f-43d8-8c75-5c2377da3a14"},"vehicle_type_id":"4","last_reported":1756145737,"current_range_meters":7200,"station_id":"ce4bhch2rcd13ifvqeug","pricing_plan_id":"cebpf4jnsgd1na2vs0mg"},{"bike_id":"dc87a039-7c6d-478a-afe7-e47db1d88996","system_id":"levelo_inurba_marseille","lat":43.21196,"lon":5.3509,"is_reserved":false,"is_disabled":false,"rental_uris":{"android":"levelo://app?vid=dc87a039-7c6d-478a-afe7-e47db1d88996","ios":"levelo://app?vid=dc87a039-7c6d-478a-afe7-e47db1d88996"},"vehicle_type_id":"4","last_reported":1756145737,"current_range_meters":7200,"station_id":"st_cvj6sg6p6f1abm77japg","pricing_plan_id":"cebpf4jnsgd1na2vs0mg"},{"bike_id":"f7a88388-eb90-4c65-81e3-f71dd1d231ab","system_id":"levelo_inurba_marseille","lat":43.3086,"lon":5.39631,"is_reserved":false,"is_disabled":false,"rental_uris":{"android":"levelo://app?vid=f7a88388-eb90-4c65-81e3-f71dd1d231ab","ios":"levelo://app?vid=f7a88388-eb90-4c65-81e3-f71dd1d231ab"},"vehicle_type_id":"4","last_reported":1756145737,"current_range_meters":8000,"station_id":"ce4bh012rcd13ifvqcv0","pricing_plan_id":"cebpf4jnsgd1na2vs0mg"},{"bike_id":"3b8ef09d-aae6-415c-b457-f4bfbdd9d4d9","system_id":"levelo_inurba_marseille","lat":43.288452,"lon":5.393181,"is_reserved":false,"is_disabled":false,"rental_uris":{"android":"levelo://app?vid=3b8ef09d-aae6-415c-b457-f4bfbdd9d4d9","ios":"levelo://app?vid=3b8ef09d-aae6-415c-b457-f4bfbdd9d4d9"},"vehicle_type_id":"4","last_reported":1756145737,"current_range_meters":8000,"station_id":"ce4bh2p2rcd13ifvqdi0","pricing_plan_id":"cebpf4jnsgd1na2vs0mg"},{"bike_id":"0ae64a20-dd18-4a37-a204-c09cf6cd51b2","system_id":"levelo_inurba_marseille","lat":43.2871,"lon":5.37947,"is_reserved":false,"is_disabled":false,"rental_uris":{"android":"levelo://app?vid=0ae64a20-dd18-4a37-a204-c09cf6cd51b2","ios":"levelo://app?vid=0ae64a20-dd18-4a37-a204-c09cf6cd51b2"},"vehicle_type_id":"4","last_reported":1756145737,"current_range_meters":8000,"station_id":"ce4bh9p2rcd13ifvqec0","pricing_plan_id":"cebpf4jnsgd1na2vs0mg"},{"bike_id":"c4c65619-64fd-4239-a5ad-e6137b6c6a9d","system_id":"levelo_inurba_marseille","lat":43.256836,"lon":5.410398,"is_reserved":false,"is_disabled":false,"rental_uris":{"android":"levelo://app?vid=c4c65619-64fd-4239-a5ad-e6137b6c6a9d","ios":"levelo://app?vid=c4c65619-64fd-4239-a5ad-e6137b6c6a9d"},"vehicle_type_id":"4","last_reported":1756145737,"current_range_meters":8000,"station_id":"ce4bhkp2rcd13ifvqgd0","pricing_plan_id":"cebpf4jnsgd1na2vs0mg"},{"bike_id":"62c4730a-fd7f-471f-9ccf-4bc9942fee58","system_id":"levelo_inurba_marseille","lat":43.2511,"lon":5.4033,"is_reserved":false,"is_disabled":false,"rental_uris":{"android":"levelo://app?vid=62c4730a-fd7f-471f-9ccf-4bc9942fee58","ios":"levelo://app?vid=62c4730a-fd7f-471f-9ccf-4bc9942fee58"},"vehicle_type_id":"4","last_reported":1756145737,"current_range_meters":8000,"station_id":"ce4bhlh2rcd13ifvqgig","pricing_plan_id":"cebpf4jnsgd1na2vs0mg"},{"bike_id":"5a81dd96-a0af-4fb0-acb4-88d32da4cd98","system_id":"levelo_inurba_marseille","lat":43.32016,"lon":5.41576,"is_reserved":false,"is_disabled":false,"rental_uris":{"android":"levelo://app?vid=5a81dd96-a0af-4fb0-acb4-88d32da4cd98","ios":"levelo://app?vid=5a81dd96-a0af-4fb0-acb4-88d32da4cd98"},"vehicle_type_id":"4","last_reported":1756145737,"current_range_meters":8000,"station_id":"ce4bhq92rcd13ifvqhkg","pricing_plan_id":"cebpf4jnsgd1na2vs0mg"},{"bike_id":"8278d03d-5584-48a8-a86a-7847a162c713","system_id":"levelo_inurba_marseille","lat":43.3094,"lon":5.38133,"is_reserved":false,"is_disabled":false,"rental_uris":{"android":"levelo://app?vid=8278d03d-5584-48a8-a86a-7847a162c713","ios":"levelo://app?vid=8278d03d-5584-48a8-a86a-7847a162c713"},"vehicle_type_id":"4","last_reported":1756145737,"current_range_meters":8400,"station_id":"","pricing_plan_id":"cebpf4jnsgd1na2vs0mg"},{"bike_id":"cac1a0b2-380e-4a5d-80d3-ffa50655bad5","system_id":"levelo_inurba_marseille","lat":43.29802,"lon":5.38099,"is_reserved":false,"is_disabled":false,"rental_uris":{"android":"levelo://app?vid=cac1a0b2-380e-4a5d-80d3-ffa50655bad5","ios":"levelo://app?vid=cac1a0b2-380e-4a5d-80d3-ffa50655bad5"},"vehicle_type_id":"4","last_reported":1756145737,"current_range_meters":8400,"station_id":"ce4bgip2rcd13ifvqbb0","pricing_plan_id":"cebpf4jnsgd1na2vs0mg"},{"bike_id":"11d13126-7964-444c-b07e-fada21886d33","system_id":"levelo_inurba_marseille","lat":43.30884,"lon":5.39658,"is_reserved":false,"is_disabled":false,"rental_uris":{"android":"levelo://app?vid=11d13126-7964-444c-b07e-fada21886d33","ios":"levelo://app?vid=11d13126-7964-444c-b07e-fada21886d33"},"vehicle_type_id":"4","last_reported":1756145737,"current_range_meters":8400,"station_id":"ce4bh012rcd13ifvqcv0","pricing_plan_id":"cebpf4jnsgd1na2vs0mg"},{"bike_id":"50dbd39a-afe0-4754-bf79-3cf2c7e76f15","system_id":"levelo_inurba_marseille","lat":43.27369,"lon":5.36257,"is_reserved":false,"is_disabled":false,"rental_uris":{"android":"levelo://app?vid=50dbd39a-afe0-4754-bf79-3cf2c7e76f15","ios":"levelo://app?vid=50dbd39a-afe0-4754-bf79-3cf2c7e76f15"},"vehicle_type_id":"4","last_reported":1756145737,"current_range_meters":8400,"station_id":"ce4bhbh2rcd13ifvqeo0","pricing_plan_id":"cebpf4jnsgd1na2vs0mg"},{"bike_id":"a6d39c7e-d070-4bc7-8ce5-427c9f638ff9","system_id":"levelo_inurba_marseille","lat":43.25817,"lon":5.3944,"is_reserved":false,"is_disabled":false,"rental_uris":{"android":"levelo://app?vid=a6d39c7e-d070-4bc7-8ce5-427c9f638ff9","ios":"levelo://app?vid=a6d39c7e-d070-4bc7-8ce5-427c9f638ff9"},"vehicle_type_id":"4","last_reported":1756145737,"current_range_meters":8400,"station_id":"ce4bhip2rcd13ifvqft0","pricing_plan_id":"cebpf4jnsgd1na2vs0mg"},{"bike_id":"318a994a-51ff-465f-b40c-534a36bf7044","system_id":"levelo_inurba_marseille","lat":43.30177,"lon":5.38279,"is_reserved":false,"is_disabled":false,"rental_uris":{"android":"levelo://app?vid=318a994a-51ff-465f-b40c-534a36bf7044","ios":"levelo://app?vid=318a994a-51ff-465f-b40c-534a36bf7044"},"vehicle_type_id":"4","last_reported":1756145737,"current_range_meters":8800,"station_id":"","pricing_plan_id":"cebpf4jnsgd1na2vs0mg"},{"bike_id":"e820027f-a17c-47c5-be0b-a2f1f5242340","system_id":"levelo_inurba_marseille","lat":43.30294,"lon":5.36889,"is_reserved":false,"is_disabled":false,"rental_uris":{"android":"levelo://app?vid=e820027f-a17c-47c5-be0b-a2f1f5242340","ios":"levelo://app?vid=e820027f-a17c-47c5-be0b-a2f1f5242340"},"vehicle_type_id":"4","last_reported":1756145737,"current_range_meters":8800,"station_id":"ce4bgqh2rcd13ifvqc5g","pricing_plan_id":"cebpf4jnsgd1na2vs0mg"},{"bike_id":"46a9bc63-5c5b-4814-9969-83acde5b11ff","system_id":"levelo_inurba_marseille","lat":43.28345,"lon":5.3811,"is_reserved":false,"is_disabled":false,"rental_uris":{"android":"levelo://app?vid=46a9bc63-5c5b-4814-9969-83acde5b11ff","ios":"levelo://app?vid=46a9bc63-5c5b-4814-9969-83acde5b11ff"},"vehicle_type_id":"4","last_reported":1756145737,"current_range_meters":8800,"station_id":"ce4bh412rcd13ifvqdr0","pricing_plan_id":"cebpf4jnsgd1na2vs0mg"},{"bike_id":"2de96479-e457-4f43-b5e2-a72430b6029b","system_id":"levelo_inurba_marseille","lat":43.28029,"lon":5.36943,"is_reserved":false,"is_disabled":false,"rental_uris":{"android":"levelo://app?vid=2de96479-e457-4f43-b5e2-a72430b6029b","ios":"levelo://app?vid=2de96479-e457-4f43-b5e2-a72430b6029b"},"vehicle_type_id":"4","last_reported":1756145737,"current_range_meters":8800,"station_id":"ce4bha12rcd13ifvqef0","pricing_plan_id":"cebpf4jnsgd1na2vs0mg"},{"bike_id":"250c0393-7c6e-4a86-ae0d-a4dfc3fbb866","system_id":"levelo_inurba_marseille","lat":43.28672,"lon":5.36356,"is_reserved":false,"is_disabled":false,"rental_uris":{"android":"levelo://app?vid=250c0393-7c6e-4a86-ae0d-a4dfc3fbb866","ios":"levelo://app?vid=250c0393-7c6e-4a86-ae0d-a4dfc3fbb866"},"vehicle_type_id":"4","last_reported":1756145737,"current_range_meters":8800,"station_id":"ce4bhah2rcd13ifvqej0","pricing_plan_id":"cebpf4jnsgd1na2vs0mg"},{"bike_id":"9e7a55dc-448e-45de-9fba-967fdf137c63","system_id":"levelo_inurba_marseille","lat":43.25725,"lon":5.41109,"is_reserved":false,"is_disabled":false,"rental_uris":{"android":"levelo://app?vid=9e7a55dc-448e-45de-9fba-967fdf137c63","ios":"levelo://app?vid=9e7a55dc-448e-45de-9fba-967fdf137c63"},"vehicle_type_id":"4","last_reported":1756145737,"current_range_meters":8800,"station_id":"ce4bhkp2rcd13ifvqgd0","pricing_plan_id":"cebpf4jnsgd1na2vs0mg"},{"bike_id":"fb0ecd7c-2c0f-42f1-9e73-9448c9893367","system_id":"levelo_inurba_marseille","lat":43.26475,"lon":5.37035,"is_reserved":false,"is_disabled":false,"rental_uris":{"android":"levelo://app?vid=fb0ecd7c-2c0f-42f1-9e73-9448c9893367","ios":"levelo://app?vid=fb0ecd7c-2c0f-42f1-9e73-9448c9893367"},"vehicle_type_id":"4","last_reported":1756145737,"current_range_meters":9200,"station_id":"","pricing_plan_id":"cebpf4jnsgd1na2vs0mg"},{"bike_id":"90e0a526-6381-4a83-a237-ca2ccb439806","system_id":"levelo_inurba_marseille","lat":43.28232,"lon":5.39067,"is_reserved":false,"is_disabled":false,"rental_uris":{"android":"levelo://app?vid=90e0a526-6381-4a83-a237-ca2ccb439806","ios":"levelo://app?vid=90e0a526-6381-4a83-a237-ca2ccb439806"},"vehicle_type_id":"4","last_reported":1756145737,"current_range_meters":9200,"station_id":"ce4bhn92rcd13ifvqgsg","pricing_plan_id":"cebpf4jnsgd1na2vs0mg"},{"bike_id":"f827924e-764d-464b-bd85-3fbe8fd49a38","system_id":"levelo_inurba_marseille","lat":43.28153,"lon":5.42634,"is_reserved":false,"is_disabled":false,"rental_uris":{"android":"levelo://app?vid=f827924e-764d-464b-bd85-3fbe8fd49a38","ios":"levelo://app?vid=f827924e-764d-464b-bd85-3fbe8fd49a38"},"vehicle_type_id":"4","last_reported":1756145737,"current_range_meters":9200,"station_id":"ce4bhnh2rcd13ifvqgug","pricing_plan_id":"cebpf4jnsgd1na2vs0mg"},{"bike_id":"a2f99c99-dde5-41c8-97bd-7772fe82f3a8","system_id":"levelo_inurba_marseille","lat":43.21199,"lon":5.35088,"is_reserved":false,"is_disabled":false,"rental_uris":{"android":"levelo://app?vid=a2f99c99-dde5-41c8-97bd-7772fe82f3a8","ios":"levelo://app?vid=a2f99c99-dde5-41c8-97bd-7772fe82f3a8"},"vehicle_type_id":"4","last_reported":1756145737,"current_range_meters":9200,"station_id":"st_cvj6sg6p6f1abm77japg","pricing_plan_id":"cebpf4jnsgd1na2vs0mg"},{"bike_id":"80c4b4f0-e8e1-4d9f-8276-7e91a72e7c2f","system_id":"levelo_inurba_marseille","lat":43.306,"lon":5.3723,"is_reserved":false,"is_disabled":false,"rental_uris":{"android":"levelo://app?vid=80c4b4f0-e8e1-4d9f-8276-7e91a72e7c2f","ios":"levelo://app?vid=80c4b4f0-e8e1-4d9f-8276-7e91a72e7c2f"},"vehicle_type_id":"4","last_reported":1756145737,"current_range_meters":9600,"station_id":"ce4bgqh2rcd13ifvqc4g","pricing_plan_id":"cebpf4jnsgd1na2vs0mg"},{"bike_id":"5bc159b2-6625-4331-8d47-866182c3fe54","system_id":"levelo_inurba_marseille","lat":43.28702,"lon":5.37389,"is_reserved":false,"is_disabled":false,"rental_uris":{"android":"levelo://app?vid=5bc159b2-6625-4331-8d47-866182c3fe54","ios":"levelo://app?vid=5bc159b2-6625-4331-8d47-866182c3fe54"},"vehicle_type_id":"4","last_reported":1756145737,"current_range_meters":9600,"station_id":"ce4bh3p2rcd13ifvqdq0","pricing_plan_id":"cebpf4jnsgd1na2vs0mg"},{"bike_id":"439d8950-212a-435b-9f92-0b0e5d46f90f","system_id":"levelo_inurba_marseille","lat":43.29023,"lon":5.3813,"is_reserved":false,"is_disabled":false,"rental_uris":{"android":"levelo://app?vid=439d8950-212a-435b-9f92-0b0e5d46f90f","ios":"levelo://app?vid=439d8950-212a-435b-9f92-0b0e5d46f90f"},"vehicle_type_id":"4","last_reported":1756145737,"current_range_meters":9600,"station_id":"ce4bh4p2rcd13ifvqe1g","pricing_plan_id":"cebpf4jnsgd1na2vs0mg"},{"bike_id":"919f8de0-32f4-4349-b262-ac11136c60f1","system_id":"levelo_inurba_marseille","lat":43.27988,"lon":5.41661,"is_reserved":false,"is_disabled":false,"rental_uris":{"android":"levelo://app?vid=919f8de0-32f4-4349-b262-ac11136c60f1","ios":"levelo://app?vid=919f8de0-32f4-4349-b262-ac11136c60f1"},"vehicle_type_id":"4","last_reported":1756145737,"current_range_meters":9600,"station_id":"ce4bho12rcd13ifvqh1g","pricing_plan_id":"cebpf4jnsgd1na2vs0mg"},{"bike_id":"82bc0abc-7a95-4a7d-90a4-db0b095dbb34","system_id":"levelo_inurba_marseille","lat":43.32069,"lon":5.36812,"is_reserved":false,"is_disabled":false,"rental_uris":{"android":"levelo://app?vid=82bc0abc-7a95-4a7d-90a4-db0b095dbb34","ios":"levelo://app?vid=82bc0abc-7a95-4a7d-90a4-db0b095dbb34"},"vehicle_type_id":"4","last_reported":1756145737,"current_range_meters":9600,"station_id":"ce4bhrh2rcd13ifvqhug","pricing_plan_id":"cebpf4jnsgd1na2vs0mg"},{"bike_id":"a4a408b3-aa81-4fa0-99b2-8d0a08e384bc","system_id":"levelo_inurba_marseille","lat":43.32102,"lon":5.36769,"is_reserved":false,"is_disabled":false,"rental_uris":{"android":"levelo://app?vid=a4a408b3-aa81-4fa0-99b2-8d0a08e384bc","ios":"levelo://app?vid=a4a408b3-aa81-4fa0-99b2-8d0a08e384bc"},"vehicle_type_id":"4","last_reported":1756145737,"current_range_meters":9600,"station_id":"ce4bhrh2rcd13ifvqhug","pricing_plan_id":"cebpf4jnsgd1na2vs0mg"},{"bike_id":"3f841bd6-7fab-4c08-a3b5-9956bb08235c","system_id":"levelo_inurba_marseille","lat":43.32137,"lon":5.36798,"is_reserved":false,"is_disabled":false,"rental_uris":{"android":"levelo://app?vid=3f841bd6-7fab-4c08-a3b5-9956bb08235c","ios":"levelo://app?vid=3f841bd6-7fab-4c08-a3b5-9956bb08235c"},"vehicle_type_id":"4","last_reported":1756145737,"current_range_meters":10000,"station_id":"","pricing_plan_id":"cebpf4jnsgd1na2vs0mg"},{"bike_id":"55544998-e0c8-44a6-9734-be036a293fff","system_id":"levelo_inurba_marseille","lat":43.30136,"lon":5.38775,"is_reserved":false,"is_disabled":false,"rental_uris":{"android":"levelo://app?vid=55544998-e0c8-44a6-9734-be036a293fff","ios":"levelo://app?vid=55544998-e0c8-44a6-9734-be036a293fff"},"vehicle_type_id":"4","last_reported":1756145737,"current_range_meters":10000,"station_id":"ce4bghh2rcd13ifvqb60","pricing_plan_id":"cebpf4jnsgd1na2vs0mg"},{"bike_id":"3799ec2b-6545-4732-b1f5-6b525c9cfc81","system_id":"levelo_inurba_marseille","lat":43.2979,"lon":5.38091,"is_reserved":false,"is_disabled":false,"rental_uris":{"android":"levelo://app?vid=3799ec2b-6545-4732-b1f5-6b525c9cfc81","ios":"levelo://app?vid=3799ec2b-6545-4732-b1f5-6b525c9cfc81"},"vehicle_type_id":"4","last_reported":1756145737,"current_range_meters":10000,"station_id":"ce4bgip2rcd13ifvqbb0","pricing_plan_id":"cebpf4jnsgd1na2vs0mg"},{"bike_id":"1ed0c22e-71be-493b-a68e-f9f1d28de514","system_id":"levelo_inurba_marseille","lat":43.2582,"lon":5.39442,"is_reserved":false,"is_disabled":false,"rental_uris":{"android":"levelo://app?vid=1ed0c22e-71be-493b-a68e-f9f1d28de514","ios":"levelo://app?vid=1ed0c22e-71be-493b-a68e-f9f1d28de514"},"vehicle_type_id":"4","last_reported":1756145737,"current_range_meters":10000,"station_id":"ce4bhip2rcd13ifvqft0","pricing_plan_id":"cebpf4jnsgd1na2vs0mg"},{"bike_id":"18ad2dac-3569-4e47-80a8-b7a22ee27654","system_id":"levelo_inurba_marseille","lat":43.28406,"lon":5.34998,"is_reserved":false,"is_disabled":false,"rental_uris":{"android":"levelo://app?vid=18ad2dac-3569-4e47-80a8-b7a22ee27654","ios":"levelo://app?vid=18ad2dac-3569-4e47-80a8-b7a22ee27654"},"vehicle_type_id":"4","last_reported":1756145737,"current_range_meters":10800,"station_id":"ce4bhbh2rcd13ifvqepg","pricing_plan_id":"cebpf4jnsgd1na2vs0mg"},{"bike_id":"689178bc-5c72-427e-9882-887899b3c3e0","system_id":"levelo_inurba_marseille","lat":43.28949,"lon":5.36399,"is_reserved":false,"is_disabled":false,"rental_uris":{"android":"levelo://app?vid=689178bc-5c72-427e-9882-887899b3c3e0","ios":"levelo://app?vid=689178bc-5c72-427e-9882-887899b3c3e0"},"vehicle_type_id":"4","last_reported":1756145737,"current_range_meters":10800,"station_id":"ce4bhc92rcd13ifvqetg","pricing_plan_id":"cebpf4jnsgd1na2vs0mg"},{"bike_id":"ea054efb-6435-4b1d-95d4-b10cd5cc3ec2","system_id":"levelo_inurba_marseille","lat":43.32367,"lon":5.36775,"is_reserved":false,"is_disabled":false,"rental_uris":{"android":"levelo://app?vid=ea054efb-6435-4b1d-95d4-b10cd5cc3ec2","ios":"levelo://app?vid=ea054efb-6435-4b1d-95d4-b10cd5cc3ec2"},"vehicle_type_id":"4","last_reported":1756145737,"current_range_meters":10800,"station_id":"ce4bhsh2rcd13ifvqi2g","pricing_plan_id":"cebpf4jnsgd1na2vs0mg"},{"bike_id":"0401d020-cb58-4059-8ba7-3ce8832a85d7","system_id":"levelo_inurba_marseille","lat":43.29003,"lon":5.35614,"is_reserved":false,"is_disabled":false,"rental_uris":{"android":"levelo://app?vid=0401d020-cb58-4059-8ba7-3ce8832a85d7","ios":"levelo://app?vid=0401d020-cb58-4059-8ba7-3ce8832a85d7"},"vehicle_type_id":"4","last_reported":1756145737,"current_range_meters":11200,"station_id":"ce4bhb92rcd13ifvqen0","pricing_plan_id":"cebpf4jnsgd1na2vs0mg"},{"bike_id":"23bc18f4-2344-4e8f-bd39-7c8ff1a3c168","system_id":"levelo_inurba_marseille","lat":43.27926,"lon":5.39595,"is_reserved":false,"is_disabled":false,"rental_uris":{"android":"levelo://app?vid=23bc18f4-2344-4e8f-bd39-7c8ff1a3c168","ios":"levelo://app?vid=23bc18f4-2344-4e8f-bd39-7c8ff1a3c168"},"vehicle_type_id":"4","last_reported":1756145737,"current_range_meters":11200,"station_id":"ce4bhf92rcd13ifvqf40","pricing_plan_id":"cebpf4jnsgd1na2vs0mg"},{"bike_id":"93429572-36c0-49da-bdcf-2a7f95ff5a0c","system_id":"levelo_inurba_marseille","lat":43.27948,"lon":5.4105,"is_reserved":false,"is_disabled":false,"rental_uris":{"android":"levelo://app?vid=93429572-36c0-49da-bdcf-2a7f95ff5a0c","ios":"levelo://app?vid=93429572-36c0-49da-bdcf-2a7f95ff5a0c"},"vehicle_type_id":"4","last_reported":1756145737,"current_range_meters":11200,"station_id":"ce4bhnp2rcd13ifvqh0g","pricing_plan_id":"cebpf4jnsgd1na2vs0mg"},{"bike_id":"26a0fffb-d908-498d-ab31-ca6fc30a28ee","system_id":"levelo_inurba_marseille","lat":43.29756,"lon":5.37778,"is_reserved":false,"is_disabled":false,"rental_uris":{"android":"levelo://app?vid=26a0fffb-d908-498d-ab31-ca6fc30a28ee","ios":"levelo://app?vid=26a0fffb-d908-498d-ab31-ca6fc30a28ee"},"vehicle_type_id":"4","last_reported":1756145737,"current_range_meters":11600,"station_id":"","pricing_plan_id":"cebpf4jnsgd1na2vs0mg"},{"bike_id":"fbbf7171-baea-4290-91c4-1e1a5c0e77d8","system_id":"levelo_inurba_marseille","lat":43.25103,"lon":5.40327,"is_reserved":false,"is_disabled":false,"rental_uris":{"android":"levelo://app?vid=fbbf7171-baea-4290-91c4-1e1a5c0e77d8","ios":"levelo://app?vid=fbbf7171-baea-4290-91c4-1e1a5c0e77d8"},"vehicle_type_id":"4","last_reported":1756145737,"current_range_meters":11600,"station_id":"ce4bhlh2rcd13ifvqgig","pricing_plan_id":"cebpf4jnsgd1na2vs0mg"},{"bike_id":"b6c6612e-43da-401f-97d3-e8f9c7ca210f","system_id":"levelo_inurba_marseille","lat":43.33026,"lon":5.39046,"is_reserved":false,"is_disabled":false,"rental_uris":{"android":"levelo://app?vid=b6c6612e-43da-401f-97d3-e8f9c7ca210f","ios":"levelo://app?vid=b6c6612e-43da-401f-97d3-e8f9c7ca210f"},"vehicle_type_id":"4","last_reported":1756145737,"current_range_meters":11600,"station_id":"ce4bhr92rcd13ifvqhrg","pricing_plan_id":"cebpf4jnsgd1na2vs0mg"},{"bike_id":"69ff4266-7b30-4d2e-a5d1-2f0bff994dcc","system_id":"levelo_inurba_marseille","lat":43.2901,"lon":5.356016,"is_reserved":false,"is_disabled":false,"rental_uris":{"android":"levelo://app?vid=69ff4266-7b30-4d2e-a5d1-2f0bff994dcc","ios":"levelo://app?vid=69ff4266-7b30-4d2e-a5d1-2f0bff994dcc"},"vehicle_type_id":"4","last_reported":1756145737,"current_range_meters":12000,"station_id":"ce4bhb92rcd13ifvqen0","pricing_plan_id":"cebpf4jnsgd1na2vs0mg"},{"bike_id":"fc5baf79-349d-4bd6-96df-fb36c34a0f38","system_id":"levelo_inurba_marseille","lat":43.286152,"lon":5.350953,"is_reserved":false,"is_disabled":false,"rental_uris":{"android":"levelo://app?vid=fc5baf79-349d-4bd6-96df-fb36c34a0f38","ios":"levelo://app?vid=fc5baf79-349d-4bd6-96df-fb36c34a0f38"},"vehicle_type_id":"4","last_reported":1756145737,"current_range_meters":12000,"station_id":"ce4bhch2rcd13ifvqeug","pricing_plan_id":"cebpf4jnsgd1na2vs0mg"},{"bike_id":"c781d16a-9a50-43c1-a393-d156c01a6cae","system_id":"levelo_inurba_marseille","lat":43.22923,"lon":5.35371,"is_reserved":false,"is_disabled":false,"rental_uris":{"android":"levelo://app?vid=c781d16a-9a50-43c1-a393-d156c01a6cae","ios":"levelo://app?vid=c781d16a-9a50-43c1-a393-d156c01a6cae"},"vehicle_type_id":"4","last_reported":1756145737,"current_range_meters":12000,"station_id":"cpo3532slgdg3j2ikp40","pricing_plan_id":"cebpf4jnsgd1na2vs0mg"},{"bike_id":"1cd21559-399f-4936-b4ac-cb1d7223c9c3","system_id":"levelo_inurba_marseille","lat":43.23997,"lon":5.3627,"is_reserved":false,"is_disabled":false,"rental_uris":{"android":"levelo://app?vid=1cd21559-399f-4936-b4ac-cb1d7223c9c3","ios":"levelo://app?vid=1cd21559-399f-4936-b4ac-cb1d7223c9c3"},"vehicle_type_id":"4","last_reported":1756145737,"current_range_meters":12400,"station_id":"","pricing_plan_id":"cebpf4jnsgd1na2vs0mg"},{"bike_id":"af4f25ab-3f23-4eef-b561-a9bfc5ac7a45","system_id":"levelo_inurba_marseille","lat":43.29251,"lon":5.38443,"is_reserved":false,"is_disabled":false,"rental_uris":{"android":"levelo://app?vid=af4f25ab-3f23-4eef-b561-a9bfc5ac7a45","ios":"levelo://app?vid=af4f25ab-3f23-4eef-b561-a9bfc5ac7a45"},"vehicle_type_id":"4","last_reported":1756145737,"current_range_meters":12400,"station_id":"ce4bh692rcd13ifvqea0","pricing_plan_id":"cebpf4jnsgd1na2vs0mg"},{"bike_id":"e7ae99aa-42ba-4f8c-8704-622e3fb31ae9","system_id":"levelo_inurba_marseille","lat":43.273225,"lon":5.390631,"is_reserved":false,"is_disabled":false,"rental_uris":{"android":"levelo://app?vid=e7ae99aa-42ba-4f8c-8704-622e3fb31ae9","ios":"levelo://app?vid=e7ae99aa-42ba-4f8c-8704-622e3fb31ae9"},"vehicle_type_id":"4","last_reported":1756145737,"current_range_meters":12400,"station_id":"ce4bhgp2rcd13ifvqfe0","pricing_plan_id":"cebpf4jnsgd1na2vs0mg"},{"bike_id":"b0d6a657-c78e-47de-85ac-cbf4564acdcb","system_id":"levelo_inurba_marseille","lat":43.28169,"lon":5.42663,"is_reserved":false,"is_disabled":false,"rental_uris":{"android":"levelo://app?vid=b0d6a657-c78e-47de-85ac-cbf4564acdcb","ios":"levelo://app?vid=b0d6a657-c78e-47de-85ac-cbf4564acdcb"},"vehicle_type_id":"4","last_reported":1756145737,"current_range_meters":12400,"station_id":"ce4bhnh2rcd13ifvqgug","pricing_plan_id":"cebpf4jnsgd1na2vs0mg"},{"bike_id":"a5aff412-9b35-4d5b-b2d6-ea29ae910d7f","system_id":"levelo_inurba_marseille","lat":43.321039,"lon":5.367698,"is_reserved":false,"is_disabled":false,"rental_uris":{"android":"levelo://app?vid=a5aff412-9b35-4d5b-b2d6-ea29ae910d7f","ios":"levelo://app?vid=a5aff412-9b35-4d5b-b2d6-ea29ae910d7f"},"vehicle_type_id":"4","last_reported":1756145737,"current_range_meters":12400,"station_id":"ce4bhrh2rcd13ifvqhug","pricing_plan_id":"cebpf4jnsgd1na2vs0mg"},{"bike_id":"5751a7bf-2bb5-43b4-b3ff-b3df134e7022","system_id":"levelo_inurba_marseille","lat":43.28852,"lon":5.39311,"is_reserved":false,"is_disabled":false,"rental_uris":{"android":"levelo://app?vid=5751a7bf-2bb5-43b4-b3ff-b3df134e7022","ios":"levelo://app?vid=5751a7bf-2bb5-43b4-b3ff-b3df134e7022"},"vehicle_type_id":"4","last_reported":1756145737,"current_range_meters":12800,"station_id":"ce4bh2p2rcd13ifvqdi0","pricing_plan_id":"cebpf4jnsgd1na2vs0mg"},{"bike_id":"37ee34ea-f1e1-4241-a19a-4060e53b71a9","system_id":"levelo_inurba_marseille","lat":43.27382,"lon":5.36232,"is_reserved":false,"is_disabled":false,"rental_uris":{"android":"levelo://app?vid=37ee34ea-f1e1-4241-a19a-4060e53b71a9","ios":"levelo://app?vid=37ee34ea-f1e1-4241-a19a-4060e53b71a9"},"vehicle_type_id":"4","last_reported":1756145737,"current_range_meters":12800,"station_id":"ce4bhbh2rcd13ifvqeo0","pricing_plan_id":"cebpf4jnsgd1na2vs0mg"},{"bike_id":"4088c333-98fe-4261-bc3a-a823a327bc0b","system_id":"levelo_inurba_marseille","lat":43.28615,"lon":5.35102,"is_reserved":false,"is_disabled":false,"rental_uris":{"android":"levelo://app?vid=4088c333-98fe-4261-bc3a-a823a327bc0b","ios":"levelo://app?vid=4088c333-98fe-4261-bc3a-a823a327bc0b"},"vehicle_type_id":"4","last_reported":1756145737,"current_range_meters":12800,"station_id":"ce4bhch2rcd13ifvqeug","pricing_plan_id":"cebpf4jnsgd1na2vs0mg"},{"bike_id":"d4010718-11ef-4ed8-81e5-7f496002b13a","system_id":"levelo_inurba_marseille","lat":43.25342,"lon":5.42171,"is_reserved":false,"is_disabled":false,"rental_uris":{"android":"levelo://app?vid=d4010718-11ef-4ed8-81e5-7f496002b13a","ios":"levelo://app?vid=d4010718-11ef-4ed8-81e5-7f496002b13a"},"vehicle_type_id":"4","last_reported":1756145737,"current_range_meters":12800,"station_id":"st_d2m65c5bi1j21697t3ng","pricing_plan_id":"cebpf4jnsgd1na2vs0mg"},{"bike_id":"3f4a45cc-e5bb-4b35-88d4-61431d4f60e6","system_id":"levelo_inurba_marseille","lat":43.32901,"lon":5.39082,"is_reserved":false,"is_disabled":false,"rental_uris":{"android":"levelo://app?vid=3f4a45cc-e5bb-4b35-88d4-61431d4f60e6","ios":"levelo://app?vid=3f4a45cc-e5bb-4b35-88d4-61431d4f60e6"},"vehicle_type_id":"4","last_reported":1756145737,"current_range_meters":13600,"station_id":"","pricing_plan_id":"cebpf4jnsgd1na2vs0mg"},{"bike_id":"1f8501a7-4674-4d39-83d9-7ec9c7fb9041","system_id":"levelo_inurba_marseille","lat":43.29274,"lon":5.38434,"is_reserved":false,"is_disabled":false,"rental_uris":{"android":"levelo://app?vid=1f8501a7-4674-4d39-83d9-7ec9c7fb9041","ios":"levelo://app?vid=1f8501a7-4674-4d39-83d9-7ec9c7fb9041"},"vehicle_type_id":"4","last_reported":1756145737,"current_range_meters":13600,"station_id":"ce4bh692rcd13ifvqea0","pricing_plan_id":"cebpf4jnsgd1na2vs0mg"},{"bike_id":"fead74e8-e2a8-4c33-a8dc-dce201d9822d","system_id":"levelo_inurba_marseille","lat":43.28417,"lon":5.3498,"is_reserved":false,"is_disabled":false,"rental_uris":{"android":"levelo://app?vid=fead74e8-e2a8-4c33-a8dc-dce201d9822d","ios":"levelo://app?vid=fead74e8-e2a8-4c33-a8dc-dce201d9822d"},"vehicle_type_id":"4","last_reported":1756145737,"current_range_meters":13600,"station_id":"ce4bhbh2rcd13ifvqepg","pricing_plan_id":"cebpf4jnsgd1na2vs0mg"},{"bike_id":"471eb35e-d3a4-476b-8b9d-c7e88b211592","system_id":"levelo_inurba_marseille","lat":43.253316,"lon":5.421727,"is_reserved":false,"is_disabled":false,"rental_uris":{"android":"levelo://app?vid=471eb35e-d3a4-476b-8b9d-c7e88b211592","ios":"levelo://app?vid=471eb35e-d3a4-476b-8b9d-c7e88b211592"},"vehicle_type_id":"4","last_reported":1756145737,"current_range_meters":13600,"station_id":"st_d2m65c5bi1j21697t3ng","pricing_plan_id":"cebpf4jnsgd1na2vs0mg"},{"bike_id":"37794789-bd5b-4a81-873e-cf61850863cd","system_id":"levelo_inurba_marseille","lat":43.29959,"lon":5.37164,"is_reserved":false,"is_disabled":false,"rental_uris":{"android":"levelo://app?vid=37794789-bd5b-4a81-873e-cf61850863cd","ios":"levelo://app?vid=37794789-bd5b-4a81-873e-cf61850863cd"},"vehicle_type_id":"4","last_reported":1756145737,"current_range_meters":14000,"station_id":"ce4bgr92rcd13ifvqc7g","pricing_plan_id":"cebpf4jnsgd1na2vs0mg"},{"bike_id":"5b66c4e6-d8df-4834-be48-e2d188874c91","system_id":"levelo_inurba_marseille","lat":43.29252,"lon":5.40904,"is_reserved":false,"is_disabled":false,"rental_uris":{"android":"levelo://app?vid=5b66c4e6-d8df-4834-be48-e2d188874c91","ios":"levelo://app?vid=5b66c4e6-d8df-4834-be48-e2d188874c91"},"vehicle_type_id":"4","last_reported":1756145737,"current_range_meters":14000,"station_id":"ce4bh192rcd13ifvqdc0","pricing_plan_id":"cebpf4jnsgd1na2vs0mg"},{"bike_id":"13c636f8-adf7-4852-b867-d13887c4ed4d","system_id":"levelo_inurba_marseille","lat":43.28306,"lon":5.35089,"is_reserved":false,"is_disabled":false,"rental_uris":{"android":"levelo://app?vid=13c636f8-adf7-4852-b867-d13887c4ed4d","ios":"levelo://app?vid=13c636f8-adf7-4852-b867-d13887c4ed4d"},"vehicle_type_id":"4","last_reported":1756145737,"current_range_meters":14000,"station_id":"ce4bhbp2rcd13ifvqerg","pricing_plan_id":"cebpf4jnsgd1na2vs0mg"},{"bike_id":"6fa795ae-c410-4e75-accd-65c0dc295cce","system_id":"levelo_inurba_marseille","lat":43.28624,"lon":5.35096,"is_reserved":false,"is_disabled":false,"rental_uris":{"android":"levelo://app?vid=6fa795ae-c410-4e75-accd-65c0dc295cce","ios":"levelo://app?vid=6fa795ae-c410-4e75-accd-65c0dc295cce"},"vehicle_type_id":"4","last_reported":1756145737,"current_range_meters":14000,"station_id":"ce4bhch2rcd13ifvqeug","pricing_plan_id":"cebpf4jnsgd1na2vs0mg"},{"bike_id":"8a63f710-1340-4af8-a59d-c2575217dfdb","system_id":"levelo_inurba_marseille","lat":43.26473,"lon":5.39584,"is_reserved":false,"is_disabled":false,"rental_uris":{"android":"levelo://app?vid=8a63f710-1340-4af8-a59d-c2575217dfdb","ios":"levelo://app?vid=8a63f710-1340-4af8-a59d-c2575217dfdb"},"vehicle_type_id":"4","last_reported":1756145737,"current_range_meters":14000,"station_id":"ce4bhi12rcd13ifvqfq0","pricing_plan_id":"cebpf4jnsgd1na2vs0mg"},{"bike_id":"d94a3e2d-afbd-4e20-9e99-a5beeae0f186","system_id":"levelo_inurba_marseille","lat":43.28149,"lon":5.42628,"is_reserved":false,"is_disabled":false,"rental_uris":{"android":"levelo://app?vid=d94a3e2d-afbd-4e20-9e99-a5beeae0f186","ios":"levelo://app?vid=d94a3e2d-afbd-4e20-9e99-a5beeae0f186"},"vehicle_type_id":"4","last_reported":1756145737,"current_range_meters":14000,"station_id":"ce4bhnh2rcd13ifvqgug","pricing_plan_id":"cebpf4jnsgd1na2vs0mg"},{"bike_id":"ee82ba81-a369-474f-aebb-942ea65a14b8","system_id":"levelo_inurba_marseille","lat":43.2808,"lon":5.39658,"is_reserved":false,"is_disabled":false,"rental_uris":{"android":"levelo://app?vid=ee82ba81-a369-474f-aebb-942ea65a14b8","ios":"levelo://app?vid=ee82ba81-a369-474f-aebb-942ea65a14b8"},"vehicle_type_id":"4","last_reported":1756145737,"current_range_meters":14000,"station_id":"ce4bho12rcd13ifvqh2g","pricing_plan_id":"cebpf4jnsgd1na2vs0mg"},{"bike_id":"19783fba-7475-4b86-95a6-08d3d4fa647f","system_id":"levelo_inurba_marseille","lat":43.29896,"lon":5.43673,"is_reserved":false,"is_disabled":false,"rental_uris":{"android":"levelo://app?vid=19783fba-7475-4b86-95a6-08d3d4fa647f","ios":"levelo://app?vid=19783fba-7475-4b86-95a6-08d3d4fa647f"},"vehicle_type_id":"4","last_reported":1756145737,"current_range_meters":14000,"station_id":"ce4bhpp2rcd13ifvqhfg","pricing_plan_id":"cebpf4jnsgd1na2vs0mg"},{"bike_id":"322142a9-6cb3-49c2-bb0e-0e2c0fda1e2e","system_id":"levelo_inurba_marseille","lat":43.32987,"lon":5.39027,"is_reserved":false,"is_disabled":false,"rental_uris":{"android":"levelo://app?vid=322142a9-6cb3-49c2-bb0e-0e2c0fda1e2e","ios":"levelo://app?vid=322142a9-6cb3-49c2-bb0e-0e2c0fda1e2e"},"vehicle_type_id":"4","last_reported":1756145737,"current_range_meters":14000,"station_id":"ce4bhr92rcd13ifvqhrg","pricing_plan_id":"cebpf4jnsgd1na2vs0mg"},{"bike_id":"2c41b0f9-4187-4b72-9fe7-b647f27eb276","system_id":"levelo_inurba_marseille","lat":43.30613,"lon":5.37226,"is_reserved":false,"is_disabled":false,"rental_uris":{"android":"levelo://app?vid=2c41b0f9-4187-4b72-9fe7-b647f27eb276","ios":"levelo://app?vid=2c41b0f9-4187-4b72-9fe7-b647f27eb276"},"vehicle_type_id":"4","last_reported":1756145737,"current_range_meters":14400,"station_id":"ce4bgqh2rcd13ifvqc4g","pricing_plan_id":"cebpf4jnsgd1na2vs0mg"},{"bike_id":"32a4e03e-369a-48c4-acaf-761e5f05550a","system_id":"levelo_inurba_marseille","lat":43.274892,"lon":5.424412,"is_reserved":false,"is_disabled":false,"rental_uris":{"android":"levelo://app?vid=32a4e03e-369a-48c4-acaf-761e5f05550a","ios":"levelo://app?vid=32a4e03e-369a-48c4-acaf-761e5f05550a"},"vehicle_type_id":"4","last_reported":1756145737,"current_range_meters":14400,"station_id":"ce4bhn92rcd13ifvqgrg","pricing_plan_id":"cebpf4jnsgd1na2vs0mg"},{"bike_id":"0ddfa8cc-09b0-4775-aa99-767efb5c466f","system_id":"levelo_inurba_marseille","lat":43.2809,"lon":5.39653,"is_reserved":false,"is_disabled":false,"rental_uris":{"android":"levelo://app?vid=0ddfa8cc-09b0-4775-aa99-767efb5c466f","ios":"levelo://app?vid=0ddfa8cc-09b0-4775-aa99-767efb5c466f"},"vehicle_type_id":"4","last_reported":1756145737,"current_range_meters":14400,"station_id":"ce4bho12rcd13ifvqh2g","pricing_plan_id":"cebpf4jnsgd1na2vs0mg"},{"bike_id":"dc698841-94b1-4bf8-b86f-e6df9577e105","system_id":"levelo_inurba_marseille","lat":43.290558,"lon":5.359098,"is_reserved":false,"is_disabled":false,"rental_uris":{"android":"levelo://app?vid=dc698841-94b1-4bf8-b86f-e6df9577e105","ios":"levelo://app?vid=dc698841-94b1-4bf8-b86f-e6df9577e105"},"vehicle_type_id":"4","last_reported":1756145737,"current_range_meters":14800,"station_id":"ce4bha92rcd13ifvqeg0","pricing_plan_id":"cebpf4jnsgd1na2vs0mg"},{"bike_id":"0dbb8eba-e6db-428c-86fe-5db803b4eff9","system_id":"levelo_inurba_marseille","lat":43.28459,"lon":5.35887,"is_reserved":false,"is_disabled":false,"rental_uris":{"android":"levelo://app?vid=0dbb8eba-e6db-428c-86fe-5db803b4eff9","ios":"levelo://app?vid=0dbb8eba-e6db-428c-86fe-5db803b4eff9"},"vehicle_type_id":"4","last_reported":1756145737,"current_range_meters":14800,"station_id":"ce4bhah2rcd13ifvqei0","pricing_plan_id":"cebpf4jnsgd1na2vs0mg"},{"bike_id":"78c01866-7c31-4b0c-93fb-94177f5e298a","system_id":"levelo_inurba_marseille","lat":43.22937,"lon":5.35379,"is_reserved":false,"is_disabled":false,"rental_uris":{"android":"levelo://app?vid=78c01866-7c31-4b0c-93fb-94177f5e298a","ios":"levelo://app?vid=78c01866-7c31-4b0c-93fb-94177f5e298a"},"vehicle_type_id":"4","last_reported":1756145737,"current_range_meters":14800,"station_id":"cpo3532slgdg3j2ikp40","pricing_plan_id":"cebpf4jnsgd1na2vs0mg"},{"bike_id":"b781a5a0-6633-425e-89d0-234145a32713","system_id":"levelo_inurba_marseille","lat":43.29589,"lon":5.38105,"is_reserved":false,"is_disabled":false,"rental_uris":{"android":"levelo://app?vid=b781a5a0-6633-425e-89d0-234145a32713","ios":"levelo://app?vid=b781a5a0-6633-425e-89d0-234145a32713"},"vehicle_type_id":"4","last_reported":1756145737,"current_range_meters":16000,"station_id":"ce4bgl12rcd13ifvqbo0","pricing_plan_id":"cebpf4jnsgd1na2vs0mg"},{"bike_id":"a68f5e70-decd-4d36-ad32-79daf85e8cf0","system_id":"levelo_inurba_marseille","lat":43.2926,"lon":5.38445,"is_reserved":false,"is_disabled":false,"rental_uris":{"android":"levelo://app?vid=a68f5e70-decd-4d36-ad32-79daf85e8cf0","ios":"levelo://app?vid=a68f5e70-decd-4d36-ad32-79daf85e8cf0"},"vehicle_type_id":"4","last_reported":1756145737,"current_range_meters":16000,"station_id":"ce4bh692rcd13ifvqea0","pricing_plan_id":"cebpf4jnsgd1na2vs0mg"},{"bike_id":"1e717a90-c853-4831-a30a-21a593345e4c","system_id":"levelo_inurba_marseille","lat":43.28462,"lon":5.35888,"is_reserved":false,"is_disabled":false,"rental_uris":{"android":"levelo://app?vid=1e717a90-c853-4831-a30a-21a593345e4c","ios":"levelo://app?vid=1e717a90-c853-4831-a30a-21a593345e4c"},"vehicle_type_id":"4","last_reported":1756145737,"current_range_meters":16000,"station_id":"ce4bhah2rcd13ifvqei0","pricing_plan_id":"cebpf4jnsgd1na2vs0mg"},{"bike_id":"be11ee8e-d6e8-4b5a-9526-c98af2d376fa","system_id":"levelo_inurba_marseille","lat":43.28148,"lon":5.42646,"is_reserved":false,"is_disabled":false,"rental_uris":{"android":"levelo://app?vid=be11ee8e-d6e8-4b5a-9526-c98af2d376fa","ios":"levelo://app?vid=be11ee8e-d6e8-4b5a-9526-c98af2d376fa"},"vehicle_type_id":"4","last_reported":1756145737,"current_range_meters":16000,"station_id":"ce4bhnh2rcd13ifvqgug","pricing_plan_id":"cebpf4jnsgd1na2vs0mg"},{"bike_id":"aa4cda76-36b8-4022-806b-887111873a7e","system_id":"levelo_inurba_marseille","lat":43.2407,"lon":5.37762,"is_reserved":false,"is_disabled":false,"rental_uris":{"android":"levelo://app?vid=aa4cda76-36b8-4022-806b-887111873a7e","ios":"levelo://app?vid=aa4cda76-36b8-4022-806b-887111873a7e"},"vehicle_type_id":"4","last_reported":1756145737,"current_range_meters":16000,"station_id":"ce4bhnp2rcd13ifvqgvg","pricing_plan_id":"cebpf4jnsgd1na2vs0mg"},{"bike_id":"cb996ac4-3d6d-4d5e-befc-a3cc5401162c","system_id":"levelo_inurba_marseille","lat":43.33615,"lon":5.41001,"is_reserved":false,"is_disabled":false,"rental_uris":{"android":"levelo://app?vid=cb996ac4-3d6d-4d5e-befc-a3cc5401162c","ios":"levelo://app?vid=cb996ac4-3d6d-4d5e-befc-a3cc5401162c"},"vehicle_type_id":"4","last_reported":1756145737,"current_range_meters":16000,"station_id":"ce4bhqh2rcd13ifvqhmg","pricing_plan_id":"cebpf4jnsgd1na2vs0mg"},{"bike_id":"b0170a75-f823-42a2-b9cb-d41486c907bb","system_id":"levelo_inurba_marseille","lat":43.3235,"lon":5.3674,"is_reserved":false,"is_disabled":false,"rental_uris":{"android":"levelo://app?vid=b0170a75-f823-42a2-b9cb-d41486c907bb","ios":"levelo://app?vid=b0170a75-f823-42a2-b9cb-d41486c907bb"},"vehicle_type_id":"4","last_reported":1756145737,"current_range_meters":16000,"station_id":"ce4bhsh2rcd13ifvqi2g","pricing_plan_id":"cebpf4jnsgd1na2vs0mg"},{"bike_id":"0eaf3235-920b-4dd0-95c9-cf4f66291747","system_id":"levelo_inurba_marseille","lat":43.25333,"lon":5.42132,"is_reserved":false,"is_disabled":false,"rental_uris":{"android":"levelo://app?vid=0eaf3235-920b-4dd0-95c9-cf4f66291747","ios":"levelo://app?vid=0eaf3235-920b-4dd0-95c9-cf4f66291747"},"vehicle_type_id":"4","last_reported":1756145737,"current_range_meters":16000,"station_id":"st_d2m65c5bi1j21697t3ng","pricing_plan_id":"cebpf4jnsgd1na2vs0mg"},{"bike_id":"0804bd2c-15df-4329-a65a-df9851036829","system_id":"levelo_inurba_marseille","lat":43.31324,"lon":5.39684,"is_reserved":false,"is_disabled":false,"rental_uris":{"android":"levelo://app?vid=0804bd2c-15df-4329-a65a-df9851036829","ios":"levelo://app?vid=0804bd2c-15df-4329-a65a-df9851036829"},"vehicle_type_id":"4","last_reported":1756145737,"current_range_meters":16400,"station_id":"ce4bgvp2rcd13ifvqcu0","pricing_plan_id":"cebpf4jnsgd1na2vs0mg"},{"bike_id":"7b43efcb-8762-4c7d-8e32-a6fa51130619","system_id":"levelo_inurba_marseille","lat":43.28413,"lon":5.37514,"is_reserved":false,"is_disabled":false,"rental_uris":{"android":"levelo://app?vid=7b43efcb-8762-4c7d-8e32-a6fa51130619","ios":"levelo://app?vid=7b43efcb-8762-4c7d-8e32-a6fa51130619"},"vehicle_type_id":"4","last_reported":1756145737,"current_range_meters":16400,"station_id":"ce4bh412rcd13ifvqds0","pricing_plan_id":"cebpf4jnsgd1na2vs0mg"},{"bike_id":"a5c1edc6-03ec-4544-b37f-af340af2762f","system_id":"levelo_inurba_marseille","lat":43.28486,"lon":5.38418,"is_reserved":false,"is_disabled":false,"rental_uris":{"android":"levelo://app?vid=a5c1edc6-03ec-4544-b37f-af340af2762f","ios":"levelo://app?vid=a5c1edc6-03ec-4544-b37f-af340af2762f"},"vehicle_type_id":"4","last_reported":1756145737,"current_range_meters":16400,"station_id":"ce4bh512rcd13ifvqe3g","pricing_plan_id":"cebpf4jnsgd1na2vs0mg"},{"bike_id":"7e8b7c44-c44c-48fb-98d6-1883024f4cf8","system_id":"levelo_inurba_marseille","lat":43.28626,"lon":5.35113,"is_reserved":false,"is_disabled":false,"rental_uris":{"android":"levelo://app?vid=7e8b7c44-c44c-48fb-98d6-1883024f4cf8","ios":"levelo://app?vid=7e8b7c44-c44c-48fb-98d6-1883024f4cf8"},"vehicle_type_id":"4","last_reported":1756145737,"current_range_meters":16400,"station_id":"ce4bhch2rcd13ifvqeug","pricing_plan_id":"cebpf4jnsgd1na2vs0mg"},{"bike_id":"196c1a09-3c9b-4b88-a34b-5e012f6c4e06","system_id":"levelo_inurba_marseille","lat":43.24807,"lon":5.37461,"is_reserved":false,"is_disabled":false,"rental_uris":{"android":"levelo://app?vid=196c1a09-3c9b-4b88-a34b-5e012f6c4e06","ios":"levelo://app?vid=196c1a09-3c9b-4b88-a34b-5e012f6c4e06"},"vehicle_type_id":"4","last_reported":1756145737,"current_range_meters":16400,"station_id":"ce4bhgh2rcd13ifvqfb0","pricing_plan_id":"cebpf4jnsgd1na2vs0mg"},{"bike_id":"6e93454e-8779-464e-8556-b9651b89eb64","system_id":"levelo_inurba_marseille","lat":43.3237,"lon":5.38887,"is_reserved":false,"is_disabled":false,"rental_uris":{"android":"levelo://app?vid=6e93454e-8779-464e-8556-b9651b89eb64","ios":"levelo://app?vid=6e93454e-8779-464e-8556-b9651b89eb64"},"vehicle_type_id":"4","last_reported":1756145737,"current_range_meters":16400,"station_id":"ce4bhqp2rcd13ifvqhog","pricing_plan_id":"cebpf4jnsgd1na2vs0mg"},{"bike_id":"3e130ff4-87da-4c51-a264-44d1f277fd66","system_id":"levelo_inurba_marseille","lat":43.32119,"lon":5.36789,"is_reserved":false,"is_disabled":false,"rental_uris":{"android":"levelo://app?vid=3e130ff4-87da-4c51-a264-44d1f277fd66","ios":"levelo://app?vid=3e130ff4-87da-4c51-a264-44d1f277fd66"},"vehicle_type_id":"4","last_reported":1756145737,"current_range_meters":16400,"station_id":"ce4bhrh2rcd13ifvqhug","pricing_plan_id":"cebpf4jnsgd1na2vs0mg"},{"bike_id":"0d502687-08ef-4491-8893-8a03d8688be8","system_id":"levelo_inurba_marseille","lat":43.29632,"lon":5.36109,"is_reserved":false,"is_disabled":false,"rental_uris":{"android":"levelo://app?vid=0d502687-08ef-4491-8893-8a03d8688be8","ios":"levelo://app?vid=0d502687-08ef-4491-8893-8a03d8688be8"},"vehicle_type_id":"4","last_reported":1756145737,"current_range_meters":16800,"station_id":"","pricing_plan_id":"cebpf4jnsgd1na2vs0mg"},{"bike_id":"7612c145-8535-4ccf-96ee-de62f40b9550","system_id":"levelo_inurba_marseille","lat":43.32386,"lon":5.38968,"is_reserved":false,"is_disabled":false,"rental_uris":{"android":"levelo://app?vid=7612c145-8535-4ccf-96ee-de62f40b9550","ios":"levelo://app?vid=7612c145-8535-4ccf-96ee-de62f40b9550"},"vehicle_type_id":"4","last_reported":1756145737,"current_range_meters":16800,"station_id":"","pricing_plan_id":"cebpf4jnsgd1na2vs0mg"},{"bike_id":"6a7c102c-9c77-4bef-952d-d8be9e5d9a39","system_id":"levelo_inurba_marseille","lat":43.28398,"lon":5.37507,"is_reserved":false,"is_disabled":false,"rental_uris":{"android":"levelo://app?vid=6a7c102c-9c77-4bef-952d-d8be9e5d9a39","ios":"levelo://app?vid=6a7c102c-9c77-4bef-952d-d8be9e5d9a39"},"vehicle_type_id":"4","last_reported":1756145737,"current_range_meters":16800,"station_id":"ce4bh412rcd13ifvqds0","pricing_plan_id":"cebpf4jnsgd1na2vs0mg"},{"bike_id":"1413372c-b94d-4806-80a2-2d18fcd03dc6","system_id":"levelo_inurba_marseille","lat":43.30414,"lon":5.41294,"is_reserved":false,"is_disabled":false,"rental_uris":{"android":"levelo://app?vid=1413372c-b94d-4806-80a2-2d18fcd03dc6","ios":"levelo://app?vid=1413372c-b94d-4806-80a2-2d18fcd03dc6"},"vehicle_type_id":"4","last_reported":1756145737,"current_range_meters":16800,"station_id":"ce4bhop2rcd13ifvqh8g","pricing_plan_id":"cebpf4jnsgd1na2vs0mg"},{"bike_id":"50080086-5ad6-41c2-b993-d4f4d5e2439a","system_id":"levelo_inurba_marseille","lat":43.32979,"lon":5.3901,"is_reserved":false,"is_disabled":false,"rental_uris":{"android":"levelo://app?vid=50080086-5ad6-41c2-b993-d4f4d5e2439a","ios":"levelo://app?vid=50080086-5ad6-41c2-b993-d4f4d5e2439a"},"vehicle_type_id":"4","last_reported":1756145737,"current_range_meters":17200,"station_id":"","pricing_plan_id":"cebpf4jnsgd1na2vs0mg"},{"bike_id":"2198d534-1e4e-4e7b-b2b3-d1e3dccee066","system_id":"levelo_inurba_marseille","lat":43.32144,"lon":5.36787,"is_reserved":false,"is_disabled":false,"rental_uris":{"android":"levelo://app?vid=2198d534-1e4e-4e7b-b2b3-d1e3dccee066","ios":"levelo://app?vid=2198d534-1e4e-4e7b-b2b3-d1e3dccee066"},"vehicle_type_id":"4","last_reported":1756145737,"current_range_meters":17200,"station_id":"","pricing_plan_id":"cebpf4jnsgd1na2vs0mg"},{"bike_id":"db7d3d83-f39a-4469-8445-29697e69fec4","system_id":"levelo_inurba_marseille","lat":43.3298,"lon":5.39126,"is_reserved":false,"is_disabled":false,"rental_uris":{"android":"levelo://app?vid=db7d3d83-f39a-4469-8445-29697e69fec4","ios":"levelo://app?vid=db7d3d83-f39a-4469-8445-29697e69fec4"},"vehicle_type_id":"4","last_reported":1756145737,"current_range_meters":17200,"station_id":"","pricing_plan_id":"cebpf4jnsgd1na2vs0mg"},{"bike_id":"a8f9662e-1358-4189-a382-7bf268396dae","system_id":"levelo_inurba_marseille","lat":43.27378,"lon":5.36265,"is_reserved":false,"is_disabled":false,"rental_uris":{"android":"levelo://app?vid=a8f9662e-1358-4189-a382-7bf268396dae","ios":"levelo://app?vid=a8f9662e-1358-4189-a382-7bf268396dae"},"vehicle_type_id":"4","last_reported":1756145737,"current_range_meters":17200,"station_id":"ce4bhbh2rcd13ifvqeo0","pricing_plan_id":"cebpf4jnsgd1na2vs0mg"},{"bike_id":"d33ea8fc-5b83-4f51-96a5-71cb00f06107","system_id":"levelo_inurba_marseille","lat":43.316923,"lon":5.437161,"is_reserved":false,"is_disabled":false,"rental_uris":{"android":"levelo://app?vid=d33ea8fc-5b83-4f51-96a5-71cb00f06107","ios":"levelo://app?vid=d33ea8fc-5b83-4f51-96a5-71cb00f06107"},"vehicle_type_id":"4","last_reported":1756145737,"current_range_meters":17200,"station_id":"ce4bhp92rcd13ifvqhcg","pricing_plan_id":"cebpf4jnsgd1na2vs0mg"},{"bike_id":"5d7db6f1-e79d-4e90-aa0a-a7c2000b04a6","system_id":"levelo_inurba_marseille","lat":43.33618,"lon":5.41002,"is_reserved":false,"is_disabled":false,"rental_uris":{"android":"levelo://app?vid=5d7db6f1-e79d-4e90-aa0a-a7c2000b04a6","ios":"levelo://app?vid=5d7db6f1-e79d-4e90-aa0a-a7c2000b04a6"},"vehicle_type_id":"4","last_reported":1756145737,"current_range_meters":17200,"station_id":"ce4bhqh2rcd13ifvqhmg","pricing_plan_id":"cebpf4jnsgd1na2vs0mg"},{"bike_id":"542de3e1-4370-48dd-b084-f741f9069392","system_id":"levelo_inurba_marseille","lat":43.30281,"lon":5.37717,"is_reserved":false,"is_disabled":false,"rental_uris":{"android":"levelo://app?vid=542de3e1-4370-48dd-b084-f741f9069392","ios":"levelo://app?vid=542de3e1-4370-48dd-b084-f741f9069392"},"vehicle_type_id":"4","last_reported":1756145737,"current_range_meters":17600,"station_id":"ce4bguh2rcd13ifvqcj0","pricing_plan_id":"cebpf4jnsgd1na2vs0mg"},{"bike_id":"19043af4-007b-4961-9a28-fa92ad842723","system_id":"levelo_inurba_marseille","lat":43.28932,"lon":5.36645,"is_reserved":false,"is_disabled":false,"rental_uris":{"android":"levelo://app?vid=19043af4-007b-4961-9a28-fa92ad842723","ios":"levelo://app?vid=19043af4-007b-4961-9a28-fa92ad842723"},"vehicle_type_id":"4","last_reported":1756145737,"current_range_meters":17600,"station_id":"ce4bhap2rcd13ifvqek0","pricing_plan_id":"cebpf4jnsgd1na2vs0mg"},{"bike_id":"c9485db3-fe64-4873-9f9b-9c2c9f87bafc","system_id":"levelo_inurba_marseille","lat":43.29007,"lon":5.35608,"is_reserved":false,"is_disabled":false,"rental_uris":{"android":"levelo://app?vid=c9485db3-fe64-4873-9f9b-9c2c9f87bafc","ios":"levelo://app?vid=c9485db3-fe64-4873-9f9b-9c2c9f87bafc"},"vehicle_type_id":"4","last_reported":1756145737,"current_range_meters":17600,"station_id":"ce4bhb92rcd13ifvqen0","pricing_plan_id":"cebpf4jnsgd1na2vs0mg"},{"bike_id":"1fc6a842-584b-4273-b695-1d23f7295490","system_id":"levelo_inurba_marseille","lat":43.28267,"lon":5.35086,"is_reserved":false,"is_disabled":false,"rental_uris":{"android":"levelo://app?vid=1fc6a842-584b-4273-b695-1d23f7295490","ios":"levelo://app?vid=1fc6a842-584b-4273-b695-1d23f7295490"},"vehicle_type_id":"4","last_reported":1756145737,"current_range_meters":17600,"station_id":"ce4bhbp2rcd13ifvqerg","pricing_plan_id":"cebpf4jnsgd1na2vs0mg"},{"bike_id":"a9776c9f-0824-4d48-a880-07fe68cdca7f","system_id":"levelo_inurba_marseille","lat":43.25494,"lon":5.37648,"is_reserved":false,"is_disabled":false,"rental_uris":{"android":"levelo://app?vid=a9776c9f-0824-4d48-a880-07fe68cdca7f","ios":"levelo://app?vid=a9776c9f-0824-4d48-a880-07fe68cdca7f"},"vehicle_type_id":"4","last_reported":1756145737,"current_range_meters":17600,"station_id":"ce4bhh12rcd13ifvqff0","pricing_plan_id":"cebpf4jnsgd1na2vs0mg"},{"bike_id":"71f2187f-7c06-4afd-b6d4-5f58c2f8533e","system_id":"levelo_inurba_marseille","lat":43.29687,"lon":5.37725,"is_reserved":false,"is_disabled":false,"rental_uris":{"android":"levelo://app?vid=71f2187f-7c06-4afd-b6d4-5f58c2f8533e","ios":"levelo://app?vid=71f2187f-7c06-4afd-b6d4-5f58c2f8533e"},"vehicle_type_id":"4","last_reported":1756145737,"current_range_meters":18000,"station_id":"ce4bgkh2rcd13ifvqbl0","pricing_plan_id":"cebpf4jnsgd1na2vs0mg"},{"bike_id":"14323fd9-d159-47fc-9009-2e15ff06214c","system_id":"levelo_inurba_marseille","lat":43.31268,"lon":5.40174,"is_reserved":false,"is_disabled":false,"rental_uris":{"android":"levelo://app?vid=14323fd9-d159-47fc-9009-2e15ff06214c","ios":"levelo://app?vid=14323fd9-d159-47fc-9009-2e15ff06214c"},"vehicle_type_id":"4","last_reported":1756145737,"current_range_meters":18000,"station_id":"ce4bh092rcd13ifvqd30","pricing_plan_id":"cebpf4jnsgd1na2vs0mg"},{"bike_id":"cc4146e1-f97d-48a2-94f7-a43756e704f4","system_id":"levelo_inurba_marseille","lat":43.2846,"lon":5.35885,"is_reserved":false,"is_disabled":false,"rental_uris":{"android":"levelo://app?vid=cc4146e1-f97d-48a2-94f7-a43756e704f4","ios":"levelo://app?vid=cc4146e1-f97d-48a2-94f7-a43756e704f4"},"vehicle_type_id":"4","last_reported":1756145737,"current_range_meters":18000,"station_id":"ce4bhah2rcd13ifvqei0","pricing_plan_id":"cebpf4jnsgd1na2vs0mg"},{"bike_id":"7d454a8f-540e-4616-95d9-6a04449dd37c","system_id":"levelo_inurba_marseille","lat":43.28622,"lon":5.35102,"is_reserved":false,"is_disabled":false,"rental_uris":{"android":"levelo://app?vid=7d454a8f-540e-4616-95d9-6a04449dd37c","ios":"levelo://app?vid=7d454a8f-540e-4616-95d9-6a04449dd37c"},"vehicle_type_id":"4","last_reported":1756145737,"current_range_meters":18000,"station_id":"ce4bhch2rcd13ifvqeug","pricing_plan_id":"cebpf4jnsgd1na2vs0mg"},{"bike_id":"1c889b09-8cad-434d-bfd5-5f7e6198ad13","system_id":"levelo_inurba_marseille","lat":43.23185,"lon":5.39992,"is_reserved":false,"is_disabled":false,"rental_uris":{"android":"levelo://app?vid=1c889b09-8cad-434d-bfd5-5f7e6198ad13","ios":"levelo://app?vid=1c889b09-8cad-434d-bfd5-5f7e6198ad13"},"vehicle_type_id":"4","last_reported":1756145737,"current_range_meters":18000,"station_id":"ce4bhn12rcd13ifvqgqg","pricing_plan_id":"cebpf4jnsgd1na2vs0mg"},{"bike_id":"f1f3e28f-1189-4c74-949d-ecfea5c51c3b","system_id":"levelo_inurba_marseille","lat":43.28152,"lon":5.42642,"is_reserved":false,"is_disabled":false,"rental_uris":{"android":"levelo://app?vid=f1f3e28f-1189-4c74-949d-ecfea5c51c3b","ios":"levelo://app?vid=f1f3e28f-1189-4c74-949d-ecfea5c51c3b"},"vehicle_type_id":"4","last_reported":1756145737,"current_range_meters":18000,"station_id":"ce4bhnh2rcd13ifvqgug","pricing_plan_id":"cebpf4jnsgd1na2vs0mg"},{"bike_id":"90106b61-39ba-4550-9728-cd6a51353a17","system_id":"levelo_inurba_marseille","lat":43.21183,"lon":5.35091,"is_reserved":false,"is_disabled":false,"rental_uris":{"android":"levelo://app?vid=90106b61-39ba-4550-9728-cd6a51353a17","ios":"levelo://app?vid=90106b61-39ba-4550-9728-cd6a51353a17"},"vehicle_type_id":"4","last_reported":1756145737,"current_range_meters":18000,"station_id":"st_cvj6sg6p6f1abm77japg","pricing_plan_id":"cebpf4jnsgd1na2vs0mg"},{"bike_id":"6b31dbcd-c0f1-4451-888c-aa5229cd8e00","system_id":"levelo_inurba_marseille","lat":43.28622,"lon":5.35097,"is_reserved":false,"is_disabled":false,"rental_uris":{"android":"levelo://app?vid=6b31dbcd-c0f1-4451-888c-aa5229cd8e00","ios":"levelo://app?vid=6b31dbcd-c0f1-4451-888c-aa5229cd8e00"},"vehicle_type_id":"4","last_reported":1756145737,"current_range_meters":18800,"station_id":"ce4bhch2rcd13ifvqeug","pricing_plan_id":"cebpf4jnsgd1na2vs0mg"},{"bike_id":"a19139ee-5a29-4978-8b75-48662a6ea164","system_id":"levelo_inurba_marseille","lat":43.26063,"lon":5.39411,"is_reserved":false,"is_disabled":false,"rental_uris":{"android":"levelo://app?vid=a19139ee-5a29-4978-8b75-48662a6ea164","ios":"levelo://app?vid=a19139ee-5a29-4978-8b75-48662a6ea164"},"vehicle_type_id":"4","last_reported":1756145737,"current_range_meters":18800,"station_id":"ce4bhh92rcd13ifvqfj0","pricing_plan_id":"cebpf4jnsgd1na2vs0mg"},{"bike_id":"2535dc9e-00fc-4ff6-93f4-3070e5516f94","system_id":"levelo_inurba_marseille","lat":43.31715,"lon":5.42394,"is_reserved":false,"is_disabled":false,"rental_uris":{"android":"levelo://app?vid=2535dc9e-00fc-4ff6-93f4-3070e5516f94","ios":"levelo://app?vid=2535dc9e-00fc-4ff6-93f4-3070e5516f94"},"vehicle_type_id":"4","last_reported":1756145737,"current_range_meters":18800,"station_id":"ce4bhp92rcd13ifvqhbg","pricing_plan_id":"cebpf4jnsgd1na2vs0mg"},{"bike_id":"3b2a71fc-6565-467c-a553-72f91986fe55","system_id":"levelo_inurba_marseille","lat":43.29579,"lon":5.37525,"is_reserved":false,"is_disabled":false,"rental_uris":{"android":"levelo://app?vid=3b2a71fc-6565-467c-a553-72f91986fe55","ios":"levelo://app?vid=3b2a71fc-6565-467c-a553-72f91986fe55"},"vehicle_type_id":"4","last_reported":1756145737,"current_range_meters":19200,"station_id":"ce4bgh92rcd13ifvqb50","pricing_plan_id":"cebpf4jnsgd1na2vs0mg"},{"bike_id":"d4957531-5d2c-4f88-b670-07defb660ad9","system_id":"levelo_inurba_marseille","lat":43.29563,"lon":5.37516,"is_reserved":false,"is_disabled":false,"rental_uris":{"android":"levelo://app?vid=d4957531-5d2c-4f88-b670-07defb660ad9","ios":"levelo://app?vid=d4957531-5d2c-4f88-b670-07defb660ad9"},"vehicle_type_id":"4","last_reported":1756145737,"current_range_meters":19200,"station_id":"ce4bgh92rcd13ifvqb50","pricing_plan_id":"cebpf4jnsgd1na2vs0mg"},{"bike_id":"66c9159c-76e9-4f8b-92dd-539716f6e40c","system_id":"levelo_inurba_marseille","lat":43.31329,"lon":5.39692,"is_reserved":false,"is_disabled":false,"rental_uris":{"android":"levelo://app?vid=66c9159c-76e9-4f8b-92dd-539716f6e40c","ios":"levelo://app?vid=66c9159c-76e9-4f8b-92dd-539716f6e40c"},"vehicle_type_id":"4","last_reported":1756145737,"current_range_meters":19200,"station_id":"ce4bgvp2rcd13ifvqcu0","pricing_plan_id":"cebpf4jnsgd1na2vs0mg"},{"bike_id":"b12530c9-6293-428a-b97a-6581d8129dab","system_id":"levelo_inurba_marseille","lat":43.28428,"lon":5.34999,"is_reserved":false,"is_disabled":false,"rental_uris":{"android":"levelo://app?vid=b12530c9-6293-428a-b97a-6581d8129dab","ios":"levelo://app?vid=b12530c9-6293-428a-b97a-6581d8129dab"},"vehicle_type_id":"4","last_reported":1756145737,"current_range_meters":19200,"station_id":"ce4bhbh2rcd13ifvqepg","pricing_plan_id":"cebpf4jnsgd1na2vs0mg"},{"bike_id":"25005ec9-f891-41e5-8761-b371983667d5","system_id":"levelo_inurba_marseille","lat":43.28414,"lon":5.34986,"is_reserved":false,"is_disabled":false,"rental_uris":{"android":"levelo://app?vid=25005ec9-f891-41e5-8761-b371983667d5","ios":"levelo://app?vid=25005ec9-f891-41e5-8761-b371983667d5"},"vehicle_type_id":"4","last_reported":1756145737,"current_range_meters":19200,"station_id":"ce4bhbh2rcd13ifvqepg","pricing_plan_id":"cebpf4jnsgd1na2vs0mg"},{"bike_id":"02c1c518-ae52-490b-896e-02d32ebc3c65","system_id":"levelo_inurba_marseille","lat":43.26144,"lon":5.37447,"is_reserved":false,"is_disabled":false,"rental_uris":{"android":"levelo://app?vid=02c1c518-ae52-490b-896e-02d32ebc3c65","ios":"levelo://app?vid=02c1c518-ae52-490b-896e-02d32ebc3c65"},"vehicle_type_id":"4","last_reported":1756145737,"current_range_meters":19200,"station_id":"ce4bhgp2rcd13ifvqfc0","pricing_plan_id":"cebpf4jnsgd1na2vs0mg"},{"bike_id":"8b07e00d-887b-4a59-82be-bc98b5a7c228","system_id":"levelo_inurba_marseille","lat":43.27988,"lon":5.4166,"is_reserved":false,"is_disabled":false,"rental_uris":{"android":"levelo://app?vid=8b07e00d-887b-4a59-82be-bc98b5a7c228","ios":"levelo://app?vid=8b07e00d-887b-4a59-82be-bc98b5a7c228"},"vehicle_type_id":"4","last_reported":1756145737,"current_range_meters":19200,"station_id":"ce4bho12rcd13ifvqh1g","pricing_plan_id":"cebpf4jnsgd1na2vs0mg"},{"bike_id":"4b6d03d5-c489-44f5-894a-b511c0aa6886","system_id":"levelo_inurba_marseille","lat":43.29558,"lon":5.42302,"is_reserved":false,"is_disabled":false,"rental_uris":{"android":"levelo://app?vid=4b6d03d5-c489-44f5-894a-b511c0aa6886","ios":"levelo://app?vid=4b6d03d5-c489-44f5-894a-b511c0aa6886"},"vehicle_type_id":"4","last_reported":1756145737,"current_range_meters":19200,"station_id":"ce4bhph2rcd13ifvqhdg","pricing_plan_id":"cebpf4jnsgd1na2vs0mg"},{"bike_id":"f0400c37-c7f6-4929-b1ac-d92430ff6f2d","system_id":"levelo_inurba_marseille","lat":43.2764,"lon":5.39638,"is_reserved":false,"is_disabled":false,"rental_uris":{"android":"levelo://app?vid=f0400c37-c7f6-4929-b1ac-d92430ff6f2d","ios":"levelo://app?vid=f0400c37-c7f6-4929-b1ac-d92430ff6f2d"},"vehicle_type_id":"4","last_reported":1756145737,"current_range_meters":19600,"station_id":"","pricing_plan_id":"cebpf4jnsgd1na2vs0mg"},{"bike_id":"7d07a1e9-ef59-4595-8851-cbceb8da17f7","system_id":"levelo_inurba_marseille","lat":43.29534,"lon":5.3855,"is_reserved":false,"is_disabled":false,"rental_uris":{"android":"levelo://app?vid=7d07a1e9-ef59-4595-8851-cbceb8da17f7","ios":"levelo://app?vid=7d07a1e9-ef59-4595-8851-cbceb8da17f7"},"vehicle_type_id":"4","last_reported":1756145737,"current_range_meters":19600,"station_id":"ce4bgih2rcd13ifvqba0","pricing_plan_id":"cebpf4jnsgd1na2vs0mg"},{"bike_id":"fd8b4079-b1d5-4ca3-bcf3-7ac6544e6030","system_id":"levelo_inurba_marseille","lat":43.29259,"lon":5.38445,"is_reserved":false,"is_disabled":false,"rental_uris":{"android":"levelo://app?vid=fd8b4079-b1d5-4ca3-bcf3-7ac6544e6030","ios":"levelo://app?vid=fd8b4079-b1d5-4ca3-bcf3-7ac6544e6030"},"vehicle_type_id":"4","last_reported":1756145737,"current_range_meters":19600,"station_id":"ce4bh692rcd13ifvqea0","pricing_plan_id":"cebpf4jnsgd1na2vs0mg"},{"bike_id":"f81a971c-426a-4fa3-9f19-b3bc07f8eaab","system_id":"levelo_inurba_marseille","lat":43.29012,"lon":5.35617,"is_reserved":false,"is_disabled":false,"rental_uris":{"android":"levelo://app?vid=f81a971c-426a-4fa3-9f19-b3bc07f8eaab","ios":"levelo://app?vid=f81a971c-426a-4fa3-9f19-b3bc07f8eaab"},"vehicle_type_id":"4","last_reported":1756145737,"current_range_meters":19600,"station_id":"ce4bhb92rcd13ifvqen0","pricing_plan_id":"cebpf4jnsgd1na2vs0mg"},{"bike_id":"964d544a-6015-4eef-a4a8-eb4460539ff0","system_id":"levelo_inurba_marseille","lat":43.28406,"lon":5.34991,"is_reserved":false,"is_disabled":false,"rental_uris":{"android":"levelo://app?vid=964d544a-6015-4eef-a4a8-eb4460539ff0","ios":"levelo://app?vid=964d544a-6015-4eef-a4a8-eb4460539ff0"},"vehicle_type_id":"4","last_reported":1756145737,"current_range_meters":19600,"station_id":"ce4bhbh2rcd13ifvqepg","pricing_plan_id":"cebpf4jnsgd1na2vs0mg"},