{"last_updated":1749668897,"ttl":60,"version":"2.2","data":{"bikes":[{"bike_id":"b08d493c-d5ff-495b-b5c0-028b6e295e94","system_id":"levelo_inurba_marseille","lat":43.30958,"lon":5.39041,"is_reserved":false,"is_disabled":false,"rental_uris":{"android":"levelo://app?vid=b08d493c-d5ff-495b-b5c0-028b6e295e94","ios":"levelo://app?vid=b08d493c-d5ff-495b-b5c0-028b6e295e94"},"vehicle_type_id":"4","last_reported":1749668897,"current_range_meters":2800,"station_id":"ce4bgup2rcd13ifvqco0","pricing_plan_id":"cebpf4jnsgd1na2vs0mg"},{"bike_id":"e4cb81fe-f6ee-46a6-bcc4-cd6bd7d0d884","system_id":"levelo_inurba_marseille","lat":43.264889,"lon":5.395435,"is_reserved":false,"is_disabled":false,"rental_uris":{"android":"levelo://app?vid=e4cb81fe-f6ee-46a6-bcc4-cd6bd7d0d884","ios":"levelo://app?vid=e4cb81fe-f6ee-46a6-bcc4-cd6bd7d0d884"},"vehicle_type_id":"4","last_reported":1749668897,"current_range_meters":2800,"station_id":"ce4bhi12rcd13ifvqfq0","pricing_plan_id":"cebpf4jnsgd1na2vs0mg"},{"bike_id":"c4339938-0a7e-4232-9684-1a6a2d9b1233","system_id":"levelo_inurba_marseille","lat":43.286639,"lon":5.386704,"is_reserved":false,"is_disabled":false,"rental_uris":{"android":"levelo://app?vid=c4339938-0a7e-4232-9684-1a6a2d9b1233","ios":"levelo://app?vid=c4339938-0a7e-4232-9684-1a6a2d9b1233"},"vehicle_type_id":"4","last_reported":1749668897,"current_range_meters":2800,"station_id":"ce4bh492rcd13ifvqdug","pricing_plan_id":"cebpf4jnsgd1na2vs0mg"},{"bike_id":"718f3e7f-3637-431f-ba07-6dfcd03986fd","system_id":"levelo_inurba_marseille","lat":43.28706,"lon":5.37389,"is_reserved":false,"is_disabled":false,"rental_uris":{"android":"levelo://app?vid=718f3e7f-3637-431f-ba07-6dfcd03986fd","ios":"levelo://app?vid=718f3e7f-3637-431f-ba07-6dfcd03986fd"},"vehicle_type_id":"4","last_reported":1749668897,"current_range_meters":2800,"station_id":"ce4bh3p2rcd13ifvqdq0","pricing_plan_id":"cebpf4jnsgd1na2vs0mg"},{"bike_id":"195890e6-7f7f-4507-adc9-039afdbcfc6e","system_id":"levelo_inurba_marseille","lat":43.2512,"lon":5.40317,"is_reserved":false,"is_disabled":false,"rental_uris":{"android":"levelo://app?vid=195890e6-7f7f-4507-adc9-039afdbcfc6e","ios":"levelo://app?vid=195890e6-7f7f-4507-adc9-039afdbcfc6e"},"vehicle_type_id":"4","last_reported":1749668897,"current_range_meters":2800,"station_id":"ce4bhlh2rcd13ifvqgig","pricing_plan_id":"cebpf4jnsgd1na2vs0mg"},{"bike_id":"2ecb9b41-b663-4220-8cfd-5892aa7ee6bc","system_id":"levelo_inurba_marseille","lat":43.262,"lon":5.37447,"is_reserved":false,"is_disabled":false,"rental_uris":{"android":"levelo://app?vid=2ecb9b41-b663-4220-8cfd-5892aa7ee6bc","ios":"levelo://app?vid=2ecb9b41-b663-4220-8cfd-5892aa7ee6bc"},"vehicle_type_id":"4","last_reported":1749668897,"current_range_meters":2800,"station_id":"ce4bhgp2rcd13ifvqfc0","pricing_plan_id":"cebpf4jnsgd1na2vs0mg"},{"bike_id":"17252d2c-0279-40df-bdae-d41302ee1363","system_id":"levelo_inurba_marseille","lat":43.29572,"lon":5.39983,"is_reserved":false,"is_disabled":false,"rental_uris":{"android":"levelo://app?vid=17252d2c-0279-40df-bdae-d41302ee1363","ios":"levelo://app?vid=17252d2c-0279-40df-bdae-d41302ee1363"},"vehicle_type_id":"4","last_reported":1749668897,"current_range_meters":3200,"station_id":"ce4bh312rcd13ifvqdj0","pricing_plan_id":"cebpf4jnsgd1na2vs0mg"},{"bike_id":"71a6ad24-4e18-4bd8-917d-5666aa0c4d76","system_id":"levelo_inurba_marseille","lat":43.33768,"lon":5.37487,"is_reserved":false,"is_disabled":false,"rental_uris":{"android":"levelo://app?vid=71a6ad24-4e18-4bd8-917d-5666aa0c4d76","ios":"levelo://app?vid=71a6ad24-4e18-4bd8-917d-5666aa0c4d76"},"vehicle_type_id":"4","last_reported":1749668897,"current_range_meters":3200,"station_id":"","pricing_plan_id":"cebpf4jnsgd1na2vs0mg"},{"bike_id":"340accc9-c189-4abe-9824-b84937c687c0","system_id":"levelo_inurba_marseille","lat":43.3132,"lon":5.39691,"is_reserved":false,"is_disabled":false,"rental_uris":{"android":"levelo://app?vid=340accc9-c189-4abe-9824-b84937c687c0","ios":"levelo://app?vid=340accc9-c189-4abe-9824-b84937c687c0"},"vehicle_type_id":"4","last_reported":1749668897,"current_range_meters":3600,"station_id":"ce4bgvp2rcd13ifvqcu0","pricing_plan_id":"cebpf4jnsgd1na2vs0mg"},{"bike_id":"4422ca38-47e5-4654-8f76-eb4eeaba405d","system_id":"levelo_inurba_marseille","lat":43.31326,"lon":5.39692,"is_reserved":false,"is_disabled":false,"rental_uris":{"android":"levelo://app?vid=4422ca38-47e5-4654-8f76-eb4eeaba405d","ios":"levelo://app?vid=4422ca38-47e5-4654-8f76-eb4eeaba405d"},"vehicle_type_id":"4","last_reported":1749668897,"current_range_meters":3600,"station_id":"ce4bgvp2rcd13ifvqcu0","pricing_plan_id":"cebpf4jnsgd1na2vs0mg"},{"bike_id":"9d4da415-b681-4691-a4d0-d240548507a9","system_id":"levelo_inurba_marseille","lat":43.29418,"lon":5.386235,"is_reserved":false,"is_disabled":true,"rental_uris":{"android":"levelo://app?vid=9d4da415-b681-4691-a4d0-d240548507a9","ios":"levelo://app?vid=9d4da415-b681-4691-a4d0-d240548507a9"},"vehicle_type_id":"4","last_reported":1749668897,"current_range_meters":3600,"station_id":"ce4bh2h2rcd13ifvqdh0","pricing_plan_id":"cebpf4jnsgd1na2vs0mg"},{"bike_id":"dfe43f7c-dd19-4ca5-bce2-1fa09f3727ef","system_id":"levelo_inurba_marseille","lat":43.30149,"lon":5.38084,"is_reserved":false,"is_disabled":false,"rental_uris":{"android":"levelo://app?vid=dfe43f7c-dd19-4ca5-bce2-1fa09f3727ef","ios":"levelo://app?vid=dfe43f7c-dd19-4ca5-bce2-1fa09f3727ef"},"vehicle_type_id":"4","last_reported":1749668897,"current_range_meters":3600,"station_id":"ce4bgjp2rcd13ifvqbh0","pricing_plan_id":"cebpf4jnsgd1na2vs0mg"},{"bike_id":"917121e5-f491-4863-b595-15ac60ec1a1a","system_id":"levelo_inurba_marseille","lat":43.29713,"lon":5.36621,"is_reserved":false,"is_disabled":false,"rental_uris":{"android":"levelo://app?vid=917121e5-f491-4863-b595-15ac60ec1a1a","ios":"levelo://app?vid=917121e5-f491-4863-b595-15ac60ec1a1a"},"vehicle_type_id":"4","last_reported":1749668897,"current_range_meters":3600,"station_id":"ce4bgn12rcd13ifvqbt0","pricing_plan_id":"cebpf4jnsgd1na2vs0mg"},{"bike_id":"02ef1aac-7f71-4d61-bc87-455aa84d3305","system_id":"levelo_inurba_marseille","lat":43.28468,"lon":5.35893,"is_reserved":false,"is_disabled":false,"rental_uris":{"android":"levelo://app?vid=02ef1aac-7f71-4d61-bc87-455aa84d3305","ios":"levelo://app?vid=02ef1aac-7f71-4d61-bc87-455aa84d3305"},"vehicle_type_id":"4","last_reported":1749668897,"current_range_meters":4000,"station_id":"ce4bhah2rcd13ifvqei0","pricing_plan_id":"cebpf4jnsgd1na2vs0mg"},{"bike_id":"0a2cd4f2-b24c-4afc-88b0-5cb6f6a00646","system_id":"levelo_inurba_marseille","lat":43.246422,"lon":5.435853,"is_reserved":false,"is_disabled":true,"rental_uris":{"android":"levelo://app?vid=0a2cd4f2-b24c-4afc-88b0-5cb6f6a00646","ios":"levelo://app?vid=0a2cd4f2-b24c-4afc-88b0-5cb6f6a00646"},"vehicle_type_id":"4","last_reported":1749668897,"current_range_meters":4000,"station_id":"","pricing_plan_id":"cebpf4jnsgd1na2vs0mg"},{"bike_id":"cee61032-0806-419e-9a04-9a141cd1b646","system_id":"levelo_inurba_marseille","lat":43.2901,"lon":5.373619,"is_reserved":false,"is_disabled":false,"rental_uris":{"android":"levelo://app?vid=cee61032-0806-419e-9a04-9a141cd1b646","ios":"levelo://app?vid=cee61032-0806-419e-9a04-9a141cd1b646"},"vehicle_type_id":"4","last_reported":1749668897,"current_range_meters":4000,"station_id":"ce4bh692rcd13ifvqe90","pricing_plan_id":"cebpf4jnsgd1na2vs0mg"},{"bike_id":"722ba3f5-448b-48d4-a72d-70d56579b28f","system_id":"levelo_inurba_marseille","lat":43.30133,"lon":5.39851,"is_reserved":false,"is_disabled":false,"rental_uris":{"android":"levelo://app?vid=722ba3f5-448b-48d4-a72d-70d56579b28f","ios":"levelo://app?vid=722ba3f5-448b-48d4-a72d-70d56579b28f"},"vehicle_type_id":"4","last_reported":1749668897,"current_range_meters":4000,"station_id":"ce4bh0h2rcd13ifvqd40","pricing_plan_id":"cebpf4jnsgd1na2vs0mg"},{"bike_id":"f49121df-1d54-4125-8af7-5f8c4e4d26e5","system_id":"levelo_inurba_marseille","lat":43.29261,"lon":5.38433,"is_reserved":false,"is_disabled":false,"rental_uris":{"android":"levelo://app?vid=f49121df-1d54-4125-8af7-5f8c4e4d26e5","ios":"levelo://app?vid=f49121df-1d54-4125-8af7-5f8c4e4d26e5"},"vehicle_type_id":"4","last_reported":1749668897,"current_range_meters":4000,"station_id":"ce4bh692rcd13ifvqea0","pricing_plan_id":"cebpf4jnsgd1na2vs0mg"},{"bike_id":"913baed1-f84a-4414-a9af-74f9f36c0bc9","system_id":"levelo_inurba_marseille","lat":43.299367,"lon":5.365242,"is_reserved":false,"is_disabled":false,"rental_uris":{"android":"levelo://app?vid=913baed1-f84a-4414-a9af-74f9f36c0bc9","ios":"levelo://app?vid=913baed1-f84a-4414-a9af-74f9f36c0bc9"},"vehicle_type_id":"4","last_reported":1749668897,"current_range_meters":4400,"station_id":"ce4bgj92rcd13ifvqbe0","pricing_plan_id":"cebpf4jnsgd1na2vs0mg"},{"bike_id":"8a94aa61-887d-4e7d-8279-52c0738af365","system_id":"levelo_inurba_marseille","lat":43.28429,"lon":5.34999,"is_reserved":false,"is_disabled":false,"rental_uris":{"android":"levelo://app?vid=8a94aa61-887d-4e7d-8279-52c0738af365","ios":"levelo://app?vid=8a94aa61-887d-4e7d-8279-52c0738af365"},"vehicle_type_id":"4","last_reported":1749668897,"current_range_meters":4400,"station_id":"ce4bhbh2rcd13ifvqepg","pricing_plan_id":"cebpf4jnsgd1na2vs0mg"},{"bike_id":"82a015de-2fcd-43ef-a0ec-6e2d051d98ef","system_id":"levelo_inurba_marseille","lat":43.28612,"lon":5.35105,"is_reserved":false,"is_disabled":false,"rental_uris":{"android":"levelo://app?vid=82a015de-2fcd-43ef-a0ec-6e2d051d98ef","ios":"levelo://app?vid=82a015de-2fcd-43ef-a0ec-6e2d051d98ef"},"vehicle_type_id":"4","last_reported":1749668897,"current_range_meters":4400,"station_id":"ce4bhch2rcd13ifvqeug","pricing_plan_id":"cebpf4jnsgd1na2vs0mg"},{"bike_id":"44d99d41-ffe4-4460-b0f8-ac841a50fd1e","system_id":"levelo_inurba_marseille","lat":43.25502,"lon":5.37651,"is_reserved":false,"is_disabled":false,"rental_uris":{"android":"levelo://app?vid=44d99d41-ffe4-4460-b0f8-ac841a50fd1e","ios":"levelo://app?vid=44d99d41-ffe4-4460-b0f8-ac841a50fd1e"},"vehicle_type_id":"4","last_reported":1749668897,"current_range_meters":4400,"station_id":"ce4bhh12rcd13ifvqff0","pricing_plan_id":"cebpf4jnsgd1na2vs0mg"},{"bike_id":"53fa78da-f3c7-4625-a703-f71ebbf38004","system_id":"levelo_inurba_marseille","lat":43.31987,"lon":5.38155,"is_reserved":false,"is_disabled":false,"rental_uris":{"android":"levelo://app?vid=53fa78da-f3c7-4625-a703-f71ebbf38004","ios":"levelo://app?vid=53fa78da-f3c7-4625-a703-f71ebbf38004"},"vehicle_type_id":"4","last_reported":1749668897,"current_range_meters":4400,"station_id":"ce4bhr12rcd13ifvqhpg","pricing_plan_id":"cebpf4jnsgd1na2vs0mg"},{"bike_id":"f970d417-0092-4e1b-91f0-74f052fef48b","system_id":"levelo_inurba_marseille","lat":43.3065,"lon":5.40073,"is_reserved":false,"is_disabled":false,"rental_uris":{"android":"levelo://app?vid=f970d417-0092-4e1b-91f0-74f052fef48b","ios":"levelo://app?vid=f970d417-0092-4e1b-91f0-74f052fef48b"},"vehicle_type_id":"4","last_reported":1749668897,"current_range_meters":4800,"station_id":"ce4bh112rcd13ifvqda0","pricing_plan_id":"cebpf4jnsgd1na2vs0mg"},{"bike_id":"720c7ad0-80af-447d-a42b-a418610fdccb","system_id":"levelo_inurba_marseille","lat":43.2862,"lon":5.370218,"is_reserved":false,"is_disabled":false,"rental_uris":{"android":"levelo://app?vid=720c7ad0-80af-447d-a42b-a418610fdccb","ios":"levelo://app?vid=720c7ad0-80af-447d-a42b-a418610fdccb"},"vehicle_type_id":"4","last_reported":1749668897,"current_range_meters":4800,"station_id":"ce4bht12rcd13ifvqi60","pricing_plan_id":"cebpf4jnsgd1na2vs0mg"},{"bike_id":"6f579a53-d51d-40cf-8032-32bfc0a2e0be","system_id":"levelo_inurba_marseille","lat":43.320495,"lon":5.415368,"is_reserved":false,"is_disabled":false,"rental_uris":{"android":"levelo://app?vid=6f579a53-d51d-40cf-8032-32bfc0a2e0be","ios":"levelo://app?vid=6f579a53-d51d-40cf-8032-32bfc0a2e0be"},"vehicle_type_id":"4","last_reported":1749668897,"current_range_meters":4800,"station_id":"ce4bhq92rcd13ifvqhkg","pricing_plan_id":"cebpf4jnsgd1na2vs0mg"},{"bike_id":"68ad7201-f01a-4dcd-bb41-245cc6de722a","system_id":"levelo_inurba_marseille","lat":43.27839,"lon":5.39215,"is_reserved":false,"is_disabled":false,"rental_uris":{"android":"levelo://app?vid=68ad7201-f01a-4dcd-bb41-245cc6de722a","ios":"levelo://app?vid=68ad7201-f01a-4dcd-bb41-245cc6de722a"},"vehicle_type_id":"4","last_reported":1749668897,"current_range_meters":4800,"station_id":"ce4bhjp2rcd13ifvqga0","pricing_plan_id":"cebpf4jnsgd1na2vs0mg"},{"bike_id":"438cad7d-80ca-40a5-aec0-38a8a22acf68","system_id":"levelo_inurba_marseille","lat":43.29519,"lon":5.39047,"is_reserved":false,"is_disabled":false,"rental_uris":{"android":"levelo://app?vid=438cad7d-80ca-40a5-aec0-38a8a22acf68","ios":"levelo://app?vid=438cad7d-80ca-40a5-aec0-38a8a22acf68"},"vehicle_type_id":"4","last_reported":1749668897,"current_range_meters":5600,"station_id":"ce4bh3p2rcd13ifvqdp0","pricing_plan_id":"cebpf4jnsgd1na2vs0mg"},{"bike_id":"943d9a6c-6d13-4203-adf8-702de2889dae","system_id":"levelo_inurba_marseille","lat":43.27496,"lon":5.42451,"is_reserved":false,"is_disabled":false,"rental_uris":{"android":"levelo://app?vid=943d9a6c-6d13-4203-adf8-702de2889dae","ios":"levelo://app?vid=943d9a6c-6d13-4203-adf8-702de2889dae"},"vehicle_type_id":"4","last_reported":1749668897,"current_range_meters":5600,"station_id":"ce4bhn92rcd13ifvqgrg","pricing_plan_id":"cebpf4jnsgd1na2vs0mg"},{"bike_id":"770c953f-81f6-4cf2-bd79-d5983d16ee74","system_id":"levelo_inurba_marseille","lat":43.25089,"lon":5.39523,"is_reserved":false,"is_disabled":false,"rental_uris":{"android":"levelo://app?vid=770c953f-81f6-4cf2-bd79-d5983d16ee74","ios":"levelo://app?vid=770c953f-81f6-4cf2-bd79-d5983d16ee74"},"vehicle_type_id":"4","last_reported":1749668897,"current_range_meters":5600,"station_id":"ce4bhm12rcd13ifvqgkg","pricing_plan_id":"cebpf4jnsgd1na2vs0mg"},{"bike_id":"034eec7a-c6b4-4ff4-ae87-4c1f4923e865","system_id":"levelo_inurba_marseille","lat":43.29016,"lon":5.38646,"is_reserved":false,"is_disabled":false,"rental_uris":{"android":"levelo://app?vid=034eec7a-c6b4-4ff4-ae87-4c1f4923e865","ios":"levelo://app?vid=034eec7a-c6b4-4ff4-ae87-4c1f4923e865"},"vehicle_type_id":"4","last_reported":1749668897,"current_range_meters":5600,"station_id":"ce4bh4p2rcd13ifvqe0g","pricing_plan_id":"cebpf4jnsgd1na2vs0mg"},{"bike_id":"dedaa547-546f-4547-a4ea-0591f3cf7793","system_id":"levelo_inurba_marseille","lat":43.30409,"lon":5.39745,"is_reserved":false,"is_disabled":true,"rental_uris":{"android":"levelo://app?vid=dedaa547-546f-4547-a4ea-0591f3cf7793","ios":"levelo://app?vid=dedaa547-546f-4547-a4ea-0591f3cf7793"},"vehicle_type_id":"4","last_reported":1749668897,"current_range_meters":5600,"station_id":"ce4bh092rcd13ifvqd20","pricing_plan_id":"cebpf4jnsgd1na2vs0mg"},{"bike_id":"b8162dc0-3819-4847-a143-e05e094074c8","system_id":"levelo_inurba_marseille","lat":43.30883,"lon":5.39656,"is_reserved":false,"is_disabled":false,"rental_uris":{"android":"levelo://app?vid=b8162dc0-3819-4847-a143-e05e094074c8","ios":"levelo://app?vid=b8162dc0-3819-4847-a143-e05e094074c8"},"vehicle_type_id":"4","last_reported":1749668897,"current_range_meters":6000,"station_id":"ce4bh012rcd13ifvqcv0","pricing_plan_id":"cebpf4jnsgd1na2vs0mg"},{"bike_id":"a9334c0d-cdfc-464f-8eab-e98192ed3454","system_id":"levelo_inurba_marseille","lat":43.29236,"lon":5.39935,"is_reserved":false,"is_disabled":false,"rental_uris":{"android":"levelo://app?vid=a9334c0d-cdfc-464f-8eab-e98192ed3454","ios":"levelo://app?vid=a9334c0d-cdfc-464f-8eab-e98192ed3454"},"vehicle_type_id":"4","last_reported":1749668897,"current_range_meters":6000,"station_id":"","pricing_plan_id":"cebpf4jnsgd1na2vs0mg"},{"bike_id":"125bd855-10ed-4a56-9707-403f3a8b58a0","system_id":"levelo_inurba_marseille","lat":43.3302,"lon":5.40526,"is_reserved":false,"is_disabled":false,"rental_uris":{"android":"levelo://app?vid=125bd855-10ed-4a56-9707-403f3a8b58a0","ios":"levelo://app?vid=125bd855-10ed-4a56-9707-403f3a8b58a0"},"vehicle_type_id":"4","last_reported":1749668897,"current_range_meters":6000,"station_id":"","pricing_plan_id":"cebpf4jnsgd1na2vs0mg"},{"bike_id":"8995f985-09c9-481d-889c-2e92fb35d989","system_id":"levelo_inurba_marseille","lat":43.28428,"lon":5.34977,"is_reserved":false,"is_disabled":false,"rental_uris":{"android":"levelo://app?vid=8995f985-09c9-481d-889c-2e92fb35d989","ios":"levelo://app?vid=8995f985-09c9-481d-889c-2e92fb35d989"},"vehicle_type_id":"4","last_reported":1749668897,"current_range_meters":6000,"station_id":"ce4bhbh2rcd13ifvqepg","pricing_plan_id":"cebpf4jnsgd1na2vs0mg"},{"bike_id":"55b584cb-533e-4234-849e-405637d3fb4b","system_id":"levelo_inurba_marseille","lat":43.309347,"lon":5.40144,"is_reserved":false,"is_disabled":false,"rental_uris":{"android":"levelo://app?vid=55b584cb-533e-4234-849e-405637d3fb4b","ios":"levelo://app?vid=55b584cb-533e-4234-849e-405637d3fb4b"},"vehicle_type_id":"4","last_reported":1749668897,"current_range_meters":6400,"station_id":"ce4bgvp2rcd13ifvqct0","pricing_plan_id":"cebpf4jnsgd1na2vs0mg"},{"bike_id":"e9aa47e9-3218-4c61-a0fa-c537960d0f71","system_id":"levelo_inurba_marseille","lat":43.27803,"lon":5.40719,"is_reserved":false,"is_disabled":false,"rental_uris":{"android":"levelo://app?vid=e9aa47e9-3218-4c61-a0fa-c537960d0f71","ios":"levelo://app?vid=e9aa47e9-3218-4c61-a0fa-c537960d0f71"},"vehicle_type_id":"4","last_reported":1749668897,"current_range_meters":6400,"station_id":"ce4bhnh2rcd13ifvqgtg","pricing_plan_id":"cebpf4jnsgd1na2vs0mg"},{"bike_id":"05879770-a0cb-4ee3-95fb-c89452183fef","system_id":"levelo_inurba_marseille","lat":43.28609,"lon":5.3511,"is_reserved":false,"is_disabled":false,"rental_uris":{"android":"levelo://app?vid=05879770-a0cb-4ee3-95fb-c89452183fef","ios":"levelo://app?vid=05879770-a0cb-4ee3-95fb-c89452183fef"},"vehicle_type_id":"4","last_reported":1749668897,"current_range_meters":6400,"station_id":"ce4bhch2rcd13ifvqeug","pricing_plan_id":"cebpf4jnsgd1na2vs0mg"},{"bike_id":"5600d31e-103f-4195-b672-3bbca3b4f622","system_id":"levelo_inurba_marseille","lat":43.288669,"lon":5.387918,"is_reserved":false,"is_disabled":false,"rental_uris":{"android":"levelo://app?vid=5600d31e-103f-4195-b672-3bbca3b4f622","ios":"levelo://app?vid=5600d31e-103f-4195-b672-3bbca3b4f622"},"vehicle_type_id":"4","last_reported":1749668897,"current_range_meters":6800,"station_id":"ce4bh4p2rcd13ifvqe0g","pricing_plan_id":"cebpf4jnsgd1na2vs0mg"},{"bike_id":"febba20c-88bc-4695-89d7-15b5c7fe2119","system_id":"levelo_inurba_marseille","lat":43.29526,"lon":5.39027,"is_reserved":false,"is_disabled":false,"rental_uris":{"android":"levelo://app?vid=febba20c-88bc-4695-89d7-15b5c7fe2119","ios":"levelo://app?vid=febba20c-88bc-4695-89d7-15b5c7fe2119"},"vehicle_type_id":"4","last_reported":1749668897,"current_range_meters":6800,"station_id":"ce4bh3p2rcd13ifvqdp0","pricing_plan_id":"cebpf4jnsgd1na2vs0mg"},{"bike_id":"a655fd17-a34c-40d5-8c8e-59aa8affdf15","system_id":"levelo_inurba_marseille","lat":43.25119,"lon":5.40319,"is_reserved":false,"is_disabled":false,"rental_uris":{"android":"levelo://app?vid=a655fd17-a34c-40d5-8c8e-59aa8affdf15","ios":"levelo://app?vid=a655fd17-a34c-40d5-8c8e-59aa8affdf15"},"vehicle_type_id":"4","last_reported":1749668897,"current_range_meters":6800,"station_id":"ce4bhlh2rcd13ifvqgig","pricing_plan_id":"cebpf4jnsgd1na2vs0mg"},{"bike_id":"7650f292-ce63-480f-a8af-8f6491ae3df3","system_id":"levelo_inurba_marseille","lat":43.28416,"lon":5.34989,"is_reserved":false,"is_disabled":false,"rental_uris":{"android":"levelo://app?vid=7650f292-ce63-480f-a8af-8f6491ae3df3","ios":"levelo://app?vid=7650f292-ce63-480f-a8af-8f6491ae3df3"},"vehicle_type_id":"4","last_reported":1749668897,"current_range_meters":7200,"station_id":"ce4bhbh2rcd13ifvqepg","pricing_plan_id":"cebpf4jnsgd1na2vs0mg"},{"bike_id":"8831da7f-9302-4ebf-87b1-481adca6c3b3","system_id":"levelo_inurba_marseille","lat":43.27941,"lon":5.41051,"is_reserved":false,"is_disabled":false,"rental_uris":{"android":"levelo://app?vid=8831da7f-9302-4ebf-87b1-481adca6c3b3","ios":"levelo://app?vid=8831da7f-9302-4ebf-87b1-481adca6c3b3"},"vehicle_type_id":"4","last_reported":1749668897,"current_range_meters":7200,"station_id":"ce4bhnp2rcd13ifvqh0g","pricing_plan_id":"cebpf4jnsgd1na2vs0mg"},{"bike_id":"fbf9d791-b553-48a5-a2c5-e2bd054bd82a","system_id":"levelo_inurba_marseille","lat":43.28943,"lon":5.36639,"is_reserved":false,"is_disabled":false,"rental_uris":{"android":"levelo://app?vid=fbf9d791-b553-48a5-a2c5-e2bd054bd82a","ios":"levelo://app?vid=fbf9d791-b553-48a5-a2c5-e2bd054bd82a"},"vehicle_type_id":"4","last_reported":1749668897,"current_range_meters":7200,"station_id":"ce4bhap2rcd13ifvqek0","pricing_plan_id":"cebpf4jnsgd1na2vs0mg"},{"bike_id":"167ecc2b-2367-4271-8080-d79e0116ca2d","system_id":"levelo_inurba_marseille","lat":43.29199,"lon":5.39325,"is_reserved":false,"is_disabled":false,"rental_uris":{"android":"levelo://app?vid=167ecc2b-2367-4271-8080-d79e0116ca2d","ios":"levelo://app?vid=167ecc2b-2367-4271-8080-d79e0116ca2d"},"vehicle_type_id":"4","last_reported":1749668897,"current_range_meters":7200,"station_id":"ce4bh192rcd13ifvqdd0","pricing_plan_id":"cebpf4jnsgd1na2vs0mg"},{"bike_id":"18759061-77d6-468f-98a8-b5bab7d472b0","system_id":"levelo_inurba_marseille","lat":43.26577,"lon":5.38978,"is_reserved":false,"is_disabled":true,"rental_uris":{"android":"levelo://app?vid=18759061-77d6-468f-98a8-b5bab7d472b0","ios":"levelo://app?vid=18759061-77d6-468f-98a8-b5bab7d472b0"},"vehicle_type_id":"4","last_reported":1749668897,"current_range_meters":7200,"station_id":"ce4bhe12rcd13ifvqf30","pricing_plan_id":"cebpf4jnsgd1na2vs0mg"},{"bike_id":"6e77bde1-ad59-4fc2-b85a-e15b57a872e0","system_id":"levelo_inurba_marseille","lat":43.295774,"lon":5.395701,"is_reserved":false,"is_disabled":false,"rental_uris":{"android":"levelo://app?vid=6e77bde1-ad59-4fc2-b85a-e15b57a872e0","ios":"levelo://app?vid=6e77bde1-ad59-4fc2-b85a-e15b57a872e0"},"vehicle_type_id":"4","last_reported":1749668897,"current_range_meters":8000,"station_id":"ce4bh292rcd13ifvqdf0","pricing_plan_id":"cebpf4jnsgd1na2vs0mg"},{"bike_id":"5077581b-cebb-46fc-ba69-4fa8272d4810","system_id":"levelo_inurba_marseille","lat":43.21366,"lon":5.35517,"is_reserved":false,"is_disabled":false,"rental_uris":{"android":"levelo://app?vid=5077581b-cebb-46fc-ba69-4fa8272d4810","ios":"levelo://app?vid=5077581b-cebb-46fc-ba69-4fa8272d4810"},"vehicle_type_id":"4","last_reported":1749668897,"current_range_meters":8000,"station_id":"","pricing_plan_id":"cebpf4jnsgd1na2vs0mg"},{"bike_id":"3dde1ffe-0f20-4f88-911b-d926785985dc","system_id":"levelo_inurba_marseille","lat":43.299146,"lon":5.375515,"is_reserved":false,"is_disabled":false,"rental_uris":{"android":"levelo://app?vid=3dde1ffe-0f20-4f88-911b-d926785985dc","ios":"levelo://app?vid=3dde1ffe-0f20-4f88-911b-d926785985dc"},"vehicle_type_id":"4","last_reported":1749668897,"current_range_meters":8000,"station_id":"ce4bgjh2rcd13ifvqbg0","pricing_plan_id":"cebpf4jnsgd1na2vs0mg"},{"bike_id":"396739df-a62b-4dd7-873d-5a4aa1569e28","system_id":"levelo_inurba_marseille","lat":43.28439,"lon":5.392027,"is_reserved":false,"is_disabled":false,"rental_uris":{"android":"levelo://app?vid=396739df-a62b-4dd7-873d-5a4aa1569e28","ios":"levelo://app?vid=396739df-a62b-4dd7-873d-5a4aa1569e28"},"vehicle_type_id":"4","last_reported":1749668897,"current_range_meters":8000,"station_id":"ce4bhoh2rcd13ifvqh5g","pricing_plan_id":"cebpf4jnsgd1na2vs0mg"},{"bike_id":"9416f2c9-5475-4b1a-a3d6-c0bbe8c2c516","system_id":"levelo_inurba_marseille","lat":43.29251,"lon":5.38449,"is_reserved":false,"is_disabled":false,"rental_uris":{"android":"levelo://app?vid=9416f2c9-5475-4b1a-a3d6-c0bbe8c2c516","ios":"levelo://app?vid=9416f2c9-5475-4b1a-a3d6-c0bbe8c2c516"},"vehicle_type_id":"4","last_reported":1749668897,"current_range_meters":8000,"station_id":"ce4bh692rcd13ifvqea0","pricing_plan_id":"cebpf4jnsgd1na2vs0mg"},{"bike_id":"c585f004-2e36-4f38-b21b-8656007206e4","system_id":"levelo_inurba_marseille","lat":43.28934,"lon":5.36646,"is_reserved":false,"is_disabled":false,"rental_uris":{"android":"levelo://app?vid=c585f004-2e36-4f38-b21b-8656007206e4","ios":"levelo://app?vid=c585f004-2e36-4f38-b21b-8656007206e4"},"vehicle_type_id":"4","last_reported":1749668897,"current_range_meters":8000,"station_id":"ce4bhap2rcd13ifvqek0","pricing_plan_id":"cebpf4jnsgd1na2vs0mg"},{"bike_id":"6c300130-a97b-4792-a130-444400099a0a","system_id":"levelo_inurba_marseille","lat":43.21189,"lon":5.35069,"is_reserved":false,"is_disabled":false,"rental_uris":{"android":"levelo://app?vid=6c300130-a97b-4792-a130-444400099a0a","ios":"levelo://app?vid=6c300130-a97b-4792-a130-444400099a0a"},"vehicle_type_id":"4","last_reported":1749668897,"current_range_meters":8000,"station_id":"st_cvj6sg6p6f1abm77japg","pricing_plan_id":"cebpf4jnsgd1na2vs0mg"},{"bike_id":"ca27e12a-1f2d-4cf2-be29-12a2b9ff1547","system_id":"levelo_inurba_marseille","lat":43.31715,"lon":5.42412,"is_reserved":false,"is_disabled":false,"rental_uris":{"android":"levelo://app?vid=ca27e12a-1f2d-4cf2-be29-12a2b9ff1547","ios":"levelo://app?vid=ca27e12a-1f2d-4cf2-be29-12a2b9ff1547"},"vehicle_type_id":"4","last_reported":1749668897,"current_range_meters":8000,"station_id":"ce4bhp92rcd13ifvqhbg","pricing_plan_id":"cebpf4jnsgd1na2vs0mg"},{"bike_id":"f18f7c4e-c434-4ae7-b1ed-9cddd28668db","system_id":"levelo_inurba_marseille","lat":43.2918,"lon":5.37149,"is_reserved":false,"is_disabled":false,"rental_uris":{"android":"levelo://app?vid=f18f7c4e-c434-4ae7-b1ed-9cddd28668db","ios":"levelo://app?vid=f18f7c4e-c434-4ae7-b1ed-9cddd28668db"},"vehicle_type_id":"4","last_reported":1749668897,"current_range_meters":7200,"station_id":"ce4bha92rcd13ifvqeh0","pricing_plan_id":"cebpf4jnsgd1na2vs0mg"},{"bike_id":"a9207d78-15a0-4302-af7d-8cec70375fbe","system_id":"levelo_inurba_marseille","lat":43.28614,"lon":5.35105,"is_reserved":false,"is_disabled":false,"rental_uris":{"android":"levelo://app?vid=a9207d78-15a0-4302-af7d-8cec70375fbe","ios":"levelo://app?vid=a9207d78-15a0-4302-af7d-8cec70375fbe"},"vehicle_type_id":"4","last_reported":1749668897,"current_range_meters":8000,"station_id":"ce4bhch2rcd13ifvqeug","pricing_plan_id":"cebpf4jnsgd1na2vs0mg"},{"bike_id":"8eb3d170-3268-41f5-addf-0bc8a6ff1f29","system_id":"levelo_inurba_marseille","lat":43.29017,"lon":5.35606,"is_reserved":false,"is_disabled":true,"rental_uris":{"android":"levelo://app?vid=8eb3d170-3268-41f5-addf-0bc8a6ff1f29","ios":"levelo://app?vid=8eb3d170-3268-41f5-addf-0bc8a6ff1f29"},"vehicle_type_id":"4","last_reported":1749668897,"current_range_meters":8000,"station_id":"ce4bhb92rcd13ifvqen0","pricing_plan_id":"cebpf4jnsgd1na2vs0mg"},{"bike_id":"569ee613-7295-4d42-8497-75d2881c4406","system_id":"levelo_inurba_marseille","lat":43.27493,"lon":5.42453,"is_reserved":false,"is_disabled":false,"rental_uris":{"android":"levelo://app?vid=569ee613-7295-4d42-8497-75d2881c4406","ios":"levelo://app?vid=569ee613-7295-4d42-8497-75d2881c4406"},"vehicle_type_id":"4","last_reported":1749668897,"current_range_meters":8400,"station_id":"ce4bhn92rcd13ifvqgrg","pricing_plan_id":"cebpf4jnsgd1na2vs0mg"},{"bike_id":"b850e3e9-0672-4b17-a2ee-cdcdfcbe13d2","system_id":"levelo_inurba_marseille","lat":43.29261,"lon":5.40902,"is_reserved":false,"is_disabled":false,"rental_uris":{"android":"levelo://app?vid=b850e3e9-0672-4b17-a2ee-cdcdfcbe13d2","ios":"levelo://app?vid=b850e3e9-0672-4b17-a2ee-cdcdfcbe13d2"},"vehicle_type_id":"4","last_reported":1749668897,"current_range_meters":8400,"station_id":"ce4bh192rcd13ifvqdc0","pricing_plan_id":"cebpf4jnsgd1na2vs0mg"},{"bike_id":"79c2aeb0-aeda-4084-bcf3-853af6ab05fd","system_id":"levelo_inurba_marseille","lat":43.28157,"lon":5.426398,"is_reserved":false,"is_disabled":false,"rental_uris":{"android":"levelo://app?vid=79c2aeb0-aeda-4084-bcf3-853af6ab05fd","ios":"levelo://app?vid=79c2aeb0-aeda-4084-bcf3-853af6ab05fd"},"vehicle_type_id":"4","last_reported":1749668897,"current_range_meters":8400,"station_id":"ce4bhnh2rcd13ifvqgug","pricing_plan_id":"cebpf4jnsgd1na2vs0mg"},{"bike_id":"41c79628-62fa-4a36-9cd7-a6f21846da89","system_id":"levelo_inurba_marseille","lat":43.28437,"lon":5.34998,"is_reserved":false,"is_disabled":false,"rental_uris":{"android":"levelo://app?vid=41c79628-62fa-4a36-9cd7-a6f21846da89","ios":"levelo://app?vid=41c79628-62fa-4a36-9cd7-a6f21846da89"},"vehicle_type_id":"4","last_reported":1749668897,"current_range_meters":8400,"station_id":"ce4bhbh2rcd13ifvqepg","pricing_plan_id":"cebpf4jnsgd1na2vs0mg"},{"bike_id":"15890935-4206-46eb-aaf6-abddc419f332","system_id":"levelo_inurba_marseille","lat":43.29975,"lon":5.38479,"is_reserved":false,"is_disabled":true,"rental_uris":{"android":"levelo://app?vid=15890935-4206-46eb-aaf6-abddc419f332","ios":"levelo://app?vid=15890935-4206-46eb-aaf6-abddc419f332"},"vehicle_type_id":"4","last_reported":1749668897,"current_range_meters":8400,"station_id":"ce4bgj92rcd13ifvqbd0","pricing_plan_id":"cebpf4jnsgd1na2vs0mg"},{"bike_id":"4b93b0a7-fb9a-4fec-bc83-df6f761f236d","system_id":"levelo_inurba_marseille","lat":43.27826,"lon":5.406993,"is_reserved":false,"is_disabled":false,"rental_uris":{"android":"levelo://app?vid=4b93b0a7-fb9a-4fec-bc83-df6f761f236d","ios":"levelo://app?vid=4b93b0a7-fb9a-4fec-bc83-df6f761f236d"},"vehicle_type_id":"4","last_reported":1749668897,"current_range_meters":8400,"station_id":"","pricing_plan_id":"cebpf4jnsgd1na2vs0mg"},{"bike_id":"562b41f3-5dfb-411c-9473-a9e6c600d64c","system_id":"levelo_inurba_marseille","lat":43.25493,"lon":5.37653,"is_reserved":false,"is_disabled":false,"rental_uris":{"android":"levelo://app?vid=562b41f3-5dfb-411c-9473-a9e6c600d64c","ios":"levelo://app?vid=562b41f3-5dfb-411c-9473-a9e6c600d64c"},"vehicle_type_id":"4","last_reported":1749668897,"current_range_meters":8400,"station_id":"ce4bhh12rcd13ifvqff0","pricing_plan_id":"cebpf4jnsgd1na2vs0mg"},{"bike_id":"e41e1863-4b5e-409d-a47e-30d663df267a","system_id":"levelo_inurba_marseille","lat":43.28639,"lon":5.35084,"is_reserved":false,"is_disabled":false,"rental_uris":{"android":"levelo://app?vid=e41e1863-4b5e-409d-a47e-30d663df267a","ios":"levelo://app?vid=e41e1863-4b5e-409d-a47e-30d663df267a"},"vehicle_type_id":"4","last_reported":1749668897,"current_range_meters":8400,"station_id":"ce4bhch2rcd13ifvqeug","pricing_plan_id":"cebpf4jnsgd1na2vs0mg"},{"bike_id":"a9dc41e0-783e-44bf-882f-1b469e275124","system_id":"levelo_inurba_marseille","lat":43.30952,"lon":5.39039,"is_reserved":false,"is_disabled":false,"rental_uris":{"android":"levelo://app?vid=a9dc41e0-783e-44bf-882f-1b469e275124","ios":"levelo://app?vid=a9dc41e0-783e-44bf-882f-1b469e275124"},"vehicle_type_id":"4","last_reported":1749668897,"current_range_meters":8400,"station_id":"ce4bgup2rcd13ifvqco0","pricing_plan_id":"cebpf4jnsgd1na2vs0mg"},{"bike_id":"0e92a489-6bfe-4488-b5ee-b5b5c177afe9","system_id":"levelo_inurba_marseille","lat":43.29058,"lon":5.37861,"is_reserved":false,"is_disabled":false,"rental_uris":{"android":"levelo://app?vid=0e92a489-6bfe-4488-b5ee-b5b5c177afe9","ios":"levelo://app?vid=0e92a489-6bfe-4488-b5ee-b5b5c177afe9"},"vehicle_type_id":"4","last_reported":1749668897,"current_range_meters":8800,"station_id":"","pricing_plan_id":"cebpf4jnsgd1na2vs0mg"},{"bike_id":"d5170a52-0411-4a30-9504-0ba3d82f42a5","system_id":"levelo_inurba_marseille","lat":43.28564,"lon":5.39497,"is_reserved":false,"is_disabled":false,"rental_uris":{"android":"levelo://app?vid=d5170a52-0411-4a30-9504-0ba3d82f42a5","ios":"levelo://app?vid=d5170a52-0411-4a30-9504-0ba3d82f42a5"},"vehicle_type_id":"4","last_reported":1749668897,"current_range_meters":14400,"station_id":"ce4bh292rcd13ifvqdg0","pricing_plan_id":"cebpf4jnsgd1na2vs0mg"},{"bike_id":"66314ca9-30a7-4c0a-8507-6f89f4c9b4e1","system_id":"levelo_inurba_marseille","lat":43.26212,"lon":5.37052,"is_reserved":false,"is_disabled":false,"rental_uris":{"android":"levelo://app?vid=66314ca9-30a7-4c0a-8507-6f89f4c9b4e1","ios":"levelo://app?vid=66314ca9-30a7-4c0a-8507-6f89f4c9b4e1"},"vehicle_type_id":"4","last_reported":1749668897,"current_range_meters":8800,"station_id":"","pricing_plan_id":"cebpf4jnsgd1na2vs0mg"},{"bike_id":"e72a9b0d-4733-4fe0-98ec-36375ff6be0f","system_id":"levelo_inurba_marseille","lat":43.25598,"lon":5.38243,"is_reserved":false,"is_disabled":true,"rental_uris":{"android":"levelo://app?vid=e72a9b0d-4733-4fe0-98ec-36375ff6be0f","ios":"levelo://app?vid=e72a9b0d-4733-4fe0-98ec-36375ff6be0f"},"vehicle_type_id":"4","last_reported":1749668897,"current_range_meters":8800,"station_id":"ce4bhih2rcd13ifvqfs0","pricing_plan_id":"cebpf4jnsgd1na2vs0mg"},{"bike_id":"1e20f032-0f6a-40b2-ad29-e4d2225496fa","system_id":"levelo_inurba_marseille","lat":43.30291,"lon":5.37057,"is_reserved":false,"is_disabled":false,"rental_uris":{"android":"levelo://app?vid=1e20f032-0f6a-40b2-ad29-e4d2225496fa","ios":"levelo://app?vid=1e20f032-0f6a-40b2-ad29-e4d2225496fa"},"vehicle_type_id":"4","last_reported":1749668897,"current_range_meters":8800,"station_id":"","pricing_plan_id":"cebpf4jnsgd1na2vs0mg"},{"bike_id":"a5d8bf67-e00f-4b3f-8720-d6497651122a","system_id":"levelo_inurba_marseille","lat":43.28423,"lon":5.349939,"is_reserved":false,"is_disabled":false,"rental_uris":{"android":"levelo://app?vid=a5d8bf67-e00f-4b3f-8720-d6497651122a","ios":"levelo://app?vid=a5d8bf67-e00f-4b3f-8720-d6497651122a"},"vehicle_type_id":"4","last_reported":1749668897,"current_range_meters":9200,"station_id":"ce4bhbh2rcd13ifvqepg","pricing_plan_id":"cebpf4jnsgd1na2vs0mg"},{"bike_id":"b19acd64-5f6c-4a25-82de-951c51bea8bf","system_id":"levelo_inurba_marseille","lat":43.29553,"lon":5.42297,"is_reserved":false,"is_disabled":false,"rental_uris":{"android":"levelo://app?vid=b19acd64-5f6c-4a25-82de-951c51bea8bf","ios":"levelo://app?vid=b19acd64-5f6c-4a25-82de-951c51bea8bf"},"vehicle_type_id":"4","last_reported":1749668897,"current_range_meters":9200,"station_id":"ce4bhph2rcd13ifvqhdg","pricing_plan_id":"cebpf4jnsgd1na2vs0mg"},{"bike_id":"571ce02c-9dc7-4918-a04f-3cd0310805f5","system_id":"levelo_inurba_marseille","lat":43.28617,"lon":5.35109,"is_reserved":false,"is_disabled":false,"rental_uris":{"android":"levelo://app?vid=571ce02c-9dc7-4918-a04f-3cd0310805f5","ios":"levelo://app?vid=571ce02c-9dc7-4918-a04f-3cd0310805f5"},"vehicle_type_id":"4","last_reported":1749668897,"current_range_meters":9200,"station_id":"ce4bhch2rcd13ifvqeug","pricing_plan_id":"cebpf4jnsgd1na2vs0mg"},{"bike_id":"ab612e90-b368-4a6f-b7c8-54694d6248a7","system_id":"levelo_inurba_marseille","lat":43.26495,"lon":5.39536,"is_reserved":false,"is_disabled":false,"rental_uris":{"android":"levelo://app?vid=ab612e90-b368-4a6f-b7c8-54694d6248a7","ios":"levelo://app?vid=ab612e90-b368-4a6f-b7c8-54694d6248a7"},"vehicle_type_id":"4","last_reported":1749668897,"current_range_meters":9200,"station_id":"ce4bhi12rcd13ifvqfq0","pricing_plan_id":"cebpf4jnsgd1na2vs0mg"},{"bike_id":"6a7464f2-4d6a-478f-aa08-15156eeabb94","system_id":"levelo_inurba_marseille","lat":43.32111,"lon":5.36771,"is_reserved":false,"is_disabled":false,"rental_uris":{"android":"levelo://app?vid=6a7464f2-4d6a-478f-aa08-15156eeabb94","ios":"levelo://app?vid=6a7464f2-4d6a-478f-aa08-15156eeabb94"},"vehicle_type_id":"4","last_reported":1749668897,"current_range_meters":9200,"station_id":"ce4bhrh2rcd13ifvqhug","pricing_plan_id":"cebpf4jnsgd1na2vs0mg"},{"bike_id":"99758a48-8542-43cf-9717-c70bd6910bbf","system_id":"levelo_inurba_marseille","lat":43.292264,"lon":5.360692,"is_reserved":false,"is_disabled":false,"rental_uris":{"android":"levelo://app?vid=99758a48-8542-43cf-9717-c70bd6910bbf","ios":"levelo://app?vid=99758a48-8542-43cf-9717-c70bd6910bbf"},"vehicle_type_id":"4","last_reported":1749668897,"current_range_meters":9200,"station_id":"ce4bhbh2rcd13ifvqeqg","pricing_plan_id":"cebpf4jnsgd1na2vs0mg"},{"bike_id":"c35e69ca-9a4f-496c-8fff-b2d2ce2efce3","system_id":"levelo_inurba_marseille","lat":43.33024,"lon":5.39047,"is_reserved":false,"is_disabled":false,"rental_uris":{"android":"levelo://app?vid=c35e69ca-9a4f-496c-8fff-b2d2ce2efce3","ios":"levelo://app?vid=c35e69ca-9a4f-496c-8fff-b2d2ce2efce3"},"vehicle_type_id":"4","last_reported":1749668897,"current_range_meters":9200,"station_id":"ce4bhr92rcd13ifvqhrg","pricing_plan_id":"cebpf4jnsgd1na2vs0mg"},{"bike_id":"f5db53c2-39c8-4781-b30f-b57c98968b37","system_id":"levelo_inurba_marseille","lat":43.29419,"lon":5.3863,"is_reserved":false,"is_disabled":true,"rental_uris":{"android":"levelo://app?vid=f5db53c2-39c8-4781-b30f-b57c98968b37","ios":"levelo://app?vid=f5db53c2-39c8-4781-b30f-b57c98968b37"},"vehicle_type_id":"4","last_reported":1749668897,"current_range_meters":9600,"station_id":"ce4bh2h2rcd13ifvqdh0","pricing_plan_id":"cebpf4jnsgd1na2vs0mg"},{"bike_id":"451dbcf7-69ca-44c8-be22-8c32346dd0d2","system_id":"levelo_inurba_marseille","lat":43.28655,"lon":5.36356,"is_reserved":false,"is_disabled":false,"rental_uris":{"android":"levelo://app?vid=451dbcf7-69ca-44c8-be22-8c32346dd0d2","ios":"levelo://app?vid=451dbcf7-69ca-44c8-be22-8c32346dd0d2"},"vehicle_type_id":"4","last_reported":1749668897,"current_range_meters":9600,"station_id":"ce4bhah2rcd13ifvqej0","pricing_plan_id":"cebpf4jnsgd1na2vs0mg"},{"bike_id":"b31174da-904f-4a47-9cf7-5303a3fe918d","system_id":"levelo_inurba_marseille","lat":43.2922,"lon":5.36061,"is_reserved":false,"is_disabled":false,"rental_uris":{"android":"levelo://app?vid=b31174da-904f-4a47-9cf7-5303a3fe918d","ios":"levelo://app?vid=b31174da-904f-4a47-9cf7-5303a3fe918d"},"vehicle_type_id":"4","last_reported":1749668897,"current_range_meters":9600,"station_id":"ce4bhbh2rcd13ifvqeqg","pricing_plan_id":"cebpf4jnsgd1na2vs0mg"},{"bike_id":"e671ce78-a917-4b7d-bc45-e8e614bea26e","system_id":"levelo_inurba_marseille","lat":43.32499,"lon":5.36557,"is_reserved":false,"is_disabled":false,"rental_uris":{"android":"levelo://app?vid=e671ce78-a917-4b7d-bc45-e8e614bea26e","ios":"levelo://app?vid=e671ce78-a917-4b7d-bc45-e8e614bea26e"},"vehicle_type_id":"4","last_reported":1749668897,"current_range_meters":9600,"station_id":"ce4bhs12rcd13ifvqhvg","pricing_plan_id":"cebpf4jnsgd1na2vs0mg"},{"bike_id":"f6cfef7f-3b0b-474d-b549-0c9af1a9e2a9","system_id":"levelo_inurba_marseille","lat":43.26677,"lon":5.38267,"is_reserved":false,"is_disabled":false,"rental_uris":{"android":"levelo://app?vid=f6cfef7f-3b0b-474d-b549-0c9af1a9e2a9","ios":"levelo://app?vid=f6cfef7f-3b0b-474d-b549-0c9af1a9e2a9"},"vehicle_type_id":"4","last_reported":1749668897,"current_range_meters":9600,"station_id":"ce4bhg92rcd13ifvqf90","pricing_plan_id":"cebpf4jnsgd1na2vs0mg"},{"bike_id":"e422b217-9d0f-4642-82d8-286030744363","system_id":"levelo_inurba_marseille","lat":43.2863,"lon":5.35098,"is_reserved":false,"is_disabled":false,"rental_uris":{"android":"levelo://app?vid=e422b217-9d0f-4642-82d8-286030744363","ios":"levelo://app?vid=e422b217-9d0f-4642-82d8-286030744363"},"vehicle_type_id":"4","last_reported":1749668897,"current_range_meters":10000,"station_id":"ce4bhch2rcd13ifvqeug","pricing_plan_id":"cebpf4jnsgd1na2vs0mg"},{"bike_id":"84f5a926-1dd6-4535-b647-2764ce0ca103","system_id":"levelo_inurba_marseille","lat":43.32112,"lon":5.36781,"is_reserved":false,"is_disabled":false,"rental_uris":{"android":"levelo://app?vid=84f5a926-1dd6-4535-b647-2764ce0ca103","ios":"levelo://app?vid=84f5a926-1dd6-4535-b647-2764ce0ca103"},"vehicle_type_id":"4","last_reported":1749668897,"current_range_meters":10000,"station_id":"ce4bhrh2rcd13ifvqhug","pricing_plan_id":"cebpf4jnsgd1na2vs0mg"},{"bike_id":"6e9418e7-b1d9-4d5d-a6e3-a1ebaeb64e74","system_id":"levelo_inurba_marseille","lat":43.25493,"lon":5.37646,"is_reserved":false,"is_disabled":false,"rental_uris":{"android":"levelo://app?vid=6e9418e7-b1d9-4d5d-a6e3-a1ebaeb64e74","ios":"levelo://app?vid=6e9418e7-b1d9-4d5d-a6e3-a1ebaeb64e74"},"vehicle_type_id":"4","last_reported":1749668897,"current_range_meters":10000,"station_id":"ce4bhh12rcd13ifvqff0","pricing_plan_id":"cebpf4jnsgd1na2vs0mg"},{"bike_id":"bb8d963c-f5c0-4e68-a17d-40f45b2fd1bd","system_id":"levelo_inurba_marseille","lat":43.28615,"lon":5.35105,"is_reserved":false,"is_disabled":false,"rental_uris":{"android":"levelo://app?vid=bb8d963c-f5c0-4e68-a17d-40f45b2fd1bd","ios":"levelo://app?vid=bb8d963c-f5c0-4e68-a17d-40f45b2fd1bd"},"vehicle_type_id":"4","last_reported":1749668897,"current_range_meters":10000,"station_id":"ce4bhch2rcd13ifvqeug","pricing_plan_id":"cebpf4jnsgd1na2vs0mg"},{"bike_id":"9747a3c4-e857-4ab7-9bb7-4de7e20453db","system_id":"levelo_inurba_marseille","lat":43.29254,"lon":5.38443,"is_reserved":false,"is_disabled":false,"rental_uris":{"android":"levelo://app?vid=9747a3c4-e857-4ab7-9bb7-4de7e20453db","ios":"levelo://app?vid=9747a3c4-e857-4ab7-9bb7-4de7e20453db"},"vehicle_type_id":"4","last_reported":1749668897,"current_range_meters":10800,"station_id":"ce4bh692rcd13ifvqea0","pricing_plan_id":"cebpf4jnsgd1na2vs0mg"},{"bike_id":"f0efac9f-68cb-46b1-ae63-d592bf2cad02","system_id":"levelo_inurba_marseille","lat":43.28407,"lon":5.3499,"is_reserved":false,"is_disabled":false,"rental_uris":{"android":"levelo://app?vid=f0efac9f-68cb-46b1-ae63-d592bf2cad02","ios":"levelo://app?vid=f0efac9f-68cb-46b1-ae63-d592bf2cad02"},"vehicle_type_id":"4","last_reported":1749668897,"current_range_meters":10800,"station_id":"ce4bhbh2rcd13ifvqepg","pricing_plan_id":"cebpf4jnsgd1na2vs0mg"},{"bike_id":"3817d26f-06f8-4f09-855d-7ddfa3edeed5","system_id":"levelo_inurba_marseille","lat":43.29173,"lon":5.37155,"is_reserved":false,"is_disabled":false,"rental_uris":{"android":"levelo://app?vid=3817d26f-06f8-4f09-855d-7ddfa3edeed5","ios":"levelo://app?vid=3817d26f-06f8-4f09-855d-7ddfa3edeed5"},"vehicle_type_id":"4","last_reported":1749668897,"current_range_meters":10800,"station_id":"ce4bha92rcd13ifvqeh0","pricing_plan_id":"cebpf4jnsgd1na2vs0mg"},{"bike_id":"a6a9aa78-7299-47ac-a784-76282a099506","system_id":"levelo_inurba_marseille","lat":43.30158,"lon":5.38099,"is_reserved":false,"is_disabled":true,"rental_uris":{"android":"levelo://app?vid=a6a9aa78-7299-47ac-a784-76282a099506","ios":"levelo://app?vid=a6a9aa78-7299-47ac-a784-76282a099506"},"vehicle_type_id":"4","last_reported":1749668897,"current_range_meters":10800,"station_id":"ce4bgjp2rcd13ifvqbh0","pricing_plan_id":"cebpf4jnsgd1na2vs0mg"},{"bike_id":"85274a9d-a0fb-46c5-a828-b8a66650baa9","system_id":"levelo_inurba_marseille","lat":43.28409,"lon":5.37509,"is_reserved":false,"is_disabled":false,"rental_uris":{"android":"levelo://app?vid=85274a9d-a0fb-46c5-a828-b8a66650baa9","ios":"levelo://app?vid=85274a9d-a0fb-46c5-a828-b8a66650baa9"},"vehicle_type_id":"4","last_reported":1749668897,"current_range_meters":10800,"station_id":"ce4bh412rcd13ifvqds0","pricing_plan_id":"cebpf4jnsgd1na2vs0mg"},{"bike_id":"5ffc5d75-9066-40cf-9730-75b3d557a59f","system_id":"levelo_inurba_marseille","lat":43.29917,"lon":5.37785,"is_reserved":false,"is_disabled":false,"rental_uris":{"android":"levelo://app?vid=5ffc5d75-9066-40cf-9730-75b3d557a59f","ios":"levelo://app?vid=5ffc5d75-9066-40cf-9730-75b3d557a59f"},"vehicle_type_id":"4","last_reported":1749668897,"current_range_meters":10800,"station_id":"","pricing_plan_id":"cebpf4jnsgd1na2vs0mg"},{"bike_id":"f7c6e98d-c497-4437-9a8e-5145b4d5612f","system_id":"levelo_inurba_marseille","lat":43.31073,"lon":5.38357,"is_reserved":false,"is_disabled":false,"rental_uris":{"android":"levelo://app?vid=f7c6e98d-c497-4437-9a8e-5145b4d5612f","ios":"levelo://app?vid=f7c6e98d-c497-4437-9a8e-5145b4d5612f"},"vehicle_type_id":"4","last_reported":1749668897,"current_range_meters":10800,"station_id":"ce4bgv92rcd13ifvqcr0","pricing_plan_id":"cebpf4jnsgd1na2vs0mg"},{"bike_id":"15cc5c0c-792a-497a-b3aa-8452e5a073a4","system_id":"levelo_inurba_marseille","lat":43.284797,"lon":5.391669,"is_reserved":false,"is_disabled":false,"rental_uris":{"android":"levelo://app?vid=15cc5c0c-792a-497a-b3aa-8452e5a073a4","ios":"levelo://app?vid=15cc5c0c-792a-497a-b3aa-8452e5a073a4"},"vehicle_type_id":"4","last_reported":1749668897,"current_range_meters":10800,"station_id":"ce4bhoh2rcd13ifvqh5g","pricing_plan_id":"cebpf4jnsgd1na2vs0mg"},{"bike_id":"0923e79e-3960-4eec-9027-38089346fe3a","system_id":"levelo_inurba_marseille","lat":43.23187,"lon":5.35577,"is_reserved":false,"is_disabled":true,"rental_uris":{"android":"levelo://app?vid=0923e79e-3960-4eec-9027-38089346fe3a","ios":"levelo://app?vid=0923e79e-3960-4eec-9027-38089346fe3a"},"vehicle_type_id":"4","last_reported":1749668897,"current_range_meters":10800,"station_id":"ce4bhu92rcd13ifvqi70","pricing_plan_id":"cebpf4jnsgd1na2vs0mg"},{"bike_id":"5e2328c0-149c-49a4-a884-8e5262a1ebad","system_id":"levelo_inurba_marseille","lat":43.29264,"lon":5.38439,"is_reserved":false,"is_disabled":false,"rental_uris":{"android":"levelo://app?vid=5e2328c0-149c-49a4-a884-8e5262a1ebad","ios":"levelo://app?vid=5e2328c0-149c-49a4-a884-8e5262a1ebad"},"vehicle_type_id":"4","last_reported":1749668897,"current_range_meters":10800,"station_id":"ce4bh692rcd13ifvqea0","pricing_plan_id":"cebpf4jnsgd1na2vs0mg"},{"bike_id":"4220c3f1-dd96-4f3e-a186-336464ef48f9","system_id":"levelo_inurba_marseille","lat":43.28412,"lon":5.34999,"is_reserved":false,"is_disabled":false,"rental_uris":{"android":"levelo://app?vid=4220c3f1-dd96-4f3e-a186-336464ef48f9","ios":"levelo://app?vid=4220c3f1-dd96-4f3e-a186-336464ef48f9"},"vehicle_type_id":"4","last_reported":1749668897,"current_range_meters":10800,"station_id":"ce4bhbh2rcd13ifvqepg","pricing_plan_id":"cebpf4jnsgd1na2vs0mg"},{"bike_id":"dfa8a562-7c57-4609-9fab-4cc0bd86a23f","system_id":"levelo_inurba_marseille","lat":43.28626,"lon":5.35098,"is_reserved":false,"is_disabled":false,"rental_uris":{"android":"levelo://app?vid=dfa8a562-7c57-4609-9fab-4cc0bd86a23f","ios":"levelo://app?vid=dfa8a562-7c57-4609-9fab-4cc0bd86a23f"},"vehicle_type_id":"4","last_reported":1749668897,"current_range_meters":11200,"station_id":"ce4bhch2rcd13ifvqeug","pricing_plan_id":"cebpf4jnsgd1na2vs0mg"},{"bike_id":"7796bd3e-0362-4956-a18a-b546fd82adfe","system_id":"levelo_inurba_marseille","lat":43.28412,"lon":5.34989,"is_reserved":false,"is_disabled":false,"rental_uris":{"android":"levelo://app?vid=7796bd3e-0362-4956-a18a-b546fd82adfe","ios":"levelo://app?vid=7796bd3e-0362-4956-a18a-b546fd82adfe"},"vehicle_type_id":"4","last_reported":1749668897,"current_range_meters":11200,"station_id":"ce4bhbh2rcd13ifvqepg","pricing_plan_id":"cebpf4jnsgd1na2vs0mg"},{"bike_id":"d17e5d90-b2c0-499f-b005-7e132fb2bab9","system_id":"levelo_inurba_marseille","lat":43.2925,"lon":5.38441,"is_reserved":false,"is_disabled":false,"rental_uris":{"android":"levelo://app?vid=d17e5d90-b2c0-499f-b005-7e132fb2bab9","ios":"levelo://app?vid=d17e5d90-b2c0-499f-b005-7e132fb2bab9"},"vehicle_type_id":"4","last_reported":1749668897,"current_range_meters":11200,"station_id":"ce4bh692rcd13ifvqea0","pricing_plan_id":"cebpf4jnsgd1na2vs0mg"},{"bike_id":"1424ca46-6afd-4bfb-b52e-a41fd4c73931","system_id":"levelo_inurba_marseille","lat":43.29266,"lon":5.38437,"is_reserved":false,"is_disabled":false,"rental_uris":{"android":"levelo://app?vid=1424ca46-6afd-4bfb-b52e-a41fd4c73931","ios":"levelo://app?vid=1424ca46-6afd-4bfb-b52e-a41fd4c73931"},"vehicle_type_id":"4","last_reported":1749668897,"current_range_meters":11200,"station_id":"ce4bh692rcd13ifvqea0","pricing_plan_id":"cebpf4jnsgd1na2vs0mg"},{"bike_id":"1775a59e-9dc0-40f8-9c59-36e8acda4730","system_id":"levelo_inurba_marseille","lat":43.29206,"lon":5.35802,"is_reserved":false,"is_disabled":false,"rental_uris":{"android":"levelo://app?vid=1775a59e-9dc0-40f8-9c59-36e8acda4730","ios":"levelo://app?vid=1775a59e-9dc0-40f8-9c59-36e8acda4730"},"vehicle_type_id":"4","last_reported":1749668897,"current_range_meters":11600,"station_id":"ce4bhb12rcd13ifvqel0","pricing_plan_id":"cebpf4jnsgd1na2vs0mg"},{"bike_id":"640c2017-86dc-487c-a9f4-f3964a220af0","system_id":"levelo_inurba_marseille","lat":43.240643,"lon":5.377486,"is_reserved":false,"is_disabled":false,"rental_uris":{"android":"levelo://app?vid=640c2017-86dc-487c-a9f4-f3964a220af0","ios":"levelo://app?vid=640c2017-86dc-487c-a9f4-f3964a220af0"},"vehicle_type_id":"4","last_reported":1749668897,"current_range_meters":11600,"station_id":"ce4bhnp2rcd13ifvqgvg","pricing_plan_id":"cebpf4jnsgd1na2vs0mg"},{"bike_id":"e2ab8eba-7083-4745-9245-927a9e9c668c","system_id":"levelo_inurba_marseille","lat":43.2842,"lon":5.3499,"is_reserved":false,"is_disabled":false,"rental_uris":{"android":"levelo://app?vid=e2ab8eba-7083-4745-9245-927a9e9c668c","ios":"levelo://app?vid=e2ab8eba-7083-4745-9245-927a9e9c668c"},"vehicle_type_id":"4","last_reported":1749668897,"current_range_meters":11600,"station_id":"ce4bhbh2rcd13ifvqepg","pricing_plan_id":"cebpf4jnsgd1na2vs0mg"},{"bike_id":"461ed0f5-323f-47e6-9e03-883fb95dd6f9","system_id":"levelo_inurba_marseille","lat":43.29525,"lon":5.37501,"is_reserved":false,"is_disabled":false,"rental_uris":{"android":"levelo://app?vid=461ed0f5-323f-47e6-9e03-883fb95dd6f9","ios":"levelo://app?vid=461ed0f5-323f-47e6-9e03-883fb95dd6f9"},"vehicle_type_id":"4","last_reported":1749668897,"current_range_meters":11600,"station_id":"ce4bgkp2rcd13ifvqbmg","pricing_plan_id":"cebpf4jnsgd1na2vs0mg"},{"bike_id":"2c7a13aa-9a16-4880-8e65-7cb3af8d8d1b","system_id":"levelo_inurba_marseille","lat":43.28973,"lon":5.37843,"is_reserved":false,"is_disabled":true,"rental_uris":{"android":"levelo://app?vid=2c7a13aa-9a16-4880-8e65-7cb3af8d8d1b","ios":"levelo://app?vid=2c7a13aa-9a16-4880-8e65-7cb3af8d8d1b"},"vehicle_type_id":"4","last_reported":1749668897,"current_range_meters":11600,"station_id":"ce4bh9p2rcd13ifvqed0","pricing_plan_id":"cebpf4jnsgd1na2vs0mg"},{"bike_id":"56bb4d32-b204-4959-804a-bc3c5e073f5c","system_id":"levelo_inurba_marseille","lat":43.28598,"lon":5.37064,"is_reserved":false,"is_disabled":false,"rental_uris":{"android":"levelo://app?vid=56bb4d32-b204-4959-804a-bc3c5e073f5c","ios":"levelo://app?vid=56bb4d32-b204-4959-804a-bc3c5e073f5c"},"vehicle_type_id":"4","last_reported":1749668897,"current_range_meters":11600,"station_id":"ce4bht12rcd13ifvqi60","pricing_plan_id":"cebpf4jnsgd1na2vs0mg"},{"bike_id":"3c9087bc-2fd5-4aa2-902a-65b0ecb1c938","system_id":"levelo_inurba_marseille","lat":43.31494,"lon":5.37309,"is_reserved":false,"is_disabled":false,"rental_uris":{"android":"levelo://app?vid=3c9087bc-2fd5-4aa2-902a-65b0ecb1c938","ios":"levelo://app?vid=3c9087bc-2fd5-4aa2-902a-65b0ecb1c938"},"vehicle_type_id":"4","last_reported":1749668897,"current_range_meters":11600,"station_id":"ce4bgt12rcd13ifvqcd0","pricing_plan_id":"cebpf4jnsgd1na2vs0mg"},{"bike_id":"1acfb620-cad7-48c0-8901-d7a5b74a5b65","system_id":"levelo_inurba_marseille","lat":43.33751,"lon":5.37456,"is_reserved":false,"is_disabled":false,"rental_uris":{"android":"levelo://app?vid=1acfb620-cad7-48c0-8901-d7a5b74a5b65","ios":"levelo://app?vid=1acfb620-cad7-48c0-8901-d7a5b74a5b65"},"vehicle_type_id":"4","last_reported":1749668897,"current_range_meters":11600,"station_id":"","pricing_plan_id":"cebpf4jnsgd1na2vs0mg"},{"bike_id":"8b0822a7-64c8-4c2e-94e2-d50f00c1ca16","system_id":"levelo_inurba_marseille","lat":43.28417,"lon":5.34988,"is_reserved":false,"is_disabled":false,"rental_uris":{"android":"levelo://app?vid=8b0822a7-64c8-4c2e-94e2-d50f00c1ca16","ios":"levelo://app?vid=8b0822a7-64c8-4c2e-94e2-d50f00c1ca16"},"vehicle_type_id":"4","last_reported":1749668897,"current_range_meters":12000,"station_id":"ce4bhbh2rcd13ifvqepg","pricing_plan_id":"cebpf4jnsgd1na2vs0mg"},{"bike_id":"71455d28-2646-4598-b7dc-7b6598c787b7","system_id":"levelo_inurba_marseille","lat":43.27364,"lon":5.36262,"is_reserved":false,"is_disabled":false,"rental_uris":{"android":"levelo://app?vid=71455d28-2646-4598-b7dc-7b6598c787b7","ios":"levelo://app?vid=71455d28-2646-4598-b7dc-7b6598c787b7"},"vehicle_type_id":"4","last_reported":1749668897,"current_range_meters":12000,"station_id":"ce4bhbh2rcd13ifvqeo0","pricing_plan_id":"cebpf4jnsgd1na2vs0mg"},{"bike_id":"9a4a803d-a137-4935-ba87-da9f15dde31f","system_id":"levelo_inurba_marseille","lat":43.29003,"lon":5.35615,"is_reserved":false,"is_disabled":false,"rental_uris":{"android":"levelo://app?vid=9a4a803d-a137-4935-ba87-da9f15dde31f","ios":"levelo://app?vid=9a4a803d-a137-4935-ba87-da9f15dde31f"},"vehicle_type_id":"4","last_reported":1749668897,"current_range_meters":12000,"station_id":"ce4bhb92rcd13ifvqen0","pricing_plan_id":"cebpf4jnsgd1na2vs0mg"},{"bike_id":"12857da6-610b-4224-aed3-a1bd41284f7e","system_id":"levelo_inurba_marseille","lat":43.29259,"lon":5.40912,"is_reserved":false,"is_disabled":false,"rental_uris":{"android":"levelo://app?vid=12857da6-610b-4224-aed3-a1bd41284f7e","ios":"levelo://app?vid=12857da6-610b-4224-aed3-a1bd41284f7e"},"vehicle_type_id":"4","last_reported":1749668897,"current_range_meters":12000,"station_id":"ce4bh192rcd13ifvqdc0","pricing_plan_id":"cebpf4jnsgd1na2vs0mg"},{"bike_id":"e41b9566-4627-4d85-828b-97022387ffe1","system_id":"levelo_inurba_marseille","lat":43.28468,"lon":5.3843,"is_reserved":false,"is_disabled":false,"rental_uris":{"android":"levelo://app?vid=e41b9566-4627-4d85-828b-97022387ffe1","ios":"levelo://app?vid=e41b9566-4627-4d85-828b-97022387ffe1"},"vehicle_type_id":"4","last_reported":1749668897,"current_range_meters":12000,"station_id":"ce4bh512rcd13ifvqe3g","pricing_plan_id":"cebpf4jnsgd1na2vs0mg"},{"bike_id":"d6af3e81-6147-4e06-b69a-9f17c6d092db","system_id":"levelo_inurba_marseille","lat":43.31171,"lon":5.38719,"is_reserved":false,"is_disabled":false,"rental_uris":{"android":"levelo://app?vid=d6af3e81-6147-4e06-b69a-9f17c6d092db","ios":"levelo://app?vid=d6af3e81-6147-4e06-b69a-9f17c6d092db"},"vehicle_type_id":"4","last_reported":1749668897,"current_range_meters":12000,"station_id":"ce4bgv12rcd13ifvqcp0","pricing_plan_id":"cebpf4jnsgd1na2vs0mg"},{"bike_id":"3bcb622b-35ab-4fc7-b51b-263165a13d06","system_id":"levelo_inurba_marseille","lat":43.28627,"lon":5.351,"is_reserved":false,"is_disabled":false,"rental_uris":{"android":"levelo://app?vid=3bcb622b-35ab-4fc7-b51b-263165a13d06","ios":"levelo://app?vid=3bcb622b-35ab-4fc7-b51b-263165a13d06"},"vehicle_type_id":"4","last_reported":1749668897,"current_range_meters":12000,"station_id":"ce4bhch2rcd13ifvqeug","pricing_plan_id":"cebpf4jnsgd1na2vs0mg"},{"bike_id":"7ce03003-40bb-4dfa-ae6d-2796634da079","system_id":"levelo_inurba_marseille","lat":43.30205,"lon":5.45399,"is_reserved":false,"is_disabled":false,"rental_uris":{"android":"levelo://app?vid=7ce03003-40bb-4dfa-ae6d-2796634da079","ios":"levelo://app?vid=7ce03003-40bb-4dfa-ae6d-2796634da079"},"vehicle_type_id":"4","last_reported":1749668897,"current_range_meters":12000,"station_id":"","pricing_plan_id":"cebpf4jnsgd1na2vs0mg"},{"bike_id":"64d1a938-a21d-4a75-992f-2e52825d8d67","system_id":"levelo_inurba_marseille","lat":43.30599,"lon":5.39368,"is_reserved":false,"is_disabled":false,"rental_uris":{"android":"levelo://app?vid=64d1a938-a21d-4a75-992f-2e52825d8d67","ios":"levelo://app?vid=64d1a938-a21d-4a75-992f-2e52825d8d67"},"vehicle_type_id":"4","last_reported":1749668897,"current_range_meters":12000,"station_id":"ce4bh0p2rcd13ifvqd80","pricing_plan_id":"cebpf4jnsgd1na2vs0mg"},{"bike_id":"cf1b4639-184e-4252-95d6-98181db861e2","system_id":"levelo_inurba_marseille","lat":43.26686,"lon":5.38279,"is_reserved":false,"is_disabled":false,"rental_uris":{"android":"levelo://app?vid=cf1b4639-184e-4252-95d6-98181db861e2","ios":"levelo://app?vid=cf1b4639-184e-4252-95d6-98181db861e2"},"vehicle_type_id":"4","last_reported":1749668897,"current_range_meters":11600,"station_id":"ce4bhg92rcd13ifvqf90","pricing_plan_id":"cebpf4jnsgd1na2vs0mg"},{"bike_id":"3b82998d-ad0c-4410-be61-bb3809ccd861","system_id":"levelo_inurba_marseille","lat":43.29083,"lon":5.38136,"is_reserved":false,"is_disabled":false,"rental_uris":{"android":"levelo://app?vid=3b82998d-ad0c-4410-be61-bb3809ccd861","ios":"levelo://app?vid=3b82998d-ad0c-4410-be61-bb3809ccd861"},"vehicle_type_id":"4","last_reported":1749668897,"current_range_meters":12000,"station_id":"ce4bh512rcd13ifvqe2g","pricing_plan_id":"cebpf4jnsgd1na2vs0mg"},{"bike_id":"b48f0314-4fb3-4f17-ac63-b671ed1f949f","system_id":"levelo_inurba_marseille","lat":43.33734,"lon":5.3919,"is_reserved":false,"is_disabled":false,"rental_uris":{"android":"levelo://app?vid=b48f0314-4fb3-4f17-ac63-b671ed1f949f","ios":"levelo://app?vid=b48f0314-4fb3-4f17-ac63-b671ed1f949f"},"vehicle_type_id":"4","last_reported":1749668897,"current_range_meters":12400,"station_id":"ce4bhr92rcd13ifvqhsg","pricing_plan_id":"cebpf4jnsgd1na2vs0mg"},{"bike_id":"2659513e-2ce3-46b5-a2e0-1953bd586fd7","system_id":"levelo_inurba_marseille","lat":43.29421,"lon":5.38611,"is_reserved":false,"is_disabled":false,"rental_uris":{"android":"levelo://app?vid=2659513e-2ce3-46b5-a2e0-1953bd586fd7","ios":"levelo://app?vid=2659513e-2ce3-46b5-a2e0-1953bd586fd7"},"vehicle_type_id":"4","last_reported":1749668897,"current_range_meters":12400,"station_id":"ce4bh2h2rcd13ifvqdh0","pricing_plan_id":"cebpf4jnsgd1na2vs0mg"},{"bike_id":"d7fd175c-f9e3-40c2-a480-2670793a4f25","system_id":"levelo_inurba_marseille","lat":43.29005,"lon":5.35613,"is_reserved":false,"is_disabled":false,"rental_uris":{"android":"levelo://app?vid=d7fd175c-f9e3-40c2-a480-2670793a4f25","ios":"levelo://app?vid=d7fd175c-f9e3-40c2-a480-2670793a4f25"},"vehicle_type_id":"4","last_reported":1749668897,"current_range_meters":12400,"station_id":"ce4bhb92rcd13ifvqen0","pricing_plan_id":"cebpf4jnsgd1na2vs0mg"},{"bike_id":"91252cb4-db98-4cff-ba49-0337a6eacf8f","system_id":"levelo_inurba_marseille","lat":43.31993,"lon":5.38783,"is_reserved":false,"is_disabled":false,"rental_uris":{"android":"levelo://app?vid=91252cb4-db98-4cff-ba49-0337a6eacf8f","ios":"levelo://app?vid=91252cb4-db98-4cff-ba49-0337a6eacf8f"},"vehicle_type_id":"4","last_reported":1749668897,"current_range_meters":12400,"station_id":"","pricing_plan_id":"cebpf4jnsgd1na2vs0mg"},{"bike_id":"b3edde10-f433-440e-8c87-3d0de87075c0","system_id":"levelo_inurba_marseille","lat":43.30907,"lon":5.36849,"is_reserved":false,"is_disabled":false,"rental_uris":{"android":"levelo://app?vid=b3edde10-f433-440e-8c87-3d0de87075c0","ios":"levelo://app?vid=b3edde10-f433-440e-8c87-3d0de87075c0"},"vehicle_type_id":"4","last_reported":1749668897,"current_range_meters":12800,"station_id":"ce4bgn92rcd13ifvqbvg","pricing_plan_id":"cebpf4jnsgd1na2vs0mg"},{"bike_id":"43d62d04-2bbc-4fd5-96f2-472dd4f334d7","system_id":"levelo_inurba_marseille","lat":43.27601,"lon":5.36115,"is_reserved":false,"is_disabled":false,"rental_uris":{"android":"levelo://app?vid=43d62d04-2bbc-4fd5-96f2-472dd4f334d7","ios":"levelo://app?vid=43d62d04-2bbc-4fd5-96f2-472dd4f334d7"},"vehicle_type_id":"4","last_reported":1749668897,"current_range_meters":12800,"station_id":"ce4bgj92rcd13ifvqbe0","pricing_plan_id":"cebpf4jnsgd1na2vs0mg"},{"bike_id":"c3a82885-2b55-459d-82d6-8e2407740dab","system_id":"levelo_inurba_marseille","lat":43.24808,"lon":5.37455,"is_reserved":false,"is_disabled":false,"rental_uris":{"android":"levelo://app?vid=c3a82885-2b55-459d-82d6-8e2407740dab","ios":"levelo://app?vid=c3a82885-2b55-459d-82d6-8e2407740dab"},"vehicle_type_id":"4","last_reported":1749668897,"current_range_meters":13600,"station_id":"ce4bhgh2rcd13ifvqfb0","pricing_plan_id":"cebpf4jnsgd1na2vs0mg"},{"bike_id":"0ae4f5e6-b319-4c3b-901c-6610ac77ab83","system_id":"levelo_inurba_marseille","lat":43.28409,"lon":5.37509,"is_reserved":false,"is_disabled":false,"rental_uris":{"android":"levelo://app?vid=0ae4f5e6-b319-4c3b-901c-6610ac77ab83","ios":"levelo://app?vid=0ae4f5e6-b319-4c3b-901c-6610ac77ab83"},"vehicle_type_id":"4","last_reported":1749668897,"current_range_meters":13600,"station_id":"ce4bh412rcd13ifvqds0","pricing_plan_id":"cebpf4jnsgd1na2vs0mg"},{"bike_id":"9969b261-5380-4df0-848b-44c60f8c928a","system_id":"levelo_inurba_marseille","lat":43.2319,"lon":5.35557,"is_reserved":false,"is_disabled":false,"rental_uris":{"android":"levelo://app?vid=9969b261-5380-4df0-848b-44c60f8c928a","ios":"levelo://app?vid=9969b261-5380-4df0-848b-44c60f8c928a"},"vehicle_type_id":"4","last_reported":1749668897,"current_range_meters":13600,"station_id":"ce4bhu92rcd13ifvqi70","pricing_plan_id":"cebpf4jnsgd1na2vs0mg"},{"bike_id":"3c185c92-94a3-4320-8d51-37f7ee130e97","system_id":"levelo_inurba_marseille","lat":43.3171,"lon":5.43707,"is_reserved":false,"is_disabled":false,"rental_uris":{"android":"levelo://app?vid=3c185c92-94a3-4320-8d51-37f7ee130e97","ios":"levelo://app?vid=3c185c92-94a3-4320-8d51-37f7ee130e97"},"vehicle_type_id":"4","last_reported":1749668897,"current_range_meters":13600,"station_id":"ce4bhp92rcd13ifvqhcg","pricing_plan_id":"cebpf4jnsgd1na2vs0mg"},{"bike_id":"3b7c270e-f6c8-4e45-b23d-3fae18b8c22f","system_id":"levelo_inurba_marseille","lat":43.26215,"lon":5.37442,"is_reserved":false,"is_disabled":false,"rental_uris":{"android":"levelo://app?vid=3b7c270e-f6c8-4e45-b23d-3fae18b8c22f","ios":"levelo://app?vid=3b7c270e-f6c8-4e45-b23d-3fae18b8c22f"},"vehicle_type_id":"4","last_reported":1749668897,"current_range_meters":13600,"station_id":"ce4bhgp2rcd13ifvqfc0","pricing_plan_id":"cebpf4jnsgd1na2vs0mg"},{"bike_id":"01b53ea9-5963-4456-ac52-b335e6cee31c","system_id":"levelo_inurba_marseille","lat":43.28423,"lon":5.34997,"is_reserved":false,"is_disabled":false,"rental_uris":{"android":"levelo://app?vid=01b53ea9-5963-4456-ac52-b335e6cee31c","ios":"levelo://app?vid=01b53ea9-5963-4456-ac52-b335e6cee31c"},"vehicle_type_id":"4","last_reported":1749668897,"current_range_meters":13600,"station_id":"ce4bhbh2rcd13ifvqepg","pricing_plan_id":"cebpf4jnsgd1na2vs0mg"},{"bike_id":"a2421370-e442-436f-a98a-844d44299694","system_id":"levelo_inurba_marseille","lat":43.32377,"lon":5.36711,"is_reserved":false,"is_disabled":false,"rental_uris":{"android":"levelo://app?vid=a2421370-e442-436f-a98a-844d44299694","ios":"levelo://app?vid=a2421370-e442-436f-a98a-844d44299694"},"vehicle_type_id":"4","last_reported":1749668897,"current_range_meters":14000,"station_id":"","pricing_plan_id":"cebpf4jnsgd1na2vs0mg"},{"bike_id":"2de86a83-9776-454f-8070-e51f02be1efb","system_id":"levelo_inurba_marseille","lat":43.30425,"lon":5.38885,"is_reserved":false,"is_disabled":false,"rental_uris":{"android":"levelo://app?vid=2de86a83-9776-454f-8070-e51f02be1efb","ios":"levelo://app?vid=2de86a83-9776-454f-8070-e51f02be1efb"},"vehicle_type_id":"4","last_reported":1749668897,"current_range_meters":14000,"station_id":"ce4bgk12rcd13ifvqbi0","pricing_plan_id":"cebpf4jnsgd1na2vs0mg"},{"bike_id":"16339b3a-62bc-451a-b736-5899a6b63c6c","system_id":"levelo_inurba_marseille","lat":43.27372,"lon":5.36261,"is_reserved":false,"is_disabled":false,"rental_uris":{"android":"levelo://app?vid=16339b3a-62bc-451a-b736-5899a6b63c6c","ios":"levelo://app?vid=16339b3a-62bc-451a-b736-5899a6b63c6c"},"vehicle_type_id":"4","last_reported":1749668897,"current_range_meters":14000,"station_id":"ce4bhbh2rcd13ifvqeo0","pricing_plan_id":"cebpf4jnsgd1na2vs0mg"},{"bike_id":"3fc95cf1-0f78-4be6-8d94-502d800a4ed2","system_id":"levelo_inurba_marseille","lat":43.26032,"lon":5.37547,"is_reserved":false,"is_disabled":false,"rental_uris":{"android":"levelo://app?vid=3fc95cf1-0f78-4be6-8d94-502d800a4ed2","ios":"levelo://app?vid=3fc95cf1-0f78-4be6-8d94-502d800a4ed2"},"vehicle_type_id":"4","last_reported":1749668897,"current_range_meters":14000,"station_id":"ce4bhgh2rcd13ifvqfa0","pricing_plan_id":"cebpf4jnsgd1na2vs0mg"},{"bike_id":"e5ff82fd-cc37-4e1f-aade-050998fb0f61","system_id":"levelo_inurba_marseille","lat":43.26254,"lon":5.37097,"is_reserved":false,"is_disabled":false,"rental_uris":{"android":"levelo://app?vid=e5ff82fd-cc37-4e1f-aade-050998fb0f61","ios":"levelo://app?vid=e5ff82fd-cc37-4e1f-aade-050998fb0f61"},"vehicle_type_id":"4","last_reported":1749668897,"current_range_meters":14000,"station_id":"","pricing_plan_id":"cebpf4jnsgd1na2vs0mg"},{"bike_id":"b1aa8cb0-1da4-46e5-9f0c-ca7a315210f6","system_id":"levelo_inurba_marseille","lat":43.27888,"lon":5.37999,"is_reserved":false,"is_disabled":false,"rental_uris":{"android":"levelo://app?vid=b1aa8cb0-1da4-46e5-9f0c-ca7a315210f6","ios":"levelo://app?vid=b1aa8cb0-1da4-46e5-9f0c-ca7a315210f6"},"vehicle_type_id":"4","last_reported":1749668897,"current_range_meters":14000,"station_id":"ce4bhf92rcd13ifvqf50","pricing_plan_id":"cebpf4jnsgd1na2vs0mg"},{"bike_id":"ce0538e0-d5cc-48c2-825c-867898d3e019","system_id":"levelo_inurba_marseille","lat":43.26934,"lon":5.38919,"is_reserved":false,"is_disabled":false,"rental_uris":{"android":"levelo://app?vid=ce0538e0-d5cc-48c2-825c-867898d3e019","ios":"levelo://app?vid=ce0538e0-d5cc-48c2-825c-867898d3e019"},"vehicle_type_id":"4","last_reported":1749668897,"current_range_meters":14000,"station_id":"ce4bhhh2rcd13ifvqfl0","pricing_plan_id":"cebpf4jnsgd1na2vs0mg"},{"bike_id":"354a1076-00d7-46ec-830b-28e28e2cb143","system_id":"levelo_inurba_marseille","lat":43.29276,"lon":5.36839,"is_reserved":false,"is_disabled":true,"rental_uris":{"android":"levelo://app?vid=354a1076-00d7-46ec-830b-28e28e2cb143","ios":"levelo://app?vid=354a1076-00d7-46ec-830b-28e28e2cb143"},"vehicle_type_id":"4","last_reported":1749668897,"current_range_meters":14000,"station_id":"ce4bhbp2rcd13ifvqesg","pricing_plan_id":"cebpf4jnsgd1na2vs0mg"},{"bike_id":"130585ff-c51f-4ed4-bf85-74c774cd7297","system_id":"levelo_inurba_marseille","lat":43.279612,"lon":5.386972,"is_reserved":false,"is_disabled":true,"rental_uris":{"android":"levelo://app?vid=130585ff-c51f-4ed4-bf85-74c774cd7297","ios":"levelo://app?vid=130585ff-c51f-4ed4-bf85-74c774cd7297"},"vehicle_type_id":"4","last_reported":1749668897,"current_range_meters":14400,"station_id":"ce4bhg12rcd13ifvqf80","pricing_plan_id":"cebpf4jnsgd1na2vs0mg"},{"bike_id":"070958b4-8b1f-4e09-b282-6a07ebbf449f","system_id":"levelo_inurba_marseille","lat":43.28613,"lon":5.37056,"is_reserved":false,"is_disabled":false,"rental_uris":{"android":"levelo://app?vid=070958b4-8b1f-4e09-b282-6a07ebbf449f","ios":"levelo://app?vid=070958b4-8b1f-4e09-b282-6a07ebbf449f"},"vehicle_type_id":"4","last_reported":1749668897,"current_range_meters":14400,"station_id":"ce4bht12rcd13ifvqi60","pricing_plan_id":"cebpf4jnsgd1na2vs0mg"},{"bike_id":"32ccb90d-bbf1-4d6d-9eb8-b82c9a5af0b9","system_id":"levelo_inurba_marseille","lat":43.23964,"lon":5.36632,"is_reserved":false,"is_disabled":false,"rental_uris":{"android":"levelo://app?vid=32ccb90d-bbf1-4d6d-9eb8-b82c9a5af0b9","ios":"levelo://app?vid=32ccb90d-bbf1-4d6d-9eb8-b82c9a5af0b9"},"vehicle_type_id":"4","last_reported":1749668897,"current_range_meters":14400,"station_id":"ce4bhi12rcd13ifvqfp0","pricing_plan_id":"cebpf4jnsgd1na2vs0mg"},{"bike_id":"262baaba-c604-42c4-980c-32a063586131","system_id":"levelo_inurba_marseille","lat":43.29099,"lon":5.38117,"is_reserved":false,"is_disabled":false,"rental_uris":{"android":"levelo://app?vid=262baaba-c604-42c4-980c-32a063586131","ios":"levelo://app?vid=262baaba-c604-42c4-980c-32a063586131"},"vehicle_type_id":"4","last_reported":1749668897,"current_range_meters":10000,"station_id":"ce4bh512rcd13ifvqe2g","pricing_plan_id":"cebpf4jnsgd1na2vs0mg"},{"bike_id":"fdc15912-0855-41a1-b661-e4c26547e23b","system_id":"levelo_inurba_marseille","lat":43.28406,"lon":5.37524,"is_reserved":false,"is_disabled":false,"rental_uris":{"android":"levelo://app?vid=fdc15912-0855-41a1-b661-e4c26547e23b","ios":"levelo://app?vid=fdc15912-0855-41a1-b661-e4c26547e23b"},"vehicle_type_id":"4","last_reported":1749668897,"current_range_meters":14800,"station_id":"ce4bh412rcd13ifvqds0","pricing_plan_id":"cebpf4jnsgd1na2vs0mg"},{"bike_id":"e62a5337-3df6-4492-8b56-941b7a4cb369","system_id":"levelo_inurba_marseille","lat":43.24069,"lon":5.37762,"is_reserved":false,"is_disabled":false,"rental_uris":{"android":"levelo://app?vid=e62a5337-3df6-4492-8b56-941b7a4cb369","ios":"levelo://app?vid=e62a5337-3df6-4492-8b56-941b7a4cb369"},"vehicle_type_id":"4","last_reported":1749668897,"current_range_meters":14800,"station_id":"ce4bhnp2rcd13ifvqgvg","pricing_plan_id":"cebpf4jnsgd1na2vs0mg"},{"bike_id":"6dfd5595-654e-42ee-8e58-2a5c3df13ff8","system_id":"levelo_inurba_marseille","lat":43.30924,"lon":5.37272,"is_reserved":false,"is_disabled":false,"rental_uris":{"android":"levelo://app?vid=6dfd5595-654e-42ee-8e58-2a5c3df13ff8","ios":"levelo://app?vid=6dfd5595-654e-42ee-8e58-2a5c3df13ff8"},"vehicle_type_id":"4","last_reported":1749668897,"current_range_meters":14800,"station_id":"","pricing_plan_id":"cebpf4jnsgd1na2vs0mg"},{"bike_id":"0c256cbe-200d-49d3-a817-c104486d20f9","system_id":"levelo_inurba_marseille","lat":43.23192,"lon":5.35575,"is_reserved":false,"is_disabled":false,"rental_uris":{"android":"levelo://app?vid=0c256cbe-200d-49d3-a817-c104486d20f9","ios":"levelo://app?vid=0c256cbe-200d-49d3-a817-c104486d20f9"},"vehicle_type_id":"4","last_reported":1749668897,"current_range_meters":14800,"station_id":"ce4bhu92rcd13ifvqi70","pricing_plan_id":"cebpf4jnsgd1na2vs0mg"},{"bike_id":"54265529-c802-41ea-a434-8efe037aed4d","system_id":"levelo_inurba_marseille","lat":43.28426,"lon":5.34989,"is_reserved":false,"is_disabled":false,"rental_uris":{"android":"levelo://app?vid=54265529-c802-41ea-a434-8efe037aed4d","ios":"levelo://app?vid=54265529-c802-41ea-a434-8efe037aed4d"},"vehicle_type_id":"4","last_reported":1749668897,"current_range_meters":14800,"station_id":"ce4bhbh2rcd13ifvqepg","pricing_plan_id":"cebpf4jnsgd1na2vs0mg"},{"bike_id":"e70c17ea-cf15-4cd8-8ca9-87d54374f23f","system_id":"levelo_inurba_marseille","lat":43.286133,"lon":5.350969,"is_reserved":false,"is_disabled":false,"rental_uris":{"android":"levelo://app?vid=e70c17ea-cf15-4cd8-8ca9-87d54374f23f","ios":"levelo://app?vid=e70c17ea-cf15-4cd8-8ca9-87d54374f23f"},"vehicle_type_id":"4","last_reported":1749668897,"current_range_meters":14800,"station_id":"ce4bhch2rcd13ifvqeug","pricing_plan_id":"cebpf4jnsgd1na2vs0mg"},{"bike_id":"d5bb8688-7f52-46a5-aa1a-1dc34cf56cc1","system_id":"levelo_inurba_marseille","lat":43.276207,"lon":5.361062,"is_reserved":false,"is_disabled":false,"rental_uris":{"android":"levelo://app?vid=d5bb8688-7f52-46a5-aa1a-1dc34cf56cc1","ios":"levelo://app?vid=d5bb8688-7f52-46a5-aa1a-1dc34cf56cc1"},"vehicle_type_id":"4","last_reported":1749668897,"current_range_meters":14800,"station_id":"ce4bgj92rcd13ifvqbe0","pricing_plan_id":"cebpf4jnsgd1na2vs0mg"},{"bike_id":"c932d709-e52d-4f5c-ad73-17433f425168","system_id":"levelo_inurba_marseille","lat":43.296205,"lon":5.37165,"is_reserved":false,"is_disabled":false,"rental_uris":{"android":"levelo://app?vid=c932d709-e52d-4f5c-ad73-17433f425168","ios":"levelo://app?vid=c932d709-e52d-4f5c-ad73-17433f425168"},"vehicle_type_id":"4","last_reported":1749668897,"current_range_meters":14800,"station_id":"ce4bgnh2rcd13ifvqc0g","pricing_plan_id":"cebpf4jnsgd1na2vs0mg"},{"bike_id":"c36d22b3-7377-4ccc-bf83-f5ec41fda982","system_id":"levelo_inurba_marseille","lat":43.29263,"lon":5.38435,"is_reserved":false,"is_disabled":false,"rental_uris":{"android":"levelo://app?vid=c36d22b3-7377-4ccc-bf83-f5ec41fda982","ios":"levelo://app?vid=c36d22b3-7377-4ccc-bf83-f5ec41fda982"},"vehicle_type_id":"4","last_reported":1749668897,"current_range_meters":14800,"station_id":"ce4bh692rcd13ifvqea0","pricing_plan_id":"cebpf4jnsgd1na2vs0mg"},{"bike_id":"2bca9f39-18c1-4a69-99b5-00faafcfe87b","system_id":"levelo_inurba_marseille","lat":43.30923,"lon":5.40131,"is_reserved":false,"is_disabled":false,"rental_uris":{"android":"levelo://app?vid=2bca9f39-18c1-4a69-99b5-00faafcfe87b","ios":"levelo://app?vid=2bca9f39-18c1-4a69-99b5-00faafcfe87b"},"vehicle_type_id":"4","last_reported":1749668897,"current_range_meters":15200,"station_id":"ce4bgvp2rcd13ifvqct0","pricing_plan_id":"cebpf4jnsgd1na2vs0mg"},{"bike_id":"ab7e2b7b-48ad-472c-8271-32e6e63c167d","system_id":"levelo_inurba_marseille","lat":43.32041,"lon":5.41544,"is_reserved":false,"is_disabled":false,"rental_uris":{"android":"levelo://app?vid=ab7e2b7b-48ad-472c-8271-32e6e63c167d","ios":"levelo://app?vid=ab7e2b7b-48ad-472c-8271-32e6e63c167d"},"vehicle_type_id":"4","last_reported":1749668897,"current_range_meters":15200,"station_id":"ce4bhq92rcd13ifvqhkg","pricing_plan_id":"cebpf4jnsgd1na2vs0mg"},{"bike_id":"ad342517-d9a7-4ba8-90ee-40ad7bcbfa08","system_id":"levelo_inurba_marseille","lat":43.32482,"lon":5.3657,"is_reserved":false,"is_disabled":false,"rental_uris":{"android":"levelo://app?vid=ad342517-d9a7-4ba8-90ee-40ad7bcbfa08","ios":"levelo://app?vid=ad342517-d9a7-4ba8-90ee-40ad7bcbfa08"},"vehicle_type_id":"4","last_reported":1749668897,"current_range_meters":15200,"station_id":"ce4bhs12rcd13ifvqhvg","pricing_plan_id":"cebpf4jnsgd1na2vs0mg"},{"bike_id":"c1f50d61-672b-4319-8e90-1ccaf3dfe250","system_id":"levelo_inurba_marseille","lat":43.31331,"lon":5.39692,"is_reserved":false,"is_disabled":false,"rental_uris":{"android":"levelo://app?vid=c1f50d61-672b-4319-8e90-1ccaf3dfe250","ios":"levelo://app?vid=c1f50d61-672b-4319-8e90-1ccaf3dfe250"},"vehicle_type_id":"4","last_reported":1749668897,"current_range_meters":16000,"station_id":"ce4bgvp2rcd13ifvqcu0","pricing_plan_id":"cebpf4jnsgd1na2vs0mg"},{"bike_id":"b0ad9193-808e-4359-9c20-84d81e92d4fd","system_id":"levelo_inurba_marseille","lat":43.29032,"lon":5.38642,"is_reserved":false,"is_disabled":false,"rental_uris":{"android":"levelo://app?vid=b0ad9193-808e-4359-9c20-84d81e92d4fd","ios":"levelo://app?vid=b0ad9193-808e-4359-9c20-84d81e92d4fd"},"vehicle_type_id":"4","last_reported":1749668897,"current_range_meters":16000,"station_id":"ce4bh4p2rcd13ifvqe0g","pricing_plan_id":"cebpf4jnsgd1na2vs0mg"},{"bike_id":"6b096574-7a86-431e-adb1-6c86a9fb9dd0","system_id":"levelo_inurba_marseille","lat":43.269415,"lon":5.40291,"is_reserved":false,"is_disabled":true,"rental_uris":{"android":"levelo://app?vid=6b096574-7a86-431e-adb1-6c86a9fb9dd0","ios":"levelo://app?vid=6b096574-7a86-431e-adb1-6c86a9fb9dd0"},"vehicle_type_id":"4","last_reported":1749668897,"current_range_meters":16000,"station_id":"cjm6bp8fraef2m0cb0m0","pricing_plan_id":"cebpf4jnsgd1na2vs0mg"},{"bike_id":"473ca4da-1636-40de-a33c-8b3d26d01b3f","system_id":"levelo_inurba_marseille","lat":43.28622,"lon":5.35115,"is_reserved":false,"is_disabled":false,"rental_uris":{"android":"levelo://app?vid=473ca4da-1636-40de-a33c-8b3d26d01b3f","ios":"levelo://app?vid=473ca4da-1636-40de-a33c-8b3d26d01b3f"},"vehicle_type_id":"4","last_reported":1749668897,"current_range_meters":16000,"station_id":"ce4bhch2rcd13ifvqeug","pricing_plan_id":"cebpf4jnsgd1na2vs0mg"},{"bike_id":"7f6c80d6-b015-4145-8e00-338178446921","system_id":"levelo_inurba_marseille","lat":43.25093,"lon":5.39512,"is_reserved":false,"is_disabled":true,"rental_uris":{"android":"levelo://app?vid=7f6c80d6-b015-4145-8e00-338178446921","ios":"levelo://app?vid=7f6c80d6-b015-4145-8e00-338178446921"},"vehicle_type_id":"4","last_reported":1749668897,"current_range_meters":16000,"station_id":"ce4bhm12rcd13ifvqgkg","pricing_plan_id":"cebpf4jnsgd1na2vs0mg"},{"bike_id":"421aa46e-06fc-48b5-acbc-a4f5abd0c2b8","system_id":"levelo_inurba_marseille","lat":43.29528,"lon":5.39402,"is_reserved":false,"is_disabled":false,"rental_uris":{"android":"levelo://app?vid=421aa46e-06fc-48b5-acbc-a4f5abd0c2b8","ios":"levelo://app?vid=421aa46e-06fc-48b5-acbc-a4f5abd0c2b8"},"vehicle_type_id":"4","last_reported":1749668897,"current_range_meters":16000,"station_id":"ce4bh292rcd13ifvqdf0","pricing_plan_id":"cebpf4jnsgd1na2vs0mg"},{"bike_id":"57d0a009-5064-47fc-8fa2-e0625a37d604","system_id":"levelo_inurba_marseille","lat":43.31484,"lon":5.37314,"is_reserved":false,"is_disabled":false,"rental_uris":{"android":"levelo://app?vid=57d0a009-5064-47fc-8fa2-e0625a37d604","ios":"levelo://app?vid=57d0a009-5064-47fc-8fa2-e0625a37d604"},"vehicle_type_id":"4","last_reported":1749668897,"current_range_meters":16000,"station_id":"ce4bgt12rcd13ifvqcd0","pricing_plan_id":"cebpf4jnsgd1na2vs0mg"},{"bike_id":"9b8fa3c5-9f24-4be7-bffb-51d8c0c0662c","system_id":"levelo_inurba_marseille","lat":43.24545,"lon":5.39523,"is_reserved":false,"is_disabled":false,"rental_uris":{"android":"levelo://app?vid=9b8fa3c5-9f24-4be7-bffb-51d8c0c0662c","ios":"levelo://app?vid=9b8fa3c5-9f24-4be7-bffb-51d8c0c0662c"},"vehicle_type_id":"4","last_reported":1749668897,"current_range_meters":16000,"station_id":"ce4bhlp2rcd13ifvqgjg","pricing_plan_id":"cebpf4jnsgd1na2vs0mg"},{"bike_id":"babba853-c036-477c-9b81-4b1d677ba4b2","system_id":"levelo_inurba_marseille","lat":43.28929,"lon":5.38394,"is_reserved":false,"is_disabled":false,"rental_uris":{"android":"levelo://app?vid=babba853-c036-477c-9b81-4b1d677ba4b2","ios":"levelo://app?vid=babba853-c036-477c-9b81-4b1d677ba4b2"},"vehicle_type_id":"4","last_reported":1749668897,"current_range_meters":16000,"station_id":"ce4bh612rcd13ifvqe6g","pricing_plan_id":"cebpf4jnsgd1na2vs0mg"},{"bike_id":"c8acc72b-5ece-4e56-907d-33af210c0702","system_id":"levelo_inurba_marseille","lat":43.26208,"lon":5.37039,"is_reserved":false,"is_disabled":false,"rental_uris":{"android":"levelo://app?vid=c8acc72b-5ece-4e56-907d-33af210c0702","ios":"levelo://app?vid=c8acc72b-5ece-4e56-907d-33af210c0702"},"vehicle_type_id":"4","last_reported":1749668897,"current_range_meters":16000,"station_id":"","pricing_plan_id":"cebpf4jnsgd1na2vs0mg"},{"bike_id":"696e539f-83d1-40de-8541-0ba49913f965","system_id":"levelo_inurba_marseille","lat":43.29609,"lon":5.38114,"is_reserved":false,"is_disabled":false,"rental_uris":{"android":"levelo://app?vid=696e539f-83d1-40de-8541-0ba49913f965","ios":"levelo://app?vid=696e539f-83d1-40de-8541-0ba49913f965"},"vehicle_type_id":"4","last_reported":1749668897,"current_range_meters":16000,"station_id":"ce4bgl12rcd13ifvqbo0","pricing_plan_id":"cebpf4jnsgd1na2vs0mg"},{"bike_id":"048f2f2b-8e86-4fe8-80fa-0a30dafb1ed2","system_id":"levelo_inurba_marseille","lat":43.298596,"lon":5.362928,"is_reserved":false,"is_disabled":false,"rental_uris":{"android":"levelo://app?vid=048f2f2b-8e86-4fe8-80fa-0a30dafb1ed2","ios":"levelo://app?vid=048f2f2b-8e86-4fe8-80fa-0a30dafb1ed2"},"vehicle_type_id":"4","last_reported":1749668897,"current_range_meters":16400,"station_id":"","pricing_plan_id":"cebpf4jnsgd1na2vs0mg"},{"bike_id":"afd7c744-c063-415e-abc8-82568e138369","system_id":"levelo_inurba_marseille","lat":43.29012,"lon":5.38631,"is_reserved":false,"is_disabled":false,"rental_uris":{"android":"levelo://app?vid=afd7c744-c063-415e-abc8-82568e138369","ios":"levelo://app?vid=afd7c744-c063-415e-abc8-82568e138369"},"vehicle_type_id":"4","last_reported":1749668897,"current_range_meters":16400,"station_id":"ce4bh4p2rcd13ifvqe0g","pricing_plan_id":"cebpf4jnsgd1na2vs0mg"},{"bike_id":"6a5a7c02-27fc-49e6-814f-c82310ca8afa","system_id":"levelo_inurba_marseille","lat":43.29258,"lon":5.38443,"is_reserved":false,"is_disabled":false,"rental_uris":{"android":"levelo://app?vid=6a5a7c02-27fc-49e6-814f-c82310ca8afa","ios":"levelo://app?vid=6a5a7c02-27fc-49e6-814f-c82310ca8afa"},"vehicle_type_id":"4","last_reported":1749668897,"current_range_meters":16400,"station_id":"ce4bh692rcd13ifvqea0","pricing_plan_id":"cebpf4jnsgd1na2vs0mg"},{"bike_id":"684fc0e7-8176-4ffc-9fc3-8f2442f25315","system_id":"levelo_inurba_marseille","lat":43.27365,"lon":5.3625,"is_reserved":false,"is_disabled":false,"rental_uris":{"android":"levelo://app?vid=684fc0e7-8176-4ffc-9fc3-8f2442f25315","ios":"levelo://app?vid=684fc0e7-8176-4ffc-9fc3-8f2442f25315"},"vehicle_type_id":"4","last_reported":1749668897,"current_range_meters":16400,"station_id":"ce4bhbh2rcd13ifvqeo0","pricing_plan_id":"cebpf4jnsgd1na2vs0mg"},{"bike_id":"743245d4-5457-49b9-9efc-d95c90d69b8e","system_id":"levelo_inurba_marseille","lat":43.314873,"lon":5.373081,"is_reserved":false,"is_disabled":false,"rental_uris":{"android":"levelo://app?vid=743245d4-5457-49b9-9efc-d95c90d69b8e","ios":"levelo://app?vid=743245d4-5457-49b9-9efc-d95c90d69b8e"},"vehicle_type_id":"4","last_reported":1749668897,"current_range_meters":16400,"station_id":"ce4bhip2rcd13ifvqft0","pricing_plan_id":"cebpf4jnsgd1na2vs0mg"},{"bike_id":"f359f98e-93c9-4118-94ef-1a2f2766aa54","system_id":"levelo_inurba_marseille","lat":43.292,"lon":5.35803,"is_reserved":false,"is_disabled":false,"rental_uris":{"android":"levelo://app?vid=f359f98e-93c9-4118-94ef-1a2f2766aa54","ios":"levelo://app?vid=f359f98e-93c9-4118-94ef-1a2f2766aa54"},"vehicle_type_id":"4","last_reported":1749668897,"current_range_meters":16400,"station_id":"ce4bhb12rcd13ifvqel0","pricing_plan_id":"cebpf4jnsgd1na2vs0mg"},{"bike_id":"165ecccf-321b-45ee-abfd-553d9801aac0","system_id":"levelo_inurba_marseille","lat":43.29044,"lon":5.35591,"is_reserved":false,"is_disabled":false,"rental_uris":{"android":"levelo://app?vid=165ecccf-321b-45ee-abfd-553d9801aac0","ios":"levelo://app?vid=165ecccf-321b-45ee-abfd-553d9801aac0"},"vehicle_type_id":"4","last_reported":1749668897,"current_range_meters":16400,"station_id":"ce4bhb92rcd13ifvqen0","pricing_plan_id":"cebpf4jnsgd1na2vs0mg"},{"bike_id":"752c30e5-13b6-480d-bd96-671e5b15d4db","system_id":"levelo_inurba_marseille","lat":43.29793,"lon":5.39347,"is_reserved":false,"is_disabled":false,"rental_uris":{"android":"levelo://app?vid=752c30e5-13b6-480d-bd96-671e5b15d4db","ios":"levelo://app?vid=752c30e5-13b6-480d-bd96-671e5b15d4db"},"vehicle_type_id":"4","last_reported":1749668897,"current_range_meters":16400,"station_id":"chh1huq6cuj3fo74tm60","pricing_plan_id":"cebpf4jnsgd1na2vs0mg"},{"bike_id":"5f31f3ba-2ab5-4885-884b-7d4a5413e800","system_id":"levelo_inurba_marseille","lat":43.29249,"lon":5.38438,"is_reserved":false,"is_disabled":false,"rental_uris":{"android":"levelo://app?vid=5f31f3ba-2ab5-4885-884b-7d4a5413e800","ios":"levelo://app?vid=5f31f3ba-2ab5-4885-884b-7d4a5413e800"},"vehicle_type_id":"4","last_reported":1749668897,"current_range_meters":16400,"station_id":"ce4bh692rcd13ifvqea0","pricing_plan_id":"cebpf4jnsgd1na2vs0mg"},{"bike_id":"92d53ca1-03c3-4309-8325-40b63541cbab","system_id":"levelo_inurba_marseille","lat":43.25092,"lon":5.39521,"is_reserved":false,"is_disabled":true,"rental_uris":{"android":"levelo://app?vid=92d53ca1-03c3-4309-8325-40b63541cbab","ios":"levelo://app?vid=92d53ca1-03c3-4309-8325-40b63541cbab"},"vehicle_type_id":"4","last_reported":1749668897,"current_range_meters":16400,"station_id":"ce4bhm12rcd13ifvqgkg","pricing_plan_id":"cebpf4jnsgd1na2vs0mg"},{"bike_id":"c490f832-7a80-4feb-ae6f-a0f394b36395","system_id":"levelo_inurba_marseille","lat":43.26578,"lon":5.39023,"is_reserved":false,"is_disabled":false,"rental_uris":{"android":"levelo://app?vid=c490f832-7a80-4feb-ae6f-a0f394b36395","ios":"levelo://app?vid=c490f832-7a80-4feb-ae6f-a0f394b36395"},"vehicle_type_id":"4","last_reported":1749668897,"current_range_meters":16800,"station_id":"ce4bhe12rcd13ifvqf30","pricing_plan_id":"cebpf4jnsgd1na2vs0mg"},{"bike_id":"c0bd4251-d527-48a7-9378-e4e80c1c274f","system_id":"levelo_inurba_marseille","lat":43.318223,"lon":5.373733,"is_reserved":false,"is_disabled":false,"rental_uris":{"android":"levelo://app?vid=c0bd4251-d527-48a7-9378-e4e80c1c274f","ios":"levelo://app?vid=c0bd4251-d527-48a7-9378-e4e80c1c274f"},"vehicle_type_id":"4","last_reported":1749668897,"current_range_meters":16800,"station_id":"","pricing_plan_id":"cebpf4jnsgd1na2vs0mg"},{"bike_id":"0c8fe695-2d54-45c0-a4d3-9c66d0bea4aa","system_id":"levelo_inurba_marseille","lat":43.28434,"lon":5.34972,"is_reserved":false,"is_disabled":false,"rental_uris":{"android":"levelo://app?vid=0c8fe695-2d54-45c0-a4d3-9c66d0bea4aa","ios":"levelo://app?vid=0c8fe695-2d54-45c0-a4d3-9c66d0bea4aa"},"vehicle_type_id":"4","last_reported":1749668897,"current_range_meters":16800,"station_id":"ce4bhbh2rcd13ifvqepg","pricing_plan_id":"cebpf4jnsgd1na2vs0mg"},{"bike_id":"55b4abdc-da07-40fc-bb3d-c51f8cb033fc","system_id":"levelo_inurba_marseille","lat":43.29783,"lon":5.39353,"is_reserved":false,"is_disabled":false,"rental_uris":{"android":"levelo://app?vid=55b4abdc-da07-40fc-bb3d-c51f8cb033fc","ios":"levelo://app?vid=55b4abdc-da07-40fc-bb3d-c51f8cb033fc"},"vehicle_type_id":"4","last_reported":1749668897,"current_range_meters":16800,"station_id":"chh1huq6cuj3fo74tm60","pricing_plan_id":"cebpf4jnsgd1na2vs0mg"},{"bike_id":"c887d6c2-3132-4ba9-94a5-3fd697b52b4f","system_id":"levelo_inurba_marseille","lat":43.27365,"lon":5.3626,"is_reserved":false,"is_disabled":false,"rental_uris":{"android":"levelo://app?vid=c887d6c2-3132-4ba9-94a5-3fd697b52b4f","ios":"levelo://app?vid=c887d6c2-3132-4ba9-94a5-3fd697b52b4f"},"vehicle_type_id":"4","last_reported":1749668897,"current_range_meters":16800,"station_id":"ce4bhbh2rcd13ifvqeo0","pricing_plan_id":"cebpf4jnsgd1na2vs0mg"},{"bike_id":"8a8da4f9-230b-470b-9402-856b0f3a5ec1","system_id":"levelo_inurba_marseille","lat":43.26553,"lon":5.37288,"is_reserved":false,"is_disabled":false,"rental_uris":{"android":"levelo://app?vid=8a8da4f9-230b-470b-9402-856b0f3a5ec1","ios":"levelo://app?vid=8a8da4f9-230b-470b-9402-856b0f3a5ec1"},"vehicle_type_id":"4","last_reported":1749668897,"current_range_meters":16800,"station_id":"ce4bhg12rcd13ifvqf70","pricing_plan_id":"cebpf4jnsgd1na2vs0mg"},{"bike_id":"501fe5cc-ec9f-4031-8e12-9c9a87dfd25d","system_id":"levelo_inurba_marseille","lat":43.31774,"lon":5.40579,"is_reserved":false,"is_disabled":false,"rental_uris":{"android":"levelo://app?vid=501fe5cc-ec9f-4031-8e12-9c9a87dfd25d","ios":"levelo://app?vid=501fe5cc-ec9f-4031-8e12-9c9a87dfd25d"},"vehicle_type_id":"4","last_reported":1749668897,"current_range_meters":16800,"station_id":"","pricing_plan_id":"cebpf4jnsgd1na2vs0mg"},{"bike_id":"34d138c7-e3a8-42a0-9cf7-3f3c860a279a","system_id":"levelo_inurba_marseille","lat":43.291989,"lon":5.358033,"is_reserved":false,"is_disabled":false,"rental_uris":{"android":"levelo://app?vid=34d138c7-e3a8-42a0-9cf7-3f3c860a279a","ios":"levelo://app?vid=34d138c7-e3a8-42a0-9cf7-3f3c860a279a"},"vehicle_type_id":"4","last_reported":1749668897,"current_range_meters":16800,"station_id":"ce4bhb12rcd13ifvqel0","pricing_plan_id":"cebpf4jnsgd1na2vs0mg"},{"bike_id":"51c9c3d1-050f-47d1-8726-c1814cd19d79","system_id":"levelo_inurba_marseille","lat":43.31242,"lon":5.38922,"is_reserved":false,"is_disabled":false,"rental_uris":{"android":"levelo://app?vid=51c9c3d1-050f-47d1-8726-c1814cd19d79","ios":"levelo://app?vid=51c9c3d1-050f-47d1-8726-c1814cd19d79"},"vehicle_type_id":"4","last_reported":1749668897,"current_range_meters":16800,"station_id":"","pricing_plan_id":"cebpf4jnsgd1na2vs0mg"},{"bike_id":"39000b67-ab38-448e-b399-576cb3a70398","system_id":"levelo_inurba_marseille","lat":43.2738,"lon":5.36275,"is_reserved":false,"is_disabled":false,"rental_uris":{"android":"levelo://app?vid=39000b67-ab38-448e-b399-576cb3a70398","ios":"levelo://app?vid=39000b67-ab38-448e-b399-576cb3a70398"},"vehicle_type_id":"4","last_reported":1749668897,"current_range_meters":16800,"station_id":"ce4bhbh2rcd13ifvqeo0","pricing_plan_id":"cebpf4jnsgd1na2vs0mg"},{"bike_id":"682b1228-bbf3-47e4-a483-af01518e10f2","system_id":"levelo_inurba_marseille","lat":43.2738,"lon":5.36235,"is_reserved":false,"is_disabled":false,"rental_uris":{"android":"levelo://app?vid=682b1228-bbf3-47e4-a483-af01518e10f2","ios":"levelo://app?vid=682b1228-bbf3-47e4-a483-af01518e10f2"},"vehicle_type_id":"4","last_reported":1749668897,"current_range_meters":17200,"station_id":"ce4bhbh2rcd13ifvqeo0","pricing_plan_id":"cebpf4jnsgd1na2vs0mg"},{"bike_id":"61f31a78-2cf9-49f2-b3c0-9f72c68242ab","system_id":"levelo_inurba_marseille","lat":43.28607,"lon":5.37066,"is_reserved":false,"is_disabled":false,"rental_uris":{"android":"levelo://app?vid=61f31a78-2cf9-49f2-b3c0-9f72c68242ab","ios":"levelo://app?vid=61f31a78-2cf9-49f2-b3c0-9f72c68242ab"},"vehicle_type_id":"4","last_reported":1749668897,"current_range_meters":17200,"station_id":"ce4bht12rcd13ifvqi60","pricing_plan_id":"cebpf4jnsgd1na2vs0mg"},{"bike_id":"d665cf93-d005-4a69-ade5-22d2ab25dd5a","system_id":"levelo_inurba_marseille","lat":43.25104,"lon":5.40297,"is_reserved":false,"is_disabled":false,"rental_uris":{"android":"levelo://app?vid=d665cf93-d005-4a69-ade5-22d2ab25dd5a","ios":"levelo://app?vid=d665cf93-d005-4a69-ade5-22d2ab25dd5a"},"vehicle_type_id":"4","last_reported":1749668897,"current_range_meters":17200,"station_id":"ce4bhlh2rcd13ifvqgig","pricing_plan_id":"cebpf4jnsgd1na2vs0mg"},{"bike_id":"e0249f4b-8d8b-4dc7-a224-9ea697947c37","system_id":"levelo_inurba_marseille","lat":43.31715,"lon":5.42397,"is_reserved":false,"is_disabled":false,"rental_uris":{"android":"levelo://app?vid=e0249f4b-8d8b-4dc7-a224-9ea697947c37","ios":"levelo://app?vid=e0249f4b-8d8b-4dc7-a224-9ea697947c37"},"vehicle_type_id":"4","last_reported":1749668897,"current_range_meters":17200,"station_id":"ce4bhp92rcd13ifvqhbg","pricing_plan_id":"cebpf4jnsgd1na2vs0mg"},{"bike_id":"ce81f804-a274-484f-a641-28706f036e77","system_id":"levelo_inurba_marseille","lat":43.31917,"lon":5.40764,"is_reserved":false,"is_disabled":false,"rental_uris":{"android":"levelo://app?vid=ce81f804-a274-484f-a641-28706f036e77","ios":"levelo://app?vid=ce81f804-a274-484f-a641-28706f036e77"},"vehicle_type_id":"4","last_reported":1749668897,"current_range_meters":17200,"station_id":"ce4bhq12rcd13ifvqhig","pricing_plan_id":"cebpf4jnsgd1na2vs0mg"},{"bike_id":"be41fbd3-4530-44e6-8582-ac832cb5cfc7","system_id":"levelo_inurba_marseille","lat":43.26559,"lon":5.37294,"is_reserved":false,"is_disabled":false,"rental_uris":{"android":"levelo://app?vid=be41fbd3-4530-44e6-8582-ac832cb5cfc7","ios":"levelo://app?vid=be41fbd3-4530-44e6-8582-ac832cb5cfc7"},"vehicle_type_id":"4","last_reported":1749668897,"current_range_meters":17200,"station_id":"ce4bhg12rcd13ifvqf70","pricing_plan_id":"cebpf4jnsgd1na2vs0mg"},{"bike_id":"fe4c3d29-3033-4d5f-b14c-696c7411fba8","system_id":"levelo_inurba_marseille","lat":43.2842,"lon":5.34981,"is_reserved":false,"is_disabled":false,"rental_uris":{"android":"levelo://app?vid=fe4c3d29-3033-4d5f-b14c-696c7411fba8","ios":"levelo://app?vid=fe4c3d29-3033-4d5f-b14c-696c7411fba8"},"vehicle_type_id":"4","last_reported":1749668897,"current_range_meters":17200,"station_id":"ce4bhbh2rcd13ifvqepg","pricing_plan_id":"cebpf4jnsgd1na2vs0mg"},{"bike_id":"10d685d8-b11c-42dc-91ae-a20021b01a2a","system_id":"levelo_inurba_marseille","lat":43.29024,"lon":5.38659,"is_reserved":false,"is_disabled":false,"rental_uris":{"android":"levelo://app?vid=10d685d8-b11c-42dc-91ae-a20021b01a2a","ios":"levelo://app?vid=10d685d8-b11c-42dc-91ae-a20021b01a2a"},"vehicle_type_id":"4","last_reported":1749668897,"current_range_meters":17200,"station_id":"ce4bh4p2rcd13ifvqe0g","pricing_plan_id":"cebpf4jnsgd1na2vs0mg"},{"bike_id":"10745b11-ed08-4724-8667-2c5b78a22988","system_id":"levelo_inurba_marseille","lat":43.30419,"lon":5.39737,"is_reserved":false,"is_disabled":false,"rental_uris":{"android":"levelo://app?vid=10745b11-ed08-4724-8667-2c5b78a22988","ios":"levelo://app?vid=10745b11-ed08-4724-8667-2c5b78a22988"},"vehicle_type_id":"4","last_reported":1749668897,"current_range_meters":17200,"station_id":"ce4bh092rcd13ifvqd20","pricing_plan_id":"cebpf4jnsgd1na2vs0mg"},{"bike_id":"e5f0a915-0832-4ab7-88e7-4d435753ec7f","system_id":"levelo_inurba_marseille","lat":43.29419,"lon":5.38609,"is_reserved":false,"is_disabled":false,"rental_uris":{"android":"levelo://app?vid=e5f0a915-0832-4ab7-88e7-4d435753ec7f","ios":"levelo://app?vid=e5f0a915-0832-4ab7-88e7-4d435753ec7f"},"vehicle_type_id":"4","last_reported":1749668897,"current_range_meters":17200,"station_id":"ce4bh2h2rcd13ifvqdh0","pricing_plan_id":"cebpf4jnsgd1na2vs0mg"},{"bike_id":"ba5c58a5-45e4-46f1-b47d-7d585303f993","system_id":"levelo_inurba_marseille","lat":43.28629,"lon":5.35096,"is_reserved":false,"is_disabled":false,"rental_uris":{"android":"levelo://app?vid=ba5c58a5-45e4-46f1-b47d-7d585303f993","ios":"levelo://app?vid=ba5c58a5-45e4-46f1-b47d-7d585303f993"},"vehicle_type_id":"4","last_reported":1749668897,"current_range_meters":17200,"station_id":"ce4bhch2rcd13ifvqeug","pricing_plan_id":"cebpf4jnsgd1na2vs0mg"},{"bike_id":"f28bbdf3-4f06-4504-a339-b5a280c9a508","system_id":"levelo_inurba_marseille","lat":43.28282,"lon":5.35067,"is_reserved":false,"is_disabled":false,"rental_uris":{"android":"levelo://app?vid=f28bbdf3-4f06-4504-a339-b5a280c9a508","ios":"levelo://app?vid=f28bbdf3-4f06-4504-a339-b5a280c9a508"},"vehicle_type_id":"4","last_reported":1749668897,"current_range_meters":17200,"station_id":"ce4bhbp2rcd13ifvqerg","pricing_plan_id":"cebpf4jnsgd1na2vs0mg"},{"bike_id":"f3beaaa1-30c2-4041-9ecb-ef15f30ab874","system_id":"levelo_inurba_marseille","lat":43.29697,"lon":5.3659,"is_reserved":false,"is_disabled":false,"rental_uris":{"android":"levelo://app?vid=f3beaaa1-30c2-4041-9ecb-ef15f30ab874","ios":"levelo://app?vid=f3beaaa1-30c2-4041-9ecb-ef15f30ab874"},"vehicle_type_id":"4","last_reported":1749668897,"current_range_meters":17200,"station_id":"ce4bgn12rcd13ifvqbt0","pricing_plan_id":"cebpf4jnsgd1na2vs0mg"},{"bike_id":"8ba15619-aca4-4541-bba1-4aecdf870dee","system_id":"levelo_inurba_marseille","lat":43.28429,"lon":5.3498,"is_reserved":false,"is_disabled":false,"rental_uris":{"android":"levelo://app?vid=8ba15619-aca4-4541-bba1-4aecdf870dee","ios":"levelo://app?vid=8ba15619-aca4-4541-bba1-4aecdf870dee"},"vehicle_type_id":"4","last_reported":1749668897,"current_range_meters":17200,"station_id":"ce4bhbh2rcd13ifvqepg","pricing_plan_id":"cebpf4jnsgd1na2vs0mg"},{"bike_id":"0008a37e-3dbb-4755-a0a7-6a81853a62ed","system_id":"levelo_inurba_marseille","lat":43.3035,"lon":5.41874,"is_reserved":false,"is_disabled":false,"rental_uris":{"android":"levelo://app?vid=0008a37e-3dbb-4755-a0a7-6a81853a62ed","ios":"levelo://app?vid=0008a37e-3dbb-4755-a0a7-6a81853a62ed"},"vehicle_type_id":"4","last_reported":1749668897,"current_range_meters":16800,"station_id":"ce4bhop2rcd13ifvqh7g","pricing_plan_id":"cebpf4jnsgd1na2vs0mg"},{"bike_id":"baf5dd91-c3f4-46b6-af41-45a25abf9e41","system_id":"levelo_inurba_marseille","lat":43.264038,"lon":5.396031,"is_reserved":false,"is_disabled":false,"rental_uris":{"android":"levelo://app?vid=baf5dd91-c3f4-46b6-af41-45a25abf9e41","ios":"levelo://app?vid=baf5dd91-c3f4-46b6-af41-45a25abf9e41"},"vehicle_type_id":"4","last_reported":1749668897,"current_range_meters":17600,"station_id":"ce4bhlh2rcd13ifvqgig","pricing_plan_id":"cebpf4jnsgd1na2vs0mg"},{"bike_id":"9946dc27-0dd5-4a7b-b3e6-3fa45c5b292c","system_id":"levelo_inurba_marseille","lat":43.3236,"lon":5.38889,"is_reserved":false,"is_disabled":false,"rental_uris":{"android":"levelo://app?vid=9946dc27-0dd5-4a7b-b3e6-3fa45c5b292c","ios":"levelo://app?vid=9946dc27-0dd5-4a7b-b3e6-3fa45c5b292c"},"vehicle_type_id":"4","last_reported":1749668897,"current_range_meters":17600,"station_id":"ce4bhqp2rcd13ifvqhog","pricing_plan_id":"cebpf4jnsgd1na2vs0mg"},{"bike_id":"c81f5e32-10fd-4050-9062-9c375e4cabf0","system_id":"levelo_inurba_marseille","lat":43.29586,"lon":5.36943,"is_reserved":false,"is_disabled":false,"rental_uris":{"android":"levelo://app?vid=c81f5e32-10fd-4050-9062-9c375e4cabf0","ios":"levelo://app?vid=c81f5e32-10fd-4050-9062-9c375e4cabf0"},"vehicle_type_id":"4","last_reported":1749668897,"current_range_meters":17600,"station_id":"","pricing_plan_id":"cebpf4jnsgd1na2vs0mg"},{"bike_id":"4233a165-29d2-405a-ab27-afef550244c5","system_id":"levelo_inurba_marseille","lat":43.24683,"lon":5.38154,"is_reserved":false,"is_disabled":true,"rental_uris":{"android":"levelo://app?vid=4233a165-29d2-405a-ab27-afef550244c5","ios":"levelo://app?vid=4233a165-29d2-405a-ab27-afef550244c5"},"vehicle_type_id":"4","last_reported":1749668897,"current_range_meters":17600,"station_id":"ce4bhih2rcd13ifvqfr0","pricing_plan_id":"cebpf4jnsgd1na2vs0mg"},{"bike_id":"17e40f5d-a4c8-487a-928b-034683f3d868","system_id":"levelo_inurba_marseille","lat":43.305184,"lon":5.391022,"is_reserved":false,"is_disabled":false,"rental_uris":{"android":"levelo://app?vid=17e40f5d-a4c8-487a-928b-034683f3d868","ios":"levelo://app?vid=17e40f5d-a4c8-487a-928b-034683f3d868"},"vehicle_type_id":"4","last_reported":1749668897,"current_range_meters":17600,"station_id":"ce4bgk12rcd13ifvqbi0","pricing_plan_id":"cebpf4jnsgd1na2vs0mg"},{"bike_id":"13ce4e67-6523-4fa8-808c-b692634c5c34","system_id":"levelo_inurba_marseille","lat":43.30585,"lon":5.39353,"is_reserved":false,"is_disabled":false,"rental_uris":{"android":"levelo://app?vid=13ce4e67-6523-4fa8-808c-b692634c5c34","ios":"levelo://app?vid=13ce4e67-6523-4fa8-808c-b692634c5c34"},"vehicle_type_id":"4","last_reported":1749668897,"current_range_meters":17600,"station_id":"ce4bh0p2rcd13ifvqd80","pricing_plan_id":"cebpf4jnsgd1na2vs0mg"},{"bike_id":"67d65897-6f98-4975-8d49-582dd90f3ba0","system_id":"levelo_inurba_marseille","lat":43.27372,"lon":5.36259,"is_reserved":false,"is_disabled":false,"rental_uris":{"android":"levelo://app?vid=67d65897-6f98-4975-8d49-582dd90f3ba0","ios":"levelo://app?vid=67d65897-6f98-4975-8d49-582dd90f3ba0"},"vehicle_type_id":"4","last_reported":1749668897,"current_range_meters":17600,"station_id":"ce4bhbh2rcd13ifvqeo0","pricing_plan_id":"cebpf4jnsgd1na2vs0mg"},{"bike_id":"99d836df-cb19-4ee9-9b4b-1fa87d358c27","system_id":"levelo_inurba_marseille","lat":43.24804,"lon":5.37456,"is_reserved":false,"is_disabled":false,"rental_uris":{"android":"levelo://app?vid=99d836df-cb19-4ee9-9b4b-1fa87d358c27","ios":"levelo://app?vid=99d836df-cb19-4ee9-9b4b-1fa87d358c27"},"vehicle_type_id":"4","last_reported":1749668897,"current_range_meters":17600,"station_id":"ce4bhgh2rcd13ifvqfb0","pricing_plan_id":"cebpf4jnsgd1na2vs0mg"},{"bike_id":"f19a27ec-8736-49cc-acba-fd4c0d8466b7","system_id":"levelo_inurba_marseille","lat":43.29197,"lon":5.35805,"is_reserved":false,"is_disabled":false,"rental_uris":{"android":"levelo://app?vid=f19a27ec-8736-49cc-acba-fd4c0d8466b7","ios":"levelo://app?vid=f19a27ec-8736-49cc-acba-fd4c0d8466b7"},"vehicle_type_id":"4","last_reported":1749668897,"current_range_meters":17600,"station_id":"ce4bhb12rcd13ifvqel0","pricing_plan_id":"cebpf4jnsgd1na2vs0mg"},{"bike_id":"d09dc515-277a-4646-8816-f10cec5d4457","system_id":"levelo_inurba_marseille","lat":43.309147,"lon":5.401653,"is_reserved":false,"is_disabled":true,"rental_uris":{"android":"levelo://app?vid=d09dc515-277a-4646-8816-f10cec5d4457","ios":"levelo://app?vid=d09dc515-277a-4646-8816-f10cec5d4457"},"vehicle_type_id":"4","last_reported":1749668897,"current_range_meters":18000,"station_id":"ce4bgvp2rcd13ifvqct0","pricing_plan_id":"cebpf4jnsgd1na2vs0mg"},{"bike_id":"f00ea828-ad2f-40ab-9dd1-d99b3b4e5021","system_id":"levelo_inurba_marseille","lat":43.29006,"lon":5.35607,"is_reserved":false,"is_disabled":false,"rental_uris":{"android":"levelo://app?vid=f00ea828-ad2f-40ab-9dd1-d99b3b4e5021","ios":"levelo://app?vid=f00ea828-ad2f-40ab-9dd1-d99b3b4e5021"},"vehicle_type_id":"4","last_reported":1749668897,"current_range_meters":18000,"station_id":"ce4bhb92rcd13ifvqen0","pricing_plan_id":"cebpf4jnsgd1na2vs0mg"},{"bike_id":"eaf980a7-5950-4548-a311-4e6a0d26f360","system_id":"levelo_inurba_marseille","lat":43.27943,"lon":5.41054,"is_reserved":false,"is_disabled":false,"rental_uris":{"android":"levelo://app?vid=eaf980a7-5950-4548-a311-4e6a0d26f360","ios":"levelo://app?vid=eaf980a7-5950-4548-a311-4e6a0d26f360"},"vehicle_type_id":"4","last_reported":1749668897,"current_range_meters":18000,"station_id":"ce4bhnp2rcd13ifvqh0g","pricing_plan_id":"cebpf4jnsgd1na2vs0mg"},{"bike_id":"1a8eae12-3d3f-43e7-a3f2-a67cc36bf51a","system_id":"levelo_inurba_marseille","lat":43.2417,"lon":5.36386,"is_reserved":false,"is_disabled":false,"rental_uris":{"android":"levelo://app?vid=1a8eae12-3d3f-43e7-a3f2-a67cc36bf51a","ios":"levelo://app?vid=1a8eae12-3d3f-43e7-a3f2-a67cc36bf51a"},"vehicle_type_id":"4","last_reported":1749668897,"current_range_meters":18000,"station_id":"cpo36qri1sfpv3e86is0","pricing_plan_id":"cebpf4jnsgd1na2vs0mg"},{"bike_id":"7003b93c-725d-412e-9127-fbade718cbc3","system_id":"levelo_inurba_marseille","lat":43.21203,"lon":5.35092,"is_reserved":false,"is_disabled":false,"rental_uris":{"android":"levelo://app?vid=7003b93c-725d-412e-9127-fbade718cbc3","ios":"levelo://app?vid=7003b93c-725d-412e-9127-fbade718cbc3"},"vehicle_type_id":"4","last_reported":1749668897,"current_range_meters":18000,"station_id":"st_cvj6sg6p6f1abm77japg","pricing_plan_id":"cebpf4jnsgd1na2vs0mg"},{"bike_id":"2a7344b5-7126-4cc1-bbd1-a9bb0e44b7bd","system_id":"levelo_inurba_marseille","lat":43.23062,"lon":5.3554,"is_reserved":false,"is_disabled":false,"rental_uris":{"android":"levelo://app?vid=2a7344b5-7126-4cc1-bbd1-a9bb0e44b7bd","ios":"levelo://app?vid=2a7344b5-7126-4cc1-bbd1-a9bb0e44b7bd"},"vehicle_type_id":"4","last_reported":1749668897,"current_range_meters":18000,"station_id":"cpo3342slgdg3j2ifvpg","pricing_plan_id":"cebpf4jnsgd1na2vs0mg"},{"bike_id":"45cb9171-bb7e-418e-bf45-5916b7d21e5e","system_id":"levelo_inurba_marseille","lat":43.32105,"lon":5.36771,"is_reserved":false,"is_disabled":false,"rental_uris":{"android":"levelo://app?vid=45cb9171-bb7e-418e-bf45-5916b7d21e5e","ios":"levelo://app?vid=45cb9171-bb7e-418e-bf45-5916b7d21e5e"},