{"last_updated":1774424743,"ttl":60,"version":"2.2","data":{"bikes":[{"bike_id":"a14354a7-9442-42cd-9393-e190b3a57ba5","system_id":"levelo_inurba_marseille","lat":43.27083,"lon":5.42268,"is_reserved":false,"is_disabled":false,"rental_uris":{"android":"levelo://app?vid=a14354a7-9442-42cd-9393-e190b3a57ba5","ios":"levelo://app?vid=a14354a7-9442-42cd-9393-e190b3a57ba5"},"vehicle_type_id":"4","last_reported":1774424743,"current_range_meters":400,"station_id":"ce4bhk92rcd13ifvqgb0","pricing_plan_id":"cebpf4jnsgd1na2vs0mg"},{"bike_id":"e032ab58-6cd1-4dde-af1f-11967a9af0ed","system_id":"levelo_inurba_marseille","lat":43.24646,"lon":5.38176,"is_reserved":false,"is_disabled":false,"rental_uris":{"android":"levelo://app?vid=e032ab58-6cd1-4dde-af1f-11967a9af0ed","ios":"levelo://app?vid=e032ab58-6cd1-4dde-af1f-11967a9af0ed"},"vehicle_type_id":"4","last_reported":1774424743,"current_range_meters":1600,"station_id":"ce4bhih2rcd13ifvqfr0","pricing_plan_id":"cebpf4jnsgd1na2vs0mg"},{"bike_id":"29a577df-c925-4ad4-8796-1af1c698b4d5","system_id":"levelo_inurba_marseille","lat":43.27944,"lon":5.41055,"is_reserved":false,"is_disabled":true,"rental_uris":{"android":"levelo://app?vid=29a577df-c925-4ad4-8796-1af1c698b4d5","ios":"levelo://app?vid=29a577df-c925-4ad4-8796-1af1c698b4d5"},"vehicle_type_id":"4","last_reported":1774424743,"current_range_meters":2000,"station_id":"ce4bhnp2rcd13ifvqh0g","pricing_plan_id":"cebpf4jnsgd1na2vs0mg"},{"bike_id":"6e6161fe-edfa-4833-a177-c1358d249809","system_id":"levelo_inurba_marseille","lat":43.31193,"lon":5.387,"is_reserved":false,"is_disabled":true,"rental_uris":{"android":"levelo://app?vid=6e6161fe-edfa-4833-a177-c1358d249809","ios":"levelo://app?vid=6e6161fe-edfa-4833-a177-c1358d249809"},"vehicle_type_id":"4","last_reported":1774424743,"current_range_meters":2800,"station_id":"ce4bgv12rcd13ifvqcp0","pricing_plan_id":"cebpf4jnsgd1na2vs0mg"},{"bike_id":"b66a2e2d-206b-4ad0-bc12-5793add35a82","system_id":"levelo_inurba_marseille","lat":43.28075,"lon":5.4048,"is_reserved":false,"is_disabled":false,"rental_uris":{"android":"levelo://app?vid=b66a2e2d-206b-4ad0-bc12-5793add35a82","ios":"levelo://app?vid=b66a2e2d-206b-4ad0-bc12-5793add35a82"},"vehicle_type_id":"4","last_reported":1774424743,"current_range_meters":2800,"station_id":"","pricing_plan_id":"cebpf4jnsgd1na2vs0mg"},{"bike_id":"3944b5c6-deae-4b1a-b1a2-16db255fdc37","system_id":"levelo_inurba_marseille","lat":43.27991,"lon":5.41653,"is_reserved":false,"is_disabled":false,"rental_uris":{"android":"levelo://app?vid=3944b5c6-deae-4b1a-b1a2-16db255fdc37","ios":"levelo://app?vid=3944b5c6-deae-4b1a-b1a2-16db255fdc37"},"vehicle_type_id":"4","last_reported":1774424743,"current_range_meters":2800,"station_id":"ce4bho12rcd13ifvqh1g","pricing_plan_id":"cebpf4jnsgd1na2vs0mg"},{"bike_id":"afe7cd6b-a9b6-4906-9fa8-e73c34dccd43","system_id":"levelo_inurba_marseille","lat":43.28967,"lon":5.3783,"is_reserved":false,"is_disabled":false,"rental_uris":{"android":"levelo://app?vid=afe7cd6b-a9b6-4906-9fa8-e73c34dccd43","ios":"levelo://app?vid=afe7cd6b-a9b6-4906-9fa8-e73c34dccd43"},"vehicle_type_id":"4","last_reported":1774424743,"current_range_meters":2800,"station_id":"","pricing_plan_id":"cebpf4jnsgd1na2vs0mg"},{"bike_id":"d81e5ff2-9903-4d90-aca1-27507ed2e2ff","system_id":"levelo_inurba_marseille","lat":43.27663,"lon":5.38928,"is_reserved":false,"is_disabled":false,"rental_uris":{"android":"levelo://app?vid=d81e5ff2-9903-4d90-aca1-27507ed2e2ff","ios":"levelo://app?vid=d81e5ff2-9903-4d90-aca1-27507ed2e2ff"},"vehicle_type_id":"4","last_reported":1774424743,"current_range_meters":2800,"station_id":"ce4bhi12rcd13ifvqfo0","pricing_plan_id":"cebpf4jnsgd1na2vs0mg"},{"bike_id":"4ce98637-072f-4197-bd69-11f207a88eab","system_id":"levelo_inurba_marseille","lat":43.28496,"lon":5.47279,"is_reserved":false,"is_disabled":false,"rental_uris":{"android":"levelo://app?vid=4ce98637-072f-4197-bd69-11f207a88eab","ios":"levelo://app?vid=4ce98637-072f-4197-bd69-11f207a88eab"},"vehicle_type_id":"4","last_reported":1774424743,"current_range_meters":2800,"station_id":"","pricing_plan_id":"cebpf4jnsgd1na2vs0mg"},{"bike_id":"fde7c990-ea71-4125-9b7f-4cda0f7e1677","system_id":"levelo_inurba_marseille","lat":43.2379,"lon":5.36628,"is_reserved":false,"is_disabled":false,"rental_uris":{"android":"levelo://app?vid=fde7c990-ea71-4125-9b7f-4cda0f7e1677","ios":"levelo://app?vid=fde7c990-ea71-4125-9b7f-4cda0f7e1677"},"vehicle_type_id":"4","last_reported":1774424743,"current_range_meters":2800,"station_id":"st_d3nk18o9ro0c73en2l3g","pricing_plan_id":"cebpf4jnsgd1na2vs0mg"},{"bike_id":"afaed1ce-d9f0-4990-8274-d34093e4a465","system_id":"levelo_inurba_marseille","lat":43.32045,"lon":5.41567,"is_reserved":false,"is_disabled":false,"rental_uris":{"android":"levelo://app?vid=afaed1ce-d9f0-4990-8274-d34093e4a465","ios":"levelo://app?vid=afaed1ce-d9f0-4990-8274-d34093e4a465"},"vehicle_type_id":"4","last_reported":1774424743,"current_range_meters":2800,"station_id":"ce4bhq92rcd13ifvqhkg","pricing_plan_id":"cebpf4jnsgd1na2vs0mg"},{"bike_id":"997804bf-9980-49c4-a7db-61b80875a8f2","system_id":"levelo_inurba_marseille","lat":43.30966,"lon":5.39033,"is_reserved":false,"is_disabled":false,"rental_uris":{"android":"levelo://app?vid=997804bf-9980-49c4-a7db-61b80875a8f2","ios":"levelo://app?vid=997804bf-9980-49c4-a7db-61b80875a8f2"},"vehicle_type_id":"4","last_reported":1774424743,"current_range_meters":2800,"station_id":"ce4bgup2rcd13ifvqco0","pricing_plan_id":"cebpf4jnsgd1na2vs0mg"},{"bike_id":"8d90d884-3c68-440f-a794-3ca4a0d61dd0","system_id":"levelo_inurba_marseille","lat":43.29222,"lon":5.36075,"is_reserved":false,"is_disabled":false,"rental_uris":{"android":"levelo://app?vid=8d90d884-3c68-440f-a794-3ca4a0d61dd0","ios":"levelo://app?vid=8d90d884-3c68-440f-a794-3ca4a0d61dd0"},"vehicle_type_id":"4","last_reported":1774424743,"current_range_meters":2800,"station_id":"ce4bhbh2rcd13ifvqeqg","pricing_plan_id":"cebpf4jnsgd1na2vs0mg"},{"bike_id":"ac8e86da-55a1-458d-b594-72eeab74387c","system_id":"levelo_inurba_marseille","lat":43.2558,"lon":5.38216,"is_reserved":false,"is_disabled":false,"rental_uris":{"android":"levelo://app?vid=ac8e86da-55a1-458d-b594-72eeab74387c","ios":"levelo://app?vid=ac8e86da-55a1-458d-b594-72eeab74387c"},"vehicle_type_id":"4","last_reported":1774424743,"current_range_meters":2800,"station_id":"ce4bhih2rcd13ifvqfs0","pricing_plan_id":"cebpf4jnsgd1na2vs0mg"},{"bike_id":"3c913227-2897-49aa-99f8-e27f1ca98294","system_id":"levelo_inurba_marseille","lat":43.24081,"lon":5.37788,"is_reserved":false,"is_disabled":false,"rental_uris":{"android":"levelo://app?vid=3c913227-2897-49aa-99f8-e27f1ca98294","ios":"levelo://app?vid=3c913227-2897-49aa-99f8-e27f1ca98294"},"vehicle_type_id":"4","last_reported":1774424743,"current_range_meters":3200,"station_id":"ce4bhnp2rcd13ifvqgvg","pricing_plan_id":"cebpf4jnsgd1na2vs0mg"},{"bike_id":"4382fefe-9d6a-4e31-b368-6a94fb3585d0","system_id":"levelo_inurba_marseille","lat":43.30653,"lon":5.4011,"is_reserved":false,"is_disabled":false,"rental_uris":{"android":"levelo://app?vid=4382fefe-9d6a-4e31-b368-6a94fb3585d0","ios":"levelo://app?vid=4382fefe-9d6a-4e31-b368-6a94fb3585d0"},"vehicle_type_id":"4","last_reported":1774424743,"current_range_meters":3200,"station_id":"ce4bh112rcd13ifvqda0","pricing_plan_id":"cebpf4jnsgd1na2vs0mg"},{"bike_id":"6e3056fe-a460-4530-857d-3dbf6ac396fa","system_id":"levelo_inurba_marseille","lat":43.30901,"lon":5.36849,"is_reserved":false,"is_disabled":false,"rental_uris":{"android":"levelo://app?vid=6e3056fe-a460-4530-857d-3dbf6ac396fa","ios":"levelo://app?vid=6e3056fe-a460-4530-857d-3dbf6ac396fa"},"vehicle_type_id":"4","last_reported":1774424743,"current_range_meters":3200,"station_id":"ce4bgn92rcd13ifvqbvg","pricing_plan_id":"cebpf4jnsgd1na2vs0mg"},{"bike_id":"62b4b24a-25c2-413c-a9e9-7d8f1f6621f7","system_id":"levelo_inurba_marseille","lat":43.24465,"lon":5.42538,"is_reserved":false,"is_disabled":false,"rental_uris":{"android":"levelo://app?vid=62b4b24a-25c2-413c-a9e9-7d8f1f6621f7","ios":"levelo://app?vid=62b4b24a-25c2-413c-a9e9-7d8f1f6621f7"},"vehicle_type_id":"4","last_reported":1774424743,"current_range_meters":3200,"station_id":"st_d4a3vfp97mjs738cd8kg","pricing_plan_id":"cebpf4jnsgd1na2vs0mg"},{"bike_id":"53592c29-8f86-4173-ba31-d5487941982f","system_id":"levelo_inurba_marseille","lat":43.29192,"lon":5.39342,"is_reserved":false,"is_disabled":false,"rental_uris":{"android":"levelo://app?vid=53592c29-8f86-4173-ba31-d5487941982f","ios":"levelo://app?vid=53592c29-8f86-4173-ba31-d5487941982f"},"vehicle_type_id":"4","last_reported":1774424743,"current_range_meters":3200,"station_id":"ce4bh192rcd13ifvqdd0","pricing_plan_id":"cebpf4jnsgd1na2vs0mg"},{"bike_id":"1640993b-d278-49ed-aac8-4524836b0a26","system_id":"levelo_inurba_marseille","lat":43.28216,"lon":5.39069,"is_reserved":false,"is_disabled":true,"rental_uris":{"android":"levelo://app?vid=1640993b-d278-49ed-aac8-4524836b0a26","ios":"levelo://app?vid=1640993b-d278-49ed-aac8-4524836b0a26"},"vehicle_type_id":"4","last_reported":1774424743,"current_range_meters":3200,"station_id":"ce4bhn92rcd13ifvqgsg","pricing_plan_id":"cebpf4jnsgd1na2vs0mg"},{"bike_id":"e9b07658-a8f0-465c-b976-645cd41e5970","system_id":"levelo_inurba_marseille","lat":43.27159,"lon":5.41024,"is_reserved":false,"is_disabled":false,"rental_uris":{"android":"levelo://app?vid=e9b07658-a8f0-465c-b976-645cd41e5970","ios":"levelo://app?vid=e9b07658-a8f0-465c-b976-645cd41e5970"},"vehicle_type_id":"4","last_reported":1774424743,"current_range_meters":3200,"station_id":"ce4bhl12rcd13ifvqgf0","pricing_plan_id":"cebpf4jnsgd1na2vs0mg"},{"bike_id":"d315d4d4-78e9-45de-8981-a7b0a1f81c91","system_id":"levelo_inurba_marseille","lat":43.2749,"lon":5.41606,"is_reserved":false,"is_disabled":false,"rental_uris":{"android":"levelo://app?vid=d315d4d4-78e9-45de-8981-a7b0a1f81c91","ios":"levelo://app?vid=d315d4d4-78e9-45de-8981-a7b0a1f81c91"},"vehicle_type_id":"4","last_reported":1774424743,"current_range_meters":3200,"station_id":"st_d6im8g6chgec73a5pndg","pricing_plan_id":"cebpf4jnsgd1na2vs0mg"},{"bike_id":"002d012f-ff44-4aa8-92df-adf3c07b6c3e","system_id":"levelo_inurba_marseille","lat":43.26293,"lon":5.38864,"is_reserved":false,"is_disabled":false,"rental_uris":{"android":"levelo://app?vid=002d012f-ff44-4aa8-92df-adf3c07b6c3e","ios":"levelo://app?vid=002d012f-ff44-4aa8-92df-adf3c07b6c3e"},"vehicle_type_id":"4","last_reported":1774424743,"current_range_meters":3200,"station_id":"","pricing_plan_id":"cebpf4jnsgd1na2vs0mg"},{"bike_id":"0e2f4137-e82a-401c-945f-6a1c7c098239","system_id":"levelo_inurba_marseille","lat":43.29618,"lon":5.37142,"is_reserved":false,"is_disabled":false,"rental_uris":{"android":"levelo://app?vid=0e2f4137-e82a-401c-945f-6a1c7c098239","ios":"levelo://app?vid=0e2f4137-e82a-401c-945f-6a1c7c098239"},"vehicle_type_id":"4","last_reported":1774424743,"current_range_meters":3600,"station_id":"ce4bgnh2rcd13ifvqc0g","pricing_plan_id":"cebpf4jnsgd1na2vs0mg"},{"bike_id":"edc16db6-0042-4215-9aaf-108e0300da68","system_id":"levelo_inurba_marseille","lat":43.28936,"lon":5.3663,"is_reserved":false,"is_disabled":true,"rental_uris":{"android":"levelo://app?vid=edc16db6-0042-4215-9aaf-108e0300da68","ios":"levelo://app?vid=edc16db6-0042-4215-9aaf-108e0300da68"},"vehicle_type_id":"4","last_reported":1774424743,"current_range_meters":3600,"station_id":"ce4bhap2rcd13ifvqek0","pricing_plan_id":"cebpf4jnsgd1na2vs0mg"},{"bike_id":"b75036ac-d81d-4bfd-a9c8-a051a6ff39fe","system_id":"levelo_inurba_marseille","lat":43.28529,"lon":5.44126,"is_reserved":false,"is_disabled":false,"rental_uris":{"android":"levelo://app?vid=b75036ac-d81d-4bfd-a9c8-a051a6ff39fe","ios":"levelo://app?vid=b75036ac-d81d-4bfd-a9c8-a051a6ff39fe"},"vehicle_type_id":"4","last_reported":1774424743,"current_range_meters":3600,"station_id":"st_d3j3df2ikq2c7380ej80","pricing_plan_id":"cebpf4jnsgd1na2vs0mg"},{"bike_id":"f9566020-4e3b-404b-a21f-da597dff6354","system_id":"levelo_inurba_marseille","lat":43.23888,"lon":5.37465,"is_reserved":false,"is_disabled":false,"rental_uris":{"android":"levelo://app?vid=f9566020-4e3b-404b-a21f-da597dff6354","ios":"levelo://app?vid=f9566020-4e3b-404b-a21f-da597dff6354"},"vehicle_type_id":"4","last_reported":1774424743,"current_range_meters":3600,"station_id":"st_d6sm7csbq4hs73f8fpjg","pricing_plan_id":"cebpf4jnsgd1na2vs0mg"},{"bike_id":"13d0d72d-0450-4885-8fdb-198925d1c3b0","system_id":"levelo_inurba_marseille","lat":43.337444,"lon":5.374475,"is_reserved":false,"is_disabled":true,"rental_uris":{"android":"levelo://app?vid=13d0d72d-0450-4885-8fdb-198925d1c3b0","ios":"levelo://app?vid=13d0d72d-0450-4885-8fdb-198925d1c3b0"},"vehicle_type_id":"4","last_reported":1774424743,"current_range_meters":3600,"station_id":"","pricing_plan_id":"cebpf4jnsgd1na2vs0mg"},{"bike_id":"f910acab-e234-4475-91c9-ec3fea6d1bf3","system_id":"levelo_inurba_marseille","lat":43.29901,"lon":5.4368,"is_reserved":false,"is_disabled":false,"rental_uris":{"android":"levelo://app?vid=f910acab-e234-4475-91c9-ec3fea6d1bf3","ios":"levelo://app?vid=f910acab-e234-4475-91c9-ec3fea6d1bf3"},"vehicle_type_id":"4","last_reported":1774424743,"current_range_meters":3600,"station_id":"ce4bhpp2rcd13ifvqhfg","pricing_plan_id":"cebpf4jnsgd1na2vs0mg"},{"bike_id":"5ce1e7fc-4e44-4cbe-afce-45a223a91e76","system_id":"levelo_inurba_marseille","lat":43.240648,"lon":5.37766,"is_reserved":false,"is_disabled":false,"rental_uris":{"android":"levelo://app?vid=5ce1e7fc-4e44-4cbe-afce-45a223a91e76","ios":"levelo://app?vid=5ce1e7fc-4e44-4cbe-afce-45a223a91e76"},"vehicle_type_id":"4","last_reported":1774424743,"current_range_meters":3600,"station_id":"ce4bhnp2rcd13ifvqgvg","pricing_plan_id":"cebpf4jnsgd1na2vs0mg"},{"bike_id":"0b786319-6d9f-4d1c-890a-5150198e272a","system_id":"levelo_inurba_marseille","lat":43.28459,"lon":5.48405,"is_reserved":false,"is_disabled":false,"rental_uris":{"android":"levelo://app?vid=0b786319-6d9f-4d1c-890a-5150198e272a","ios":"levelo://app?vid=0b786319-6d9f-4d1c-890a-5150198e272a"},"vehicle_type_id":"4","last_reported":1774424743,"current_range_meters":3600,"station_id":"st_d3svhcjqgbts73a3dn0g","pricing_plan_id":"cebpf4jnsgd1na2vs0mg"},{"bike_id":"5cff8034-4c2b-46d8-a63b-5de6b6d29d3f","system_id":"levelo_inurba_marseille","lat":43.29786,"lon":5.39361,"is_reserved":false,"is_disabled":true,"rental_uris":{"android":"levelo://app?vid=5cff8034-4c2b-46d8-a63b-5de6b6d29d3f","ios":"levelo://app?vid=5cff8034-4c2b-46d8-a63b-5de6b6d29d3f"},"vehicle_type_id":"4","last_reported":1774424743,"current_range_meters":3600,"station_id":"chh1huq6cuj3fo74tm60","pricing_plan_id":"cebpf4jnsgd1na2vs0mg"},{"bike_id":"c0339bad-3a71-412f-99d4-15aa57e709e3","system_id":"levelo_inurba_marseille","lat":43.33,"lon":5.39043,"is_reserved":false,"is_disabled":false,"rental_uris":{"android":"levelo://app?vid=c0339bad-3a71-412f-99d4-15aa57e709e3","ios":"levelo://app?vid=c0339bad-3a71-412f-99d4-15aa57e709e3"},"vehicle_type_id":"4","last_reported":1774424743,"current_range_meters":3600,"station_id":"ce4bhr92rcd13ifvqhrg","pricing_plan_id":"cebpf4jnsgd1na2vs0mg"},{"bike_id":"cc22a8f4-2814-4bdf-8aeb-4568da8dd072","system_id":"levelo_inurba_marseille","lat":43.24066,"lon":5.37749,"is_reserved":false,"is_disabled":false,"rental_uris":{"android":"levelo://app?vid=cc22a8f4-2814-4bdf-8aeb-4568da8dd072","ios":"levelo://app?vid=cc22a8f4-2814-4bdf-8aeb-4568da8dd072"},"vehicle_type_id":"4","last_reported":1774424743,"current_range_meters":3600,"station_id":"ce4bhnp2rcd13ifvqgvg","pricing_plan_id":"cebpf4jnsgd1na2vs0mg"},{"bike_id":"a9b0556e-e257-4c86-baec-32c674fd9499","system_id":"levelo_inurba_marseille","lat":43.30205,"lon":5.39445,"is_reserved":false,"is_disabled":false,"rental_uris":{"android":"levelo://app?vid=a9b0556e-e257-4c86-baec-32c674fd9499","ios":"levelo://app?vid=a9b0556e-e257-4c86-baec-32c674fd9499"},"vehicle_type_id":"4","last_reported":1774424743,"current_range_meters":4000,"station_id":"ce4bh0p2rcd13ifvqd70","pricing_plan_id":"cebpf4jnsgd1na2vs0mg"},{"bike_id":"8460bd3c-9f4c-499e-8829-7998c07c4faa","system_id":"levelo_inurba_marseille","lat":43.26683,"lon":5.38275,"is_reserved":false,"is_disabled":false,"rental_uris":{"android":"levelo://app?vid=8460bd3c-9f4c-499e-8829-7998c07c4faa","ios":"levelo://app?vid=8460bd3c-9f4c-499e-8829-7998c07c4faa"},"vehicle_type_id":"4","last_reported":1774424743,"current_range_meters":4000,"station_id":"ce4bhg92rcd13ifvqf90","pricing_plan_id":"cebpf4jnsgd1na2vs0mg"},{"bike_id":"8e331d09-f777-47e4-a327-164db2e188a9","system_id":"levelo_inurba_marseille","lat":43.26568,"lon":5.40325,"is_reserved":false,"is_disabled":true,"rental_uris":{"android":"levelo://app?vid=8e331d09-f777-47e4-a327-164db2e188a9","ios":"levelo://app?vid=8e331d09-f777-47e4-a327-164db2e188a9"},"vehicle_type_id":"4","last_reported":1774424743,"current_range_meters":4000,"station_id":"ce4bhmp2rcd13ifvqgng","pricing_plan_id":"cebpf4jnsgd1na2vs0mg"},{"bike_id":"a738e86d-0de3-47ef-a6ab-51f555655c3f","system_id":"levelo_inurba_marseille","lat":43.31111,"lon":5.37766,"is_reserved":false,"is_disabled":false,"rental_uris":{"android":"levelo://app?vid=a738e86d-0de3-47ef-a6ab-51f555655c3f","ios":"levelo://app?vid=a738e86d-0de3-47ef-a6ab-51f555655c3f"},"vehicle_type_id":"4","last_reported":1774424743,"current_range_meters":4000,"station_id":"ce4bgt92rcd13ifvqcg0","pricing_plan_id":"cebpf4jnsgd1na2vs0mg"},{"bike_id":"b572e5c4-4bd9-43ef-805a-b38c2e7d24bf","system_id":"levelo_inurba_marseille","lat":43.30251,"lon":5.40067,"is_reserved":false,"is_disabled":false,"rental_uris":{"android":"levelo://app?vid=b572e5c4-4bd9-43ef-805a-b38c2e7d24bf","ios":"levelo://app?vid=b572e5c4-4bd9-43ef-805a-b38c2e7d24bf"},"vehicle_type_id":"4","last_reported":1774424743,"current_range_meters":4000,"station_id":"ce4bgvh2rcd13ifvqcs0","pricing_plan_id":"cebpf4jnsgd1na2vs0mg"},{"bike_id":"8f3165ca-8806-4892-8bb2-03d94441531c","system_id":"levelo_inurba_marseille","lat":43.23901,"lon":5.37456,"is_reserved":false,"is_disabled":false,"rental_uris":{"android":"levelo://app?vid=8f3165ca-8806-4892-8bb2-03d94441531c","ios":"levelo://app?vid=8f3165ca-8806-4892-8bb2-03d94441531c"},"vehicle_type_id":"4","last_reported":1774424743,"current_range_meters":4000,"station_id":"st_d6sm7csbq4hs73f8fpjg","pricing_plan_id":"cebpf4jnsgd1na2vs0mg"},{"bike_id":"9723db1c-04c4-43c6-bee8-ac289f2e0c55","system_id":"levelo_inurba_marseille","lat":43.28597,"lon":5.37064,"is_reserved":false,"is_disabled":false,"rental_uris":{"android":"levelo://app?vid=9723db1c-04c4-43c6-bee8-ac289f2e0c55","ios":"levelo://app?vid=9723db1c-04c4-43c6-bee8-ac289f2e0c55"},"vehicle_type_id":"4","last_reported":1774424743,"current_range_meters":4000,"station_id":"ce4bht12rcd13ifvqi60","pricing_plan_id":"cebpf4jnsgd1na2vs0mg"},{"bike_id":"f35a9644-f102-427c-8b00-579a35988db3","system_id":"levelo_inurba_marseille","lat":43.21207,"lon":5.35073,"is_reserved":false,"is_disabled":false,"rental_uris":{"android":"levelo://app?vid=f35a9644-f102-427c-8b00-579a35988db3","ios":"levelo://app?vid=f35a9644-f102-427c-8b00-579a35988db3"},"vehicle_type_id":"4","last_reported":1774424743,"current_range_meters":4000,"station_id":"st_cvj6sg6p6f1abm77japg","pricing_plan_id":"cebpf4jnsgd1na2vs0mg"},{"bike_id":"7e03e45c-d69c-4371-8267-aa26cde43729","system_id":"levelo_inurba_marseille","lat":43.25583,"lon":5.38221,"is_reserved":false,"is_disabled":true,"rental_uris":{"android":"levelo://app?vid=7e03e45c-d69c-4371-8267-aa26cde43729","ios":"levelo://app?vid=7e03e45c-d69c-4371-8267-aa26cde43729"},"vehicle_type_id":"4","last_reported":1774424743,"current_range_meters":4000,"station_id":"ce4bhih2rcd13ifvqfs0","pricing_plan_id":"cebpf4jnsgd1na2vs0mg"},{"bike_id":"14cef419-b329-47f3-aa78-cea0bd07ed3a","system_id":"levelo_inurba_marseille","lat":43.29053,"lon":5.39966,"is_reserved":false,"is_disabled":false,"rental_uris":{"android":"levelo://app?vid=14cef419-b329-47f3-aa78-cea0bd07ed3a","ios":"levelo://app?vid=14cef419-b329-47f3-aa78-cea0bd07ed3a"},"vehicle_type_id":"4","last_reported":1774424743,"current_range_meters":4000,"station_id":"ce4bh392rcd13ifvqdm0","pricing_plan_id":"cebpf4jnsgd1na2vs0mg"},{"bike_id":"b1ceaa1d-f7d5-4f1b-b74b-3e9a13f9efeb","system_id":"levelo_inurba_marseille","lat":43.2396,"lon":5.36637,"is_reserved":false,"is_disabled":false,"rental_uris":{"android":"levelo://app?vid=b1ceaa1d-f7d5-4f1b-b74b-3e9a13f9efeb","ios":"levelo://app?vid=b1ceaa1d-f7d5-4f1b-b74b-3e9a13f9efeb"},"vehicle_type_id":"4","last_reported":1774424743,"current_range_meters":4000,"station_id":"ce4bhi12rcd13ifvqfp0","pricing_plan_id":"cebpf4jnsgd1na2vs0mg"},{"bike_id":"a14d2edd-85c5-4116-8db5-355e3fb2ddbe","system_id":"levelo_inurba_marseille","lat":43.33557,"lon":5.37474,"is_reserved":false,"is_disabled":false,"rental_uris":{"android":"levelo://app?vid=a14d2edd-85c5-4116-8db5-355e3fb2ddbe","ios":"levelo://app?vid=a14d2edd-85c5-4116-8db5-355e3fb2ddbe"},"vehicle_type_id":"4","last_reported":1774424743,"current_range_meters":4400,"station_id":"st_d46tts09ee8s73dlu43g","pricing_plan_id":"cebpf4jnsgd1na2vs0mg"},{"bike_id":"bb74360c-d446-4f1e-ad14-e56a8345ab7d","system_id":"levelo_inurba_marseille","lat":43.29046,"lon":5.39927,"is_reserved":false,"is_disabled":false,"rental_uris":{"android":"levelo://app?vid=bb74360c-d446-4f1e-ad14-e56a8345ab7d","ios":"levelo://app?vid=bb74360c-d446-4f1e-ad14-e56a8345ab7d"},"vehicle_type_id":"4","last_reported":1774424743,"current_range_meters":4400,"station_id":"ce4bh392rcd13ifvqdm0","pricing_plan_id":"cebpf4jnsgd1na2vs0mg"},{"bike_id":"066cfe81-714d-4a28-ba8d-e13baf5bbb1b","system_id":"levelo_inurba_marseille","lat":43.27266,"lon":5.41147,"is_reserved":false,"is_disabled":false,"rental_uris":{"android":"levelo://app?vid=066cfe81-714d-4a28-ba8d-e13baf5bbb1b","ios":"levelo://app?vid=066cfe81-714d-4a28-ba8d-e13baf5bbb1b"},"vehicle_type_id":"4","last_reported":1774424743,"current_range_meters":4400,"station_id":"","pricing_plan_id":"cebpf4jnsgd1na2vs0mg"},{"bike_id":"285db872-787a-4613-a1fe-da7e0b0c9ea6","system_id":"levelo_inurba_marseille","lat":43.26666,"lon":5.38253,"is_reserved":false,"is_disabled":false,"rental_uris":{"android":"levelo://app?vid=285db872-787a-4613-a1fe-da7e0b0c9ea6","ios":"levelo://app?vid=285db872-787a-4613-a1fe-da7e0b0c9ea6"},"vehicle_type_id":"4","last_reported":1774424743,"current_range_meters":4400,"station_id":"ce4bhg92rcd13ifvqf90","pricing_plan_id":"cebpf4jnsgd1na2vs0mg"},{"bike_id":"77ff62be-125a-43ec-963b-3f565c272214","system_id":"levelo_inurba_marseille","lat":43.272057,"lon":5.391875,"is_reserved":false,"is_disabled":false,"rental_uris":{"android":"levelo://app?vid=77ff62be-125a-43ec-963b-3f565c272214","ios":"levelo://app?vid=77ff62be-125a-43ec-963b-3f565c272214"},"vehicle_type_id":"4","last_reported":1774424743,"current_range_meters":4400,"station_id":"ce4bhhp2rcd13ifvqfm0","pricing_plan_id":"cebpf4jnsgd1na2vs0mg"},{"bike_id":"fe332a28-7761-474f-ad2d-b84cd0257740","system_id":"levelo_inurba_marseille","lat":43.23773,"lon":5.3664,"is_reserved":false,"is_disabled":false,"rental_uris":{"android":"levelo://app?vid=fe332a28-7761-474f-ad2d-b84cd0257740","ios":"levelo://app?vid=fe332a28-7761-474f-ad2d-b84cd0257740"},"vehicle_type_id":"4","last_reported":1774424743,"current_range_meters":4800,"station_id":"st_d3nk18o9ro0c73en2l3g","pricing_plan_id":"cebpf4jnsgd1na2vs0mg"},{"bike_id":"e51f3b8f-2277-4636-88c7-d4fed1c89dba","system_id":"levelo_inurba_marseille","lat":43.29857,"lon":5.40935,"is_reserved":false,"is_disabled":false,"rental_uris":{"android":"levelo://app?vid=e51f3b8f-2277-4636-88c7-d4fed1c89dba","ios":"levelo://app?vid=e51f3b8f-2277-4636-88c7-d4fed1c89dba"},"vehicle_type_id":"4","last_reported":1774424743,"current_range_meters":4800,"station_id":"","pricing_plan_id":"cebpf4jnsgd1na2vs0mg"},{"bike_id":"4efb6e08-b653-48e9-b25d-8e7f616bb08a","system_id":"levelo_inurba_marseille","lat":43.30152,"lon":5.3741,"is_reserved":false,"is_disabled":false,"rental_uris":{"android":"levelo://app?vid=4efb6e08-b653-48e9-b25d-8e7f616bb08a","ios":"levelo://app?vid=4efb6e08-b653-48e9-b25d-8e7f616bb08a"},"vehicle_type_id":"4","last_reported":1774424743,"current_range_meters":4800,"station_id":"ce4bgs92rcd13ifvqcc0","pricing_plan_id":"cebpf4jnsgd1na2vs0mg"},{"bike_id":"e94d83da-a52c-4009-83db-8b37093608a6","system_id":"levelo_inurba_marseille","lat":43.22555,"lon":5.41632,"is_reserved":false,"is_disabled":false,"rental_uris":{"android":"levelo://app?vid=e94d83da-a52c-4009-83db-8b37093608a6","ios":"levelo://app?vid=e94d83da-a52c-4009-83db-8b37093608a6"},"vehicle_type_id":"4","last_reported":1774424743,"current_range_meters":4800,"station_id":"st_d2o4gvlbi1j2169b742g","pricing_plan_id":"cebpf4jnsgd1na2vs0mg"},{"bike_id":"9ca4b1da-0df4-426d-b237-eed2d4351450","system_id":"levelo_inurba_marseille","lat":43.23186,"lon":5.39987,"is_reserved":false,"is_disabled":false,"rental_uris":{"android":"levelo://app?vid=9ca4b1da-0df4-426d-b237-eed2d4351450","ios":"levelo://app?vid=9ca4b1da-0df4-426d-b237-eed2d4351450"},"vehicle_type_id":"4","last_reported":1774424743,"current_range_meters":4800,"station_id":"ce4bhn12rcd13ifvqgqg","pricing_plan_id":"cebpf4jnsgd1na2vs0mg"},{"bike_id":"5208ee98-7e4f-445b-9dbc-5d8fbec80d74","system_id":"levelo_inurba_marseille","lat":43.23389,"lon":5.41239,"is_reserved":false,"is_disabled":false,"rental_uris":{"android":"levelo://app?vid=5208ee98-7e4f-445b-9dbc-5d8fbec80d74","ios":"levelo://app?vid=5208ee98-7e4f-445b-9dbc-5d8fbec80d74"},"vehicle_type_id":"4","last_reported":1774424743,"current_range_meters":4800,"station_id":"","pricing_plan_id":"cebpf4jnsgd1na2vs0mg"},{"bike_id":"eaf5005a-04ad-41c3-a732-9880400dbc7e","system_id":"levelo_inurba_marseille","lat":43.25939,"lon":5.40905,"is_reserved":false,"is_disabled":false,"rental_uris":{"android":"levelo://app?vid=eaf5005a-04ad-41c3-a732-9880400dbc7e","ios":"levelo://app?vid=eaf5005a-04ad-41c3-a732-9880400dbc7e"},"vehicle_type_id":"4","last_reported":1774424743,"current_range_meters":4800,"station_id":"ce4bhm92rcd13ifvqglg","pricing_plan_id":"cebpf4jnsgd1na2vs0mg"},{"bike_id":"e5b088c5-2031-45f6-a6be-1aa21763808d","system_id":"levelo_inurba_marseille","lat":43.30147,"lon":5.3809,"is_reserved":false,"is_disabled":false,"rental_uris":{"android":"levelo://app?vid=e5b088c5-2031-45f6-a6be-1aa21763808d","ios":"levelo://app?vid=e5b088c5-2031-45f6-a6be-1aa21763808d"},"vehicle_type_id":"4","last_reported":1774424743,"current_range_meters":4800,"station_id":"ce4bgjp2rcd13ifvqbh0","pricing_plan_id":"cebpf4jnsgd1na2vs0mg"},{"bike_id":"0c905920-39a3-4df9-a2cd-efad93fa0b7e","system_id":"levelo_inurba_marseille","lat":43.28701,"lon":5.46677,"is_reserved":false,"is_disabled":false,"rental_uris":{"android":"levelo://app?vid=0c905920-39a3-4df9-a2cd-efad93fa0b7e","ios":"levelo://app?vid=0c905920-39a3-4df9-a2cd-efad93fa0b7e"},"vehicle_type_id":"4","last_reported":1774424743,"current_range_meters":4800,"station_id":"st_d6tc3vkotcvc738tfjhg","pricing_plan_id":"cebpf4jnsgd1na2vs0mg"},{"bike_id":"2f1421f2-c1a2-4e22-8433-f632307c84e8","system_id":"levelo_inurba_marseille","lat":43.34141,"lon":5.40917,"is_reserved":false,"is_disabled":false,"rental_uris":{"android":"levelo://app?vid=2f1421f2-c1a2-4e22-8433-f632307c84e8","ios":"levelo://app?vid=2f1421f2-c1a2-4e22-8433-f632307c84e8"},"vehicle_type_id":"4","last_reported":1774424743,"current_range_meters":4800,"station_id":"ce4bhqh2rcd13ifvqhlg","pricing_plan_id":"cebpf4jnsgd1na2vs0mg"},{"bike_id":"ceb8fca9-8209-41c5-98ba-4aa4970c3f8d","system_id":"levelo_inurba_marseille","lat":43.24798,"lon":5.37455,"is_reserved":false,"is_disabled":false,"rental_uris":{"android":"levelo://app?vid=ceb8fca9-8209-41c5-98ba-4aa4970c3f8d","ios":"levelo://app?vid=ceb8fca9-8209-41c5-98ba-4aa4970c3f8d"},"vehicle_type_id":"4","last_reported":1774424743,"current_range_meters":5600,"station_id":"ce4bhgh2rcd13ifvqfb0","pricing_plan_id":"cebpf4jnsgd1na2vs0mg"},{"bike_id":"f7e664bc-8cfe-465d-9dbe-128ca982aa9c","system_id":"levelo_inurba_marseille","lat":43.25004,"lon":5.38946,"is_reserved":false,"is_disabled":false,"rental_uris":{"android":"levelo://app?vid=f7e664bc-8cfe-465d-9dbe-128ca982aa9c","ios":"levelo://app?vid=f7e664bc-8cfe-465d-9dbe-128ca982aa9c"},"vehicle_type_id":"4","last_reported":1774424743,"current_range_meters":5600,"station_id":"ce4bhgp2rcd13ifvqfd0","pricing_plan_id":"cebpf4jnsgd1na2vs0mg"},{"bike_id":"b944e609-5e6c-418f-a8af-97899a61e0c7","system_id":"levelo_inurba_marseille","lat":43.32065,"lon":5.41576,"is_reserved":false,"is_disabled":false,"rental_uris":{"android":"levelo://app?vid=b944e609-5e6c-418f-a8af-97899a61e0c7","ios":"levelo://app?vid=b944e609-5e6c-418f-a8af-97899a61e0c7"},"vehicle_type_id":"4","last_reported":1774424743,"current_range_meters":5600,"station_id":"ce4bhq92rcd13ifvqhkg","pricing_plan_id":"cebpf4jnsgd1na2vs0mg"},{"bike_id":"eb7f051c-07f1-41d2-9450-33cd5a984ca1","system_id":"levelo_inurba_marseille","lat":43.2305,"lon":5.35497,"is_reserved":false,"is_disabled":false,"rental_uris":{"android":"levelo://app?vid=eb7f051c-07f1-41d2-9450-33cd5a984ca1","ios":"levelo://app?vid=eb7f051c-07f1-41d2-9450-33cd5a984ca1"},"vehicle_type_id":"4","last_reported":1774424743,"current_range_meters":5600,"station_id":"cpo3342slgdg3j2ifvpg","pricing_plan_id":"cebpf4jnsgd1na2vs0mg"},{"bike_id":"1a751648-291f-4319-a34f-249a761c3662","system_id":"levelo_inurba_marseille","lat":43.33605,"lon":5.36316,"is_reserved":false,"is_disabled":false,"rental_uris":{"android":"levelo://app?vid=1a751648-291f-4319-a34f-249a761c3662","ios":"levelo://app?vid=1a751648-291f-4319-a34f-249a761c3662"},"vehicle_type_id":"4","last_reported":1774424743,"current_range_meters":5600,"station_id":"","pricing_plan_id":"cebpf4jnsgd1na2vs0mg"},{"bike_id":"6711ca2b-9a4e-46b1-892e-1007cc2a656e","system_id":"levelo_inurba_marseille","lat":43.2857,"lon":5.44124,"is_reserved":false,"is_disabled":false,"rental_uris":{"android":"levelo://app?vid=6711ca2b-9a4e-46b1-892e-1007cc2a656e","ios":"levelo://app?vid=6711ca2b-9a4e-46b1-892e-1007cc2a656e"},"vehicle_type_id":"4","last_reported":1774424743,"current_range_meters":5600,"station_id":"st_d3j3df2ikq2c7380ej80","pricing_plan_id":"cebpf4jnsgd1na2vs0mg"},{"bike_id":"d6e295db-236d-4311-b02c-273ad898c9dd","system_id":"levelo_inurba_marseille","lat":43.23669,"lon":5.37775,"is_reserved":false,"is_disabled":false,"rental_uris":{"android":"levelo://app?vid=d6e295db-236d-4311-b02c-273ad898c9dd","ios":"levelo://app?vid=d6e295db-236d-4311-b02c-273ad898c9dd"},"vehicle_type_id":"4","last_reported":1774424743,"current_range_meters":5600,"station_id":"","pricing_plan_id":"cebpf4jnsgd1na2vs0mg"},{"bike_id":"70214f46-b448-478a-8e3a-0a5578a95784","system_id":"levelo_inurba_marseille","lat":43.31638,"lon":5.39287,"is_reserved":false,"is_disabled":false,"rental_uris":{"android":"levelo://app?vid=70214f46-b448-478a-8e3a-0a5578a95784","ios":"levelo://app?vid=70214f46-b448-478a-8e3a-0a5578a95784"},"vehicle_type_id":"4","last_reported":1774424743,"current_range_meters":5600,"station_id":"","pricing_plan_id":"cebpf4jnsgd1na2vs0mg"},{"bike_id":"e0555542-1933-4eb9-826b-9f598fe91ae4","system_id":"levelo_inurba_marseille","lat":43.31367,"lon":5.36696,"is_reserved":false,"is_disabled":false,"rental_uris":{"android":"levelo://app?vid=e0555542-1933-4eb9-826b-9f598fe91ae4","ios":"levelo://app?vid=e0555542-1933-4eb9-826b-9f598fe91ae4"},"vehicle_type_id":"4","last_reported":1774424743,"current_range_meters":5600,"station_id":"ce4bgr92rcd13ifvqc6g","pricing_plan_id":"cebpf4jnsgd1na2vs0mg"},{"bike_id":"b73c569c-b8ca-4674-9fe9-baad9cdae98a","system_id":"levelo_inurba_marseille","lat":43.259388,"lon":5.409058,"is_reserved":false,"is_disabled":false,"rental_uris":{"android":"levelo://app?vid=b73c569c-b8ca-4674-9fe9-baad9cdae98a","ios":"levelo://app?vid=b73c569c-b8ca-4674-9fe9-baad9cdae98a"},"vehicle_type_id":"4","last_reported":1774424743,"current_range_meters":5600,"station_id":"ce4bhm92rcd13ifvqglg","pricing_plan_id":"cebpf4jnsgd1na2vs0mg"},{"bike_id":"69c7dedb-e831-42c1-9502-923d17edb3d6","system_id":"levelo_inurba_marseille","lat":43.31046,"lon":5.37185,"is_reserved":false,"is_disabled":false,"rental_uris":{"android":"levelo://app?vid=69c7dedb-e831-42c1-9502-923d17edb3d6","ios":"levelo://app?vid=69c7dedb-e831-42c1-9502-923d17edb3d6"},"vehicle_type_id":"4","last_reported":1774424743,"current_range_meters":6000,"station_id":"st_d4kl2rp97mjs73e7tdfg","pricing_plan_id":"cebpf4jnsgd1na2vs0mg"},{"bike_id":"7a297313-b944-4c09-9386-0d9502e24a9c","system_id":"levelo_inurba_marseille","lat":43.30131,"lon":5.38779,"is_reserved":false,"is_disabled":false,"rental_uris":{"android":"levelo://app?vid=7a297313-b944-4c09-9386-0d9502e24a9c","ios":"levelo://app?vid=7a297313-b944-4c09-9386-0d9502e24a9c"},"vehicle_type_id":"4","last_reported":1774424743,"current_range_meters":6000,"station_id":"ce4bghh2rcd13ifvqb60","pricing_plan_id":"cebpf4jnsgd1na2vs0mg"},{"bike_id":"76d67dcd-ff47-49e9-b2cd-6c2e7176615e","system_id":"levelo_inurba_marseille","lat":43.26026,"lon":5.37556,"is_reserved":false,"is_disabled":false,"rental_uris":{"android":"levelo://app?vid=76d67dcd-ff47-49e9-b2cd-6c2e7176615e","ios":"levelo://app?vid=76d67dcd-ff47-49e9-b2cd-6c2e7176615e"},"vehicle_type_id":"4","last_reported":1774424743,"current_range_meters":6000,"station_id":"ce4bhgh2rcd13ifvqfa0","pricing_plan_id":"cebpf4jnsgd1na2vs0mg"},{"bike_id":"445a363e-6635-4c6f-9d9b-6ed1d223c4e8","system_id":"levelo_inurba_marseille","lat":43.29558,"lon":5.43883,"is_reserved":false,"is_disabled":false,"rental_uris":{"android":"levelo://app?vid=445a363e-6635-4c6f-9d9b-6ed1d223c4e8","ios":"levelo://app?vid=445a363e-6635-4c6f-9d9b-6ed1d223c4e8"},"vehicle_type_id":"4","last_reported":1774424743,"current_range_meters":6000,"station_id":"","pricing_plan_id":"cebpf4jnsgd1na2vs0mg"},{"bike_id":"c7d9cc3b-29e7-4a7f-a93d-62932c7bb62a","system_id":"levelo_inurba_marseille","lat":43.28407,"lon":5.34987,"is_reserved":false,"is_disabled":false,"rental_uris":{"android":"levelo://app?vid=c7d9cc3b-29e7-4a7f-a93d-62932c7bb62a","ios":"levelo://app?vid=c7d9cc3b-29e7-4a7f-a93d-62932c7bb62a"},"vehicle_type_id":"4","last_reported":1774424743,"current_range_meters":6000,"station_id":"ce4bhbh2rcd13ifvqepg","pricing_plan_id":"cebpf4jnsgd1na2vs0mg"},{"bike_id":"cbe143e8-3e8d-46c8-8239-3389a4661d28","system_id":"levelo_inurba_marseille","lat":43.30301,"lon":5.36937,"is_reserved":false,"is_disabled":false,"rental_uris":{"android":"levelo://app?vid=cbe143e8-3e8d-46c8-8239-3389a4661d28","ios":"levelo://app?vid=cbe143e8-3e8d-46c8-8239-3389a4661d28"},"vehicle_type_id":"4","last_reported":1774424743,"current_range_meters":6000,"station_id":"ce4bgqh2rcd13ifvqc5g","pricing_plan_id":"cebpf4jnsgd1na2vs0mg"},{"bike_id":"6e39b0c4-42c8-4914-8d34-51e68dc37a80","system_id":"levelo_inurba_marseille","lat":43.26683,"lon":5.38264,"is_reserved":false,"is_disabled":false,"rental_uris":{"android":"levelo://app?vid=6e39b0c4-42c8-4914-8d34-51e68dc37a80","ios":"levelo://app?vid=6e39b0c4-42c8-4914-8d34-51e68dc37a80"},"vehicle_type_id":"4","last_reported":1774424743,"current_range_meters":6000,"station_id":"ce4bhg92rcd13ifvqf90","pricing_plan_id":"cebpf4jnsgd1na2vs0mg"},{"bike_id":"a3e57cf5-df6d-49c6-a3e8-cf254cba4839","system_id":"levelo_inurba_marseille","lat":43.29262,"lon":5.36845,"is_reserved":false,"is_disabled":false,"rental_uris":{"android":"levelo://app?vid=a3e57cf5-df6d-49c6-a3e8-cf254cba4839","ios":"levelo://app?vid=a3e57cf5-df6d-49c6-a3e8-cf254cba4839"},"vehicle_type_id":"4","last_reported":1774424743,"current_range_meters":6000,"station_id":"ce4bhbp2rcd13ifvqesg","pricing_plan_id":"cebpf4jnsgd1na2vs0mg"},{"bike_id":"22a24422-8367-44e3-afc2-fd1672c2c7f5","system_id":"levelo_inurba_marseille","lat":43.28442,"lon":5.48404,"is_reserved":false,"is_disabled":false,"rental_uris":{"android":"levelo://app?vid=22a24422-8367-44e3-afc2-fd1672c2c7f5","ios":"levelo://app?vid=22a24422-8367-44e3-afc2-fd1672c2c7f5"},"vehicle_type_id":"4","last_reported":1774424743,"current_range_meters":6400,"station_id":"","pricing_plan_id":"cebpf4jnsgd1na2vs0mg"},{"bike_id":"8b5d40a1-73a5-4996-8aaa-10b91006d761","system_id":"levelo_inurba_marseille","lat":43.30642,"lon":5.40105,"is_reserved":false,"is_disabled":false,"rental_uris":{"android":"levelo://app?vid=8b5d40a1-73a5-4996-8aaa-10b91006d761","ios":"levelo://app?vid=8b5d40a1-73a5-4996-8aaa-10b91006d761"},"vehicle_type_id":"4","last_reported":1774424743,"current_range_meters":6400,"station_id":"ce4bh112rcd13ifvqda0","pricing_plan_id":"cebpf4jnsgd1na2vs0mg"},{"bike_id":"c0b689e5-350b-4835-a209-95a8604ec264","system_id":"levelo_inurba_marseille","lat":43.27408,"lon":5.39395,"is_reserved":false,"is_disabled":true,"rental_uris":{"android":"levelo://app?vid=c0b689e5-350b-4835-a209-95a8604ec264","ios":"levelo://app?vid=c0b689e5-350b-4835-a209-95a8604ec264"},"vehicle_type_id":"4","last_reported":1774424743,"current_range_meters":6400,"station_id":"ce4bhdp2rcd13ifvqf20","pricing_plan_id":"cebpf4jnsgd1na2vs0mg"},{"bike_id":"62c0eda8-c666-40c1-b62d-71242266f316","system_id":"levelo_inurba_marseille","lat":43.28438,"lon":5.39181,"is_reserved":false,"is_disabled":true,"rental_uris":{"android":"levelo://app?vid=62c0eda8-c666-40c1-b62d-71242266f316","ios":"levelo://app?vid=62c0eda8-c666-40c1-b62d-71242266f316"},"vehicle_type_id":"4","last_reported":1774424743,"current_range_meters":6400,"station_id":"ce4bhoh2rcd13ifvqh5g","pricing_plan_id":"cebpf4jnsgd1na2vs0mg"},{"bike_id":"0bb933b8-aff5-4299-af69-27c1751e27f8","system_id":"levelo_inurba_marseille","lat":43.24072,"lon":5.37762,"is_reserved":false,"is_disabled":false,"rental_uris":{"android":"levelo://app?vid=0bb933b8-aff5-4299-af69-27c1751e27f8","ios":"levelo://app?vid=0bb933b8-aff5-4299-af69-27c1751e27f8"},"vehicle_type_id":"4","last_reported":1774424743,"current_range_meters":6400,"station_id":"ce4bhnp2rcd13ifvqgvg","pricing_plan_id":"cebpf4jnsgd1na2vs0mg"},{"bike_id":"d6cedfd7-f851-4154-be58-5e7ef2f2c136","system_id":"levelo_inurba_marseille","lat":43.24941,"lon":5.40499,"is_reserved":false,"is_disabled":false,"rental_uris":{"android":"levelo://app?vid=d6cedfd7-f851-4154-be58-5e7ef2f2c136","ios":"levelo://app?vid=d6cedfd7-f851-4154-be58-5e7ef2f2c136"},"vehicle_type_id":"4","last_reported":1774424743,"current_range_meters":6400,"station_id":"st_d2ngiaodas8pm72gd1h0","pricing_plan_id":"cebpf4jnsgd1na2vs0mg"},{"bike_id":"07035ceb-7f0e-449d-a264-2cea17dace41","system_id":"levelo_inurba_marseille","lat":43.23779,"lon":5.36625,"is_reserved":false,"is_disabled":false,"rental_uris":{"android":"levelo://app?vid=07035ceb-7f0e-449d-a264-2cea17dace41","ios":"levelo://app?vid=07035ceb-7f0e-449d-a264-2cea17dace41"},"vehicle_type_id":"4","last_reported":1774424743,"current_range_meters":6400,"station_id":"st_d3nk18o9ro0c73en2l3g","pricing_plan_id":"cebpf4jnsgd1na2vs0mg"},{"bike_id":"e810ed11-f3df-434a-bca7-133d69dd1bce","system_id":"levelo_inurba_marseille","lat":43.24672,"lon":5.38155,"is_reserved":false,"is_disabled":false,"rental_uris":{"android":"levelo://app?vid=e810ed11-f3df-434a-bca7-133d69dd1bce","ios":"levelo://app?vid=e810ed11-f3df-434a-bca7-133d69dd1bce"},"vehicle_type_id":"4","last_reported":1774424743,"current_range_meters":6400,"station_id":"ce4bhih2rcd13ifvqfr0","pricing_plan_id":"cebpf4jnsgd1na2vs0mg"},{"bike_id":"52fc7a31-54a7-4808-88a6-c6557144c1a3","system_id":"levelo_inurba_marseille","lat":43.30546,"lon":5.36698,"is_reserved":false,"is_disabled":false,"rental_uris":{"android":"levelo://app?vid=52fc7a31-54a7-4808-88a6-c6557144c1a3","ios":"levelo://app?vid=52fc7a31-54a7-4808-88a6-c6557144c1a3"},"vehicle_type_id":"4","last_reported":1774424743,"current_range_meters":6400,"station_id":"ce4bgrp2rcd13ifvqc9g","pricing_plan_id":"cebpf4jnsgd1na2vs0mg"},{"bike_id":"300659d6-9a93-4518-b0d1-6289399d0d50","system_id":"levelo_inurba_marseille","lat":43.28153,"lon":5.42644,"is_reserved":false,"is_disabled":false,"rental_uris":{"android":"levelo://app?vid=300659d6-9a93-4518-b0d1-6289399d0d50","ios":"levelo://app?vid=300659d6-9a93-4518-b0d1-6289399d0d50"},"vehicle_type_id":"4","last_reported":1774424743,"current_range_meters":6400,"station_id":"ce4bhnh2rcd13ifvqgug","pricing_plan_id":"cebpf4jnsgd1na2vs0mg"},{"bike_id":"7aaf5f69-cacb-4a60-b729-583a6cb2e0cf","system_id":"levelo_inurba_marseille","lat":43.30455,"lon":5.37952,"is_reserved":false,"is_disabled":false,"rental_uris":{"android":"levelo://app?vid=7aaf5f69-cacb-4a60-b729-583a6cb2e0cf","ios":"levelo://app?vid=7aaf5f69-cacb-4a60-b729-583a6cb2e0cf"},"vehicle_type_id":"4","last_reported":1774424743,"current_range_meters":6400,"station_id":"","pricing_plan_id":"cebpf4jnsgd1na2vs0mg"},{"bike_id":"4800aacd-ade7-4ca6-b35f-cfd3dc423727","system_id":"levelo_inurba_marseille","lat":43.293283,"lon":5.371484,"is_reserved":false,"is_disabled":false,"rental_uris":{"android":"levelo://app?vid=4800aacd-ade7-4ca6-b35f-cfd3dc423727","ios":"levelo://app?vid=4800aacd-ade7-4ca6-b35f-cfd3dc423727"},"vehicle_type_id":"4","last_reported":1774424743,"current_range_meters":6800,"station_id":"ce4bgh92rcd13ifvqb40","pricing_plan_id":"cebpf4jnsgd1na2vs0mg"},{"bike_id":"a925be4f-af4d-4c6c-804d-cf6aef5dd66c","system_id":"levelo_inurba_marseille","lat":43.31125,"lon":5.37766,"is_reserved":false,"is_disabled":false,"rental_uris":{"android":"levelo://app?vid=a925be4f-af4d-4c6c-804d-cf6aef5dd66c","ios":"levelo://app?vid=a925be4f-af4d-4c6c-804d-cf6aef5dd66c"},"vehicle_type_id":"4","last_reported":1774424743,"current_range_meters":6800,"station_id":"ce4bgt92rcd13ifvqcg0","pricing_plan_id":"cebpf4jnsgd1na2vs0mg"},{"bike_id":"3e359a89-6259-43ce-94e2-6783f3c71446","system_id":"levelo_inurba_marseille","lat":43.30939,"lon":5.39054,"is_reserved":false,"is_disabled":false,"rental_uris":{"android":"levelo://app?vid=3e359a89-6259-43ce-94e2-6783f3c71446","ios":"levelo://app?vid=3e359a89-6259-43ce-94e2-6783f3c71446"},"vehicle_type_id":"4","last_reported":1774424743,"current_range_meters":6800,"station_id":"ce4bgup2rcd13ifvqco0","pricing_plan_id":"cebpf4jnsgd1na2vs0mg"},{"bike_id":"77deb619-deef-42c1-ade2-8dca83a843fb","system_id":"levelo_inurba_marseille","lat":43.29152,"lon":5.43979,"is_reserved":false,"is_disabled":false,"rental_uris":{"android":"levelo://app?vid=77deb619-deef-42c1-ade2-8dca83a843fb","ios":"levelo://app?vid=77deb619-deef-42c1-ade2-8dca83a843fb"},"vehicle_type_id":"4","last_reported":1774424743,"current_range_meters":6800,"station_id":"","pricing_plan_id":"cebpf4jnsgd1na2vs0mg"},{"bike_id":"663dae90-849c-4f89-872e-e88d2dc547b9","system_id":"levelo_inurba_marseille","lat":43.303176,"lon":5.368939,"is_reserved":false,"is_disabled":false,"rental_uris":{"android":"levelo://app?vid=663dae90-849c-4f89-872e-e88d2dc547b9","ios":"levelo://app?vid=663dae90-849c-4f89-872e-e88d2dc547b9"},"vehicle_type_id":"4","last_reported":1774424743,"current_range_meters":6800,"station_id":"ce4bgqh2rcd13ifvqc5g","pricing_plan_id":"cebpf4jnsgd1na2vs0mg"},{"bike_id":"fbe5bfea-dbdd-42c2-908b-8c935a9fcf5e","system_id":"levelo_inurba_marseille","lat":43.22571,"lon":5.41621,"is_reserved":false,"is_disabled":false,"rental_uris":{"android":"levelo://app?vid=fbe5bfea-dbdd-42c2-908b-8c935a9fcf5e","ios":"levelo://app?vid=fbe5bfea-dbdd-42c2-908b-8c935a9fcf5e"},"vehicle_type_id":"4","last_reported":1774424743,"current_range_meters":6800,"station_id":"st_d2o4gvlbi1j2169b742g","pricing_plan_id":"cebpf4jnsgd1na2vs0mg"},{"bike_id":"ab303831-f1eb-4dc8-9707-e78f74bd4e3d","system_id":"levelo_inurba_marseille","lat":43.30284,"lon":5.36892,"is_reserved":false,"is_disabled":false,"rental_uris":{"android":"levelo://app?vid=ab303831-f1eb-4dc8-9707-e78f74bd4e3d","ios":"levelo://app?vid=ab303831-f1eb-4dc8-9707-e78f74bd4e3d"},"vehicle_type_id":"4","last_reported":1774424743,"current_range_meters":6800,"station_id":"ce4bgqh2rcd13ifvqc5g","pricing_plan_id":"cebpf4jnsgd1na2vs0mg"},{"bike_id":"10da4574-f2d9-4ae1-91ba-9a914cc4e851","system_id":"levelo_inurba_marseille","lat":43.23878,"lon":5.37472,"is_reserved":false,"is_disabled":false,"rental_uris":{"android":"levelo://app?vid=10da4574-f2d9-4ae1-91ba-9a914cc4e851","ios":"levelo://app?vid=10da4574-f2d9-4ae1-91ba-9a914cc4e851"},"vehicle_type_id":"4","last_reported":1774424743,"current_range_meters":6800,"station_id":"st_d6sm7csbq4hs73f8fpjg","pricing_plan_id":"cebpf4jnsgd1na2vs0mg"},{"bike_id":"f379ac61-40c6-4a78-8eef-2bad528df031","system_id":"levelo_inurba_marseille","lat":43.26806,"lon":5.39439,"is_reserved":false,"is_disabled":false,"rental_uris":{"android":"levelo://app?vid=f379ac61-40c6-4a78-8eef-2bad528df031","ios":"levelo://app?vid=f379ac61-40c6-4a78-8eef-2bad528df031"},"vehicle_type_id":"4","last_reported":1774424743,"current_range_meters":6800,"station_id":"ce4bhh12rcd13ifvqfg0","pricing_plan_id":"cebpf4jnsgd1na2vs0mg"},{"bike_id":"9e6209c2-8d1d-42b3-b60a-1dbb8e1406fe","system_id":"levelo_inurba_marseille","lat":43.33129,"lon":5.37702,"is_reserved":false,"is_disabled":false,"rental_uris":{"android":"levelo://app?vid=9e6209c2-8d1d-42b3-b60a-1dbb8e1406fe","ios":"levelo://app?vid=9e6209c2-8d1d-42b3-b60a-1dbb8e1406fe"},"vehicle_type_id":"4","last_reported":1774424743,"current_range_meters":6800,"station_id":"st_d46cu089ee8s73dldbu0","pricing_plan_id":"cebpf4jnsgd1na2vs0mg"},{"bike_id":"715aaeb5-0d16-47e0-ba84-f56328a24f5b","system_id":"levelo_inurba_marseille","lat":43.29899,"lon":5.4367,"is_reserved":false,"is_disabled":false,"rental_uris":{"android":"levelo://app?vid=715aaeb5-0d16-47e0-ba84-f56328a24f5b","ios":"levelo://app?vid=715aaeb5-0d16-47e0-ba84-f56328a24f5b"},"vehicle_type_id":"4","last_reported":1774424743,"current_range_meters":7200,"station_id":"ce4bhpp2rcd13ifvqhfg","pricing_plan_id":"cebpf4jnsgd1na2vs0mg"},{"bike_id":"6dcf572a-75e0-4975-b954-f6d1668bd39c","system_id":"levelo_inurba_marseille","lat":43.29072,"lon":5.38142,"is_reserved":false,"is_disabled":false,"rental_uris":{"android":"levelo://app?vid=6dcf572a-75e0-4975-b954-f6d1668bd39c","ios":"levelo://app?vid=6dcf572a-75e0-4975-b954-f6d1668bd39c"},"vehicle_type_id":"4","last_reported":1774424743,"current_range_meters":7200,"station_id":"ce4bh512rcd13ifvqe2g","pricing_plan_id":"cebpf4jnsgd1na2vs0mg"},{"bike_id":"21212254-e5a0-4af6-a45f-ed4c631ca773","system_id":"levelo_inurba_marseille","lat":43.25528,"lon":5.37693,"is_reserved":false,"is_disabled":false,"rental_uris":{"android":"levelo://app?vid=21212254-e5a0-4af6-a45f-ed4c631ca773","ios":"levelo://app?vid=21212254-e5a0-4af6-a45f-ed4c631ca773"},"vehicle_type_id":"4","last_reported":1774424743,"current_range_meters":7200,"station_id":"","pricing_plan_id":"cebpf4jnsgd1na2vs0mg"},{"bike_id":"f4e12de3-12ee-449c-bb7b-82b4b799a0fa","system_id":"levelo_inurba_marseille","lat":43.246511,"lon":5.388933,"is_reserved":false,"is_disabled":true,"rental_uris":{"android":"levelo://app?vid=f4e12de3-12ee-449c-bb7b-82b4b799a0fa","ios":"levelo://app?vid=f4e12de3-12ee-449c-bb7b-82b4b799a0fa"},"vehicle_type_id":"4","last_reported":1774424743,"current_range_meters":7200,"station_id":"ce4bgg92rcd13ifvqb30","pricing_plan_id":"cebpf4jnsgd1na2vs0mg"},{"bike_id":"83732a6c-ebed-473c-9b13-eb7d63194259","system_id":"levelo_inurba_marseille","lat":43.21214,"lon":5.3506,"is_reserved":false,"is_disabled":false,"rental_uris":{"android":"levelo://app?vid=83732a6c-ebed-473c-9b13-eb7d63194259","ios":"levelo://app?vid=83732a6c-ebed-473c-9b13-eb7d63194259"},"vehicle_type_id":"4","last_reported":1774424743,"current_range_meters":7200,"station_id":"st_cvj6sg6p6f1abm77japg","pricing_plan_id":"cebpf4jnsgd1na2vs0mg"},{"bike_id":"13f9f031-67ea-407a-a66e-c4b749576cd4","system_id":"levelo_inurba_marseille","lat":43.23947,"lon":5.36631,"is_reserved":false,"is_disabled":false,"rental_uris":{"android":"levelo://app?vid=13f9f031-67ea-407a-a66e-c4b749576cd4","ios":"levelo://app?vid=13f9f031-67ea-407a-a66e-c4b749576cd4"},"vehicle_type_id":"4","last_reported":1774424743,"current_range_meters":7200,"station_id":"ce4bhi12rcd13ifvqfp0","pricing_plan_id":"cebpf4jnsgd1na2vs0mg"},{"bike_id":"5487f2c1-c4a8-4daf-8490-88d7b84744cf","system_id":"levelo_inurba_marseille","lat":43.30302,"lon":5.36914,"is_reserved":false,"is_disabled":false,"rental_uris":{"android":"levelo://app?vid=5487f2c1-c4a8-4daf-8490-88d7b84744cf","ios":"levelo://app?vid=5487f2c1-c4a8-4daf-8490-88d7b84744cf"},"vehicle_type_id":"4","last_reported":1774424743,"current_range_meters":7200,"station_id":"ce4bgqh2rcd13ifvqc5g","pricing_plan_id":"cebpf4jnsgd1na2vs0mg"},{"bike_id":"21a45244-c1c4-423b-9d37-4deb92a4a9b7","system_id":"levelo_inurba_marseille","lat":43.31055,"lon":5.37173,"is_reserved":false,"is_disabled":false,"rental_uris":{"android":"levelo://app?vid=21a45244-c1c4-423b-9d37-4deb92a4a9b7","ios":"levelo://app?vid=21a45244-c1c4-423b-9d37-4deb92a4a9b7"},"vehicle_type_id":"4","last_reported":1774424743,"current_range_meters":7200,"station_id":"st_d4kl2rp97mjs73e7tdfg","pricing_plan_id":"cebpf4jnsgd1na2vs0mg"},{"bike_id":"8e77315d-88e4-4eb1-8071-0e263b7fc688","system_id":"levelo_inurba_marseille","lat":43.2388,"lon":5.37465,"is_reserved":false,"is_disabled":false,"rental_uris":{"android":"levelo://app?vid=8e77315d-88e4-4eb1-8071-0e263b7fc688","ios":"levelo://app?vid=8e77315d-88e4-4eb1-8071-0e263b7fc688"},"vehicle_type_id":"4","last_reported":1774424743,"current_range_meters":7200,"station_id":"st_d6sm7csbq4hs73f8fpjg","pricing_plan_id":"cebpf4jnsgd1na2vs0mg"},{"bike_id":"6a209565-16db-4aba-85c7-7097837dcc24","system_id":"levelo_inurba_marseille","lat":43.24157,"lon":5.36401,"is_reserved":false,"is_disabled":false,"rental_uris":{"android":"levelo://app?vid=6a209565-16db-4aba-85c7-7097837dcc24","ios":"levelo://app?vid=6a209565-16db-4aba-85c7-7097837dcc24"},"vehicle_type_id":"4","last_reported":1774424743,"current_range_meters":7200,"station_id":"cpo36qri1sfpv3e86is0","pricing_plan_id":"cebpf4jnsgd1na2vs0mg"},{"bike_id":"adaf8e00-ca2c-49b5-9b35-6749da32aa87","system_id":"levelo_inurba_marseille","lat":43.3355,"lon":5.37467,"is_reserved":false,"is_disabled":false,"rental_uris":{"android":"levelo://app?vid=adaf8e00-ca2c-49b5-9b35-6749da32aa87","ios":"levelo://app?vid=adaf8e00-ca2c-49b5-9b35-6749da32aa87"},"vehicle_type_id":"4","last_reported":1774424743,"current_range_meters":7200,"station_id":"st_d46tts09ee8s73dlu43g","pricing_plan_id":"cebpf4jnsgd1na2vs0mg"},{"bike_id":"489b1f47-9bf9-4f10-90f5-3b4dff230700","system_id":"levelo_inurba_marseille","lat":43.23781,"lon":5.36625,"is_reserved":false,"is_disabled":false,"rental_uris":{"android":"levelo://app?vid=489b1f47-9bf9-4f10-90f5-3b4dff230700","ios":"levelo://app?vid=489b1f47-9bf9-4f10-90f5-3b4dff230700"},"vehicle_type_id":"4","last_reported":1774424743,"current_range_meters":7200,"station_id":"st_d3nk18o9ro0c73en2l3g","pricing_plan_id":"cebpf4jnsgd1na2vs0mg"},{"bike_id":"aae792bd-1c8a-454d-ba57-45007311d229","system_id":"levelo_inurba_marseille","lat":43.22561,"lon":5.41631,"is_reserved":false,"is_disabled":false,"rental_uris":{"android":"levelo://app?vid=aae792bd-1c8a-454d-ba57-45007311d229","ios":"levelo://app?vid=aae792bd-1c8a-454d-ba57-45007311d229"},"vehicle_type_id":"4","last_reported":1774424743,"current_range_meters":7200,"station_id":"st_d2o4gvlbi1j2169b742g","pricing_plan_id":"cebpf4jnsgd1na2vs0mg"},{"bike_id":"61d5109e-e9d2-457a-bf42-8fd667b83cd3","system_id":"levelo_inurba_marseille","lat":43.30376,"lon":5.42489,"is_reserved":false,"is_disabled":false,"rental_uris":{"android":"levelo://app?vid=61d5109e-e9d2-457a-bf42-8fd667b83cd3","ios":"levelo://app?vid=61d5109e-e9d2-457a-bf42-8fd667b83cd3"},"vehicle_type_id":"4","last_reported":1774424743,"current_range_meters":7200,"station_id":"ce4bhoh2rcd13ifvqh6g","pricing_plan_id":"cebpf4jnsgd1na2vs0mg"},{"bike_id":"a7554381-42f7-4fab-a510-5aaf61b032ad","system_id":"levelo_inurba_marseille","lat":43.30549,"lon":5.36698,"is_reserved":false,"is_disabled":false,"rental_uris":{"android":"levelo://app?vid=a7554381-42f7-4fab-a510-5aaf61b032ad","ios":"levelo://app?vid=a7554381-42f7-4fab-a510-5aaf61b032ad"},"vehicle_type_id":"4","last_reported":1774424743,"current_range_meters":7200,"station_id":"ce4bgrp2rcd13ifvqc9g","pricing_plan_id":"cebpf4jnsgd1na2vs0mg"},{"bike_id":"e4b355b7-8f75-4852-b4e2-52e3dca1cce5","system_id":"levelo_inurba_marseille","lat":43.238848,"lon":5.374455,"is_reserved":false,"is_disabled":false,"rental_uris":{"android":"levelo://app?vid=e4b355b7-8f75-4852-b4e2-52e3dca1cce5","ios":"levelo://app?vid=e4b355b7-8f75-4852-b4e2-52e3dca1cce5"},"vehicle_type_id":"4","last_reported":1774424743,"current_range_meters":7200,"station_id":"st_d6sm7csbq4hs73f8fpjg","pricing_plan_id":"cebpf4jnsgd1na2vs0mg"},{"bike_id":"b8ba5a8b-013a-4b43-9ce9-cae09a5afc1a","system_id":"levelo_inurba_marseille","lat":43.31453,"lon":5.37955,"is_reserved":false,"is_disabled":false,"rental_uris":{"android":"levelo://app?vid=b8ba5a8b-013a-4b43-9ce9-cae09a5afc1a","ios":"levelo://app?vid=b8ba5a8b-013a-4b43-9ce9-cae09a5afc1a"},"vehicle_type_id":"4","last_reported":1774424743,"current_range_meters":7200,"station_id":"","pricing_plan_id":"cebpf4jnsgd1na2vs0mg"},{"bike_id":"1262b9fc-c9ee-49ce-9eb0-515026dcf393","system_id":"levelo_inurba_marseille","lat":43.23893,"lon":5.37462,"is_reserved":false,"is_disabled":false,"rental_uris":{"android":"levelo://app?vid=1262b9fc-c9ee-49ce-9eb0-515026dcf393","ios":"levelo://app?vid=1262b9fc-c9ee-49ce-9eb0-515026dcf393"},"vehicle_type_id":"4","last_reported":1774424743,"current_range_meters":7200,"station_id":"st_d6sm7csbq4hs73f8fpjg","pricing_plan_id":"cebpf4jnsgd1na2vs0mg"},{"bike_id":"5ece89f7-1d14-49b1-bf0b-557411e0fe9a","system_id":"levelo_inurba_marseille","lat":43.31034,"lon":5.37167,"is_reserved":false,"is_disabled":false,"rental_uris":{"android":"levelo://app?vid=5ece89f7-1d14-49b1-bf0b-557411e0fe9a","ios":"levelo://app?vid=5ece89f7-1d14-49b1-bf0b-557411e0fe9a"},"vehicle_type_id":"4","last_reported":1774424743,"current_range_meters":7200,"station_id":"st_d4kl2rp97mjs73e7tdfg","pricing_plan_id":"cebpf4jnsgd1na2vs0mg"},{"bike_id":"3a6e6294-ec88-4ab9-af3b-60aaab95c3d4","system_id":"levelo_inurba_marseille","lat":43.30434,"lon":5.39752,"is_reserved":false,"is_disabled":false,"rental_uris":{"android":"levelo://app?vid=3a6e6294-ec88-4ab9-af3b-60aaab95c3d4","ios":"levelo://app?vid=3a6e6294-ec88-4ab9-af3b-60aaab95c3d4"},"vehicle_type_id":"4","last_reported":1774424743,"current_range_meters":7200,"station_id":"ce4bh092rcd13ifvqd20","pricing_plan_id":"cebpf4jnsgd1na2vs0mg"},{"bike_id":"3bef543e-94dc-4c02-bfec-e8bb15f9ea58","system_id":"levelo_inurba_marseille","lat":43.28977,"lon":5.37834,"is_reserved":false,"is_disabled":false,"rental_uris":{"android":"levelo://app?vid=3bef543e-94dc-4c02-bfec-e8bb15f9ea58","ios":"levelo://app?vid=3bef543e-94dc-4c02-bfec-e8bb15f9ea58"},"vehicle_type_id":"4","last_reported":1774424743,"current_range_meters":7200,"station_id":"ce4bh9p2rcd13ifvqed0","pricing_plan_id":"cebpf4jnsgd1na2vs0mg"},{"bike_id":"5dbe24a9-ddc4-4904-88bf-d2f6ae223e0f","system_id":"levelo_inurba_marseille","lat":43.289305,"lon":5.363844,"is_reserved":false,"is_disabled":false,"rental_uris":{"android":"levelo://app?vid=5dbe24a9-ddc4-4904-88bf-d2f6ae223e0f","ios":"levelo://app?vid=5dbe24a9-ddc4-4904-88bf-d2f6ae223e0f"},"vehicle_type_id":"4","last_reported":1774424743,"current_range_meters":7200,"station_id":"ce4bhc92rcd13ifvqetg","pricing_plan_id":"cebpf4jnsgd1na2vs0mg"},{"bike_id":"19553c20-209c-48bf-8083-1a4fbe2efe04","system_id":"levelo_inurba_marseille","lat":43.30133,"lon":5.38085,"is_reserved":false,"is_disabled":false,"rental_uris":{"android":"levelo://app?vid=19553c20-209c-48bf-8083-1a4fbe2efe04","ios":"levelo://app?vid=19553c20-209c-48bf-8083-1a4fbe2efe04"},"vehicle_type_id":"4","last_reported":1774424743,"current_range_meters":7200,"station_id":"ce4bgjp2rcd13ifvqbh0","pricing_plan_id":"cebpf4jnsgd1na2vs0mg"},{"bike_id":"a41c12e4-a016-4346-b5b5-6c1cb0de0b9c","system_id":"levelo_inurba_marseille","lat":43.2886,"lon":5.42524,"is_reserved":false,"is_disabled":false,"rental_uris":{"android":"levelo://app?vid=a41c12e4-a016-4346-b5b5-6c1cb0de0b9c","ios":"levelo://app?vid=a41c12e4-a016-4346-b5b5-6c1cb0de0b9c"},"vehicle_type_id":"4","last_reported":1774424743,"current_range_meters":7200,"station_id":"","pricing_plan_id":"cebpf4jnsgd1na2vs0mg"},{"bike_id":"992d461f-8839-4086-b27a-9edc1d38b03d","system_id":"levelo_inurba_marseille","lat":43.33525,"lon":5.37462,"is_reserved":false,"is_disabled":false,"rental_uris":{"android":"levelo://app?vid=992d461f-8839-4086-b27a-9edc1d38b03d","ios":"levelo://app?vid=992d461f-8839-4086-b27a-9edc1d38b03d"},"vehicle_type_id":"4","last_reported":1774424743,"current_range_meters":8000,"station_id":"st_d46tts09ee8s73dlu43g","pricing_plan_id":"cebpf4jnsgd1na2vs0mg"},{"bike_id":"22123110-8f4d-447c-a492-e91d3e302abc","system_id":"levelo_inurba_marseille","lat":43.28412,"lon":5.34994,"is_reserved":false,"is_disabled":false,"rental_uris":{"android":"levelo://app?vid=22123110-8f4d-447c-a492-e91d3e302abc","ios":"levelo://app?vid=22123110-8f4d-447c-a492-e91d3e302abc"},"vehicle_type_id":"4","last_reported":1774424743,"current_range_meters":8000,"station_id":"ce4bhbh2rcd13ifvqepg","pricing_plan_id":"cebpf4jnsgd1na2vs0mg"},{"bike_id":"6e567d2e-4fc5-4624-b0c4-4ed58c76ded5","system_id":"levelo_inurba_marseille","lat":43.30141,"lon":5.39866,"is_reserved":false,"is_disabled":false,"rental_uris":{"android":"levelo://app?vid=6e567d2e-4fc5-4624-b0c4-4ed58c76ded5","ios":"levelo://app?vid=6e567d2e-4fc5-4624-b0c4-4ed58c76ded5"},"vehicle_type_id":"4","last_reported":1774424743,"current_range_meters":8000,"station_id":"ce4bh0h2rcd13ifvqd40","pricing_plan_id":"cebpf4jnsgd1na2vs0mg"},{"bike_id":"e73aa5c4-587d-43ed-8ac6-1108384813a2","system_id":"levelo_inurba_marseille","lat":43.27911,"lon":5.39562,"is_reserved":false,"is_disabled":true,"rental_uris":{"android":"levelo://app?vid=e73aa5c4-587d-43ed-8ac6-1108384813a2","ios":"levelo://app?vid=e73aa5c4-587d-43ed-8ac6-1108384813a2"},"vehicle_type_id":"4","last_reported":1774424743,"current_range_meters":8000,"station_id":"ce4bhf92rcd13ifvqf40","pricing_plan_id":"cebpf4jnsgd1na2vs0mg"},{"bike_id":"b236ba0f-68b9-4f75-96e1-de33848f6431","system_id":"levelo_inurba_marseille","lat":43.30905,"lon":5.36851,"is_reserved":false,"is_disabled":false,"rental_uris":{"android":"levelo://app?vid=b236ba0f-68b9-4f75-96e1-de33848f6431","ios":"levelo://app?vid=b236ba0f-68b9-4f75-96e1-de33848f6431"},"vehicle_type_id":"4","last_reported":1774424743,"current_range_meters":8000,"station_id":"ce4bgn92rcd13ifvqbvg","pricing_plan_id":"cebpf4jnsgd1na2vs0mg"},{"bike_id":"5c39f7cf-c7f7-4747-b217-e778a50c0011","system_id":"levelo_inurba_marseille","lat":43.3002,"lon":5.37611,"is_reserved":false,"is_disabled":false,"rental_uris":{"android":"levelo://app?vid=5c39f7cf-c7f7-4747-b217-e778a50c0011","ios":"levelo://app?vid=5c39f7cf-c7f7-4747-b217-e778a50c0011"},"vehicle_type_id":"4","last_reported":1774424743,"current_range_meters":8000,"station_id":"","pricing_plan_id":"cebpf4jnsgd1na2vs0mg"},{"bike_id":"c1e92c70-aede-452c-8e8c-6914c0324e0c","system_id":"levelo_inurba_marseille","lat":43.2904,"lon":5.35919,"is_reserved":false,"is_disabled":true,"rental_uris":{"android":"levelo://app?vid=c1e92c70-aede-452c-8e8c-6914c0324e0c","ios":"levelo://app?vid=c1e92c70-aede-452c-8e8c-6914c0324e0c"},"vehicle_type_id":"4","last_reported":1774424743,"current_range_meters":8000,"station_id":"ce4bha92rcd13ifvqeg0","pricing_plan_id":"cebpf4jnsgd1na2vs0mg"},{"bike_id":"331e477d-e9f4-43fd-9723-1e80bdbc0255","system_id":"levelo_inurba_marseille","lat":43.30381,"lon":5.39787,"is_reserved":false,"is_disabled":false,"rental_uris":{"android":"levelo://app?vid=331e477d-e9f4-43fd-9723-1e80bdbc0255","ios":"levelo://app?vid=331e477d-e9f4-43fd-9723-1e80bdbc0255"},"vehicle_type_id":"4","last_reported":1774424743,"current_range_meters":8000,"station_id":"","pricing_plan_id":"cebpf4jnsgd1na2vs0mg"},{"bike_id":"2f430c62-15bb-430c-969c-56b5339d66a3","system_id":"levelo_inurba_marseille","lat":43.28533,"lon":5.44102,"is_reserved":false,"is_disabled":false,"rental_uris":{"android":"levelo://app?vid=2f430c62-15bb-430c-969c-56b5339d66a3","ios":"levelo://app?vid=2f430c62-15bb-430c-969c-56b5339d66a3"},"vehicle_type_id":"4","last_reported":1774424743,"current_range_meters":8000,"station_id":"st_d3j3df2ikq2c7380ej80","pricing_plan_id":"cebpf4jnsgd1na2vs0mg"},{"bike_id":"d594e935-ec7a-4a10-af1c-e7aeb3a4a3cc","system_id":"levelo_inurba_marseille","lat":43.25326,"lon":5.42181,"is_reserved":false,"is_disabled":false,"rental_uris":{"android":"levelo://app?vid=d594e935-ec7a-4a10-af1c-e7aeb3a4a3cc","ios":"levelo://app?vid=d594e935-ec7a-4a10-af1c-e7aeb3a4a3cc"},"vehicle_type_id":"4","last_reported":1774424743,"current_range_meters":8000,"station_id":"st_d2m65c5bi1j21697t3ng","pricing_plan_id":"cebpf4jnsgd1na2vs0mg"},{"bike_id":"d0adcb6d-011f-4790-8aee-c3605358f198","system_id":"levelo_inurba_marseille","lat":43.33011,"lon":5.39049,"is_reserved":false,"is_disabled":false,"rental_uris":{"android":"levelo://app?vid=d0adcb6d-011f-4790-8aee-c3605358f198","ios":"levelo://app?vid=d0adcb6d-011f-4790-8aee-c3605358f198"},"vehicle_type_id":"4","last_reported":1774424743,"current_range_meters":8400,"station_id":"ce4bhr92rcd13ifvqhrg","pricing_plan_id":"cebpf4jnsgd1na2vs0mg"},{"bike_id":"64fed88b-ebdc-49a9-8de1-6d425fe0015a","system_id":"levelo_inurba_marseille","lat":43.30646,"lon":5.40084,"is_reserved":false,"is_disabled":false,"rental_uris":{"android":"levelo://app?vid=64fed88b-ebdc-49a9-8de1-6d425fe0015a","ios":"levelo://app?vid=64fed88b-ebdc-49a9-8de1-6d425fe0015a"},"vehicle_type_id":"4","last_reported":1774424743,"current_range_meters":8400,"station_id":"ce4bh112rcd13ifvqda0","pricing_plan_id":"cebpf4jnsgd1na2vs0mg"},{"bike_id":"390642d5-ebc3-4bda-abf8-55b0c8070dc5","system_id":"levelo_inurba_marseille","lat":43.26683,"lon":5.38264,"is_reserved":false,"is_disabled":true,"rental_uris":{"android":"levelo://app?vid=390642d5-ebc3-4bda-abf8-55b0c8070dc5","ios":"levelo://app?vid=390642d5-ebc3-4bda-abf8-55b0c8070dc5"},"vehicle_type_id":"4","last_reported":1774424743,"current_range_meters":8400,"station_id":"ce4bhg92rcd13ifvqf90","pricing_plan_id":"cebpf4jnsgd1na2vs0mg"},{"bike_id":"89673b48-b93e-49b1-91bc-4a5460ed425e","system_id":"levelo_inurba_marseille","lat":43.29896,"lon":5.43676,"is_reserved":false,"is_disabled":false,"rental_uris":{"android":"levelo://app?vid=89673b48-b93e-49b1-91bc-4a5460ed425e","ios":"levelo://app?vid=89673b48-b93e-49b1-91bc-4a5460ed425e"},"vehicle_type_id":"4","last_reported":1774424743,"current_range_meters":8400,"station_id":"ce4bhpp2rcd13ifvqhfg","pricing_plan_id":"cebpf4jnsgd1na2vs0mg"},{"bike_id":"614b36d8-067b-4b53-b46a-94738fd58a77","system_id":"levelo_inurba_marseille","lat":43.30447,"lon":5.39731,"is_reserved":false,"is_disabled":false,"rental_uris":{"android":"levelo://app?vid=614b36d8-067b-4b53-b46a-94738fd58a77","ios":"levelo://app?vid=614b36d8-067b-4b53-b46a-94738fd58a77"},"vehicle_type_id":"4","last_reported":1774424743,"current_range_meters":8400,"station_id":"ce4bh092rcd13ifvqd20","pricing_plan_id":"cebpf4jnsgd1na2vs0mg"},{"bike_id":"140fffea-ded2-4b53-a55a-ce65aaf1968d","system_id":"levelo_inurba_marseille","lat":43.26555,"lon":5.37302,"is_reserved":false,"is_disabled":false,"rental_uris":{"android":"levelo://app?vid=140fffea-ded2-4b53-a55a-ce65aaf1968d","ios":"levelo://app?vid=140fffea-ded2-4b53-a55a-ce65aaf1968d"},"vehicle_type_id":"4","last_reported":1774424743,"current_range_meters":8400,"station_id":"ce4bhg12rcd13ifvqf70","pricing_plan_id":"cebpf4jnsgd1na2vs0mg"},{"bike_id":"aa929685-e4dd-4a31-a1c6-979463fa81a3","system_id":"levelo_inurba_marseille","lat":43.2848,"lon":5.48396,"is_reserved":false,"is_disabled":false,"rental_uris":{"android":"levelo://app?vid=aa929685-e4dd-4a31-a1c6-979463fa81a3","ios":"levelo://app?vid=aa929685-e4dd-4a31-a1c6-979463fa81a3"},"vehicle_type_id":"4","last_reported":1774424743,"current_range_meters":8400,"station_id":"st_d3svhcjqgbts73a3dn0g","pricing_plan_id":"cebpf4jnsgd1na2vs0mg"},{"bike_id":"484f2abe-81d9-4c3a-92bb-99d4e164fc66","system_id":"levelo_inurba_marseille","lat":43.27477,"lon":5.41639,"is_reserved":false,"is_disabled":false,"rental_uris":{"android":"levelo://app?vid=484f2abe-81d9-4c3a-92bb-99d4e164fc66","ios":"levelo://app?vid=484f2abe-81d9-4c3a-92bb-99d4e164fc66"},"vehicle_type_id":"4","last_reported":1774424743,"current_range_meters":8400,"station_id":"st_d6im8g6chgec73a5pndg","pricing_plan_id":"cebpf4jnsgd1na2vs0mg"},{"bike_id":"8ba21890-7d18-4d86-9267-31e7661dcb9b","system_id":"levelo_inurba_marseille","lat":43.26209,"lon":5.40444,"is_reserved":false,"is_disabled":false,"rental_uris":{"android":"levelo://app?vid=8ba21890-7d18-4d86-9267-31e7661dcb9b","ios":"levelo://app?vid=8ba21890-7d18-4d86-9267-31e7661dcb9b"},"vehicle_type_id":"4","last_reported":1774424743,"current_range_meters":8400,"station_id":"ce4bhk92rcd13ifvqgb0","pricing_plan_id":"cebpf4jnsgd1na2vs0mg"},{"bike_id":"8149c1f7-5cce-494d-88a1-f8ad5dd79f89","system_id":"levelo_inurba_marseille","lat":43.24994,"lon":5.38935,"is_reserved":false,"is_disabled":false,"rental_uris":{"android":"levelo://app?vid=8149c1f7-5cce-494d-88a1-f8ad5dd79f89","ios":"levelo://app?vid=8149c1f7-5cce-494d-88a1-f8ad5dd79f89"},"vehicle_type_id":"4","last_reported":1774424743,"current_range_meters":8400,"station_id":"ce4bhgp2rcd13ifvqfd0","pricing_plan_id":"cebpf4jnsgd1na2vs0mg"},{"bike_id":"743383d3-68fd-4243-85ba-4364b2e7a080","system_id":"levelo_inurba_marseille","lat":43.24545,"lon":5.39522,"is_reserved":false,"is_disabled":true,"rental_uris":{"android":"levelo://app?vid=743383d3-68fd-4243-85ba-4364b2e7a080","ios":"levelo://app?vid=743383d3-68fd-4243-85ba-4364b2e7a080"},"vehicle_type_id":"4","last_reported":1774424743,"current_range_meters":8400,"station_id":"ce4bhlp2rcd13ifvqgjg","pricing_plan_id":"cebpf4jnsgd1na2vs0mg"},{"bike_id":"25ce42a0-72ef-4339-99d5-b1fe5613ee28","system_id":"levelo_inurba_marseille","lat":43.28605,"lon":5.37064,"is_reserved":false,"is_disabled":false,"rental_uris":{"android":"levelo://app?vid=25ce42a0-72ef-4339-99d5-b1fe5613ee28","ios":"levelo://app?vid=25ce42a0-72ef-4339-99d5-b1fe5613ee28"},"vehicle_type_id":"4","last_reported":1774424743,"current_range_meters":8400,"station_id":"ce4bht12rcd13ifvqi60","pricing_plan_id":"cebpf4jnsgd1na2vs0mg"},{"bike_id":"3c0cc392-be0e-4921-9820-68ce186ffc4c","system_id":"levelo_inurba_marseille","lat":43.30142,"lon":5.38098,"is_reserved":false,"is_disabled":false,"rental_uris":{"android":"levelo://app?vid=3c0cc392-be0e-4921-9820-68ce186ffc4c","ios":"levelo://app?vid=3c0cc392-be0e-4921-9820-68ce186ffc4c"},"vehicle_type_id":"4","last_reported":1774424743,"current_range_meters":8400,"station_id":"ce4bgjp2rcd13ifvqbh0","pricing_plan_id":"cebpf4jnsgd1na2vs0mg"},{"bike_id":"451e822b-d17c-41b3-aa86-e9da4e66ded2","system_id":"levelo_inurba_marseille","lat":43.23961,"lon":5.36632,"is_reserved":false,"is_disabled":false,"rental_uris":{"android":"levelo://app?vid=451e822b-d17c-41b3-aa86-e9da4e66ded2","ios":"levelo://app?vid=451e822b-d17c-41b3-aa86-e9da4e66ded2"},"vehicle_type_id":"4","last_reported":1774424743,"current_range_meters":8400,"station_id":"ce4bhi12rcd13ifvqfp0","pricing_plan_id":"cebpf4jnsgd1na2vs0mg"},{"bike_id":"81afbade-9b61-4865-965d-d9c81a599521","system_id":"levelo_inurba_marseille","lat":43.23776,"lon":5.36628,"is_reserved":false,"is_disabled":false,"rental_uris":{"android":"levelo://app?vid=81afbade-9b61-4865-965d-d9c81a599521","ios":"levelo://app?vid=81afbade-9b61-4865-965d-d9c81a599521"},"vehicle_type_id":"4","last_reported":1774424743,"current_range_meters":8400,"station_id":"st_d3nk18o9ro0c73en2l3g","pricing_plan_id":"cebpf4jnsgd1na2vs0mg"},{"bike_id":"a262f43d-85a2-4a30-93dd-8651921757f5","system_id":"levelo_inurba_marseille","lat":43.23211,"lon":5.43731,"is_reserved":false,"is_disabled":false,"rental_uris":{"android":"levelo://app?vid=a262f43d-85a2-4a30-93dd-8651921757f5","ios":"levelo://app?vid=a262f43d-85a2-4a30-93dd-8651921757f5"},"vehicle_type_id":"4","last_reported":1774424743,"current_range_meters":8400,"station_id":"ce4bhmp2rcd13ifvqgog","pricing_plan_id":"cebpf4jnsgd1na2vs0mg"},{"bike_id":"1748ca74-c1d8-4cbe-b15c-38301e475a6b","system_id":"levelo_inurba_marseille","lat":43.31489,"lon":5.37298,"is_reserved":false,"is_disabled":false,"rental_uris":{"android":"levelo://app?vid=1748ca74-c1d8-4cbe-b15c-38301e475a6b","ios":"levelo://app?vid=1748ca74-c1d8-4cbe-b15c-38301e475a6b"},"vehicle_type_id":"4","last_reported":1774424743,"current_range_meters":8400,"station_id":"ce4bgt12rcd13ifvqcd0","pricing_plan_id":"cebpf4jnsgd1na2vs0mg"},{"bike_id":"5314c2de-7487-4364-8a8a-9b454e58ba0a","system_id":"levelo_inurba_marseille","lat":43.2904,"lon":5.39986,"is_reserved":false,"is_disabled":false,"rental_uris":{"android":"levelo://app?vid=5314c2de-7487-4364-8a8a-9b454e58ba0a","ios":"levelo://app?vid=5314c2de-7487-4364-8a8a-9b454e58ba0a"},"vehicle_type_id":"4","last_reported":1774424743,"current_range_meters":8400,"station_id":"ce4bh392rcd13ifvqdm0","pricing_plan_id":"cebpf4jnsgd1na2vs0mg"},{"bike_id":"b2c2dee2-375f-46ce-849f-06992d44e2fd","system_id":"levelo_inurba_marseille","lat":43.341368,"lon":5.409083,"is_reserved":false,"is_disabled":false,"rental_uris":{"android":"levelo://app?vid=b2c2dee2-375f-46ce-849f-06992d44e2fd","ios":"levelo://app?vid=b2c2dee2-375f-46ce-849f-06992d44e2fd"},"vehicle_type_id":"4","last_reported":1774424743,"current_range_meters":8400,"station_id":"ce4bhqh2rcd13ifvqhlg","pricing_plan_id":"cebpf4jnsgd1na2vs0mg"},{"bike_id":"3969d9ff-e51e-44fd-8e71-b3c87bcabc26","system_id":"levelo_inurba_marseille","lat":43.25825,"lon":5.39444,"is_reserved":false,"is_disabled":false,"rental_uris":{"android":"levelo://app?vid=3969d9ff-e51e-44fd-8e71-b3c87bcabc26","ios":"levelo://app?vid=3969d9ff-e51e-44fd-8e71-b3c87bcabc26"},"vehicle_type_id":"4","last_reported":1774424743,"current_range_meters":8400,"station_id":"ce4bhip2rcd13ifvqft0","pricing_plan_id":"cebpf4jnsgd1na2vs0mg"},{"bike_id":"2388ecfd-6b4d-45db-8abd-949d637a4541","system_id":"levelo_inurba_marseille","lat":43.3028,"lon":5.37709,"is_reserved":false,"is_disabled":false,"rental_uris":{"android":"levelo://app?vid=2388ecfd-6b4d-45db-8abd-949d637a4541","ios":"levelo://app?vid=2388ecfd-6b4d-45db-8abd-949d637a4541"},"vehicle_type_id":"4","last_reported":1774424743,"current_range_meters":8400,"station_id":"ce4bguh2rcd13ifvqcj0","pricing_plan_id":"cebpf4jnsgd1na2vs0mg"},{"bike_id":"0df6d16f-36d4-42c1-8335-b8a697e6bb13","system_id":"levelo_inurba_marseille","lat":43.29563,"lon":5.3753,"is_reserved":false,"is_disabled":false,"rental_uris":{"android":"levelo://app?vid=0df6d16f-36d4-42c1-8335-b8a697e6bb13","ios":"levelo://app?vid=0df6d16f-36d4-42c1-8335-b8a697e6bb13"},"vehicle_type_id":"4","last_reported":1774424743,"current_range_meters":8800,"station_id":"ce4bgh92rcd13ifvqb50","pricing_plan_id":"cebpf4jnsgd1na2vs0mg"},{"bike_id":"f930c486-08df-4a84-b7c3-ffc4d1c80abe","system_id":"levelo_inurba_marseille","lat":43.24624,"lon":5.38881,"is_reserved":false,"is_disabled":false,"rental_uris":{"android":"levelo://app?vid=f930c486-08df-4a84-b7c3-ffc4d1c80abe","ios":"levelo://app?vid=f930c486-08df-4a84-b7c3-ffc4d1c80abe"},"vehicle_type_id":"4","last_reported":1774424743,"current_range_meters":8800,"station_id":"ce4bhg12rcd13ifvqf60","pricing_plan_id":"cebpf4jnsgd1na2vs0mg"},{"bike_id":"6933eb6a-61e9-4abe-b2cd-4fa53f4b4f99","system_id":"levelo_inurba_marseille","lat":43.32488,"lon":5.38295,"is_reserved":false,"is_disabled":false,"rental_uris":{"android":"levelo://app?vid=6933eb6a-61e9-4abe-b2cd-4fa53f4b4f99","ios":"levelo://app?vid=6933eb6a-61e9-4abe-b2cd-4fa53f4b4f99"},"vehicle_type_id":"4","last_reported":1774424743,"current_range_meters":8800,"station_id":"st_d4asgbiv49dc73anf9m0","pricing_plan_id":"cebpf4jnsgd1na2vs0mg"},{"bike_id":"da6972b3-b161-480b-8ef0-1ff556fc7299","system_id":"levelo_inurba_marseille","lat":43.23787,"lon":5.36641,"is_reserved":false,"is_disabled":false,"rental_uris":{"android":"levelo://app?vid=da6972b3-b161-480b-8ef0-1ff556fc7299","ios":"levelo://app?vid=da6972b3-b161-480b-8ef0-1ff556fc7299"},"vehicle_type_id":"4","last_reported":1774424743,"current_range_meters":8800,"station_id":"st_d3nk18o9ro0c73en2l3g","pricing_plan_id":"cebpf4jnsgd1na2vs0mg"},{"bike_id":"d64c94f3-e268-41de-bac3-5a218887d9b5","system_id":"levelo_inurba_marseille","lat":43.28465,"lon":5.484,"is_reserved":false,"is_disabled":false,"rental_uris":{"android":"levelo://app?vid=d64c94f3-e268-41de-bac3-5a218887d9b5","ios":"levelo://app?vid=d64c94f3-e268-41de-bac3-5a218887d9b5"},"vehicle_type_id":"4","last_reported":1774424743,"current_range_meters":8800,"station_id":"","pricing_plan_id":"cebpf4jnsgd1na2vs0mg"},{"bike_id":"fdd8bf84-b2fe-4508-9572-06ea662fa5ac","system_id":"levelo_inurba_marseille","lat":43.28472,"lon":5.48398,"is_reserved":false,"is_disabled":false,"rental_uris":{"android":"levelo://app?vid=fdd8bf84-b2fe-4508-9572-06ea662fa5ac","ios":"levelo://app?vid=fdd8bf84-b2fe-4508-9572-06ea662fa5ac"},"vehicle_type_id":"4","last_reported":1774424743,"current_range_meters":8800,"station_id":"","pricing_plan_id":"cebpf4jnsgd1na2vs0mg"},{"bike_id":"9b8ef9d9-2b69-4832-b2af-dff113d7bac1","system_id":"levelo_inurba_marseille","lat":43.27318,"lon":5.3911,"is_reserved":false,"is_disabled":true,"rental_uris":{"android":"levelo://app?vid=9b8ef9d9-2b69-4832-b2af-dff113d7bac1","ios":"levelo://app?vid=9b8ef9d9-2b69-4832-b2af-dff113d7bac1"},"vehicle_type_id":"4","last_reported":1774424743,"current_range_meters":8800,"station_id":"ce4bhgp2rcd13ifvqfe0","pricing_plan_id":"cebpf4jnsgd1na2vs0mg"},{"bike_id":"1ba57c90-7d4d-4f6a-8c99-194d4e4f4601","system_id":"levelo_inurba_marseille","lat":43.26554,"lon":5.39048,"is_reserved":false,"is_disabled":false,"rental_uris":{"android":"levelo://app?vid=1ba57c90-7d4d-4f6a-8c99-194d4e4f4601","ios":"levelo://app?vid=1ba57c90-7d4d-4f6a-8c99-194d4e4f4601"},"vehicle_type_id":"4","last_reported":1774424743,"current_range_meters":8800,"station_id":"ce4bhe12rcd13ifvqf30","pricing_plan_id":"cebpf4jnsgd1na2vs0mg"},{"bike_id":"89216a4c-46f8-4908-9e41-66fb4c4f72d3","system_id":"levelo_inurba_marseille","lat":43.29902,"lon":5.37472,"is_reserved":false,"is_disabled":false,"rental_uris":{"android":"levelo://app?vid=89216a4c-46f8-4908-9e41-66fb4c4f72d3","ios":"levelo://app?vid=89216a4c-46f8-4908-9e41-66fb4c4f72d3"},"vehicle_type_id":"4","last_reported":1774424743,"current_range_meters":8800,"station_id":"ce4bgjh2rcd13ifvqbg0","pricing_plan_id":"cebpf4jnsgd1na2vs0mg"},{"bike_id":"db8e1c36-1d9c-44d2-bc2d-f91041c6fca2","system_id":"levelo_inurba_marseille","lat":43.28442,"lon":5.45783,"is_reserved":false,"is_disabled":false,"rental_uris":{"android":"levelo://app?vid=db8e1c36-1d9c-44d2-bc2d-f91041c6fca2","ios":"levelo://app?vid=db8e1c36-1d9c-44d2-bc2d-f91041c6fca2"},"vehicle_type_id":"4","last_reported":1774424743,"current_range_meters":8800,"station_id":"","pricing_plan_id":"cebpf4jnsgd1na2vs0mg"},{"bike_id":"76874935-a550-4b44-90a3-28eb485c749a","system_id":"levelo_inurba_marseille","lat":43.29628,"lon":5.37161,"is_reserved":false,"is_disabled":true,"rental_uris":{"android":"levelo://app?vid=76874935-a550-4b44-90a3-28eb485c749a","ios":"levelo://app?vid=76874935-a550-4b44-90a3-28eb485c749a"},"vehicle_type_id":"4","last_reported":1774424743,"current_range_meters":8800,"station_id":"ce4bgnh2rcd13ifvqc0g","pricing_plan_id":"cebpf4jnsgd1na2vs0mg"},{"bike_id":"b9a275c9-d51f-4f11-a776-e728aae18c62","system_id":"levelo_inurba_marseille","lat":43.25339,"lon":5.42192,"is_reserved":false,"is_disabled":false,"rental_uris":{"android":"levelo://app?vid=b9a275c9-d51f-4f11-a776-e728aae18c62","ios":"levelo://app?vid=b9a275c9-d51f-4f11-a776-e728aae18c62"},"vehicle_type_id":"4","last_reported":1774424743,"current_range_meters":8800,"station_id":"st_d2m65c5bi1j21697t3ng","pricing_plan_id":"cebpf4jnsgd1na2vs0mg"},{"bike_id":"942ff02c-31c2-4c51-8842-9c7d3c411c98","system_id":"levelo_inurba_marseille","lat":43.26554,"lon":5.37306,"is_reserved":false,"is_disabled":true,"rental_uris":{"android":"levelo://app?vid=942ff02c-31c2-4c51-8842-9c7d3c411c98","ios":"levelo://app?vid=942ff02c-31c2-4c51-8842-9c7d3c411c98"},"vehicle_type_id":"4","last_reported":1774424743,"current_range_meters":8800,"station_id":"ce4bhg12rcd13ifvqf70","pricing_plan_id":"cebpf4jnsgd1na2vs0mg"},{"bike_id":"d0a01b1b-7f7b-4818-9032-f41ba101bcf0","system_id":"levelo_inurba_marseille","lat":43.24068,"lon":5.37763,"is_reserved":false,"is_disabled":false,"rental_uris":{"android":"levelo://app?vid=d0a01b1b-7f7b-4818-9032-f41ba101bcf0","ios":"levelo://app?vid=d0a01b1b-7f7b-4818-9032-f41ba101bcf0"},"vehicle_type_id":"4","last_reported":1774424743,"current_range_meters":8800,"station_id":"","pricing_plan_id":"cebpf4jnsgd1na2vs0mg"},{"bike_id":"2726efb4-ce06-4f2f-8065-e4ac3aedc676","system_id":"levelo_inurba_marseille","lat":43.29673,"lon":5.38183,"is_reserved":false,"is_disabled":false,"rental_uris":{"android":"levelo://app?vid=2726efb4-ce06-4f2f-8065-e4ac3aedc676","ios":"levelo://app?vid=2726efb4-ce06-4f2f-8065-e4ac3aedc676"},"vehicle_type_id":"4","last_reported":1774424743,"current_range_meters":8800,"station_id":"","pricing_plan_id":"cebpf4jnsgd1na2vs0mg"},{"bike_id":"3c99a2c2-4c4c-4897-94e9-d8f5694991fa","system_id":"levelo_inurba_marseille","lat":43.30943,"lon":5.39042,"is_reserved":false,"is_disabled":false,"rental_uris":{"android":"levelo://app?vid=3c99a2c2-4c4c-4897-94e9-d8f5694991fa","ios":"levelo://app?vid=3c99a2c2-4c4c-4897-94e9-d8f5694991fa"},"vehicle_type_id":"4","last_reported":1774424743,"current_range_meters":8800,"station_id":"ce4bgup2rcd13ifvqco0","pricing_plan_id":"cebpf4jnsgd1na2vs0mg"},{"bike_id":"fc7f53ff-877f-47c4-94f9-b836fa5b3b73","system_id":"levelo_inurba_marseille","lat":43.33165,"lon":5.37711,"is_reserved":false,"is_disabled":false,"rental_uris":{"android":"levelo://app?vid=fc7f53ff-877f-47c4-94f9-b836fa5b3b73","ios":"levelo://app?vid=fc7f53ff-877f-47c4-94f9-b836fa5b3b73"},"vehicle_type_id":"4","last_reported":1774424743,"current_range_meters":8800,"station_id":"st_d46cu089ee8s73dldbu0","pricing_plan_id":"cebpf4jnsgd1na2vs0mg"},{"bike_id":"d8f8fe76-e720-48ac-b8f7-bde570231e44","system_id":"levelo_inurba_marseille","lat":43.28708,"lon":5.37906,"is_reserved":false,"is_disabled":false,"rental_uris":{"android":"levelo://app?vid=d8f8fe76-e720-48ac-b8f7-bde570231e44","ios":"levelo://app?vid=d8f8fe76-e720-48ac-b8f7-bde570231e44"},"vehicle_type_id":"4","last_reported":1774424743,"current_range_meters":8800,"station_id":"ce4bh9p2rcd13ifvqec0","pricing_plan_id":"cebpf4jnsgd1na2vs0mg"},{"bike_id":"328fb06e-5493-4637-87ce-47808f6ba795","system_id":"levelo_inurba_marseille","lat":43.24165,"lon":5.36396,"is_reserved":false,"is_disabled":false,"rental_uris":{"android":"levelo://app?vid=328fb06e-5493-4637-87ce-47808f6ba795","ios":"levelo://app?vid=328fb06e-5493-4637-87ce-47808f6ba795"},"vehicle_type_id":"4","last_reported":1774424743,"current_range_meters":8800,"station_id":"cpo36qri1sfpv3e86is0","pricing_plan_id":"cebpf4jnsgd1na2vs0mg"},{"bike_id":"b9d157e4-adb0-4d64-b93d-349f42c39fcf","system_id":"levelo_inurba_marseille","lat":43.31884,"lon":5.36831,"is_reserved":false,"is_disabled":false,"rental_uris":{"android":"levelo://app?vid=b9d157e4-adb0-4d64-b93d-349f42c39fcf","ios":"levelo://app?vid=b9d157e4-adb0-4d64-b93d-349f42c39fcf"},"vehicle_type_id":"4","last_reported":1774424743,"current_range_meters":8800,"station_id":"st_d6o2h0d0559c73evc1b0","pricing_plan_id":"cebpf4jnsgd1na2vs0mg"},{"bike_id":"da236239-5972-47c7-9abc-79482f214183","system_id":"levelo_inurba_marseille","lat":43.2407,"lon":5.37734,"is_reserved":false,"is_disabled":false,"rental_uris":{"android":"levelo://app?vid=da236239-5972-47c7-9abc-79482f214183","ios":"levelo://app?vid=da236239-5972-47c7-9abc-79482f214183"},"vehicle_type_id":"4","last_reported":1774424743,"current_range_meters":8800,"station_id":"ce4bhnp2rcd13ifvqgvg","pricing_plan_id":"cebpf4jnsgd1na2vs0mg"},{"bike_id":"742ca053-a063-4e48-baca-0cee52277e18","system_id":"levelo_inurba_marseille","lat":43.27077,"lon":5.38312,"is_reserved":false,"is_disabled":true,"rental_uris":{"android":"levelo://app?vid=742ca053-a063-4e48-baca-0cee52277e18","ios":"levelo://app?vid=742ca053-a063-4e48-baca-0cee52277e18"},"vehicle_type_id":"4","last_reported":1774424743,"current_range_meters":9200,"station_id":"st_d3n2fo6cfp8s73cte1j0","pricing_plan_id":"cebpf4jnsgd1na2vs0mg"},{"bike_id":"3018e8f0-fffc-4e0b-80f2-7f6320b7a9c1","system_id":"levelo_inurba_marseille","lat":43.31171,"lon":5.3685,"is_reserved":false,"is_disabled":false,"rental_uris":{"android":"levelo://app?vid=3018e8f0-fffc-4e0b-80f2-7f6320b7a9c1","ios":"levelo://app?vid=3018e8f0-fffc-4e0b-80f2-7f6320b7a9c1"},"vehicle_type_id":"4","last_reported":1774424743,"current_range_meters":9200,"station_id":"","pricing_plan_id":"cebpf4jnsgd1na2vs0mg"},{"bike_id":"5ec79b4e-9893-4c40-8854-29e1fdef2ce2","system_id":"levelo_inurba_marseille","lat":43.31879,"lon":5.36812,"is_reserved":false,"is_disabled":false,"rental_uris":{"android":"levelo://app?vid=5ec79b4e-9893-4c40-8854-29e1fdef2ce2","ios":"levelo://app?vid=5ec79b4e-9893-4c40-8854-29e1fdef2ce2"},"vehicle_type_id":"4","last_reported":1774424743,"current_range_meters":9200,"station_id":"st_d6o2h0d0559c73evc1b0","pricing_plan_id":"cebpf4jnsgd1na2vs0mg"},{"bike_id":"a20bca81-a392-424e-a85c-bf79f4eb1a7b","system_id":"levelo_inurba_marseille","lat":43.23786,"lon":5.36635,"is_reserved":false,"is_disabled":false,"rental_uris":{"android":"levelo://app?vid=a20bca81-a392-424e-a85c-bf79f4eb1a7b","ios":"levelo://app?vid=a20bca81-a392-424e-a85c-bf79f4eb1a7b"},"vehicle_type_id":"4","last_reported":1774424743,"current_range_meters":9200,"station_id":"st_d3nk18o9ro0c73en2l3g","pricing_plan_id":"cebpf4jnsgd1na2vs0mg"},{"bike_id":"5fea4591-9536-478c-9dd1-1abddc74092a","system_id":"levelo_inurba_marseille","lat":43.284071,"lon":5.375206,"is_reserved":false,"is_disabled":false,"rental_uris":{"android":"levelo://app?vid=5fea4591-9536-478c-9dd1-1abddc74092a","ios":"levelo://app?vid=5fea4591-9536-478c-9dd1-1abddc74092a"},"vehicle_type_id":"4","last_reported":1774424743,"current_range_meters":9200,"station_id":"ce4bh412rcd13ifvqds0","pricing_plan_id":"cebpf4jnsgd1na2vs0mg"},{"bike_id":"d17bdd52-6d26-4852-b390-14f45569db41","system_id":"levelo_inurba_marseille","lat":43.25495,"lon":5.3765,"is_reserved":false,"is_disabled":false,"rental_uris":{"android":"levelo://app?vid=d17bdd52-6d26-4852-b390-14f45569db41","ios":"levelo://app?vid=d17bdd52-6d26-4852-b390-14f45569db41"},"vehicle_type_id":"4","last_reported":1774424743,"current_range_meters":9200,"station_id":"ce4bhh12rcd13ifvqff0","pricing_plan_id":"cebpf4jnsgd1na2vs0mg"},{"bike_id":"4baec0fe-6f6b-4464-aa89-969ffff1f201","system_id":"levelo_inurba_marseille","lat":43.28342,"lon":5.38107,"is_reserved":false,"is_disabled":true,"rental_uris":{"android":"levelo://app?vid=4baec0fe-6f6b-4464-aa89-969ffff1f201","ios":"levelo://app?vid=4baec0fe-6f6b-4464-aa89-969ffff1f201"},"vehicle_type_id":"4","last_reported":1774424743,"current_range_meters":9200,"station_id":"ce4bh412rcd13ifvqdr0","pricing_plan_id":"cebpf4jnsgd1na2vs0mg"},{"bike_id":"586ed67b-4578-4abc-88ab-8347db7aebf0","system_id":"levelo_inurba_marseille","lat":43.28062,"lon":5.37913,"is_reserved":false,"is_disabled":false,"rental_uris":{"android":"levelo://app?vid=586ed67b-4578-4abc-88ab-8347db7aebf0","ios":"levelo://app?vid=586ed67b-4578-4abc-88ab-8347db7aebf0"},"vehicle_type_id":"4","last_reported":1774424743,"current_range_meters":9200,"station_id":"","pricing_plan_id":"cebpf4jnsgd1na2vs0mg"},{"bike_id":"5d7c7a91-4156-420b-b97d-85a89d91605e","system_id":"levelo_inurba_marseille","lat":43.29583,"lon":5.37523,"is_reserved":false,"is_disabled":true,"rental_uris":{"android":"levelo://app?vid=5d7c7a91-4156-420b-b97d-85a89d91605e","ios":"levelo://app?vid=5d7c7a91-4156-420b-b97d-85a89d91605e"},"vehicle_type_id":"4","last_reported":1774424743,"current_range_meters":9200,"station_id":"ce4bgh92rcd13ifvqb50","pricing_plan_id":"cebpf4jnsgd1na2vs0mg"},{"bike_id":"efacf845-54a4-4b64-8fc3-4ecb5f84add1","system_id":"levelo_inurba_marseille","lat":43.28108,"lon":5.3786,"is_reserved":false,"is_disabled":false,"rental_uris":{"android":"levelo://app?vid=efacf845-54a4-4b64-8fc3-4ecb5f84add1","ios":"levelo://app?vid=efacf845-54a4-4b64-8fc3-4ecb5f84add1"},"vehicle_type_id":"4","last_reported":1774424743,"current_range_meters":9200,"station_id":"ce4bha12rcd13ifvqee0","pricing_plan_id":"cebpf4jnsgd1na2vs0mg"},{"bike_id":"107301ff-a3ab-4eed-8839-ab5422ae13d4","system_id":"levelo_inurba_marseille","lat":43.24804,"lon":5.3745,"is_reserved":false,"is_disabled":false,"rental_uris":{"android":"levelo://app?vid=107301ff-a3ab-4eed-8839-ab5422ae13d4","ios":"levelo://app?vid=107301ff-a3ab-4eed-8839-ab5422ae13d4"},"vehicle_type_id":"4","last_reported":1774424743,"current_range_meters":9200,"station_id":"ce4bhgh2rcd13ifvqfb0","pricing_plan_id":"cebpf4jnsgd1na2vs0mg"},{"bike_id":"47dd47d3-069b-44b7-9b23-4d51871ff836","system_id":"levelo_inurba_marseille","lat":43.25507,"lon":5.37659,"is_reserved":false,"is_disabled":false,"rental_uris":{"android":"levelo://app?vid=47dd47d3-069b-44b7-9b23-4d51871ff836","ios":"levelo://app?vid=47dd47d3-069b-44b7-9b23-4d51871ff836"},"vehicle_type_id":"4","last_reported":1774424743,"current_range_meters":9200,"station_id":"ce4bhh12rcd13ifvqff0","pricing_plan_id":"cebpf4jnsgd1na2vs0mg"},{"bike_id":"5d319b91-ecae-492d-9baa-94f23b5d18f9","system_id":"levelo_inurba_marseille","lat":43.27067,"lon":5.42272,"is_reserved":false,"is_disabled":false,"rental_uris":{"android":"levelo://app?vid=5d319b91-ecae-492d-9baa-94f23b5d18f9","ios":"levelo://app?vid=5d319b91-ecae-492d-9baa-94f23b5d18f9"},"vehicle_type_id":"4","last_reported":1774424743,"current_range_meters":9200,"station_id":"ce4bhk92rcd13ifvqgb0","pricing_plan_id":"cebpf4jnsgd1na2vs0mg"},{"bike_id":"1b478838-15dd-4b5f-a4d8-ce25228ef5c4","system_id":"levelo_inurba_marseille","lat":43.30158,"lon":5.38087,"is_reserved":false,"is_disabled":false,"rental_uris":{"android":"levelo://app?vid=1b478838-15dd-4b5f-a4d8-ce25228ef5c4","ios":"levelo://app?vid=1b478838-15dd-4b5f-a4d8-ce25228ef5c4"},"vehicle_type_id":"4","last_reported":1774424743,"current_range_meters":9200,"station_id":"ce4bgjp2rcd13ifvqbh0","pricing_plan_id":"cebpf4jnsgd1na2vs0mg"},{"bike_id":"265c1a7e-ea64-47f3-959e-c623f30cf0fd","system_id":"levelo_inurba_marseille","lat":43.211932,"lon":5.350764,"is_reserved":false,"is_disabled":false,"rental_uris":{"android":"levelo://app?vid=265c1a7e-ea64-47f3-959e-c623f30cf0fd","ios":"levelo://app?vid=265c1a7e-ea64-47f3-959e-c623f30cf0fd"},"vehicle_type_id":"4","last_reported":1774424743,"current_range_meters":9200,"station_id":"st_cvj6sg6p6f1abm77japg","pricing_plan_id":"cebpf4jnsgd1na2vs0mg"},{"bike_id":"f38b0270-3938-438a-be38-43ab33707c00","system_id":"levelo_inurba_marseille","lat":43.23391,"lon":5.41236,"is_reserved":false,"is_disabled":true,"rental_uris":{"android":"levelo://app?vid=f38b0270-3938-438a-be38-43ab33707c00","ios":"levelo://app?vid=f38b0270-3938-438a-be38-43ab33707c00"},"vehicle_type_id":"4","last_reported":1774424743,"current_range_meters":9200,"station_id":"","pricing_plan_id":"cebpf4jnsgd1na2vs0mg"},{"bike_id":"1b627dd7-d071-4a06-8f09-aadb194ffd03","system_id":"levelo_inurba_marseille","lat":43.30192,"lon":5.38089,"is_reserved":false,"is_disabled":false,"rental_uris":{"android":"levelo://app?vid=1b627dd7-d071-4a06-8f09-aadb194ffd03","ios":"levelo://app?vid=1b627dd7-d071-4a06-8f09-aadb194ffd03"},"vehicle_type_id":"4","last_reported":1774424743,"current_range_meters":9200,"station_id":"","pricing_plan_id":"cebpf4jnsgd1na2vs0mg"},{"bike_id":"46120e68-7222-4af8-b27a-b3a0722d09c6","system_id":"levelo_inurba_marseille","lat":43.28653,"lon":5.3636,"is_reserved":false,"is_disabled":true,"rental_uris":{"android":"levelo://app?vid=46120e68-7222-4af8-b27a-b3a0722d09c6","ios":"levelo://app?vid=46120e68-7222-4af8-b27a-b3a0722d09c6"},"vehicle_type_id":"4","last_reported":1774424743,"current_range_meters":9200,"station_id":"ce4bhah2rcd13ifvqej0","pricing_plan_id":"cebpf4jnsgd1na2vs0mg"},{"bike_id":"5840b2c5-76c6-4609-b272-f4b1c1663b3b","system_id":"levelo_inurba_marseille","lat":43.29939,"lon":5.38828,"is_reserved":false,"is_disabled":false,"rental_uris":{"android":"levelo://app?vid=5840b2c5-76c6-4609-b272-f4b1c1663b3b","ios":"levelo://app?vid=5840b2c5-76c6-4609-b272-f4b1c1663b3b"},"vehicle_type_id":"4","last_reported":1774424743,"current_range_meters":9200,"station_id":"","pricing_plan_id":"cebpf4jnsgd1na2vs0mg"},{"bike_id":"0d1752c9-3429-40ed-a487-bb9cb7d22fbc","system_id":"levelo_inurba_marseille","lat":43.21195,"lon":5.35063,"is_reserved":false,"is_disabled":false,"rental_uris":{"android":"levelo://app?vid=0d1752c9-3429-40ed-a487-bb9cb7d22fbc","ios":"levelo://app?vid=0d1752c9-3429-40ed-a487-bb9cb7d22fbc"},"vehicle_type_id":"4","last_reported":1774424743,"current_range_meters":9200,"station_id":"","pricing_plan_id":"cebpf4jnsgd1na2vs0mg"},{"bike_id":"8ec4dad8-6468-4a79-836f-e910aa05c835","system_id":"levelo_inurba_marseille","lat":43.24143,"lon":5.39725,"is_reserved":false,"is_disabled":false,"rental_uris":{"android":"levelo://app?vid=8ec4dad8-6468-4a79-836f-e910aa05c835","ios":"levelo://app?vid=8ec4dad8-6468-4a79-836f-e910aa05c835"},"vehicle_type_id":"4","last_reported":1774424743,"current_range_meters":9200,"station_id":"ce4bhn12rcd13ifvqgpg","pricing_plan_id":"cebpf4jnsgd1na2vs0mg"},{"bike_id":"8da4c177-2bb5-4f4d-ab4e-4d0e548e74fb","system_id":"levelo_inurba_marseille","lat":43.29731,"lon":5.42788,"is_reserved":false,"is_disabled":false,"rental_uris":{"android":"levelo://app?vid=8da4c177-2bb5-4f4d-ab4e-4d0e548e74fb","ios":"levelo://app?vid=8da4c177-2bb5-4f4d-ab4e-4d0e548e74fb"},"vehicle_type_id":"4","last_reported":1774424743,"current_range_meters":9600,"station_id":"st_d3md5207bmas73dh9klg","pricing_plan_id":"cebpf4jnsgd1na2vs0mg"},{"bike_id":"09aa5f7f-8304-4f24-a99b-87ccba3bd8e7","system_id":"levelo_inurba_marseille","lat":43.23355,"lon":5.41255,"is_reserved":false,"is_disabled":false,"rental_uris":{"android":"levelo://app?vid=09aa5f7f-8304-4f24-a99b-87ccba3bd8e7","ios":"levelo://app?vid=09aa5f7f-8304-4f24-a99b-87ccba3bd8e7"},"vehicle_type_id":"4","last_reported":1774424743,"current_range_meters":9600,"station_id":"","pricing_plan_id":"cebpf4jnsgd1na2vs0mg"},{"bike_id":"f2ca6316-5032-4aec-a36e-30752d54aad5","system_id":"levelo_inurba_marseille","lat":43.28383,"lon":5.37515,"is_reserved":false,"is_disabled":false,"rental_uris":{"android":"levelo://app?vid=f2ca6316-5032-4aec-a36e-30752d54aad5","ios":"levelo://app?vid=f2ca6316-5032-4aec-a36e-30752d54aad5"},"vehicle_type_id":"4","last_reported":1774424743,"current_range_meters":9600,"station_id":"ce4bh412rcd13ifvqds0","pricing_plan_id":"cebpf4jnsgd1na2vs0mg"},{"bike_id":"e1353c27-9dbc-409c-b44a-76842076b63d","system_id":"levelo_inurba_marseille","lat":43.28865,"lon":5.42527,"is_reserved":false,"is_disabled":false,"rental_uris":{"android":"levelo://app?vid=e1353c27-9dbc-409c-b44a-76842076b63d","ios":"levelo://app?vid=e1353c27-9dbc-409c-b44a-76842076b63d"},"vehicle_type_id":"4","last_reported":1774424743,"current_range_meters":9600,"station_id":"","pricing_plan_id":"cebpf4jnsgd1na2vs0mg"},{"bike_id":"be0d328d-5560-4744-9601-5542473973cf","system_id":"levelo_inurba_marseille","lat":43.24653,"lon":5.3891,"is_reserved":false,"is_disabled":false,"rental_uris":{"android":"levelo://app?vid=be0d328d-5560-4744-9601-5542473973cf","ios":"levelo://app?vid=be0d328d-5560-4744-9601-5542473973cf"},"vehicle_type_id":"4","last_reported":1774424743,"current_range_meters":9600,"station_id":"ce4bhg12rcd13ifvqf60","pricing_plan_id":"cebpf4jnsgd1na2vs0mg"},{"bike_id":"9a8960b3-d25e-4551-8e28-b39f62740562","system_id":"levelo_inurba_marseille","lat":43.33539,"lon":5.37472,"is_reserved":false,"is_disabled":false,"rental_uris":{"android":"levelo://app?vid=9a8960b3-d25e-4551-8e28-b39f62740562","ios":"levelo://app?vid=9a8960b3-d25e-4551-8e28-b39f62740562"},"vehicle_type_id":"4","last_reported":1774424743,"current_range_meters":9600,"station_id":"st_d46tts09ee8s73dlu43g","pricing_plan_id":"cebpf4jnsgd1na2vs0mg"},{"bike_id":"317d0fae-7d4a-4bfc-a3ad-9d347e3e5200","system_id":"levelo_inurba_marseille","lat":43.27382,"lon":5.36254,"is_reserved":false,"is_disabled":false,"rental_uris":{"android":"levelo://app?vid=317d0fae-7d4a-4bfc-a3ad-9d347e3e5200","ios":"levelo://app?vid=317d0fae-7d4a-4bfc-a3ad-9d347e3e5200"},"vehicle_type_id":"4","last_reported":1774424743,"current_range_meters":9600,"station_id":"ce4bhbh2rcd13ifvqeo0","pricing_plan_id":"cebpf4jnsgd1na2vs0mg"},{"bike_id":"42082439-2caf-4d64-ae54-3421cb27d94d","system_id":"levelo_inurba_marseille","lat":43.28412,"lon":5.38637,"is_reserved":false,"is_disabled":false,"rental_uris":{"android":"levelo://app?vid=42082439-2caf-4d64-ae54-3421cb27d94d","ios":"levelo://app?vid=42082439-2caf-4d64-ae54-3421cb27d94d"},"vehicle_type_id":"4","last_reported":1774424743,"current_range_meters":9600,"station_id":"ce4bh492rcd13ifvqdvg","pricing_plan_id":"cebpf4jnsgd1na2vs0mg"},{"bike_id":"3a2d7079-a53a-4207-8597-4b5271971c69","system_id":"levelo_inurba_marseille","lat":43.259181,"lon":5.408968,"is_reserved":false,"is_disabled":false,"rental_uris":{"android":"levelo://app?vid=3a2d7079-a53a-4207-8597-4b5271971c69","ios":"levelo://app?vid=3a2d7079-a53a-4207-8597-4b5271971c69"},"vehicle_type_id":"4","last_reported":1774424743,"current_range_meters":9600,"station_id":"ce4bhm92rcd13ifvqglg","pricing_plan_id":"cebpf4jnsgd1na2vs0mg"},{"bike_id":"caf99c90-512b-4068-ace7-e50485e87cdf","system_id":"levelo_inurba_marseille","lat":43.292757,"lon":5.368432,"is_reserved":false,"is_disabled":false,"rental_uris":{"android":"levelo://app?vid=caf99c90-512b-4068-ace7-e50485e87cdf","ios":"levelo://app?vid=caf99c90-512b-4068-ace7-e50485e87cdf"},"vehicle_type_id":"4","last_reported":1774424743,"current_range_meters":9600,"station_id":"ce4bhbp2rcd13ifvqesg","pricing_plan_id":"cebpf4jnsgd1na2vs0mg"},{"bike_id":"9c06df88-bf1f-4d97-b129-f254e0c381e4","system_id":"levelo_inurba_marseille","lat":43.3361,"lon":5.4102,"is_reserved":false,"is_disabled":false,"rental_uris":{"android":"levelo://app?vid=9c06df88-bf1f-4d97-b129-f254e0c381e4","ios":"levelo://app?vid=9c06df88-bf1f-4d97-b129-f254e0c381e4"},"vehicle_type_id":"4","last_reported":1774424743,"current_range_meters":9600,"station_id":"ce4bhqh2rcd13ifvqhmg","pricing_plan_id":"cebpf4jnsgd1na2vs0mg"},{"bike_id":"313a5fd0-554c-4974-8c75-c61130b341b1","system_id":"levelo_inurba_marseille","lat":43.26954,"lon":5.38647,"is_reserved":false,"is_disabled":false,"rental_uris":{"android":"levelo://app?vid=313a5fd0-554c-4974-8c75-c61130b341b1","ios":"levelo://app?vid=313a5fd0-554c-4974-8c75-c61130b341b1"},"vehicle_type_id":"4","last_reported":1774424743,"current_range_meters":9600,"station_id":"ce4bhh92rcd13ifvqfh0","pricing_plan_id":"cebpf4jnsgd1na2vs0mg"},{"bike_id":"944ccb07-d804-4fc6-a8e4-922126b7215b","system_id":"levelo_inurba_marseille","lat":43.29945,"lon":5.37141,"is_reserved":false,"is_disabled":false,"rental_uris":{"android":"levelo://app?vid=944ccb07-d804-4fc6-a8e4-922126b7215b","ios":"levelo://app?vid=944ccb07-d804-4fc6-a8e4-922126b7215b"},"vehicle_type_id":"4","last_reported":1774424743,"current_range_meters":9600,"station_id":"ce4bgr92rcd13ifvqc7g","pricing_plan_id":"cebpf4jnsgd1na2vs0mg"},{"bike_id":"1a9dd541-458b-446b-97ea-b49e5c9e652c","system_id":"levelo_inurba_marseille","lat":43.28355,"lon":5.38096,"is_reserved":false,"is_disabled":false,"rental_uris":{"android":"levelo://app?vid=1a9dd541-458b-446b-97ea-b49e5c9e652c","ios":"levelo://app?vid=1a9dd541-458b-446b-97ea-b49e5c9e652c"},"vehicle_type_id":"4","last_reported":1774424743,"current_range_meters":9600,"station_id":"ce4bh412rcd13ifvqdr0","pricing_plan_id":"cebpf4jnsgd1na2vs0mg"},{"bike_id":"d75c7159-0521-42a2-b743-073d14d6d0d8","system_id":"levelo_inurba_marseille","lat":43.24473,"lon":5.42541,"is_reserved":false,"is_disabled":false,"rental_uris":{"android":"levelo://app?vid=d75c7159-0521-42a2-b743-073d14d6d0d8","ios":"levelo://app?vid=d75c7159-0521-42a2-b743-073d14d6d0d8"},"vehicle_type_id":"4","last_reported":1774424743,"current_range_meters":9600,"station_id":"st_d4a3vfp97mjs738cd8kg","pricing_plan_id":"cebpf4jnsgd1na2vs0mg"},{"bike_id":"16735def-847a-4e53-bb18-4a64d33b2a64","system_id":"levelo_inurba_marseille","lat":43.24065,"lon":5.37761,"is_reserved":false,"is_disabled":false,"rental_uris":{"android":"levelo://app?vid=16735def-847a-4e53-bb18-4a64d33b2a64","ios":"levelo://app?vid=16735def-847a-4e53-bb18-4a64d33b2a64"},"vehicle_type_id":"4","last_reported":1774424743,"current_range_meters":9600,"station_id":"ce4bhnp2rcd13ifvqgvg","pricing_plan_id":"cebpf4jnsgd1na2vs0mg"},{"bike_id":"81c76841-173c-4587-942b-d9a699bde792","system_id":"levelo_inurba_marseille","lat":43.31278,"lon":5.36737,"is_reserved":false,"is_disabled":false,"rental_uris":{"android":"levelo://app?vid=81c76841-173c-4587-942b-d9a699bde792","ios":"levelo://app?vid=81c76841-173c-4587-942b-d9a699bde792"},"vehicle_type_id":"4","last_reported":1774424743,"current_range_meters":9600,"station_id":"ce4bgr92rcd13ifvqc6g","pricing_plan_id":"cebpf4jnsgd1na2vs0mg"},{"bike_id":"2b980e1c-be68-47b3-b27b-e4eba700b819","system_id":"levelo_inurba_marseille","lat":43.24989,"lon":5.38939,"is_reserved":false,"is_disabled":false,"rental_uris":{"android":"levelo://app?vid=2b980e1c-be68-47b3-b27b-e4eba700b819","ios":"levelo://app?vid=2b980e1c-be68-47b3-b27b-e4eba700b819"},"vehicle_type_id":"4","last_reported":1774424743,"current_range_meters":9600,"station_id":"ce4bhgp2rcd13ifvqfd0","pricing_plan_id":"cebpf4jnsgd1na2vs0mg"},{"bike_id":"77a8015b-74ca-4626-8f49-fa2f44fb130d","system_id":"levelo_inurba_marseille","lat":43.30265,"lon":5.37724,"is_reserved":false,"is_disabled":false,"rental_uris":{"android":"levelo://app?vid=77a8015b-74ca-4626-8f49-fa2f44fb130d","ios":"levelo://app?vid=77a8015b-74ca-4626-8f49-fa2f44fb130d"},"vehicle_type_id":"4","last_reported":1774424743,"current_range_meters":10000,"station_id":"ce4bguh2rcd13ifvqcj0","pricing_plan_id":"cebpf4jnsgd1na2vs0mg"},{"bike_id":"3c506157-f1c2-47cf-891f-e540401fcf63","system_id":"levelo_inurba_marseille","lat":43.33542,"lon":5.37472,"is_reserved":false,"is_disabled":false,"rental_uris":{"android":"levelo://app?vid=3c506157-f1c2-47cf-891f-e540401fcf63","ios":"levelo://app?vid=3c506157-f1c2-47cf-891f-e540401fcf63"},"vehicle_type_id":"4","last_reported":1774424743,"current_range_meters":10000,"station_id":"st_d46tts09ee8s73dlu43g","pricing_plan_id":"cebpf4jnsgd1na2vs0mg"},{"bike_id":"0c65675d-270c-487e-9d35-2d0be01704b2","system_id":"levelo_inurba_marseille","lat":43.30951,"lon":5.39043,"is_reserved":false,"is_disabled":true,"rental_uris":{"android":"levelo://app?vid=0c65675d-270c-487e-9d35-2d0be01704b2","ios":"levelo://app?vid=0c65675d-270c-487e-9d35-2d0be01704b2"},"vehicle_type_id":"4","last_reported":1774424743,"current_range_meters":10000,"station_id":"ce4bgup2rcd13ifvqco0","pricing_plan_id":"cebpf4jnsgd1na2vs0mg"},{"bike_id":"013c2b17-cd26-40f3-bba6-2f8a596e6ce9","system_id":"levelo_inurba_marseille","lat":43.25574,"lon":5.38245,"is_reserved":false,"is_disabled":true,"rental_uris":{"android":"levelo://app?vid=013c2b17-cd26-40f3-bba6-2f8a596e6ce9","ios":"levelo://app?vid=013c2b17-cd26-40f3-bba6-2f8a596e6ce9"},"vehicle_type_id":"4","last_reported":1774424743,"current_range_meters":10000,"station_id":"ce4bhih2rcd13ifvqfs0","pricing_plan_id":"cebpf4jnsgd1na2vs0mg"},{"bike_id":"95217eea-0041-4dc8-ace4-1d2441a8af55","system_id":"levelo_inurba_marseille","lat":43.32099,"lon":5.36788,"is_reserved":false,"is_disabled":false,"rental_uris":{"android":"levelo://app?vid=95217eea-0041-4dc8-ace4-1d2441a8af55","ios":"levelo://app?vid=95217eea-0041-4dc8-ace4-1d2441a8af55"},"vehicle_type_id":"4","last_reported":1774424743,"current_range_meters":10000,"station_id":"ce4bhrh2rcd13ifvqhug","pricing_plan_id":"cebpf4jnsgd1na2vs0mg"},{"bike_id":"a9ed9ea7-fea0-45aa-9529-734693a98cf2","system_id":"levelo_inurba_marseille","lat":43.23787,"lon":5.36637,"is_reserved":false,"is_disabled":false,"rental_uris":{"android":"levelo://app?vid=a9ed9ea7-fea0-45aa-9529-734693a98cf2","ios":"levelo://app?vid=a9ed9ea7-fea0-45aa-9529-734693a98cf2"},"vehicle_type_id":"4","last_reported":1774424743,"current_range_meters":10000,"station_id":"st_d3nk18o9ro0c73en2l3g","pricing_plan_id":"cebpf4jnsgd1na2vs0mg"},