{"last_updated":1740384813,"ttl":60,"version":"2.2","data":{"bikes":[{"bike_id":"c2b83739-94f8-45c6-a76d-8091ca3085a9","system_id":"levelo_inurba_marseille","lat":43.29038,"lon":5.39949,"is_reserved":false,"is_disabled":false,"rental_uris":{"android":"levelo://app?vid=c2b83739-94f8-45c6-a76d-8091ca3085a9","ios":"levelo://app?vid=c2b83739-94f8-45c6-a76d-8091ca3085a9"},"vehicle_type_id":"4","last_reported":1740384813,"current_range_meters":2800,"station_id":"ce4bh392rcd13ifvqdm0","pricing_plan_id":"cebpf4jnsgd1na2vs0mg"},{"bike_id":"5be81403-e80e-49df-8f5d-218571205bc6","system_id":"levelo_inurba_marseille","lat":43.28402,"lon":5.37535,"is_reserved":false,"is_disabled":true,"rental_uris":{"android":"levelo://app?vid=5be81403-e80e-49df-8f5d-218571205bc6","ios":"levelo://app?vid=5be81403-e80e-49df-8f5d-218571205bc6"},"vehicle_type_id":"4","last_reported":1740384813,"current_range_meters":2800,"station_id":"ce4bh412rcd13ifvqds0","pricing_plan_id":"cebpf4jnsgd1na2vs0mg"},{"bike_id":"2e4d9ef6-4dd9-45eb-8687-42db3850d70a","system_id":"levelo_inurba_marseille","lat":43.27466,"lon":5.40746,"is_reserved":false,"is_disabled":false,"rental_uris":{"android":"levelo://app?vid=2e4d9ef6-4dd9-45eb-8687-42db3850d70a","ios":"levelo://app?vid=2e4d9ef6-4dd9-45eb-8687-42db3850d70a"},"vehicle_type_id":"4","last_reported":1740384813,"current_range_meters":2800,"station_id":"","pricing_plan_id":"cebpf4jnsgd1na2vs0mg"},{"bike_id":"48cd2d4a-b575-4d3a-8a93-11956c58b448","system_id":"levelo_inurba_marseille","lat":43.29652,"lon":5.37708,"is_reserved":false,"is_disabled":false,"rental_uris":{"android":"levelo://app?vid=48cd2d4a-b575-4d3a-8a93-11956c58b448","ios":"levelo://app?vid=48cd2d4a-b575-4d3a-8a93-11956c58b448"},"vehicle_type_id":"4","last_reported":1740384813,"current_range_meters":2800,"station_id":"ce4bgi92rcd13ifvqb90","pricing_plan_id":"cebpf4jnsgd1na2vs0mg"},{"bike_id":"29a8beba-a5f1-4d8c-9ae1-8c3b868c7f4f","system_id":"levelo_inurba_marseille","lat":43.30151,"lon":5.38092,"is_reserved":false,"is_disabled":false,"rental_uris":{"android":"levelo://app?vid=29a8beba-a5f1-4d8c-9ae1-8c3b868c7f4f","ios":"levelo://app?vid=29a8beba-a5f1-4d8c-9ae1-8c3b868c7f4f"},"vehicle_type_id":"4","last_reported":1740384813,"current_range_meters":3200,"station_id":"ce4bgjp2rcd13ifvqbh0","pricing_plan_id":"cebpf4jnsgd1na2vs0mg"},{"bike_id":"31868d06-49cc-4998-b583-9c5e11821516","system_id":"levelo_inurba_marseille","lat":43.31361,"lon":5.36681,"is_reserved":false,"is_disabled":false,"rental_uris":{"android":"levelo://app?vid=31868d06-49cc-4998-b583-9c5e11821516","ios":"levelo://app?vid=31868d06-49cc-4998-b583-9c5e11821516"},"vehicle_type_id":"4","last_reported":1740384813,"current_range_meters":3200,"station_id":"ce4bgr92rcd13ifvqc6g","pricing_plan_id":"cebpf4jnsgd1na2vs0mg"},{"bike_id":"2a1973d9-62c5-4945-b63b-ed19ee18ab6c","system_id":"levelo_inurba_marseille","lat":43.31356,"lon":5.36716,"is_reserved":false,"is_disabled":false,"rental_uris":{"android":"levelo://app?vid=2a1973d9-62c5-4945-b63b-ed19ee18ab6c","ios":"levelo://app?vid=2a1973d9-62c5-4945-b63b-ed19ee18ab6c"},"vehicle_type_id":"4","last_reported":1740384813,"current_range_meters":4000,"station_id":"ce4bgr92rcd13ifvqc6g","pricing_plan_id":"cebpf4jnsgd1na2vs0mg"},{"bike_id":"e40f0273-ffc8-49ce-bf2e-7b979d8d592c","system_id":"levelo_inurba_marseille","lat":43.27292,"lon":5.39129,"is_reserved":false,"is_disabled":false,"rental_uris":{"android":"levelo://app?vid=e40f0273-ffc8-49ce-bf2e-7b979d8d592c","ios":"levelo://app?vid=e40f0273-ffc8-49ce-bf2e-7b979d8d592c"},"vehicle_type_id":"4","last_reported":1740384813,"current_range_meters":4000,"station_id":"ce4bhgp2rcd13ifvqfe0","pricing_plan_id":"cebpf4jnsgd1na2vs0mg"},{"bike_id":"f4c73116-43d3-41d9-88bb-9461dbbb405f","system_id":"levelo_inurba_marseille","lat":43.25357,"lon":5.41628,"is_reserved":false,"is_disabled":false,"rental_uris":{"android":"levelo://app?vid=f4c73116-43d3-41d9-88bb-9461dbbb405f","ios":"levelo://app?vid=f4c73116-43d3-41d9-88bb-9461dbbb405f"},"vehicle_type_id":"4","last_reported":1740384813,"current_range_meters":4400,"station_id":"","pricing_plan_id":"cebpf4jnsgd1na2vs0mg"},{"bike_id":"1e7d0bb6-3183-4db0-988e-5604d0cab047","system_id":"levelo_inurba_marseille","lat":43.27682,"lon":5.38863,"is_reserved":false,"is_disabled":false,"rental_uris":{"android":"levelo://app?vid=1e7d0bb6-3183-4db0-988e-5604d0cab047","ios":"levelo://app?vid=1e7d0bb6-3183-4db0-988e-5604d0cab047"},"vehicle_type_id":"4","last_reported":1740384813,"current_range_meters":4400,"station_id":"ce4bhi12rcd13ifvqfo0","pricing_plan_id":"cebpf4jnsgd1na2vs0mg"},{"bike_id":"bd35f3ed-ff3d-47c6-a345-2ee7a7ab4020","system_id":"levelo_inurba_marseille","lat":43.3115,"lon":5.36967,"is_reserved":false,"is_disabled":false,"rental_uris":{"android":"levelo://app?vid=bd35f3ed-ff3d-47c6-a345-2ee7a7ab4020","ios":"levelo://app?vid=bd35f3ed-ff3d-47c6-a345-2ee7a7ab4020"},"vehicle_type_id":"4","last_reported":1740384813,"current_range_meters":4400,"station_id":"","pricing_plan_id":"cebpf4jnsgd1na2vs0mg"},{"bike_id":"1284377d-613e-4b0e-b8b9-30807af03316","system_id":"levelo_inurba_marseille","lat":43.27864,"lon":5.39179,"is_reserved":false,"is_disabled":true,"rental_uris":{"android":"levelo://app?vid=1284377d-613e-4b0e-b8b9-30807af03316","ios":"levelo://app?vid=1284377d-613e-4b0e-b8b9-30807af03316"},"vehicle_type_id":"4","last_reported":1740384813,"current_range_meters":4400,"station_id":"ce4bhjp2rcd13ifvqga0","pricing_plan_id":"cebpf4jnsgd1na2vs0mg"},{"bike_id":"69777bf4-f196-4d92-944d-65c72e7557a6","system_id":"levelo_inurba_marseille","lat":43.3051,"lon":5.37329,"is_reserved":false,"is_disabled":false,"rental_uris":{"android":"levelo://app?vid=69777bf4-f196-4d92-944d-65c72e7557a6","ios":"levelo://app?vid=69777bf4-f196-4d92-944d-65c72e7557a6"},"vehicle_type_id":"4","last_reported":1740384813,"current_range_meters":4800,"station_id":"","pricing_plan_id":"cebpf4jnsgd1na2vs0mg"},{"bike_id":"db53f84b-605a-4d89-898d-5a37210b182a","system_id":"levelo_inurba_marseille","lat":43.2993,"lon":5.36548,"is_reserved":false,"is_disabled":false,"rental_uris":{"android":"levelo://app?vid=db53f84b-605a-4d89-898d-5a37210b182a","ios":"levelo://app?vid=db53f84b-605a-4d89-898d-5a37210b182a"},"vehicle_type_id":"4","last_reported":1740384813,"current_range_meters":4800,"station_id":"ce4bgm92rcd13ifvqbr0","pricing_plan_id":"cebpf4jnsgd1na2vs0mg"},{"bike_id":"80e30e07-59ff-4807-b06b-c6dc1a9e08e2","system_id":"levelo_inurba_marseille","lat":43.33618,"lon":5.41045,"is_reserved":false,"is_disabled":true,"rental_uris":{"android":"levelo://app?vid=80e30e07-59ff-4807-b06b-c6dc1a9e08e2","ios":"levelo://app?vid=80e30e07-59ff-4807-b06b-c6dc1a9e08e2"},"vehicle_type_id":"4","last_reported":1740384813,"current_range_meters":5600,"station_id":"ce4bhqh2rcd13ifvqhmg","pricing_plan_id":"cebpf4jnsgd1na2vs0mg"},{"bike_id":"f87efea9-8c10-480e-9a97-1b8595348bd7","system_id":"levelo_inurba_marseille","lat":43.240723,"lon":5.377634,"is_reserved":false,"is_disabled":false,"rental_uris":{"android":"levelo://app?vid=f87efea9-8c10-480e-9a97-1b8595348bd7","ios":"levelo://app?vid=f87efea9-8c10-480e-9a97-1b8595348bd7"},"vehicle_type_id":"4","last_reported":1740384813,"current_range_meters":5600,"station_id":"","pricing_plan_id":"cebpf4jnsgd1na2vs0mg"},{"bike_id":"09486dc5-7654-4904-afc6-3b8a40308aeb","system_id":"levelo_inurba_marseille","lat":43.25408,"lon":5.41647,"is_reserved":false,"is_disabled":false,"rental_uris":{"android":"levelo://app?vid=09486dc5-7654-4904-afc6-3b8a40308aeb","ios":"levelo://app?vid=09486dc5-7654-4904-afc6-3b8a40308aeb"},"vehicle_type_id":"4","last_reported":1740384813,"current_range_meters":6000,"station_id":"","pricing_plan_id":"cebpf4jnsgd1na2vs0mg"},{"bike_id":"c503ab2b-9f38-479e-b76a-5c3bb24d246e","system_id":"levelo_inurba_marseille","lat":43.25726,"lon":5.41106,"is_reserved":false,"is_disabled":false,"rental_uris":{"android":"levelo://app?vid=c503ab2b-9f38-479e-b76a-5c3bb24d246e","ios":"levelo://app?vid=c503ab2b-9f38-479e-b76a-5c3bb24d246e"},"vehicle_type_id":"4","last_reported":1740384813,"current_range_meters":6000,"station_id":"ce4bhkp2rcd13ifvqgd0","pricing_plan_id":"cebpf4jnsgd1na2vs0mg"},{"bike_id":"35a55591-5faf-4f08-9de6-d322bb266fea","system_id":"levelo_inurba_marseille","lat":43.24175,"lon":5.39719,"is_reserved":false,"is_disabled":true,"rental_uris":{"android":"levelo://app?vid=35a55591-5faf-4f08-9de6-d322bb266fea","ios":"levelo://app?vid=35a55591-5faf-4f08-9de6-d322bb266fea"},"vehicle_type_id":"4","last_reported":1740384813,"current_range_meters":6000,"station_id":"ce4bhn12rcd13ifvqgpg","pricing_plan_id":"cebpf4jnsgd1na2vs0mg"},{"bike_id":"26a2d076-f5f2-45a7-98f5-29542790fe7d","system_id":"levelo_inurba_marseille","lat":43.32361,"lon":5.36754,"is_reserved":false,"is_disabled":false,"rental_uris":{"android":"levelo://app?vid=26a2d076-f5f2-45a7-98f5-29542790fe7d","ios":"levelo://app?vid=26a2d076-f5f2-45a7-98f5-29542790fe7d"},"vehicle_type_id":"4","last_reported":1740384813,"current_range_meters":6000,"station_id":"ce4bhsh2rcd13ifvqi2g","pricing_plan_id":"cebpf4jnsgd1na2vs0mg"},{"bike_id":"003ebf52-fb2e-4f8f-ae82-9d44fc2bf4ba","system_id":"levelo_inurba_marseille","lat":43.2929,"lon":5.37568,"is_reserved":false,"is_disabled":false,"rental_uris":{"android":"levelo://app?vid=003ebf52-fb2e-4f8f-ae82-9d44fc2bf4ba","ios":"levelo://app?vid=003ebf52-fb2e-4f8f-ae82-9d44fc2bf4ba"},"vehicle_type_id":"4","last_reported":1740384813,"current_range_meters":6400,"station_id":"","pricing_plan_id":"cebpf4jnsgd1na2vs0mg"},{"bike_id":"16ef2f9e-4384-4cbe-9252-e08d6221e7d7","system_id":"levelo_inurba_marseille","lat":43.24179,"lon":5.39729,"is_reserved":false,"is_disabled":false,"rental_uris":{"android":"levelo://app?vid=16ef2f9e-4384-4cbe-9252-e08d6221e7d7","ios":"levelo://app?vid=16ef2f9e-4384-4cbe-9252-e08d6221e7d7"},"vehicle_type_id":"4","last_reported":1740384813,"current_range_meters":6400,"station_id":"ce4bhn12rcd13ifvqgpg","pricing_plan_id":"cebpf4jnsgd1na2vs0mg"},{"bike_id":"52ceb328-f1f8-4132-b4e4-0612ca2159d9","system_id":"levelo_inurba_marseille","lat":43.30529,"lon":5.36712,"is_reserved":false,"is_disabled":false,"rental_uris":{"android":"levelo://app?vid=52ceb328-f1f8-4132-b4e4-0612ca2159d9","ios":"levelo://app?vid=52ceb328-f1f8-4132-b4e4-0612ca2159d9"},"vehicle_type_id":"4","last_reported":1740384813,"current_range_meters":6400,"station_id":"ce4bgrp2rcd13ifvqc9g","pricing_plan_id":"cebpf4jnsgd1na2vs0mg"},{"bike_id":"1af71967-b274-4269-9655-88715abf61c6","system_id":"levelo_inurba_marseille","lat":43.26549,"lon":5.37318,"is_reserved":false,"is_disabled":true,"rental_uris":{"android":"levelo://app?vid=1af71967-b274-4269-9655-88715abf61c6","ios":"levelo://app?vid=1af71967-b274-4269-9655-88715abf61c6"},"vehicle_type_id":"4","last_reported":1740384813,"current_range_meters":6400,"station_id":"ce4bhg12rcd13ifvqf70","pricing_plan_id":"cebpf4jnsgd1na2vs0mg"},{"bike_id":"d68d8965-f0df-40d2-a511-522c1a007517","system_id":"levelo_inurba_marseille","lat":43.312198,"lon":5.368594,"is_reserved":false,"is_disabled":false,"rental_uris":{"android":"levelo://app?vid=d68d8965-f0df-40d2-a511-522c1a007517","ios":"levelo://app?vid=d68d8965-f0df-40d2-a511-522c1a007517"},"vehicle_type_id":"4","last_reported":1740384813,"current_range_meters":6400,"station_id":"ce4bhs12rcd13ifvqhvg","pricing_plan_id":"cebpf4jnsgd1na2vs0mg"},{"bike_id":"67ec6c39-a7f2-451e-b0f2-97a110accbe0","system_id":"levelo_inurba_marseille","lat":43.31122,"lon":5.37771,"is_reserved":false,"is_disabled":false,"rental_uris":{"android":"levelo://app?vid=67ec6c39-a7f2-451e-b0f2-97a110accbe0","ios":"levelo://app?vid=67ec6c39-a7f2-451e-b0f2-97a110accbe0"},"vehicle_type_id":"4","last_reported":1740384813,"current_range_meters":6400,"station_id":"ce4bgt92rcd13ifvqcg0","pricing_plan_id":"cebpf4jnsgd1na2vs0mg"},{"bike_id":"94ff4830-6164-4f69-8fde-c9dfbce67407","system_id":"levelo_inurba_marseille","lat":43.25004,"lon":5.38923,"is_reserved":false,"is_disabled":false,"rental_uris":{"android":"levelo://app?vid=94ff4830-6164-4f69-8fde-c9dfbce67407","ios":"levelo://app?vid=94ff4830-6164-4f69-8fde-c9dfbce67407"},"vehicle_type_id":"4","last_reported":1740384813,"current_range_meters":6800,"station_id":"ce4bhgp2rcd13ifvqfd0","pricing_plan_id":"cebpf4jnsgd1na2vs0mg"},{"bike_id":"aed5036a-2d99-4696-b993-0bcbfed89a94","system_id":"levelo_inurba_marseille","lat":43.32481,"lon":5.36569,"is_reserved":false,"is_disabled":false,"rental_uris":{"android":"levelo://app?vid=aed5036a-2d99-4696-b993-0bcbfed89a94","ios":"levelo://app?vid=aed5036a-2d99-4696-b993-0bcbfed89a94"},"vehicle_type_id":"4","last_reported":1740384813,"current_range_meters":6800,"station_id":"ce4bhs12rcd13ifvqhvg","pricing_plan_id":"cebpf4jnsgd1na2vs0mg"},{"bike_id":"d3dc4114-38c6-48d5-81b2-55fe1924872f","system_id":"levelo_inurba_marseille","lat":43.23194,"lon":5.3999,"is_reserved":false,"is_disabled":false,"rental_uris":{"android":"levelo://app?vid=d3dc4114-38c6-48d5-81b2-55fe1924872f","ios":"levelo://app?vid=d3dc4114-38c6-48d5-81b2-55fe1924872f"},"vehicle_type_id":"4","last_reported":1740384813,"current_range_meters":6800,"station_id":"ce4bhn12rcd13ifvqgqg","pricing_plan_id":"cebpf4jnsgd1na2vs0mg"},{"bike_id":"49e1c317-c43a-4e17-be08-ea23dc8d6739","system_id":"levelo_inurba_marseille","lat":43.30126,"lon":5.39578,"is_reserved":false,"is_disabled":true,"rental_uris":{"android":"levelo://app?vid=49e1c317-c43a-4e17-be08-ea23dc8d6739","ios":"levelo://app?vid=49e1c317-c43a-4e17-be08-ea23dc8d6739"},"vehicle_type_id":"4","last_reported":1740384813,"current_range_meters":6800,"station_id":"","pricing_plan_id":"cebpf4jnsgd1na2vs0mg"},{"bike_id":"58647bf0-297d-45cd-b6ed-1f90f0ab9029","system_id":"levelo_inurba_marseille","lat":43.240629,"lon":5.377487,"is_reserved":false,"is_disabled":false,"rental_uris":{"android":"levelo://app?vid=58647bf0-297d-45cd-b6ed-1f90f0ab9029","ios":"levelo://app?vid=58647bf0-297d-45cd-b6ed-1f90f0ab9029"},"vehicle_type_id":"4","last_reported":1740384813,"current_range_meters":6800,"station_id":"ce4bhnp2rcd13ifvqgvg","pricing_plan_id":"cebpf4jnsgd1na2vs0mg"},{"bike_id":"82ff9c57-5e16-4dc9-8126-18c8aee1be13","system_id":"levelo_inurba_marseille","lat":43.3096,"lon":5.36844,"is_reserved":false,"is_disabled":false,"rental_uris":{"android":"levelo://app?vid=82ff9c57-5e16-4dc9-8126-18c8aee1be13","ios":"levelo://app?vid=82ff9c57-5e16-4dc9-8126-18c8aee1be13"},"vehicle_type_id":"4","last_reported":1740384813,"current_range_meters":6800,"station_id":"","pricing_plan_id":"cebpf4jnsgd1na2vs0mg"},{"bike_id":"e0c1d965-9bb5-48f6-93c4-81a00c3e7849","system_id":"levelo_inurba_marseille","lat":43.27057,"lon":5.42291,"is_reserved":false,"is_disabled":false,"rental_uris":{"android":"levelo://app?vid=e0c1d965-9bb5-48f6-93c4-81a00c3e7849","ios":"levelo://app?vid=e0c1d965-9bb5-48f6-93c4-81a00c3e7849"},"vehicle_type_id":"4","last_reported":1740384813,"current_range_meters":6800,"station_id":"ce4bhk92rcd13ifvqgb0","pricing_plan_id":"cebpf4jnsgd1na2vs0mg"},{"bike_id":"8a6db02c-8b37-4b5b-8368-96098655a2b1","system_id":"levelo_inurba_marseille","lat":43.29036,"lon":5.36894,"is_reserved":false,"is_disabled":false,"rental_uris":{"android":"levelo://app?vid=8a6db02c-8b37-4b5b-8368-96098655a2b1","ios":"levelo://app?vid=8a6db02c-8b37-4b5b-8368-96098655a2b1"},"vehicle_type_id":"4","last_reported":1740384813,"current_range_meters":6800,"station_id":"ce4bh692rcd13ifvqe90","pricing_plan_id":"cebpf4jnsgd1na2vs0mg"},{"bike_id":"1f01055d-9465-4e40-beb8-db545ec54749","system_id":"levelo_inurba_marseille","lat":43.33601,"lon":5.4103,"is_reserved":false,"is_disabled":false,"rental_uris":{"android":"levelo://app?vid=1f01055d-9465-4e40-beb8-db545ec54749","ios":"levelo://app?vid=1f01055d-9465-4e40-beb8-db545ec54749"},"vehicle_type_id":"4","last_reported":1740384813,"current_range_meters":6800,"station_id":"ce4bhqh2rcd13ifvqhmg","pricing_plan_id":"cebpf4jnsgd1na2vs0mg"},{"bike_id":"215dc5b9-8528-4ee8-a492-716f522daa2d","system_id":"levelo_inurba_marseille","lat":43.31345,"lon":5.36729,"is_reserved":false,"is_disabled":false,"rental_uris":{"android":"levelo://app?vid=215dc5b9-8528-4ee8-a492-716f522daa2d","ios":"levelo://app?vid=215dc5b9-8528-4ee8-a492-716f522daa2d"},"vehicle_type_id":"4","last_reported":1740384813,"current_range_meters":6800,"station_id":"ce4bgr92rcd13ifvqc6g","pricing_plan_id":"cebpf4jnsgd1na2vs0mg"},{"bike_id":"8dc51aab-29d3-43fa-a37e-6c47cc4c2e69","system_id":"levelo_inurba_marseille","lat":43.24156,"lon":5.36403,"is_reserved":false,"is_disabled":false,"rental_uris":{"android":"levelo://app?vid=8dc51aab-29d3-43fa-a37e-6c47cc4c2e69","ios":"levelo://app?vid=8dc51aab-29d3-43fa-a37e-6c47cc4c2e69"},"vehicle_type_id":"4","last_reported":1740384813,"current_range_meters":7200,"station_id":"cpo36qri1sfpv3e86is0","pricing_plan_id":"cebpf4jnsgd1na2vs0mg"},{"bike_id":"33ae1064-6b06-4ac7-b1e9-9b1d7a91b1b6","system_id":"levelo_inurba_marseille","lat":43.28695,"lon":5.39987,"is_reserved":false,"is_disabled":false,"rental_uris":{"android":"levelo://app?vid=33ae1064-6b06-4ac7-b1e9-9b1d7a91b1b6","ios":"levelo://app?vid=33ae1064-6b06-4ac7-b1e9-9b1d7a91b1b6"},"vehicle_type_id":"4","last_reported":1740384813,"current_range_meters":7200,"station_id":"ce4bho92rcd13ifvqh3g","pricing_plan_id":"cebpf4jnsgd1na2vs0mg"},{"bike_id":"b8cf545e-6303-49d2-b4c8-fb8833559303","system_id":"levelo_inurba_marseille","lat":43.30143,"lon":5.37412,"is_reserved":false,"is_disabled":false,"rental_uris":{"android":"levelo://app?vid=b8cf545e-6303-49d2-b4c8-fb8833559303","ios":"levelo://app?vid=b8cf545e-6303-49d2-b4c8-fb8833559303"},"vehicle_type_id":"4","last_reported":1740384813,"current_range_meters":7200,"station_id":"ce4bgs92rcd13ifvqcc0","pricing_plan_id":"cebpf4jnsgd1na2vs0mg"},{"bike_id":"d1e7f873-6e46-4f45-8851-420a72bfc63f","system_id":"levelo_inurba_marseille","lat":43.31342,"lon":5.36721,"is_reserved":false,"is_disabled":false,"rental_uris":{"android":"levelo://app?vid=d1e7f873-6e46-4f45-8851-420a72bfc63f","ios":"levelo://app?vid=d1e7f873-6e46-4f45-8851-420a72bfc63f"},"vehicle_type_id":"4","last_reported":1740384813,"current_range_meters":7200,"station_id":"ce4bgr92rcd13ifvqc6g","pricing_plan_id":"cebpf4jnsgd1na2vs0mg"},{"bike_id":"ad336382-44bd-4c86-8c92-547db12853aa","system_id":"levelo_inurba_marseille","lat":43.26951,"lon":5.3865,"is_reserved":false,"is_disabled":false,"rental_uris":{"android":"levelo://app?vid=ad336382-44bd-4c86-8c92-547db12853aa","ios":"levelo://app?vid=ad336382-44bd-4c86-8c92-547db12853aa"},"vehicle_type_id":"4","last_reported":1740384813,"current_range_meters":8000,"station_id":"ce4bhh92rcd13ifvqfh0","pricing_plan_id":"cebpf4jnsgd1na2vs0mg"},{"bike_id":"1f7411cd-9379-4bab-a8bc-411b928d8602","system_id":"levelo_inurba_marseille","lat":43.27496,"lon":5.42463,"is_reserved":false,"is_disabled":false,"rental_uris":{"android":"levelo://app?vid=1f7411cd-9379-4bab-a8bc-411b928d8602","ios":"levelo://app?vid=1f7411cd-9379-4bab-a8bc-411b928d8602"},"vehicle_type_id":"4","last_reported":1740384813,"current_range_meters":8000,"station_id":"ce4bhn92rcd13ifvqgrg","pricing_plan_id":"cebpf4jnsgd1na2vs0mg"},{"bike_id":"330f0647-6ae3-429b-bf1c-df4288b237c9","system_id":"levelo_inurba_marseille","lat":43.31489,"lon":5.37283,"is_reserved":false,"is_disabled":false,"rental_uris":{"android":"levelo://app?vid=330f0647-6ae3-429b-bf1c-df4288b237c9","ios":"levelo://app?vid=330f0647-6ae3-429b-bf1c-df4288b237c9"},"vehicle_type_id":"4","last_reported":1740384813,"current_range_meters":8000,"station_id":"ce4bgt12rcd13ifvqcd0","pricing_plan_id":"cebpf4jnsgd1na2vs0mg"},{"bike_id":"8c52640e-026c-4caa-bac7-5b68d5c10481","system_id":"levelo_inurba_marseille","lat":43.30149,"lon":5.38096,"is_reserved":false,"is_disabled":false,"rental_uris":{"android":"levelo://app?vid=8c52640e-026c-4caa-bac7-5b68d5c10481","ios":"levelo://app?vid=8c52640e-026c-4caa-bac7-5b68d5c10481"},"vehicle_type_id":"4","last_reported":1740384813,"current_range_meters":8000,"station_id":"ce4bgjp2rcd13ifvqbh0","pricing_plan_id":"cebpf4jnsgd1na2vs0mg"},{"bike_id":"8ae90cfe-8302-4e8c-882c-b5f9e1a906c9","system_id":"levelo_inurba_marseille","lat":43.26008,"lon":5.37638,"is_reserved":false,"is_disabled":false,"rental_uris":{"android":"levelo://app?vid=8ae90cfe-8302-4e8c-882c-b5f9e1a906c9","ios":"levelo://app?vid=8ae90cfe-8302-4e8c-882c-b5f9e1a906c9"},"vehicle_type_id":"4","last_reported":1740384813,"current_range_meters":8000,"station_id":"","pricing_plan_id":"cebpf4jnsgd1na2vs0mg"},{"bike_id":"5f1dd7b6-271f-45d9-a9c3-d04ed374c28e","system_id":"levelo_inurba_marseille","lat":43.29045,"lon":5.39958,"is_reserved":false,"is_disabled":false,"rental_uris":{"android":"levelo://app?vid=5f1dd7b6-271f-45d9-a9c3-d04ed374c28e","ios":"levelo://app?vid=5f1dd7b6-271f-45d9-a9c3-d04ed374c28e"},"vehicle_type_id":"4","last_reported":1740384813,"current_range_meters":8000,"station_id":"ce4bh392rcd13ifvqdm0","pricing_plan_id":"cebpf4jnsgd1na2vs0mg"},{"bike_id":"095d5026-b6cb-411c-ab71-6c60703e2b2f","system_id":"levelo_inurba_marseille","lat":43.23051,"lon":5.35508,"is_reserved":false,"is_disabled":true,"rental_uris":{"android":"levelo://app?vid=095d5026-b6cb-411c-ab71-6c60703e2b2f","ios":"levelo://app?vid=095d5026-b6cb-411c-ab71-6c60703e2b2f"},"vehicle_type_id":"4","last_reported":1740384813,"current_range_meters":8000,"station_id":"cpo3342slgdg3j2ifvpg","pricing_plan_id":"cebpf4jnsgd1na2vs0mg"},{"bike_id":"7cbc38a5-68b9-4c0e-b227-488aa85ec6d7","system_id":"levelo_inurba_marseille","lat":43.24806,"lon":5.37453,"is_reserved":false,"is_disabled":false,"rental_uris":{"android":"levelo://app?vid=7cbc38a5-68b9-4c0e-b227-488aa85ec6d7","ios":"levelo://app?vid=7cbc38a5-68b9-4c0e-b227-488aa85ec6d7"},"vehicle_type_id":"4","last_reported":1740384813,"current_range_meters":8400,"station_id":"ce4bhgh2rcd13ifvqfb0","pricing_plan_id":"cebpf4jnsgd1na2vs0mg"},{"bike_id":"aeb548b7-ddad-477e-a24f-280e6e7d79ac","system_id":"levelo_inurba_marseille","lat":43.26937,"lon":5.38665,"is_reserved":false,"is_disabled":false,"rental_uris":{"android":"levelo://app?vid=aeb548b7-ddad-477e-a24f-280e6e7d79ac","ios":"levelo://app?vid=aeb548b7-ddad-477e-a24f-280e6e7d79ac"},"vehicle_type_id":"4","last_reported":1740384813,"current_range_meters":8400,"station_id":"ce4bhh92rcd13ifvqfh0","pricing_plan_id":"cebpf4jnsgd1na2vs0mg"},{"bike_id":"c8ab2732-97c7-4e83-a3de-581686152e68","system_id":"levelo_inurba_marseille","lat":43.24796,"lon":5.37466,"is_reserved":false,"is_disabled":false,"rental_uris":{"android":"levelo://app?vid=c8ab2732-97c7-4e83-a3de-581686152e68","ios":"levelo://app?vid=c8ab2732-97c7-4e83-a3de-581686152e68"},"vehicle_type_id":"4","last_reported":1740384813,"current_range_meters":8400,"station_id":"ce4bhgh2rcd13ifvqfb0","pricing_plan_id":"cebpf4jnsgd1na2vs0mg"},{"bike_id":"b0b038ec-1239-4a43-8023-8550c327aeb2","system_id":"levelo_inurba_marseille","lat":43.302856,"lon":5.39644,"is_reserved":false,"is_disabled":false,"rental_uris":{"android":"levelo://app?vid=b0b038ec-1239-4a43-8023-8550c327aeb2","ios":"levelo://app?vid=b0b038ec-1239-4a43-8023-8550c327aeb2"},"vehicle_type_id":"4","last_reported":1740384813,"current_range_meters":8400,"station_id":"ce4bh112rcd13ifvqd90","pricing_plan_id":"cebpf4jnsgd1na2vs0mg"},{"bike_id":"9a88dd4f-71ac-4baf-83d5-0df09385d941","system_id":"levelo_inurba_marseille","lat":43.24183,"lon":5.39724,"is_reserved":false,"is_disabled":false,"rental_uris":{"android":"levelo://app?vid=9a88dd4f-71ac-4baf-83d5-0df09385d941","ios":"levelo://app?vid=9a88dd4f-71ac-4baf-83d5-0df09385d941"},"vehicle_type_id":"4","last_reported":1740384813,"current_range_meters":8400,"station_id":"ce4bhn12rcd13ifvqgpg","pricing_plan_id":"cebpf4jnsgd1na2vs0mg"},{"bike_id":"5a7a6849-38a1-437e-a994-beb53af14a0c","system_id":"levelo_inurba_marseille","lat":43.295723,"lon":5.399825,"is_reserved":false,"is_disabled":false,"rental_uris":{"android":"levelo://app?vid=5a7a6849-38a1-437e-a994-beb53af14a0c","ios":"levelo://app?vid=5a7a6849-38a1-437e-a994-beb53af14a0c"},"vehicle_type_id":"4","last_reported":1740384813,"current_range_meters":8000,"station_id":"ce4bh312rcd13ifvqdj0","pricing_plan_id":"cebpf4jnsgd1na2vs0mg"},{"bike_id":"3bca3269-64d9-4460-b686-b4e7575e3edb","system_id":"levelo_inurba_marseille","lat":43.24058,"lon":5.3768,"is_reserved":false,"is_disabled":false,"rental_uris":{"android":"levelo://app?vid=3bca3269-64d9-4460-b686-b4e7575e3edb","ios":"levelo://app?vid=3bca3269-64d9-4460-b686-b4e7575e3edb"},"vehicle_type_id":"4","last_reported":1740384813,"current_range_meters":8800,"station_id":"","pricing_plan_id":"cebpf4jnsgd1na2vs0mg"},{"bike_id":"a24abcd6-7142-47cf-9bb7-9f7d72923a83","system_id":"levelo_inurba_marseille","lat":43.255782,"lon":5.382354,"is_reserved":false,"is_disabled":false,"rental_uris":{"android":"levelo://app?vid=a24abcd6-7142-47cf-9bb7-9f7d72923a83","ios":"levelo://app?vid=a24abcd6-7142-47cf-9bb7-9f7d72923a83"},"vehicle_type_id":"4","last_reported":1740384813,"current_range_meters":8800,"station_id":"ce4bhih2rcd13ifvqfs0","pricing_plan_id":"cebpf4jnsgd1na2vs0mg"},{"bike_id":"0d3df397-4b3c-42a6-a882-13909e8540f7","system_id":"levelo_inurba_marseille","lat":43.28152,"lon":5.42646,"is_reserved":false,"is_disabled":false,"rental_uris":{"android":"levelo://app?vid=0d3df397-4b3c-42a6-a882-13909e8540f7","ios":"levelo://app?vid=0d3df397-4b3c-42a6-a882-13909e8540f7"},"vehicle_type_id":"4","last_reported":1740384813,"current_range_meters":8800,"station_id":"ce4bhnh2rcd13ifvqgug","pricing_plan_id":"cebpf4jnsgd1na2vs0mg"},{"bike_id":"41b8905f-5d71-47d2-981b-cd5802ac227d","system_id":"levelo_inurba_marseille","lat":43.29146,"lon":5.39991,"is_reserved":false,"is_disabled":false,"rental_uris":{"android":"levelo://app?vid=41b8905f-5d71-47d2-981b-cd5802ac227d","ios":"levelo://app?vid=41b8905f-5d71-47d2-981b-cd5802ac227d"},"vehicle_type_id":"4","last_reported":1740384813,"current_range_meters":8800,"station_id":"","pricing_plan_id":"cebpf4jnsgd1na2vs0mg"},{"bike_id":"618f913e-cba8-4c50-a313-a42d4485f0ce","system_id":"levelo_inurba_marseille","lat":43.30454,"lon":5.36845,"is_reserved":false,"is_disabled":false,"rental_uris":{"android":"levelo://app?vid=618f913e-cba8-4c50-a313-a42d4485f0ce","ios":"levelo://app?vid=618f913e-cba8-4c50-a313-a42d4485f0ce"},"vehicle_type_id":"4","last_reported":1740384813,"current_range_meters":8800,"station_id":"","pricing_plan_id":"cebpf4jnsgd1na2vs0mg"},{"bike_id":"8cd8e855-556a-49bb-858e-094e7857f894","system_id":"levelo_inurba_marseille","lat":43.2918,"lon":5.358,"is_reserved":false,"is_disabled":true,"rental_uris":{"android":"levelo://app?vid=8cd8e855-556a-49bb-858e-094e7857f894","ios":"levelo://app?vid=8cd8e855-556a-49bb-858e-094e7857f894"},"vehicle_type_id":"4","last_reported":1740384813,"current_range_meters":8800,"station_id":"ce4bhb12rcd13ifvqel0","pricing_plan_id":"cebpf4jnsgd1na2vs0mg"},{"bike_id":"f07ede6b-64e2-4f3f-a23a-75e603475a7e","system_id":"levelo_inurba_marseille","lat":43.25089,"lon":5.3951,"is_reserved":false,"is_disabled":false,"rental_uris":{"android":"levelo://app?vid=f07ede6b-64e2-4f3f-a23a-75e603475a7e","ios":"levelo://app?vid=f07ede6b-64e2-4f3f-a23a-75e603475a7e"},"vehicle_type_id":"4","last_reported":1740384813,"current_range_meters":8800,"station_id":"ce4bhm12rcd13ifvqgkg","pricing_plan_id":"cebpf4jnsgd1na2vs0mg"},{"bike_id":"f3bb669c-36d0-48e6-893e-0b8ac8f7727f","system_id":"levelo_inurba_marseille","lat":43.28707,"lon":5.37917,"is_reserved":false,"is_disabled":false,"rental_uris":{"android":"levelo://app?vid=f3bb669c-36d0-48e6-893e-0b8ac8f7727f","ios":"levelo://app?vid=f3bb669c-36d0-48e6-893e-0b8ac8f7727f"},"vehicle_type_id":"4","last_reported":1740384813,"current_range_meters":8800,"station_id":"ce4bh9p2rcd13ifvqec0","pricing_plan_id":"cebpf4jnsgd1na2vs0mg"},{"bike_id":"1127a561-55dc-461d-840d-fc4e71e9155a","system_id":"levelo_inurba_marseille","lat":43.29905,"lon":5.43668,"is_reserved":false,"is_disabled":false,"rental_uris":{"android":"levelo://app?vid=1127a561-55dc-461d-840d-fc4e71e9155a","ios":"levelo://app?vid=1127a561-55dc-461d-840d-fc4e71e9155a"},"vehicle_type_id":"4","last_reported":1740384813,"current_range_meters":9200,"station_id":"ce4bhpp2rcd13ifvqhfg","pricing_plan_id":"cebpf4jnsgd1na2vs0mg"},{"bike_id":"ab7da9df-c7ed-482b-9961-43b5cca3e34b","system_id":"levelo_inurba_marseille","lat":43.31123,"lon":5.37781,"is_reserved":false,"is_disabled":true,"rental_uris":{"android":"levelo://app?vid=ab7da9df-c7ed-482b-9961-43b5cca3e34b","ios":"levelo://app?vid=ab7da9df-c7ed-482b-9961-43b5cca3e34b"},"vehicle_type_id":"4","last_reported":1740384813,"current_range_meters":9200,"station_id":"ce4bgt92rcd13ifvqcg0","pricing_plan_id":"cebpf4jnsgd1na2vs0mg"},{"bike_id":"43f634f7-e92c-4e2b-a408-4071410f737f","system_id":"levelo_inurba_marseille","lat":43.28975,"lon":5.3784,"is_reserved":false,"is_disabled":false,"rental_uris":{"android":"levelo://app?vid=43f634f7-e92c-4e2b-a408-4071410f737f","ios":"levelo://app?vid=43f634f7-e92c-4e2b-a408-4071410f737f"},"vehicle_type_id":"4","last_reported":1740384813,"current_range_meters":9200,"station_id":"ce4bh9p2rcd13ifvqed0","pricing_plan_id":"cebpf4jnsgd1na2vs0mg"},{"bike_id":"e61c2b74-4ece-46bf-bf8e-6ea12dcb1ec2","system_id":"levelo_inurba_marseille","lat":43.30604,"lon":5.39372,"is_reserved":false,"is_disabled":true,"rental_uris":{"android":"levelo://app?vid=e61c2b74-4ece-46bf-bf8e-6ea12dcb1ec2","ios":"levelo://app?vid=e61c2b74-4ece-46bf-bf8e-6ea12dcb1ec2"},"vehicle_type_id":"4","last_reported":1740384813,"current_range_meters":9200,"station_id":"ce4bh0p2rcd13ifvqd80","pricing_plan_id":"cebpf4jnsgd1na2vs0mg"},{"bike_id":"5e936d59-b28e-4041-af84-051b04d5a63a","system_id":"levelo_inurba_marseille","lat":43.24377,"lon":5.37068,"is_reserved":false,"is_disabled":false,"rental_uris":{"android":"levelo://app?vid=5e936d59-b28e-4041-af84-051b04d5a63a","ios":"levelo://app?vid=5e936d59-b28e-4041-af84-051b04d5a63a"},"vehicle_type_id":"4","last_reported":1740384813,"current_range_meters":9200,"station_id":"ce4bhhh2rcd13ifvqfk0","pricing_plan_id":"cebpf4jnsgd1na2vs0mg"},{"bike_id":"dd781964-fa48-4e2d-a6cb-c19288edeb72","system_id":"levelo_inurba_marseille","lat":43.29631,"lon":5.4059,"is_reserved":false,"is_disabled":false,"rental_uris":{"android":"levelo://app?vid=dd781964-fa48-4e2d-a6cb-c19288edeb72","ios":"levelo://app?vid=dd781964-fa48-4e2d-a6cb-c19288edeb72"},"vehicle_type_id":"4","last_reported":1740384813,"current_range_meters":9200,"station_id":"ce4bh0h2rcd13ifvqd60","pricing_plan_id":"cebpf4jnsgd1na2vs0mg"},{"bike_id":"d6c1d4f6-e491-4834-9dff-2f2526cbc567","system_id":"levelo_inurba_marseille","lat":43.32276,"lon":5.38278,"is_reserved":false,"is_disabled":false,"rental_uris":{"android":"levelo://app?vid=d6c1d4f6-e491-4834-9dff-2f2526cbc567","ios":"levelo://app?vid=d6c1d4f6-e491-4834-9dff-2f2526cbc567"},"vehicle_type_id":"4","last_reported":1740384813,"current_range_meters":9200,"station_id":"ce4bhr12rcd13ifvqhqg","pricing_plan_id":"cebpf4jnsgd1na2vs0mg"},{"bike_id":"c4abef68-54bd-45bd-b2c0-4265c013ea72","system_id":"levelo_inurba_marseille","lat":43.24061,"lon":5.37711,"is_reserved":false,"is_disabled":false,"rental_uris":{"android":"levelo://app?vid=c4abef68-54bd-45bd-b2c0-4265c013ea72","ios":"levelo://app?vid=c4abef68-54bd-45bd-b2c0-4265c013ea72"},"vehicle_type_id":"4","last_reported":1740384813,"current_range_meters":9200,"station_id":"ce4bhnp2rcd13ifvqgvg","pricing_plan_id":"cebpf4jnsgd1na2vs0mg"},{"bike_id":"8dccf261-1c4b-4959-ad9f-f5dfa42aed9e","system_id":"levelo_inurba_marseille","lat":43.31346,"lon":5.36731,"is_reserved":false,"is_disabled":false,"rental_uris":{"android":"levelo://app?vid=8dccf261-1c4b-4959-ad9f-f5dfa42aed9e","ios":"levelo://app?vid=8dccf261-1c4b-4959-ad9f-f5dfa42aed9e"},"vehicle_type_id":"4","last_reported":1740384813,"current_range_meters":9600,"station_id":"ce4bgr92rcd13ifvqc6g","pricing_plan_id":"cebpf4jnsgd1na2vs0mg"},{"bike_id":"a8dc7729-6589-4862-ac61-2b20487771e6","system_id":"levelo_inurba_marseille","lat":43.32128,"lon":5.36739,"is_reserved":false,"is_disabled":false,"rental_uris":{"android":"levelo://app?vid=a8dc7729-6589-4862-ac61-2b20487771e6","ios":"levelo://app?vid=a8dc7729-6589-4862-ac61-2b20487771e6"},"vehicle_type_id":"4","last_reported":1740384813,"current_range_meters":9600,"station_id":"ce4bhrh2rcd13ifvqhug","pricing_plan_id":"cebpf4jnsgd1na2vs0mg"},{"bike_id":"906b3290-f08c-4cf4-801d-8060b14031bd","system_id":"levelo_inurba_marseille","lat":43.30458,"lon":5.37902,"is_reserved":false,"is_disabled":false,"rental_uris":{"android":"levelo://app?vid=906b3290-f08c-4cf4-801d-8060b14031bd","ios":"levelo://app?vid=906b3290-f08c-4cf4-801d-8060b14031bd"},"vehicle_type_id":"4","last_reported":1740384813,"current_range_meters":9600,"station_id":"ce4bgup2rcd13ifvqcn0","pricing_plan_id":"cebpf4jnsgd1na2vs0mg"},{"bike_id":"35f7fe5f-b05d-405c-a155-dda0758733e2","system_id":"levelo_inurba_marseille","lat":43.28179,"lon":5.42628,"is_reserved":false,"is_disabled":true,"rental_uris":{"android":"levelo://app?vid=35f7fe5f-b05d-405c-a155-dda0758733e2","ios":"levelo://app?vid=35f7fe5f-b05d-405c-a155-dda0758733e2"},"vehicle_type_id":"4","last_reported":1740384813,"current_range_meters":9600,"station_id":"ce4bhnh2rcd13ifvqgug","pricing_plan_id":"cebpf4jnsgd1na2vs0mg"},{"bike_id":"9fdc5228-e835-4793-ad30-e5834cfd975b","system_id":"levelo_inurba_marseille","lat":43.25855,"lon":5.39912,"is_reserved":false,"is_disabled":false,"rental_uris":{"android":"levelo://app?vid=9fdc5228-e835-4793-ad30-e5834cfd975b","ios":"levelo://app?vid=9fdc5228-e835-4793-ad30-e5834cfd975b"},"vehicle_type_id":"4","last_reported":1740384813,"current_range_meters":9600,"station_id":"ce4bhl92rcd13ifvqghg","pricing_plan_id":"cebpf4jnsgd1na2vs0mg"},{"bike_id":"a3610751-bbe4-4d3e-a717-1a0eebd2fb2a","system_id":"levelo_inurba_marseille","lat":43.30643,"lon":5.37542,"is_reserved":false,"is_disabled":false,"rental_uris":{"android":"levelo://app?vid=a3610751-bbe4-4d3e-a717-1a0eebd2fb2a","ios":"levelo://app?vid=a3610751-bbe4-4d3e-a717-1a0eebd2fb2a"},"vehicle_type_id":"4","last_reported":1740384813,"current_range_meters":9600,"station_id":"","pricing_plan_id":"cebpf4jnsgd1na2vs0mg"},{"bike_id":"5de90a37-b7c7-4a02-ac2e-e5ef7e12ddbb","system_id":"levelo_inurba_marseille","lat":43.24163,"lon":5.36405,"is_reserved":false,"is_disabled":false,"rental_uris":{"android":"levelo://app?vid=5de90a37-b7c7-4a02-ac2e-e5ef7e12ddbb","ios":"levelo://app?vid=5de90a37-b7c7-4a02-ac2e-e5ef7e12ddbb"},"vehicle_type_id":"4","last_reported":1740384813,"current_range_meters":10000,"station_id":"cpo36qri1sfpv3e86is0","pricing_plan_id":"cebpf4jnsgd1na2vs0mg"},{"bike_id":"9c19ed5c-9da5-477e-a3ab-9b57c502f36e","system_id":"levelo_inurba_marseille","lat":43.2483,"lon":5.37478,"is_reserved":false,"is_disabled":false,"rental_uris":{"android":"levelo://app?vid=9c19ed5c-9da5-477e-a3ab-9b57c502f36e","ios":"levelo://app?vid=9c19ed5c-9da5-477e-a3ab-9b57c502f36e"},"vehicle_type_id":"4","last_reported":1740384813,"current_range_meters":10000,"station_id":"","pricing_plan_id":"cebpf4jnsgd1na2vs0mg"},{"bike_id":"0733b99c-14c1-4744-99a7-4c59b20e9afc","system_id":"levelo_inurba_marseille","lat":43.27165,"lon":5.41,"is_reserved":false,"is_disabled":false,"rental_uris":{"android":"levelo://app?vid=0733b99c-14c1-4744-99a7-4c59b20e9afc","ios":"levelo://app?vid=0733b99c-14c1-4744-99a7-4c59b20e9afc"},"vehicle_type_id":"4","last_reported":1740384813,"current_range_meters":10000,"station_id":"ce4bhl12rcd13ifvqgf0","pricing_plan_id":"cebpf4jnsgd1na2vs0mg"},{"bike_id":"dfdc8222-c420-4613-9e27-05383ac06669","system_id":"levelo_inurba_marseille","lat":43.31505,"lon":5.37296,"is_reserved":false,"is_disabled":false,"rental_uris":{"android":"levelo://app?vid=dfdc8222-c420-4613-9e27-05383ac06669","ios":"levelo://app?vid=dfdc8222-c420-4613-9e27-05383ac06669"},"vehicle_type_id":"4","last_reported":1740384813,"current_range_meters":10000,"station_id":"ce4bgt12rcd13ifvqcd0","pricing_plan_id":"cebpf4jnsgd1na2vs0mg"},{"bike_id":"59cee8b2-041d-483f-9014-53e4c3fcc3d2","system_id":"levelo_inurba_marseille","lat":43.28266,"lon":5.35081,"is_reserved":false,"is_disabled":true,"rental_uris":{"android":"levelo://app?vid=59cee8b2-041d-483f-9014-53e4c3fcc3d2","ios":"levelo://app?vid=59cee8b2-041d-483f-9014-53e4c3fcc3d2"},"vehicle_type_id":"4","last_reported":1740384813,"current_range_meters":10000,"station_id":"ce4bhbp2rcd13ifvqerg","pricing_plan_id":"cebpf4jnsgd1na2vs0mg"},{"bike_id":"34b60e4e-03ef-486b-8103-9545ecdbc1e1","system_id":"levelo_inurba_marseille","lat":43.26779,"lon":5.39441,"is_reserved":false,"is_disabled":true,"rental_uris":{"android":"levelo://app?vid=34b60e4e-03ef-486b-8103-9545ecdbc1e1","ios":"levelo://app?vid=34b60e4e-03ef-486b-8103-9545ecdbc1e1"},"vehicle_type_id":"4","last_reported":1740384813,"current_range_meters":10000,"station_id":"ce4bhh12rcd13ifvqfg0","pricing_plan_id":"cebpf4jnsgd1na2vs0mg"},{"bike_id":"554a9115-fdb4-4d54-9fab-d00b09d78594","system_id":"levelo_inurba_marseille","lat":43.30456,"lon":5.37903,"is_reserved":false,"is_disabled":false,"rental_uris":{"android":"levelo://app?vid=554a9115-fdb4-4d54-9fab-d00b09d78594","ios":"levelo://app?vid=554a9115-fdb4-4d54-9fab-d00b09d78594"},"vehicle_type_id":"4","last_reported":1740384813,"current_range_meters":10000,"station_id":"ce4bgup2rcd13ifvqcn0","pricing_plan_id":"cebpf4jnsgd1na2vs0mg"},{"bike_id":"9d79c82e-e833-4beb-a383-e5dd779fb954","system_id":"levelo_inurba_marseille","lat":43.30888,"lon":5.37186,"is_reserved":false,"is_disabled":false,"rental_uris":{"android":"levelo://app?vid=9d79c82e-e833-4beb-a383-e5dd779fb954","ios":"levelo://app?vid=9d79c82e-e833-4beb-a383-e5dd779fb954"},"vehicle_type_id":"4","last_reported":1740384813,"current_range_meters":10000,"station_id":"ce4bguh2rcd13ifvqckg","pricing_plan_id":"cebpf4jnsgd1na2vs0mg"},{"bike_id":"8db8ed58-37cb-4c97-97a8-1ea2735c388d","system_id":"levelo_inurba_marseille","lat":43.26797,"lon":5.39409,"is_reserved":false,"is_disabled":false,"rental_uris":{"android":"levelo://app?vid=8db8ed58-37cb-4c97-97a8-1ea2735c388d","ios":"levelo://app?vid=8db8ed58-37cb-4c97-97a8-1ea2735c388d"},"vehicle_type_id":"4","last_reported":1740384813,"current_range_meters":8000,"station_id":"ce4bhh12rcd13ifvqfg0","pricing_plan_id":"cebpf4jnsgd1na2vs0mg"},{"bike_id":"b49d5e52-ea0b-48d3-8a70-3d9ea3251436","system_id":"levelo_inurba_marseille","lat":43.30151,"lon":5.39857,"is_reserved":false,"is_disabled":true,"rental_uris":{"android":"levelo://app?vid=b49d5e52-ea0b-48d3-8a70-3d9ea3251436","ios":"levelo://app?vid=b49d5e52-ea0b-48d3-8a70-3d9ea3251436"},"vehicle_type_id":"4","last_reported":1740384813,"current_range_meters":10800,"station_id":"ce4bh0h2rcd13ifvqd40","pricing_plan_id":"cebpf4jnsgd1na2vs0mg"},{"bike_id":"cf75090a-4312-4576-9a30-36770646a68c","system_id":"levelo_inurba_marseille","lat":43.30138,"lon":5.38087,"is_reserved":false,"is_disabled":false,"rental_uris":{"android":"levelo://app?vid=cf75090a-4312-4576-9a30-36770646a68c","ios":"levelo://app?vid=cf75090a-4312-4576-9a30-36770646a68c"},"vehicle_type_id":"4","last_reported":1740384813,"current_range_meters":10800,"station_id":"ce4bgjp2rcd13ifvqbh0","pricing_plan_id":"cebpf4jnsgd1na2vs0mg"},{"bike_id":"860eff15-4aff-4d92-8690-98414ae73df2","system_id":"levelo_inurba_marseille","lat":43.26507,"lon":5.3906,"is_reserved":false,"is_disabled":true,"rental_uris":{"android":"levelo://app?vid=860eff15-4aff-4d92-8690-98414ae73df2","ios":"levelo://app?vid=860eff15-4aff-4d92-8690-98414ae73df2"},"vehicle_type_id":"4","last_reported":1740384813,"current_range_meters":10800,"station_id":"ce4bhe12rcd13ifvqf30","pricing_plan_id":"cebpf4jnsgd1na2vs0mg"},{"bike_id":"bdccc4e5-5c23-4f5d-a836-1b0914cb949a","system_id":"levelo_inurba_marseille","lat":43.30894,"lon":5.36852,"is_reserved":false,"is_disabled":false,"rental_uris":{"android":"levelo://app?vid=bdccc4e5-5c23-4f5d-a836-1b0914cb949a","ios":"levelo://app?vid=bdccc4e5-5c23-4f5d-a836-1b0914cb949a"},"vehicle_type_id":"4","last_reported":1740384813,"current_range_meters":10800,"station_id":"ce4bgn92rcd13ifvqbvg","pricing_plan_id":"cebpf4jnsgd1na2vs0mg"},{"bike_id":"cfe26297-8112-4201-972b-20460caaaea2","system_id":"levelo_inurba_marseille","lat":43.33598,"lon":5.41032,"is_reserved":false,"is_disabled":false,"rental_uris":{"android":"levelo://app?vid=cfe26297-8112-4201-972b-20460caaaea2","ios":"levelo://app?vid=cfe26297-8112-4201-972b-20460caaaea2"},"vehicle_type_id":"4","last_reported":1740384813,"current_range_meters":11200,"station_id":"ce4bhqh2rcd13ifvqhmg","pricing_plan_id":"cebpf4jnsgd1na2vs0mg"},{"bike_id":"448ce593-b528-4217-a03a-d1f5a21c4df3","system_id":"levelo_inurba_marseille","lat":43.30144,"lon":5.37411,"is_reserved":false,"is_disabled":false,"rental_uris":{"android":"levelo://app?vid=448ce593-b528-4217-a03a-d1f5a21c4df3","ios":"levelo://app?vid=448ce593-b528-4217-a03a-d1f5a21c4df3"},"vehicle_type_id":"4","last_reported":1740384813,"current_range_meters":11200,"station_id":"ce4bgs92rcd13ifvqcc0","pricing_plan_id":"cebpf4jnsgd1na2vs0mg"},{"bike_id":"6d3a28fb-ad8e-4099-ab7e-2f1842cf0da6","system_id":"levelo_inurba_marseille","lat":43.31986,"lon":5.38159,"is_reserved":false,"is_disabled":false,"rental_uris":{"android":"levelo://app?vid=6d3a28fb-ad8e-4099-ab7e-2f1842cf0da6","ios":"levelo://app?vid=6d3a28fb-ad8e-4099-ab7e-2f1842cf0da6"},"vehicle_type_id":"4","last_reported":1740384813,"current_range_meters":11200,"station_id":"ce4bhr12rcd13ifvqhpg","pricing_plan_id":"cebpf4jnsgd1na2vs0mg"},{"bike_id":"9faf844a-413f-419f-bdea-64830f7f2bfb","system_id":"levelo_inurba_marseille","lat":43.29926,"lon":5.37863,"is_reserved":false,"is_disabled":false,"rental_uris":{"android":"levelo://app?vid=9faf844a-413f-419f-bdea-64830f7f2bfb","ios":"levelo://app?vid=9faf844a-413f-419f-bdea-64830f7f2bfb"},"vehicle_type_id":"4","last_reported":1740384813,"current_range_meters":11200,"station_id":"","pricing_plan_id":"cebpf4jnsgd1na2vs0mg"},{"bike_id":"0b397ad7-a585-4a28-af67-72e05171869f","system_id":"levelo_inurba_marseille","lat":43.31328,"lon":5.36728,"is_reserved":false,"is_disabled":false,"rental_uris":{"android":"levelo://app?vid=0b397ad7-a585-4a28-af67-72e05171869f","ios":"levelo://app?vid=0b397ad7-a585-4a28-af67-72e05171869f"},"vehicle_type_id":"4","last_reported":1740384813,"current_range_meters":11200,"station_id":"ce4bgr92rcd13ifvqc6g","pricing_plan_id":"cebpf4jnsgd1na2vs0mg"},{"bike_id":"fb7cc78b-aa77-4e8b-8185-2b7dc69baf47","system_id":"levelo_inurba_marseille","lat":43.2846,"lon":5.38434,"is_reserved":false,"is_disabled":false,"rental_uris":{"android":"levelo://app?vid=fb7cc78b-aa77-4e8b-8185-2b7dc69baf47","ios":"levelo://app?vid=fb7cc78b-aa77-4e8b-8185-2b7dc69baf47"},"vehicle_type_id":"4","last_reported":1740384813,"current_range_meters":11200,"station_id":"ce4bh512rcd13ifvqe3g","pricing_plan_id":"cebpf4jnsgd1na2vs0mg"},{"bike_id":"77462602-6aea-455e-b678-fc8d6b56fddd","system_id":"levelo_inurba_marseille","lat":43.30462,"lon":5.37901,"is_reserved":false,"is_disabled":false,"rental_uris":{"android":"levelo://app?vid=77462602-6aea-455e-b678-fc8d6b56fddd","ios":"levelo://app?vid=77462602-6aea-455e-b678-fc8d6b56fddd"},"vehicle_type_id":"4","last_reported":1740384813,"current_range_meters":11200,"station_id":"ce4bgup2rcd13ifvqcn0","pricing_plan_id":"cebpf4jnsgd1na2vs0mg"},{"bike_id":"568caff3-2d43-4a59-b83e-851c0f7a6142","system_id":"levelo_inurba_marseille","lat":43.293,"lon":5.37461,"is_reserved":false,"is_disabled":false,"rental_uris":{"android":"levelo://app?vid=568caff3-2d43-4a59-b83e-851c0f7a6142","ios":"levelo://app?vid=568caff3-2d43-4a59-b83e-851c0f7a6142"},"vehicle_type_id":"4","last_reported":1740384813,"current_range_meters":11200,"station_id":"ce4bgi12rcd13ifvqb70","pricing_plan_id":"cebpf4jnsgd1na2vs0mg"},{"bike_id":"74a5ae58-5b79-4c06-a2e2-ed23a2e4a3e7","system_id":"levelo_inurba_marseille","lat":43.30174,"lon":5.36606,"is_reserved":false,"is_disabled":false,"rental_uris":{"android":"levelo://app?vid=74a5ae58-5b79-4c06-a2e2-ed23a2e4a3e7","ios":"levelo://app?vid=74a5ae58-5b79-4c06-a2e2-ed23a2e4a3e7"},"vehicle_type_id":"4","last_reported":1740384813,"current_range_meters":11600,"station_id":"ce4bgrh2rcd13ifvqc8g","pricing_plan_id":"cebpf4jnsgd1na2vs0mg"},{"bike_id":"fc93a0cd-d658-4fe7-9e6a-52a49333f268","system_id":"levelo_inurba_marseille","lat":43.3081,"lon":5.38194,"is_reserved":false,"is_disabled":false,"rental_uris":{"android":"levelo://app?vid=fc93a0cd-d658-4fe7-9e6a-52a49333f268","ios":"levelo://app?vid=fc93a0cd-d658-4fe7-9e6a-52a49333f268"},"vehicle_type_id":"4","last_reported":1740384813,"current_range_meters":11600,"station_id":"ce4bgt12rcd13ifvqce0","pricing_plan_id":"cebpf4jnsgd1na2vs0mg"},{"bike_id":"de88cdff-5543-4d10-8f16-c8527adad5a9","system_id":"levelo_inurba_marseille","lat":43.27613,"lon":5.38911,"is_reserved":false,"is_disabled":false,"rental_uris":{"android":"levelo://app?vid=de88cdff-5543-4d10-8f16-c8527adad5a9","ios":"levelo://app?vid=de88cdff-5543-4d10-8f16-c8527adad5a9"},"vehicle_type_id":"4","last_reported":1740384813,"current_range_meters":12000,"station_id":"ce4bhi12rcd13ifvqfo0","pricing_plan_id":"cebpf4jnsgd1na2vs0mg"},{"bike_id":"3fe402df-efb2-421d-9441-7aab75d83404","system_id":"levelo_inurba_marseille","lat":43.23149,"lon":5.43723,"is_reserved":false,"is_disabled":false,"rental_uris":{"android":"levelo://app?vid=3fe402df-efb2-421d-9441-7aab75d83404","ios":"levelo://app?vid=3fe402df-efb2-421d-9441-7aab75d83404"},"vehicle_type_id":"4","last_reported":1740384813,"current_range_meters":12000,"station_id":"ce4bhmp2rcd13ifvqgog","pricing_plan_id":"cebpf4jnsgd1na2vs0mg"},{"bike_id":"9e119d0b-c0b5-4dc4-8adb-833c259e51d8","system_id":"levelo_inurba_marseille","lat":43.26941,"lon":5.38652,"is_reserved":false,"is_disabled":false,"rental_uris":{"android":"levelo://app?vid=9e119d0b-c0b5-4dc4-8adb-833c259e51d8","ios":"levelo://app?vid=9e119d0b-c0b5-4dc4-8adb-833c259e51d8"},"vehicle_type_id":"4","last_reported":1740384813,"current_range_meters":12000,"station_id":"ce4bhh92rcd13ifvqfh0","pricing_plan_id":"cebpf4jnsgd1na2vs0mg"},{"bike_id":"dc54d4c7-bc24-4392-9110-799e297e7337","system_id":"levelo_inurba_marseille","lat":43.2932,"lon":5.37236,"is_reserved":false,"is_disabled":false,"rental_uris":{"android":"levelo://app?vid=dc54d4c7-bc24-4392-9110-799e297e7337","ios":"levelo://app?vid=dc54d4c7-bc24-4392-9110-799e297e7337"},"vehicle_type_id":"4","last_reported":1740384813,"current_range_meters":12000,"station_id":"ce4bgh92rcd13ifvqb40","pricing_plan_id":"cebpf4jnsgd1na2vs0mg"},{"bike_id":"10a9365f-072c-4bc6-9967-75e3cf71bc73","system_id":"levelo_inurba_marseille","lat":43.26333,"lon":5.39638,"is_reserved":false,"is_disabled":false,"rental_uris":{"android":"levelo://app?vid=10a9365f-072c-4bc6-9967-75e3cf71bc73","ios":"levelo://app?vid=10a9365f-072c-4bc6-9967-75e3cf71bc73"},"vehicle_type_id":"4","last_reported":1740384813,"current_range_meters":12000,"station_id":"","pricing_plan_id":"cebpf4jnsgd1na2vs0mg"},{"bike_id":"06e1f752-0631-4115-b2d5-0075ce84bc3c","system_id":"levelo_inurba_marseille","lat":43.25826,"lon":5.39438,"is_reserved":false,"is_disabled":false,"rental_uris":{"android":"levelo://app?vid=06e1f752-0631-4115-b2d5-0075ce84bc3c","ios":"levelo://app?vid=06e1f752-0631-4115-b2d5-0075ce84bc3c"},"vehicle_type_id":"4","last_reported":1740384813,"current_range_meters":12400,"station_id":"ce4bhip2rcd13ifvqft0","pricing_plan_id":"cebpf4jnsgd1na2vs0mg"},{"bike_id":"51c7c09f-82e9-4a4b-a201-54869c0fba8f","system_id":"levelo_inurba_marseille","lat":43.25083,"lon":5.39516,"is_reserved":false,"is_disabled":true,"rental_uris":{"android":"levelo://app?vid=51c7c09f-82e9-4a4b-a201-54869c0fba8f","ios":"levelo://app?vid=51c7c09f-82e9-4a4b-a201-54869c0fba8f"},"vehicle_type_id":"4","last_reported":1740384813,"current_range_meters":12400,"station_id":"ce4bhm12rcd13ifvqgkg","pricing_plan_id":"cebpf4jnsgd1na2vs0mg"},{"bike_id":"de759e37-9bdd-45ad-9e3e-ea85eb26e9b5","system_id":"levelo_inurba_marseille","lat":43.301442,"lon":5.381015,"is_reserved":false,"is_disabled":false,"rental_uris":{"android":"levelo://app?vid=de759e37-9bdd-45ad-9e3e-ea85eb26e9b5","ios":"levelo://app?vid=de759e37-9bdd-45ad-9e3e-ea85eb26e9b5"},"vehicle_type_id":"4","last_reported":1740384813,"current_range_meters":12400,"station_id":"ce4bhp92rcd13ifvqhag","pricing_plan_id":"cebpf4jnsgd1na2vs0mg"},{"bike_id":"37322814-6dd0-41b3-a822-e75a48669f81","system_id":"levelo_inurba_marseille","lat":43.279994,"lon":5.400105,"is_reserved":false,"is_disabled":false,"rental_uris":{"android":"levelo://app?vid=37322814-6dd0-41b3-a822-e75a48669f81","ios":"levelo://app?vid=37322814-6dd0-41b3-a822-e75a48669f81"},"vehicle_type_id":"4","last_reported":1740384813,"current_range_meters":12000,"station_id":"ce4bhdp2rcd13ifvqf20","pricing_plan_id":"cebpf4jnsgd1na2vs0mg"},{"bike_id":"36b5a9e9-3d73-4d24-9ad5-811549e30fee","system_id":"levelo_inurba_marseille","lat":43.30145,"lon":5.39836,"is_reserved":false,"is_disabled":false,"rental_uris":{"android":"levelo://app?vid=36b5a9e9-3d73-4d24-9ad5-811549e30fee","ios":"levelo://app?vid=36b5a9e9-3d73-4d24-9ad5-811549e30fee"},"vehicle_type_id":"4","last_reported":1740384813,"current_range_meters":12800,"station_id":"ce4bh0h2rcd13ifvqd40","pricing_plan_id":"cebpf4jnsgd1na2vs0mg"},{"bike_id":"56ccb29d-073c-400f-92db-8a19fccb7808","system_id":"levelo_inurba_marseille","lat":43.3053,"lon":5.36712,"is_reserved":false,"is_disabled":false,"rental_uris":{"android":"levelo://app?vid=56ccb29d-073c-400f-92db-8a19fccb7808","ios":"levelo://app?vid=56ccb29d-073c-400f-92db-8a19fccb7808"},"vehicle_type_id":"4","last_reported":1740384813,"current_range_meters":12800,"station_id":"ce4bgrp2rcd13ifvqc9g","pricing_plan_id":"cebpf4jnsgd1na2vs0mg"},{"bike_id":"ad505fac-e138-45e3-b358-d135036ac08a","system_id":"levelo_inurba_marseille","lat":43.24627,"lon":5.38796,"is_reserved":false,"is_disabled":false,"rental_uris":{"android":"levelo://app?vid=ad505fac-e138-45e3-b358-d135036ac08a","ios":"levelo://app?vid=ad505fac-e138-45e3-b358-d135036ac08a"},"vehicle_type_id":"4","last_reported":1740384813,"current_range_meters":12000,"station_id":"ce4bhg12rcd13ifvqf60","pricing_plan_id":"cebpf4jnsgd1na2vs0mg"},{"bike_id":"45e28bca-0e0e-4802-bb6e-9fce5d7ac724","system_id":"levelo_inurba_marseille","lat":43.268172,"lon":5.39353,"is_reserved":false,"is_disabled":false,"rental_uris":{"android":"levelo://app?vid=45e28bca-0e0e-4802-bb6e-9fce5d7ac724","ios":"levelo://app?vid=45e28bca-0e0e-4802-bb6e-9fce5d7ac724"},"vehicle_type_id":"4","last_reported":1740384813,"current_range_meters":12800,"station_id":"ce4bhhp2rcd13ifvqfm0","pricing_plan_id":"cebpf4jnsgd1na2vs0mg"},{"bike_id":"026c0319-a8a1-4119-af2b-b87438d1dcdc","system_id":"levelo_inurba_marseille","lat":43.27425,"lon":5.39419,"is_reserved":false,"is_disabled":false,"rental_uris":{"android":"levelo://app?vid=026c0319-a8a1-4119-af2b-b87438d1dcdc","ios":"levelo://app?vid=026c0319-a8a1-4119-af2b-b87438d1dcdc"},"vehicle_type_id":"4","last_reported":1740384813,"current_range_meters":12800,"station_id":"ce4bhdp2rcd13ifvqf20","pricing_plan_id":"cebpf4jnsgd1na2vs0mg"},{"bike_id":"56df2748-2c2e-439e-a556-627cad7c808a","system_id":"levelo_inurba_marseille","lat":43.26677,"lon":5.38263,"is_reserved":false,"is_disabled":false,"rental_uris":{"android":"levelo://app?vid=56df2748-2c2e-439e-a556-627cad7c808a","ios":"levelo://app?vid=56df2748-2c2e-439e-a556-627cad7c808a"},"vehicle_type_id":"4","last_reported":1740384813,"current_range_meters":13600,"station_id":"ce4bhg92rcd13ifvqf90","pricing_plan_id":"cebpf4jnsgd1na2vs0mg"},{"bike_id":"689644f4-0aac-4aa6-8a90-0c48a24b1da0","system_id":"levelo_inurba_marseille","lat":43.24179,"lon":5.39726,"is_reserved":false,"is_disabled":false,"rental_uris":{"android":"levelo://app?vid=689644f4-0aac-4aa6-8a90-0c48a24b1da0","ios":"levelo://app?vid=689644f4-0aac-4aa6-8a90-0c48a24b1da0"},"vehicle_type_id":"4","last_reported":1740384813,"current_range_meters":13600,"station_id":"ce4bhn12rcd13ifvqgpg","pricing_plan_id":"cebpf4jnsgd1na2vs0mg"},{"bike_id":"7d0e072a-3432-4778-a61a-3575849181ae","system_id":"levelo_inurba_marseille","lat":43.30538,"lon":5.36536,"is_reserved":false,"is_disabled":false,"rental_uris":{"android":"levelo://app?vid=7d0e072a-3432-4778-a61a-3575849181ae","ios":"levelo://app?vid=7d0e072a-3432-4778-a61a-3575849181ae"},"vehicle_type_id":"4","last_reported":1740384813,"current_range_meters":13600,"station_id":"ce4bgs12rcd13ifvqcag","pricing_plan_id":"cebpf4jnsgd1na2vs0mg"},{"bike_id":"99307ccd-790d-41d8-84d0-c96338855bc8","system_id":"levelo_inurba_marseille","lat":43.29296,"lon":5.37436,"is_reserved":false,"is_disabled":false,"rental_uris":{"android":"levelo://app?vid=99307ccd-790d-41d8-84d0-c96338855bc8","ios":"levelo://app?vid=99307ccd-790d-41d8-84d0-c96338855bc8"},"vehicle_type_id":"4","last_reported":1740384813,"current_range_meters":13600,"station_id":"ce4bgi12rcd13ifvqb70","pricing_plan_id":"cebpf4jnsgd1na2vs0mg"},{"bike_id":"01d1da51-2cef-46ef-923d-6fa5ded2f3da","system_id":"levelo_inurba_marseille","lat":43.30539,"lon":5.36554,"is_reserved":false,"is_disabled":false,"rental_uris":{"android":"levelo://app?vid=01d1da51-2cef-46ef-923d-6fa5ded2f3da","ios":"levelo://app?vid=01d1da51-2cef-46ef-923d-6fa5ded2f3da"},"vehicle_type_id":"4","last_reported":1740384813,"current_range_meters":13600,"station_id":"ce4bgs12rcd13ifvqcag","pricing_plan_id":"cebpf4jnsgd1na2vs0mg"},{"bike_id":"43bd8135-e056-4039-9a37-6a493ee5bbec","system_id":"levelo_inurba_marseille","lat":43.30909,"lon":5.36851,"is_reserved":false,"is_disabled":false,"rental_uris":{"android":"levelo://app?vid=43bd8135-e056-4039-9a37-6a493ee5bbec","ios":"levelo://app?vid=43bd8135-e056-4039-9a37-6a493ee5bbec"},"vehicle_type_id":"4","last_reported":1740384813,"current_range_meters":13600,"station_id":"ce4bgn92rcd13ifvqbvg","pricing_plan_id":"cebpf4jnsgd1na2vs0mg"},{"bike_id":"66d01159-7459-400c-a8d5-a441cd548517","system_id":"levelo_inurba_marseille","lat":43.27494,"lon":5.42454,"is_reserved":false,"is_disabled":false,"rental_uris":{"android":"levelo://app?vid=66d01159-7459-400c-a8d5-a441cd548517","ios":"levelo://app?vid=66d01159-7459-400c-a8d5-a441cd548517"},"vehicle_type_id":"4","last_reported":1740384813,"current_range_meters":13600,"station_id":"ce4bhn92rcd13ifvqgrg","pricing_plan_id":"cebpf4jnsgd1na2vs0mg"},{"bike_id":"25ef5a1f-5aec-48a2-a786-541af88b2004","system_id":"levelo_inurba_marseille","lat":43.30362,"lon":5.39443,"is_reserved":false,"is_disabled":false,"rental_uris":{"android":"levelo://app?vid=25ef5a1f-5aec-48a2-a786-541af88b2004","ios":"levelo://app?vid=25ef5a1f-5aec-48a2-a786-541af88b2004"},"vehicle_type_id":"4","last_reported":1740384813,"current_range_meters":14000,"station_id":"","pricing_plan_id":"cebpf4jnsgd1na2vs0mg"},{"bike_id":"41a2216f-8b22-4f4f-9eac-5e2283bcdb4b","system_id":"levelo_inurba_marseille","lat":43.28148,"lon":5.42662,"is_reserved":false,"is_disabled":true,"rental_uris":{"android":"levelo://app?vid=41a2216f-8b22-4f4f-9eac-5e2283bcdb4b","ios":"levelo://app?vid=41a2216f-8b22-4f4f-9eac-5e2283bcdb4b"},"vehicle_type_id":"4","last_reported":1740384813,"current_range_meters":14000,"station_id":"ce4bhnh2rcd13ifvqgug","pricing_plan_id":"cebpf4jnsgd1na2vs0mg"},{"bike_id":"1ef41376-cd3a-40a3-ae4a-f23a2a34fc30","system_id":"levelo_inurba_marseille","lat":43.27648,"lon":5.3897,"is_reserved":false,"is_disabled":true,"rental_uris":{"android":"levelo://app?vid=1ef41376-cd3a-40a3-ae4a-f23a2a34fc30","ios":"levelo://app?vid=1ef41376-cd3a-40a3-ae4a-f23a2a34fc30"},"vehicle_type_id":"4","last_reported":1740384813,"current_range_meters":14000,"station_id":"ce4bhi12rcd13ifvqfo0","pricing_plan_id":"cebpf4jnsgd1na2vs0mg"},{"bike_id":"7fe0996e-2e24-4a3a-b975-03a2a20f6506","system_id":"levelo_inurba_marseille","lat":43.32349,"lon":5.36755,"is_reserved":false,"is_disabled":false,"rental_uris":{"android":"levelo://app?vid=7fe0996e-2e24-4a3a-b975-03a2a20f6506","ios":"levelo://app?vid=7fe0996e-2e24-4a3a-b975-03a2a20f6506"},"vehicle_type_id":"4","last_reported":1740384813,"current_range_meters":14000,"station_id":"ce4bhsh2rcd13ifvqi2g","pricing_plan_id":"cebpf4jnsgd1na2vs0mg"},{"bike_id":"bc5fff51-e01e-46fc-8536-90b9645e2001","system_id":"levelo_inurba_marseille","lat":43.30301,"lon":5.36886,"is_reserved":false,"is_disabled":false,"rental_uris":{"android":"levelo://app?vid=bc5fff51-e01e-46fc-8536-90b9645e2001","ios":"levelo://app?vid=bc5fff51-e01e-46fc-8536-90b9645e2001"},"vehicle_type_id":"4","last_reported":1740384813,"current_range_meters":14400,"station_id":"ce4bgqh2rcd13ifvqc5g","pricing_plan_id":"cebpf4jnsgd1na2vs0mg"},{"bike_id":"55e8dfe4-3690-4fe4-a013-f8375845b432","system_id":"levelo_inurba_marseille","lat":43.25924,"lon":5.40884,"is_reserved":false,"is_disabled":false,"rental_uris":{"android":"levelo://app?vid=55e8dfe4-3690-4fe4-a013-f8375845b432","ios":"levelo://app?vid=55e8dfe4-3690-4fe4-a013-f8375845b432"},"vehicle_type_id":"4","last_reported":1740384813,"current_range_meters":14400,"station_id":"ce4bhm92rcd13ifvqglg","pricing_plan_id":"cebpf4jnsgd1na2vs0mg"},{"bike_id":"9ec80d5d-5365-4fe8-b1b8-741c81741c1c","system_id":"levelo_inurba_marseille","lat":43.27704,"lon":5.40811,"is_reserved":false,"is_disabled":false,"rental_uris":{"android":"levelo://app?vid=9ec80d5d-5365-4fe8-b1b8-741c81741c1c","ios":"levelo://app?vid=9ec80d5d-5365-4fe8-b1b8-741c81741c1c"},"vehicle_type_id":"4","last_reported":1740384813,"current_range_meters":14400,"station_id":"","pricing_plan_id":"cebpf4jnsgd1na2vs0mg"},{"bike_id":"a2d6ae3f-66f4-4649-ba0a-99967149441d","system_id":"levelo_inurba_marseille","lat":43.29547,"lon":5.3611,"is_reserved":false,"is_disabled":false,"rental_uris":{"android":"levelo://app?vid=a2d6ae3f-66f4-4649-ba0a-99967149441d","ios":"levelo://app?vid=a2d6ae3f-66f4-4649-ba0a-99967149441d"},"vehicle_type_id":"4","last_reported":1740384813,"current_range_meters":14400,"station_id":"","pricing_plan_id":"cebpf4jnsgd1na2vs0mg"},{"bike_id":"b31937a8-50f2-4630-aaef-f21f2141bdf5","system_id":"levelo_inurba_marseille","lat":43.29841,"lon":5.36265,"is_reserved":false,"is_disabled":false,"rental_uris":{"android":"levelo://app?vid=b31937a8-50f2-4630-aaef-f21f2141bdf5","ios":"levelo://app?vid=b31937a8-50f2-4630-aaef-f21f2141bdf5"},"vehicle_type_id":"4","last_reported":1740384813,"current_range_meters":14400,"station_id":"ce4bgpp2rcd13ifvqc3g","pricing_plan_id":"cebpf4jnsgd1na2vs0mg"},{"bike_id":"a9b8e587-5013-4fd7-9972-3a43114d11c8","system_id":"levelo_inurba_marseille","lat":43.29682,"lon":5.37298,"is_reserved":false,"is_disabled":false,"rental_uris":{"android":"levelo://app?vid=a9b8e587-5013-4fd7-9972-3a43114d11c8","ios":"levelo://app?vid=a9b8e587-5013-4fd7-9972-3a43114d11c8"},"vehicle_type_id":"4","last_reported":1740384813,"current_range_meters":14800,"station_id":"ce4bgk12rcd13ifvqbj0","pricing_plan_id":"cebpf4jnsgd1na2vs0mg"},{"bike_id":"cd1ed5da-4193-4b1f-828e-88308d393b06","system_id":"levelo_inurba_marseille","lat":43.33601,"lon":5.41,"is_reserved":false,"is_disabled":false,"rental_uris":{"android":"levelo://app?vid=cd1ed5da-4193-4b1f-828e-88308d393b06","ios":"levelo://app?vid=cd1ed5da-4193-4b1f-828e-88308d393b06"},"vehicle_type_id":"4","last_reported":1740384813,"current_range_meters":15200,"station_id":"ce4bhqh2rcd13ifvqhmg","pricing_plan_id":"cebpf4jnsgd1na2vs0mg"},{"bike_id":"da805173-c32f-4615-b8c5-69bdaf0f2e7f","system_id":"levelo_inurba_marseille","lat":43.29021,"lon":5.35593,"is_reserved":false,"is_disabled":true,"rental_uris":{"android":"levelo://app?vid=da805173-c32f-4615-b8c5-69bdaf0f2e7f","ios":"levelo://app?vid=da805173-c32f-4615-b8c5-69bdaf0f2e7f"},"vehicle_type_id":"4","last_reported":1740384813,"current_range_meters":15200,"station_id":"ce4bhb92rcd13ifvqen0","pricing_plan_id":"cebpf4jnsgd1na2vs0mg"},{"bike_id":"66f0ec1e-c319-4fe7-bbb7-77543d8b7c11","system_id":"levelo_inurba_marseille","lat":43.2594,"lon":5.40899,"is_reserved":false,"is_disabled":false,"rental_uris":{"android":"levelo://app?vid=66f0ec1e-c319-4fe7-bbb7-77543d8b7c11","ios":"levelo://app?vid=66f0ec1e-c319-4fe7-bbb7-77543d8b7c11"},"vehicle_type_id":"4","last_reported":1740384813,"current_range_meters":15200,"station_id":"ce4bhm92rcd13ifvqglg","pricing_plan_id":"cebpf4jnsgd1na2vs0mg"},{"bike_id":"615a02a6-6646-4df1-8ade-8686d89d8747","system_id":"levelo_inurba_marseille","lat":43.31331,"lon":5.39705,"is_reserved":false,"is_disabled":true,"rental_uris":{"android":"levelo://app?vid=615a02a6-6646-4df1-8ade-8686d89d8747","ios":"levelo://app?vid=615a02a6-6646-4df1-8ade-8686d89d8747"},"vehicle_type_id":"4","last_reported":1740384813,"current_range_meters":15200,"station_id":"ce4bgvp2rcd13ifvqcu0","pricing_plan_id":"cebpf4jnsgd1na2vs0mg"},{"bike_id":"e495018c-1981-4388-8b75-d277968266ac","system_id":"levelo_inurba_marseille","lat":43.31231,"lon":5.36877,"is_reserved":false,"is_disabled":false,"rental_uris":{"android":"levelo://app?vid=e495018c-1981-4388-8b75-d277968266ac","ios":"levelo://app?vid=e495018c-1981-4388-8b75-d277968266ac"},"vehicle_type_id":"4","last_reported":1740384813,"current_range_meters":16000,"station_id":"ce4bgl92rcd13ifvqbq0","pricing_plan_id":"cebpf4jnsgd1na2vs0mg"},{"bike_id":"470cf5e7-7964-4eba-b068-2cb407bcc686","system_id":"levelo_inurba_marseille","lat":43.29042,"lon":5.3996,"is_reserved":false,"is_disabled":false,"rental_uris":{"android":"levelo://app?vid=470cf5e7-7964-4eba-b068-2cb407bcc686","ios":"levelo://app?vid=470cf5e7-7964-4eba-b068-2cb407bcc686"},"vehicle_type_id":"4","last_reported":1740384813,"current_range_meters":16000,"station_id":"ce4bh392rcd13ifvqdm0","pricing_plan_id":"cebpf4jnsgd1na2vs0mg"},{"bike_id":"2cb3f284-7b8f-46db-a012-ff6c476270a8","system_id":"levelo_inurba_marseille","lat":43.23187,"lon":5.35558,"is_reserved":false,"is_disabled":false,"rental_uris":{"android":"levelo://app?vid=2cb3f284-7b8f-46db-a012-ff6c476270a8","ios":"levelo://app?vid=2cb3f284-7b8f-46db-a012-ff6c476270a8"},"vehicle_type_id":"4","last_reported":1740384813,"current_range_meters":16000,"station_id":"ce4bhu92rcd13ifvqi70","pricing_plan_id":"cebpf4jnsgd1na2vs0mg"},{"bike_id":"212f0e83-2b46-4f28-8f2d-a61b45eeed5c","system_id":"levelo_inurba_marseille","lat":43.30191,"lon":5.3663,"is_reserved":false,"is_disabled":false,"rental_uris":{"android":"levelo://app?vid=212f0e83-2b46-4f28-8f2d-a61b45eeed5c","ios":"levelo://app?vid=212f0e83-2b46-4f28-8f2d-a61b45eeed5c"},"vehicle_type_id":"4","last_reported":1740384813,"current_range_meters":16000,"station_id":"ce4bgrh2rcd13ifvqc8g","pricing_plan_id":"cebpf4jnsgd1na2vs0mg"},{"bike_id":"88329069-4b4b-4821-888f-14a1550adb7a","system_id":"levelo_inurba_marseille","lat":43.23147,"lon":5.43723,"is_reserved":false,"is_disabled":false,"rental_uris":{"android":"levelo://app?vid=88329069-4b4b-4821-888f-14a1550adb7a","ios":"levelo://app?vid=88329069-4b4b-4821-888f-14a1550adb7a"},"vehicle_type_id":"4","last_reported":1740384813,"current_range_meters":16000,"station_id":"ce4bhmp2rcd13ifvqgog","pricing_plan_id":"cebpf4jnsgd1na2vs0mg"},{"bike_id":"bf962700-9e4e-48f2-b643-3feb90a2286a","system_id":"levelo_inurba_marseille","lat":43.31494,"lon":5.37301,"is_reserved":false,"is_disabled":false,"rental_uris":{"android":"levelo://app?vid=bf962700-9e4e-48f2-b643-3feb90a2286a","ios":"levelo://app?vid=bf962700-9e4e-48f2-b643-3feb90a2286a"},"vehicle_type_id":"4","last_reported":1740384813,"current_range_meters":16000,"station_id":"ce4bgt12rcd13ifvqcd0","pricing_plan_id":"cebpf4jnsgd1na2vs0mg"},{"bike_id":"c0553ce2-1e21-4424-ae14-30f158e9755d","system_id":"levelo_inurba_marseille","lat":43.29885,"lon":5.38914,"is_reserved":false,"is_disabled":true,"rental_uris":{"android":"levelo://app?vid=c0553ce2-1e21-4424-ae14-30f158e9755d","ios":"levelo://app?vid=c0553ce2-1e21-4424-ae14-30f158e9755d"},"vehicle_type_id":"4","last_reported":1740384813,"current_range_meters":16000,"station_id":"ce4bh392rcd13ifvqdl0","pricing_plan_id":"cebpf4jnsgd1na2vs0mg"},{"bike_id":"c97f5ab1-20b5-4c00-b657-8a7a3dfc639d","system_id":"levelo_inurba_marseille","lat":43.31222,"lon":5.37226,"is_reserved":false,"is_disabled":false,"rental_uris":{"android":"levelo://app?vid=c97f5ab1-20b5-4c00-b657-8a7a3dfc639d","ios":"levelo://app?vid=c97f5ab1-20b5-4c00-b657-8a7a3dfc639d"},"vehicle_type_id":"4","last_reported":1740384813,"current_range_meters":16400,"station_id":"","pricing_plan_id":"cebpf4jnsgd1na2vs0mg"},{"bike_id":"706643d2-c89f-4374-8393-6c79d403ba35","system_id":"levelo_inurba_marseille","lat":43.29496,"lon":5.37529,"is_reserved":false,"is_disabled":true,"rental_uris":{"android":"levelo://app?vid=706643d2-c89f-4374-8393-6c79d403ba35","ios":"levelo://app?vid=706643d2-c89f-4374-8393-6c79d403ba35"},"vehicle_type_id":"4","last_reported":1740384813,"current_range_meters":16400,"station_id":"","pricing_plan_id":"cebpf4jnsgd1na2vs0mg"},{"bike_id":"a3a54336-01b2-4b8d-b8b0-3d89dbe2daa8","system_id":"levelo_inurba_marseille","lat":43.30462,"lon":5.37902,"is_reserved":false,"is_disabled":false,"rental_uris":{"android":"levelo://app?vid=a3a54336-01b2-4b8d-b8b0-3d89dbe2daa8","ios":"levelo://app?vid=a3a54336-01b2-4b8d-b8b0-3d89dbe2daa8"},"vehicle_type_id":"4","last_reported":1740384813,"current_range_meters":16400,"station_id":"ce4bgup2rcd13ifvqcn0","pricing_plan_id":"cebpf4jnsgd1na2vs0mg"},{"bike_id":"d0f9baeb-9149-42dc-b55d-2776f262fab0","system_id":"levelo_inurba_marseille","lat":43.27497,"lon":5.42463,"is_reserved":false,"is_disabled":false,"rental_uris":{"android":"levelo://app?vid=d0f9baeb-9149-42dc-b55d-2776f262fab0","ios":"levelo://app?vid=d0f9baeb-9149-42dc-b55d-2776f262fab0"},"vehicle_type_id":"4","last_reported":1740384813,"current_range_meters":16400,"station_id":"ce4bhn92rcd13ifvqgrg","pricing_plan_id":"cebpf4jnsgd1na2vs0mg"},{"bike_id":"98ee55f8-f3af-433a-86d4-ad5a74b5654c","system_id":"levelo_inurba_marseille","lat":43.2728,"lon":5.39148,"is_reserved":false,"is_disabled":true,"rental_uris":{"android":"levelo://app?vid=98ee55f8-f3af-433a-86d4-ad5a74b5654c","ios":"levelo://app?vid=98ee55f8-f3af-433a-86d4-ad5a74b5654c"},"vehicle_type_id":"4","last_reported":1740384813,"current_range_meters":16400,"station_id":"ce4bhgp2rcd13ifvqfe0","pricing_plan_id":"cebpf4jnsgd1na2vs0mg"},{"bike_id":"16383675-fc5d-4252-93cf-d4c3ee1829f6","system_id":"levelo_inurba_marseille","lat":43.26227,"lon":5.37583,"is_reserved":false,"is_disabled":false,"rental_uris":{"android":"levelo://app?vid=16383675-fc5d-4252-93cf-d4c3ee1829f6","ios":"levelo://app?vid=16383675-fc5d-4252-93cf-d4c3ee1829f6"},"vehicle_type_id":"4","last_reported":1740384813,"current_range_meters":16800,"station_id":"","pricing_plan_id":"cebpf4jnsgd1na2vs0mg"},{"bike_id":"d4730943-c8a0-45ac-a541-8183607370d1","system_id":"levelo_inurba_marseille","lat":43.25003,"lon":5.38918,"is_reserved":false,"is_disabled":false,"rental_uris":{"android":"levelo://app?vid=d4730943-c8a0-45ac-a541-8183607370d1","ios":"levelo://app?vid=d4730943-c8a0-45ac-a541-8183607370d1"},"vehicle_type_id":"4","last_reported":1740384813,"current_range_meters":16800,"station_id":"ce4bhgp2rcd13ifvqfd0","pricing_plan_id":"cebpf4jnsgd1na2vs0mg"},{"bike_id":"cdf89f84-1d45-4ce1-b985-6a2c8b69ccf3","system_id":"levelo_inurba_marseille","lat":43.30552,"lon":5.36525,"is_reserved":false,"is_disabled":true,"rental_uris":{"android":"levelo://app?vid=cdf89f84-1d45-4ce1-b985-6a2c8b69ccf3","ios":"levelo://app?vid=cdf89f84-1d45-4ce1-b985-6a2c8b69ccf3"},"vehicle_type_id":"4","last_reported":1740384813,"current_range_meters":16800,"station_id":"ce4bgs12rcd13ifvqcag","pricing_plan_id":"cebpf4jnsgd1na2vs0mg"},{"bike_id":"a66059f6-2ce2-47aa-83b0-ca76626e6c68","system_id":"levelo_inurba_marseille","lat":43.24181,"lon":5.39735,"is_reserved":false,"is_disabled":false,"rental_uris":{"android":"levelo://app?vid=a66059f6-2ce2-47aa-83b0-ca76626e6c68","ios":"levelo://app?vid=a66059f6-2ce2-47aa-83b0-ca76626e6c68"},"vehicle_type_id":"4","last_reported":1740384813,"current_range_meters":16800,"station_id":"ce4bhn12rcd13ifvqgpg","pricing_plan_id":"cebpf4jnsgd1na2vs0mg"},{"bike_id":"27068228-7ec6-4512-87fa-dcb51515ec3c","system_id":"levelo_inurba_marseille","lat":43.30905,"lon":5.37188,"is_reserved":false,"is_disabled":false,"rental_uris":{"android":"levelo://app?vid=27068228-7ec6-4512-87fa-dcb51515ec3c","ios":"levelo://app?vid=27068228-7ec6-4512-87fa-dcb51515ec3c"},"vehicle_type_id":"4","last_reported":1740384813,"current_range_meters":17200,"station_id":"ce4bguh2rcd13ifvqckg","pricing_plan_id":"cebpf4jnsgd1na2vs0mg"},{"bike_id":"825afeec-18be-406e-9d4d-367ce8e4ca04","system_id":"levelo_inurba_marseille","lat":43.28337,"lon":5.3811,"is_reserved":false,"is_disabled":true,"rental_uris":{"android":"levelo://app?vid=825afeec-18be-406e-9d4d-367ce8e4ca04","ios":"levelo://app?vid=825afeec-18be-406e-9d4d-367ce8e4ca04"},"vehicle_type_id":"4","last_reported":1740384813,"current_range_meters":17200,"station_id":"ce4bh412rcd13ifvqdr0","pricing_plan_id":"cebpf4jnsgd1na2vs0mg"},{"bike_id":"cffad13e-816d-41ca-b7c1-f579c9e787b1","system_id":"levelo_inurba_marseille","lat":43.25931,"lon":5.40917,"is_reserved":false,"is_disabled":false,"rental_uris":{"android":"levelo://app?vid=cffad13e-816d-41ca-b7c1-f579c9e787b1","ios":"levelo://app?vid=cffad13e-816d-41ca-b7c1-f579c9e787b1"},"vehicle_type_id":"4","last_reported":1740384813,"current_range_meters":17200,"station_id":"ce4bhm92rcd13ifvqglg","pricing_plan_id":"cebpf4jnsgd1na2vs0mg"},{"bike_id":"67bfd8e9-1a4a-4bcd-8044-e544959abb4c","system_id":"levelo_inurba_marseille","lat":43.27916,"lon":5.39579,"is_reserved":false,"is_disabled":false,"rental_uris":{"android":"levelo://app?vid=67bfd8e9-1a4a-4bcd-8044-e544959abb4c","ios":"levelo://app?vid=67bfd8e9-1a4a-4bcd-8044-e544959abb4c"},"vehicle_type_id":"4","last_reported":1740384813,"current_range_meters":17200,"station_id":"ce4bhf92rcd13ifvqf40","pricing_plan_id":"cebpf4jnsgd1na2vs0mg"},{"bike_id":"53899e2c-901f-4684-921b-47370fcd206b","system_id":"levelo_inurba_marseille","lat":43.30092,"lon":5.3911,"is_reserved":false,"is_disabled":true,"rental_uris":{"android":"levelo://app?vid=53899e2c-901f-4684-921b-47370fcd206b","ios":"levelo://app?vid=53899e2c-901f-4684-921b-47370fcd206b"},"vehicle_type_id":"4","last_reported":1740384813,"current_range_meters":17200,"station_id":"ce4bh192rcd13ifvqdb0","pricing_plan_id":"cebpf4jnsgd1na2vs0mg"},{"bike_id":"7652c1ae-6d1c-4b04-81e7-c1182f2c26a1","system_id":"levelo_inurba_marseille","lat":43.24181,"lon":5.39732,"is_reserved":false,"is_disabled":false,"rental_uris":{"android":"levelo://app?vid=7652c1ae-6d1c-4b04-81e7-c1182f2c26a1","ios":"levelo://app?vid=7652c1ae-6d1c-4b04-81e7-c1182f2c26a1"},"vehicle_type_id":"4","last_reported":1740384813,"current_range_meters":17200,"station_id":"ce4bhn12rcd13ifvqgpg","pricing_plan_id":"cebpf4jnsgd1na2vs0mg"},{"bike_id":"ebbf6217-465f-4269-8ee4-4515a862b241","system_id":"levelo_inurba_marseille","lat":43.29867,"lon":5.38915,"is_reserved":false,"is_disabled":true,"rental_uris":{"android":"levelo://app?vid=ebbf6217-465f-4269-8ee4-4515a862b241","ios":"levelo://app?vid=ebbf6217-465f-4269-8ee4-4515a862b241"},"vehicle_type_id":"4","last_reported":1740384813,"current_range_meters":17200,"station_id":"ce4bh392rcd13ifvqdl0","pricing_plan_id":"cebpf4jnsgd1na2vs0mg"},{"bike_id":"86669f33-8519-423e-9dec-1b624217baeb","system_id":"levelo_inurba_marseille","lat":43.2507,"lon":5.39521,"is_reserved":false,"is_disabled":true,"rental_uris":{"android":"levelo://app?vid=86669f33-8519-423e-9dec-1b624217baeb","ios":"levelo://app?vid=86669f33-8519-423e-9dec-1b624217baeb"},"vehicle_type_id":"4","last_reported":1740384813,"current_range_meters":17200,"station_id":"ce4bhm12rcd13ifvqgkg","pricing_plan_id":"cebpf4jnsgd1na2vs0mg"},{"bike_id":"e3002425-2dfe-4241-a0d0-c30ced6ad606","system_id":"levelo_inurba_marseille","lat":43.309204,"lon":5.368525,"is_reserved":false,"is_disabled":false,"rental_uris":{"android":"levelo://app?vid=e3002425-2dfe-4241-a0d0-c30ced6ad606","ios":"levelo://app?vid=e3002425-2dfe-4241-a0d0-c30ced6ad606"},"vehicle_type_id":"4","last_reported":1740384813,"current_range_meters":17200,"station_id":"ce4bgn92rcd13ifvqbvg","pricing_plan_id":"cebpf4jnsgd1na2vs0mg"},{"bike_id":"05dff8b5-33a9-4d66-9ab6-0d3f3106b26e","system_id":"levelo_inurba_marseille","lat":43.24054,"lon":5.37725,"is_reserved":false,"is_disabled":false,"rental_uris":{"android":"levelo://app?vid=05dff8b5-33a9-4d66-9ab6-0d3f3106b26e","ios":"levelo://app?vid=05dff8b5-33a9-4d66-9ab6-0d3f3106b26e"},"vehicle_type_id":"4","last_reported":1740384813,"current_range_meters":17600,"station_id":"ce4bhnp2rcd13ifvqgvg","pricing_plan_id":"cebpf4jnsgd1na2vs0mg"},{"bike_id":"147467f8-df4e-4a9b-9e9b-8fc4b8bc51fd","system_id":"levelo_inurba_marseille","lat":43.30142,"lon":5.37418,"is_reserved":false,"is_disabled":false,"rental_uris":{"android":"levelo://app?vid=147467f8-df4e-4a9b-9e9b-8fc4b8bc51fd","ios":"levelo://app?vid=147467f8-df4e-4a9b-9e9b-8fc4b8bc51fd"},"vehicle_type_id":"4","last_reported":1740384813,"current_range_meters":17600,"station_id":"ce4bgs92rcd13ifvqcc0","pricing_plan_id":"cebpf4jnsgd1na2vs0mg"},{"bike_id":"f373858c-4bfe-491d-8681-185b20c75a86","system_id":"levelo_inurba_marseille","lat":43.30678,"lon":5.40097,"is_reserved":false,"is_disabled":true,"rental_uris":{"android":"levelo://app?vid=f373858c-4bfe-491d-8681-185b20c75a86","ios":"levelo://app?vid=f373858c-4bfe-491d-8681-185b20c75a86"},"vehicle_type_id":"4","last_reported":1740384813,"current_range_meters":18000,"station_id":"ce4bh112rcd13ifvqda0","pricing_plan_id":"cebpf4jnsgd1na2vs0mg"},{"bike_id":"63bd7c61-4a1f-4c33-b0da-bb44c69a1793","system_id":"levelo_inurba_marseille","lat":43.2408,"lon":5.37752,"is_reserved":false,"is_disabled":false,"rental_uris":{"android":"levelo://app?vid=63bd7c61-4a1f-4c33-b0da-bb44c69a1793","ios":"levelo://app?vid=63bd7c61-4a1f-4c33-b0da-bb44c69a1793"},"vehicle_type_id":"4","last_reported":1740384813,"current_range_meters":17600,"station_id":"ce4bhnp2rcd13ifvqgvg","pricing_plan_id":"cebpf4jnsgd1na2vs0mg"},{"bike_id":"a2a01edb-023d-461b-9ed1-67e1fc306710","system_id":"levelo_inurba_marseille","lat":43.30528,"lon":5.36721,"is_reserved":false,"is_disabled":false,"rental_uris":{"android":"levelo://app?vid=a2a01edb-023d-461b-9ed1-67e1fc306710","ios":"levelo://app?vid=a2a01edb-023d-461b-9ed1-67e1fc306710"},"vehicle_type_id":"4","last_reported":1740384813,"current_range_meters":17600,"station_id":"ce4bgrp2rcd13ifvqc9g","pricing_plan_id":"cebpf4jnsgd1na2vs0mg"},{"bike_id":"994ea265-1013-46db-96b8-64671d477a1f","system_id":"levelo_inurba_marseille","lat":43.26198,"lon":5.37937,"is_reserved":false,"is_disabled":false,"rental_uris":{"android":"levelo://app?vid=994ea265-1013-46db-96b8-64671d477a1f","ios":"levelo://app?vid=994ea265-1013-46db-96b8-64671d477a1f"},"vehicle_type_id":"4","last_reported":1740384813,"current_range_meters":17200,"station_id":"ce4bhjp2rcd13ifvqg90","pricing_plan_id":"cebpf4jnsgd1na2vs0mg"},{"bike_id":"9fabdfa7-a0ef-44ff-b626-33a9b5d52aad","system_id":"levelo_inurba_marseille","lat":43.30127,"lon":5.38809,"is_reserved":false,"is_disabled":true,"rental_uris":{"android":"levelo://app?vid=9fabdfa7-a0ef-44ff-b626-33a9b5d52aad","ios":"levelo://app?vid=9fabdfa7-a0ef-44ff-b626-33a9b5d52aad"},"vehicle_type_id":"4","last_reported":1740384813,"current_range_meters":17600,"station_id":"ce4bghh2rcd13ifvqb60","pricing_plan_id":"cebpf4jnsgd1na2vs0mg"},{"bike_id":"67353ec5-ce91-46f3-8df8-86128e85fd44","system_id":"levelo_inurba_marseille","lat":43.28137,"lon":5.42645,"is_reserved":false,"is_disabled":true,"rental_uris":{"android":"levelo://app?vid=67353ec5-ce91-46f3-8df8-86128e85fd44","ios":"levelo://app?vid=67353ec5-ce91-46f3-8df8-86128e85fd44"},"vehicle_type_id":"4","last_reported":1740384813,"current_range_meters":17600,"station_id":"ce4bhnh2rcd13ifvqgug","pricing_plan_id":"cebpf4jnsgd1na2vs0mg"},{"bike_id":"1a31d1e4-926c-463f-8572-d6ebfae27647","system_id":"levelo_inurba_marseille","lat":43.29931,"lon":5.37454,"is_reserved":false,"is_disabled":false,"rental_uris":{"android":"levelo://app?vid=1a31d1e4-926c-463f-8572-d6ebfae27647","ios":"levelo://app?vid=1a31d1e4-926c-463f-8572-d6ebfae27647"},"vehicle_type_id":"4","last_reported":1740384813,"current_range_meters":17600,"station_id":"ce4bgjh2rcd13ifvqbg0","pricing_plan_id":"cebpf4jnsgd1na2vs0mg"},{"bike_id":"eba6ffe9-be54-4e9c-baa7-b4b7f8a7ba35","system_id":"levelo_inurba_marseille","lat":43.27213,"lon":5.39175,"is_reserved":false,"is_disabled":false,"rental_uris":{"android":"levelo://app?vid=eba6ffe9-be54-4e9c-baa7-b4b7f8a7ba35","ios":"levelo://app?vid=eba6ffe9-be54-4e9c-baa7-b4b7f8a7ba35"},"vehicle_type_id":"4","last_reported":1740384813,"current_range_meters":18000,"station_id":"ce4bhhp2rcd13ifvqfm0","pricing_plan_id":"cebpf4jnsgd1na2vs0mg"},{"bike_id":"0d8b628b-6a6f-4c7e-85b3-173790111a6e","system_id":"levelo_inurba_marseille","lat":43.30537,"lon":5.3656,"is_reserved":false,"is_disabled":false,"rental_uris":{"android":"levelo://app?vid=0d8b628b-6a6f-4c7e-85b3-173790111a6e","ios":"levelo://app?vid=0d8b628b-6a6f-4c7e-85b3-173790111a6e"},"vehicle_type_id":"4","last_reported":1740384813,"current_range_meters":18000,"station_id":"ce4bgs12rcd13ifvqcag","pricing_plan_id":"cebpf4jnsgd1na2vs0mg"},{"bike_id":"a437ce3e-94c1-4d80-949a-3eb291854603","system_id":"levelo_inurba_marseille","lat":43.30907,"lon":5.40159,"is_reserved":false,"is_disabled":true,"rental_uris":{"android":"levelo://app?vid=a437ce3e-94c1-4d80-949a-3eb291854603","ios":"levelo://app?vid=a437ce3e-94c1-4d80-949a-3eb291854603"},"vehicle_type_id":"4","last_reported":1740384813,"current_range_meters":18000,"station_id":"ce4bgvp2rcd13ifvqct0","pricing_plan_id":"cebpf4jnsgd1na2vs0mg"},{"bike_id":"306c8afe-27f2-42dd-9d3c-74d43bc1f2cb","system_id":"levelo_inurba_marseille","lat":43.27487,"lon":5.42461,"is_reserved":false,"is_disabled":false,"rental_uris":{"android":"levelo://app?vid=306c8afe-27f2-42dd-9d3c-74d43bc1f2cb","ios":"levelo://app?vid=306c8afe-27f2-42dd-9d3c-74d43bc1f2cb"},"vehicle_type_id":"4","last_reported":1740384813,"current_range_meters":18000,"station_id":"ce4bhn92rcd13ifvqgrg","pricing_plan_id":"cebpf4jnsgd1na2vs0mg"},{"bike_id":"67350e3b-ced3-434f-8df5-0f50029c572e","system_id":"levelo_inurba_marseille","lat":43.23191,"lon":5.35563,"is_reserved":false,"is_disabled":false,"rental_uris":{"android":"levelo://app?vid=67350e3b-ced3-434f-8df5-0f50029c572e","ios":"levelo://app?vid=67350e3b-ced3-434f-8df5-0f50029c572e"},"vehicle_type_id":"4","last_reported":1740384813,"current_range_meters":18000,"station_id":"ce4bhu92rcd13ifvqi70","pricing_plan_id":"cebpf4jnsgd1na2vs0mg"},{"bike_id":"876aa59c-c91a-4ffc-81c7-21dd319d2cb2","system_id":"levelo_inurba_marseille","lat":43.29218,"lon":5.40523,"is_reserved":false,"is_disabled":false,"rental_uris":{"android":"levelo://app?vid=876aa59c-c91a-4ffc-81c7-21dd319d2cb2","ios":"levelo://app?vid=876aa59c-c91a-4ffc-81c7-21dd319d2cb2"},"vehicle_type_id":"4","last_reported":1740384813,"current_range_meters":18800,"station_id":"","pricing_plan_id":"cebpf4jnsgd1na2vs0mg"},{"bike_id":"26453f95-18ff-43f2-8a79-9360540621ad","system_id":"levelo_inurba_marseille","lat":43.33747,"lon":5.37486,"is_reserved":false,"is_disabled":false,"rental_uris":{"android":"levelo://app?vid=26453f95-18ff-43f2-8a79-9360540621ad","ios":"levelo://app?vid=26453f95-18ff-43f2-8a79-9360540621ad"},"vehicle_type_id":"4","last_reported":1740384813,"current_range_meters":18000,"station_id":"","pricing_plan_id":"cebpf4jnsgd1na2vs0mg"},{"bike_id":"53c250d8-2df3-441a-ade7-521012287108","system_id":"levelo_inurba_marseille","lat":43.24057,"lon":5.37776,"is_reserved":false,"is_disabled":false,"rental_uris":{"android":"levelo://app?vid=53c250d8-2df3-441a-ade7-521012287108","ios":"levelo://app?vid=53c250d8-2df3-441a-ade7-521012287108"},"vehicle_type_id":"4","last_reported":1740384813,"current_range_meters":18000,"station_id":"ce4bhnp2rcd13ifvqgvg","pricing_plan_id":"cebpf4jnsgd1na2vs0mg"},{"bike_id":"073518a5-4dc0-447e-9477-a67f73b2a5a2","system_id":"levelo_inurba_marseille","lat":43.32374,"lon":5.3676,"is_reserved":false,"is_disabled":false,"rental_uris":{"android":"levelo://app?vid=073518a5-4dc0-447e-9477-a67f73b2a5a2","ios":"levelo://app?vid=073518a5-4dc0-447e-9477-a67f73b2a5a2"},"vehicle_type_id":"4","last_reported":1740384813,"current_range_meters":18000,"station_id":"ce4bhsh2rcd13ifvqi2g","pricing_plan_id":"cebpf4jnsgd1na2vs0mg"},{"bike_id":"e0a974b6-ebb6-4643-b3b6-b282d529bc0a","system_id":"levelo_inurba_marseille","lat":43.31701,"lon":5.43673,"is_reserved":false,"is_disabled":true,"rental_uris":{"android":"levelo://app?vid=e0a974b6-ebb6-4643-b3b6-b282d529bc0a","ios":"levelo://app?vid=e0a974b6-ebb6-4643-b3b6-b282d529bc0a"},"vehicle_type_id":"4","last_reported":1740384813,"current_range_meters":18000,"station_id":"ce4bhp92rcd13ifvqhcg","pricing_plan_id":"cebpf4jnsgd1na2vs0mg"},{"bike_id":"c51fbff7-6a2a-4b56-8c2e-57a8978764b4","system_id":"levelo_inurba_marseille","lat":43.27991,"lon":5.40008,"is_reserved":false,"is_disabled":true,"rental_uris":{"android":"levelo://app?vid=c51fbff7-6a2a-4b56-8c2e-57a8978764b4","ios":"levelo://app?vid=c51fbff7-6a2a-4b56-8c2e-57a8978764b4"},"vehicle_type_id":"4","last_reported":1740384813,"current_range_meters":18800,"station_id":"ce4bho92rcd13ifvqh4g","pricing_plan_id":"cebpf4jnsgd1na2vs0mg"},{"bike_id":"dbd01bd4-feb8-41d8-bccd-cc14b1e18c4d","system_id":"levelo_inurba_marseille","lat":43.28443,"lon":5.39199,"is_reserved":false,"is_disabled":false,"rental_uris":{"android":"levelo://app?vid=dbd01bd4-feb8-41d8-bccd-cc14b1e18c4d","ios":"levelo://app?vid=dbd01bd4-feb8-41d8-bccd-cc14b1e18c4d"},"vehicle_type_id":"4","last_reported":1740384813,"current_range_meters":18800,"station_id":"ce4bhoh2rcd13ifvqh5g","pricing_plan_id":"cebpf4jnsgd1na2vs0mg"},{"bike_id":"8b6d6dc7-9b3a-49c7-9e4e-44a1a302ed03","system_id":"levelo_inurba_marseille","lat":43.25932,"lon":5.40915,"is_reserved":false,"is_disabled":false,"rental_uris":{"android":"levelo://app?vid=8b6d6dc7-9b3a-49c7-9e4e-44a1a302ed03","ios":"levelo://app?vid=8b6d6dc7-9b3a-49c7-9e4e-44a1a302ed03"},"vehicle_type_id":"4","last_reported":1740384813,"current_range_meters":18800,"station_id":"ce4bhm92rcd13ifvqglg","pricing_plan_id":"cebpf4jnsgd1na2vs0mg"},{"bike_id":"479b9ae0-d182-4c84-9c54-e67ea850c4a9","system_id":"levelo_inurba_marseille","lat":43.30537,"lon":5.36553,"is_reserved":false,"is_disabled":false,"rental_uris":{"android":"levelo://app?vid=479b9ae0-d182-4c84-9c54-e67ea850c4a9","ios":"levelo://app?vid=479b9ae0-d182-4c84-9c54-e67ea850c4a9"},"vehicle_type_id":"4","last_reported":1740384813,"current_range_meters":18800,"station_id":"ce4bgs12rcd13ifvqcag","pricing_plan_id":"cebpf4jnsgd1na2vs0mg"},{"bike_id":"40c93502-1dfa-4230-b089-2007da8bd0c2","system_id":"levelo_inurba_marseille","lat":43.32481,"lon":5.36571,"is_reserved":false,"is_disabled":false,"rental_uris":{"android":"levelo://app?vid=40c93502-1dfa-4230-b089-2007da8bd0c2","ios":"levelo://app?vid=40c93502-1dfa-4230-b089-2007da8bd0c2"},"vehicle_type_id":"4","last_reported":1740384813,"current_range_meters":18800,"station_id":"ce4bhs12rcd13ifvqhvg","pricing_plan_id":"cebpf4jnsgd1na2vs0mg"},{"bike_id":"55c5a069-8bae-41fc-90ec-e10b9558e3b4","system_id":"levelo_inurba_marseille","lat":43.30909,"lon":5.36846,"is_reserved":false,"is_disabled":false,"rental_uris":{"android":"levelo://app?vid=55c5a069-8bae-41fc-90ec-e10b9558e3b4","ios":"levelo://app?vid=55c5a069-8bae-41fc-90ec-e10b9558e3b4"},"vehicle_type_id":"4","last_reported":1740384813,"current_range_meters":18800,"station_id":"ce4bgn92rcd13ifvqbvg","pricing_plan_id":"cebpf4jnsgd1na2vs0mg"},{"bike_id":"8d825ae2-ed2e-40e6-9346-a5bb6d99d17f","system_id":"levelo_inurba_marseille","lat":43.27477,"lon":5.42461,"is_reserved":false,"is_disabled":false,"rental_uris":{"android":"levelo://app?vid=8d825ae2-ed2e-40e6-9346-a5bb6d99d17f","ios":"levelo://app?vid=8d825ae2-ed2e-40e6-9346-a5bb6d99d17f"},"vehicle_type_id":"4","last_reported":1740384813,"current_range_meters":18800,"station_id":"ce4bhn92rcd13ifvqgrg","pricing_plan_id":"cebpf4jnsgd1na2vs0mg"},{"bike_id":"a814f25e-89b4-4f0e-a0d6-313eb014c9c9","system_id":"levelo_inurba_marseille","lat":43.25922,"lon":5.40926,"is_reserved":false,"is_disabled":false,"rental_uris":{"android":"levelo://app?vid=a814f25e-89b4-4f0e-a0d6-313eb014c9c9","ios":"levelo://app?vid=a814f25e-89b4-4f0e-a0d6-313eb014c9c9"},"vehicle_type_id":"4","last_reported":1740384813,"current_range_meters":18800,"station_id":"ce4bhm92rcd13ifvqglg","pricing_plan_id":"cebpf4jnsgd1na2vs0mg"},{"bike_id":"e813f92c-4fd3-41c9-ae0a-6879c319e323","system_id":"levelo_inurba_marseille","lat":43.29619,"lon":5.37145,"is_reserved":false,"is_disabled":false,"rental_uris":{"android":"levelo://app?vid=e813f92c-4fd3-41c9-ae0a-6879c319e323","ios":"levelo://app?vid=e813f92c-4fd3-41c9-ae0a-6879c319e323"},"vehicle_type_id":"4","last_reported":1740384813,"current_range_meters":18800,"station_id":"ce4bgnh2rcd13ifvqc0g","pricing_plan_id":"cebpf4jnsgd1na2vs0mg"},{"bike_id":"2def0963-f3e0-4747-a572-5c3b359c09fb","system_id":"levelo_inurba_marseille","lat":43.27495,"lon":5.42461,"is_reserved":false,"is_disabled":false,"rental_uris":{"android":"levelo://app?vid=2def0963-f3e0-4747-a572-5c3b359c09fb","ios":"levelo://app?vid=2def0963-f3e0-4747-a572-5c3b359c09fb"},"vehicle_type_id":"4","last_reported":1740384813,"current_range_meters":18800,"station_id":"ce4bhn92rcd13ifvqgrg","pricing_plan_id":"cebpf4jnsgd1na2vs0mg"},{"bike_id":"06c6c325-842b-4d78-8236-c86f791ec009","system_id":"levelo_inurba_marseille","lat":43.270791,"lon":5.422681,"is_reserved":false,"is_disabled":false,"rental_uris":{"android":"levelo://app?vid=06c6c325-842b-4d78-8236-c86f791ec009","ios":"levelo://app?vid=06c6c325-842b-4d78-8236-c86f791ec009"},"vehicle_type_id":"4","last_reported":1740384813,"current_range_meters":18800,"station_id":"ce4bhk92rcd13ifvqgb0","pricing_plan_id":"cebpf4jnsgd1na2vs0mg"},{"bike_id":"56a0cb01-fc13-42c8-94be-4f8cad837efb","system_id":"levelo_inurba_marseille","lat":43.30306,"lon":5.36931,"is_reserved":false,"is_disabled":false,"rental_uris":{"android":"levelo://app?vid=56a0cb01-fc13-42c8-94be-4f8cad837efb","ios":"levelo://app?vid=56a0cb01-fc13-42c8-94be-4f8cad837efb"},"vehicle_type_id":"4","last_reported":1740384813,"current_range_meters":19200,"station_id":"ce4bgqh2rcd13ifvqc5g","pricing_plan_id":"cebpf4jnsgd1na2vs0mg"},{"bike_id":"6abbab19-ecdd-495e-a8b6-67278422d8c2","system_id":"levelo_inurba_marseille","lat":43.30885,"lon":5.37211,"is_reserved":false,"is_disabled":false,"rental_uris":{"android":"levelo://app?vid=6abbab19-ecdd-495e-a8b6-67278422d8c2","ios":"levelo://app?vid=6abbab19-ecdd-495e-a8b6-67278422d8c2"},"vehicle_type_id":"4","last_reported":1740384813,"current_range_meters":19200,"station_id":"ce4bguh2rcd13ifvqckg","pricing_plan_id":"cebpf4jnsgd1na2vs0mg"},{"bike_id":"0db4c3f7-6b83-4b6b-b085-323d4c61deac","system_id":"levelo_inurba_marseille","lat":43.32126,"lon":5.36771,"is_reserved":false,"is_disabled":false,"rental_uris":{"android":"levelo://app?vid=0db4c3f7-6b83-4b6b-b085-323d4c61deac","ios":"levelo://app?vid=0db4c3f7-6b83-4b6b-b085-323d4c61deac"},"vehicle_type_id":"4","last_reported":1740384813,"current_range_meters":19200,"station_id":"ce4bhrh2rcd13ifvqhug","pricing_plan_id":"cebpf4jnsgd1na2vs0mg"},{"bike_id":"71686f6c-0c0a-46b4-842e-ed168955efdb","system_id":"levelo_inurba_marseille","lat":43.30278,"lon":5.37734,"is_reserved":false,"is_disabled":false,"rental_uris":{"android":"levelo://app?vid=71686f6c-0c0a-46b4-842e-ed168955efdb","ios":"levelo://app?vid=71686f6c-0c0a-46b4-842e-ed168955efdb"},"vehicle_type_id":"4","last_reported":1740384813,"current_range_meters":19200,"station_id":"ce4bguh2rcd13ifvqcj0","pricing_plan_id":"cebpf4jnsgd1na2vs0mg"},{"bike_id":"0b578b0a-918d-46f6-81f3-220ca5fc5b14","system_id":"levelo_inurba_marseille","lat":43.24149,"lon":5.3972,"is_reserved":false,"is_disabled":false,"rental_uris":{"android":"levelo://app?vid=0b578b0a-918d-46f6-81f3-220ca5fc5b14","ios":"levelo://app?vid=0b578b0a-918d-46f6-81f3-220ca5fc5b14"},"vehicle_type_id":"4","last_reported":1740384813,"current_range_meters":19200,"station_id":"ce4bhn12rcd13ifvqgpg","pricing_plan_id":"cebpf4jnsgd1na2vs0mg"},{"bike_id":"cae5183b-e04c-488b-bbc2-8a88557ef0cd","system_id":"levelo_inurba_marseille","lat":43.30078,"lon":5.3906,"is_reserved":false,"is_disabled":true,"rental_uris":{"android":"levelo://app?vid=cae5183b-e04c-488b-bbc2-8a88557ef0cd","ios":"levelo://app?vid=cae5183b-e04c-488b-bbc2-8a88557ef0cd"},"vehicle_type_id":"4","last_reported":1740384813,"current_range_meters":19600,"station_id":"ce4bh192rcd13ifvqdb0","pricing_plan_id":"cebpf4jnsgd1na2vs0mg"},{"bike_id":"11997ad2-3f5a-4894-a65c-49d357332870","system_id":"levelo_inurba_marseille","lat":43.24076,"lon":5.3776,"is_reserved":false,"is_disabled":false,"rental_uris":{"android":"levelo://app?vid=11997ad2-3f5a-4894-a65c-49d357332870","ios":"levelo://app?vid=11997ad2-3f5a-4894-a65c-49d357332870"},"vehicle_type_id":"4","last_reported":1740384813,"current_range_meters":19600,"station_id":"ce4bhnp2rcd13ifvqgvg","pricing_plan_id":"cebpf4jnsgd1na2vs0mg"},{"bike_id":"63afb1fc-974d-4ad7-9aeb-1f34144b4f49","system_id":"levelo_inurba_marseille","lat":43.23141,"lon":5.4371,"is_reserved":false,"is_disabled":false,"rental_uris":{"android":"levelo://app?vid=63afb1fc-974d-4ad7-9aeb-1f34144b4f49","ios":"levelo://app?vid=63afb1fc-974d-4ad7-9aeb-1f34144b4f49"},"vehicle_type_id":"4","last_reported":1740384813,"current_range_meters":19600,"station_id":"ce4bhmp2rcd13ifvqgog","pricing_plan_id":"cebpf4jnsgd1na2vs0mg"},{"bike_id":"4addb255-ebfa-4230-b994-aa5af2bf75c5","system_id":"levelo_inurba_marseille","lat":43.30274,"lon":5.37719,"is_reserved":false,"is_disabled":false,"rental_uris":{"android":"levelo://app?vid=4addb255-ebfa-4230-b994-aa5af2bf75c5","ios":"levelo://app?vid=4addb255-ebfa-4230-b994-aa5af2bf75c5"},"vehicle_type_id":"4","last_reported":1740384813,"current_range_meters":19600,"station_id":"ce4bguh2rcd13ifvqcj0","pricing_plan_id":"cebpf4jnsgd1na2vs0mg"},{"bike_id":"d15bab97-415a-42d4-b817-ae269ea37219","system_id":"levelo_inurba_marseille","lat":43.29409,"lon":5.38611,"is_reserved":false,"is_disabled":true,"rental_uris":{"android":"levelo://app?vid=d15bab97-415a-42d4-b817-ae269ea37219","ios":"levelo://app?vid=d15bab97-415a-42d4-b817-ae269ea37219"},"vehicle_type_id":"4","last_reported":1740384813,"current_range_meters":19600,"station_id":"ce4bh2h2rcd13ifvqdh0","pricing_plan_id":"cebpf4jnsgd1na2vs0mg"},{"bike_id":"96166e45-652c-4eb0-8cd0-ab89e248c010","system_id":"levelo_inurba_marseille","lat":43.33592,"lon":5.41054,"is_reserved":false,"is_disabled":false,"rental_uris":{"android":"levelo://app?vid=96166e45-652c-4eb0-8cd0-ab89e248c010","ios":"levelo://app?vid=96166e45-652c-4eb0-8cd0-ab89e248c010"},"vehicle_type_id":"4","last_reported":1740384813,"current_range_meters":20000,"station_id":"ce4bhqh2rcd13ifvqhmg","pricing_plan_id":"cebpf4jnsgd1na2vs0mg"},{"bike_id":"ae3d3997-9872-4807-a0a3-3512c509af71","system_id":"levelo_inurba_marseille","lat":43.30058,"lon":5.40047,"is_reserved":false,"is_disabled":true,"rental_uris":{"android":"levelo://app?vid=ae3d3997-9872-4807-a0a3-3512c509af71","ios":"levelo://app?vid=ae3d3997-9872-4807-a0a3-3512c509af71"},"vehicle_type_id":"4","last_reported":1740384813,"current_range_meters":20000,"station_id":"","pricing_plan_id":"cebpf4jnsgd1na2vs0mg"},{"bike_id":"62eccc6c-c248-4640-b371-081177a5cc1c","system_id":"levelo_inurba_marseille","lat":43.30149,"lon":5.37412,"is_reserved":false,"is_disabled":false,"rental_uris":{"android":"levelo://app?vid=62eccc6c-c248-4640-b371-081177a5cc1c","ios":"levelo://app?vid=62eccc6c-c248-4640-b371-081177a5cc1c"},"vehicle_type_id":"4","last_reported":1740384813,"current_range_meters":20000,"station_id":"ce4bgs92rcd13ifvqcc0","pricing_plan_id":"cebpf4jnsgd1na2vs0mg"},{"bike_id":"196e3f9e-3d37-4710-a41f-2556664534f8","system_id":"levelo_inurba_marseille","lat":43.306,"lon":5.37248,"is_reserved":false,"is_disabled":true,"rental_uris":{"android":"levelo://app?vid=196e3f9e-3d37-4710-a41f-2556664534f8","ios":"levelo://app?vid=196e3f9e-3d37-4710-a41f-2556664534f8"},"vehicle_type_id":"4","last_reported":1740384813,"current_range_meters":20000,"station_id":"ce4bgqh2rcd13ifvqc4g","pricing_plan_id":"cebpf4jnsgd1na2vs0mg"},{"bike_id":"e9f130b8-3cf6-4f92-83d0-ea5e8b890e93","system_id":"levelo_inurba_marseille","lat":43.24064,"lon":5.37765,"is_reserved":false,"is_disabled":false,"rental_uris":{"android":"levelo://app?vid=e9f130b8-3cf6-4f92-83d0-ea5e8b890e93","ios":"levelo://app?vid=e9f130b8-3cf6-4f92-83d0-ea5e8b890e93"},"vehicle_type_id":"4","last_reported":1740384813,"current_range_meters":20000,"station_id":"ce4bhnp2rcd13ifvqgvg","pricing_plan_id":"cebpf4jnsgd1na2vs0mg"},{"bike_id":"7ee7f826-dc37-4344-ad19-a7d227aa9e57","system_id":"levelo_inurba_marseille","lat":43.33393,"lon":5.44129,"is_reserved":false,"is_disabled":false,"rental_uris":{"android":"levelo://app?vid=7ee7f826-dc37-4344-ad19-a7d227aa9e57","ios":"levelo://app?vid=7ee7f826-dc37-4344-ad19-a7d227aa9e57"},"vehicle_type_id":"4","last_reported":1740384813,"current_range_meters":20400,"station_id":"","pricing_plan_id":"cebpf4jnsgd1na2vs0mg"},{"bike_id":"7c5aedf7-5aea-4d6e-961e-fadb63a4095b","system_id":"levelo_inurba_marseille","lat":43.30144,"lon":5.3808,"is_reserved":false,"is_disabled":false,"rental_uris":{"android":"levelo://app?vid=7c5aedf7-5aea-4d6e-961e-fadb63a4095b","ios":"levelo://app?vid=7c5aedf7-5aea-4d6e-961e-fadb63a4095b"},"vehicle_type_id":"4","last_reported":1740384813,"current_range_meters":20400,"station_id":"ce4bgjp2rcd13ifvqbh0","pricing_plan_id":"cebpf4jnsgd1na2vs0mg"},{"bike_id":"7e00f6cd-348d-4eb2-b595-42a596c47d81","system_id":"levelo_inurba_marseille","lat":43.29258,"lon":5.4012,"is_reserved":false,"is_disabled":true,"rental_uris":{"android":"levelo://app?vid=7e00f6cd-348d-4eb2-b595-42a596c47d81","ios":"levelo://app?vid=7e00f6cd-348d-4eb2-b595-42a596c47d81"},"vehicle_type_id":"4","last_reported":1740384813,"current_range_meters":20400,"station_id":"ce4bh312rcd13ifvqdk0","pricing_plan_id":"cebpf4jnsgd1na2vs0mg"},{"bike_id":"1e4ddf92-0eea-4d24-a416-d7a279008e23","system_id":"levelo_inurba_marseille","lat":43.25941,"lon":5.40883,"is_reserved":false,"is_disabled":false,"rental_uris":{"android":"levelo://app?vid=1e4ddf92-0eea-4d24-a416-d7a279008e23","ios":"levelo://app?vid=1e4ddf92-0eea-4d24-a416-d7a279008e23"},"vehicle_type_id":"4","last_reported":1740384813,"current_range_meters":20800,"station_id":"ce4bhm92rcd13ifvqglg","pricing_plan_id":"cebpf4jnsgd1na2vs0mg"},{"bike_id":"94a5dfcb-cdfc-4ad8-8881-8a12d01b416a","system_id":"levelo_inurba_marseille","lat":43.24178,"lon":5.39727,"is_reserved":false,"is_disabled":false,"rental_uris":{"android":"levelo://app?vid=94a5dfcb-cdfc-4ad8-8881-8a12d01b416a","ios":"levelo://app?vid=94a5dfcb-cdfc-4ad8-8881-8a12d01b416a"},"vehicle_type_id":"4","last_reported":1740384813,"current_range_meters":20400,"station_id":"ce4bhn12rcd13ifvqgpg","pricing_plan_id":"cebpf4jnsgd1na2vs0mg"},{"bike_id":"fce9a80a-4538-4f86-96c5-759a5f66da83","system_id":"levelo_inurba_marseille","lat":43.31352,"lon":5.3673,"is_reserved":false,"is_disabled":false,"rental_uris":{"android":"levelo://app?vid=fce9a80a-4538-4f86-96c5-759a5f66da83","ios":"levelo://app?vid=fce9a80a-4538-4f86-96c5-759a5f66da83"},"vehicle_type_id":"4","last_reported":1740384813,"current_range_meters":20800,"station_id":"ce4bgr92rcd13ifvqc6g","pricing_plan_id":"cebpf4jnsgd1na2vs0mg"},{"bike_id":"41c02980-2d5d-4ec8-b439-0a197839dea1","system_id":"levelo_inurba_marseille","lat":43.29902,"lon":5.4366,"is_reserved":false,"is_disabled":false,"rental_uris":{"android":"levelo://app?vid=41c02980-2d5d-4ec8-b439-0a197839dea1","ios":"levelo://app?vid=41c02980-2d5d-4ec8-b439-0a197839dea1"},"vehicle_type_id":"4","last_reported":1740384813,"current_range_meters":20800,"station_id":"ce4bhpp2rcd13ifvqhfg","pricing_plan_id":"cebpf4jnsgd1na2vs0mg"},{"bike_id":"26e67349-8270-4806-aad3-839f545a79a4","system_id":"levelo_inurba_marseille","lat":43.3058,"lon":5.3934,"is_reserved":false,"is_disabled":true,"rental_uris":{"android":"levelo://app?vid=26e67349-8270-4806-aad3-839f545a79a4","ios":"levelo://app?vid=26e67349-8270-4806-aad3-839f545a79a4"},"vehicle_type_id":"4","last_reported":1740384813,"current_range_meters":20800,"station_id":"ce4bh0p2rcd13ifvqd80","pricing_plan_id":"cebpf4jnsgd1na2vs0mg"},{"bike_id":"253f9302-a100-419e-90ae-15f79371c5d6","system_id":"levelo_inurba_marseille","lat":43.25936,"lon":5.40905,"is_reserved":false,"is_disabled":false,"rental_uris":{"android":"levelo://app?vid=253f9302-a100-419e-90ae-15f79371c5d6","ios":"levelo://app?vid=253f9302-a100-419e-90ae-15f79371c5d6"},"vehicle_type_id":"4","last_reported":1740384813,"current_range_meters":20800,"station_id":"ce4bhm92rcd13ifvqglg","pricing_plan_id":"cebpf4jnsgd1na2vs0mg"},{"bike_id":"e950dcb9-c800-4b66-ad5c-370cd39ef283","system_id":"levelo_inurba_marseille","lat":43.28922,"lon":5.3576,"is_reserved":false,"is_disabled":false,"rental_uris":{"android":"levelo://app?vid=e950dcb9-c800-4b66-ad5c-370cd39ef283","ios":"levelo://app?vid=e950dcb9-c800-4b66-ad5c-370cd39ef283"},"vehicle_type_id":"4","last_reported":1740384813,"current_range_meters":21600,"station_id":"ce4bhah2rcd13ifvqei0","pricing_plan_id":"cebpf4jnsgd1na2vs0mg"},{"bike_id":"5729328b-6d93-4838-b40b-6fd7bde65fd1","system_id":"levelo_inurba_marseille","lat":43.30532,"lon":5.36729,"is_reserved":false,"is_disabled":false,"rental_uris":{"android":"levelo://app?vid=5729328b-6d93-4838-b40b-6fd7bde65fd1","ios":"levelo://app?vid=5729328b-6d93-4838-b40b-6fd7bde65fd1"},"vehicle_type_id":"4","last_reported":1740384813,"current_range_meters":21600,"station_id":"ce4bgrp2rcd13ifvqc9g","pricing_plan_id":"cebpf4jnsgd1na2vs0mg"},{"bike_id":"e5e50313-692f-4e00-8daf-f6465c1c4b7c","system_id":"levelo_inurba_marseille","lat":43.25939,"lon":5.40897,"is_reserved":false,"is_disabled":false,"rental_uris":{"android":"levelo://app?vid=e5e50313-692f-4e00-8daf-f6465c1c4b7c","ios":"levelo://app?vid=e5e50313-692f-4e00-8daf-f6465c1c4b7c"},"vehicle_type_id":"4","last_reported":1740384813,"current_range_meters":21600,"station_id":"ce4bhm92rcd13ifvqglg","pricing_plan_id":"cebpf4jnsgd1na2vs0mg"},{"bike_id":"c1214ea4-0d16-4010-8876-be10f79a6403","system_id":"levelo_inurba_marseille","lat":43.31322,"lon":5.36733,"is_reserved":false,"is_disabled":false,"rental_uris":{"android":"levelo://app?vid=c1214ea4-0d16-4010-8876-be10f79a6403","ios":"levelo://app?vid=c1214ea4-0d16-4010-8876-be10f79a6403"},"vehicle_type_id":"4","last_reported":1740384813,"current_range_meters":21600,"station_id":"ce4bgr92rcd13ifvqc6g","pricing_plan_id":"cebpf4jnsgd1na2vs0mg"},{"bike_id":"4e0d093a-a534-4d01-9da1-cac34d91c67a","system_id":"levelo_inurba_marseille","lat":43.26495,"lon":5.39538,"is_reserved":false,"is_disabled":false,"rental_uris":{"android":"levelo://app?vid=4e0d093a-a534-4d01-9da1-cac34d91c67a","ios":"levelo://app?vid=4e0d093a-a534-4d01-9da1-cac34d91c67a"},"vehicle_type_id":"4","last_reported":1740384813,"current_range_meters":21600,"station_id":"ce4bhi12rcd13ifvqfq0","pricing_plan_id":"cebpf4jnsgd1na2vs0mg"},{"bike_id":"1cf58514-cfdd-4537-8ce6-5ad3b5f0a162","system_id":"levelo_inurba_marseille","lat":43.28966,"lon":5.39733,"is_reserved":false,"is_disabled":false,"rental_uris":{"android":"levelo://app?vid=1cf58514-cfdd-4537-8ce6-5ad3b5f0a162","ios":"levelo://app?vid=1cf58514-cfdd-4537-8ce6-5ad3b5f0a162"},"vehicle_type_id":"4","last_reported":1740384813,"current_range_meters":21600,"station_id":"ce4bgvp2rcd13ifvqct0","pricing_plan_id":"cebpf4jnsgd1na2vs0mg"},{"bike_id":"a5439f94-a94b-472a-8212-9c3f3cd98f91","system_id":"levelo_inurba_marseille","lat":43.25939,"lon":5.40895,"is_reserved":false,"is_disabled":false,"rental_uris":{"android":"levelo://app?vid=a5439f94-a94b-472a-8212-9c3f3cd98f91","ios":"levelo://app?vid=a5439f94-a94b-472a-8212-9c3f3cd98f91"},"vehicle_type_id":"4","last_reported":1740384813,"current_range_meters":22000,"station_id":"ce4bhm92rcd13ifvqglg","pricing_plan_id":"cebpf4jnsgd1na2vs0mg"},{"bike_id":"ef843b20-55e6-429e-b3dd-9a12c9639951","system_id":"levelo_inurba_marseille","lat":43.29196,"lon":5.39306,"is_reserved":false,"is_disabled":false,"rental_uris":{"android":"levelo://app?vid=ef843b20-55e6-429e-b3dd-9a12c9639951","ios":"levelo://app?vid=ef843b20-55e6-429e-b3dd-9a12c9639951"},"vehicle_type_id":"4","last_reported":1740384813,"current_range_meters":22000,"station_id":"ce4bh192rcd13ifvqdd0","pricing_plan_id":"cebpf4jnsgd1na2vs0mg"},