{"last_updated":1748509912,"ttl":60,"version":"2.2","data":{"bikes":[{"bike_id":"55d42eeb-6b71-4987-a0f2-3d758b10d43e","system_id":"levelo_inurba_marseille","lat":43.33771,"lon":5.37424,"is_reserved":false,"is_disabled":true,"rental_uris":{"android":"levelo://app?vid=55d42eeb-6b71-4987-a0f2-3d758b10d43e","ios":"levelo://app?vid=55d42eeb-6b71-4987-a0f2-3d758b10d43e"},"vehicle_type_id":"4","last_reported":1748509912,"current_range_meters":0,"station_id":"","pricing_plan_id":"cebpf4jnsgd1na2vs0mg"},{"bike_id":"7f4b6069-304f-4d75-a8b9-d3db83a055ca","system_id":"levelo_inurba_marseille","lat":43.21765,"lon":5.34602,"is_reserved":false,"is_disabled":true,"rental_uris":{"android":"levelo://app?vid=7f4b6069-304f-4d75-a8b9-d3db83a055ca","ios":"levelo://app?vid=7f4b6069-304f-4d75-a8b9-d3db83a055ca"},"vehicle_type_id":"4","last_reported":1748509912,"current_range_meters":0,"station_id":"","pricing_plan_id":"cebpf4jnsgd1na2vs0mg"},{"bike_id":"b7fe4621-b706-42f0-9085-4811142f84e8","system_id":"levelo_inurba_marseille","lat":43.337499,"lon":5.374469,"is_reserved":false,"is_disabled":true,"rental_uris":{"android":"levelo://app?vid=b7fe4621-b706-42f0-9085-4811142f84e8","ios":"levelo://app?vid=b7fe4621-b706-42f0-9085-4811142f84e8"},"vehicle_type_id":"4","last_reported":1748509912,"current_range_meters":0,"station_id":"","pricing_plan_id":"cebpf4jnsgd1na2vs0mg"},{"bike_id":"ad402f0f-3192-410c-afac-8cf064a40c6d","system_id":"levelo_inurba_marseille","lat":43.337444,"lon":5.374475,"is_reserved":false,"is_disabled":true,"rental_uris":{"android":"levelo://app?vid=ad402f0f-3192-410c-afac-8cf064a40c6d","ios":"levelo://app?vid=ad402f0f-3192-410c-afac-8cf064a40c6d"},"vehicle_type_id":"4","last_reported":1748509912,"current_range_meters":0,"station_id":"","pricing_plan_id":"cebpf4jnsgd1na2vs0mg"},{"bike_id":"49a884c6-32c5-4489-8361-5676db2be1d3","system_id":"levelo_inurba_marseille","lat":43.30455,"lon":5.3709,"is_reserved":false,"is_disabled":true,"rental_uris":{"android":"levelo://app?vid=49a884c6-32c5-4489-8361-5676db2be1d3","ios":"levelo://app?vid=49a884c6-32c5-4489-8361-5676db2be1d3"},"vehicle_type_id":"4","last_reported":1748509912,"current_range_meters":0,"station_id":"","pricing_plan_id":"cebpf4jnsgd1na2vs0mg"},{"bike_id":"49c6e13b-47db-4742-afe3-0aadda4ba4fb","system_id":"levelo_inurba_marseille","lat":43.31756,"lon":5.38562,"is_reserved":false,"is_disabled":true,"rental_uris":{"android":"levelo://app?vid=49c6e13b-47db-4742-afe3-0aadda4ba4fb","ios":"levelo://app?vid=49c6e13b-47db-4742-afe3-0aadda4ba4fb"},"vehicle_type_id":"4","last_reported":1748509912,"current_range_meters":0,"station_id":"","pricing_plan_id":"cebpf4jnsgd1na2vs0mg"},{"bike_id":"80dc1064-d63f-4a22-ad21-d8abd70986c0","system_id":"levelo_inurba_marseille","lat":43.33756,"lon":5.3749,"is_reserved":false,"is_disabled":true,"rental_uris":{"android":"levelo://app?vid=80dc1064-d63f-4a22-ad21-d8abd70986c0","ios":"levelo://app?vid=80dc1064-d63f-4a22-ad21-d8abd70986c0"},"vehicle_type_id":"4","last_reported":1748509912,"current_range_meters":0,"station_id":"","pricing_plan_id":"cebpf4jnsgd1na2vs0mg"},{"bike_id":"d3bf3c55-5769-4b15-9eb1-28f17ada09fd","system_id":"levelo_inurba_marseille","lat":43.32159,"lon":5.38769,"is_reserved":false,"is_disabled":true,"rental_uris":{"android":"levelo://app?vid=d3bf3c55-5769-4b15-9eb1-28f17ada09fd","ios":"levelo://app?vid=d3bf3c55-5769-4b15-9eb1-28f17ada09fd"},"vehicle_type_id":"4","last_reported":1748509912,"current_range_meters":0,"station_id":"","pricing_plan_id":"cebpf4jnsgd1na2vs0mg"},{"bike_id":"7f9bdcaf-4217-4932-be91-52b5120d5ca8","system_id":"levelo_inurba_marseille","lat":43.26342,"lon":5.4014,"is_reserved":false,"is_disabled":true,"rental_uris":{"android":"levelo://app?vid=7f9bdcaf-4217-4932-be91-52b5120d5ca8","ios":"levelo://app?vid=7f9bdcaf-4217-4932-be91-52b5120d5ca8"},"vehicle_type_id":"4","last_reported":1748509912,"current_range_meters":0,"station_id":"","pricing_plan_id":"cebpf4jnsgd1na2vs0mg"},{"bike_id":"443004d0-5e76-4011-aa1d-e28b9d37d601","system_id":"levelo_inurba_marseille","lat":43.31556,"lon":5.36912,"is_reserved":false,"is_disabled":true,"rental_uris":{"android":"levelo://app?vid=443004d0-5e76-4011-aa1d-e28b9d37d601","ios":"levelo://app?vid=443004d0-5e76-4011-aa1d-e28b9d37d601"},"vehicle_type_id":"4","last_reported":1748509912,"current_range_meters":0,"station_id":"","pricing_plan_id":"cebpf4jnsgd1na2vs0mg"},{"bike_id":"2fd7e160-685c-4858-b57b-dcaef27a8e94","system_id":"levelo_inurba_marseille","lat":43.230331,"lon":5.401847,"is_reserved":false,"is_disabled":true,"rental_uris":{"android":"levelo://app?vid=2fd7e160-685c-4858-b57b-dcaef27a8e94","ios":"levelo://app?vid=2fd7e160-685c-4858-b57b-dcaef27a8e94"},"vehicle_type_id":"4","last_reported":1748509912,"current_range_meters":0,"station_id":"","pricing_plan_id":"cebpf4jnsgd1na2vs0mg"},{"bike_id":"8cc24f4d-fd30-4b5a-a521-d23725401d5c","system_id":"levelo_inurba_marseille","lat":43.290188,"lon":5.381337,"is_reserved":false,"is_disabled":true,"rental_uris":{"android":"levelo://app?vid=8cc24f4d-fd30-4b5a-a521-d23725401d5c","ios":"levelo://app?vid=8cc24f4d-fd30-4b5a-a521-d23725401d5c"},"vehicle_type_id":"4","last_reported":1748509912,"current_range_meters":0,"station_id":"ce4bh4p2rcd13ifvqe1g","pricing_plan_id":"cebpf4jnsgd1na2vs0mg"},{"bike_id":"cf556fcc-3c96-4c3d-b8ad-b756ee29d59c","system_id":"levelo_inurba_marseille","lat":43.28453,"lon":5.35908,"is_reserved":false,"is_disabled":true,"rental_uris":{"android":"levelo://app?vid=cf556fcc-3c96-4c3d-b8ad-b756ee29d59c","ios":"levelo://app?vid=cf556fcc-3c96-4c3d-b8ad-b756ee29d59c"},"vehicle_type_id":"4","last_reported":1748509912,"current_range_meters":0,"station_id":"ce4bhah2rcd13ifvqei0","pricing_plan_id":"cebpf4jnsgd1na2vs0mg"},{"bike_id":"8433ba35-bdaa-45dc-ad3e-6ee2a9d3c634","system_id":"levelo_inurba_marseille","lat":43.286133,"lon":5.351046,"is_reserved":false,"is_disabled":false,"rental_uris":{"android":"levelo://app?vid=8433ba35-bdaa-45dc-ad3e-6ee2a9d3c634","ios":"levelo://app?vid=8433ba35-bdaa-45dc-ad3e-6ee2a9d3c634"},"vehicle_type_id":"4","last_reported":1748509912,"current_range_meters":0,"station_id":"ce4bhch2rcd13ifvqeug","pricing_plan_id":"cebpf4jnsgd1na2vs0mg"},{"bike_id":"89e24a7c-3f79-42d9-9f49-ed2024d26735","system_id":"levelo_inurba_marseille","lat":43.2815,"lon":5.42635,"is_reserved":false,"is_disabled":true,"rental_uris":{"android":"levelo://app?vid=89e24a7c-3f79-42d9-9f49-ed2024d26735","ios":"levelo://app?vid=89e24a7c-3f79-42d9-9f49-ed2024d26735"},"vehicle_type_id":"4","last_reported":1748509912,"current_range_meters":0,"station_id":"ce4bhnh2rcd13ifvqgug","pricing_plan_id":"cebpf4jnsgd1na2vs0mg"},{"bike_id":"ce526b8a-caa2-4d66-9928-344df9acf135","system_id":"levelo_inurba_marseille","lat":43.323676,"lon":5.388886,"is_reserved":false,"is_disabled":true,"rental_uris":{"android":"levelo://app?vid=ce526b8a-caa2-4d66-9928-344df9acf135","ios":"levelo://app?vid=ce526b8a-caa2-4d66-9928-344df9acf135"},"vehicle_type_id":"4","last_reported":1748509912,"current_range_meters":0,"station_id":"ce4bhqp2rcd13ifvqhog","pricing_plan_id":"cebpf4jnsgd1na2vs0mg"},{"bike_id":"8c98e30d-d20a-4b12-b048-41ad080ee024","system_id":"levelo_inurba_marseille","lat":43.2698,"lon":5.40317,"is_reserved":false,"is_disabled":true,"rental_uris":{"android":"levelo://app?vid=8c98e30d-d20a-4b12-b048-41ad080ee024","ios":"levelo://app?vid=8c98e30d-d20a-4b12-b048-41ad080ee024"},"vehicle_type_id":"4","last_reported":1748509912,"current_range_meters":0,"station_id":"cjm6bp8fraef2m0cb0m0","pricing_plan_id":"cebpf4jnsgd1na2vs0mg"},{"bike_id":"05e877ec-a9ae-409b-8ad3-ddd42b3a33d8","system_id":"levelo_inurba_marseille","lat":43.325366,"lon":5.414323,"is_reserved":false,"is_disabled":true,"rental_uris":{"android":"levelo://app?vid=05e877ec-a9ae-409b-8ad3-ddd42b3a33d8","ios":"levelo://app?vid=05e877ec-a9ae-409b-8ad3-ddd42b3a33d8"},"vehicle_type_id":"4","last_reported":1748509912,"current_range_meters":400,"station_id":"","pricing_plan_id":"cebpf4jnsgd1na2vs0mg"},{"bike_id":"dba3dbf7-9f80-4f77-baad-bdc1b1227129","system_id":"levelo_inurba_marseille","lat":43.21761,"lon":5.34628,"is_reserved":false,"is_disabled":true,"rental_uris":{"android":"levelo://app?vid=dba3dbf7-9f80-4f77-baad-bdc1b1227129","ios":"levelo://app?vid=dba3dbf7-9f80-4f77-baad-bdc1b1227129"},"vehicle_type_id":"4","last_reported":1748509912,"current_range_meters":800,"station_id":"","pricing_plan_id":"cebpf4jnsgd1na2vs0mg"},{"bike_id":"47233349-9ac5-43d1-a723-518e52eff7ac","system_id":"levelo_inurba_marseille","lat":43.26563,"lon":5.37291,"is_reserved":false,"is_disabled":true,"rental_uris":{"android":"levelo://app?vid=47233349-9ac5-43d1-a723-518e52eff7ac","ios":"levelo://app?vid=47233349-9ac5-43d1-a723-518e52eff7ac"},"vehicle_type_id":"4","last_reported":1748509912,"current_range_meters":800,"station_id":"ce4bhg12rcd13ifvqf70","pricing_plan_id":"cebpf4jnsgd1na2vs0mg"},{"bike_id":"f8fa28d9-6d15-4e3f-975d-3ec531930ac8","system_id":"levelo_inurba_marseille","lat":43.30587,"lon":5.37235,"is_reserved":false,"is_disabled":true,"rental_uris":{"android":"levelo://app?vid=f8fa28d9-6d15-4e3f-975d-3ec531930ac8","ios":"levelo://app?vid=f8fa28d9-6d15-4e3f-975d-3ec531930ac8"},"vehicle_type_id":"4","last_reported":1748509912,"current_range_meters":1200,"station_id":"ce4bgqh2rcd13ifvqc4g","pricing_plan_id":"cebpf4jnsgd1na2vs0mg"},{"bike_id":"79fa2c16-3fb6-467d-b11f-01c41dbd318a","system_id":"levelo_inurba_marseille","lat":43.29901,"lon":5.43664,"is_reserved":false,"is_disabled":true,"rental_uris":{"android":"levelo://app?vid=79fa2c16-3fb6-467d-b11f-01c41dbd318a","ios":"levelo://app?vid=79fa2c16-3fb6-467d-b11f-01c41dbd318a"},"vehicle_type_id":"4","last_reported":1748509912,"current_range_meters":1200,"station_id":"ce4bhpp2rcd13ifvqhfg","pricing_plan_id":"cebpf4jnsgd1na2vs0mg"},{"bike_id":"93ea505f-d9cc-4134-a85d-1ca4815bfe56","system_id":"levelo_inurba_marseille","lat":43.26784,"lon":5.39416,"is_reserved":false,"is_disabled":false,"rental_uris":{"android":"levelo://app?vid=93ea505f-d9cc-4134-a85d-1ca4815bfe56","ios":"levelo://app?vid=93ea505f-d9cc-4134-a85d-1ca4815bfe56"},"vehicle_type_id":"4","last_reported":1748509912,"current_range_meters":3200,"station_id":"ce4bhh12rcd13ifvqfg0","pricing_plan_id":"cebpf4jnsgd1na2vs0mg"},{"bike_id":"38f21575-0e86-4c6a-aac5-732a93136600","system_id":"levelo_inurba_marseille","lat":43.330238,"lon":5.390398,"is_reserved":false,"is_disabled":false,"rental_uris":{"android":"levelo://app?vid=38f21575-0e86-4c6a-aac5-732a93136600","ios":"levelo://app?vid=38f21575-0e86-4c6a-aac5-732a93136600"},"vehicle_type_id":"4","last_reported":1748509912,"current_range_meters":3600,"station_id":"ce4bhr92rcd13ifvqhrg","pricing_plan_id":"cebpf4jnsgd1na2vs0mg"},{"bike_id":"1a9deaa6-5b0b-41ea-a3a0-9c49f0de8473","system_id":"levelo_inurba_marseille","lat":43.293286,"lon":5.411646,"is_reserved":false,"is_disabled":false,"rental_uris":{"android":"levelo://app?vid=1a9deaa6-5b0b-41ea-a3a0-9c49f0de8473","ios":"levelo://app?vid=1a9deaa6-5b0b-41ea-a3a0-9c49f0de8473"},"vehicle_type_id":"4","last_reported":1748509912,"current_range_meters":4000,"station_id":"","pricing_plan_id":"cebpf4jnsgd1na2vs0mg"},{"bike_id":"55edb2b6-24f5-484b-a859-47a014e0bde2","system_id":"levelo_inurba_marseille","lat":43.32617,"lon":5.36657,"is_reserved":false,"is_disabled":false,"rental_uris":{"android":"levelo://app?vid=55edb2b6-24f5-484b-a859-47a014e0bde2","ios":"levelo://app?vid=55edb2b6-24f5-484b-a859-47a014e0bde2"},"vehicle_type_id":"4","last_reported":1748509912,"current_range_meters":4000,"station_id":"","pricing_plan_id":"cebpf4jnsgd1na2vs0mg"},{"bike_id":"eee2d84e-5c24-44e4-a845-21cb69fdda25","system_id":"levelo_inurba_marseille","lat":43.292637,"lon":5.376213,"is_reserved":false,"is_disabled":false,"rental_uris":{"android":"levelo://app?vid=eee2d84e-5c24-44e4-a845-21cb69fdda25","ios":"levelo://app?vid=eee2d84e-5c24-44e4-a845-21cb69fdda25"},"vehicle_type_id":"4","last_reported":1748509912,"current_range_meters":4400,"station_id":"ce4bgi12rcd13ifvqb80","pricing_plan_id":"cebpf4jnsgd1na2vs0mg"},{"bike_id":"bea03257-1b86-4b6f-8048-77581e6ca132","system_id":"levelo_inurba_marseille","lat":43.28273,"lon":5.35062,"is_reserved":false,"is_disabled":false,"rental_uris":{"android":"levelo://app?vid=bea03257-1b86-4b6f-8048-77581e6ca132","ios":"levelo://app?vid=bea03257-1b86-4b6f-8048-77581e6ca132"},"vehicle_type_id":"4","last_reported":1748509912,"current_range_meters":4400,"station_id":"ce4bhbp2rcd13ifvqerg","pricing_plan_id":"cebpf4jnsgd1na2vs0mg"},{"bike_id":"7a5aa934-a3ad-431a-b124-0340f2b4cb04","system_id":"levelo_inurba_marseille","lat":43.29536,"lon":5.39044,"is_reserved":false,"is_disabled":false,"rental_uris":{"android":"levelo://app?vid=7a5aa934-a3ad-431a-b124-0340f2b4cb04","ios":"levelo://app?vid=7a5aa934-a3ad-431a-b124-0340f2b4cb04"},"vehicle_type_id":"4","last_reported":1748509912,"current_range_meters":4800,"station_id":"ce4bh3p2rcd13ifvqdp0","pricing_plan_id":"cebpf4jnsgd1na2vs0mg"},{"bike_id":"9167ea6a-ce66-49ff-859f-3ca7c151003d","system_id":"levelo_inurba_marseille","lat":43.24167,"lon":5.39701,"is_reserved":false,"is_disabled":false,"rental_uris":{"android":"levelo://app?vid=9167ea6a-ce66-49ff-859f-3ca7c151003d","ios":"levelo://app?vid=9167ea6a-ce66-49ff-859f-3ca7c151003d"},"vehicle_type_id":"4","last_reported":1748509912,"current_range_meters":4800,"station_id":"ce4bhn12rcd13ifvqgpg","pricing_plan_id":"cebpf4jnsgd1na2vs0mg"},{"bike_id":"c3a0bd73-5813-47f0-a5c8-27701041c8ba","system_id":"levelo_inurba_marseille","lat":43.27271,"lon":5.42414,"is_reserved":false,"is_disabled":false,"rental_uris":{"android":"levelo://app?vid=c3a0bd73-5813-47f0-a5c8-27701041c8ba","ios":"levelo://app?vid=c3a0bd73-5813-47f0-a5c8-27701041c8ba"},"vehicle_type_id":"4","last_reported":1748509912,"current_range_meters":5600,"station_id":"","pricing_plan_id":"cebpf4jnsgd1na2vs0mg"},{"bike_id":"a448c0d7-1131-4e77-bdb8-a27aebe7dafa","system_id":"levelo_inurba_marseille","lat":43.2957,"lon":5.37516,"is_reserved":false,"is_disabled":false,"rental_uris":{"android":"levelo://app?vid=a448c0d7-1131-4e77-bdb8-a27aebe7dafa","ios":"levelo://app?vid=a448c0d7-1131-4e77-bdb8-a27aebe7dafa"},"vehicle_type_id":"4","last_reported":1748509912,"current_range_meters":5600,"station_id":"ce4bgh92rcd13ifvqb50","pricing_plan_id":"cebpf4jnsgd1na2vs0mg"},{"bike_id":"27301212-bf32-478a-8305-85531b951aa5","system_id":"levelo_inurba_marseille","lat":43.26578,"lon":5.38996,"is_reserved":false,"is_disabled":false,"rental_uris":{"android":"levelo://app?vid=27301212-bf32-478a-8305-85531b951aa5","ios":"levelo://app?vid=27301212-bf32-478a-8305-85531b951aa5"},"vehicle_type_id":"4","last_reported":1748509912,"current_range_meters":5600,"station_id":"ce4bhe12rcd13ifvqf30","pricing_plan_id":"cebpf4jnsgd1na2vs0mg"},{"bike_id":"396675c1-6ca5-4799-bbdd-e4293caceb50","system_id":"levelo_inurba_marseille","lat":43.26563,"lon":5.39002,"is_reserved":false,"is_disabled":false,"rental_uris":{"android":"levelo://app?vid=396675c1-6ca5-4799-bbdd-e4293caceb50","ios":"levelo://app?vid=396675c1-6ca5-4799-bbdd-e4293caceb50"},"vehicle_type_id":"4","last_reported":1748509912,"current_range_meters":5600,"station_id":"ce4bhe12rcd13ifvqf30","pricing_plan_id":"cebpf4jnsgd1na2vs0mg"},{"bike_id":"231eb4b5-3daa-4371-9625-f0d0d334879d","system_id":"levelo_inurba_marseille","lat":43.25501,"lon":5.37638,"is_reserved":false,"is_disabled":false,"rental_uris":{"android":"levelo://app?vid=231eb4b5-3daa-4371-9625-f0d0d334879d","ios":"levelo://app?vid=231eb4b5-3daa-4371-9625-f0d0d334879d"},"vehicle_type_id":"4","last_reported":1748509912,"current_range_meters":5600,"station_id":"ce4bhh12rcd13ifvqff0","pricing_plan_id":"cebpf4jnsgd1na2vs0mg"},{"bike_id":"505ece70-6dff-4179-ab77-4fc1622edbc0","system_id":"levelo_inurba_marseille","lat":43.278409,"lon":5.392123,"is_reserved":false,"is_disabled":false,"rental_uris":{"android":"levelo://app?vid=505ece70-6dff-4179-ab77-4fc1622edbc0","ios":"levelo://app?vid=505ece70-6dff-4179-ab77-4fc1622edbc0"},"vehicle_type_id":"4","last_reported":1748509912,"current_range_meters":5600,"station_id":"ce4bhjp2rcd13ifvqga0","pricing_plan_id":"cebpf4jnsgd1na2vs0mg"},{"bike_id":"b80ee325-09b2-4724-993d-4f8d3707c41c","system_id":"levelo_inurba_marseille","lat":43.25862,"lon":5.39902,"is_reserved":false,"is_disabled":false,"rental_uris":{"android":"levelo://app?vid=b80ee325-09b2-4724-993d-4f8d3707c41c","ios":"levelo://app?vid=b80ee325-09b2-4724-993d-4f8d3707c41c"},"vehicle_type_id":"4","last_reported":1748509912,"current_range_meters":5600,"station_id":"ce4bhl92rcd13ifvqghg","pricing_plan_id":"cebpf4jnsgd1na2vs0mg"},{"bike_id":"5e83ea25-1862-406c-b5e5-fde5fc4ebc43","system_id":"levelo_inurba_marseille","lat":43.2175,"lon":5.34601,"is_reserved":false,"is_disabled":false,"rental_uris":{"android":"levelo://app?vid=5e83ea25-1862-406c-b5e5-fde5fc4ebc43","ios":"levelo://app?vid=5e83ea25-1862-406c-b5e5-fde5fc4ebc43"},"vehicle_type_id":"4","last_reported":1748509912,"current_range_meters":6000,"station_id":"","pricing_plan_id":"cebpf4jnsgd1na2vs0mg"},{"bike_id":"101235e5-c341-40d5-8da9-a5ad235e3a49","system_id":"levelo_inurba_marseille","lat":43.31356,"lon":5.38497,"is_reserved":false,"is_disabled":false,"rental_uris":{"android":"levelo://app?vid=101235e5-c341-40d5-8da9-a5ad235e3a49","ios":"levelo://app?vid=101235e5-c341-40d5-8da9-a5ad235e3a49"},"vehicle_type_id":"4","last_reported":1748509912,"current_range_meters":6000,"station_id":"ce4bgt92rcd13ifvqcf0","pricing_plan_id":"cebpf4jnsgd1na2vs0mg"},{"bike_id":"95554e12-2f20-4764-8240-13a7bb1c05df","system_id":"levelo_inurba_marseille","lat":43.3043,"lon":5.39751,"is_reserved":false,"is_disabled":false,"rental_uris":{"android":"levelo://app?vid=95554e12-2f20-4764-8240-13a7bb1c05df","ios":"levelo://app?vid=95554e12-2f20-4764-8240-13a7bb1c05df"},"vehicle_type_id":"4","last_reported":1748509912,"current_range_meters":6000,"station_id":"ce4bh092rcd13ifvqd20","pricing_plan_id":"cebpf4jnsgd1na2vs0mg"},{"bike_id":"59625023-539a-4de1-954d-f661af841490","system_id":"levelo_inurba_marseille","lat":43.26571,"lon":5.39008,"is_reserved":false,"is_disabled":false,"rental_uris":{"android":"levelo://app?vid=59625023-539a-4de1-954d-f661af841490","ios":"levelo://app?vid=59625023-539a-4de1-954d-f661af841490"},"vehicle_type_id":"4","last_reported":1748509912,"current_range_meters":6000,"station_id":"ce4bhe12rcd13ifvqf30","pricing_plan_id":"cebpf4jnsgd1na2vs0mg"},{"bike_id":"a84af6cb-8776-48e5-ac21-f48200072e3a","system_id":"levelo_inurba_marseille","lat":43.24386,"lon":5.37062,"is_reserved":false,"is_disabled":false,"rental_uris":{"android":"levelo://app?vid=a84af6cb-8776-48e5-ac21-f48200072e3a","ios":"levelo://app?vid=a84af6cb-8776-48e5-ac21-f48200072e3a"},"vehicle_type_id":"4","last_reported":1748509912,"current_range_meters":6000,"station_id":"ce4bhhh2rcd13ifvqfk0","pricing_plan_id":"cebpf4jnsgd1na2vs0mg"},{"bike_id":"24dfee9e-d2a6-4b6a-82fa-9336a5c69092","system_id":"levelo_inurba_marseille","lat":43.25868,"lon":5.39894,"is_reserved":false,"is_disabled":false,"rental_uris":{"android":"levelo://app?vid=24dfee9e-d2a6-4b6a-82fa-9336a5c69092","ios":"levelo://app?vid=24dfee9e-d2a6-4b6a-82fa-9336a5c69092"},"vehicle_type_id":"4","last_reported":1748509912,"current_range_meters":6000,"station_id":"ce4bhl92rcd13ifvqghg","pricing_plan_id":"cebpf4jnsgd1na2vs0mg"},{"bike_id":"dd396b57-2b2f-4d97-99cd-d9308bd9edd0","system_id":"levelo_inurba_marseille","lat":43.30371,"lon":5.42481,"is_reserved":false,"is_disabled":false,"rental_uris":{"android":"levelo://app?vid=dd396b57-2b2f-4d97-99cd-d9308bd9edd0","ios":"levelo://app?vid=dd396b57-2b2f-4d97-99cd-d9308bd9edd0"},"vehicle_type_id":"4","last_reported":1748509912,"current_range_meters":6000,"station_id":"ce4bhoh2rcd13ifvqh6g","pricing_plan_id":"cebpf4jnsgd1na2vs0mg"},{"bike_id":"16578a9c-c460-4d38-be25-a20250881a73","system_id":"levelo_inurba_marseille","lat":43.3222,"lon":5.38422,"is_reserved":false,"is_disabled":false,"rental_uris":{"android":"levelo://app?vid=16578a9c-c460-4d38-be25-a20250881a73","ios":"levelo://app?vid=16578a9c-c460-4d38-be25-a20250881a73"},"vehicle_type_id":"4","last_reported":1748509912,"current_range_meters":6400,"station_id":"","pricing_plan_id":"cebpf4jnsgd1na2vs0mg"},{"bike_id":"8c1c2d2d-a57e-438a-b659-462667d018ae","system_id":"levelo_inurba_marseille","lat":43.30131,"lon":5.38773,"is_reserved":false,"is_disabled":false,"rental_uris":{"android":"levelo://app?vid=8c1c2d2d-a57e-438a-b659-462667d018ae","ios":"levelo://app?vid=8c1c2d2d-a57e-438a-b659-462667d018ae"},"vehicle_type_id":"4","last_reported":1748509912,"current_range_meters":6400,"station_id":"ce4bghh2rcd13ifvqb60","pricing_plan_id":"cebpf4jnsgd1na2vs0mg"},{"bike_id":"00f01595-3df4-45f1-8b54-40aa03040ac8","system_id":"levelo_inurba_marseille","lat":43.27077,"lon":5.42277,"is_reserved":false,"is_disabled":false,"rental_uris":{"android":"levelo://app?vid=00f01595-3df4-45f1-8b54-40aa03040ac8","ios":"levelo://app?vid=00f01595-3df4-45f1-8b54-40aa03040ac8"},"vehicle_type_id":"4","last_reported":1748509912,"current_range_meters":6400,"station_id":"ce4bhk92rcd13ifvqgb0","pricing_plan_id":"cebpf4jnsgd1na2vs0mg"},{"bike_id":"9fa349bf-fbc8-447e-b3a5-900efd081636","system_id":"levelo_inurba_marseille","lat":43.21756,"lon":5.34597,"is_reserved":false,"is_disabled":false,"rental_uris":{"android":"levelo://app?vid=9fa349bf-fbc8-447e-b3a5-900efd081636","ios":"levelo://app?vid=9fa349bf-fbc8-447e-b3a5-900efd081636"},"vehicle_type_id":"4","last_reported":1748509912,"current_range_meters":6400,"station_id":"st_cvj6r9ubvosntc0bgbag","pricing_plan_id":"cebpf4jnsgd1na2vs0mg"},{"bike_id":"6d7cfdcd-f061-4eee-b4e5-78d9b6729328","system_id":"levelo_inurba_marseille","lat":43.32997,"lon":5.43867,"is_reserved":false,"is_disabled":false,"rental_uris":{"android":"levelo://app?vid=6d7cfdcd-f061-4eee-b4e5-78d9b6729328","ios":"levelo://app?vid=6d7cfdcd-f061-4eee-b4e5-78d9b6729328"},"vehicle_type_id":"4","last_reported":1748509912,"current_range_meters":6800,"station_id":"","pricing_plan_id":"cebpf4jnsgd1na2vs0mg"},{"bike_id":"e01b7048-18f0-4a93-9192-54fe72ccef44","system_id":"levelo_inurba_marseille","lat":43.297603,"lon":5.369335,"is_reserved":false,"is_disabled":false,"rental_uris":{"android":"levelo://app?vid=e01b7048-18f0-4a93-9192-54fe72ccef44","ios":"levelo://app?vid=e01b7048-18f0-4a93-9192-54fe72ccef44"},"vehicle_type_id":"4","last_reported":1748509912,"current_range_meters":6800,"station_id":"","pricing_plan_id":"cebpf4jnsgd1na2vs0mg"},{"bike_id":"4220cf12-6ccb-4f6e-aed3-3094efc90af7","system_id":"levelo_inurba_marseille","lat":43.29227,"lon":5.36067,"is_reserved":false,"is_disabled":false,"rental_uris":{"android":"levelo://app?vid=4220cf12-6ccb-4f6e-aed3-3094efc90af7","ios":"levelo://app?vid=4220cf12-6ccb-4f6e-aed3-3094efc90af7"},"vehicle_type_id":"4","last_reported":1748509912,"current_range_meters":6800,"station_id":"ce4bhbh2rcd13ifvqeqg","pricing_plan_id":"cebpf4jnsgd1na2vs0mg"},{"bike_id":"7a707bfe-00ad-4f17-909b-325e9c05b69d","system_id":"levelo_inurba_marseille","lat":43.30749,"lon":5.38282,"is_reserved":false,"is_disabled":false,"rental_uris":{"android":"levelo://app?vid=7a707bfe-00ad-4f17-909b-325e9c05b69d","ios":"levelo://app?vid=7a707bfe-00ad-4f17-909b-325e9c05b69d"},"vehicle_type_id":"4","last_reported":1748509912,"current_range_meters":7200,"station_id":"","pricing_plan_id":"cebpf4jnsgd1na2vs0mg"},{"bike_id":"985a5028-4b22-4637-856d-8c1e1dd035e0","system_id":"levelo_inurba_marseille","lat":43.29412,"lon":5.40085,"is_reserved":false,"is_disabled":false,"rental_uris":{"android":"levelo://app?vid=985a5028-4b22-4637-856d-8c1e1dd035e0","ios":"levelo://app?vid=985a5028-4b22-4637-856d-8c1e1dd035e0"},"vehicle_type_id":"4","last_reported":1748509912,"current_range_meters":7200,"station_id":"","pricing_plan_id":"cebpf4jnsgd1na2vs0mg"},{"bike_id":"57503693-4993-44c5-ba03-8565e59a522f","system_id":"levelo_inurba_marseille","lat":43.30536,"lon":5.36551,"is_reserved":false,"is_disabled":false,"rental_uris":{"android":"levelo://app?vid=57503693-4993-44c5-ba03-8565e59a522f","ios":"levelo://app?vid=57503693-4993-44c5-ba03-8565e59a522f"},"vehicle_type_id":"4","last_reported":1748509912,"current_range_meters":7200,"station_id":"ce4bgs12rcd13ifvqcag","pricing_plan_id":"cebpf4jnsgd1na2vs0mg"},{"bike_id":"17181d05-0305-4853-86cb-092b2e04ca4a","system_id":"levelo_inurba_marseille","lat":43.290863,"lon":5.381301,"is_reserved":false,"is_disabled":false,"rental_uris":{"android":"levelo://app?vid=17181d05-0305-4853-86cb-092b2e04ca4a","ios":"levelo://app?vid=17181d05-0305-4853-86cb-092b2e04ca4a"},"vehicle_type_id":"4","last_reported":1748509912,"current_range_meters":7200,"station_id":"ce4bh512rcd13ifvqe2g","pricing_plan_id":"cebpf4jnsgd1na2vs0mg"},{"bike_id":"a6e143ef-9489-43e3-9e9a-d99459db479a","system_id":"levelo_inurba_marseille","lat":43.3236,"lon":5.38911,"is_reserved":false,"is_disabled":false,"rental_uris":{"android":"levelo://app?vid=a6e143ef-9489-43e3-9e9a-d99459db479a","ios":"levelo://app?vid=a6e143ef-9489-43e3-9e9a-d99459db479a"},"vehicle_type_id":"4","last_reported":1748509912,"current_range_meters":7200,"station_id":"ce4bhqp2rcd13ifvqhog","pricing_plan_id":"cebpf4jnsgd1na2vs0mg"},{"bike_id":"71ca0419-9d5c-46e5-b852-e7e84d81376b","system_id":"levelo_inurba_marseille","lat":43.33715,"lon":5.3918,"is_reserved":false,"is_disabled":false,"rental_uris":{"android":"levelo://app?vid=71ca0419-9d5c-46e5-b852-e7e84d81376b","ios":"levelo://app?vid=71ca0419-9d5c-46e5-b852-e7e84d81376b"},"vehicle_type_id":"4","last_reported":1748509912,"current_range_meters":7200,"station_id":"ce4bhr92rcd13ifvqhsg","pricing_plan_id":"cebpf4jnsgd1na2vs0mg"},{"bike_id":"b6194222-a80b-43bc-b765-fba2143e9c5c","system_id":"levelo_inurba_marseille","lat":43.231886,"lon":5.355608,"is_reserved":false,"is_disabled":false,"rental_uris":{"android":"levelo://app?vid=b6194222-a80b-43bc-b765-fba2143e9c5c","ios":"levelo://app?vid=b6194222-a80b-43bc-b765-fba2143e9c5c"},"vehicle_type_id":"4","last_reported":1748509912,"current_range_meters":7200,"station_id":"ce4bhu92rcd13ifvqi70","pricing_plan_id":"cebpf4jnsgd1na2vs0mg"},{"bike_id":"be4b293e-8744-4637-8ca2-a3e9032e9cec","system_id":"levelo_inurba_marseille","lat":43.22932,"lon":5.35385,"is_reserved":false,"is_disabled":false,"rental_uris":{"android":"levelo://app?vid=be4b293e-8744-4637-8ca2-a3e9032e9cec","ios":"levelo://app?vid=be4b293e-8744-4637-8ca2-a3e9032e9cec"},"vehicle_type_id":"4","last_reported":1748509912,"current_range_meters":7200,"station_id":"cpo3532slgdg3j2ikp40","pricing_plan_id":"cebpf4jnsgd1na2vs0mg"},{"bike_id":"3c68f385-ffba-4d15-b971-4641effeeac9","system_id":"levelo_inurba_marseille","lat":43.282192,"lon":5.390551,"is_reserved":false,"is_disabled":false,"rental_uris":{"android":"levelo://app?vid=3c68f385-ffba-4d15-b971-4641effeeac9","ios":"levelo://app?vid=3c68f385-ffba-4d15-b971-4641effeeac9"},"vehicle_type_id":"4","last_reported":1748509912,"current_range_meters":8000,"station_id":"","pricing_plan_id":"cebpf4jnsgd1na2vs0mg"},{"bike_id":"0d981ab5-76e4-4ce0-82f6-6f2e8741ce4e","system_id":"levelo_inurba_marseille","lat":43.294592,"lon":5.362586,"is_reserved":false,"is_disabled":false,"rental_uris":{"android":"levelo://app?vid=0d981ab5-76e4-4ce0-82f6-6f2e8741ce4e","ios":"levelo://app?vid=0d981ab5-76e4-4ce0-82f6-6f2e8741ce4e"},"vehicle_type_id":"4","last_reported":1748509912,"current_range_meters":8000,"station_id":"","pricing_plan_id":"cebpf4jnsgd1na2vs0mg"},{"bike_id":"ce7b18e4-7948-40ae-b647-c69f45870dbb","system_id":"levelo_inurba_marseille","lat":43.30937,"lon":5.4018,"is_reserved":false,"is_disabled":false,"rental_uris":{"android":"levelo://app?vid=ce7b18e4-7948-40ae-b647-c69f45870dbb","ios":"levelo://app?vid=ce7b18e4-7948-40ae-b647-c69f45870dbb"},"vehicle_type_id":"4","last_reported":1748509912,"current_range_meters":8000,"station_id":"ce4bgvp2rcd13ifvqct0","pricing_plan_id":"cebpf4jnsgd1na2vs0mg"},{"bike_id":"5c932276-edee-4c47-a669-ccbd3318389f","system_id":"levelo_inurba_marseille","lat":43.29033,"lon":5.38154,"is_reserved":false,"is_disabled":false,"rental_uris":{"android":"levelo://app?vid=5c932276-edee-4c47-a669-ccbd3318389f","ios":"levelo://app?vid=5c932276-edee-4c47-a669-ccbd3318389f"},"vehicle_type_id":"4","last_reported":1748509912,"current_range_meters":8000,"station_id":"ce4bh4p2rcd13ifvqe1g","pricing_plan_id":"cebpf4jnsgd1na2vs0mg"},{"bike_id":"1eed49fb-ce64-4ebd-9903-7d87835a2ccf","system_id":"levelo_inurba_marseille","lat":43.29789,"lon":5.46008,"is_reserved":false,"is_disabled":false,"rental_uris":{"android":"levelo://app?vid=1eed49fb-ce64-4ebd-9903-7d87835a2ccf","ios":"levelo://app?vid=1eed49fb-ce64-4ebd-9903-7d87835a2ccf"},"vehicle_type_id":"4","last_reported":1748509912,"current_range_meters":8400,"station_id":"","pricing_plan_id":"cebpf4jnsgd1na2vs0mg"},{"bike_id":"9d8a073e-f5f9-4c10-b98c-72efc4846a30","system_id":"levelo_inurba_marseille","lat":43.30305,"lon":5.44711,"is_reserved":false,"is_disabled":false,"rental_uris":{"android":"levelo://app?vid=9d8a073e-f5f9-4c10-b98c-72efc4846a30","ios":"levelo://app?vid=9d8a073e-f5f9-4c10-b98c-72efc4846a30"},"vehicle_type_id":"4","last_reported":1748509912,"current_range_meters":8400,"station_id":"","pricing_plan_id":"cebpf4jnsgd1na2vs0mg"},{"bike_id":"5cc874f1-fcba-418a-95cb-eb3493ff9f0b","system_id":"levelo_inurba_marseille","lat":43.31722,"lon":5.405244,"is_reserved":false,"is_disabled":false,"rental_uris":{"android":"levelo://app?vid=5cc874f1-fcba-418a-95cb-eb3493ff9f0b","ios":"levelo://app?vid=5cc874f1-fcba-418a-95cb-eb3493ff9f0b"},"vehicle_type_id":"4","last_reported":1748509912,"current_range_meters":8400,"station_id":"","pricing_plan_id":"cebpf4jnsgd1na2vs0mg"},{"bike_id":"eefbf0be-aede-4ce4-8e0c-8d5278212334","system_id":"levelo_inurba_marseille","lat":43.25131,"lon":5.40343,"is_reserved":false,"is_disabled":false,"rental_uris":{"android":"levelo://app?vid=eefbf0be-aede-4ce4-8e0c-8d5278212334","ios":"levelo://app?vid=eefbf0be-aede-4ce4-8e0c-8d5278212334"},"vehicle_type_id":"4","last_reported":1748509912,"current_range_meters":8400,"station_id":"ce4bhlh2rcd13ifvqgig","pricing_plan_id":"cebpf4jnsgd1na2vs0mg"},{"bike_id":"0dde7803-e4b4-44c8-98fe-68ad6fa3cde1","system_id":"levelo_inurba_marseille","lat":43.317255,"lon":5.38891,"is_reserved":false,"is_disabled":false,"rental_uris":{"android":"levelo://app?vid=0dde7803-e4b4-44c8-98fe-68ad6fa3cde1","ios":"levelo://app?vid=0dde7803-e4b4-44c8-98fe-68ad6fa3cde1"},"vehicle_type_id":"4","last_reported":1748509912,"current_range_meters":8800,"station_id":"","pricing_plan_id":"cebpf4jnsgd1na2vs0mg"},{"bike_id":"2f650bb1-6027-4191-83d2-16315820a0a7","system_id":"levelo_inurba_marseille","lat":43.29987,"lon":5.37375,"is_reserved":false,"is_disabled":false,"rental_uris":{"android":"levelo://app?vid=2f650bb1-6027-4191-83d2-16315820a0a7","ios":"levelo://app?vid=2f650bb1-6027-4191-83d2-16315820a0a7"},"vehicle_type_id":"4","last_reported":1748509912,"current_range_meters":8800,"station_id":"","pricing_plan_id":"cebpf4jnsgd1na2vs0mg"},{"bike_id":"b7b079a5-47ba-49de-959c-b1c5561c5870","system_id":"levelo_inurba_marseille","lat":43.28979,"lon":5.37834,"is_reserved":false,"is_disabled":false,"rental_uris":{"android":"levelo://app?vid=b7b079a5-47ba-49de-959c-b1c5561c5870","ios":"levelo://app?vid=b7b079a5-47ba-49de-959c-b1c5561c5870"},"vehicle_type_id":"4","last_reported":1748509912,"current_range_meters":8800,"station_id":"ce4bh9p2rcd13ifvqed0","pricing_plan_id":"cebpf4jnsgd1na2vs0mg"},{"bike_id":"4d353018-2c99-4a60-908e-92108120b5ed","system_id":"levelo_inurba_marseille","lat":43.255,"lon":5.37649,"is_reserved":false,"is_disabled":false,"rental_uris":{"android":"levelo://app?vid=4d353018-2c99-4a60-908e-92108120b5ed","ios":"levelo://app?vid=4d353018-2c99-4a60-908e-92108120b5ed"},"vehicle_type_id":"4","last_reported":1748509912,"current_range_meters":8800,"station_id":"ce4bhh12rcd13ifvqff0","pricing_plan_id":"cebpf4jnsgd1na2vs0mg"},{"bike_id":"c0d5ccd3-cc9b-42dc-bafd-57829be782b0","system_id":"levelo_inurba_marseille","lat":43.30802,"lon":5.43517,"is_reserved":false,"is_disabled":false,"rental_uris":{"android":"levelo://app?vid=c0d5ccd3-cc9b-42dc-bafd-57829be782b0","ios":"levelo://app?vid=c0d5ccd3-cc9b-42dc-bafd-57829be782b0"},"vehicle_type_id":"4","last_reported":1748509912,"current_range_meters":8800,"station_id":"ce4bhph2rcd13ifvqheg","pricing_plan_id":"cebpf4jnsgd1na2vs0mg"},{"bike_id":"e96e6ad8-66a5-4a74-9b8a-04311f0e6684","system_id":"levelo_inurba_marseille","lat":43.33014,"lon":5.39044,"is_reserved":false,"is_disabled":false,"rental_uris":{"android":"levelo://app?vid=e96e6ad8-66a5-4a74-9b8a-04311f0e6684","ios":"levelo://app?vid=e96e6ad8-66a5-4a74-9b8a-04311f0e6684"},"vehicle_type_id":"4","last_reported":1748509912,"current_range_meters":8800,"station_id":"ce4bhr92rcd13ifvqhrg","pricing_plan_id":"cebpf4jnsgd1na2vs0mg"},{"bike_id":"84adab0f-96c1-4426-bc86-147d47e6151b","system_id":"levelo_inurba_marseille","lat":43.23191,"lon":5.35549,"is_reserved":false,"is_disabled":false,"rental_uris":{"android":"levelo://app?vid=84adab0f-96c1-4426-bc86-147d47e6151b","ios":"levelo://app?vid=84adab0f-96c1-4426-bc86-147d47e6151b"},"vehicle_type_id":"4","last_reported":1748509912,"current_range_meters":8800,"station_id":"ce4bhu92rcd13ifvqi70","pricing_plan_id":"cebpf4jnsgd1na2vs0mg"},{"bike_id":"ac409b29-ac84-4970-bc3f-9270524fb13f","system_id":"levelo_inurba_marseille","lat":43.29529,"lon":5.38536,"is_reserved":false,"is_disabled":false,"rental_uris":{"android":"levelo://app?vid=ac409b29-ac84-4970-bc3f-9270524fb13f","ios":"levelo://app?vid=ac409b29-ac84-4970-bc3f-9270524fb13f"},"vehicle_type_id":"4","last_reported":1748509912,"current_range_meters":9200,"station_id":"ce4bgih2rcd13ifvqba0","pricing_plan_id":"cebpf4jnsgd1na2vs0mg"},{"bike_id":"410eca18-7702-4995-9843-b203c175589d","system_id":"levelo_inurba_marseille","lat":43.29849,"lon":5.36285,"is_reserved":false,"is_disabled":false,"rental_uris":{"android":"levelo://app?vid=410eca18-7702-4995-9843-b203c175589d","ios":"levelo://app?vid=410eca18-7702-4995-9843-b203c175589d"},"vehicle_type_id":"4","last_reported":1748509912,"current_range_meters":9200,"station_id":"ce4bgpp2rcd13ifvqc3g","pricing_plan_id":"cebpf4jnsgd1na2vs0mg"},{"bike_id":"64fb8e0a-ca3d-404a-bef4-fe0d157169fc","system_id":"levelo_inurba_marseille","lat":43.255,"lon":5.37649,"is_reserved":false,"is_disabled":false,"rental_uris":{"android":"levelo://app?vid=64fb8e0a-ca3d-404a-bef4-fe0d157169fc","ios":"levelo://app?vid=64fb8e0a-ca3d-404a-bef4-fe0d157169fc"},"vehicle_type_id":"4","last_reported":1748509912,"current_range_meters":9200,"station_id":"ce4bhh12rcd13ifvqff0","pricing_plan_id":"cebpf4jnsgd1na2vs0mg"},{"bike_id":"60af92f5-378b-4ca7-965f-8544c59fbbda","system_id":"levelo_inurba_marseille","lat":43.282147,"lon":5.39065,"is_reserved":false,"is_disabled":false,"rental_uris":{"android":"levelo://app?vid=60af92f5-378b-4ca7-965f-8544c59fbbda","ios":"levelo://app?vid=60af92f5-378b-4ca7-965f-8544c59fbbda"},"vehicle_type_id":"4","last_reported":1748509912,"current_range_meters":9600,"station_id":"","pricing_plan_id":"cebpf4jnsgd1na2vs0mg"},{"bike_id":"22771043-09b1-43eb-91e0-5c845144e1e3","system_id":"levelo_inurba_marseille","lat":43.277066,"lon":5.408934,"is_reserved":false,"is_disabled":false,"rental_uris":{"android":"levelo://app?vid=22771043-09b1-43eb-91e0-5c845144e1e3","ios":"levelo://app?vid=22771043-09b1-43eb-91e0-5c845144e1e3"},"vehicle_type_id":"4","last_reported":1748509912,"current_range_meters":9600,"station_id":"","pricing_plan_id":"cebpf4jnsgd1na2vs0mg"},{"bike_id":"3013266d-03ec-4779-8d20-2e5da0a480f7","system_id":"levelo_inurba_marseille","lat":43.3164,"lon":5.38816,"is_reserved":false,"is_disabled":false,"rental_uris":{"android":"levelo://app?vid=3013266d-03ec-4779-8d20-2e5da0a480f7","ios":"levelo://app?vid=3013266d-03ec-4779-8d20-2e5da0a480f7"},"vehicle_type_id":"4","last_reported":1748509912,"current_range_meters":9600,"station_id":"","pricing_plan_id":"cebpf4jnsgd1na2vs0mg"},{"bike_id":"32a60d91-d134-4154-a4a8-cc8c21e10489","system_id":"levelo_inurba_marseille","lat":43.29847,"lon":5.36292,"is_reserved":false,"is_disabled":false,"rental_uris":{"android":"levelo://app?vid=32a60d91-d134-4154-a4a8-cc8c21e10489","ios":"levelo://app?vid=32a60d91-d134-4154-a4a8-cc8c21e10489"},"vehicle_type_id":"4","last_reported":1748509912,"current_range_meters":9600,"station_id":"ce4bgpp2rcd13ifvqc3g","pricing_plan_id":"cebpf4jnsgd1na2vs0mg"},{"bike_id":"a07a65cf-e109-4120-8811-59d1450dcf22","system_id":"levelo_inurba_marseille","lat":43.31361,"lon":5.38497,"is_reserved":false,"is_disabled":false,"rental_uris":{"android":"levelo://app?vid=a07a65cf-e109-4120-8811-59d1450dcf22","ios":"levelo://app?vid=a07a65cf-e109-4120-8811-59d1450dcf22"},"vehicle_type_id":"4","last_reported":1748509912,"current_range_meters":9600,"station_id":"ce4bgt92rcd13ifvqcf0","pricing_plan_id":"cebpf4jnsgd1na2vs0mg"},{"bike_id":"47f55a1f-8588-4781-bc30-f75474d90e6f","system_id":"levelo_inurba_marseille","lat":43.24163,"lon":5.39751,"is_reserved":false,"is_disabled":false,"rental_uris":{"android":"levelo://app?vid=47f55a1f-8588-4781-bc30-f75474d90e6f","ios":"levelo://app?vid=47f55a1f-8588-4781-bc30-f75474d90e6f"},"vehicle_type_id":"4","last_reported":1748509912,"current_range_meters":9600,"station_id":"ce4bhn12rcd13ifvqgpg","pricing_plan_id":"cebpf4jnsgd1na2vs0mg"},{"bike_id":"6de0c367-16d8-40fd-95d0-4105c0b2586d","system_id":"levelo_inurba_marseille","lat":43.32673,"lon":5.41002,"is_reserved":false,"is_disabled":false,"rental_uris":{"android":"levelo://app?vid=6de0c367-16d8-40fd-95d0-4105c0b2586d","ios":"levelo://app?vid=6de0c367-16d8-40fd-95d0-4105c0b2586d"},"vehicle_type_id":"4","last_reported":1748509912,"current_range_meters":9600,"station_id":"ce4bhpp2rcd13ifvqhgg","pricing_plan_id":"cebpf4jnsgd1na2vs0mg"},{"bike_id":"af1dc9b2-164b-4021-88df-830111ab755c","system_id":"levelo_inurba_marseille","lat":43.32373,"lon":5.36896,"is_reserved":false,"is_disabled":false,"rental_uris":{"android":"levelo://app?vid=af1dc9b2-164b-4021-88df-830111ab755c","ios":"levelo://app?vid=af1dc9b2-164b-4021-88df-830111ab755c"},"vehicle_type_id":"4","last_reported":1748509912,"current_range_meters":10000,"station_id":"","pricing_plan_id":"cebpf4jnsgd1na2vs0mg"},{"bike_id":"43a14d53-ebd4-4f31-9e5d-95462447a883","system_id":"levelo_inurba_marseille","lat":43.30479,"lon":5.37903,"is_reserved":false,"is_disabled":false,"rental_uris":{"android":"levelo://app?vid=43a14d53-ebd4-4f31-9e5d-95462447a883","ios":"levelo://app?vid=43a14d53-ebd4-4f31-9e5d-95462447a883"},"vehicle_type_id":"4","last_reported":1748509912,"current_range_meters":10000,"station_id":"","pricing_plan_id":"cebpf4jnsgd1na2vs0mg"},{"bike_id":"24cd34e1-bb74-4352-90f7-805b9231f525","system_id":"levelo_inurba_marseille","lat":43.26377,"lon":5.42003,"is_reserved":false,"is_disabled":false,"rental_uris":{"android":"levelo://app?vid=24cd34e1-bb74-4352-90f7-805b9231f525","ios":"levelo://app?vid=24cd34e1-bb74-4352-90f7-805b9231f525"},"vehicle_type_id":"4","last_reported":1748509912,"current_range_meters":10000,"station_id":"","pricing_plan_id":"cebpf4jnsgd1na2vs0mg"},{"bike_id":"b30bb0e4-57e3-482e-b23d-e8852f73bdf6","system_id":"levelo_inurba_marseille","lat":43.30153,"lon":5.38071,"is_reserved":false,"is_disabled":false,"rental_uris":{"android":"levelo://app?vid=b30bb0e4-57e3-482e-b23d-e8852f73bdf6","ios":"levelo://app?vid=b30bb0e4-57e3-482e-b23d-e8852f73bdf6"},"vehicle_type_id":"4","last_reported":1748509912,"current_range_meters":10000,"station_id":"ce4bgjp2rcd13ifvqbh0","pricing_plan_id":"cebpf4jnsgd1na2vs0mg"},{"bike_id":"1024e9a6-4872-46b1-8b74-4312508b07b0","system_id":"levelo_inurba_marseille","lat":43.29018,"lon":5.38113,"is_reserved":false,"is_disabled":false,"rental_uris":{"android":"levelo://app?vid=1024e9a6-4872-46b1-8b74-4312508b07b0","ios":"levelo://app?vid=1024e9a6-4872-46b1-8b74-4312508b07b0"},"vehicle_type_id":"4","last_reported":1748509912,"current_range_meters":10000,"station_id":"ce4bh4p2rcd13ifvqe1g","pricing_plan_id":"cebpf4jnsgd1na2vs0mg"},{"bike_id":"61ff3d2c-9950-405e-8098-6ab5d21669e7","system_id":"levelo_inurba_marseille","lat":43.26825,"lon":5.3944,"is_reserved":false,"is_disabled":false,"rental_uris":{"android":"levelo://app?vid=61ff3d2c-9950-405e-8098-6ab5d21669e7","ios":"levelo://app?vid=61ff3d2c-9950-405e-8098-6ab5d21669e7"},"vehicle_type_id":"4","last_reported":1748509912,"current_range_meters":10000,"station_id":"ce4bhh12rcd13ifvqfg0","pricing_plan_id":"cebpf4jnsgd1na2vs0mg"},{"bike_id":"d4a281ed-b308-4f01-893e-71f13573bb97","system_id":"levelo_inurba_marseille","lat":43.2606,"lon":5.394,"is_reserved":false,"is_disabled":false,"rental_uris":{"android":"levelo://app?vid=d4a281ed-b308-4f01-893e-71f13573bb97","ios":"levelo://app?vid=d4a281ed-b308-4f01-893e-71f13573bb97"},"vehicle_type_id":"4","last_reported":1748509912,"current_range_meters":10000,"station_id":"ce4bhh92rcd13ifvqfj0","pricing_plan_id":"cebpf4jnsgd1na2vs0mg"},{"bike_id":"0f1777bc-0a49-4a78-8cad-e3b9c6d58a2a","system_id":"levelo_inurba_marseille","lat":43.2574,"lon":5.4109,"is_reserved":false,"is_disabled":false,"rental_uris":{"android":"levelo://app?vid=0f1777bc-0a49-4a78-8cad-e3b9c6d58a2a","ios":"levelo://app?vid=0f1777bc-0a49-4a78-8cad-e3b9c6d58a2a"},"vehicle_type_id":"4","last_reported":1748509912,"current_range_meters":10000,"station_id":"ce4bhkp2rcd13ifvqgd0","pricing_plan_id":"cebpf4jnsgd1na2vs0mg"},{"bike_id":"35b8562e-ce2e-497c-a029-93324b8a4429","system_id":"levelo_inurba_marseille","lat":43.29802,"lon":5.39771,"is_reserved":false,"is_disabled":false,"rental_uris":{"android":"levelo://app?vid=35b8562e-ce2e-497c-a029-93324b8a4429","ios":"levelo://app?vid=35b8562e-ce2e-497c-a029-93324b8a4429"},"vehicle_type_id":"4","last_reported":1748509912,"current_range_meters":10800,"station_id":"","pricing_plan_id":"cebpf4jnsgd1na2vs0mg"},{"bike_id":"ab18719d-c5e7-4613-9c7e-1fe47406cb4b","system_id":"levelo_inurba_marseille","lat":43.30947,"lon":5.40176,"is_reserved":false,"is_disabled":false,"rental_uris":{"android":"levelo://app?vid=ab18719d-c5e7-4613-9c7e-1fe47406cb4b","ios":"levelo://app?vid=ab18719d-c5e7-4613-9c7e-1fe47406cb4b"},"vehicle_type_id":"4","last_reported":1748509912,"current_range_meters":10800,"station_id":"ce4bgvp2rcd13ifvqct0","pricing_plan_id":"cebpf4jnsgd1na2vs0mg"},{"bike_id":"d7ecc9df-512c-4795-8c8c-371a3f410fa5","system_id":"levelo_inurba_marseille","lat":43.270546,"lon":5.403034,"is_reserved":false,"is_disabled":false,"rental_uris":{"android":"levelo://app?vid=d7ecc9df-512c-4795-8c8c-371a3f410fa5","ios":"levelo://app?vid=d7ecc9df-512c-4795-8c8c-371a3f410fa5"},"vehicle_type_id":"4","last_reported":1748509912,"current_range_meters":10800,"station_id":"ce4bhk92rcd13ifvqgc0","pricing_plan_id":"cebpf4jnsgd1na2vs0mg"},{"bike_id":"102d8007-3f1d-4c3a-be67-4f1b602724e0","system_id":"levelo_inurba_marseille","lat":43.28707,"lon":5.4,"is_reserved":false,"is_disabled":false,"rental_uris":{"android":"levelo://app?vid=102d8007-3f1d-4c3a-be67-4f1b602724e0","ios":"levelo://app?vid=102d8007-3f1d-4c3a-be67-4f1b602724e0"},"vehicle_type_id":"4","last_reported":1748509912,"current_range_meters":10800,"station_id":"ce4bho92rcd13ifvqh3g","pricing_plan_id":"cebpf4jnsgd1na2vs0mg"},{"bike_id":"dfd8a92a-8547-40b8-9f1a-8cf8dc5a7a8c","system_id":"levelo_inurba_marseille","lat":43.31714,"lon":5.43708,"is_reserved":false,"is_disabled":false,"rental_uris":{"android":"levelo://app?vid=dfd8a92a-8547-40b8-9f1a-8cf8dc5a7a8c","ios":"levelo://app?vid=dfd8a92a-8547-40b8-9f1a-8cf8dc5a7a8c"},"vehicle_type_id":"4","last_reported":1748509912,"current_range_meters":10800,"station_id":"ce4bhp92rcd13ifvqhcg","pricing_plan_id":"cebpf4jnsgd1na2vs0mg"},{"bike_id":"4f4e0096-b87d-4d23-bc87-8157c7ad42ed","system_id":"levelo_inurba_marseille","lat":43.30541,"lon":5.36532,"is_reserved":false,"is_disabled":false,"rental_uris":{"android":"levelo://app?vid=4f4e0096-b87d-4d23-bc87-8157c7ad42ed","ios":"levelo://app?vid=4f4e0096-b87d-4d23-bc87-8157c7ad42ed"},"vehicle_type_id":"4","last_reported":1748509912,"current_range_meters":11200,"station_id":"ce4bgs12rcd13ifvqcag","pricing_plan_id":"cebpf4jnsgd1na2vs0mg"},{"bike_id":"8cae9003-b8a4-48e5-a072-65bbb7096fc6","system_id":"levelo_inurba_marseille","lat":43.30786,"lon":5.37659,"is_reserved":false,"is_disabled":false,"rental_uris":{"android":"levelo://app?vid=8cae9003-b8a4-48e5-a072-65bbb7096fc6","ios":"levelo://app?vid=8cae9003-b8a4-48e5-a072-65bbb7096fc6"},"vehicle_type_id":"4","last_reported":1748509912,"current_range_meters":11200,"station_id":"ce4bgv92rcd13ifvqcq0","pricing_plan_id":"cebpf4jnsgd1na2vs0mg"},{"bike_id":"3e3afc05-f6f7-4523-9ca7-d5e62774754e","system_id":"levelo_inurba_marseille","lat":43.23153,"lon":5.43712,"is_reserved":false,"is_disabled":false,"rental_uris":{"android":"levelo://app?vid=3e3afc05-f6f7-4523-9ca7-d5e62774754e","ios":"levelo://app?vid=3e3afc05-f6f7-4523-9ca7-d5e62774754e"},"vehicle_type_id":"4","last_reported":1748509912,"current_range_meters":11200,"station_id":"ce4bhmp2rcd13ifvqgog","pricing_plan_id":"cebpf4jnsgd1na2vs0mg"},{"bike_id":"0d6d43c4-d3e9-479e-965d-8523b447e36a","system_id":"levelo_inurba_marseille","lat":43.23198,"lon":5.39988,"is_reserved":false,"is_disabled":false,"rental_uris":{"android":"levelo://app?vid=0d6d43c4-d3e9-479e-965d-8523b447e36a","ios":"levelo://app?vid=0d6d43c4-d3e9-479e-965d-8523b447e36a"},"vehicle_type_id":"4","last_reported":1748509912,"current_range_meters":11200,"station_id":"ce4bhn12rcd13ifvqgqg","pricing_plan_id":"cebpf4jnsgd1na2vs0mg"},{"bike_id":"f293ba09-4b7e-4261-9c45-5e8e5f6ff81c","system_id":"levelo_inurba_marseille","lat":43.303738,"lon":5.424825,"is_reserved":false,"is_disabled":false,"rental_uris":{"android":"levelo://app?vid=f293ba09-4b7e-4261-9c45-5e8e5f6ff81c","ios":"levelo://app?vid=f293ba09-4b7e-4261-9c45-5e8e5f6ff81c"},"vehicle_type_id":"4","last_reported":1748509912,"current_range_meters":11200,"station_id":"ce4bhoh2rcd13ifvqh6g","pricing_plan_id":"cebpf4jnsgd1na2vs0mg"},{"bike_id":"f090e212-d3c8-4736-afad-80cfe2b8e432","system_id":"levelo_inurba_marseille","lat":43.307967,"lon":5.435273,"is_reserved":false,"is_disabled":false,"rental_uris":{"android":"levelo://app?vid=f090e212-d3c8-4736-afad-80cfe2b8e432","ios":"levelo://app?vid=f090e212-d3c8-4736-afad-80cfe2b8e432"},"vehicle_type_id":"4","last_reported":1748509912,"current_range_meters":11200,"station_id":"ce4bhph2rcd13ifvqheg","pricing_plan_id":"cebpf4jnsgd1na2vs0mg"},{"bike_id":"9e86d75a-7d8b-4329-b2c4-5d214828de6d","system_id":"levelo_inurba_marseille","lat":43.21747,"lon":5.34602,"is_reserved":false,"is_disabled":false,"rental_uris":{"android":"levelo://app?vid=9e86d75a-7d8b-4329-b2c4-5d214828de6d","ios":"levelo://app?vid=9e86d75a-7d8b-4329-b2c4-5d214828de6d"},"vehicle_type_id":"4","last_reported":1748509912,"current_range_meters":11200,"station_id":"st_cvj6r9ubvosntc0bgbag","pricing_plan_id":"cebpf4jnsgd1na2vs0mg"},{"bike_id":"5425969b-1595-4148-b19f-88f5aacdc526","system_id":"levelo_inurba_marseille","lat":43.30646,"lon":5.4009,"is_reserved":false,"is_disabled":false,"rental_uris":{"android":"levelo://app?vid=5425969b-1595-4148-b19f-88f5aacdc526","ios":"levelo://app?vid=5425969b-1595-4148-b19f-88f5aacdc526"},"vehicle_type_id":"4","last_reported":1748509912,"current_range_meters":11600,"station_id":"ce4bh112rcd13ifvqda0","pricing_plan_id":"cebpf4jnsgd1na2vs0mg"},{"bike_id":"f351fef2-61d8-4ddb-ac35-5ecf4082b9c7","system_id":"levelo_inurba_marseille","lat":43.27994,"lon":5.41659,"is_reserved":false,"is_disabled":false,"rental_uris":{"android":"levelo://app?vid=f351fef2-61d8-4ddb-ac35-5ecf4082b9c7","ios":"levelo://app?vid=f351fef2-61d8-4ddb-ac35-5ecf4082b9c7"},"vehicle_type_id":"4","last_reported":1748509912,"current_range_meters":11600,"station_id":"ce4bho12rcd13ifvqh1g","pricing_plan_id":"cebpf4jnsgd1na2vs0mg"},{"bike_id":"42dca157-bdb0-4361-8022-7979135f94aa","system_id":"levelo_inurba_marseille","lat":43.28562,"lon":5.367,"is_reserved":false,"is_disabled":false,"rental_uris":{"android":"levelo://app?vid=42dca157-bdb0-4361-8022-7979135f94aa","ios":"levelo://app?vid=42dca157-bdb0-4361-8022-7979135f94aa"},"vehicle_type_id":"4","last_reported":1748509912,"current_range_meters":12000,"station_id":"","pricing_plan_id":"cebpf4jnsgd1na2vs0mg"},{"bike_id":"74596cad-01b8-4827-9b35-ca1f4056673c","system_id":"levelo_inurba_marseille","lat":43.3237,"lon":5.38369,"is_reserved":false,"is_disabled":false,"rental_uris":{"android":"levelo://app?vid=74596cad-01b8-4827-9b35-ca1f4056673c","ios":"levelo://app?vid=74596cad-01b8-4827-9b35-ca1f4056673c"},"vehicle_type_id":"4","last_reported":1748509912,"current_range_meters":12000,"station_id":"","pricing_plan_id":"cebpf4jnsgd1na2vs0mg"},{"bike_id":"eb03e0e7-5578-452b-b684-ee372f66b7d0","system_id":"levelo_inurba_marseille","lat":43.29608,"lon":5.38107,"is_reserved":false,"is_disabled":false,"rental_uris":{"android":"levelo://app?vid=eb03e0e7-5578-452b-b684-ee372f66b7d0","ios":"levelo://app?vid=eb03e0e7-5578-452b-b684-ee372f66b7d0"},"vehicle_type_id":"4","last_reported":1748509912,"current_range_meters":12000,"station_id":"ce4bgl12rcd13ifvqbo0","pricing_plan_id":"cebpf4jnsgd1na2vs0mg"},{"bike_id":"83331a97-86a6-485d-98da-2c65bec87f4e","system_id":"levelo_inurba_marseille","lat":43.29605,"lon":5.38089,"is_reserved":false,"is_disabled":false,"rental_uris":{"android":"levelo://app?vid=83331a97-86a6-485d-98da-2c65bec87f4e","ios":"levelo://app?vid=83331a97-86a6-485d-98da-2c65bec87f4e"},"vehicle_type_id":"4","last_reported":1748509912,"current_range_meters":12000,"station_id":"ce4bgl12rcd13ifvqbo0","pricing_plan_id":"cebpf4jnsgd1na2vs0mg"},{"bike_id":"8b48bdca-081c-4c4e-8b99-c38e7a40cc9b","system_id":"levelo_inurba_marseille","lat":43.27206,"lon":5.39181,"is_reserved":false,"is_disabled":false,"rental_uris":{"android":"levelo://app?vid=8b48bdca-081c-4c4e-8b99-c38e7a40cc9b","ios":"levelo://app?vid=8b48bdca-081c-4c4e-8b99-c38e7a40cc9b"},"vehicle_type_id":"4","last_reported":1748509912,"current_range_meters":12000,"station_id":"ce4bhhp2rcd13ifvqfm0","pricing_plan_id":"cebpf4jnsgd1na2vs0mg"},{"bike_id":"0e009545-9acc-491d-b143-22cbd0096db4","system_id":"levelo_inurba_marseille","lat":43.33827,"lon":5.39262,"is_reserved":false,"is_disabled":false,"rental_uris":{"android":"levelo://app?vid=0e009545-9acc-491d-b143-22cbd0096db4","ios":"levelo://app?vid=0e009545-9acc-491d-b143-22cbd0096db4"},"vehicle_type_id":"4","last_reported":1748509912,"current_range_meters":12400,"station_id":"","pricing_plan_id":"cebpf4jnsgd1na2vs0mg"},{"bike_id":"17955c0e-493b-4101-b73e-90e7728062ab","system_id":"levelo_inurba_marseille","lat":43.29003,"lon":5.35611,"is_reserved":false,"is_disabled":false,"rental_uris":{"android":"levelo://app?vid=17955c0e-493b-4101-b73e-90e7728062ab","ios":"levelo://app?vid=17955c0e-493b-4101-b73e-90e7728062ab"},"vehicle_type_id":"4","last_reported":1748509912,"current_range_meters":12400,"station_id":"ce4bhb92rcd13ifvqen0","pricing_plan_id":"cebpf4jnsgd1na2vs0mg"},{"bike_id":"2f1cb291-6763-4083-b0ed-d7789f04f872","system_id":"levelo_inurba_marseille","lat":43.25109,"lon":5.40319,"is_reserved":false,"is_disabled":false,"rental_uris":{"android":"levelo://app?vid=2f1cb291-6763-4083-b0ed-d7789f04f872","ios":"levelo://app?vid=2f1cb291-6763-4083-b0ed-d7789f04f872"},"vehicle_type_id":"4","last_reported":1748509912,"current_range_meters":12400,"station_id":"ce4bhlh2rcd13ifvqgig","pricing_plan_id":"cebpf4jnsgd1na2vs0mg"},{"bike_id":"2f0b886c-8247-496f-bdc3-327761e32d8c","system_id":"levelo_inurba_marseille","lat":43.23151,"lon":5.43721,"is_reserved":false,"is_disabled":false,"rental_uris":{"android":"levelo://app?vid=2f0b886c-8247-496f-bdc3-327761e32d8c","ios":"levelo://app?vid=2f0b886c-8247-496f-bdc3-327761e32d8c"},"vehicle_type_id":"4","last_reported":1748509912,"current_range_meters":12400,"station_id":"ce4bhmp2rcd13ifvqgog","pricing_plan_id":"cebpf4jnsgd1na2vs0mg"},{"bike_id":"2838cf16-5eeb-46d4-8b0d-10117d597bac","system_id":"levelo_inurba_marseille","lat":43.29573,"lon":5.37513,"is_reserved":false,"is_disabled":false,"rental_uris":{"android":"levelo://app?vid=2838cf16-5eeb-46d4-8b0d-10117d597bac","ios":"levelo://app?vid=2838cf16-5eeb-46d4-8b0d-10117d597bac"},"vehicle_type_id":"4","last_reported":1748509912,"current_range_meters":12800,"station_id":"ce4bgh92rcd13ifvqb50","pricing_plan_id":"cebpf4jnsgd1na2vs0mg"},{"bike_id":"b836adec-644c-4a74-9857-a4f0157ac845","system_id":"levelo_inurba_marseille","lat":43.27631,"lon":5.36121,"is_reserved":false,"is_disabled":false,"rental_uris":{"android":"levelo://app?vid=b836adec-644c-4a74-9857-a4f0157ac845","ios":"levelo://app?vid=b836adec-644c-4a74-9857-a4f0157ac845"},"vehicle_type_id":"4","last_reported":1748509912,"current_range_meters":12800,"station_id":"ce4bgj92rcd13ifvqbe0","pricing_plan_id":"cebpf4jnsgd1na2vs0mg"},{"bike_id":"922a7db1-2fd4-4c19-a71e-6274fc050e40","system_id":"levelo_inurba_marseille","lat":43.26193,"lon":5.37448,"is_reserved":false,"is_disabled":false,"rental_uris":{"android":"levelo://app?vid=922a7db1-2fd4-4c19-a71e-6274fc050e40","ios":"levelo://app?vid=922a7db1-2fd4-4c19-a71e-6274fc050e40"},"vehicle_type_id":"4","last_reported":1748509912,"current_range_meters":12800,"station_id":"ce4bhgp2rcd13ifvqfc0","pricing_plan_id":"cebpf4jnsgd1na2vs0mg"},{"bike_id":"8ea4d048-223c-4b9f-a79c-b8dc2c65d878","system_id":"levelo_inurba_marseille","lat":43.25127,"lon":5.40336,"is_reserved":false,"is_disabled":false,"rental_uris":{"android":"levelo://app?vid=8ea4d048-223c-4b9f-a79c-b8dc2c65d878","ios":"levelo://app?vid=8ea4d048-223c-4b9f-a79c-b8dc2c65d878"},"vehicle_type_id":"4","last_reported":1748509912,"current_range_meters":12800,"station_id":"ce4bhlh2rcd13ifvqgig","pricing_plan_id":"cebpf4jnsgd1na2vs0mg"},{"bike_id":"b1e96877-da85-41d0-8cb6-ca2665b00f68","system_id":"levelo_inurba_marseille","lat":43.2957,"lon":5.37515,"is_reserved":false,"is_disabled":false,"rental_uris":{"android":"levelo://app?vid=b1e96877-da85-41d0-8cb6-ca2665b00f68","ios":"levelo://app?vid=b1e96877-da85-41d0-8cb6-ca2665b00f68"},"vehicle_type_id":"4","last_reported":1748509912,"current_range_meters":13600,"station_id":"ce4bgh92rcd13ifvqb50","pricing_plan_id":"cebpf4jnsgd1na2vs0mg"},{"bike_id":"5b2291d0-2594-4fff-9a70-c15f1147322b","system_id":"levelo_inurba_marseille","lat":43.29275,"lon":5.36855,"is_reserved":false,"is_disabled":false,"rental_uris":{"android":"levelo://app?vid=5b2291d0-2594-4fff-9a70-c15f1147322b","ios":"levelo://app?vid=5b2291d0-2594-4fff-9a70-c15f1147322b"},"vehicle_type_id":"4","last_reported":1748509912,"current_range_meters":13600,"station_id":"ce4bhbp2rcd13ifvqesg","pricing_plan_id":"cebpf4jnsgd1na2vs0mg"},{"bike_id":"6ed5bac0-eb11-436e-b583-43fe53337131","system_id":"levelo_inurba_marseille","lat":43.26563,"lon":5.39016,"is_reserved":false,"is_disabled":false,"rental_uris":{"android":"levelo://app?vid=6ed5bac0-eb11-436e-b583-43fe53337131","ios":"levelo://app?vid=6ed5bac0-eb11-436e-b583-43fe53337131"},"vehicle_type_id":"4","last_reported":1748509912,"current_range_meters":13600,"station_id":"ce4bhe12rcd13ifvqf30","pricing_plan_id":"cebpf4jnsgd1na2vs0mg"},{"bike_id":"f3821f83-31c7-413f-bbb8-d18ccd7d35ec","system_id":"levelo_inurba_marseille","lat":43.33703,"lon":5.39169,"is_reserved":false,"is_disabled":false,"rental_uris":{"android":"levelo://app?vid=f3821f83-31c7-413f-bbb8-d18ccd7d35ec","ios":"levelo://app?vid=f3821f83-31c7-413f-bbb8-d18ccd7d35ec"},"vehicle_type_id":"4","last_reported":1748509912,"current_range_meters":13600,"station_id":"ce4bhr92rcd13ifvqhsg","pricing_plan_id":"cebpf4jnsgd1na2vs0mg"},{"bike_id":"b47dd82d-d5f8-469b-8c9b-360e1c7ab591","system_id":"levelo_inurba_marseille","lat":43.29093,"lon":5.38127,"is_reserved":false,"is_disabled":false,"rental_uris":{"android":"levelo://app?vid=b47dd82d-d5f8-469b-8c9b-360e1c7ab591","ios":"levelo://app?vid=b47dd82d-d5f8-469b-8c9b-360e1c7ab591"},"vehicle_type_id":"4","last_reported":1748509912,"current_range_meters":14000,"station_id":"ce4bh512rcd13ifvqe2g","pricing_plan_id":"cebpf4jnsgd1na2vs0mg"},{"bike_id":"98234324-f3a3-438f-801c-39490a7c5660","system_id":"levelo_inurba_marseille","lat":43.33714,"lon":5.3918,"is_reserved":false,"is_disabled":false,"rental_uris":{"android":"levelo://app?vid=98234324-f3a3-438f-801c-39490a7c5660","ios":"levelo://app?vid=98234324-f3a3-438f-801c-39490a7c5660"},"vehicle_type_id":"4","last_reported":1748509912,"current_range_meters":14000,"station_id":"ce4bhr92rcd13ifvqhsg","pricing_plan_id":"cebpf4jnsgd1na2vs0mg"},{"bike_id":"a426f99b-d34a-41bf-bbda-59f7dfd6939b","system_id":"levelo_inurba_marseille","lat":43.255796,"lon":5.382262,"is_reserved":false,"is_disabled":false,"rental_uris":{"android":"levelo://app?vid=a426f99b-d34a-41bf-bbda-59f7dfd6939b","ios":"levelo://app?vid=a426f99b-d34a-41bf-bbda-59f7dfd6939b"},"vehicle_type_id":"4","last_reported":1748509912,"current_range_meters":14000,"station_id":"ce501612rcd8frsf0b60","pricing_plan_id":"cebpf4jnsgd1na2vs0mg"},{"bike_id":"e9cda520-c6f4-465d-ad7f-8c059b3dc45a","system_id":"levelo_inurba_marseille","lat":43.313763,"lon":5.38381,"is_reserved":false,"is_disabled":false,"rental_uris":{"android":"levelo://app?vid=e9cda520-c6f4-465d-ad7f-8c059b3dc45a","ios":"levelo://app?vid=e9cda520-c6f4-465d-ad7f-8c059b3dc45a"},"vehicle_type_id":"4","last_reported":1748509912,"current_range_meters":14400,"station_id":"","pricing_plan_id":"cebpf4jnsgd1na2vs0mg"},{"bike_id":"f5733814-9732-4748-bcc9-3b2fac8e1564","system_id":"levelo_inurba_marseille","lat":43.31256,"lon":5.37829,"is_reserved":false,"is_disabled":false,"rental_uris":{"android":"levelo://app?vid=f5733814-9732-4748-bcc9-3b2fac8e1564","ios":"levelo://app?vid=f5733814-9732-4748-bcc9-3b2fac8e1564"},"vehicle_type_id":"4","last_reported":1748509912,"current_range_meters":14400,"station_id":"","pricing_plan_id":"cebpf4jnsgd1na2vs0mg"},{"bike_id":"2edfef24-408a-4830-b984-0861c8826a89","system_id":"levelo_inurba_marseille","lat":43.29258,"lon":5.37614,"is_reserved":false,"is_disabled":false,"rental_uris":{"android":"levelo://app?vid=2edfef24-408a-4830-b984-0861c8826a89","ios":"levelo://app?vid=2edfef24-408a-4830-b984-0861c8826a89"},"vehicle_type_id":"4","last_reported":1748509912,"current_range_meters":14400,"station_id":"ce4bgi12rcd13ifvqb80","pricing_plan_id":"cebpf4jnsgd1na2vs0mg"},{"bike_id":"8f7f9dba-c1a2-4705-9cfb-78b381b601cf","system_id":"levelo_inurba_marseille","lat":43.309296,"lon":5.401484,"is_reserved":false,"is_disabled":false,"rental_uris":{"android":"levelo://app?vid=8f7f9dba-c1a2-4705-9cfb-78b381b601cf","ios":"levelo://app?vid=8f7f9dba-c1a2-4705-9cfb-78b381b601cf"},"vehicle_type_id":"4","last_reported":1748509912,"current_range_meters":14400,"station_id":"ce4bgvp2rcd13ifvqct0","pricing_plan_id":"cebpf4jnsgd1na2vs0mg"},{"bike_id":"69edce09-d545-4008-b62e-49b1b72bd772","system_id":"levelo_inurba_marseille","lat":43.29606,"lon":5.38108,"is_reserved":false,"is_disabled":false,"rental_uris":{"android":"levelo://app?vid=69edce09-d545-4008-b62e-49b1b72bd772","ios":"levelo://app?vid=69edce09-d545-4008-b62e-49b1b72bd772"},"vehicle_type_id":"4","last_reported":1748509912,"current_range_meters":14800,"station_id":"ce4bgl12rcd13ifvqbo0","pricing_plan_id":"cebpf4jnsgd1na2vs0mg"},{"bike_id":"4cb24e43-9b8a-4759-8457-4f13e54c9f6c","system_id":"levelo_inurba_marseille","lat":43.30497,"lon":5.37896,"is_reserved":false,"is_disabled":false,"rental_uris":{"android":"levelo://app?vid=4cb24e43-9b8a-4759-8457-4f13e54c9f6c","ios":"levelo://app?vid=4cb24e43-9b8a-4759-8457-4f13e54c9f6c"},"vehicle_type_id":"4","last_reported":1748509912,"current_range_meters":14800,"station_id":"ce4bgup2rcd13ifvqcn0","pricing_plan_id":"cebpf4jnsgd1na2vs0mg"},{"bike_id":"40287a79-8fe9-49af-83e6-c442f1394105","system_id":"levelo_inurba_marseille","lat":43.30953,"lon":5.39021,"is_reserved":false,"is_disabled":false,"rental_uris":{"android":"levelo://app?vid=40287a79-8fe9-49af-83e6-c442f1394105","ios":"levelo://app?vid=40287a79-8fe9-49af-83e6-c442f1394105"},"vehicle_type_id":"4","last_reported":1748509912,"current_range_meters":14800,"station_id":"ce4bgup2rcd13ifvqco0","pricing_plan_id":"cebpf4jnsgd1na2vs0mg"},{"bike_id":"e788adbc-8009-4eeb-9d0d-427f59d15b5e","system_id":"levelo_inurba_marseille","lat":43.3018,"lon":5.4253,"is_reserved":false,"is_disabled":false,"rental_uris":{"android":"levelo://app?vid=e788adbc-8009-4eeb-9d0d-427f59d15b5e","ios":"levelo://app?vid=e788adbc-8009-4eeb-9d0d-427f59d15b5e"},"vehicle_type_id":"4","last_reported":1748509912,"current_range_meters":14800,"station_id":"ce4bho92rcd13ifvqh4g","pricing_plan_id":"cebpf4jnsgd1na2vs0mg"},{"bike_id":"b7d0182b-44ef-4781-8968-d21fb3c02045","system_id":"levelo_inurba_marseille","lat":43.250836,"lon":5.395146,"is_reserved":false,"is_disabled":false,"rental_uris":{"android":"levelo://app?vid=b7d0182b-44ef-4781-8968-d21fb3c02045","ios":"levelo://app?vid=b7d0182b-44ef-4781-8968-d21fb3c02045"},"vehicle_type_id":"4","last_reported":1748509912,"current_range_meters":15200,"station_id":"ce4bhm12rcd13ifvqgkg","pricing_plan_id":"cebpf4jnsgd1na2vs0mg"},{"bike_id":"4fb85185-252d-4228-aace-39d97ecb9d46","system_id":"levelo_inurba_marseille","lat":43.23161,"lon":5.43702,"is_reserved":false,"is_disabled":false,"rental_uris":{"android":"levelo://app?vid=4fb85185-252d-4228-aace-39d97ecb9d46","ios":"levelo://app?vid=4fb85185-252d-4228-aace-39d97ecb9d46"},"vehicle_type_id":"4","last_reported":1748509912,"current_range_meters":15200,"station_id":"ce4bhmp2rcd13ifvqgog","pricing_plan_id":"cebpf4jnsgd1na2vs0mg"},{"bike_id":"b2d5366f-dd76-4df6-8bad-e2b0bf8847a0","system_id":"levelo_inurba_marseille","lat":43.23198,"lon":5.40006,"is_reserved":false,"is_disabled":false,"rental_uris":{"android":"levelo://app?vid=b2d5366f-dd76-4df6-8bad-e2b0bf8847a0","ios":"levelo://app?vid=b2d5366f-dd76-4df6-8bad-e2b0bf8847a0"},"vehicle_type_id":"4","last_reported":1748509912,"current_range_meters":15200,"station_id":"ce4bhn12rcd13ifvqgqg","pricing_plan_id":"cebpf4jnsgd1na2vs0mg"},{"bike_id":"f463b943-df35-44f7-bf7b-79284c663a6f","system_id":"levelo_inurba_marseille","lat":43.2794,"lon":5.41034,"is_reserved":false,"is_disabled":false,"rental_uris":{"android":"levelo://app?vid=f463b943-df35-44f7-bf7b-79284c663a6f","ios":"levelo://app?vid=f463b943-df35-44f7-bf7b-79284c663a6f"},"vehicle_type_id":"4","last_reported":1748509912,"current_range_meters":15200,"station_id":"ce4bhnp2rcd13ifvqh0g","pricing_plan_id":"cebpf4jnsgd1na2vs0mg"},{"bike_id":"249bb5c9-e3c0-404f-9f69-917cdb46c529","system_id":"levelo_inurba_marseille","lat":43.28001,"lon":5.40009,"is_reserved":false,"is_disabled":false,"rental_uris":{"android":"levelo://app?vid=249bb5c9-e3c0-404f-9f69-917cdb46c529","ios":"levelo://app?vid=249bb5c9-e3c0-404f-9f69-917cdb46c529"},"vehicle_type_id":"4","last_reported":1748509912,"current_range_meters":16000,"station_id":"","pricing_plan_id":"cebpf4jnsgd1na2vs0mg"},{"bike_id":"7cebb823-96d0-49f3-8455-0b619a5fe90e","system_id":"levelo_inurba_marseille","lat":43.30165,"lon":5.38072,"is_reserved":false,"is_disabled":false,"rental_uris":{"android":"levelo://app?vid=7cebb823-96d0-49f3-8455-0b619a5fe90e","ios":"levelo://app?vid=7cebb823-96d0-49f3-8455-0b619a5fe90e"},"vehicle_type_id":"4","last_reported":1748509912,"current_range_meters":16000,"station_id":"ce4bgjp2rcd13ifvqbh0","pricing_plan_id":"cebpf4jnsgd1na2vs0mg"},{"bike_id":"adcee82c-9db2-40d0-9e4e-8dd831ea6879","system_id":"levelo_inurba_marseille","lat":43.27928,"lon":5.396,"is_reserved":false,"is_disabled":false,"rental_uris":{"android":"levelo://app?vid=adcee82c-9db2-40d0-9e4e-8dd831ea6879","ios":"levelo://app?vid=adcee82c-9db2-40d0-9e4e-8dd831ea6879"},"vehicle_type_id":"4","last_reported":1748509912,"current_range_meters":16000,"station_id":"ce4bhf92rcd13ifvqf40","pricing_plan_id":"cebpf4jnsgd1na2vs0mg"},{"bike_id":"a75866c0-48e6-48f4-a969-8e359a7341e9","system_id":"levelo_inurba_marseille","lat":43.26211,"lon":5.37441,"is_reserved":false,"is_disabled":false,"rental_uris":{"android":"levelo://app?vid=a75866c0-48e6-48f4-a969-8e359a7341e9","ios":"levelo://app?vid=a75866c0-48e6-48f4-a969-8e359a7341e9"},"vehicle_type_id":"4","last_reported":1748509912,"current_range_meters":16000,"station_id":"ce4bhgp2rcd13ifvqfc0","pricing_plan_id":"cebpf4jnsgd1na2vs0mg"},{"bike_id":"747224c9-7e52-4c58-9390-d943c4f5446c","system_id":"levelo_inurba_marseille","lat":43.27187,"lon":5.41018,"is_reserved":false,"is_disabled":false,"rental_uris":{"android":"levelo://app?vid=747224c9-7e52-4c58-9390-d943c4f5446c","ios":"levelo://app?vid=747224c9-7e52-4c58-9390-d943c4f5446c"},"vehicle_type_id":"4","last_reported":1748509912,"current_range_meters":16000,"station_id":"ce4bhl12rcd13ifvqgf0","pricing_plan_id":"cebpf4jnsgd1na2vs0mg"},{"bike_id":"268d8a39-8ebd-464e-bfc7-cb2851008607","system_id":"levelo_inurba_marseille","lat":43.24181,"lon":5.3973,"is_reserved":false,"is_disabled":false,"rental_uris":{"android":"levelo://app?vid=268d8a39-8ebd-464e-bfc7-cb2851008607","ios":"levelo://app?vid=268d8a39-8ebd-464e-bfc7-cb2851008607"},"vehicle_type_id":"4","last_reported":1748509912,"current_range_meters":16000,"station_id":"ce4bhn12rcd13ifvqgpg","pricing_plan_id":"cebpf4jnsgd1na2vs0mg"},{"bike_id":"8023504d-3ac6-4178-b0fc-b7283e21344c","system_id":"levelo_inurba_marseille","lat":43.27933,"lon":5.41044,"is_reserved":false,"is_disabled":false,"rental_uris":{"android":"levelo://app?vid=8023504d-3ac6-4178-b0fc-b7283e21344c","ios":"levelo://app?vid=8023504d-3ac6-4178-b0fc-b7283e21344c"},"vehicle_type_id":"4","last_reported":1748509912,"current_range_meters":16000,"station_id":"ce4bhnp2rcd13ifvqh0g","pricing_plan_id":"cebpf4jnsgd1na2vs0mg"},{"bike_id":"bf5e4674-03e5-4715-b871-aa2d6b3c6866","system_id":"levelo_inurba_marseille","lat":43.29513,"lon":5.38893,"is_reserved":false,"is_disabled":false,"rental_uris":{"android":"levelo://app?vid=bf5e4674-03e5-4715-b871-aa2d6b3c6866","ios":"levelo://app?vid=bf5e4674-03e5-4715-b871-aa2d6b3c6866"},"vehicle_type_id":"4","last_reported":1748509912,"current_range_meters":16400,"station_id":"","pricing_plan_id":"cebpf4jnsgd1na2vs0mg"},{"bike_id":"e8ebedc2-7b94-4021-a935-c44d96b332cf","system_id":"levelo_inurba_marseille","lat":43.31357,"lon":5.38495,"is_reserved":false,"is_disabled":false,"rental_uris":{"android":"levelo://app?vid=e8ebedc2-7b94-4021-a935-c44d96b332cf","ios":"levelo://app?vid=e8ebedc2-7b94-4021-a935-c44d96b332cf"},"vehicle_type_id":"4","last_reported":1748509912,"current_range_meters":16400,"station_id":"ce4bgt92rcd13ifvqcf0","pricing_plan_id":"cebpf4jnsgd1na2vs0mg"},{"bike_id":"01a285df-8ca8-43b6-a784-82eb143f1d8d","system_id":"levelo_inurba_marseille","lat":43.284,"lon":5.37523,"is_reserved":false,"is_disabled":false,"rental_uris":{"android":"levelo://app?vid=01a285df-8ca8-43b6-a784-82eb143f1d8d","ios":"levelo://app?vid=01a285df-8ca8-43b6-a784-82eb143f1d8d"},"vehicle_type_id":"4","last_reported":1748509912,"current_range_meters":16400,"station_id":"ce4bh412rcd13ifvqds0","pricing_plan_id":"cebpf4jnsgd1na2vs0mg"},{"bike_id":"210996db-8225-4747-b040-5d2114c8d106","system_id":"levelo_inurba_marseille","lat":43.29029,"lon":5.38153,"is_reserved":false,"is_disabled":false,"rental_uris":{"android":"levelo://app?vid=210996db-8225-4747-b040-5d2114c8d106","ios":"levelo://app?vid=210996db-8225-4747-b040-5d2114c8d106"},"vehicle_type_id":"4","last_reported":1748509912,"current_range_meters":16400,"station_id":"ce4bh4p2rcd13ifvqe1g","pricing_plan_id":"cebpf4jnsgd1na2vs0mg"},{"bike_id":"6b77d8e2-6914-4f74-b37c-4eb29bd3731c","system_id":"levelo_inurba_marseille","lat":43.25941,"lon":5.40908,"is_reserved":false,"is_disabled":false,"rental_uris":{"android":"levelo://app?vid=6b77d8e2-6914-4f74-b37c-4eb29bd3731c","ios":"levelo://app?vid=6b77d8e2-6914-4f74-b37c-4eb29bd3731c"},"vehicle_type_id":"4","last_reported":1748509912,"current_range_meters":16400,"station_id":"ce4bhm92rcd13ifvqglg","pricing_plan_id":"cebpf4jnsgd1na2vs0mg"},{"bike_id":"c91f375f-f1af-4beb-83ef-b4aac44777e5","system_id":"levelo_inurba_marseille","lat":43.24144,"lon":5.36399,"is_reserved":false,"is_disabled":false,"rental_uris":{"android":"levelo://app?vid=c91f375f-f1af-4beb-83ef-b4aac44777e5","ios":"levelo://app?vid=c91f375f-f1af-4beb-83ef-b4aac44777e5"},"vehicle_type_id":"4","last_reported":1748509912,"current_range_meters":16400,"station_id":"cpo36qri1sfpv3e86is0","pricing_plan_id":"cebpf4jnsgd1na2vs0mg"},{"bike_id":"35dc31d0-876c-4ff8-a716-bdbcacf232fa","system_id":"levelo_inurba_marseille","lat":43.24165,"lon":5.36391,"is_reserved":false,"is_disabled":false,"rental_uris":{"android":"levelo://app?vid=35dc31d0-876c-4ff8-a716-bdbcacf232fa","ios":"levelo://app?vid=35dc31d0-876c-4ff8-a716-bdbcacf232fa"},"vehicle_type_id":"4","last_reported":1748509912,"current_range_meters":16400,"station_id":"cpo36qri1sfpv3e86is0","pricing_plan_id":"cebpf4jnsgd1na2vs0mg"},{"bike_id":"9a86381f-51bc-4d54-858d-d27c0e51d901","system_id":"levelo_inurba_marseille","lat":43.30734,"lon":5.4244,"is_reserved":false,"is_disabled":false,"rental_uris":{"android":"levelo://app?vid=9a86381f-51bc-4d54-858d-d27c0e51d901","ios":"levelo://app?vid=9a86381f-51bc-4d54-858d-d27c0e51d901"},"vehicle_type_id":"4","last_reported":1748509912,"current_range_meters":16400,"station_id":"st_cvj6ca6bvosntc0bfgr0","pricing_plan_id":"cebpf4jnsgd1na2vs0mg"},{"bike_id":"84b1cdb3-afec-4946-99df-4fcba5b743f0","system_id":"levelo_inurba_marseille","lat":43.26117,"lon":5.40085,"is_reserved":false,"is_disabled":false,"rental_uris":{"android":"levelo://app?vid=84b1cdb3-afec-4946-99df-4fcba5b743f0","ios":"levelo://app?vid=84b1cdb3-afec-4946-99df-4fcba5b743f0"},"vehicle_type_id":"4","last_reported":1748509912,"current_range_meters":16800,"station_id":"","pricing_plan_id":"cebpf4jnsgd1na2vs0mg"},{"bike_id":"2a9acb4b-2bb8-4ce6-982a-371ff22de0c6","system_id":"levelo_inurba_marseille","lat":43.21194,"lon":5.35072,"is_reserved":false,"is_disabled":false,"rental_uris":{"android":"levelo://app?vid=2a9acb4b-2bb8-4ce6-982a-371ff22de0c6","ios":"levelo://app?vid=2a9acb4b-2bb8-4ce6-982a-371ff22de0c6"},"vehicle_type_id":"4","last_reported":1748509912,"current_range_meters":16800,"station_id":"","pricing_plan_id":"cebpf4jnsgd1na2vs0mg"},{"bike_id":"b7020ec2-d08d-489a-8b7c-6a077dc1acf5","system_id":"levelo_inurba_marseille","lat":43.23284,"lon":5.36098,"is_reserved":false,"is_disabled":false,"rental_uris":{"android":"levelo://app?vid=b7020ec2-d08d-489a-8b7c-6a077dc1acf5","ios":"levelo://app?vid=b7020ec2-d08d-489a-8b7c-6a077dc1acf5"},"vehicle_type_id":"4","last_reported":1748509912,"current_range_meters":16800,"station_id":"","pricing_plan_id":"cebpf4jnsgd1na2vs0mg"},{"bike_id":"66da971e-5cde-4f08-8df5-5605a205a536","system_id":"levelo_inurba_marseille","lat":43.29621,"lon":5.377106,"is_reserved":false,"is_disabled":false,"rental_uris":{"android":"levelo://app?vid=66da971e-5cde-4f08-8df5-5605a205a536","ios":"levelo://app?vid=66da971e-5cde-4f08-8df5-5605a205a536"},"vehicle_type_id":"4","last_reported":1748509912,"current_range_meters":16800,"station_id":"ce4bgi92rcd13ifvqb90","pricing_plan_id":"cebpf4jnsgd1na2vs0mg"},{"bike_id":"caac217f-7292-4c57-bfce-76d9beeb04c4","system_id":"levelo_inurba_marseille","lat":43.25498,"lon":5.37649,"is_reserved":false,"is_disabled":false,"rental_uris":{"android":"levelo://app?vid=caac217f-7292-4c57-bfce-76d9beeb04c4","ios":"levelo://app?vid=caac217f-7292-4c57-bfce-76d9beeb04c4"},"vehicle_type_id":"4","last_reported":1748509912,"current_range_meters":16800,"station_id":"ce4bhh12rcd13ifvqff0","pricing_plan_id":"cebpf4jnsgd1na2vs0mg"},{"bike_id":"39a54a80-b63c-44b7-bf06-fb81d843e353","system_id":"levelo_inurba_marseille","lat":43.2784,"lon":5.3922,"is_reserved":false,"is_disabled":false,"rental_uris":{"android":"levelo://app?vid=39a54a80-b63c-44b7-bf06-fb81d843e353","ios":"levelo://app?vid=39a54a80-b63c-44b7-bf06-fb81d843e353"},"vehicle_type_id":"4","last_reported":1748509912,"current_range_meters":16800,"station_id":"ce4bhjp2rcd13ifvqga0","pricing_plan_id":"cebpf4jnsgd1na2vs0mg"},{"bike_id":"dbe562a8-5982-4674-8802-fa833cff5d97","system_id":"levelo_inurba_marseille","lat":43.25117,"lon":5.40299,"is_reserved":false,"is_disabled":false,"rental_uris":{"android":"levelo://app?vid=dbe562a8-5982-4674-8802-fa833cff5d97","ios":"levelo://app?vid=dbe562a8-5982-4674-8802-fa833cff5d97"},"vehicle_type_id":"4","last_reported":1748509912,"current_range_meters":16800,"station_id":"ce4bhlh2rcd13ifvqgig","pricing_plan_id":"cebpf4jnsgd1na2vs0mg"},{"bike_id":"0a7f16eb-9750-4725-95c7-5b212b83fba1","system_id":"levelo_inurba_marseille","lat":43.23178,"lon":5.39995,"is_reserved":false,"is_disabled":false,"rental_uris":{"android":"levelo://app?vid=0a7f16eb-9750-4725-95c7-5b212b83fba1","ios":"levelo://app?vid=0a7f16eb-9750-4725-95c7-5b212b83fba1"},"vehicle_type_id":"4","last_reported":1748509912,"current_range_meters":16800,"station_id":"ce4bhn12rcd13ifvqgqg","pricing_plan_id":"cebpf4jnsgd1na2vs0mg"},{"bike_id":"f61b7f73-84e3-4805-a73d-0334d49a8a59","system_id":"levelo_inurba_marseille","lat":43.23185,"lon":5.39993,"is_reserved":false,"is_disabled":false,"rental_uris":{"android":"levelo://app?vid=f61b7f73-84e3-4805-a73d-0334d49a8a59","ios":"levelo://app?vid=f61b7f73-84e3-4805-a73d-0334d49a8a59"},"vehicle_type_id":"4","last_reported":1748509912,"current_range_meters":16800,"station_id":"ce4bhn12rcd13ifvqgqg","pricing_plan_id":"cebpf4jnsgd1na2vs0mg"},{"bike_id":"a68b6451-acaa-4e56-afe1-cacd79381997","system_id":"levelo_inurba_marseille","lat":43.30893,"lon":5.39623,"is_reserved":false,"is_disabled":false,"rental_uris":{"android":"levelo://app?vid=a68b6451-acaa-4e56-afe1-cacd79381997","ios":"levelo://app?vid=a68b6451-acaa-4e56-afe1-cacd79381997"},"vehicle_type_id":"4","last_reported":1748509912,"current_range_meters":17200,"station_id":"ce4bh012rcd13ifvqcv0","pricing_plan_id":"cebpf4jnsgd1na2vs0mg"},{"bike_id":"2c529a87-f4fa-4b63-a305-083d4f17eba4","system_id":"levelo_inurba_marseille","lat":43.29022,"lon":5.3812,"is_reserved":false,"is_disabled":false,"rental_uris":{"android":"levelo://app?vid=2c529a87-f4fa-4b63-a305-083d4f17eba4","ios":"levelo://app?vid=2c529a87-f4fa-4b63-a305-083d4f17eba4"},"vehicle_type_id":"4","last_reported":1748509912,"current_range_meters":17200,"station_id":"ce4bh4p2rcd13ifvqe1g","pricing_plan_id":"cebpf4jnsgd1na2vs0mg"},{"bike_id":"705ac955-ba6f-4890-8a1d-4da7200f94b4","system_id":"levelo_inurba_marseille","lat":43.29005,"lon":5.35613,"is_reserved":false,"is_disabled":false,"rental_uris":{"android":"levelo://app?vid=705ac955-ba6f-4890-8a1d-4da7200f94b4","ios":"levelo://app?vid=705ac955-ba6f-4890-8a1d-4da7200f94b4"},"vehicle_type_id":"4","last_reported":1748509912,"current_range_meters":17200,"station_id":"ce4bhb92rcd13ifvqen0","pricing_plan_id":"cebpf4jnsgd1na2vs0mg"},{"bike_id":"f797899a-4240-40dc-9bc7-4929d7fb6d12","system_id":"levelo_inurba_marseille","lat":43.274113,"lon":5.362346,"is_reserved":false,"is_disabled":false,"rental_uris":{"android":"levelo://app?vid=f797899a-4240-40dc-9bc7-4929d7fb6d12","ios":"levelo://app?vid=f797899a-4240-40dc-9bc7-4929d7fb6d12"},"vehicle_type_id":"4","last_reported":1748509912,"current_range_meters":17200,"station_id":"ce4bhbh2rcd13ifvqeo0","pricing_plan_id":"cebpf4jnsgd1na2vs0mg"},{"bike_id":"cacabf34-2350-47df-8653-d441348292be","system_id":"levelo_inurba_marseille","lat":43.29227,"lon":5.36075,"is_reserved":false,"is_disabled":false,"rental_uris":{"android":"levelo://app?vid=cacabf34-2350-47df-8653-d441348292be","ios":"levelo://app?vid=cacabf34-2350-47df-8653-d441348292be"},"vehicle_type_id":"4","last_reported":1748509912,"current_range_meters":17200,"station_id":"ce4bhbh2rcd13ifvqeqg","pricing_plan_id":"cebpf4jnsgd1na2vs0mg"},{"bike_id":"88ca12ac-6570-4760-b5d7-0b3325462f98","system_id":"levelo_inurba_marseille","lat":43.266799,"lon":5.382603,"is_reserved":false,"is_disabled":false,"rental_uris":{"android":"levelo://app?vid=88ca12ac-6570-4760-b5d7-0b3325462f98","ios":"levelo://app?vid=88ca12ac-6570-4760-b5d7-0b3325462f98"},"vehicle_type_id":"4","last_reported":1748509912,"current_range_meters":17200,"station_id":"ce4bhg92rcd13ifvqf90","pricing_plan_id":"cebpf4jnsgd1na2vs0mg"},{"bike_id":"e852ee92-c69e-4100-84b3-ce543cc0c52c","system_id":"levelo_inurba_marseille","lat":43.24999,"lon":5.38934,"is_reserved":false,"is_disabled":false,"rental_uris":{"android":"levelo://app?vid=e852ee92-c69e-4100-84b3-ce543cc0c52c","ios":"levelo://app?vid=e852ee92-c69e-4100-84b3-ce543cc0c52c"},"vehicle_type_id":"4","last_reported":1748509912,"current_range_meters":17200,"station_id":"ce4bhgp2rcd13ifvqfd0","pricing_plan_id":"cebpf4jnsgd1na2vs0mg"},{"bike_id":"a579da87-abaf-45f0-b1ed-87f0c94a13b5","system_id":"levelo_inurba_marseille","lat":43.255764,"lon":5.382224,"is_reserved":false,"is_disabled":false,"rental_uris":{"android":"levelo://app?vid=a579da87-abaf-45f0-b1ed-87f0c94a13b5","ios":"levelo://app?vid=a579da87-abaf-45f0-b1ed-87f0c94a13b5"},"vehicle_type_id":"4","last_reported":1748509912,"current_range_meters":17200,"station_id":"ce4bhih2rcd13ifvqfs0","pricing_plan_id":"cebpf4jnsgd1na2vs0mg"},{"bike_id":"7efc0559-1e1a-474d-b0fd-b95e710c8259","system_id":"levelo_inurba_marseille","lat":43.33722,"lon":5.39182,"is_reserved":false,"is_disabled":false,"rental_uris":{"android":"levelo://app?vid=7efc0559-1e1a-474d-b0fd-b95e710c8259","ios":"levelo://app?vid=7efc0559-1e1a-474d-b0fd-b95e710c8259"},"vehicle_type_id":"4","last_reported":1748509912,"current_range_meters":17200,"station_id":"ce4bhr92rcd13ifvqhsg","pricing_plan_id":"cebpf4jnsgd1na2vs0mg"},{"bike_id":"7243d7c8-02f5-4392-89cf-8c360e846d55","system_id":"levelo_inurba_marseille","lat":43.25282,"lon":5.37845,"is_reserved":false,"is_disabled":false,"rental_uris":{"android":"levelo://app?vid=7243d7c8-02f5-4392-89cf-8c360e846d55","ios":"levelo://app?vid=7243d7c8-02f5-4392-89cf-8c360e846d55"},"vehicle_type_id":"4","last_reported":1748509912,"current_range_meters":17600,"station_id":"","pricing_plan_id":"cebpf4jnsgd1na2vs0mg"},{"bike_id":"b8370bc8-bc01-4dbb-bad2-d27425e4461b","system_id":"levelo_inurba_marseille","lat":43.33763,"lon":5.37427,"is_reserved":false,"is_disabled":false,"rental_uris":{"android":"levelo://app?vid=b8370bc8-bc01-4dbb-bad2-d27425e4461b","ios":"levelo://app?vid=b8370bc8-bc01-4dbb-bad2-d27425e4461b"},"vehicle_type_id":"4","last_reported":1748509912,"current_range_meters":17600,"station_id":"","pricing_plan_id":"cebpf4jnsgd1na2vs0mg"},{"bike_id":"6449e09c-aa70-4db4-8717-6cdd9456c498","system_id":"levelo_inurba_marseille","lat":43.304713,"lon":5.379085,"is_reserved":false,"is_disabled":false,"rental_uris":{"android":"levelo://app?vid=6449e09c-aa70-4db4-8717-6cdd9456c498","ios":"levelo://app?vid=6449e09c-aa70-4db4-8717-6cdd9456c498"},"vehicle_type_id":"4","last_reported":1748509912,"current_range_meters":17600,"station_id":"ce4bgup2rcd13ifvqcn0","pricing_plan_id":"cebpf4jnsgd1na2vs0mg"},{"bike_id":"f3317a80-848a-4d23-bc47-1bb7287cc3fc","system_id":"levelo_inurba_marseille","lat":43.31163,"lon":5.38715,"is_reserved":false,"is_disabled":false,"rental_uris":{"android":"levelo://app?vid=f3317a80-848a-4d23-bc47-1bb7287cc3fc","ios":"levelo://app?vid=f3317a80-848a-4d23-bc47-1bb7287cc3fc"},"vehicle_type_id":"4","last_reported":1748509912,"current_range_meters":17600,"station_id":"ce4bgv12rcd13ifvqcp0","pricing_plan_id":"cebpf4jnsgd1na2vs0mg"},{"bike_id":"bd424364-9cf2-4bb8-822f-5ad8131fbbde","system_id":"levelo_inurba_marseille","lat":43.309233,"lon":5.40138,"is_reserved":false,"is_disabled":false,"rental_uris":{"android":"levelo://app?vid=bd424364-9cf2-4bb8-822f-5ad8131fbbde","ios":"levelo://app?vid=bd424364-9cf2-4bb8-822f-5ad8131fbbde"},"vehicle_type_id":"4","last_reported":1748509912,"current_range_meters":17600,"station_id":"ce4bgvp2rcd13ifvqct0","pricing_plan_id":"cebpf4jnsgd1na2vs0mg"},{"bike_id":"3ea5ec6a-c866-4385-8011-c3befe1b7de4","system_id":"levelo_inurba_marseille","lat":43.30938,"lon":5.40147,"is_reserved":false,"is_disabled":false,"rental_uris":{"android":"levelo://app?vid=3ea5ec6a-c866-4385-8011-c3befe1b7de4","ios":"levelo://app?vid=3ea5ec6a-c866-4385-8011-c3befe1b7de4"},"vehicle_type_id":"4","last_reported":1748509912,"current_range_meters":17600,"station_id":"ce4bgvp2rcd13ifvqct0","pricing_plan_id":"cebpf4jnsgd1na2vs0mg"},{"bike_id":"28f7df19-ab91-405a-bf6c-a78862fd6279","system_id":"levelo_inurba_marseille","lat":43.30641,"lon":5.40099,"is_reserved":false,"is_disabled":false,"rental_uris":{"android":"levelo://app?vid=28f7df19-ab91-405a-bf6c-a78862fd6279","ios":"levelo://app?vid=28f7df19-ab91-405a-bf6c-a78862fd6279"},"vehicle_type_id":"4","last_reported":1748509912,"current_range_meters":17600,"station_id":"ce4bh112rcd13ifvqda0","pricing_plan_id":"cebpf4jnsgd1na2vs0mg"},{"bike_id":"7e9dec9a-82e3-46ca-8317-97346de89897","system_id":"levelo_inurba_marseille","lat":43.26565,"lon":5.39009,"is_reserved":false,"is_disabled":false,"rental_uris":{"android":"levelo://app?vid=7e9dec9a-82e3-46ca-8317-97346de89897","ios":"levelo://app?vid=7e9dec9a-82e3-46ca-8317-97346de89897"},"vehicle_type_id":"4","last_reported":1748509912,"current_range_meters":17600,"station_id":"ce4bhe12rcd13ifvqf30","pricing_plan_id":"cebpf4jnsgd1na2vs0mg"},{"bike_id":"c4d26474-6266-429e-b3cc-089a07206404","system_id":"levelo_inurba_marseille","lat":43.28221,"lon":5.39044,"is_reserved":false,"is_disabled":false,"rental_uris":{"android":"levelo://app?vid=c4d26474-6266-429e-b3cc-089a07206404","ios":"levelo://app?vid=c4d26474-6266-429e-b3cc-089a07206404"},"vehicle_type_id":"4","last_reported":1748509912,"current_range_meters":18000,"station_id":"","pricing_plan_id":"cebpf4jnsgd1na2vs0mg"},{"bike_id":"9e077e27-33c0-4331-96cc-ce43f93f1c2b","system_id":"levelo_inurba_marseille","lat":43.26731,"lon":5.37213,"is_reserved":false,"is_disabled":false,"rental_uris":{"android":"levelo://app?vid=9e077e27-33c0-4331-96cc-ce43f93f1c2b","ios":"levelo://app?vid=9e077e27-33c0-4331-96cc-ce43f93f1c2b"},"vehicle_type_id":"4","last_reported":1748509912,"current_range_meters":18000,"station_id":"","pricing_plan_id":"cebpf4jnsgd1na2vs0mg"},{"bike_id":"c4d269b0-6adb-4663-af7d-e009424ae037","system_id":"levelo_inurba_marseille","lat":43.29623,"lon":5.37745,"is_reserved":false,"is_disabled":false,"rental_uris":{"android":"levelo://app?vid=c4d269b0-6adb-4663-af7d-e009424ae037","ios":"levelo://app?vid=c4d269b0-6adb-4663-af7d-e009424ae037"},"vehicle_type_id":"4","last_reported":1748509912,"current_range_meters":18000,"station_id":"ce4bgi92rcd13ifvqb90","pricing_plan_id":"cebpf4jnsgd1na2vs0mg"},{"bike_id":"436ce087-3cc3-4fad-be81-97ca645cd502","system_id":"levelo_inurba_marseille","lat":43.29869,"lon":5.36277,"is_reserved":false,"is_disabled":false,"rental_uris":{"android":"levelo://app?vid=436ce087-3cc3-4fad-be81-97ca645cd502","ios":"levelo://app?vid=436ce087-3cc3-4fad-be81-97ca645cd502"},"vehicle_type_id":"4","last_reported":1748509912,"current_range_meters":18000,"station_id":"ce4bgpp2rcd13ifvqc3g","pricing_plan_id":"cebpf4jnsgd1na2vs0mg"},{"bike_id":"708bfde5-fc4a-4cb4-b1e9-18c56ce91c07","system_id":"levelo_inurba_marseille","lat":43.29975,"lon":5.37164,"is_reserved":false,"is_disabled":false,"rental_uris":{"android":"levelo://app?vid=708bfde5-fc4a-4cb4-b1e9-18c56ce91c07","ios":"levelo://app?vid=708bfde5-fc4a-4cb4-b1e9-18c56ce91c07"},"vehicle_type_id":"4","last_reported":1748509912,"current_range_meters":18000,"station_id":"ce4bgr92rcd13ifvqc7g","pricing_plan_id":"cebpf4jnsgd1na2vs0mg"},{"bike_id":"a9d68b97-78f6-4b27-b61f-dac456c7ebb9","system_id":"levelo_inurba_marseille","lat":43.30939,"lon":5.40167,"is_reserved":false,"is_disabled":false,"rental_uris":{"android":"levelo://app?vid=a9d68b97-78f6-4b27-b61f-dac456c7ebb9","ios":"levelo://app?vid=a9d68b97-78f6-4b27-b61f-dac456c7ebb9"},"vehicle_type_id":"4","last_reported":1748509912,"current_range_meters":18000,"station_id":"ce4bgvp2rcd13ifvqct0","pricing_plan_id":"cebpf4jnsgd1na2vs0mg"},{"bike_id":"9d7f5467-8060-4fd8-a149-7bfedb3e803a","system_id":"levelo_inurba_marseille","lat":43.306504,"lon":5.400719,"is_reserved":false,"is_disabled":false,"rental_uris":{"android":"levelo://app?vid=9d7f5467-8060-4fd8-a149-7bfedb3e803a","ios":"levelo://app?vid=9d7f5467-8060-4fd8-a149-7bfedb3e803a"},"vehicle_type_id":"4","last_reported":1748509912,"current_range_meters":18000,"station_id":"ce4bh112rcd13ifvqda0","pricing_plan_id":"cebpf4jnsgd1na2vs0mg"},{"bike_id":"56fd2089-387d-4ad5-bddf-5cb0e4cddab8","system_id":"levelo_inurba_marseille","lat":43.24995,"lon":5.38937,"is_reserved":false,"is_disabled":false,"rental_uris":{"android":"levelo://app?vid=56fd2089-387d-4ad5-bddf-5cb0e4cddab8","ios":"levelo://app?vid=56fd2089-387d-4ad5-bddf-5cb0e4cddab8"},"vehicle_type_id":"4","last_reported":1748509912,"current_range_meters":18000,"station_id":"ce4bhgp2rcd13ifvqfd0","pricing_plan_id":"cebpf4jnsgd1na2vs0mg"},{"bike_id":"d046fc62-3df6-4d7c-8285-bcb2b062ad8e","system_id":"levelo_inurba_marseille","lat":43.23157,"lon":5.43703,"is_reserved":false,"is_disabled":false,"rental_uris":{"android":"levelo://app?vid=d046fc62-3df6-4d7c-8285-bcb2b062ad8e","ios":"levelo://app?vid=d046fc62-3df6-4d7c-8285-bcb2b062ad8e"},"vehicle_type_id":"4","last_reported":1748509912,"current_range_meters":18000,"station_id":"ce4bhmp2rcd13ifvqgog","pricing_plan_id":"cebpf4jnsgd1na2vs0mg"},{"bike_id":"6fa12670-470b-4dc5-8729-02ea2b3c81ab","system_id":"levelo_inurba_marseille","lat":43.231497,"lon":5.4371,"is_reserved":false,"is_disabled":false,"rental_uris":{"android":"levelo://app?vid=6fa12670-470b-4dc5-8729-02ea2b3c81ab","ios":"levelo://app?vid=6fa12670-470b-4dc5-8729-02ea2b3c81ab"},"vehicle_type_id":"4","last_reported":1748509912,"current_range_meters":18000,"station_id":"ce4bhmp2rcd13ifvqgog","pricing_plan_id":"cebpf4jnsgd1na2vs0mg"},{"bike_id":"b9fc76d8-1bdf-48f3-84a2-3e91d9ed74dc","system_id":"levelo_inurba_marseille","lat":43.30797,"lon":5.4352,"is_reserved":false,"is_disabled":false,"rental_uris":{"android":"levelo://app?vid=b9fc76d8-1bdf-48f3-84a2-3e91d9ed74dc","ios":"levelo://app?vid=b9fc76d8-1bdf-48f3-84a2-3e91d9ed74dc"},"vehicle_type_id":"4","last_reported":1748509912,"current_range_meters":18000,"station_id":"ce4bhph2rcd13ifvqheg","pricing_plan_id":"cebpf4jnsgd1na2vs0mg"},{"bike_id":"20c1f52b-3e9f-4f84-8bd4-105c48d7ac5f","system_id":"levelo_inurba_marseille","lat":43.28347,"lon":5.38102,"is_reserved":false,"is_disabled":false,"rental_uris":{"android":"levelo://app?vid=20c1f52b-3e9f-4f84-8bd4-105c48d7ac5f","ios":"levelo://app?vid=20c1f52b-3e9f-4f84-8bd4-105c48d7ac5f"},"vehicle_type_id":"4","last_reported":1748509912,"current_range_meters":18800,"station_id":"ce4bh412rcd13ifvqdr0","pricing_plan_id":"cebpf4jnsgd1na2vs0mg"},{"bike_id":"d6080917-f69b-464c-a617-f0ea60eb386c","system_id":"levelo_inurba_marseille","lat":43.26061,"lon":5.39402,"is_reserved":false,"is_disabled":false,"rental_uris":{"android":"levelo://app?vid=d6080917-f69b-464c-a617-f0ea60eb386c","ios":"levelo://app?vid=d6080917-f69b-464c-a617-f0ea60eb386c"},"vehicle_type_id":"4","last_reported":1748509912,"current_range_meters":18800,"station_id":"ce4bhh92rcd13ifvqfj0","pricing_plan_id":"cebpf4jnsgd1na2vs0mg"},{"bike_id":"502b1051-0bae-4a23-bcbf-a876bfe3288a","system_id":"levelo_inurba_marseille","lat":43.31289,"lon":5.38229,"is_reserved":false,"is_disabled":false,"rental_uris":{"android":"levelo://app?vid=502b1051-0bae-4a23-bcbf-a876bfe3288a","ios":"levelo://app?vid=502b1051-0bae-4a23-bcbf-a876bfe3288a"},"vehicle_type_id":"4","last_reported":1748509912,"current_range_meters":19200,"station_id":"","pricing_plan_id":"cebpf4jnsgd1na2vs0mg"},{"bike_id":"9a063509-03c7-4a54-83c9-3c92f2e81982","system_id":"levelo_inurba_marseille","lat":43.29613,"lon":5.37719,"is_reserved":false,"is_disabled":false,"rental_uris":{"android":"levelo://app?vid=9a063509-03c7-4a54-83c9-3c92f2e81982","ios":"levelo://app?vid=9a063509-03c7-4a54-83c9-3c92f2e81982"},"vehicle_type_id":"4","last_reported":1748509912,"current_range_meters":19200,"station_id":"ce4bgi92rcd13ifvqb90","pricing_plan_id":"cebpf4jnsgd1na2vs0mg"},{"bike_id":"d27ee93f-776e-4f83-9aea-9ac5fbe19ad8","system_id":"levelo_inurba_marseille","lat":43.30175,"lon":5.38067,"is_reserved":false,"is_disabled":false,"rental_uris":{"android":"levelo://app?vid=d27ee93f-776e-4f83-9aea-9ac5fbe19ad8","ios":"levelo://app?vid=d27ee93f-776e-4f83-9aea-9ac5fbe19ad8"},"vehicle_type_id":"4","last_reported":1748509912,"current_range_meters":19200,"station_id":"ce4bgjp2rcd13ifvqbh0","pricing_plan_id":"cebpf4jnsgd1na2vs0mg"},{"bike_id":"7f42f689-302e-4e03-89f5-276078b94abe","system_id":"levelo_inurba_marseille","lat":43.28362,"lon":5.38623,"is_reserved":false,"is_disabled":false,"rental_uris":{"android":"levelo://app?vid=7f42f689-302e-4e03-89f5-276078b94abe","ios":"levelo://app?vid=7f42f689-302e-4e03-89f5-276078b94abe"},"vehicle_type_id":"4","last_reported":1748509912,"current_range_meters":19200,"station_id":"ce4bh492rcd13ifvqdvg","pricing_plan_id":"cebpf4jnsgd1na2vs0mg"},{"bike_id":"8243f1f8-3521-48cb-8a51-1fa59f512280","system_id":"levelo_inurba_marseille","lat":43.280403,"lon":5.369498,"is_reserved":false,"is_disabled":false,"rental_uris":{"android":"levelo://app?vid=8243f1f8-3521-48cb-8a51-1fa59f512280","ios":"levelo://app?vid=8243f1f8-3521-48cb-8a51-1fa59f512280"},"vehicle_type_id":"4","last_reported":1748509912,"current_range_meters":19200,"station_id":"ce4bha12rcd13ifvqef0","pricing_plan_id":"cebpf4jnsgd1na2vs0mg"},{"bike_id":"bc51bfd4-ef6c-4086-b83f-bcb7ddeeae3a","system_id":"levelo_inurba_marseille","lat":43.26569,"lon":5.38992,"is_reserved":false,"is_disabled":false,"rental_uris":{"android":"levelo://app?vid=bc51bfd4-ef6c-4086-b83f-bcb7ddeeae3a","ios":"levelo://app?vid=bc51bfd4-ef6c-4086-b83f-bcb7ddeeae3a"},"vehicle_type_id":"4","last_reported":1748509912,"current_range_meters":19200,"station_id":"ce4bhe12rcd13ifvqf30","pricing_plan_id":"cebpf4jnsgd1na2vs0mg"},{"bike_id":"b2fc495a-2d6a-432e-bd16-83b2da073c4d","system_id":"levelo_inurba_marseille","lat":43.27918,"lon":5.39585,"is_reserved":false,"is_disabled":false,"rental_uris":{"android":"levelo://app?vid=b2fc495a-2d6a-432e-bd16-83b2da073c4d","ios":"levelo://app?vid=b2fc495a-2d6a-432e-bd16-83b2da073c4d"},"vehicle_type_id":"4","last_reported":1748509912,"current_range_meters":19200,"station_id":"ce4bhf92rcd13ifvqf40","pricing_plan_id":"cebpf4jnsgd1na2vs0mg"},{"bike_id":"12fb6655-991b-4561-99ed-737b85e43a99","system_id":"levelo_inurba_marseille","lat":43.30734,"lon":5.42454,"is_reserved":false,"is_disabled":false,"rental_uris":{"android":"levelo://app?vid=12fb6655-991b-4561-99ed-737b85e43a99","ios":"levelo://app?vid=12fb6655-991b-4561-99ed-737b85e43a99"},"vehicle_type_id":"4","last_reported":1748509912,"current_range_meters":19200,"station_id":"st_cvj6ca6bvosntc0bfgr0","pricing_plan_id":"cebpf4jnsgd1na2vs0mg"},{"bike_id":"5aefb386-e416-4906-998c-ff23207edc6c","system_id":"levelo_inurba_marseille","lat":43.217493,"lon":5.34603,"is_reserved":false,"is_disabled":false,"rental_uris":{"android":"levelo://app?vid=5aefb386-e416-4906-998c-ff23207edc6c","ios":"levelo://app?vid=5aefb386-e416-4906-998c-ff23207edc6c"},"vehicle_type_id":"4","last_reported":1748509912,"current_range_meters":19200,"station_id":"st_cvj6r9ubvosntc0bgbag","pricing_plan_id":"cebpf4jnsgd1na2vs0mg"},{"bike_id":"9fe1e697-36ec-421f-b0be-031c2f5ed7f3","system_id":"levelo_inurba_marseille","lat":43.337688,"lon":5.374381,"is_reserved":false,"is_disabled":false,"rental_uris":{"android":"levelo://app?vid=9fe1e697-36ec-421f-b0be-031c2f5ed7f3","ios":"levelo://app?vid=9fe1e697-36ec-421f-b0be-031c2f5ed7f3"},"vehicle_type_id":"4","last_reported":1748509912,"current_range_meters":19600,"station_id":"","pricing_plan_id":"cebpf4jnsgd1na2vs0mg"},{"bike_id":"6ad41f9b-58e2-4568-9a5e-bc6091e58ecf","system_id":"levelo_inurba_marseille","lat":43.30704,"lon":5.4012,"is_reserved":false,"is_disabled":false,"rental_uris":{"android":"levelo://app?vid=6ad41f9b-58e2-4568-9a5e-bc6091e58ecf","ios":"levelo://app?vid=6ad41f9b-58e2-4568-9a5e-bc6091e58ecf"},"vehicle_type_id":"4","last_reported":1748509912,"current_range_meters":19600,"station_id":"","pricing_plan_id":"cebpf4jnsgd1na2vs0mg"},{"bike_id":"38e3dfe5-cac6-478c-904f-d4711ae5926e","system_id":"levelo_inurba_marseille","lat":43.33767,"lon":5.37437,"is_reserved":false,"is_disabled":false,"rental_uris":{"android":"levelo://app?vid=38e3dfe5-cac6-478c-904f-d4711ae5926e","ios":"levelo://app?vid=38e3dfe5-cac6-478c-904f-d4711ae5926e"},"vehicle_type_id":"4","last_reported":1748509912,"current_range_meters":19600,"station_id":"","pricing_plan_id":"cebpf4jnsgd1na2vs0mg"},{"bike_id":"81d4379b-dc8f-49a0-aa12-099c28045505","system_id":"levelo_inurba_marseille","lat":43.30482,"lon":5.37915,"is_reserved":false,"is_disabled":false,"rental_uris":{"android":"levelo://app?vid=81d4379b-dc8f-49a0-aa12-099c28045505","ios":"levelo://app?vid=81d4379b-dc8f-49a0-aa12-099c28045505"},"vehicle_type_id":"4","last_reported":1748509912,"current_range_meters":19600,"station_id":"ce4bgup2rcd13ifvqcn0","pricing_plan_id":"cebpf4jnsgd1na2vs0mg"},{"bike_id":"1985a215-2205-4954-a483-9f9a7db03ef4","system_id":"levelo_inurba_marseille","lat":43.3064,"lon":5.40102,"is_reserved":false,"is_disabled":false,"rental_uris":{"android":"levelo://app?vid=1985a215-2205-4954-a483-9f9a7db03ef4","ios":"levelo://app?vid=1985a215-2205-4954-a483-9f9a7db03ef4"},"vehicle_type_id":"4","last_reported":1748509912,"current_range_meters":19600,"station_id":"ce4bh112rcd13ifvqda0","pricing_plan_id":"cebpf4jnsgd1na2vs0mg"},{"bike_id":"efd3a204-ed3f-4dd1-8a5d-91f021c7279c","system_id":"levelo_inurba_marseille","lat":43.27671,"lon":5.38876,"is_reserved":false,"is_disabled":false,"rental_uris":{"android":"levelo://app?vid=efd3a204-ed3f-4dd1-8a5d-91f021c7279c","ios":"levelo://app?vid=efd3a204-ed3f-4dd1-8a5d-91f021c7279c"},"vehicle_type_id":"4","last_reported":1748509912,"current_range_meters":19600,"station_id":"ce4bhi12rcd13ifvqfo0","pricing_plan_id":"cebpf4jnsgd1na2vs0mg"},{"bike_id":"d4d8c4da-7f17-48b9-b9bb-2bcf9b2f3552","system_id":"levelo_inurba_marseille","lat":43.27999,"lon":5.40016,"is_reserved":false,"is_disabled":false,"rental_uris":{"android":"levelo://app?vid=d4d8c4da-7f17-48b9-b9bb-2bcf9b2f3552","ios":"levelo://app?vid=d4d8c4da-7f17-48b9-b9bb-2bcf9b2f3552"},"vehicle_type_id":"4","last_reported":1748509912,"current_range_meters":19600,"station_id":"ce4bho92rcd13ifvqh4g","pricing_plan_id":"cebpf4jnsgd1na2vs0mg"},{"bike_id":"aac9bfdc-4e9a-477e-b684-02fdb0c182eb","system_id":"levelo_inurba_marseille","lat":43.30354,"lon":5.418789,"is_reserved":false,"is_disabled":false,"rental_uris":{"android":"levelo://app?vid=aac9bfdc-4e9a-477e-b684-02fdb0c182eb","ios":"levelo://app?vid=aac9bfdc-4e9a-477e-b684-02fdb0c182eb"},"vehicle_type_id":"4","last_reported":1748509912,"current_range_meters":19600,"station_id":"ce4bhop2rcd13ifvqh7g","pricing_plan_id":"cebpf4jnsgd1na2vs0mg"},{"bike_id":"2b16ec59-28af-4a8e-b0b8-78447103e707","system_id":"levelo_inurba_marseille","lat":43.232,"lon":5.35542,"is_reserved":false,"is_disabled":false,"rental_uris":{"android":"levelo://app?vid=2b16ec59-28af-4a8e-b0b8-78447103e707","ios":"levelo://app?vid=2b16ec59-28af-4a8e-b0b8-78447103e707"},"vehicle_type_id":"4","last_reported":1748509912,"current_range_meters":19600,"station_id":"ce4bhu92rcd13ifvqi70","pricing_plan_id":"cebpf4jnsgd1na2vs0mg"},{"bike_id":"7dab64f5-8864-4de9-9a50-dbe32057c261","system_id":"levelo_inurba_marseille","lat":43.24134,"lon":5.36407,"is_reserved":false,"is_disabled":false,"rental_uris":{"android":"levelo://app?vid=7dab64f5-8864-4de9-9a50-dbe32057c261","ios":"levelo://app?vid=7dab64f5-8864-4de9-9a50-dbe32057c261"},"vehicle_type_id":"4","last_reported":1748509912,"current_range_meters":19600,"station_id":"cpo36qri1sfpv3e86is0","pricing_plan_id":"cebpf4jnsgd1na2vs0mg"},{"bike_id":"20216ba5-61bf-44de-983d-1d2b80d544f3","system_id":"levelo_inurba_marseille","lat":43.21749,"lon":5.346,"is_reserved":false,"is_disabled":false,"rental_uris":{"android":"levelo://app?vid=20216ba5-61bf-44de-983d-1d2b80d544f3","ios":"levelo://app?vid=20216ba5-61bf-44de-983d-1d2b80d544f3"},"vehicle_type_id":"4","last_reported":1748509912,"current_range_meters":20000,"station_id":"","pricing_plan_id":"cebpf4jnsgd1na2vs0mg"},{"bike_id":"d6d1ada7-d095-4848-a9c7-71d520f6d868","system_id":"levelo_inurba_marseille","lat":43.299666,"lon":5.384894,"is_reserved":false,"is_disabled":false,"rental_uris":{"android":"levelo://app?vid=d6d1ada7-d095-4848-a9c7-71d520f6d868","ios":"levelo://app?vid=d6d1ada7-d095-4848-a9c7-71d520f6d868"},"vehicle_type_id":"4","last_reported":1748509912,"current_range_meters":20000,"station_id":"","pricing_plan_id":"cebpf4jnsgd1na2vs0mg"},{"bike_id":"23f7e236-7f9d-4e14-950a-79845a78206f","system_id":"levelo_inurba_marseille","lat":43.30592,"lon":5.37217,"is_reserved":false,"is_disabled":false,"rental_uris":{"android":"levelo://app?vid=23f7e236-7f9d-4e14-950a-79845a78206f","ios":"levelo://app?vid=23f7e236-7f9d-4e14-950a-79845a78206f"},"vehicle_type_id":"4","last_reported":1748509912,"current_range_meters":20000,"station_id":"ce4bgqh2rcd13ifvqc4g","pricing_plan_id":"cebpf4jnsgd1na2vs0mg"},{"bike_id":"f038d5ea-f100-453b-8bd1-d3fcfb459ef3","system_id":"levelo_inurba_marseille","lat":43.30913,"lon":5.40156,"is_reserved":false,"is_disabled":false,"rental_uris":{"android":"levelo://app?vid=f038d5ea-f100-453b-8bd1-d3fcfb459ef3","ios":"levelo://app?vid=f038d5ea-f100-453b-8bd1-d3fcfb459ef3"},"vehicle_type_id":"4","last_reported":1748509912,"current_range_meters":20000,"station_id":"ce4bgvp2rcd13ifvqct0","pricing_plan_id":"cebpf4jnsgd1na2vs0mg"},{"bike_id":"b4a2e904-aa28-4dbc-a1a3-885b6bccb679","system_id":"levelo_inurba_marseille","lat":43.30872,"lon":5.3963,"is_reserved":false,"is_disabled":false,"rental_uris":{"android":"levelo://app?vid=b4a2e904-aa28-4dbc-a1a3-885b6bccb679","ios":"levelo://app?vid=b4a2e904-aa28-4dbc-a1a3-885b6bccb679"},"vehicle_type_id":"4","last_reported":1748509912,"current_range_meters":20000,"station_id":"ce4bh012rcd13ifvqcv0","pricing_plan_id":"cebpf4jnsgd1na2vs0mg"},{"bike_id":"abbd8cd5-5059-446a-a8b1-6bc7d4f02032","system_id":"levelo_inurba_marseille","lat":43.3037,"lon":5.42484,"is_reserved":false,"is_disabled":false,"rental_uris":{"android":"levelo://app?vid=abbd8cd5-5059-446a-a8b1-6bc7d4f02032","ios":"levelo://app?vid=abbd8cd5-5059-446a-a8b1-6bc7d4f02032"},"vehicle_type_id":"4","last_reported":1748509912,"current_range_meters":20000,"station_id":"ce4bhoh2rcd13ifvqh6g","pricing_plan_id":"cebpf4jnsgd1na2vs0mg"},{"bike_id":"d275a580-9591-4b9f-96d1-df524c51313e","system_id":"levelo_inurba_marseille","lat":43.265564,"lon":5.372855,"is_reserved":false,"is_disabled":false,"rental_uris":{"android":"levelo://app?vid=d275a580-9591-4b9f-96d1-df524c51313e","ios":"levelo://app?vid=d275a580-9591-4b9f-96d1-df524c51313e"},"vehicle_type_id":"4","last_reported":1748509912,"current_range_meters":20400,"station_id":"","pricing_plan_id":"cebpf4jnsgd1na2vs0mg"},{"bike_id":"35a43720-899a-4275-8cc1-9c14891bdab2","system_id":"levelo_inurba_marseille","lat":43.3016,"lon":5.38082,"is_reserved":false,"is_disabled":false,"rental_uris":{"android":"levelo://app?vid=35a43720-899a-4275-8cc1-9c14891bdab2","ios":"levelo://app?vid=35a43720-899a-4275-8cc1-9c14891bdab2"},"vehicle_type_id":"4","last_reported":1748509912,"current_range_meters":20400,"station_id":"ce4bgjp2rcd13ifvqbh0","pricing_plan_id":"cebpf4jnsgd1na2vs0mg"},{"bike_id":"89296f94-30f4-404e-836a-06f6156f54f3","system_id":"levelo_inurba_marseille","lat":43.283687,"lon":5.386323,"is_reserved":false,"is_disabled":false,"rental_uris":{"android":"levelo://app?vid=89296f94-30f4-404e-836a-06f6156f54f3","ios":"levelo://app?vid=89296f94-30f4-404e-836a-06f6156f54f3"},"vehicle_type_id":"4","last_reported":1748509912,"current_range_meters":20400,"station_id":"ce4bh492rcd13ifvqdvg","pricing_plan_id":"cebpf4jnsgd1na2vs0mg"},{"bike_id":"4cb84ee2-e355-4a24-90a2-926ed67dfb9e","system_id":"levelo_inurba_marseille","lat":43.280382,"lon":5.369412,"is_reserved":false,"is_disabled":false,"rental_uris":{"android":"levelo://app?vid=4cb84ee2-e355-4a24-90a2-926ed67dfb9e","ios":"levelo://app?vid=4cb84ee2-e355-4a24-90a2-926ed67dfb9e"},"vehicle_type_id":"4","last_reported":1748509912,"current_range_meters":20400,"station_id":"ce4bha12rcd13ifvqef0","pricing_plan_id":"cebpf4jnsgd1na2vs0mg"},