{"last_updated":1739876865,"ttl":60,"version":"2.2","data":{"bikes":[{"bike_id":"20180640-f675-4906-99f9-54d5f5a2ff07","system_id":"levelo_inurba_marseille","lat":43.27309,"lon":5.39092,"is_reserved":false,"is_disabled":false,"rental_uris":{"android":"levelo://app?vid=20180640-f675-4906-99f9-54d5f5a2ff07","ios":"levelo://app?vid=20180640-f675-4906-99f9-54d5f5a2ff07"},"vehicle_type_id":"4","last_reported":1739876866,"current_range_meters":2000,"station_id":"ce4bhgp2rcd13ifvqfe0","pricing_plan_id":"cebpf4jnsgd1na2vs0mg"},{"bike_id":"ce61429a-686f-445d-80d9-4b10876ed4ef","system_id":"levelo_inurba_marseille","lat":43.337444,"lon":5.374475,"is_reserved":false,"is_disabled":true,"rental_uris":{"android":"levelo://app?vid=ce61429a-686f-445d-80d9-4b10876ed4ef","ios":"levelo://app?vid=ce61429a-686f-445d-80d9-4b10876ed4ef"},"vehicle_type_id":"4","last_reported":1739876866,"current_range_meters":3200,"station_id":"","pricing_plan_id":"cebpf4jnsgd1na2vs0mg"},{"bike_id":"54252a7c-5653-43b2-b4f1-43722b1aa404","system_id":"levelo_inurba_marseille","lat":43.25661,"lon":5.38286,"is_reserved":false,"is_disabled":false,"rental_uris":{"android":"levelo://app?vid=54252a7c-5653-43b2-b4f1-43722b1aa404","ios":"levelo://app?vid=54252a7c-5653-43b2-b4f1-43722b1aa404"},"vehicle_type_id":"4","last_reported":1739876866,"current_range_meters":3200,"station_id":"","pricing_plan_id":"cebpf4jnsgd1na2vs0mg"},{"bike_id":"7f48322b-e85b-4d6f-b5ce-ac24006c3f5a","system_id":"levelo_inurba_marseille","lat":43.29916,"lon":5.37484,"is_reserved":false,"is_disabled":false,"rental_uris":{"android":"levelo://app?vid=7f48322b-e85b-4d6f-b5ce-ac24006c3f5a","ios":"levelo://app?vid=7f48322b-e85b-4d6f-b5ce-ac24006c3f5a"},"vehicle_type_id":"4","last_reported":1739876866,"current_range_meters":3600,"station_id":"","pricing_plan_id":"cebpf4jnsgd1na2vs0mg"},{"bike_id":"c4916927-7d10-4eb6-bf80-df6fa900d439","system_id":"levelo_inurba_marseille","lat":43.29554,"lon":5.42302,"is_reserved":false,"is_disabled":true,"rental_uris":{"android":"levelo://app?vid=c4916927-7d10-4eb6-bf80-df6fa900d439","ios":"levelo://app?vid=c4916927-7d10-4eb6-bf80-df6fa900d439"},"vehicle_type_id":"4","last_reported":1739876866,"current_range_meters":3600,"station_id":"ce4bhph2rcd13ifvqhdg","pricing_plan_id":"cebpf4jnsgd1na2vs0mg"},{"bike_id":"c06aa0e5-9150-47d2-8bae-396b7a393565","system_id":"levelo_inurba_marseille","lat":43.259167,"lon":5.408906,"is_reserved":false,"is_disabled":true,"rental_uris":{"android":"levelo://app?vid=c06aa0e5-9150-47d2-8bae-396b7a393565","ios":"levelo://app?vid=c06aa0e5-9150-47d2-8bae-396b7a393565"},"vehicle_type_id":"4","last_reported":1739876866,"current_range_meters":4000,"station_id":"ce4bhg12rcd13ifvqf60","pricing_plan_id":"cebpf4jnsgd1na2vs0mg"},{"bike_id":"c9931fcd-7612-4dc3-9e2e-475d38316b97","system_id":"levelo_inurba_marseille","lat":43.30804,"lon":5.38171,"is_reserved":false,"is_disabled":false,"rental_uris":{"android":"levelo://app?vid=c9931fcd-7612-4dc3-9e2e-475d38316b97","ios":"levelo://app?vid=c9931fcd-7612-4dc3-9e2e-475d38316b97"},"vehicle_type_id":"4","last_reported":1739876866,"current_range_meters":4000,"station_id":"ce4bgt12rcd13ifvqce0","pricing_plan_id":"cebpf4jnsgd1na2vs0mg"},{"bike_id":"30b2f815-23f7-4d00-b9e6-9eeac6455d15","system_id":"levelo_inurba_marseille","lat":43.31882,"lon":5.4074,"is_reserved":false,"is_disabled":false,"rental_uris":{"android":"levelo://app?vid=30b2f815-23f7-4d00-b9e6-9eeac6455d15","ios":"levelo://app?vid=30b2f815-23f7-4d00-b9e6-9eeac6455d15"},"vehicle_type_id":"4","last_reported":1739876866,"current_range_meters":3600,"station_id":"ce4bhq12rcd13ifvqhig","pricing_plan_id":"cebpf4jnsgd1na2vs0mg"},{"bike_id":"4a3367e9-80cf-447d-ae78-02201a45d005","system_id":"levelo_inurba_marseille","lat":43.33741,"lon":5.3918,"is_reserved":false,"is_disabled":false,"rental_uris":{"android":"levelo://app?vid=4a3367e9-80cf-447d-ae78-02201a45d005","ios":"levelo://app?vid=4a3367e9-80cf-447d-ae78-02201a45d005"},"vehicle_type_id":"4","last_reported":1739876866,"current_range_meters":4400,"station_id":"ce4bhr92rcd13ifvqhsg","pricing_plan_id":"cebpf4jnsgd1na2vs0mg"},{"bike_id":"1d35ae83-3cde-4f52-823c-72bacb62b961","system_id":"levelo_inurba_marseille","lat":43.31729,"lon":5.40433,"is_reserved":false,"is_disabled":false,"rental_uris":{"android":"levelo://app?vid=1d35ae83-3cde-4f52-823c-72bacb62b961","ios":"levelo://app?vid=1d35ae83-3cde-4f52-823c-72bacb62b961"},"vehicle_type_id":"4","last_reported":1739876866,"current_range_meters":4800,"station_id":"ce4bh012rcd13ifvqd00","pricing_plan_id":"cebpf4jnsgd1na2vs0mg"},{"bike_id":"b13d1d41-b0a2-47f8-8e3f-e543a5c00f20","system_id":"levelo_inurba_marseille","lat":43.246643,"lon":5.38162,"is_reserved":false,"is_disabled":false,"rental_uris":{"android":"levelo://app?vid=b13d1d41-b0a2-47f8-8e3f-e543a5c00f20","ios":"levelo://app?vid=b13d1d41-b0a2-47f8-8e3f-e543a5c00f20"},"vehicle_type_id":"4","last_reported":1739876866,"current_range_meters":5600,"station_id":"ce4bhb92rcd13ifvqen0","pricing_plan_id":"cebpf4jnsgd1na2vs0mg"},{"bike_id":"cc7f549f-103f-4991-a61d-c9b3b9582a50","system_id":"levelo_inurba_marseille","lat":43.25419,"lon":5.38256,"is_reserved":false,"is_disabled":false,"rental_uris":{"android":"levelo://app?vid=cc7f549f-103f-4991-a61d-c9b3b9582a50","ios":"levelo://app?vid=cc7f549f-103f-4991-a61d-c9b3b9582a50"},"vehicle_type_id":"4","last_reported":1739876866,"current_range_meters":6000,"station_id":"ce4bhgp2rcd13ifvqfd0","pricing_plan_id":"cebpf4jnsgd1na2vs0mg"},{"bike_id":"99490785-3eeb-4f92-9d91-0ddec27d0873","system_id":"levelo_inurba_marseille","lat":43.24079,"lon":5.37755,"is_reserved":false,"is_disabled":false,"rental_uris":{"android":"levelo://app?vid=99490785-3eeb-4f92-9d91-0ddec27d0873","ios":"levelo://app?vid=99490785-3eeb-4f92-9d91-0ddec27d0873"},"vehicle_type_id":"4","last_reported":1739876866,"current_range_meters":6000,"station_id":"ce4bhnp2rcd13ifvqgvg","pricing_plan_id":"cebpf4jnsgd1na2vs0mg"},{"bike_id":"2b278cf2-594f-4230-8154-882e1df047f2","system_id":"levelo_inurba_marseille","lat":43.24076,"lon":5.37762,"is_reserved":false,"is_disabled":false,"rental_uris":{"android":"levelo://app?vid=2b278cf2-594f-4230-8154-882e1df047f2","ios":"levelo://app?vid=2b278cf2-594f-4230-8154-882e1df047f2"},"vehicle_type_id":"4","last_reported":1739876866,"current_range_meters":6000,"station_id":"ce4bhnp2rcd13ifvqgvg","pricing_plan_id":"cebpf4jnsgd1na2vs0mg"},{"bike_id":"2c0c5268-adfa-446e-998b-c8f413c72d6b","system_id":"levelo_inurba_marseille","lat":43.28422,"lon":5.35049,"is_reserved":false,"is_disabled":true,"rental_uris":{"android":"levelo://app?vid=2c0c5268-adfa-446e-998b-c8f413c72d6b","ios":"levelo://app?vid=2c0c5268-adfa-446e-998b-c8f413c72d6b"},"vehicle_type_id":"4","last_reported":1739876866,"current_range_meters":6000,"station_id":"ce4bhbh2rcd13ifvqepg","pricing_plan_id":"cebpf4jnsgd1na2vs0mg"},{"bike_id":"63462e69-c89f-4c0c-b93d-30429a206939","system_id":"levelo_inurba_marseille","lat":43.286122,"lon":5.37067,"is_reserved":false,"is_disabled":false,"rental_uris":{"android":"levelo://app?vid=63462e69-c89f-4c0c-b93d-30429a206939","ios":"levelo://app?vid=63462e69-c89f-4c0c-b93d-30429a206939"},"vehicle_type_id":"4","last_reported":1739876866,"current_range_meters":6000,"station_id":"ce4bgh92rcd13ifvqb50","pricing_plan_id":"cebpf4jnsgd1na2vs0mg"},{"bike_id":"dcc5e4d0-d8bc-44ba-96bd-c2009e98dea4","system_id":"levelo_inurba_marseille","lat":43.25929,"lon":5.409,"is_reserved":false,"is_disabled":false,"rental_uris":{"android":"levelo://app?vid=dcc5e4d0-d8bc-44ba-96bd-c2009e98dea4","ios":"levelo://app?vid=dcc5e4d0-d8bc-44ba-96bd-c2009e98dea4"},"vehicle_type_id":"4","last_reported":1739876866,"current_range_meters":6400,"station_id":"ce4bhm92rcd13ifvqglg","pricing_plan_id":"cebpf4jnsgd1na2vs0mg"},{"bike_id":"2e5e89c3-0e0e-4cca-b25a-7707cb6d7c5d","system_id":"levelo_inurba_marseille","lat":43.2766,"lon":5.40845,"is_reserved":false,"is_disabled":false,"rental_uris":{"android":"levelo://app?vid=2e5e89c3-0e0e-4cca-b25a-7707cb6d7c5d","ios":"levelo://app?vid=2e5e89c3-0e0e-4cca-b25a-7707cb6d7c5d"},"vehicle_type_id":"4","last_reported":1739876866,"current_range_meters":6800,"station_id":"","pricing_plan_id":"cebpf4jnsgd1na2vs0mg"},{"bike_id":"3d44f9a9-8470-4c01-974a-625407d54e20","system_id":"levelo_inurba_marseille","lat":43.32478,"lon":5.36594,"is_reserved":false,"is_disabled":false,"rental_uris":{"android":"levelo://app?vid=3d44f9a9-8470-4c01-974a-625407d54e20","ios":"levelo://app?vid=3d44f9a9-8470-4c01-974a-625407d54e20"},"vehicle_type_id":"4","last_reported":1739876866,"current_range_meters":6800,"station_id":"ce4bhs12rcd13ifvqhvg","pricing_plan_id":"cebpf4jnsgd1na2vs0mg"},{"bike_id":"082899f2-db62-443b-9d51-62d93188a678","system_id":"levelo_inurba_marseille","lat":43.27212,"lon":5.40995,"is_reserved":false,"is_disabled":false,"rental_uris":{"android":"levelo://app?vid=082899f2-db62-443b-9d51-62d93188a678","ios":"levelo://app?vid=082899f2-db62-443b-9d51-62d93188a678"},"vehicle_type_id":"4","last_reported":1739876866,"current_range_meters":6800,"station_id":"ce4bhl12rcd13ifvqgf0","pricing_plan_id":"cebpf4jnsgd1na2vs0mg"},{"bike_id":"d0d573ca-79fe-49df-a687-0887b27539d7","system_id":"levelo_inurba_marseille","lat":43.28611,"lon":5.37066,"is_reserved":false,"is_disabled":false,"rental_uris":{"android":"levelo://app?vid=d0d573ca-79fe-49df-a687-0887b27539d7","ios":"levelo://app?vid=d0d573ca-79fe-49df-a687-0887b27539d7"},"vehicle_type_id":"4","last_reported":1739876866,"current_range_meters":6800,"station_id":"ce4bht12rcd13ifvqi60","pricing_plan_id":"cebpf4jnsgd1na2vs0mg"},{"bike_id":"6f2b3b15-b81d-4b23-9ad9-b54cf1f9c8fc","system_id":"levelo_inurba_marseille","lat":43.32542,"lon":5.41449,"is_reserved":false,"is_disabled":false,"rental_uris":{"android":"levelo://app?vid=6f2b3b15-b81d-4b23-9ad9-b54cf1f9c8fc","ios":"levelo://app?vid=6f2b3b15-b81d-4b23-9ad9-b54cf1f9c8fc"},"vehicle_type_id":"4","last_reported":1739876866,"current_range_meters":6800,"station_id":"ce4bhq12rcd13ifvqhhg","pricing_plan_id":"cebpf4jnsgd1na2vs0mg"},{"bike_id":"430110be-e494-4d47-88fd-fb2b33b394ee","system_id":"levelo_inurba_marseille","lat":43.33026,"lon":5.3905,"is_reserved":false,"is_disabled":false,"rental_uris":{"android":"levelo://app?vid=430110be-e494-4d47-88fd-fb2b33b394ee","ios":"levelo://app?vid=430110be-e494-4d47-88fd-fb2b33b394ee"},"vehicle_type_id":"4","last_reported":1739876866,"current_range_meters":7200,"station_id":"ce4bhr92rcd13ifvqhrg","pricing_plan_id":"cebpf4jnsgd1na2vs0mg"},{"bike_id":"1441ab16-218e-4d90-b3a7-621633692bd3","system_id":"levelo_inurba_marseille","lat":43.25719,"lon":5.41122,"is_reserved":false,"is_disabled":false,"rental_uris":{"android":"levelo://app?vid=1441ab16-218e-4d90-b3a7-621633692bd3","ios":"levelo://app?vid=1441ab16-218e-4d90-b3a7-621633692bd3"},"vehicle_type_id":"4","last_reported":1739876866,"current_range_meters":7200,"station_id":"ce4bhkp2rcd13ifvqgd0","pricing_plan_id":"cebpf4jnsgd1na2vs0mg"},{"bike_id":"34dc1391-a256-4af0-b6fe-18383869ac9a","system_id":"levelo_inurba_marseille","lat":43.24067,"lon":5.37753,"is_reserved":false,"is_disabled":false,"rental_uris":{"android":"levelo://app?vid=34dc1391-a256-4af0-b6fe-18383869ac9a","ios":"levelo://app?vid=34dc1391-a256-4af0-b6fe-18383869ac9a"},"vehicle_type_id":"4","last_reported":1739876866,"current_range_meters":7200,"station_id":"","pricing_plan_id":"cebpf4jnsgd1na2vs0mg"},{"bike_id":"eb7d5e6f-0be1-4682-bd84-b273f00dc3e1","system_id":"levelo_inurba_marseille","lat":43.2978,"lon":5.39349,"is_reserved":false,"is_disabled":false,"rental_uris":{"android":"levelo://app?vid=eb7d5e6f-0be1-4682-bd84-b273f00dc3e1","ios":"levelo://app?vid=eb7d5e6f-0be1-4682-bd84-b273f00dc3e1"},"vehicle_type_id":"4","last_reported":1739876866,"current_range_meters":7200,"station_id":"chh1huq6cuj3fo74tm60","pricing_plan_id":"cebpf4jnsgd1na2vs0mg"},{"bike_id":"8dbe617a-73bb-43b1-955a-f0b57c2f6fa2","system_id":"levelo_inurba_marseille","lat":43.27375,"lon":5.36251,"is_reserved":false,"is_disabled":false,"rental_uris":{"android":"levelo://app?vid=8dbe617a-73bb-43b1-955a-f0b57c2f6fa2","ios":"levelo://app?vid=8dbe617a-73bb-43b1-955a-f0b57c2f6fa2"},"vehicle_type_id":"4","last_reported":1739876866,"current_range_meters":7200,"station_id":"ce4bhbh2rcd13ifvqeo0","pricing_plan_id":"cebpf4jnsgd1na2vs0mg"},{"bike_id":"98dafedc-f25b-409d-b3e2-803b47ffb900","system_id":"levelo_inurba_marseille","lat":43.24493,"lon":5.37255,"is_reserved":false,"is_disabled":false,"rental_uris":{"android":"levelo://app?vid=98dafedc-f25b-409d-b3e2-803b47ffb900","ios":"levelo://app?vid=98dafedc-f25b-409d-b3e2-803b47ffb900"},"vehicle_type_id":"4","last_reported":1739876866,"current_range_meters":7200,"station_id":"","pricing_plan_id":"cebpf4jnsgd1na2vs0mg"},{"bike_id":"dae01438-fca8-4b04-aeee-005f5b496866","system_id":"levelo_inurba_marseille","lat":43.26562,"lon":5.39035,"is_reserved":false,"is_disabled":false,"rental_uris":{"android":"levelo://app?vid=dae01438-fca8-4b04-aeee-005f5b496866","ios":"levelo://app?vid=dae01438-fca8-4b04-aeee-005f5b496866"},"vehicle_type_id":"4","last_reported":1739876866,"current_range_meters":7200,"station_id":"ce4bhe12rcd13ifvqf30","pricing_plan_id":"cebpf4jnsgd1na2vs0mg"},{"bike_id":"55eb0a7c-6b29-484f-b637-0634ae3a25c8","system_id":"levelo_inurba_marseille","lat":43.25928,"lon":5.40911,"is_reserved":false,"is_disabled":false,"rental_uris":{"android":"levelo://app?vid=55eb0a7c-6b29-484f-b637-0634ae3a25c8","ios":"levelo://app?vid=55eb0a7c-6b29-484f-b637-0634ae3a25c8"},"vehicle_type_id":"4","last_reported":1739876866,"current_range_meters":8000,"station_id":"","pricing_plan_id":"cebpf4jnsgd1na2vs0mg"},{"bike_id":"295da5ad-660b-4a48-a3ce-a4101217ce33","system_id":"levelo_inurba_marseille","lat":43.28702,"lon":5.39994,"is_reserved":false,"is_disabled":false,"rental_uris":{"android":"levelo://app?vid=295da5ad-660b-4a48-a3ce-a4101217ce33","ios":"levelo://app?vid=295da5ad-660b-4a48-a3ce-a4101217ce33"},"vehicle_type_id":"4","last_reported":1739876866,"current_range_meters":8000,"station_id":"ce4bho92rcd13ifvqh3g","pricing_plan_id":"cebpf4jnsgd1na2vs0mg"},{"bike_id":"2fc51c18-93da-4c7a-ae54-30bc1bf5f64d","system_id":"levelo_inurba_marseille","lat":43.2951,"lon":5.38198,"is_reserved":false,"is_disabled":true,"rental_uris":{"android":"levelo://app?vid=2fc51c18-93da-4c7a-ae54-30bc1bf5f64d","ios":"levelo://app?vid=2fc51c18-93da-4c7a-ae54-30bc1bf5f64d"},"vehicle_type_id":"4","last_reported":1739876866,"current_range_meters":8000,"station_id":"","pricing_plan_id":"cebpf4jnsgd1na2vs0mg"},{"bike_id":"f8d38eda-134a-4704-b086-f2e5ea02139b","system_id":"levelo_inurba_marseille","lat":43.28271,"lon":5.35071,"is_reserved":false,"is_disabled":false,"rental_uris":{"android":"levelo://app?vid=f8d38eda-134a-4704-b086-f2e5ea02139b","ios":"levelo://app?vid=f8d38eda-134a-4704-b086-f2e5ea02139b"},"vehicle_type_id":"4","last_reported":1739876866,"current_range_meters":8400,"station_id":"ce4bhbp2rcd13ifvqerg","pricing_plan_id":"cebpf4jnsgd1na2vs0mg"},{"bike_id":"811901b7-6a39-4b98-9209-f363e05c2482","system_id":"levelo_inurba_marseille","lat":43.28145,"lon":5.42632,"is_reserved":false,"is_disabled":false,"rental_uris":{"android":"levelo://app?vid=811901b7-6a39-4b98-9209-f363e05c2482","ios":"levelo://app?vid=811901b7-6a39-4b98-9209-f363e05c2482"},"vehicle_type_id":"4","last_reported":1739876866,"current_range_meters":8400,"station_id":"ce4bhnh2rcd13ifvqgug","pricing_plan_id":"cebpf4jnsgd1na2vs0mg"},{"bike_id":"a0dfaaa5-2564-40a0-a720-c6022c8dbdf6","system_id":"levelo_inurba_marseille","lat":43.25502,"lon":5.37663,"is_reserved":false,"is_disabled":false,"rental_uris":{"android":"levelo://app?vid=a0dfaaa5-2564-40a0-a720-c6022c8dbdf6","ios":"levelo://app?vid=a0dfaaa5-2564-40a0-a720-c6022c8dbdf6"},"vehicle_type_id":"4","last_reported":1739876866,"current_range_meters":8400,"station_id":"ce4bhh12rcd13ifvqff0","pricing_plan_id":"cebpf4jnsgd1na2vs0mg"},{"bike_id":"fc845bda-55fc-4ed9-aaa1-44aac36b8c90","system_id":"levelo_inurba_marseille","lat":43.2315,"lon":5.43712,"is_reserved":false,"is_disabled":false,"rental_uris":{"android":"levelo://app?vid=fc845bda-55fc-4ed9-aaa1-44aac36b8c90","ios":"levelo://app?vid=fc845bda-55fc-4ed9-aaa1-44aac36b8c90"},"vehicle_type_id":"4","last_reported":1739876866,"current_range_meters":8400,"station_id":"ce4bhmp2rcd13ifvqgog","pricing_plan_id":"cebpf4jnsgd1na2vs0mg"},{"bike_id":"8edd2fd8-1293-41ee-8d6f-3b2f2b027eab","system_id":"levelo_inurba_marseille","lat":43.24991,"lon":5.38943,"is_reserved":false,"is_disabled":false,"rental_uris":{"android":"levelo://app?vid=8edd2fd8-1293-41ee-8d6f-3b2f2b027eab","ios":"levelo://app?vid=8edd2fd8-1293-41ee-8d6f-3b2f2b027eab"},"vehicle_type_id":"4","last_reported":1739876866,"current_range_meters":8800,"station_id":"","pricing_plan_id":"cebpf4jnsgd1na2vs0mg"},{"bike_id":"225186b2-7d03-4410-8fb4-b3f2916f0d8f","system_id":"levelo_inurba_marseille","lat":43.29783,"lon":5.39338,"is_reserved":false,"is_disabled":false,"rental_uris":{"android":"levelo://app?vid=225186b2-7d03-4410-8fb4-b3f2916f0d8f","ios":"levelo://app?vid=225186b2-7d03-4410-8fb4-b3f2916f0d8f"},"vehicle_type_id":"4","last_reported":1739876866,"current_range_meters":8800,"station_id":"","pricing_plan_id":"cebpf4jnsgd1na2vs0mg"},{"bike_id":"020f9db3-6048-4a83-8c59-4acc533112c8","system_id":"levelo_inurba_marseille","lat":43.28141,"lon":5.42651,"is_reserved":false,"is_disabled":false,"rental_uris":{"android":"levelo://app?vid=020f9db3-6048-4a83-8c59-4acc533112c8","ios":"levelo://app?vid=020f9db3-6048-4a83-8c59-4acc533112c8"},"vehicle_type_id":"4","last_reported":1739876866,"current_range_meters":8800,"station_id":"ce4bhnh2rcd13ifvqgug","pricing_plan_id":"cebpf4jnsgd1na2vs0mg"},{"bike_id":"09422706-260c-418a-99b8-1ddb29f4039b","system_id":"levelo_inurba_marseille","lat":43.28725,"lon":5.37943,"is_reserved":false,"is_disabled":false,"rental_uris":{"android":"levelo://app?vid=09422706-260c-418a-99b8-1ddb29f4039b","ios":"levelo://app?vid=09422706-260c-418a-99b8-1ddb29f4039b"},"vehicle_type_id":"4","last_reported":1739876866,"current_range_meters":8400,"station_id":"ce4bh9p2rcd13ifvqec0","pricing_plan_id":"cebpf4jnsgd1na2vs0mg"},{"bike_id":"43968d8d-325b-4276-895b-4f5ff8db3dab","system_id":"levelo_inurba_marseille","lat":43.30875,"lon":5.39645,"is_reserved":false,"is_disabled":false,"rental_uris":{"android":"levelo://app?vid=43968d8d-325b-4276-895b-4f5ff8db3dab","ios":"levelo://app?vid=43968d8d-325b-4276-895b-4f5ff8db3dab"},"vehicle_type_id":"4","last_reported":1739876866,"current_range_meters":9200,"station_id":"ce4bh012rcd13ifvqcv0","pricing_plan_id":"cebpf4jnsgd1na2vs0mg"},{"bike_id":"6528e792-6c2b-41ab-b102-37d30001a0e7","system_id":"levelo_inurba_marseille","lat":43.27237,"lon":5.40056,"is_reserved":false,"is_disabled":false,"rental_uris":{"android":"levelo://app?vid=6528e792-6c2b-41ab-b102-37d30001a0e7","ios":"levelo://app?vid=6528e792-6c2b-41ab-b102-37d30001a0e7"},"vehicle_type_id":"4","last_reported":1739876866,"current_range_meters":9200,"station_id":"","pricing_plan_id":"cebpf4jnsgd1na2vs0mg"},{"bike_id":"d0b80e7e-1b91-4b9a-b338-8f75dee4790a","system_id":"levelo_inurba_marseille","lat":43.25862,"lon":5.39908,"is_reserved":false,"is_disabled":false,"rental_uris":{"android":"levelo://app?vid=d0b80e7e-1b91-4b9a-b338-8f75dee4790a","ios":"levelo://app?vid=d0b80e7e-1b91-4b9a-b338-8f75dee4790a"},"vehicle_type_id":"4","last_reported":1739876866,"current_range_meters":9200,"station_id":"ce4bhl92rcd13ifvqghg","pricing_plan_id":"cebpf4jnsgd1na2vs0mg"},{"bike_id":"09625a22-d446-4e59-8267-015f8bb79d9d","system_id":"levelo_inurba_marseille","lat":43.24084,"lon":5.37793,"is_reserved":false,"is_disabled":false,"rental_uris":{"android":"levelo://app?vid=09625a22-d446-4e59-8267-015f8bb79d9d","ios":"levelo://app?vid=09625a22-d446-4e59-8267-015f8bb79d9d"},"vehicle_type_id":"4","last_reported":1739876866,"current_range_meters":9200,"station_id":"ce4bhnp2rcd13ifvqgvg","pricing_plan_id":"cebpf4jnsgd1na2vs0mg"},{"bike_id":"6bb7ac37-d16c-4a25-b6eb-1bf8ca1b78d5","system_id":"levelo_inurba_marseille","lat":43.32543,"lon":5.41463,"is_reserved":false,"is_disabled":false,"rental_uris":{"android":"levelo://app?vid=6bb7ac37-d16c-4a25-b6eb-1bf8ca1b78d5","ios":"levelo://app?vid=6bb7ac37-d16c-4a25-b6eb-1bf8ca1b78d5"},"vehicle_type_id":"4","last_reported":1739876866,"current_range_meters":9200,"station_id":"ce4bhq12rcd13ifvqhhg","pricing_plan_id":"cebpf4jnsgd1na2vs0mg"},{"bike_id":"2fa7caa2-4d89-4383-babd-96f44fa588f6","system_id":"levelo_inurba_marseille","lat":43.23145,"lon":5.43726,"is_reserved":false,"is_disabled":false,"rental_uris":{"android":"levelo://app?vid=2fa7caa2-4d89-4383-babd-96f44fa588f6","ios":"levelo://app?vid=2fa7caa2-4d89-4383-babd-96f44fa588f6"},"vehicle_type_id":"4","last_reported":1739876866,"current_range_meters":9200,"station_id":"ce4bhmp2rcd13ifvqgog","pricing_plan_id":"cebpf4jnsgd1na2vs0mg"},{"bike_id":"da0cf2bf-9624-4099-9708-b5eb2a0008db","system_id":"levelo_inurba_marseille","lat":43.26569,"lon":5.39019,"is_reserved":false,"is_disabled":false,"rental_uris":{"android":"levelo://app?vid=da0cf2bf-9624-4099-9708-b5eb2a0008db","ios":"levelo://app?vid=da0cf2bf-9624-4099-9708-b5eb2a0008db"},"vehicle_type_id":"4","last_reported":1739876866,"current_range_meters":9200,"station_id":"ce4bhe12rcd13ifvqf30","pricing_plan_id":"cebpf4jnsgd1na2vs0mg"},{"bike_id":"43e58a6d-2a17-41bb-bd75-661bed22a62b","system_id":"levelo_inurba_marseille","lat":43.31185,"lon":5.3871,"is_reserved":false,"is_disabled":false,"rental_uris":{"android":"levelo://app?vid=43e58a6d-2a17-41bb-bd75-661bed22a62b","ios":"levelo://app?vid=43e58a6d-2a17-41bb-bd75-661bed22a62b"},"vehicle_type_id":"4","last_reported":1739876866,"current_range_meters":9600,"station_id":"","pricing_plan_id":"cebpf4jnsgd1na2vs0mg"},{"bike_id":"fc9896ce-1f52-403c-86a7-1678079c9523","system_id":"levelo_inurba_marseille","lat":43.28173,"lon":5.44249,"is_reserved":false,"is_disabled":false,"rental_uris":{"android":"levelo://app?vid=fc9896ce-1f52-403c-86a7-1678079c9523","ios":"levelo://app?vid=fc9896ce-1f52-403c-86a7-1678079c9523"},"vehicle_type_id":"4","last_reported":1739876866,"current_range_meters":9600,"station_id":"","pricing_plan_id":"cebpf4jnsgd1na2vs0mg"},{"bike_id":"41233ec6-b536-4f2a-9c0a-dae30765f415","system_id":"levelo_inurba_marseille","lat":43.30555,"lon":5.36525,"is_reserved":false,"is_disabled":false,"rental_uris":{"android":"levelo://app?vid=41233ec6-b536-4f2a-9c0a-dae30765f415","ios":"levelo://app?vid=41233ec6-b536-4f2a-9c0a-dae30765f415"},"vehicle_type_id":"4","last_reported":1739876866,"current_range_meters":9600,"station_id":"ce4bgs12rcd13ifvqcag","pricing_plan_id":"cebpf4jnsgd1na2vs0mg"},{"bike_id":"26a90b3b-2366-45f4-8aa6-34daff20b2c3","system_id":"levelo_inurba_marseille","lat":43.23337,"lon":5.40305,"is_reserved":false,"is_disabled":false,"rental_uris":{"android":"levelo://app?vid=26a90b3b-2366-45f4-8aa6-34daff20b2c3","ios":"levelo://app?vid=26a90b3b-2366-45f4-8aa6-34daff20b2c3"},"vehicle_type_id":"4","last_reported":1739876866,"current_range_meters":10000,"station_id":"","pricing_plan_id":"cebpf4jnsgd1na2vs0mg"},{"bike_id":"8018eb22-ba1a-4d62-877d-b0737c61e859","system_id":"levelo_inurba_marseille","lat":43.255817,"lon":5.38221,"is_reserved":false,"is_disabled":true,"rental_uris":{"android":"levelo://app?vid=8018eb22-ba1a-4d62-877d-b0737c61e859","ios":"levelo://app?vid=8018eb22-ba1a-4d62-877d-b0737c61e859"},"vehicle_type_id":"4","last_reported":1739876866,"current_range_meters":10000,"station_id":"","pricing_plan_id":"cebpf4jnsgd1na2vs0mg"},{"bike_id":"b767874d-9791-4a28-ab5b-0f02c0b46b47","system_id":"levelo_inurba_marseille","lat":43.29295,"lon":5.37449,"is_reserved":false,"is_disabled":false,"rental_uris":{"android":"levelo://app?vid=b767874d-9791-4a28-ab5b-0f02c0b46b47","ios":"levelo://app?vid=b767874d-9791-4a28-ab5b-0f02c0b46b47"},"vehicle_type_id":"4","last_reported":1739876866,"current_range_meters":10000,"station_id":"ce4bgi12rcd13ifvqb70","pricing_plan_id":"cebpf4jnsgd1na2vs0mg"},{"bike_id":"9084f880-c05c-41d9-962e-1ab7add2848e","system_id":"levelo_inurba_marseille","lat":43.24074,"lon":5.37764,"is_reserved":false,"is_disabled":false,"rental_uris":{"android":"levelo://app?vid=9084f880-c05c-41d9-962e-1ab7add2848e","ios":"levelo://app?vid=9084f880-c05c-41d9-962e-1ab7add2848e"},"vehicle_type_id":"4","last_reported":1739876866,"current_range_meters":10000,"station_id":"ce4bhnp2rcd13ifvqgvg","pricing_plan_id":"cebpf4jnsgd1na2vs0mg"},{"bike_id":"dff80c05-530e-44be-b08c-c92f1dbffff0","system_id":"levelo_inurba_marseille","lat":43.28278,"lon":5.350648,"is_reserved":false,"is_disabled":false,"rental_uris":{"android":"levelo://app?vid=dff80c05-530e-44be-b08c-c92f1dbffff0","ios":"levelo://app?vid=dff80c05-530e-44be-b08c-c92f1dbffff0"},"vehicle_type_id":"4","last_reported":1739876866,"current_range_meters":10800,"station_id":"","pricing_plan_id":"cebpf4jnsgd1na2vs0mg"},{"bike_id":"8c59ab94-f20d-4081-8ac1-5f2160d93892","system_id":"levelo_inurba_marseille","lat":43.30521,"lon":5.36729,"is_reserved":false,"is_disabled":false,"rental_uris":{"android":"levelo://app?vid=8c59ab94-f20d-4081-8ac1-5f2160d93892","ios":"levelo://app?vid=8c59ab94-f20d-4081-8ac1-5f2160d93892"},"vehicle_type_id":"4","last_reported":1739876866,"current_range_meters":10800,"station_id":"ce4bgrp2rcd13ifvqc9g","pricing_plan_id":"cebpf4jnsgd1na2vs0mg"},{"bike_id":"7e1bcd16-719a-4da9-aa93-fa68923adaea","system_id":"levelo_inurba_marseille","lat":43.24074,"lon":5.37755,"is_reserved":false,"is_disabled":false,"rental_uris":{"android":"levelo://app?vid=7e1bcd16-719a-4da9-aa93-fa68923adaea","ios":"levelo://app?vid=7e1bcd16-719a-4da9-aa93-fa68923adaea"},"vehicle_type_id":"4","last_reported":1739876866,"current_range_meters":10800,"station_id":"ce4bhnp2rcd13ifvqgvg","pricing_plan_id":"cebpf4jnsgd1na2vs0mg"},{"bike_id":"c6d403ef-af42-41ae-9312-3a948449b260","system_id":"levelo_inurba_marseille","lat":43.27615,"lon":5.36102,"is_reserved":false,"is_disabled":false,"rental_uris":{"android":"levelo://app?vid=c6d403ef-af42-41ae-9312-3a948449b260","ios":"levelo://app?vid=c6d403ef-af42-41ae-9312-3a948449b260"},"vehicle_type_id":"4","last_reported":1739876866,"current_range_meters":10800,"station_id":"ce4bgj92rcd13ifvqbe0","pricing_plan_id":"cebpf4jnsgd1na2vs0mg"},{"bike_id":"0325a84d-c767-4c42-98f1-6fce32db1291","system_id":"levelo_inurba_marseille","lat":43.29421,"lon":5.3861,"is_reserved":false,"is_disabled":false,"rental_uris":{"android":"levelo://app?vid=0325a84d-c767-4c42-98f1-6fce32db1291","ios":"levelo://app?vid=0325a84d-c767-4c42-98f1-6fce32db1291"},"vehicle_type_id":"4","last_reported":1739876866,"current_range_meters":11200,"station_id":"ce4bh2h2rcd13ifvqdh0","pricing_plan_id":"cebpf4jnsgd1na2vs0mg"},{"bike_id":"e57f9313-8443-49d5-820a-e3f0c205b6f2","system_id":"levelo_inurba_marseille","lat":43.24069,"lon":5.37753,"is_reserved":false,"is_disabled":false,"rental_uris":{"android":"levelo://app?vid=e57f9313-8443-49d5-820a-e3f0c205b6f2","ios":"levelo://app?vid=e57f9313-8443-49d5-820a-e3f0c205b6f2"},"vehicle_type_id":"4","last_reported":1739876866,"current_range_meters":11200,"station_id":"","pricing_plan_id":"cebpf4jnsgd1na2vs0mg"},{"bike_id":"fdb503a3-2e80-46d4-a06e-02879c7fb101","system_id":"levelo_inurba_marseille","lat":43.29524,"lon":5.38548,"is_reserved":false,"is_disabled":false,"rental_uris":{"android":"levelo://app?vid=fdb503a3-2e80-46d4-a06e-02879c7fb101","ios":"levelo://app?vid=fdb503a3-2e80-46d4-a06e-02879c7fb101"},"vehicle_type_id":"4","last_reported":1739876866,"current_range_meters":11200,"station_id":"ce4bhsp2rcd13ifvqi50","pricing_plan_id":"cebpf4jnsgd1na2vs0mg"},{"bike_id":"b4f7951e-a8d9-4f42-b03f-b06ba82daa83","system_id":"levelo_inurba_marseille","lat":43.27185,"lon":5.41023,"is_reserved":false,"is_disabled":false,"rental_uris":{"android":"levelo://app?vid=b4f7951e-a8d9-4f42-b03f-b06ba82daa83","ios":"levelo://app?vid=b4f7951e-a8d9-4f42-b03f-b06ba82daa83"},"vehicle_type_id":"4","last_reported":1739876866,"current_range_meters":11600,"station_id":"ce4bhl12rcd13ifvqgf0","pricing_plan_id":"cebpf4jnsgd1na2vs0mg"},{"bike_id":"973e049c-dcf2-423e-8b16-09a380448d51","system_id":"levelo_inurba_marseille","lat":43.28935,"lon":5.36643,"is_reserved":false,"is_disabled":false,"rental_uris":{"android":"levelo://app?vid=973e049c-dcf2-423e-8b16-09a380448d51","ios":"levelo://app?vid=973e049c-dcf2-423e-8b16-09a380448d51"},"vehicle_type_id":"4","last_reported":1739876866,"current_range_meters":12000,"station_id":"ce4bhap2rcd13ifvqek0","pricing_plan_id":"cebpf4jnsgd1na2vs0mg"},{"bike_id":"cb8372d6-bad2-4555-89ad-5b495afb0b59","system_id":"levelo_inurba_marseille","lat":43.24822,"lon":5.37459,"is_reserved":false,"is_disabled":false,"rental_uris":{"android":"levelo://app?vid=cb8372d6-bad2-4555-89ad-5b495afb0b59","ios":"levelo://app?vid=cb8372d6-bad2-4555-89ad-5b495afb0b59"},"vehicle_type_id":"4","last_reported":1739876866,"current_range_meters":12000,"station_id":"ce4bhgh2rcd13ifvqfb0","pricing_plan_id":"cebpf4jnsgd1na2vs0mg"},{"bike_id":"3eccfc18-51b1-4a32-9f00-dbe2668c8e61","system_id":"levelo_inurba_marseille","lat":43.3248,"lon":5.36577,"is_reserved":false,"is_disabled":false,"rental_uris":{"android":"levelo://app?vid=3eccfc18-51b1-4a32-9f00-dbe2668c8e61","ios":"levelo://app?vid=3eccfc18-51b1-4a32-9f00-dbe2668c8e61"},"vehicle_type_id":"4","last_reported":1739876866,"current_range_meters":12000,"station_id":"ce4bhs12rcd13ifvqhvg","pricing_plan_id":"cebpf4jnsgd1na2vs0mg"},{"bike_id":"ce4d7000-25b5-4b5c-9f16-89bd6e4c9780","system_id":"levelo_inurba_marseille","lat":43.30573,"lon":5.36548,"is_reserved":false,"is_disabled":false,"rental_uris":{"android":"levelo://app?vid=ce4d7000-25b5-4b5c-9f16-89bd6e4c9780","ios":"levelo://app?vid=ce4d7000-25b5-4b5c-9f16-89bd6e4c9780"},"vehicle_type_id":"4","last_reported":1739876866,"current_range_meters":12400,"station_id":"ce4bgs12rcd13ifvqcag","pricing_plan_id":"cebpf4jnsgd1na2vs0mg"},{"bike_id":"91bf3218-0a05-4226-acc9-b3131b7d5a8d","system_id":"levelo_inurba_marseille","lat":43.23951,"lon":5.36622,"is_reserved":false,"is_disabled":false,"rental_uris":{"android":"levelo://app?vid=91bf3218-0a05-4226-acc9-b3131b7d5a8d","ios":"levelo://app?vid=91bf3218-0a05-4226-acc9-b3131b7d5a8d"},"vehicle_type_id":"4","last_reported":1739876866,"current_range_meters":12400,"station_id":"ce4bhi12rcd13ifvqfp0","pricing_plan_id":"cebpf4jnsgd1na2vs0mg"},{"bike_id":"72cc0d3e-c2c3-4b8c-8154-405dd09f1fa3","system_id":"levelo_inurba_marseille","lat":43.23751,"lon":5.36434,"is_reserved":false,"is_disabled":false,"rental_uris":{"android":"levelo://app?vid=72cc0d3e-c2c3-4b8c-8154-405dd09f1fa3","ios":"levelo://app?vid=72cc0d3e-c2c3-4b8c-8154-405dd09f1fa3"},"vehicle_type_id":"4","last_reported":1739876866,"current_range_meters":12400,"station_id":"","pricing_plan_id":"cebpf4jnsgd1na2vs0mg"},{"bike_id":"a69fe923-bbbf-424c-834a-23b10868f7c7","system_id":"levelo_inurba_marseille","lat":43.30297,"lon":5.36883,"is_reserved":false,"is_disabled":false,"rental_uris":{"android":"levelo://app?vid=a69fe923-bbbf-424c-834a-23b10868f7c7","ios":"levelo://app?vid=a69fe923-bbbf-424c-834a-23b10868f7c7"},"vehicle_type_id":"4","last_reported":1739876866,"current_range_meters":12400,"station_id":"ce4bgqh2rcd13ifvqc5g","pricing_plan_id":"cebpf4jnsgd1na2vs0mg"},{"bike_id":"0abc1ab9-ba53-43c5-97f4-7846cddaf2b2","system_id":"levelo_inurba_marseille","lat":43.26212,"lon":5.37442,"is_reserved":false,"is_disabled":false,"rental_uris":{"android":"levelo://app?vid=0abc1ab9-ba53-43c5-97f4-7846cddaf2b2","ios":"levelo://app?vid=0abc1ab9-ba53-43c5-97f4-7846cddaf2b2"},"vehicle_type_id":"4","last_reported":1739876866,"current_range_meters":12400,"station_id":"","pricing_plan_id":"cebpf4jnsgd1na2vs0mg"},{"bike_id":"1f73d6b6-e66e-4833-bfa1-148a7786476b","system_id":"levelo_inurba_marseille","lat":43.241643,"lon":5.363961,"is_reserved":false,"is_disabled":false,"rental_uris":{"android":"levelo://app?vid=1f73d6b6-e66e-4833-bfa1-148a7786476b","ios":"levelo://app?vid=1f73d6b6-e66e-4833-bfa1-148a7786476b"},"vehicle_type_id":"4","last_reported":1739876866,"current_range_meters":12400,"station_id":"cpo36qri1sfpv3e86is0","pricing_plan_id":"cebpf4jnsgd1na2vs0mg"},{"bike_id":"64d31a5e-6c8e-4a9b-83da-4f75b8a8d5c0","system_id":"levelo_inurba_marseille","lat":43.30131,"lon":5.3878,"is_reserved":false,"is_disabled":false,"rental_uris":{"android":"levelo://app?vid=64d31a5e-6c8e-4a9b-83da-4f75b8a8d5c0","ios":"levelo://app?vid=64d31a5e-6c8e-4a9b-83da-4f75b8a8d5c0"},"vehicle_type_id":"4","last_reported":1739876866,"current_range_meters":12800,"station_id":"ce4bhoh2rcd13ifvqh6g","pricing_plan_id":"cebpf4jnsgd1na2vs0mg"},{"bike_id":"694680bb-b90d-4ded-917c-1467bce9ad9a","system_id":"levelo_inurba_marseille","lat":43.25577,"lon":5.3823,"is_reserved":false,"is_disabled":false,"rental_uris":{"android":"levelo://app?vid=694680bb-b90d-4ded-917c-1467bce9ad9a","ios":"levelo://app?vid=694680bb-b90d-4ded-917c-1467bce9ad9a"},"vehicle_type_id":"4","last_reported":1739876866,"current_range_meters":12800,"station_id":"ce4bhih2rcd13ifvqfs0","pricing_plan_id":"cebpf4jnsgd1na2vs0mg"},{"bike_id":"7f5f2b21-94ce-4c73-91b7-fdde0ecac329","system_id":"levelo_inurba_marseille","lat":43.27373,"lon":5.36262,"is_reserved":false,"is_disabled":false,"rental_uris":{"android":"levelo://app?vid=7f5f2b21-94ce-4c73-91b7-fdde0ecac329","ios":"levelo://app?vid=7f5f2b21-94ce-4c73-91b7-fdde0ecac329"},"vehicle_type_id":"4","last_reported":1739876866,"current_range_meters":12800,"station_id":"ce4bhbh2rcd13ifvqeo0","pricing_plan_id":"cebpf4jnsgd1na2vs0mg"},{"bike_id":"73c6ccff-59ab-4819-be3a-cf41dd71c213","system_id":"levelo_inurba_marseille","lat":43.31712,"lon":5.37729,"is_reserved":false,"is_disabled":false,"rental_uris":{"android":"levelo://app?vid=73c6ccff-59ab-4819-be3a-cf41dd71c213","ios":"levelo://app?vid=73c6ccff-59ab-4819-be3a-cf41dd71c213"},"vehicle_type_id":"4","last_reported":1739876866,"current_range_meters":12400,"station_id":"ce4bgth2rcd13ifvqch0","pricing_plan_id":"cebpf4jnsgd1na2vs0mg"},{"bike_id":"42c7cfa8-bce6-4834-be4f-e8fd7551245d","system_id":"levelo_inurba_marseille","lat":43.28596,"lon":5.42611,"is_reserved":false,"is_disabled":false,"rental_uris":{"android":"levelo://app?vid=42c7cfa8-bce6-4834-be4f-e8fd7551245d","ios":"levelo://app?vid=42c7cfa8-bce6-4834-be4f-e8fd7551245d"},"vehicle_type_id":"4","last_reported":1739876866,"current_range_meters":12800,"station_id":"","pricing_plan_id":"cebpf4jnsgd1na2vs0mg"},{"bike_id":"61a09da3-817e-4fdb-bb9e-edd72332690e","system_id":"levelo_inurba_marseille","lat":43.28621,"lon":5.35103,"is_reserved":false,"is_disabled":false,"rental_uris":{"android":"levelo://app?vid=61a09da3-817e-4fdb-bb9e-edd72332690e","ios":"levelo://app?vid=61a09da3-817e-4fdb-bb9e-edd72332690e"},"vehicle_type_id":"4","last_reported":1739876866,"current_range_meters":12800,"station_id":"ce4bhch2rcd13ifvqeug","pricing_plan_id":"cebpf4jnsgd1na2vs0mg"},{"bike_id":"bb4a3648-09cb-4cc2-9947-bf380533d03f","system_id":"levelo_inurba_marseille","lat":43.31575,"lon":5.37356,"is_reserved":false,"is_disabled":true,"rental_uris":{"android":"levelo://app?vid=bb4a3648-09cb-4cc2-9947-bf380533d03f","ios":"levelo://app?vid=bb4a3648-09cb-4cc2-9947-bf380533d03f"},"vehicle_type_id":"4","last_reported":1739876866,"current_range_meters":12800,"station_id":"","pricing_plan_id":"cebpf4jnsgd1na2vs0mg"},{"bike_id":"9c37e5d8-91f5-4a64-8eca-b67a21a3955b","system_id":"levelo_inurba_marseille","lat":43.30416,"lon":5.4128,"is_reserved":false,"is_disabled":false,"rental_uris":{"android":"levelo://app?vid=9c37e5d8-91f5-4a64-8eca-b67a21a3955b","ios":"levelo://app?vid=9c37e5d8-91f5-4a64-8eca-b67a21a3955b"},"vehicle_type_id":"4","last_reported":1739876866,"current_range_meters":13600,"station_id":"ce4bhop2rcd13ifvqh8g","pricing_plan_id":"cebpf4jnsgd1na2vs0mg"},{"bike_id":"8594b81e-6ce8-4c2f-9c33-0dedd5817a52","system_id":"levelo_inurba_marseille","lat":43.30915,"lon":5.3685,"is_reserved":false,"is_disabled":false,"rental_uris":{"android":"levelo://app?vid=8594b81e-6ce8-4c2f-9c33-0dedd5817a52","ios":"levelo://app?vid=8594b81e-6ce8-4c2f-9c33-0dedd5817a52"},"vehicle_type_id":"4","last_reported":1739876866,"current_range_meters":13600,"station_id":"ce4bgn92rcd13ifvqbvg","pricing_plan_id":"cebpf4jnsgd1na2vs0mg"},{"bike_id":"b1719221-8747-4c69-a9aa-c2663aec7802","system_id":"levelo_inurba_marseille","lat":43.246492,"lon":5.388888,"is_reserved":false,"is_disabled":false,"rental_uris":{"android":"levelo://app?vid=b1719221-8747-4c69-a9aa-c2663aec7802","ios":"levelo://app?vid=b1719221-8747-4c69-a9aa-c2663aec7802"},"vehicle_type_id":"4","last_reported":1739876866,"current_range_meters":13600,"station_id":"ce4bhip2rcd13ifvqft0","pricing_plan_id":"cebpf4jnsgd1na2vs0mg"},{"bike_id":"e921543b-8905-4411-a1c8-a5aa3fb34b97","system_id":"levelo_inurba_marseille","lat":43.2767,"lon":5.38905,"is_reserved":false,"is_disabled":false,"rental_uris":{"android":"levelo://app?vid=e921543b-8905-4411-a1c8-a5aa3fb34b97","ios":"levelo://app?vid=e921543b-8905-4411-a1c8-a5aa3fb34b97"},"vehicle_type_id":"4","last_reported":1739876866,"current_range_meters":14000,"station_id":"ce4bhi12rcd13ifvqfo0","pricing_plan_id":"cebpf4jnsgd1na2vs0mg"},{"bike_id":"eeb0e5c1-4a28-400c-b9c6-9972d89f1911","system_id":"levelo_inurba_marseille","lat":43.29307,"lon":5.3743,"is_reserved":false,"is_disabled":false,"rental_uris":{"android":"levelo://app?vid=eeb0e5c1-4a28-400c-b9c6-9972d89f1911","ios":"levelo://app?vid=eeb0e5c1-4a28-400c-b9c6-9972d89f1911"},"vehicle_type_id":"4","last_reported":1739876866,"current_range_meters":14400,"station_id":"ce4bgi12rcd13ifvqb70","pricing_plan_id":"cebpf4jnsgd1na2vs0mg"},{"bike_id":"708d67b6-579d-426d-ba18-da65d3e8f41b","system_id":"levelo_inurba_marseille","lat":43.29046,"lon":5.3997,"is_reserved":false,"is_disabled":false,"rental_uris":{"android":"levelo://app?vid=708d67b6-579d-426d-ba18-da65d3e8f41b","ios":"levelo://app?vid=708d67b6-579d-426d-ba18-da65d3e8f41b"},"vehicle_type_id":"4","last_reported":1739876866,"current_range_meters":14400,"station_id":"ce4bh392rcd13ifvqdm0","pricing_plan_id":"cebpf4jnsgd1na2vs0mg"},{"bike_id":"6c96a73f-ff01-463f-bd8c-14885ee904b6","system_id":"levelo_inurba_marseille","lat":43.29076,"lon":5.35733,"is_reserved":false,"is_disabled":false,"rental_uris":{"android":"levelo://app?vid=6c96a73f-ff01-463f-bd8c-14885ee904b6","ios":"levelo://app?vid=6c96a73f-ff01-463f-bd8c-14885ee904b6"},"vehicle_type_id":"4","last_reported":1739876866,"current_range_meters":14400,"station_id":"ce4bhb92rcd13ifvqen0","pricing_plan_id":"cebpf4jnsgd1na2vs0mg"},{"bike_id":"4630f33d-53d9-40f7-8568-3abcdc8d89f6","system_id":"levelo_inurba_marseille","lat":43.29305,"lon":5.37464,"is_reserved":false,"is_disabled":false,"rental_uris":{"android":"levelo://app?vid=4630f33d-53d9-40f7-8568-3abcdc8d89f6","ios":"levelo://app?vid=4630f33d-53d9-40f7-8568-3abcdc8d89f6"},"vehicle_type_id":"4","last_reported":1739876866,"current_range_meters":14800,"station_id":"ce4bgi12rcd13ifvqb70","pricing_plan_id":"cebpf4jnsgd1na2vs0mg"},{"bike_id":"c046719e-1a20-47e5-8cc4-b446b979b3dc","system_id":"levelo_inurba_marseille","lat":43.30417,"lon":5.41295,"is_reserved":false,"is_disabled":false,"rental_uris":{"android":"levelo://app?vid=c046719e-1a20-47e5-8cc4-b446b979b3dc","ios":"levelo://app?vid=c046719e-1a20-47e5-8cc4-b446b979b3dc"},"vehicle_type_id":"4","last_reported":1739876866,"current_range_meters":14800,"station_id":"","pricing_plan_id":"cebpf4jnsgd1na2vs0mg"},{"bike_id":"bde4e77f-cf2f-44b8-a37c-dcdd9fd3c032","system_id":"levelo_inurba_marseille","lat":43.29356,"lon":5.37845,"is_reserved":false,"is_disabled":false,"rental_uris":{"android":"levelo://app?vid=bde4e77f-cf2f-44b8-a37c-dcdd9fd3c032","ios":"levelo://app?vid=bde4e77f-cf2f-44b8-a37c-dcdd9fd3c032"},"vehicle_type_id":"4","last_reported":1739876866,"current_range_meters":14800,"station_id":"ce4bgjh2rcd13ifvqbf0","pricing_plan_id":"cebpf4jnsgd1na2vs0mg"},{"bike_id":"87e4e3d9-887e-4f25-bf58-279367bc8327","system_id":"levelo_inurba_marseille","lat":43.30651,"lon":5.40102,"is_reserved":false,"is_disabled":true,"rental_uris":{"android":"levelo://app?vid=87e4e3d9-887e-4f25-bf58-279367bc8327","ios":"levelo://app?vid=87e4e3d9-887e-4f25-bf58-279367bc8327"},"vehicle_type_id":"4","last_reported":1739876866,"current_range_meters":15200,"station_id":"ce4bh112rcd13ifvqda0","pricing_plan_id":"cebpf4jnsgd1na2vs0mg"},{"bike_id":"736d7730-d07c-4fd7-ba31-8a94e4d29c58","system_id":"levelo_inurba_marseille","lat":43.27617,"lon":5.36115,"is_reserved":false,"is_disabled":false,"rental_uris":{"android":"levelo://app?vid=736d7730-d07c-4fd7-ba31-8a94e4d29c58","ios":"levelo://app?vid=736d7730-d07c-4fd7-ba31-8a94e4d29c58"},"vehicle_type_id":"4","last_reported":1739876866,"current_range_meters":15200,"station_id":"ce4bgj92rcd13ifvqbe0","pricing_plan_id":"cebpf4jnsgd1na2vs0mg"},{"bike_id":"e5447ae4-2106-44ae-9020-008285d92136","system_id":"levelo_inurba_marseille","lat":43.30138,"lon":5.37423,"is_reserved":false,"is_disabled":false,"rental_uris":{"android":"levelo://app?vid=e5447ae4-2106-44ae-9020-008285d92136","ios":"levelo://app?vid=e5447ae4-2106-44ae-9020-008285d92136"},"vehicle_type_id":"4","last_reported":1739876866,"current_range_meters":15200,"station_id":"ce4bgs92rcd13ifvqcc0","pricing_plan_id":"cebpf4jnsgd1na2vs0mg"},{"bike_id":"60139c6e-741f-4a6d-9d59-db97fac57a92","system_id":"levelo_inurba_marseille","lat":43.32283,"lon":5.3827,"is_reserved":false,"is_disabled":false,"rental_uris":{"android":"levelo://app?vid=60139c6e-741f-4a6d-9d59-db97fac57a92","ios":"levelo://app?vid=60139c6e-741f-4a6d-9d59-db97fac57a92"},"vehicle_type_id":"4","last_reported":1739876866,"current_range_meters":15200,"station_id":"ce4bhr12rcd13ifvqhqg","pricing_plan_id":"cebpf4jnsgd1na2vs0mg"},{"bike_id":"9444f0b1-ee63-4c08-b4c3-16d111b6017a","system_id":"levelo_inurba_marseille","lat":43.25939,"lon":5.40901,"is_reserved":false,"is_disabled":false,"rental_uris":{"android":"levelo://app?vid=9444f0b1-ee63-4c08-b4c3-16d111b6017a","ios":"levelo://app?vid=9444f0b1-ee63-4c08-b4c3-16d111b6017a"},"vehicle_type_id":"4","last_reported":1739876866,"current_range_meters":15200,"station_id":"ce4bhm92rcd13ifvqglg","pricing_plan_id":"cebpf4jnsgd1na2vs0mg"},{"bike_id":"fb5d34ef-b93b-40b7-8eaa-8f58d48a435b","system_id":"levelo_inurba_marseille","lat":43.23148,"lon":5.43709,"is_reserved":false,"is_disabled":false,"rental_uris":{"android":"levelo://app?vid=fb5d34ef-b93b-40b7-8eaa-8f58d48a435b","ios":"levelo://app?vid=fb5d34ef-b93b-40b7-8eaa-8f58d48a435b"},"vehicle_type_id":"4","last_reported":1739876866,"current_range_meters":15200,"station_id":"ce4bhmp2rcd13ifvqgog","pricing_plan_id":"cebpf4jnsgd1na2vs0mg"},{"bike_id":"8c1b6425-35d6-48a7-8fa6-960133ec665f","system_id":"levelo_inurba_marseille","lat":43.28161,"lon":5.42637,"is_reserved":false,"is_disabled":false,"rental_uris":{"android":"levelo://app?vid=8c1b6425-35d6-48a7-8fa6-960133ec665f","ios":"levelo://app?vid=8c1b6425-35d6-48a7-8fa6-960133ec665f"},"vehicle_type_id":"4","last_reported":1739876866,"current_range_meters":16000,"station_id":"ce4bhnh2rcd13ifvqgug","pricing_plan_id":"cebpf4jnsgd1na2vs0mg"},{"bike_id":"9a5c519a-7b8d-4746-82db-fa931e082a88","system_id":"levelo_inurba_marseille","lat":43.32366,"lon":5.38883,"is_reserved":false,"is_disabled":false,"rental_uris":{"android":"levelo://app?vid=9a5c519a-7b8d-4746-82db-fa931e082a88","ios":"levelo://app?vid=9a5c519a-7b8d-4746-82db-fa931e082a88"},"vehicle_type_id":"4","last_reported":1739876866,"current_range_meters":16000,"station_id":"ce4bhqp2rcd13ifvqhog","pricing_plan_id":"cebpf4jnsgd1na2vs0mg"},{"bike_id":"98e62db4-7bd1-40ef-8540-03a857899c68","system_id":"levelo_inurba_marseille","lat":43.27812,"lon":5.407137,"is_reserved":false,"is_disabled":false,"rental_uris":{"android":"levelo://app?vid=98e62db4-7bd1-40ef-8540-03a857899c68","ios":"levelo://app?vid=98e62db4-7bd1-40ef-8540-03a857899c68"},"vehicle_type_id":"4","last_reported":1739876866,"current_range_meters":16000,"station_id":"ce4bhhp2rcd13ifvqfm0","pricing_plan_id":"cebpf4jnsgd1na2vs0mg"},{"bike_id":"90017611-e2b1-401c-bcbf-f9d526ffc823","system_id":"levelo_inurba_marseille","lat":43.29367,"lon":5.38288,"is_reserved":false,"is_disabled":false,"rental_uris":{"android":"levelo://app?vid=90017611-e2b1-401c-bcbf-f9d526ffc823","ios":"levelo://app?vid=90017611-e2b1-401c-bcbf-f9d526ffc823"},"vehicle_type_id":"4","last_reported":1739876866,"current_range_meters":16000,"station_id":"","pricing_plan_id":"cebpf4jnsgd1na2vs0mg"},{"bike_id":"a26a99d1-68ce-48da-a3b0-615523c50419","system_id":"levelo_inurba_marseille","lat":43.23148,"lon":5.43712,"is_reserved":false,"is_disabled":false,"rental_uris":{"android":"levelo://app?vid=a26a99d1-68ce-48da-a3b0-615523c50419","ios":"levelo://app?vid=a26a99d1-68ce-48da-a3b0-615523c50419"},"vehicle_type_id":"4","last_reported":1739876866,"current_range_meters":16400,"station_id":"ce4bhmp2rcd13ifvqgog","pricing_plan_id":"cebpf4jnsgd1na2vs0mg"},{"bike_id":"d1dec037-ee4c-4db9-a655-1087d8ee1f4f","system_id":"levelo_inurba_marseille","lat":43.28444,"lon":5.39175,"is_reserved":false,"is_disabled":true,"rental_uris":{"android":"levelo://app?vid=d1dec037-ee4c-4db9-a655-1087d8ee1f4f","ios":"levelo://app?vid=d1dec037-ee4c-4db9-a655-1087d8ee1f4f"},"vehicle_type_id":"4","last_reported":1739876866,"current_range_meters":16400,"station_id":"","pricing_plan_id":"cebpf4jnsgd1na2vs0mg"},{"bike_id":"f07452b0-3592-42e8-b91d-bed94382b60a","system_id":"levelo_inurba_marseille","lat":43.30611,"lon":5.37215,"is_reserved":false,"is_disabled":false,"rental_uris":{"android":"levelo://app?vid=f07452b0-3592-42e8-b91d-bed94382b60a","ios":"levelo://app?vid=f07452b0-3592-42e8-b91d-bed94382b60a"},"vehicle_type_id":"4","last_reported":1739876866,"current_range_meters":16400,"station_id":"ce4bgqh2rcd13ifvqc4g","pricing_plan_id":"cebpf4jnsgd1na2vs0mg"},{"bike_id":"6982932c-8b58-44dc-b527-b718293a6b27","system_id":"levelo_inurba_marseille","lat":43.2817,"lon":5.42639,"is_reserved":false,"is_disabled":true,"rental_uris":{"android":"levelo://app?vid=6982932c-8b58-44dc-b527-b718293a6b27","ios":"levelo://app?vid=6982932c-8b58-44dc-b527-b718293a6b27"},"vehicle_type_id":"4","last_reported":1739876866,"current_range_meters":16400,"station_id":"ce4bhnh2rcd13ifvqgug","pricing_plan_id":"cebpf4jnsgd1na2vs0mg"},{"bike_id":"25ea9eec-29d9-4063-8007-929ebb2d1ef2","system_id":"levelo_inurba_marseille","lat":43.25498,"lon":5.37651,"is_reserved":false,"is_disabled":false,"rental_uris":{"android":"levelo://app?vid=25ea9eec-29d9-4063-8007-929ebb2d1ef2","ios":"levelo://app?vid=25ea9eec-29d9-4063-8007-929ebb2d1ef2"},"vehicle_type_id":"4","last_reported":1739876866,"current_range_meters":16400,"station_id":"ce4bhh12rcd13ifvqff0","pricing_plan_id":"cebpf4jnsgd1na2vs0mg"},{"bike_id":"2d9a9c41-3cb3-4048-9724-af793003b2c4","system_id":"levelo_inurba_marseille","lat":43.29277,"lon":5.3684,"is_reserved":false,"is_disabled":false,"rental_uris":{"android":"levelo://app?vid=2d9a9c41-3cb3-4048-9724-af793003b2c4","ios":"levelo://app?vid=2d9a9c41-3cb3-4048-9724-af793003b2c4"},"vehicle_type_id":"4","last_reported":1739876866,"current_range_meters":16400,"station_id":"","pricing_plan_id":"cebpf4jnsgd1na2vs0mg"},{"bike_id":"695e2770-608f-4ea5-b074-b223fb811be9","system_id":"levelo_inurba_marseille","lat":43.3053,"lon":5.36555,"is_reserved":false,"is_disabled":false,"rental_uris":{"android":"levelo://app?vid=695e2770-608f-4ea5-b074-b223fb811be9","ios":"levelo://app?vid=695e2770-608f-4ea5-b074-b223fb811be9"},"vehicle_type_id":"4","last_reported":1739876866,"current_range_meters":16400,"station_id":"ce4bgs12rcd13ifvqcag","pricing_plan_id":"cebpf4jnsgd1na2vs0mg"},{"bike_id":"7fbab6c9-e55b-4778-99da-d128f07ba268","system_id":"levelo_inurba_marseille","lat":43.30609,"lon":5.37233,"is_reserved":false,"is_disabled":false,"rental_uris":{"android":"levelo://app?vid=7fbab6c9-e55b-4778-99da-d128f07ba268","ios":"levelo://app?vid=7fbab6c9-e55b-4778-99da-d128f07ba268"},"vehicle_type_id":"4","last_reported":1739876866,"current_range_meters":16400,"station_id":"ce4bgqh2rcd13ifvqc4g","pricing_plan_id":"cebpf4jnsgd1na2vs0mg"},{"bike_id":"5c3e56f9-b7df-4b47-b1a7-e9fb85099b05","system_id":"levelo_inurba_marseille","lat":43.24535,"lon":5.39524,"is_reserved":false,"is_disabled":false,"rental_uris":{"android":"levelo://app?vid=5c3e56f9-b7df-4b47-b1a7-e9fb85099b05","ios":"levelo://app?vid=5c3e56f9-b7df-4b47-b1a7-e9fb85099b05"},"vehicle_type_id":"4","last_reported":1739876866,"current_range_meters":16800,"station_id":"ce4bhlp2rcd13ifvqgjg","pricing_plan_id":"cebpf4jnsgd1na2vs0mg"},{"bike_id":"397b80cf-cbf3-4f7e-9d00-ad56509053a2","system_id":"levelo_inurba_marseille","lat":43.29184,"lon":5.39782,"is_reserved":false,"is_disabled":false,"rental_uris":{"android":"levelo://app?vid=397b80cf-cbf3-4f7e-9d00-ad56509053a2","ios":"levelo://app?vid=397b80cf-cbf3-4f7e-9d00-ad56509053a2"},"vehicle_type_id":"4","last_reported":1739876866,"current_range_meters":16800,"station_id":"","pricing_plan_id":"cebpf4jnsgd1na2vs0mg"},{"bike_id":"8aa51797-0b72-45de-8465-65360513f8a3","system_id":"levelo_inurba_marseille","lat":43.296334,"lon":5.405948,"is_reserved":false,"is_disabled":false,"rental_uris":{"android":"levelo://app?vid=8aa51797-0b72-45de-8465-65360513f8a3","ios":"levelo://app?vid=8aa51797-0b72-45de-8465-65360513f8a3"},"vehicle_type_id":"4","last_reported":1739876866,"current_range_meters":17200,"station_id":"ce4bh0h2rcd13ifvqd60","pricing_plan_id":"cebpf4jnsgd1na2vs0mg"},{"bike_id":"b879378f-9cee-458f-905a-cd7acea06f16","system_id":"levelo_inurba_marseille","lat":43.33021,"lon":5.3904,"is_reserved":false,"is_disabled":false,"rental_uris":{"android":"levelo://app?vid=b879378f-9cee-458f-905a-cd7acea06f16","ios":"levelo://app?vid=b879378f-9cee-458f-905a-cd7acea06f16"},"vehicle_type_id":"4","last_reported":1739876866,"current_range_meters":17200,"station_id":"ce4bhr92rcd13ifvqhrg","pricing_plan_id":"cebpf4jnsgd1na2vs0mg"},{"bike_id":"5ef690e9-64d7-44be-ac91-d01a5961d73c","system_id":"levelo_inurba_marseille","lat":43.2656,"lon":5.39012,"is_reserved":false,"is_disabled":false,"rental_uris":{"android":"levelo://app?vid=5ef690e9-64d7-44be-ac91-d01a5961d73c","ios":"levelo://app?vid=5ef690e9-64d7-44be-ac91-d01a5961d73c"},"vehicle_type_id":"4","last_reported":1739876866,"current_range_meters":17200,"station_id":"ce4bhe12rcd13ifvqf30","pricing_plan_id":"cebpf4jnsgd1na2vs0mg"},{"bike_id":"b1f4b5d5-d538-4ae2-bb6b-409f6f8682da","system_id":"levelo_inurba_marseille","lat":43.29371,"lon":5.37847,"is_reserved":false,"is_disabled":false,"rental_uris":{"android":"levelo://app?vid=b1f4b5d5-d538-4ae2-bb6b-409f6f8682da","ios":"levelo://app?vid=b1f4b5d5-d538-4ae2-bb6b-409f6f8682da"},"vehicle_type_id":"4","last_reported":1739876866,"current_range_meters":17200,"station_id":"","pricing_plan_id":"cebpf4jnsgd1na2vs0mg"},{"bike_id":"1022c673-2b9d-411e-ad21-d704a4c558a1","system_id":"levelo_inurba_marseille","lat":43.29782,"lon":5.39339,"is_reserved":false,"is_disabled":false,"rental_uris":{"android":"levelo://app?vid=1022c673-2b9d-411e-ad21-d704a4c558a1","ios":"levelo://app?vid=1022c673-2b9d-411e-ad21-d704a4c558a1"},"vehicle_type_id":"4","last_reported":1739876866,"current_range_meters":17200,"station_id":"chh1huq6cuj3fo74tm60","pricing_plan_id":"cebpf4jnsgd1na2vs0mg"},{"bike_id":"1d63a175-89ef-49ff-9ead-dfe9ed6c22cf","system_id":"levelo_inurba_marseille","lat":43.24692,"lon":5.39434,"is_reserved":false,"is_disabled":false,"rental_uris":{"android":"levelo://app?vid=1d63a175-89ef-49ff-9ead-dfe9ed6c22cf","ios":"levelo://app?vid=1d63a175-89ef-49ff-9ead-dfe9ed6c22cf"},"vehicle_type_id":"4","last_reported":1739876866,"current_range_meters":17200,"station_id":"","pricing_plan_id":"cebpf4jnsgd1na2vs0mg"},{"bike_id":"cdb027a0-b875-4ada-92c3-2d2168720582","system_id":"levelo_inurba_marseille","lat":43.28273,"lon":5.3507,"is_reserved":false,"is_disabled":true,"rental_uris":{"android":"levelo://app?vid=cdb027a0-b875-4ada-92c3-2d2168720582","ios":"levelo://app?vid=cdb027a0-b875-4ada-92c3-2d2168720582"},"vehicle_type_id":"4","last_reported":1739876866,"current_range_meters":17200,"station_id":"ce4bhbp2rcd13ifvqerg","pricing_plan_id":"cebpf4jnsgd1na2vs0mg"},{"bike_id":"77f9fbc4-a9a9-4cf8-a26d-e2a132018cf7","system_id":"levelo_inurba_marseille","lat":43.29931,"lon":5.36527,"is_reserved":false,"is_disabled":false,"rental_uris":{"android":"levelo://app?vid=77f9fbc4-a9a9-4cf8-a26d-e2a132018cf7","ios":"levelo://app?vid=77f9fbc4-a9a9-4cf8-a26d-e2a132018cf7"},"vehicle_type_id":"4","last_reported":1739876866,"current_range_meters":17600,"station_id":"ce4bgm92rcd13ifvqbr0","pricing_plan_id":"cebpf4jnsgd1na2vs0mg"},{"bike_id":"b7ee7074-0ed1-413c-95bf-29ca1f13818b","system_id":"levelo_inurba_marseille","lat":43.25583,"lon":5.38243,"is_reserved":false,"is_disabled":false,"rental_uris":{"android":"levelo://app?vid=b7ee7074-0ed1-413c-95bf-29ca1f13818b","ios":"levelo://app?vid=b7ee7074-0ed1-413c-95bf-29ca1f13818b"},"vehicle_type_id":"4","last_reported":1739876866,"current_range_meters":18000,"station_id":"ce4bhih2rcd13ifvqfs0","pricing_plan_id":"cebpf4jnsgd1na2vs0mg"},{"bike_id":"b090b887-73e8-41c6-b709-310500e91cbb","system_id":"levelo_inurba_marseille","lat":43.2908,"lon":5.37163,"is_reserved":false,"is_disabled":false,"rental_uris":{"android":"levelo://app?vid=b090b887-73e8-41c6-b709-310500e91cbb","ios":"levelo://app?vid=b090b887-73e8-41c6-b709-310500e91cbb"},"vehicle_type_id":"4","last_reported":1739876866,"current_range_meters":18000,"station_id":"ce4bh5p2rcd13ifvqe4g","pricing_plan_id":"cebpf4jnsgd1na2vs0mg"},{"bike_id":"868649ac-7b72-45d5-a5d0-34f409faa0a3","system_id":"levelo_inurba_marseille","lat":43.29259,"lon":5.38452,"is_reserved":false,"is_disabled":false,"rental_uris":{"android":"levelo://app?vid=868649ac-7b72-45d5-a5d0-34f409faa0a3","ios":"levelo://app?vid=868649ac-7b72-45d5-a5d0-34f409faa0a3"},"vehicle_type_id":"4","last_reported":1739876866,"current_range_meters":18000,"station_id":"ce4bh692rcd13ifvqea0","pricing_plan_id":"cebpf4jnsgd1na2vs0mg"},{"bike_id":"db7f2d58-492d-4297-aa78-ce0ad99a0a74","system_id":"levelo_inurba_marseille","lat":43.25933,"lon":5.40895,"is_reserved":false,"is_disabled":false,"rental_uris":{"android":"levelo://app?vid=db7f2d58-492d-4297-aa78-ce0ad99a0a74","ios":"levelo://app?vid=db7f2d58-492d-4297-aa78-ce0ad99a0a74"},"vehicle_type_id":"4","last_reported":1739876866,"current_range_meters":18000,"station_id":"ce4bhb92rcd13ifvqen0","pricing_plan_id":"cebpf4jnsgd1na2vs0mg"},{"bike_id":"22c1355e-1039-4fd9-8688-906435e4013c","system_id":"levelo_inurba_marseille","lat":43.23151,"lon":5.43706,"is_reserved":false,"is_disabled":false,"rental_uris":{"android":"levelo://app?vid=22c1355e-1039-4fd9-8688-906435e4013c","ios":"levelo://app?vid=22c1355e-1039-4fd9-8688-906435e4013c"},"vehicle_type_id":"4","last_reported":1739876866,"current_range_meters":18000,"station_id":"ce4bhmp2rcd13ifvqgog","pricing_plan_id":"cebpf4jnsgd1na2vs0mg"},{"bike_id":"572758ce-62f5-4849-b288-fda413023eea","system_id":"levelo_inurba_marseille","lat":43.29777,"lon":5.3709,"is_reserved":false,"is_disabled":false,"rental_uris":{"android":"levelo://app?vid=572758ce-62f5-4849-b288-fda413023eea","ios":"levelo://app?vid=572758ce-62f5-4849-b288-fda413023eea"},"vehicle_type_id":"4","last_reported":1739876866,"current_range_meters":18000,"station_id":"","pricing_plan_id":"cebpf4jnsgd1na2vs0mg"},{"bike_id":"baf6d894-ad10-49a9-b91a-24f60ad956f7","system_id":"levelo_inurba_marseille","lat":43.28976,"lon":5.4268,"is_reserved":false,"is_disabled":false,"rental_uris":{"android":"levelo://app?vid=baf6d894-ad10-49a9-b91a-24f60ad956f7","ios":"levelo://app?vid=baf6d894-ad10-49a9-b91a-24f60ad956f7"},"vehicle_type_id":"4","last_reported":1739876866,"current_range_meters":18000,"station_id":"","pricing_plan_id":"cebpf4jnsgd1na2vs0mg"},{"bike_id":"3a057b52-4c47-476b-927e-f322b0af127d","system_id":"levelo_inurba_marseille","lat":43.30314,"lon":5.3691,"is_reserved":false,"is_disabled":false,"rental_uris":{"android":"levelo://app?vid=3a057b52-4c47-476b-927e-f322b0af127d","ios":"levelo://app?vid=3a057b52-4c47-476b-927e-f322b0af127d"},"vehicle_type_id":"4","last_reported":1739876866,"current_range_meters":18000,"station_id":"ce4bgqh2rcd13ifvqc5g","pricing_plan_id":"cebpf4jnsgd1na2vs0mg"},{"bike_id":"fc971b16-bef3-4b6d-813c-ffc8ffa48842","system_id":"levelo_inurba_marseille","lat":43.2841,"lon":5.34986,"is_reserved":false,"is_disabled":true,"rental_uris":{"android":"levelo://app?vid=fc971b16-bef3-4b6d-813c-ffc8ffa48842","ios":"levelo://app?vid=fc971b16-bef3-4b6d-813c-ffc8ffa48842"},"vehicle_type_id":"4","last_reported":1739876866,"current_range_meters":18000,"station_id":"","pricing_plan_id":"cebpf4jnsgd1na2vs0mg"},{"bike_id":"504fa766-52bd-4bb4-a963-b207c110a20e","system_id":"levelo_inurba_marseille","lat":43.31486,"lon":5.3731,"is_reserved":false,"is_disabled":false,"rental_uris":{"android":"levelo://app?vid=504fa766-52bd-4bb4-a963-b207c110a20e","ios":"levelo://app?vid=504fa766-52bd-4bb4-a963-b207c110a20e"},"vehicle_type_id":"4","last_reported":1739876866,"current_range_meters":18000,"station_id":"ce4bgt12rcd13ifvqcd0","pricing_plan_id":"cebpf4jnsgd1na2vs0mg"},{"bike_id":"f77eb7d8-9434-4c05-861f-edd4244aaffc","system_id":"levelo_inurba_marseille","lat":43.25509,"lon":5.37648,"is_reserved":false,"is_disabled":false,"rental_uris":{"android":"levelo://app?vid=f77eb7d8-9434-4c05-861f-edd4244aaffc","ios":"levelo://app?vid=f77eb7d8-9434-4c05-861f-edd4244aaffc"},"vehicle_type_id":"4","last_reported":1739876866,"current_range_meters":18800,"station_id":"","pricing_plan_id":"cebpf4jnsgd1na2vs0mg"},{"bike_id":"eb715102-e1b0-444b-990c-d34ec49d64ad","system_id":"levelo_inurba_marseille","lat":43.2418,"lon":5.39724,"is_reserved":false,"is_disabled":false,"rental_uris":{"android":"levelo://app?vid=eb715102-e1b0-444b-990c-d34ec49d64ad","ios":"levelo://app?vid=eb715102-e1b0-444b-990c-d34ec49d64ad"},"vehicle_type_id":"4","last_reported":1739876866,"current_range_meters":18800,"station_id":"ce4bhn12rcd13ifvqgpg","pricing_plan_id":"cebpf4jnsgd1na2vs0mg"},{"bike_id":"e5f0864d-aae3-42d1-b10a-13ddbaf407b9","system_id":"levelo_inurba_marseille","lat":43.2845,"lon":5.359,"is_reserved":false,"is_disabled":false,"rental_uris":{"android":"levelo://app?vid=e5f0864d-aae3-42d1-b10a-13ddbaf407b9","ios":"levelo://app?vid=e5f0864d-aae3-42d1-b10a-13ddbaf407b9"},"vehicle_type_id":"4","last_reported":1739876866,"current_range_meters":18800,"station_id":"ce4bhah2rcd13ifvqei0","pricing_plan_id":"cebpf4jnsgd1na2vs0mg"},{"bike_id":"38c9f437-02d0-463a-a42d-8bc647a31926","system_id":"levelo_inurba_marseille","lat":43.23139,"lon":5.43735,"is_reserved":false,"is_disabled":false,"rental_uris":{"android":"levelo://app?vid=38c9f437-02d0-463a-a42d-8bc647a31926","ios":"levelo://app?vid=38c9f437-02d0-463a-a42d-8bc647a31926"},"vehicle_type_id":"4","last_reported":1739876866,"current_range_meters":18800,"station_id":"ce4bhmp2rcd13ifvqgog","pricing_plan_id":"cebpf4jnsgd1na2vs0mg"},{"bike_id":"c67fb496-8441-458a-af2d-8f07c087bdd0","system_id":"levelo_inurba_marseille","lat":43.24172,"lon":5.36426,"is_reserved":false,"is_disabled":true,"rental_uris":{"android":"levelo://app?vid=c67fb496-8441-458a-af2d-8f07c087bdd0","ios":"levelo://app?vid=c67fb496-8441-458a-af2d-8f07c087bdd0"},"vehicle_type_id":"4","last_reported":1739876866,"current_range_meters":18800,"station_id":"","pricing_plan_id":"cebpf4jnsgd1na2vs0mg"},{"bike_id":"22196579-be9e-4f2d-b2dd-94d1ef2f58bc","system_id":"levelo_inurba_marseille","lat":43.23168,"lon":5.43727,"is_reserved":false,"is_disabled":false,"rental_uris":{"android":"levelo://app?vid=22196579-be9e-4f2d-b2dd-94d1ef2f58bc","ios":"levelo://app?vid=22196579-be9e-4f2d-b2dd-94d1ef2f58bc"},"vehicle_type_id":"4","last_reported":1739876866,"current_range_meters":18800,"station_id":"ce4bhmp2rcd13ifvqgog","pricing_plan_id":"cebpf4jnsgd1na2vs0mg"},{"bike_id":"ac230870-0df3-46a9-8510-62d4cc74a15c","system_id":"levelo_inurba_marseille","lat":43.23186,"lon":5.39971,"is_reserved":false,"is_disabled":false,"rental_uris":{"android":"levelo://app?vid=ac230870-0df3-46a9-8510-62d4cc74a15c","ios":"levelo://app?vid=ac230870-0df3-46a9-8510-62d4cc74a15c"},"vehicle_type_id":"4","last_reported":1739876866,"current_range_meters":18800,"station_id":"ce4bhn12rcd13ifvqgqg","pricing_plan_id":"cebpf4jnsgd1na2vs0mg"},{"bike_id":"610d1e2a-4cd6-4dd7-9a69-0477965494b1","system_id":"levelo_inurba_marseille","lat":43.24181,"lon":5.39728,"is_reserved":false,"is_disabled":false,"rental_uris":{"android":"levelo://app?vid=610d1e2a-4cd6-4dd7-9a69-0477965494b1","ios":"levelo://app?vid=610d1e2a-4cd6-4dd7-9a69-0477965494b1"},"vehicle_type_id":"4","last_reported":1739876866,"current_range_meters":18800,"station_id":"ce4bhn12rcd13ifvqgpg","pricing_plan_id":"cebpf4jnsgd1na2vs0mg"},{"bike_id":"f2d89242-dd97-42c3-80de-d6ab1ca02f90","system_id":"levelo_inurba_marseille","lat":43.29914,"lon":5.38144,"is_reserved":false,"is_disabled":false,"rental_uris":{"android":"levelo://app?vid=f2d89242-dd97-42c3-80de-d6ab1ca02f90","ios":"levelo://app?vid=f2d89242-dd97-42c3-80de-d6ab1ca02f90"},"vehicle_type_id":"4","last_reported":1739876866,"current_range_meters":18800,"station_id":"ce4bgj12rcd13ifvqbc0","pricing_plan_id":"cebpf4jnsgd1na2vs0mg"},{"bike_id":"d75534e2-9bc6-43b8-9a0d-fa650ae0b051","system_id":"levelo_inurba_marseille","lat":43.24075,"lon":5.37755,"is_reserved":false,"is_disabled":false,"rental_uris":{"android":"levelo://app?vid=d75534e2-9bc6-43b8-9a0d-fa650ae0b051","ios":"levelo://app?vid=d75534e2-9bc6-43b8-9a0d-fa650ae0b051"},"vehicle_type_id":"4","last_reported":1739876866,"current_range_meters":19200,"station_id":"ce4bhnp2rcd13ifvqgvg","pricing_plan_id":"cebpf4jnsgd1na2vs0mg"},{"bike_id":"24dd12c1-4d8a-40c0-b521-a98d2d462c41","system_id":"levelo_inurba_marseille","lat":43.24157,"lon":5.36403,"is_reserved":false,"is_disabled":false,"rental_uris":{"android":"levelo://app?vid=24dd12c1-4d8a-40c0-b521-a98d2d462c41","ios":"levelo://app?vid=24dd12c1-4d8a-40c0-b521-a98d2d462c41"},"vehicle_type_id":"4","last_reported":1739876866,"current_range_meters":19200,"station_id":"","pricing_plan_id":"cebpf4jnsgd1na2vs0mg"},{"bike_id":"be59961e-616b-4c75-97c4-c082d5d8fd20","system_id":"levelo_inurba_marseille","lat":43.24174,"lon":5.39727,"is_reserved":false,"is_disabled":false,"rental_uris":{"android":"levelo://app?vid=be59961e-616b-4c75-97c4-c082d5d8fd20","ios":"levelo://app?vid=be59961e-616b-4c75-97c4-c082d5d8fd20"},"vehicle_type_id":"4","last_reported":1739876866,"current_range_meters":19200,"station_id":"ce4bhn12rcd13ifvqgpg","pricing_plan_id":"cebpf4jnsgd1na2vs0mg"},{"bike_id":"aab56d93-547d-40cc-9ff6-b85d4684f798","system_id":"levelo_inurba_marseille","lat":43.23955,"lon":5.36635,"is_reserved":false,"is_disabled":false,"rental_uris":{"android":"levelo://app?vid=aab56d93-547d-40cc-9ff6-b85d4684f798","ios":"levelo://app?vid=aab56d93-547d-40cc-9ff6-b85d4684f798"},"vehicle_type_id":"4","last_reported":1739876866,"current_range_meters":19200,"station_id":"ce4bhi12rcd13ifvqfp0","pricing_plan_id":"cebpf4jnsgd1na2vs0mg"},{"bike_id":"4c89d5b5-e069-43a3-a81f-35c46913d280","system_id":"levelo_inurba_marseille","lat":43.30131,"lon":5.37415,"is_reserved":false,"is_disabled":false,"rental_uris":{"android":"levelo://app?vid=4c89d5b5-e069-43a3-a81f-35c46913d280","ios":"levelo://app?vid=4c89d5b5-e069-43a3-a81f-35c46913d280"},"vehicle_type_id":"4","last_reported":1739876866,"current_range_meters":19200,"station_id":"ce4bgs92rcd13ifvqcc0","pricing_plan_id":"cebpf4jnsgd1na2vs0mg"},{"bike_id":"57428e68-6178-4a63-998d-4f2eb2a0c995","system_id":"levelo_inurba_marseille","lat":43.24153,"lon":5.36441,"is_reserved":false,"is_disabled":false,"rental_uris":{"android":"levelo://app?vid=57428e68-6178-4a63-998d-4f2eb2a0c995","ios":"levelo://app?vid=57428e68-6178-4a63-998d-4f2eb2a0c995"},"vehicle_type_id":"4","last_reported":1739876866,"current_range_meters":19600,"station_id":"cpo36qri1sfpv3e86is0","pricing_plan_id":"cebpf4jnsgd1na2vs0mg"},{"bike_id":"42f0be01-22e9-434b-8129-1c6bdb9dcd50","system_id":"levelo_inurba_marseille","lat":43.26214,"lon":5.37443,"is_reserved":false,"is_disabled":false,"rental_uris":{"android":"levelo://app?vid=42f0be01-22e9-434b-8129-1c6bdb9dcd50","ios":"levelo://app?vid=42f0be01-22e9-434b-8129-1c6bdb9dcd50"},"vehicle_type_id":"4","last_reported":1739876866,"current_range_meters":19600,"station_id":"ce4bhgp2rcd13ifvqfc0","pricing_plan_id":"cebpf4jnsgd1na2vs0mg"},{"bike_id":"68572a5d-6c78-4009-9bdf-f24c5789f01f","system_id":"levelo_inurba_marseille","lat":43.32052,"lon":5.41588,"is_reserved":false,"is_disabled":false,"rental_uris":{"android":"levelo://app?vid=68572a5d-6c78-4009-9bdf-f24c5789f01f","ios":"levelo://app?vid=68572a5d-6c78-4009-9bdf-f24c5789f01f"},"vehicle_type_id":"4","last_reported":1739876866,"current_range_meters":19600,"station_id":"ce4bhq92rcd13ifvqhkg","pricing_plan_id":"cebpf4jnsgd1na2vs0mg"},{"bike_id":"5f9ede52-c720-4107-a864-980fb2608395","system_id":"levelo_inurba_marseille","lat":43.24096,"lon":5.38667,"is_reserved":false,"is_disabled":false,"rental_uris":{"android":"levelo://app?vid=5f9ede52-c720-4107-a864-980fb2608395","ios":"levelo://app?vid=5f9ede52-c720-4107-a864-980fb2608395"},"vehicle_type_id":"4","last_reported":1739876866,"current_range_meters":20000,"station_id":"","pricing_plan_id":"cebpf4jnsgd1na2vs0mg"},{"bike_id":"b768b1a6-dfb0-4283-bce3-5f90f2a7562b","system_id":"levelo_inurba_marseille","lat":43.32365,"lon":5.38897,"is_reserved":false,"is_disabled":false,"rental_uris":{"android":"levelo://app?vid=b768b1a6-dfb0-4283-bce3-5f90f2a7562b","ios":"levelo://app?vid=b768b1a6-dfb0-4283-bce3-5f90f2a7562b"},"vehicle_type_id":"4","last_reported":1739876866,"current_range_meters":20000,"station_id":"","pricing_plan_id":"cebpf4jnsgd1na2vs0mg"},{"bike_id":"9d363da6-90fe-47bf-8b4e-f4320484c229","system_id":"levelo_inurba_marseille","lat":43.302128,"lon":5.394681,"is_reserved":false,"is_disabled":false,"rental_uris":{"android":"levelo://app?vid=9d363da6-90fe-47bf-8b4e-f4320484c229","ios":"levelo://app?vid=9d363da6-90fe-47bf-8b4e-f4320484c229"},"vehicle_type_id":"4","last_reported":1739876866,"current_range_meters":19600,"station_id":"ce4bha92rcd13ifvqeh0","pricing_plan_id":"cebpf4jnsgd1na2vs0mg"},{"bike_id":"9cb1994c-aae7-44e3-8efc-feb2f126756c","system_id":"levelo_inurba_marseille","lat":43.29795,"lon":5.40399,"is_reserved":false,"is_disabled":false,"rental_uris":{"android":"levelo://app?vid=9cb1994c-aae7-44e3-8efc-feb2f126756c","ios":"levelo://app?vid=9cb1994c-aae7-44e3-8efc-feb2f126756c"},"vehicle_type_id":"4","last_reported":1739876866,"current_range_meters":19600,"station_id":"ce4bh112rcd13ifvqd90","pricing_plan_id":"cebpf4jnsgd1na2vs0mg"},{"bike_id":"dc0cb9d4-b57c-4130-a574-a1059adb9913","system_id":"levelo_inurba_marseille","lat":43.30467,"lon":5.37909,"is_reserved":false,"is_disabled":false,"rental_uris":{"android":"levelo://app?vid=dc0cb9d4-b57c-4130-a574-a1059adb9913","ios":"levelo://app?vid=dc0cb9d4-b57c-4130-a574-a1059adb9913"},"vehicle_type_id":"4","last_reported":1739876866,"current_range_meters":20400,"station_id":"ce4bgup2rcd13ifvqcn0","pricing_plan_id":"cebpf4jnsgd1na2vs0mg"},{"bike_id":"5089bb88-a0cd-4434-a1a9-f3d5b67361c6","system_id":"levelo_inurba_marseille","lat":43.24374,"lon":5.38756,"is_reserved":false,"is_disabled":false,"rental_uris":{"android":"levelo://app?vid=5089bb88-a0cd-4434-a1a9-f3d5b67361c6","ios":"levelo://app?vid=5089bb88-a0cd-4434-a1a9-f3d5b67361c6"},"vehicle_type_id":"4","last_reported":1739876866,"current_range_meters":20400,"station_id":"","pricing_plan_id":"cebpf4jnsgd1na2vs0mg"},{"bike_id":"a0af3547-0f5a-4ee7-a39d-23ed992db956","system_id":"levelo_inurba_marseille","lat":43.23418,"lon":5.40452,"is_reserved":false,"is_disabled":false,"rental_uris":{"android":"levelo://app?vid=a0af3547-0f5a-4ee7-a39d-23ed992db956","ios":"levelo://app?vid=a0af3547-0f5a-4ee7-a39d-23ed992db956"},"vehicle_type_id":"4","last_reported":1739876866,"current_range_meters":20400,"station_id":"","pricing_plan_id":"cebpf4jnsgd1na2vs0mg"},{"bike_id":"40d31ea6-0d2b-406a-a414-70ecabe58de9","system_id":"levelo_inurba_marseille","lat":43.26228,"lon":5.40454,"is_reserved":false,"is_disabled":false,"rental_uris":{"android":"levelo://app?vid=40d31ea6-0d2b-406a-a414-70ecabe58de9","ios":"levelo://app?vid=40d31ea6-0d2b-406a-a414-70ecabe58de9"},"vehicle_type_id":"4","last_reported":1739876866,"current_range_meters":20400,"station_id":"ce4bhmh2rcd13ifvqgmg","pricing_plan_id":"cebpf4jnsgd1na2vs0mg"},{"bike_id":"6e6f15fa-716e-4892-bca6-c286363068af","system_id":"levelo_inurba_marseille","lat":43.231989,"lon":5.355485,"is_reserved":false,"is_disabled":false,"rental_uris":{"android":"levelo://app?vid=6e6f15fa-716e-4892-bca6-c286363068af","ios":"levelo://app?vid=6e6f15fa-716e-4892-bca6-c286363068af"},"vehicle_type_id":"4","last_reported":1739876866,"current_range_meters":20400,"station_id":"ce4bhu92rcd13ifvqi70","pricing_plan_id":"cebpf4jnsgd1na2vs0mg"},{"bike_id":"7371a458-5614-4c34-a3ee-6e25fcfd9c7b","system_id":"levelo_inurba_marseille","lat":43.24659,"lon":5.38846,"is_reserved":false,"is_disabled":false,"rental_uris":{"android":"levelo://app?vid=7371a458-5614-4c34-a3ee-6e25fcfd9c7b","ios":"levelo://app?vid=7371a458-5614-4c34-a3ee-6e25fcfd9c7b"},"vehicle_type_id":"4","last_reported":1739876866,"current_range_meters":20400,"station_id":"ce4bhg12rcd13ifvqf60","pricing_plan_id":"cebpf4jnsgd1na2vs0mg"},{"bike_id":"30d269d1-4607-415c-8a9f-a9bb730c4ab5","system_id":"levelo_inurba_marseille","lat":43.26071,"lon":5.39381,"is_reserved":false,"is_disabled":false,"rental_uris":{"android":"levelo://app?vid=30d269d1-4607-415c-8a9f-a9bb730c4ab5","ios":"levelo://app?vid=30d269d1-4607-415c-8a9f-a9bb730c4ab5"},"vehicle_type_id":"4","last_reported":1739876866,"current_range_meters":20400,"station_id":"ce4bhh92rcd13ifvqfj0","pricing_plan_id":"cebpf4jnsgd1na2vs0mg"},{"bike_id":"faa5627a-502d-4c4e-88a7-77f9ccde7751","system_id":"levelo_inurba_marseille","lat":43.32496,"lon":5.36556,"is_reserved":false,"is_disabled":false,"rental_uris":{"android":"levelo://app?vid=faa5627a-502d-4c4e-88a7-77f9ccde7751","ios":"levelo://app?vid=faa5627a-502d-4c4e-88a7-77f9ccde7751"},"vehicle_type_id":"4","last_reported":1739876866,"current_range_meters":20800,"station_id":"ce4bhs12rcd13ifvqhvg","pricing_plan_id":"cebpf4jnsgd1na2vs0mg"},{"bike_id":"1a54f137-627a-4225-9c70-38b8efd54215","system_id":"levelo_inurba_marseille","lat":43.29041,"lon":5.35939,"is_reserved":false,"is_disabled":false,"rental_uris":{"android":"levelo://app?vid=1a54f137-627a-4225-9c70-38b8efd54215","ios":"levelo://app?vid=1a54f137-627a-4225-9c70-38b8efd54215"},"vehicle_type_id":"4","last_reported":1739876866,"current_range_meters":20800,"station_id":"ce4bha92rcd13ifvqeg0","pricing_plan_id":"cebpf4jnsgd1na2vs0mg"},{"bike_id":"b8ba712b-518c-4a7f-a696-736b03f0249b","system_id":"levelo_inurba_marseille","lat":43.29958,"lon":5.3649,"is_reserved":false,"is_disabled":false,"rental_uris":{"android":"levelo://app?vid=b8ba712b-518c-4a7f-a696-736b03f0249b","ios":"levelo://app?vid=b8ba712b-518c-4a7f-a696-736b03f0249b"},"vehicle_type_id":"4","last_reported":1739876866,"current_range_meters":20800,"station_id":"ce4bgm92rcd13ifvqbr0","pricing_plan_id":"cebpf4jnsgd1na2vs0mg"},{"bike_id":"2d2073e9-5dcb-4307-8449-88d636768d43","system_id":"levelo_inurba_marseille","lat":43.30468,"lon":5.37903,"is_reserved":false,"is_disabled":false,"rental_uris":{"android":"levelo://app?vid=2d2073e9-5dcb-4307-8449-88d636768d43","ios":"levelo://app?vid=2d2073e9-5dcb-4307-8449-88d636768d43"},"vehicle_type_id":"4","last_reported":1739876866,"current_range_meters":20800,"station_id":"ce4bgup2rcd13ifvqcn0","pricing_plan_id":"cebpf4jnsgd1na2vs0mg"},{"bike_id":"fb1a365f-292b-45e0-8295-96b46b4c15a8","system_id":"levelo_inurba_marseille","lat":43.24844,"lon":5.41892,"is_reserved":false,"is_disabled":false,"rental_uris":{"android":"levelo://app?vid=fb1a365f-292b-45e0-8295-96b46b4c15a8","ios":"levelo://app?vid=fb1a365f-292b-45e0-8295-96b46b4c15a8"},"vehicle_type_id":"4","last_reported":1739876866,"current_range_meters":21600,"station_id":"","pricing_plan_id":"cebpf4jnsgd1na2vs0mg"},{"bike_id":"5428c4a6-2268-45c5-aff9-a5f8e308d92b","system_id":"levelo_inurba_marseille","lat":43.30932,"lon":5.37257,"is_reserved":false,"is_disabled":false,"rental_uris":{"android":"levelo://app?vid=5428c4a6-2268-45c5-aff9-a5f8e308d92b","ios":"levelo://app?vid=5428c4a6-2268-45c5-aff9-a5f8e308d92b"},"vehicle_type_id":"4","last_reported":1739876866,"current_range_meters":21600,"station_id":"ce4bguh2rcd13ifvqckg","pricing_plan_id":"cebpf4jnsgd1na2vs0mg"},{"bike_id":"3ca880fb-be5d-41b1-9e3c-19b59ea52225","system_id":"levelo_inurba_marseille","lat":43.25514,"lon":5.37638,"is_reserved":false,"is_disabled":false,"rental_uris":{"android":"levelo://app?vid=3ca880fb-be5d-41b1-9e3c-19b59ea52225","ios":"levelo://app?vid=3ca880fb-be5d-41b1-9e3c-19b59ea52225"},"vehicle_type_id":"4","last_reported":1739876866,"current_range_meters":21600,"station_id":"ce4bhh12rcd13ifvqff0","pricing_plan_id":"cebpf4jnsgd1na2vs0mg"},{"bike_id":"4351da60-a5a9-431b-8ef5-6269d11fd548","system_id":"levelo_inurba_marseille","lat":43.30951,"lon":5.39033,"is_reserved":false,"is_disabled":false,"rental_uris":{"android":"levelo://app?vid=4351da60-a5a9-431b-8ef5-6269d11fd548","ios":"levelo://app?vid=4351da60-a5a9-431b-8ef5-6269d11fd548"},"vehicle_type_id":"4","last_reported":1739876866,"current_range_meters":18800,"station_id":"ce4bgup2rcd13ifvqco0","pricing_plan_id":"cebpf4jnsgd1na2vs0mg"},{"bike_id":"ecbd6e29-5b86-41d0-a4bd-3518ee3bab53","system_id":"levelo_inurba_marseille","lat":43.24653,"lon":5.38902,"is_reserved":false,"is_disabled":false,"rental_uris":{"android":"levelo://app?vid=ecbd6e29-5b86-41d0-a4bd-3518ee3bab53","ios":"levelo://app?vid=ecbd6e29-5b86-41d0-a4bd-3518ee3bab53"},"vehicle_type_id":"4","last_reported":1739876866,"current_range_meters":22000,"station_id":"ce4bhg12rcd13ifvqf60","pricing_plan_id":"cebpf4jnsgd1na2vs0mg"},{"bike_id":"c67d4339-7474-4877-8c06-48f37f55b196","system_id":"levelo_inurba_marseille","lat":43.32482,"lon":5.36596,"is_reserved":false,"is_disabled":true,"rental_uris":{"android":"levelo://app?vid=c67d4339-7474-4877-8c06-48f37f55b196","ios":"levelo://app?vid=c67d4339-7474-4877-8c06-48f37f55b196"},"vehicle_type_id":"4","last_reported":1739876866,"current_range_meters":21600,"station_id":"ce4bhs12rcd13ifvqhvg","pricing_plan_id":"cebpf4jnsgd1na2vs0mg"},{"bike_id":"3848ebb7-0be5-487c-b3c9-e083268af172","system_id":"levelo_inurba_marseille","lat":43.27343,"lon":5.38512,"is_reserved":false,"is_disabled":false,"rental_uris":{"android":"levelo://app?vid=3848ebb7-0be5-487c-b3c9-e083268af172","ios":"levelo://app?vid=3848ebb7-0be5-487c-b3c9-e083268af172"},"vehicle_type_id":"4","last_reported":1739876866,"current_range_meters":21600,"station_id":"","pricing_plan_id":"cebpf4jnsgd1na2vs0mg"},{"bike_id":"72c54cb9-572b-4827-82e3-0e1e69a62be7","system_id":"levelo_inurba_marseille","lat":43.292577,"lon":5.376256,"is_reserved":false,"is_disabled":false,"rental_uris":{"android":"levelo://app?vid=72c54cb9-572b-4827-82e3-0e1e69a62be7","ios":"levelo://app?vid=72c54cb9-572b-4827-82e3-0e1e69a62be7"},"vehicle_type_id":"4","last_reported":1739876866,"current_range_meters":21600,"station_id":"ce4bhb12rcd13ifvqel0","pricing_plan_id":"cebpf4jnsgd1na2vs0mg"},{"bike_id":"24ae4e97-e7f0-436f-b21b-3ece91f960bf","system_id":"levelo_inurba_marseille","lat":43.24762,"lon":5.37439,"is_reserved":false,"is_disabled":false,"rental_uris":{"android":"levelo://app?vid=24ae4e97-e7f0-436f-b21b-3ece91f960bf","ios":"levelo://app?vid=24ae4e97-e7f0-436f-b21b-3ece91f960bf"},"vehicle_type_id":"4","last_reported":1739876866,"current_range_meters":21600,"station_id":"","pricing_plan_id":"cebpf4jnsgd1na2vs0mg"},{"bike_id":"d20040a2-1a6e-4cbe-bb03-cd9c03b404f2","system_id":"levelo_inurba_marseille","lat":43.31719,"lon":5.42413,"is_reserved":false,"is_disabled":true,"rental_uris":{"android":"levelo://app?vid=d20040a2-1a6e-4cbe-bb03-cd9c03b404f2","ios":"levelo://app?vid=d20040a2-1a6e-4cbe-bb03-cd9c03b404f2"},"vehicle_type_id":"4","last_reported":1739876866,"current_range_meters":21600,"station_id":"ce4bhp92rcd13ifvqhbg","pricing_plan_id":"cebpf4jnsgd1na2vs0mg"},{"bike_id":"da9a19f2-2028-4e60-9cce-7752d60ae428","system_id":"levelo_inurba_marseille","lat":43.244,"lon":5.371,"is_reserved":false,"is_disabled":false,"rental_uris":{"android":"levelo://app?vid=da9a19f2-2028-4e60-9cce-7752d60ae428","ios":"levelo://app?vid=da9a19f2-2028-4e60-9cce-7752d60ae428"},"vehicle_type_id":"4","last_reported":1739876866,"current_range_meters":22000,"station_id":"","pricing_plan_id":"cebpf4jnsgd1na2vs0mg"},{"bike_id":"cf133d58-bb40-49fb-98ae-a1a5c9404dba","system_id":"levelo_inurba_marseille","lat":43.25082,"lon":5.39508,"is_reserved":false,"is_disabled":false,"rental_uris":{"android":"levelo://app?vid=cf133d58-bb40-49fb-98ae-a1a5c9404dba","ios":"levelo://app?vid=cf133d58-bb40-49fb-98ae-a1a5c9404dba"},"vehicle_type_id":"4","last_reported":1739876866,"current_range_meters":22000,"station_id":"ce4bhm12rcd13ifvqgkg","pricing_plan_id":"cebpf4jnsgd1na2vs0mg"},{"bike_id":"84d13e52-68f9-4dc5-bc1b-afc409821b3d","system_id":"levelo_inurba_marseille","lat":43.26564,"lon":5.37292,"is_reserved":false,"is_disabled":false,"rental_uris":{"android":"levelo://app?vid=84d13e52-68f9-4dc5-bc1b-afc409821b3d","ios":"levelo://app?vid=84d13e52-68f9-4dc5-bc1b-afc409821b3d"},"vehicle_type_id":"4","last_reported":1739876866,"current_range_meters":22000,"station_id":"ce4bhg12rcd13ifvqf70","pricing_plan_id":"cebpf4jnsgd1na2vs0mg"},{"bike_id":"c1ddaba9-96e5-4265-b7eb-414248b43c03","system_id":"levelo_inurba_marseille","lat":43.33016,"lon":5.39044,"is_reserved":false,"is_disabled":false,"rental_uris":{"android":"levelo://app?vid=c1ddaba9-96e5-4265-b7eb-414248b43c03","ios":"levelo://app?vid=c1ddaba9-96e5-4265-b7eb-414248b43c03"},"vehicle_type_id":"4","last_reported":1739876866,"current_range_meters":22000,"station_id":"ce4bhr92rcd13ifvqhrg","pricing_plan_id":"cebpf4jnsgd1na2vs0mg"},{"bike_id":"d85654ba-dc05-432f-8ac5-53d01a584ffd","system_id":"levelo_inurba_marseille","lat":43.30546,"lon":5.36565,"is_reserved":false,"is_disabled":false,"rental_uris":{"android":"levelo://app?vid=d85654ba-dc05-432f-8ac5-53d01a584ffd","ios":"levelo://app?vid=d85654ba-dc05-432f-8ac5-53d01a584ffd"},"vehicle_type_id":"4","last_reported":1739876866,"current_range_meters":22000,"station_id":"ce4bgs12rcd13ifvqcag","pricing_plan_id":"cebpf4jnsgd1na2vs0mg"},{"bike_id":"30fe80f4-ea4a-4258-8bed-1846594910d5","system_id":"levelo_inurba_marseille","lat":43.30138,"lon":5.37415,"is_reserved":false,"is_disabled":false,"rental_uris":{"android":"levelo://app?vid=30fe80f4-ea4a-4258-8bed-1846594910d5","ios":"levelo://app?vid=30fe80f4-ea4a-4258-8bed-1846594910d5"},"vehicle_type_id":"4","last_reported":1739876866,"current_range_meters":22000,"station_id":"ce4bgs92rcd13ifvqcc0","pricing_plan_id":"cebpf4jnsgd1na2vs0mg"},{"bike_id":"f6602e77-e8fa-47d2-bb90-7755e9fb4975","system_id":"levelo_inurba_marseille","lat":43.270566,"lon":5.402655,"is_reserved":false,"is_disabled":false,"rental_uris":{"android":"levelo://app?vid=f6602e77-e8fa-47d2-bb90-7755e9fb4975","ios":"levelo://app?vid=f6602e77-e8fa-47d2-bb90-7755e9fb4975"},"vehicle_type_id":"4","last_reported":1739876866,"current_range_meters":22000,"station_id":"ce4bhk92rcd13ifvqgc0","pricing_plan_id":"cebpf4jnsgd1na2vs0mg"},{"bike_id":"94ce4c1f-b676-43e1-9e28-ed9f6f6c8e2b","system_id":"levelo_inurba_marseille","lat":43.23621,"lon":5.39183,"is_reserved":false,"is_disabled":false,"rental_uris":{"android":"levelo://app?vid=94ce4c1f-b676-43e1-9e28-ed9f6f6c8e2b","ios":"levelo://app?vid=94ce4c1f-b676-43e1-9e28-ed9f6f6c8e2b"},"vehicle_type_id":"4","last_reported":1739876866,"current_range_meters":22400,"station_id":"","pricing_plan_id":"cebpf4jnsgd1na2vs0mg"},{"bike_id":"8ee94ea2-09f4-4b7a-be07-7c80ff56ee5f","system_id":"levelo_inurba_marseille","lat":43.30803,"lon":5.38151,"is_reserved":false,"is_disabled":false,"rental_uris":{"android":"levelo://app?vid=8ee94ea2-09f4-4b7a-be07-7c80ff56ee5f","ios":"levelo://app?vid=8ee94ea2-09f4-4b7a-be07-7c80ff56ee5f"},"vehicle_type_id":"4","last_reported":1739876866,"current_range_meters":22800,"station_id":"ce4bgt12rcd13ifvqce0","pricing_plan_id":"cebpf4jnsgd1na2vs0mg"},{"bike_id":"ae194afa-f1a2-4dbe-84ce-d261ac84ea0a","system_id":"levelo_inurba_marseille","lat":43.29604,"lon":5.38111,"is_reserved":false,"is_disabled":false,"rental_uris":{"android":"levelo://app?vid=ae194afa-f1a2-4dbe-84ce-d261ac84ea0a","ios":"levelo://app?vid=ae194afa-f1a2-4dbe-84ce-d261ac84ea0a"},"vehicle_type_id":"4","last_reported":1739876866,"current_range_meters":22000,"station_id":"cki0cbj6b192h4jlfktg","pricing_plan_id":"cebpf4jnsgd1na2vs0mg"},{"bike_id":"53973d76-1956-4dd0-a85e-f656c4866ac3","system_id":"levelo_inurba_marseille","lat":43.30416,"lon":5.41278,"is_reserved":false,"is_disabled":false,"rental_uris":{"android":"levelo://app?vid=53973d76-1956-4dd0-a85e-f656c4866ac3","ios":"levelo://app?vid=53973d76-1956-4dd0-a85e-f656c4866ac3"},"vehicle_type_id":"4","last_reported":1739876866,"current_range_meters":22400,"station_id":"ce4bhop2rcd13ifvqh8g","pricing_plan_id":"cebpf4jnsgd1na2vs0mg"},{"bike_id":"0396d488-6aeb-466c-a9c4-e21e0acd72cb","system_id":"levelo_inurba_marseille","lat":43.32349,"lon":5.36753,"is_reserved":false,"is_disabled":false,"rental_uris":{"android":"levelo://app?vid=0396d488-6aeb-466c-a9c4-e21e0acd72cb","ios":"levelo://app?vid=0396d488-6aeb-466c-a9c4-e21e0acd72cb"},"vehicle_type_id":"4","last_reported":1739876866,"current_range_meters":22400,"station_id":"ce4bhsh2rcd13ifvqi2g","pricing_plan_id":"cebpf4jnsgd1na2vs0mg"},{"bike_id":"bccd2964-359c-4e85-8cd9-35defe4a19d6","system_id":"levelo_inurba_marseille","lat":43.24061,"lon":5.37742,"is_reserved":false,"is_disabled":false,"rental_uris":{"android":"levelo://app?vid=bccd2964-359c-4e85-8cd9-35defe4a19d6","ios":"levelo://app?vid=bccd2964-359c-4e85-8cd9-35defe4a19d6"},"vehicle_type_id":"4","last_reported":1739876866,"current_range_meters":22400,"station_id":"ce4bhnp2rcd13ifvqgvg","pricing_plan_id":"cebpf4jnsgd1na2vs0mg"},{"bike_id":"f27d8168-ce97-4050-849c-93fe5508d445","system_id":"levelo_inurba_marseille","lat":43.30955,"lon":5.39622,"is_reserved":false,"is_disabled":false,"rental_uris":{"android":"levelo://app?vid=f27d8168-ce97-4050-849c-93fe5508d445","ios":"levelo://app?vid=f27d8168-ce97-4050-849c-93fe5508d445"},"vehicle_type_id":"4","last_reported":1739876866,"current_range_meters":22800,"station_id":"","pricing_plan_id":"cebpf4jnsgd1na2vs0mg"},{"bike_id":"c204d79d-2708-4394-b7f7-eca8cdf756de","system_id":"levelo_inurba_marseille","lat":43.30316,"lon":5.369,"is_reserved":false,"is_disabled":false,"rental_uris":{"android":"levelo://app?vid=c204d79d-2708-4394-b7f7-eca8cdf756de","ios":"levelo://app?vid=c204d79d-2708-4394-b7f7-eca8cdf756de"},"vehicle_type_id":"4","last_reported":1739876866,"current_range_meters":22800,"station_id":"ce4bgqh2rcd13ifvqc5g","pricing_plan_id":"cebpf4jnsgd1na2vs0mg"},{"bike_id":"89b0891e-671e-4b94-b8a0-bc4cd38018bf","system_id":"levelo_inurba_marseille","lat":43.24176,"lon":5.36403,"is_reserved":false,"is_disabled":false,"rental_uris":{"android":"levelo://app?vid=89b0891e-671e-4b94-b8a0-bc4cd38018bf","ios":"levelo://app?vid=89b0891e-671e-4b94-b8a0-bc4cd38018bf"},"vehicle_type_id":"4","last_reported":1739876866,"current_range_meters":22800,"station_id":"","pricing_plan_id":"cebpf4jnsgd1na2vs0mg"},{"bike_id":"756dc80a-e947-44a3-b438-84a7ed017b06","system_id":"levelo_inurba_marseille","lat":43.2991,"lon":5.3814,"is_reserved":false,"is_disabled":false,"rental_uris":{"android":"levelo://app?vid=756dc80a-e947-44a3-b438-84a7ed017b06","ios":"levelo://app?vid=756dc80a-e947-44a3-b438-84a7ed017b06"},"vehicle_type_id":"4","last_reported":1739876866,"current_range_meters":22800,"station_id":"ce4bgj12rcd13ifvqbc0","pricing_plan_id":"cebpf4jnsgd1na2vs0mg"},{"bike_id":"6445c00a-7457-4443-b9e8-ee3adce232e7","system_id":"levelo_inurba_marseille","lat":43.309222,"lon":5.396549,"is_reserved":false,"is_disabled":false,"rental_uris":{"android":"levelo://app?vid=6445c00a-7457-4443-b9e8-ee3adce232e7","ios":"levelo://app?vid=6445c00a-7457-4443-b9e8-ee3adce232e7"},"vehicle_type_id":"4","last_reported":1739876866,"current_range_meters":22800,"station_id":"ce4bh012rcd13ifvqcv0","pricing_plan_id":"cebpf4jnsgd1na2vs0mg"},{"bike_id":"d9102e21-6294-472e-8da2-16dfb746ec2b","system_id":"levelo_inurba_marseille","lat":43.28115,"lon":5.44589,"is_reserved":false,"is_disabled":false,"rental_uris":{"android":"levelo://app?vid=d9102e21-6294-472e-8da2-16dfb746ec2b","ios":"levelo://app?vid=d9102e21-6294-472e-8da2-16dfb746ec2b"},"vehicle_type_id":"4","last_reported":1739876866,"current_range_meters":22800,"station_id":"ce4bhnh2rcd13ifvqgtg","pricing_plan_id":"cebpf4jnsgd1na2vs0mg"},{"bike_id":"52c0e38a-6ba5-4f7f-a45b-c156d8798798","system_id":"levelo_inurba_marseille","lat":43.28936,"lon":5.36642,"is_reserved":false,"is_disabled":false,"rental_uris":{"android":"levelo://app?vid=52c0e38a-6ba5-4f7f-a45b-c156d8798798","ios":"levelo://app?vid=52c0e38a-6ba5-4f7f-a45b-c156d8798798"},"vehicle_type_id":"4","last_reported":1739876866,"current_range_meters":23200,"station_id":"ce4bhap2rcd13ifvqek0","pricing_plan_id":"cebpf4jnsgd1na2vs0mg"},{"bike_id":"e5d5e368-6cf3-49c9-a43e-653a492e9e45","system_id":"levelo_inurba_marseille","lat":43.342,"lon":5.37286,"is_reserved":false,"is_disabled":false,"rental_uris":{"android":"levelo://app?vid=e5d5e368-6cf3-49c9-a43e-653a492e9e45","ios":"levelo://app?vid=e5d5e368-6cf3-49c9-a43e-653a492e9e45"},"vehicle_type_id":"4","last_reported":1739876866,"current_range_meters":23200,"station_id":"","pricing_plan_id":"cebpf4jnsgd1na2vs0mg"},{"bike_id":"b3d77e87-a272-4116-9fe2-ed878a3c9216","system_id":"levelo_inurba_marseille","lat":43.27742,"lon":5.43345,"is_reserved":false,"is_disabled":false,"rental_uris":{"android":"levelo://app?vid=b3d77e87-a272-4116-9fe2-ed878a3c9216","ios":"levelo://app?vid=b3d77e87-a272-4116-9fe2-ed878a3c9216"},"vehicle_type_id":"4","last_reported":1739876866,"current_range_meters":23200,"station_id":"","pricing_plan_id":"cebpf4jnsgd1na2vs0mg"},{"bike_id":"34d0692e-9df7-4c58-9c1c-340bd339e57e","system_id":"levelo_inurba_marseille","lat":43.337444,"lon":5.374475,"is_reserved":false,"is_disabled":false,"rental_uris":{"android":"levelo://app?vid=34d0692e-9df7-4c58-9c1c-340bd339e57e","ios":"levelo://app?vid=34d0692e-9df7-4c58-9c1c-340bd339e57e"},"vehicle_type_id":"4","last_reported":1739876866,"current_range_meters":23200,"station_id":"","pricing_plan_id":"cebpf4jnsgd1na2vs0mg"},{"bike_id":"99658499-cf3b-4af7-ac3b-05ef340fdc37","system_id":"levelo_inurba_marseille","lat":43.29414,"lon":5.38629,"is_reserved":false,"is_disabled":false,"rental_uris":{"android":"levelo://app?vid=99658499-cf3b-4af7-ac3b-05ef340fdc37","ios":"levelo://app?vid=99658499-cf3b-4af7-ac3b-05ef340fdc37"},"vehicle_type_id":"4","last_reported":1739876866,"current_range_meters":24000,"station_id":"ce4bgip2rcd13ifvqbb0","pricing_plan_id":"cebpf4jnsgd1na2vs0mg"},{"bike_id":"64cc0f0e-64ac-40fb-8579-1daae4142fb2","system_id":"levelo_inurba_marseille","lat":43.23963,"lon":5.36644,"is_reserved":false,"is_disabled":false,"rental_uris":{"android":"levelo://app?vid=64cc0f0e-64ac-40fb-8579-1daae4142fb2","ios":"levelo://app?vid=64cc0f0e-64ac-40fb-8579-1daae4142fb2"},"vehicle_type_id":"4","last_reported":1739876866,"current_range_meters":23200,"station_id":"","pricing_plan_id":"cebpf4jnsgd1na2vs0mg"},{"bike_id":"0d4ff22d-08c9-46ce-a58c-5c077bf08a9e","system_id":"levelo_inurba_marseille","lat":43.30308,"lon":5.36894,"is_reserved":false,"is_disabled":false,"rental_uris":{"android":"levelo://app?vid=0d4ff22d-08c9-46ce-a58c-5c077bf08a9e","ios":"levelo://app?vid=0d4ff22d-08c9-46ce-a58c-5c077bf08a9e"},"vehicle_type_id":"4","last_reported":1739876866,"current_range_meters":23200,"station_id":"ce4bgqh2rcd13ifvqc5g","pricing_plan_id":"cebpf4jnsgd1na2vs0mg"},{"bike_id":"4c223092-348b-4732-a13c-882040e03585","system_id":"levelo_inurba_marseille","lat":43.337444,"lon":5.374475,"is_reserved":false,"is_disabled":false,"rental_uris":{"android":"levelo://app?vid=4c223092-348b-4732-a13c-882040e03585","ios":"levelo://app?vid=4c223092-348b-4732-a13c-882040e03585"},"vehicle_type_id":"4","last_reported":1739876866,"current_range_meters":23200,"station_id":"","pricing_plan_id":"cebpf4jnsgd1na2vs0mg"},{"bike_id":"e059a3fd-3114-4475-af38-de5c10094dac","system_id":"levelo_inurba_marseille","lat":43.27062,"lon":5.40277,"is_reserved":false,"is_disabled":false,"rental_uris":{"android":"levelo://app?vid=e059a3fd-3114-4475-af38-de5c10094dac","ios":"levelo://app?vid=e059a3fd-3114-4475-af38-de5c10094dac"},"vehicle_type_id":"4","last_reported":1739876866,"current_range_meters":23200,"station_id":"ce4bhk92rcd13ifvqgc0","pricing_plan_id":"cebpf4jnsgd1na2vs0mg"},{"bike_id":"cc4ae614-f122-4bd6-9486-364b87e2775e","system_id":"levelo_inurba_marseille","lat":43.30529,"lon":5.36694,"is_reserved":false,"is_disabled":false,"rental_uris":{"android":"levelo://app?vid=cc4ae614-f122-4bd6-9486-364b87e2775e","ios":"levelo://app?vid=cc4ae614-f122-4bd6-9486-364b87e2775e"},"vehicle_type_id":"4","last_reported":1739876866,"current_range_meters":23200,"station_id":"ce4bgrp2rcd13ifvqc9g","pricing_plan_id":"cebpf4jnsgd1na2vs0mg"},{"bike_id":"48593bc2-cf3d-4b39-a035-e1852f330d0e","system_id":"levelo_inurba_marseille","lat":43.30534,"lon":5.36733,"is_reserved":false,"is_disabled":false,"rental_uris":{"android":"levelo://app?vid=48593bc2-cf3d-4b39-a035-e1852f330d0e","ios":"levelo://app?vid=48593bc2-cf3d-4b39-a035-e1852f330d0e"},"vehicle_type_id":"4","last_reported":1739876866,"current_range_meters":23200,"station_id":"ce4bgrp2rcd13ifvqc9g","pricing_plan_id":"cebpf4jnsgd1na2vs0mg"},{"bike_id":"731075f9-9d39-4c76-aeeb-63db11f53970","system_id":"levelo_inurba_marseille","lat":43.30922,"lon":5.4015,"is_reserved":false,"is_disabled":false,"rental_uris":{"android":"levelo://app?vid=731075f9-9d39-4c76-aeeb-63db11f53970","ios":"levelo://app?vid=731075f9-9d39-4c76-aeeb-63db11f53970"},"vehicle_type_id":"4","last_reported":1739876866,"current_range_meters":23200,"station_id":"","pricing_plan_id":"cebpf4jnsgd1na2vs0mg"},{"bike_id":"4d992217-9312-4c6e-816c-125bfad16b58","system_id":"levelo_inurba_marseille","lat":43.2544,"lon":5.37683,"is_reserved":false,"is_disabled":false,"rental_uris":{"android":"levelo://app?vid=4d992217-9312-4c6e-816c-125bfad16b58","ios":"levelo://app?vid=4d992217-9312-4c6e-816c-125bfad16b58"},"vehicle_type_id":"4","last_reported":1739876866,"current_range_meters":24000,"station_id":"ce4bhg92rcd13ifvqf90","pricing_plan_id":"cebpf4jnsgd1na2vs0mg"},{"bike_id":"a0ab87bf-4572-4477-bb77-0112b3dd9175","system_id":"levelo_inurba_marseille","lat":43.32483,"lon":5.36577,"is_reserved":false,"is_disabled":false,"rental_uris":{"android":"levelo://app?vid=a0ab87bf-4572-4477-bb77-0112b3dd9175","ios":"levelo://app?vid=a0ab87bf-4572-4477-bb77-0112b3dd9175"},"vehicle_type_id":"4","last_reported":1739876866,"current_range_meters":23200,"station_id":"ce4bhs12rcd13ifvqhvg","pricing_plan_id":"cebpf4jnsgd1na2vs0mg"},{"bike_id":"350278e5-c730-42f2-bee0-b11e59f7daca","system_id":"levelo_inurba_marseille","lat":43.26788,"lon":5.39413,"is_reserved":false,"is_disabled":false,"rental_uris":{"android":"levelo://app?vid=350278e5-c730-42f2-bee0-b11e59f7daca","ios":"levelo://app?vid=350278e5-c730-42f2-bee0-b11e59f7daca"},"vehicle_type_id":"4","last_reported":1739876866,"current_range_meters":25200,"station_id":"ce4bhh12rcd13ifvqfg0","pricing_plan_id":"cebpf4jnsgd1na2vs0mg"},{"bike_id":"0b1a3b32-459a-4ff9-a388-d16482304482","system_id":"levelo_inurba_marseille","lat":43.27989,"lon":5.40011,"is_reserved":false,"is_disabled":true,"rental_uris":{"android":"levelo://app?vid=0b1a3b32-459a-4ff9-a388-d16482304482","ios":"levelo://app?vid=0b1a3b32-459a-4ff9-a388-d16482304482"},"vehicle_type_id":"4","last_reported":1739876866,"current_range_meters":24000,"station_id":"","pricing_plan_id":"cebpf4jnsgd1na2vs0mg"},{"bike_id":"8becd64c-893d-4a08-8876-b1598e031c70","system_id":"levelo_inurba_marseille","lat":43.27961,"lon":5.38754,"is_reserved":false,"is_disabled":true,"rental_uris":{"android":"levelo://app?vid=8becd64c-893d-4a08-8876-b1598e031c70","ios":"levelo://app?vid=8becd64c-893d-4a08-8876-b1598e031c70"},"vehicle_type_id":"4","last_reported":1739876866,"current_range_meters":24000,"station_id":"","pricing_plan_id":"cebpf4jnsgd1na2vs0mg"},{"bike_id":"b089674d-53e8-473f-980b-abdc917c4bf9","system_id":"levelo_inurba_marseille","lat":43.311715,"lon":5.387198,"is_reserved":false,"is_disabled":false,"rental_uris":{"android":"levelo://app?vid=b089674d-53e8-473f-980b-abdc917c4bf9","ios":"levelo://app?vid=b089674d-53e8-473f-980b-abdc917c4bf9"},"vehicle_type_id":"4","last_reported":1739876866,"current_range_meters":24000,"station_id":"","pricing_plan_id":"cebpf4jnsgd1na2vs0mg"},{"bike_id":"003c44c1-3cd5-48e6-afbd-3e395aa9e710","system_id":"levelo_inurba_marseille","lat":43.29925,"lon":5.43639,"is_reserved":false,"is_disabled":false,"rental_uris":{"android":"levelo://app?vid=003c44c1-3cd5-48e6-afbd-3e395aa9e710","ios":"levelo://app?vid=003c44c1-3cd5-48e6-afbd-3e395aa9e710"},"vehicle_type_id":"4","last_reported":1739876866,"current_range_meters":24000,"station_id":"ce4bhpp2rcd13ifvqhfg","pricing_plan_id":"cebpf4jnsgd1na2vs0mg"},{"bike_id":"b1aaacb1-b782-4128-8c03-b19086f3acf4","system_id":"levelo_inurba_marseille","lat":43.270515,"lon":5.387506,"is_reserved":false,"is_disabled":false,"rental_uris":{"android":"levelo://app?vid=b1aaacb1-b782-4128-8c03-b19086f3acf4","ios":"levelo://app?vid=b1aaacb1-b782-4128-8c03-b19086f3acf4"},"vehicle_type_id":"4","last_reported":1739876866,"current_range_meters":24000,"station_id":"ce4bhih2rcd13ifvqfs0","pricing_plan_id":"cebpf4jnsgd1na2vs0mg"},{"bike_id":"10f1a21b-82f6-4c31-8f92-0fcf51ed85d7","system_id":"levelo_inurba_marseille","lat":43.31487,"lon":5.3731,"is_reserved":false,"is_disabled":false,"rental_uris":{"android":"levelo://app?vid=10f1a21b-82f6-4c31-8f92-0fcf51ed85d7","ios":"levelo://app?vid=10f1a21b-82f6-4c31-8f92-0fcf51ed85d7"},"vehicle_type_id":"4","last_reported":1739876866,"current_range_meters":24000,"station_id":"ce4bgt12rcd13ifvqcd0","pricing_plan_id":"cebpf4jnsgd1na2vs0mg"},{"bike_id":"f7082bf0-291d-4f19-8aea-caa1d9f5d823","system_id":"levelo_inurba_marseille","lat":43.27122,"lon":5.38709,"is_reserved":false,"is_disabled":false,"rental_uris":{"android":"levelo://app?vid=f7082bf0-291d-4f19-8aea-caa1d9f5d823","ios":"levelo://app?vid=f7082bf0-291d-4f19-8aea-caa1d9f5d823"},"vehicle_type_id":"4","last_reported":1739876866,"current_range_meters":24000,"station_id":"","pricing_plan_id":"cebpf4jnsgd1na2vs0mg"},{"bike_id":"0dad2052-0dec-40ad-98e8-244b00af0a54","system_id":"levelo_inurba_marseille","lat":43.2481,"lon":5.37446,"is_reserved":false,"is_disabled":false,"rental_uris":{"android":"levelo://app?vid=0dad2052-0dec-40ad-98e8-244b00af0a54","ios":"levelo://app?vid=0dad2052-0dec-40ad-98e8-244b00af0a54"},"vehicle_type_id":"4","last_reported":1739876866,"current_range_meters":24000,"station_id":"","pricing_plan_id":"cebpf4jnsgd1na2vs0mg"},{"bike_id":"8388afa3-b2ce-4de0-8a64-e6901b42c494","system_id":"levelo_inurba_marseille","lat":43.23195,"lon":5.35557,"is_reserved":false,"is_disabled":false,"rental_uris":{"android":"levelo://app?vid=8388afa3-b2ce-4de0-8a64-e6901b42c494","ios":"levelo://app?vid=8388afa3-b2ce-4de0-8a64-e6901b42c494"},"vehicle_type_id":"4","last_reported":1739876866,"current_range_meters":23200,"station_id":"ce4bhu92rcd13ifvqi70","pricing_plan_id":"cebpf4jnsgd1na2vs0mg"},{"bike_id":"03bb80d2-2d58-477e-8d77-d8a9b94a8f21","system_id":"levelo_inurba_marseille","lat":43.23779,"lon":5.40334,"is_reserved":false,"is_disabled":false,"rental_uris":{"android":"levelo://app?vid=03bb80d2-2d58-477e-8d77-d8a9b94a8f21","ios":"levelo://app?vid=03bb80d2-2d58-477e-8d77-d8a9b94a8f21"},"vehicle_type_id":"4","last_reported":1739876866,"current_range_meters":24000,"station_id":"","pricing_plan_id":"cebpf4jnsgd1na2vs0mg"},{"bike_id":"56fd57aa-2651-432b-bd96-8e7f8f14d865","system_id":"levelo_inurba_marseille","lat":43.33731,"lon":5.39181,"is_reserved":false,"is_disabled":false,"rental_uris":{"android":"levelo://app?vid=56fd57aa-2651-432b-bd96-8e7f8f14d865","ios":"levelo://app?vid=56fd57aa-2651-432b-bd96-8e7f8f14d865"},"vehicle_type_id":"4","last_reported":1739876866,"current_range_meters":24000,"station_id":"ce4bhr92rcd13ifvqhsg","pricing_plan_id":"cebpf4jnsgd1na2vs0mg"},{"bike_id":"52ebe0df-158d-4ab0-8c77-2e547ec0cc49","system_id":"levelo_inurba_marseille","lat":43.29816,"lon":5.40414,"is_reserved":false,"is_disabled":true,"rental_uris":{"android":"levelo://app?vid=52ebe0df-158d-4ab0-8c77-2e547ec0cc49","ios":"levelo://app?vid=52ebe0df-158d-4ab0-8c77-2e547ec0cc49"},"vehicle_type_id":"4","last_reported":1739876866,"current_range_meters":24000,"station_id":"ce4bh112rcd13ifvqd90","pricing_plan_id":"cebpf4jnsgd1na2vs0mg"},{"bike_id":"9b869e10-654d-4fd1-b79b-b0ed7cf9f348","system_id":"levelo_inurba_marseille","lat":43.24171,"lon":5.39731,"is_reserved":false,"is_disabled":false,"rental_uris":{"android":"levelo://app?vid=9b869e10-654d-4fd1-b79b-b0ed7cf9f348","ios":"levelo://app?vid=9b869e10-654d-4fd1-b79b-b0ed7cf9f348"},"vehicle_type_id":"4","last_reported":1739876866,"current_range_meters":24000,"station_id":"ce4bhn12rcd13ifvqgpg","pricing_plan_id":"cebpf4jnsgd1na2vs0mg"},{"bike_id":"19af7ff6-62c6-4632-92e3-5b3e45e929b7","system_id":"levelo_inurba_marseille","lat":43.3087,"lon":5.39652,"is_reserved":false,"is_disabled":false,"rental_uris":{"android":"levelo://app?vid=19af7ff6-62c6-4632-92e3-5b3e45e929b7","ios":"levelo://app?vid=19af7ff6-62c6-4632-92e3-5b3e45e929b7"},"vehicle_type_id":"4","last_reported":1739876866,"current_range_meters":24400,"station_id":"ce4bh012rcd13ifvqcv0","pricing_plan_id":"cebpf4jnsgd1na2vs0mg"},{"bike_id":"0736807f-cb18-4ffc-a703-ee45b99243c6","system_id":"levelo_inurba_marseille","lat":43.24176,"lon":5.39724,"is_reserved":false,"is_disabled":false,"rental_uris":{"android":"levelo://app?vid=0736807f-cb18-4ffc-a703-ee45b99243c6","ios":"levelo://app?vid=0736807f-cb18-4ffc-a703-ee45b99243c6"},"vehicle_type_id":"4","last_reported":1739876866,"current_range_meters":24400,"station_id":"ce4bhn12rcd13ifvqgpg","pricing_plan_id":"cebpf4jnsgd1na2vs0mg"},{"bike_id":"d543c970-94f1-410c-af0d-cd6e092377ce","system_id":"levelo_inurba_marseille","lat":43.28855,"lon":5.35833,"is_reserved":false,"is_disabled":true,"rental_uris":{"android":"levelo://app?vid=d543c970-94f1-410c-af0d-cd6e092377ce","ios":"levelo://app?vid=d543c970-94f1-410c-af0d-cd6e092377ce"},"vehicle_type_id":"4","last_reported":1739876866,"current_range_meters":24400,"station_id":"","pricing_plan_id":"cebpf4jnsgd1na2vs0mg"},{"bike_id":"64fb73a0-29f9-4fd9-a722-5762c1b56209","system_id":"levelo_inurba_marseille","lat":43.302543,"lon":5.390689,"is_reserved":false,"is_disabled":false,"rental_uris":{"android":"levelo://app?vid=64fb73a0-29f9-4fd9-a722-5762c1b56209","ios":"levelo://app?vid=64fb73a0-29f9-4fd9-a722-5762c1b56209"},"vehicle_type_id":"4","last_reported":1739876866,"current_range_meters":24400,"station_id":"","pricing_plan_id":"cebpf4jnsgd1na2vs0mg"},{"bike_id":"ba1c6b0b-b71b-4ebe-8a83-b6c3528dc145","system_id":"levelo_inurba_marseille","lat":43.27672,"lon":5.38913,"is_reserved":false,"is_disabled":false,"rental_uris":{"android":"levelo://app?vid=ba1c6b0b-b71b-4ebe-8a83-b6c3528dc145","ios":"levelo://app?vid=ba1c6b0b-b71b-4ebe-8a83-b6c3528dc145"},"vehicle_type_id":"4","last_reported":1739876866,"current_range_meters":24400,"station_id":"ce4bhi12rcd13ifvqfo0","pricing_plan_id":"cebpf4jnsgd1na2vs0mg"},{"bike_id":"7bbc2050-eb0d-4fbf-92c1-3a2379aaaa53","system_id":"levelo_inurba_marseille","lat":43.30316,"lon":5.36895,"is_reserved":false,"is_disabled":false,"rental_uris":{"android":"levelo://app?vid=7bbc2050-eb0d-4fbf-92c1-3a2379aaaa53","ios":"levelo://app?vid=7bbc2050-eb0d-4fbf-92c1-3a2379aaaa53"},"vehicle_type_id":"4","last_reported":1739876866,"current_range_meters":24400,"station_id":"","pricing_plan_id":"cebpf4jnsgd1na2vs0mg"},