{"last_updated":1747512603,"ttl":60,"version":"2.2","data":{"bikes":[{"bike_id":"e648f167-51b0-43db-8615-93bc34ebe86b","system_id":"levelo_inurba_marseille","lat":43.3112,"lon":5.37763,"is_reserved":false,"is_disabled":false,"rental_uris":{"android":"levelo://app?vid=e648f167-51b0-43db-8615-93bc34ebe86b","ios":"levelo://app?vid=e648f167-51b0-43db-8615-93bc34ebe86b"},"vehicle_type_id":"4","last_reported":1747512603,"current_range_meters":2800,"station_id":"ce4bgt92rcd13ifvqcg0","pricing_plan_id":"cebpf4jnsgd1na2vs0mg"},{"bike_id":"74814491-cb0c-42ba-902d-fd8d6f117f8e","system_id":"levelo_inurba_marseille","lat":43.24678,"lon":5.38144,"is_reserved":false,"is_disabled":false,"rental_uris":{"android":"levelo://app?vid=74814491-cb0c-42ba-902d-fd8d6f117f8e","ios":"levelo://app?vid=74814491-cb0c-42ba-902d-fd8d6f117f8e"},"vehicle_type_id":"4","last_reported":1747512603,"current_range_meters":2800,"station_id":"ce4bhih2rcd13ifvqfr0","pricing_plan_id":"cebpf4jnsgd1na2vs0mg"},{"bike_id":"61bbb324-7fdb-4bd8-ba1c-27cfd7c78b90","system_id":"levelo_inurba_marseille","lat":43.28076,"lon":5.3966,"is_reserved":false,"is_disabled":false,"rental_uris":{"android":"levelo://app?vid=61bbb324-7fdb-4bd8-ba1c-27cfd7c78b90","ios":"levelo://app?vid=61bbb324-7fdb-4bd8-ba1c-27cfd7c78b90"},"vehicle_type_id":"4","last_reported":1747512603,"current_range_meters":2800,"station_id":"ce4bho12rcd13ifvqh2g","pricing_plan_id":"cebpf4jnsgd1na2vs0mg"},{"bike_id":"af0d3936-70f7-4156-b10d-985a4f044711","system_id":"levelo_inurba_marseille","lat":43.28456,"lon":5.39177,"is_reserved":false,"is_disabled":false,"rental_uris":{"android":"levelo://app?vid=af0d3936-70f7-4156-b10d-985a4f044711","ios":"levelo://app?vid=af0d3936-70f7-4156-b10d-985a4f044711"},"vehicle_type_id":"4","last_reported":1747512603,"current_range_meters":2800,"station_id":"ce4bhoh2rcd13ifvqh5g","pricing_plan_id":"cebpf4jnsgd1na2vs0mg"},{"bike_id":"58279f37-af99-4de1-8be8-5f31b2c9d8b4","system_id":"levelo_inurba_marseille","lat":43.29261,"lon":5.40901,"is_reserved":false,"is_disabled":false,"rental_uris":{"android":"levelo://app?vid=58279f37-af99-4de1-8be8-5f31b2c9d8b4","ios":"levelo://app?vid=58279f37-af99-4de1-8be8-5f31b2c9d8b4"},"vehicle_type_id":"4","last_reported":1747512603,"current_range_meters":2800,"station_id":"ce4bh192rcd13ifvqdc0","pricing_plan_id":"cebpf4jnsgd1na2vs0mg"},{"bike_id":"708926e1-8aca-4d92-93d1-7729fb2d0558","system_id":"levelo_inurba_marseille","lat":43.28482,"lon":5.38406,"is_reserved":false,"is_disabled":false,"rental_uris":{"android":"levelo://app?vid=708926e1-8aca-4d92-93d1-7729fb2d0558","ios":"levelo://app?vid=708926e1-8aca-4d92-93d1-7729fb2d0558"},"vehicle_type_id":"4","last_reported":1747512603,"current_range_meters":3200,"station_id":"ce4bh512rcd13ifvqe3g","pricing_plan_id":"cebpf4jnsgd1na2vs0mg"},{"bike_id":"29f3129d-0123-42fc-86d8-d3c048602f07","system_id":"levelo_inurba_marseille","lat":43.28107,"lon":5.37836,"is_reserved":false,"is_disabled":false,"rental_uris":{"android":"levelo://app?vid=29f3129d-0123-42fc-86d8-d3c048602f07","ios":"levelo://app?vid=29f3129d-0123-42fc-86d8-d3c048602f07"},"vehicle_type_id":"4","last_reported":1747512603,"current_range_meters":3200,"station_id":"ce4bha12rcd13ifvqee0","pricing_plan_id":"cebpf4jnsgd1na2vs0mg"},{"bike_id":"2f4862e2-472e-4fd5-b37d-a90ffd1097b8","system_id":"levelo_inurba_marseille","lat":43.32479,"lon":5.36574,"is_reserved":false,"is_disabled":false,"rental_uris":{"android":"levelo://app?vid=2f4862e2-472e-4fd5-b37d-a90ffd1097b8","ios":"levelo://app?vid=2f4862e2-472e-4fd5-b37d-a90ffd1097b8"},"vehicle_type_id":"4","last_reported":1747512603,"current_range_meters":3200,"station_id":"ce4bhs12rcd13ifvqhvg","pricing_plan_id":"cebpf4jnsgd1na2vs0mg"},{"bike_id":"61159754-233e-4c9f-9a88-ae2a620745c1","system_id":"levelo_inurba_marseille","lat":43.29266,"lon":5.40129,"is_reserved":false,"is_disabled":true,"rental_uris":{"android":"levelo://app?vid=61159754-233e-4c9f-9a88-ae2a620745c1","ios":"levelo://app?vid=61159754-233e-4c9f-9a88-ae2a620745c1"},"vehicle_type_id":"4","last_reported":1747512603,"current_range_meters":3200,"station_id":"ce4bh312rcd13ifvqdk0","pricing_plan_id":"cebpf4jnsgd1na2vs0mg"},{"bike_id":"54255574-d73a-48d1-85ed-ee6fbfc41d57","system_id":"levelo_inurba_marseille","lat":43.25456,"lon":5.37579,"is_reserved":false,"is_disabled":true,"rental_uris":{"android":"levelo://app?vid=54255574-d73a-48d1-85ed-ee6fbfc41d57","ios":"levelo://app?vid=54255574-d73a-48d1-85ed-ee6fbfc41d57"},"vehicle_type_id":"4","last_reported":1747512603,"current_range_meters":3200,"station_id":"","pricing_plan_id":"cebpf4jnsgd1na2vs0mg"},{"bike_id":"a01f2c49-80b2-426f-8b75-669195d980af","system_id":"levelo_inurba_marseille","lat":43.2509,"lon":5.39519,"is_reserved":false,"is_disabled":true,"rental_uris":{"android":"levelo://app?vid=a01f2c49-80b2-426f-8b75-669195d980af","ios":"levelo://app?vid=a01f2c49-80b2-426f-8b75-669195d980af"},"vehicle_type_id":"4","last_reported":1747512603,"current_range_meters":3600,"station_id":"ce4bhm12rcd13ifvqgkg","pricing_plan_id":"cebpf4jnsgd1na2vs0mg"},{"bike_id":"792e71ca-268e-4fb8-8216-59ee251c6ea6","system_id":"levelo_inurba_marseille","lat":43.32064,"lon":5.41557,"is_reserved":false,"is_disabled":false,"rental_uris":{"android":"levelo://app?vid=792e71ca-268e-4fb8-8216-59ee251c6ea6","ios":"levelo://app?vid=792e71ca-268e-4fb8-8216-59ee251c6ea6"},"vehicle_type_id":"4","last_reported":1747512603,"current_range_meters":3600,"station_id":"ce4bhq92rcd13ifvqhkg","pricing_plan_id":"cebpf4jnsgd1na2vs0mg"},{"bike_id":"b8ba991c-766c-4cc2-b5d1-e9784bda0683","system_id":"levelo_inurba_marseille","lat":43.25091,"lon":5.39507,"is_reserved":false,"is_disabled":true,"rental_uris":{"android":"levelo://app?vid=b8ba991c-766c-4cc2-b5d1-e9784bda0683","ios":"levelo://app?vid=b8ba991c-766c-4cc2-b5d1-e9784bda0683"},"vehicle_type_id":"4","last_reported":1747512603,"current_range_meters":4000,"station_id":"ce4bhm12rcd13ifvqgkg","pricing_plan_id":"cebpf4jnsgd1na2vs0mg"},{"bike_id":"e6a07989-1b4b-48b4-b152-e0cc5ad235a7","system_id":"levelo_inurba_marseille","lat":43.30188,"lon":5.36595,"is_reserved":false,"is_disabled":false,"rental_uris":{"android":"levelo://app?vid=e6a07989-1b4b-48b4-b152-e0cc5ad235a7","ios":"levelo://app?vid=e6a07989-1b4b-48b4-b152-e0cc5ad235a7"},"vehicle_type_id":"4","last_reported":1747512603,"current_range_meters":4000,"station_id":"ce4bgrh2rcd13ifvqc8g","pricing_plan_id":"cebpf4jnsgd1na2vs0mg"},{"bike_id":"802086fa-fc72-4eb7-bd93-a449b1c1efcb","system_id":"levelo_inurba_marseille","lat":43.28696,"lon":5.39981,"is_reserved":false,"is_disabled":false,"rental_uris":{"android":"levelo://app?vid=802086fa-fc72-4eb7-bd93-a449b1c1efcb","ios":"levelo://app?vid=802086fa-fc72-4eb7-bd93-a449b1c1efcb"},"vehicle_type_id":"4","last_reported":1747512603,"current_range_meters":3600,"station_id":"ce4bho92rcd13ifvqh3g","pricing_plan_id":"cebpf4jnsgd1na2vs0mg"},{"bike_id":"7019c47b-11f1-47de-8113-a3e4dd944a9a","system_id":"levelo_inurba_marseille","lat":43.26806,"lon":5.40261,"is_reserved":false,"is_disabled":true,"rental_uris":{"android":"levelo://app?vid=7019c47b-11f1-47de-8113-a3e4dd944a9a","ios":"levelo://app?vid=7019c47b-11f1-47de-8113-a3e4dd944a9a"},"vehicle_type_id":"4","last_reported":1747512603,"current_range_meters":4000,"station_id":"ce501612rcd8frsf0b60","pricing_plan_id":"cebpf4jnsgd1na2vs0mg"},{"bike_id":"05c159a0-6f7d-49a4-a45d-b86735669aad","system_id":"levelo_inurba_marseille","lat":43.31125,"lon":5.37,"is_reserved":false,"is_disabled":false,"rental_uris":{"android":"levelo://app?vid=05c159a0-6f7d-49a4-a45d-b86735669aad","ios":"levelo://app?vid=05c159a0-6f7d-49a4-a45d-b86735669aad"},"vehicle_type_id":"4","last_reported":1747512603,"current_range_meters":4000,"station_id":"","pricing_plan_id":"cebpf4jnsgd1na2vs0mg"},{"bike_id":"c0b9fd4f-e181-46ce-b0bf-f5119973334f","system_id":"levelo_inurba_marseille","lat":43.33771,"lon":5.37424,"is_reserved":false,"is_disabled":false,"rental_uris":{"android":"levelo://app?vid=c0b9fd4f-e181-46ce-b0bf-f5119973334f","ios":"levelo://app?vid=c0b9fd4f-e181-46ce-b0bf-f5119973334f"},"vehicle_type_id":"4","last_reported":1747512603,"current_range_meters":4000,"station_id":"","pricing_plan_id":"cebpf4jnsgd1na2vs0mg"},{"bike_id":"5f5440d7-bb32-4ba3-b074-50628a4108fc","system_id":"levelo_inurba_marseille","lat":43.29412,"lon":5.38628,"is_reserved":false,"is_disabled":false,"rental_uris":{"android":"levelo://app?vid=5f5440d7-bb32-4ba3-b074-50628a4108fc","ios":"levelo://app?vid=5f5440d7-bb32-4ba3-b074-50628a4108fc"},"vehicle_type_id":"4","last_reported":1747512603,"current_range_meters":4400,"station_id":"ce4bh2h2rcd13ifvqdh0","pricing_plan_id":"cebpf4jnsgd1na2vs0mg"},{"bike_id":"8e733541-fd75-4317-8f11-f26c38aca832","system_id":"levelo_inurba_marseille","lat":43.24178,"lon":5.39735,"is_reserved":false,"is_disabled":false,"rental_uris":{"android":"levelo://app?vid=8e733541-fd75-4317-8f11-f26c38aca832","ios":"levelo://app?vid=8e733541-fd75-4317-8f11-f26c38aca832"},"vehicle_type_id":"4","last_reported":1747512603,"current_range_meters":4400,"station_id":"ce4bhn12rcd13ifvqgpg","pricing_plan_id":"cebpf4jnsgd1na2vs0mg"},{"bike_id":"7247e8b6-ddde-4b6b-81d7-e6ba2b7243a2","system_id":"levelo_inurba_marseille","lat":43.285606,"lon":5.394961,"is_reserved":false,"is_disabled":false,"rental_uris":{"android":"levelo://app?vid=7247e8b6-ddde-4b6b-81d7-e6ba2b7243a2","ios":"levelo://app?vid=7247e8b6-ddde-4b6b-81d7-e6ba2b7243a2"},"vehicle_type_id":"4","last_reported":1747512603,"current_range_meters":4400,"station_id":"ce4bh292rcd13ifvqdg0","pricing_plan_id":"cebpf4jnsgd1na2vs0mg"},{"bike_id":"c4950e5a-50a9-45de-98c6-c5d43f5d57e4","system_id":"levelo_inurba_marseille","lat":43.3107,"lon":5.38347,"is_reserved":false,"is_disabled":false,"rental_uris":{"android":"levelo://app?vid=c4950e5a-50a9-45de-98c6-c5d43f5d57e4","ios":"levelo://app?vid=c4950e5a-50a9-45de-98c6-c5d43f5d57e4"},"vehicle_type_id":"4","last_reported":1747512603,"current_range_meters":4400,"station_id":"ce4bgv92rcd13ifvqcr0","pricing_plan_id":"cebpf4jnsgd1na2vs0mg"},{"bike_id":"26554705-b5da-47ab-bac0-899240bc5b2e","system_id":"levelo_inurba_marseille","lat":43.27678,"lon":5.38878,"is_reserved":false,"is_disabled":false,"rental_uris":{"android":"levelo://app?vid=26554705-b5da-47ab-bac0-899240bc5b2e","ios":"levelo://app?vid=26554705-b5da-47ab-bac0-899240bc5b2e"},"vehicle_type_id":"4","last_reported":1747512603,"current_range_meters":4400,"station_id":"","pricing_plan_id":"cebpf4jnsgd1na2vs0mg"},{"bike_id":"1820055e-2f85-4ab7-85fa-75dab2bfdf51","system_id":"levelo_inurba_marseille","lat":43.29847,"lon":5.3626,"is_reserved":false,"is_disabled":false,"rental_uris":{"android":"levelo://app?vid=1820055e-2f85-4ab7-85fa-75dab2bfdf51","ios":"levelo://app?vid=1820055e-2f85-4ab7-85fa-75dab2bfdf51"},"vehicle_type_id":"4","last_reported":1747512603,"current_range_meters":4400,"station_id":"ce4bgpp2rcd13ifvqc3g","pricing_plan_id":"cebpf4jnsgd1na2vs0mg"},{"bike_id":"1c470010-0c6d-482e-890c-b1305ea46d7e","system_id":"levelo_inurba_marseille","lat":43.23178,"lon":5.39989,"is_reserved":false,"is_disabled":false,"rental_uris":{"android":"levelo://app?vid=1c470010-0c6d-482e-890c-b1305ea46d7e","ios":"levelo://app?vid=1c470010-0c6d-482e-890c-b1305ea46d7e"},"vehicle_type_id":"4","last_reported":1747512603,"current_range_meters":4000,"station_id":"ce4bhn12rcd13ifvqgqg","pricing_plan_id":"cebpf4jnsgd1na2vs0mg"},{"bike_id":"535a055b-01d7-4fd1-9ca5-434fa55c2e1a","system_id":"levelo_inurba_marseille","lat":43.2409,"lon":5.37749,"is_reserved":false,"is_disabled":false,"rental_uris":{"android":"levelo://app?vid=535a055b-01d7-4fd1-9ca5-434fa55c2e1a","ios":"levelo://app?vid=535a055b-01d7-4fd1-9ca5-434fa55c2e1a"},"vehicle_type_id":"4","last_reported":1747512603,"current_range_meters":4800,"station_id":"ce4bhnp2rcd13ifvqgvg","pricing_plan_id":"cebpf4jnsgd1na2vs0mg"},{"bike_id":"03921903-6b5d-43cc-9b01-96ff9c50c166","system_id":"levelo_inurba_marseille","lat":43.23172,"lon":5.39985,"is_reserved":false,"is_disabled":false,"rental_uris":{"android":"levelo://app?vid=03921903-6b5d-43cc-9b01-96ff9c50c166","ios":"levelo://app?vid=03921903-6b5d-43cc-9b01-96ff9c50c166"},"vehicle_type_id":"4","last_reported":1747512603,"current_range_meters":4800,"station_id":"ce4bhn12rcd13ifvqgqg","pricing_plan_id":"cebpf4jnsgd1na2vs0mg"},{"bike_id":"df443e44-2bfa-4ad5-a408-bc063fd2a9c9","system_id":"levelo_inurba_marseille","lat":43.24079,"lon":5.37753,"is_reserved":false,"is_disabled":false,"rental_uris":{"android":"levelo://app?vid=df443e44-2bfa-4ad5-a408-bc063fd2a9c9","ios":"levelo://app?vid=df443e44-2bfa-4ad5-a408-bc063fd2a9c9"},"vehicle_type_id":"4","last_reported":1747512603,"current_range_meters":4800,"station_id":"ce4bhnp2rcd13ifvqgvg","pricing_plan_id":"cebpf4jnsgd1na2vs0mg"},{"bike_id":"14885091-98ca-4d80-b8d7-7e5a1860bd77","system_id":"levelo_inurba_marseille","lat":43.30447,"lon":5.41276,"is_reserved":false,"is_disabled":true,"rental_uris":{"android":"levelo://app?vid=14885091-98ca-4d80-b8d7-7e5a1860bd77","ios":"levelo://app?vid=14885091-98ca-4d80-b8d7-7e5a1860bd77"},"vehicle_type_id":"4","last_reported":1747512603,"current_range_meters":4800,"station_id":"ce4bhop2rcd13ifvqh8g","pricing_plan_id":"cebpf4jnsgd1na2vs0mg"},{"bike_id":"90efec13-7e9a-47ae-8a52-170082213d13","system_id":"levelo_inurba_marseille","lat":43.28451,"lon":5.39168,"is_reserved":false,"is_disabled":false,"rental_uris":{"android":"levelo://app?vid=90efec13-7e9a-47ae-8a52-170082213d13","ios":"levelo://app?vid=90efec13-7e9a-47ae-8a52-170082213d13"},"vehicle_type_id":"4","last_reported":1747512603,"current_range_meters":4800,"station_id":"ce4bhoh2rcd13ifvqh5g","pricing_plan_id":"cebpf4jnsgd1na2vs0mg"},{"bike_id":"ebdb744c-02df-46de-9cec-e1643192e7b8","system_id":"levelo_inurba_marseille","lat":43.29528,"lon":5.39033,"is_reserved":false,"is_disabled":false,"rental_uris":{"android":"levelo://app?vid=ebdb744c-02df-46de-9cec-e1643192e7b8","ios":"levelo://app?vid=ebdb744c-02df-46de-9cec-e1643192e7b8"},"vehicle_type_id":"4","last_reported":1747512603,"current_range_meters":4800,"station_id":"ce4bh3p2rcd13ifvqdp0","pricing_plan_id":"cebpf4jnsgd1na2vs0mg"},{"bike_id":"c815f468-0914-450c-98de-372b0944e261","system_id":"levelo_inurba_marseille","lat":43.29574,"lon":5.3996,"is_reserved":false,"is_disabled":false,"rental_uris":{"android":"levelo://app?vid=c815f468-0914-450c-98de-372b0944e261","ios":"levelo://app?vid=c815f468-0914-450c-98de-372b0944e261"},"vehicle_type_id":"4","last_reported":1747512603,"current_range_meters":4800,"station_id":"ce4bh312rcd13ifvqdj0","pricing_plan_id":"cebpf4jnsgd1na2vs0mg"},{"bike_id":"76eea6a4-9e02-4b58-8823-5d3042108e9c","system_id":"levelo_inurba_marseille","lat":43.26941,"lon":5.40248,"is_reserved":false,"is_disabled":false,"rental_uris":{"android":"levelo://app?vid=76eea6a4-9e02-4b58-8823-5d3042108e9c","ios":"levelo://app?vid=76eea6a4-9e02-4b58-8823-5d3042108e9c"},"vehicle_type_id":"4","last_reported":1747512603,"current_range_meters":5600,"station_id":"cjm6bp8fraef2m0cb0m0","pricing_plan_id":"cebpf4jnsgd1na2vs0mg"},{"bike_id":"bea3e465-3664-4b70-a621-187877213481","system_id":"levelo_inurba_marseille","lat":43.284627,"lon":5.393332,"is_reserved":false,"is_disabled":false,"rental_uris":{"android":"levelo://app?vid=bea3e465-3664-4b70-a621-187877213481","ios":"levelo://app?vid=bea3e465-3664-4b70-a621-187877213481"},"vehicle_type_id":"4","last_reported":1747512603,"current_range_meters":5600,"station_id":"ce4bhoh2rcd13ifvqh5g","pricing_plan_id":"cebpf4jnsgd1na2vs0mg"},{"bike_id":"9fd661b4-e33b-4178-9872-1d2175b25913","system_id":"levelo_inurba_marseille","lat":43.27829,"lon":5.40713,"is_reserved":false,"is_disabled":false,"rental_uris":{"android":"levelo://app?vid=9fd661b4-e33b-4178-9872-1d2175b25913","ios":"levelo://app?vid=9fd661b4-e33b-4178-9872-1d2175b25913"},"vehicle_type_id":"4","last_reported":1747512603,"current_range_meters":5600,"station_id":"ce4bhnh2rcd13ifvqgtg","pricing_plan_id":"cebpf4jnsgd1na2vs0mg"},{"bike_id":"6a688111-745a-42a1-9683-d28ea115c470","system_id":"levelo_inurba_marseille","lat":43.31172,"lon":5.38712,"is_reserved":false,"is_disabled":false,"rental_uris":{"android":"levelo://app?vid=6a688111-745a-42a1-9683-d28ea115c470","ios":"levelo://app?vid=6a688111-745a-42a1-9683-d28ea115c470"},"vehicle_type_id":"4","last_reported":1747512603,"current_range_meters":5600,"station_id":"ce4bgv12rcd13ifvqcp0","pricing_plan_id":"cebpf4jnsgd1na2vs0mg"},{"bike_id":"4872de06-1e4a-4599-9595-dc1f1fc4faa0","system_id":"levelo_inurba_marseille","lat":43.28271,"lon":5.35065,"is_reserved":false,"is_disabled":false,"rental_uris":{"android":"levelo://app?vid=4872de06-1e4a-4599-9595-dc1f1fc4faa0","ios":"levelo://app?vid=4872de06-1e4a-4599-9595-dc1f1fc4faa0"},"vehicle_type_id":"4","last_reported":1747512603,"current_range_meters":9600,"station_id":"ce4bhbp2rcd13ifvqerg","pricing_plan_id":"cebpf4jnsgd1na2vs0mg"},{"bike_id":"0e2d824c-9e24-4e66-9d05-5a3b895df842","system_id":"levelo_inurba_marseille","lat":43.31367,"lon":5.38501,"is_reserved":false,"is_disabled":false,"rental_uris":{"android":"levelo://app?vid=0e2d824c-9e24-4e66-9d05-5a3b895df842","ios":"levelo://app?vid=0e2d824c-9e24-4e66-9d05-5a3b895df842"},"vehicle_type_id":"4","last_reported":1747512603,"current_range_meters":6000,"station_id":"ce4bgt92rcd13ifvqcf0","pricing_plan_id":"cebpf4jnsgd1na2vs0mg"},{"bike_id":"a4063de7-3465-4b39-9bf8-ef1a75de7c2d","system_id":"levelo_inurba_marseille","lat":43.28579,"lon":5.46086,"is_reserved":false,"is_disabled":false,"rental_uris":{"android":"levelo://app?vid=a4063de7-3465-4b39-9bf8-ef1a75de7c2d","ios":"levelo://app?vid=a4063de7-3465-4b39-9bf8-ef1a75de7c2d"},"vehicle_type_id":"4","last_reported":1747512603,"current_range_meters":6000,"station_id":"","pricing_plan_id":"cebpf4jnsgd1na2vs0mg"},{"bike_id":"a140226f-4492-41df-b4bb-4097503cbae7","system_id":"levelo_inurba_marseille","lat":43.30862,"lon":5.39832,"is_reserved":false,"is_disabled":false,"rental_uris":{"android":"levelo://app?vid=a140226f-4492-41df-b4bb-4097503cbae7","ios":"levelo://app?vid=a140226f-4492-41df-b4bb-4097503cbae7"},"vehicle_type_id":"4","last_reported":1747512603,"current_range_meters":6000,"station_id":"","pricing_plan_id":"cebpf4jnsgd1na2vs0mg"},{"bike_id":"56462afc-125b-4d8d-ba97-e724d79a4327","system_id":"levelo_inurba_marseille","lat":43.2942,"lon":5.38618,"is_reserved":false,"is_disabled":false,"rental_uris":{"android":"levelo://app?vid=56462afc-125b-4d8d-ba97-e724d79a4327","ios":"levelo://app?vid=56462afc-125b-4d8d-ba97-e724d79a4327"},"vehicle_type_id":"4","last_reported":1747512603,"current_range_meters":6400,"station_id":"ce4bh2h2rcd13ifvqdh0","pricing_plan_id":"cebpf4jnsgd1na2vs0mg"},{"bike_id":"76871383-10fa-4962-88ed-84808bf1cde0","system_id":"levelo_inurba_marseille","lat":43.30433,"lon":5.38888,"is_reserved":false,"is_disabled":false,"rental_uris":{"android":"levelo://app?vid=76871383-10fa-4962-88ed-84808bf1cde0","ios":"levelo://app?vid=76871383-10fa-4962-88ed-84808bf1cde0"},"vehicle_type_id":"4","last_reported":1747512603,"current_range_meters":6000,"station_id":"ce4bgk12rcd13ifvqbi0","pricing_plan_id":"cebpf4jnsgd1na2vs0mg"},{"bike_id":"3200028d-adb7-46d7-854a-0d16d1a6f998","system_id":"levelo_inurba_marseille","lat":43.29792,"lon":5.38109,"is_reserved":false,"is_disabled":true,"rental_uris":{"android":"levelo://app?vid=3200028d-adb7-46d7-854a-0d16d1a6f998","ios":"levelo://app?vid=3200028d-adb7-46d7-854a-0d16d1a6f998"},"vehicle_type_id":"4","last_reported":1747512603,"current_range_meters":6400,"station_id":"ce4bgip2rcd13ifvqbb0","pricing_plan_id":"cebpf4jnsgd1na2vs0mg"},{"bike_id":"404bffa0-89e2-49de-96db-87458692c697","system_id":"levelo_inurba_marseille","lat":43.29419,"lon":5.38621,"is_reserved":false,"is_disabled":false,"rental_uris":{"android":"levelo://app?vid=404bffa0-89e2-49de-96db-87458692c697","ios":"levelo://app?vid=404bffa0-89e2-49de-96db-87458692c697"},"vehicle_type_id":"4","last_reported":1747512603,"current_range_meters":6400,"station_id":"ce4bh2h2rcd13ifvqdh0","pricing_plan_id":"cebpf4jnsgd1na2vs0mg"},{"bike_id":"78b6bc8f-ce2f-4c76-bf94-56581d4854e1","system_id":"levelo_inurba_marseille","lat":43.31842,"lon":5.37141,"is_reserved":false,"is_disabled":false,"rental_uris":{"android":"levelo://app?vid=78b6bc8f-ce2f-4c76-bf94-56581d4854e1","ios":"levelo://app?vid=78b6bc8f-ce2f-4c76-bf94-56581d4854e1"},"vehicle_type_id":"4","last_reported":1747512603,"current_range_meters":6400,"station_id":"","pricing_plan_id":"cebpf4jnsgd1na2vs0mg"},{"bike_id":"548a3a0b-ec54-481f-8ae2-a2d084174e0a","system_id":"levelo_inurba_marseille","lat":43.2984,"lon":5.36272,"is_reserved":false,"is_disabled":false,"rental_uris":{"android":"levelo://app?vid=548a3a0b-ec54-481f-8ae2-a2d084174e0a","ios":"levelo://app?vid=548a3a0b-ec54-481f-8ae2-a2d084174e0a"},"vehicle_type_id":"4","last_reported":1747512603,"current_range_meters":6400,"station_id":"ce4bgpp2rcd13ifvqc3g","pricing_plan_id":"cebpf4jnsgd1na2vs0mg"},{"bike_id":"6e612e7b-28be-478c-9618-97651a5de57b","system_id":"levelo_inurba_marseille","lat":43.24643,"lon":5.39546,"is_reserved":false,"is_disabled":false,"rental_uris":{"android":"levelo://app?vid=6e612e7b-28be-478c-9618-97651a5de57b","ios":"levelo://app?vid=6e612e7b-28be-478c-9618-97651a5de57b"},"vehicle_type_id":"4","last_reported":1747512603,"current_range_meters":6400,"station_id":"","pricing_plan_id":"cebpf4jnsgd1na2vs0mg"},{"bike_id":"6f0eb859-c354-4ec9-9ed0-fc59fdc99960","system_id":"levelo_inurba_marseille","lat":43.317189,"lon":5.423992,"is_reserved":false,"is_disabled":false,"rental_uris":{"android":"levelo://app?vid=6f0eb859-c354-4ec9-9ed0-fc59fdc99960","ios":"levelo://app?vid=6f0eb859-c354-4ec9-9ed0-fc59fdc99960"},"vehicle_type_id":"4","last_reported":1747512603,"current_range_meters":6400,"station_id":"ce4bhp92rcd13ifvqhbg","pricing_plan_id":"cebpf4jnsgd1na2vs0mg"},{"bike_id":"547f3f82-ba1b-4520-b634-adf098624e39","system_id":"levelo_inurba_marseille","lat":43.27184,"lon":5.3918,"is_reserved":false,"is_disabled":false,"rental_uris":{"android":"levelo://app?vid=547f3f82-ba1b-4520-b634-adf098624e39","ios":"levelo://app?vid=547f3f82-ba1b-4520-b634-adf098624e39"},"vehicle_type_id":"4","last_reported":1747512603,"current_range_meters":6400,"station_id":"ce4bhhp2rcd13ifvqfm0","pricing_plan_id":"cebpf4jnsgd1na2vs0mg"},{"bike_id":"a6726076-72de-4d74-98a5-ccea8384ac66","system_id":"levelo_inurba_marseille","lat":43.31073,"lon":5.38353,"is_reserved":false,"is_disabled":false,"rental_uris":{"android":"levelo://app?vid=a6726076-72de-4d74-98a5-ccea8384ac66","ios":"levelo://app?vid=a6726076-72de-4d74-98a5-ccea8384ac66"},"vehicle_type_id":"4","last_reported":1747512603,"current_range_meters":6400,"station_id":"ce4bgv92rcd13ifvqcr0","pricing_plan_id":"cebpf4jnsgd1na2vs0mg"},{"bike_id":"91381b81-084a-478e-b975-fc463814df4d","system_id":"levelo_inurba_marseille","lat":43.24176,"lon":5.39721,"is_reserved":false,"is_disabled":false,"rental_uris":{"android":"levelo://app?vid=91381b81-084a-478e-b975-fc463814df4d","ios":"levelo://app?vid=91381b81-084a-478e-b975-fc463814df4d"},"vehicle_type_id":"4","last_reported":1747512603,"current_range_meters":6400,"station_id":"ce4bhn12rcd13ifvqgpg","pricing_plan_id":"cebpf4jnsgd1na2vs0mg"},{"bike_id":"94d31be5-b49c-477c-b9e4-fd5b3f1174af","system_id":"levelo_inurba_marseille","lat":43.31012,"lon":5.42007,"is_reserved":false,"is_disabled":false,"rental_uris":{"android":"levelo://app?vid=94d31be5-b49c-477c-b9e4-fd5b3f1174af","ios":"levelo://app?vid=94d31be5-b49c-477c-b9e4-fd5b3f1174af"},"vehicle_type_id":"4","last_reported":1747512603,"current_range_meters":6400,"station_id":"","pricing_plan_id":"cebpf4jnsgd1na2vs0mg"},{"bike_id":"99b3f424-7090-4014-8646-8632ab2960cb","system_id":"levelo_inurba_marseille","lat":43.311615,"lon":5.38719,"is_reserved":false,"is_disabled":false,"rental_uris":{"android":"levelo://app?vid=99b3f424-7090-4014-8646-8632ab2960cb","ios":"levelo://app?vid=99b3f424-7090-4014-8646-8632ab2960cb"},"vehicle_type_id":"4","last_reported":1747512603,"current_range_meters":6400,"station_id":"ce4bgv12rcd13ifvqcp0","pricing_plan_id":"cebpf4jnsgd1na2vs0mg"},{"bike_id":"be0eeaa6-6a01-46b0-a0ef-e5c5255336fe","system_id":"levelo_inurba_marseille","lat":43.2985,"lon":5.36283,"is_reserved":false,"is_disabled":false,"rental_uris":{"android":"levelo://app?vid=be0eeaa6-6a01-46b0-a0ef-e5c5255336fe","ios":"levelo://app?vid=be0eeaa6-6a01-46b0-a0ef-e5c5255336fe"},"vehicle_type_id":"4","last_reported":1747512603,"current_range_meters":6400,"station_id":"ce4bgpp2rcd13ifvqc3g","pricing_plan_id":"cebpf4jnsgd1na2vs0mg"},{"bike_id":"ab7c2cbf-d2a6-486b-adbe-731d3f7954f0","system_id":"levelo_inurba_marseille","lat":43.30304,"lon":5.392126,"is_reserved":false,"is_disabled":true,"rental_uris":{"android":"levelo://app?vid=ab7c2cbf-d2a6-486b-adbe-731d3f7954f0","ios":"levelo://app?vid=ab7c2cbf-d2a6-486b-adbe-731d3f7954f0"},"vehicle_type_id":"4","last_reported":1747512603,"current_range_meters":6400,"station_id":"ce4bgkh2rcd13ifvqbk0","pricing_plan_id":"cebpf4jnsgd1na2vs0mg"},{"bike_id":"87119600-d1f5-4470-9c7b-cbd3f5f6db56","system_id":"levelo_inurba_marseille","lat":43.29035,"lon":5.38658,"is_reserved":false,"is_disabled":false,"rental_uris":{"android":"levelo://app?vid=87119600-d1f5-4470-9c7b-cbd3f5f6db56","ios":"levelo://app?vid=87119600-d1f5-4470-9c7b-cbd3f5f6db56"},"vehicle_type_id":"4","last_reported":1747512603,"current_range_meters":6400,"station_id":"ce4bh4p2rcd13ifvqe0g","pricing_plan_id":"cebpf4jnsgd1na2vs0mg"},{"bike_id":"1b304bc2-c944-4223-872d-62e1b1fab845","system_id":"levelo_inurba_marseille","lat":43.26945,"lon":5.40251,"is_reserved":false,"is_disabled":false,"rental_uris":{"android":"levelo://app?vid=1b304bc2-c944-4223-872d-62e1b1fab845","ios":"levelo://app?vid=1b304bc2-c944-4223-872d-62e1b1fab845"},"vehicle_type_id":"4","last_reported":1747512603,"current_range_meters":6800,"station_id":"cjm6bp8fraef2m0cb0m0","pricing_plan_id":"cebpf4jnsgd1na2vs0mg"},{"bike_id":"c106489d-3153-48d5-ab1e-ccc2bdfc676a","system_id":"levelo_inurba_marseille","lat":43.29859,"lon":5.36285,"is_reserved":false,"is_disabled":false,"rental_uris":{"android":"levelo://app?vid=c106489d-3153-48d5-ab1e-ccc2bdfc676a","ios":"levelo://app?vid=c106489d-3153-48d5-ab1e-ccc2bdfc676a"},"vehicle_type_id":"4","last_reported":1747512603,"current_range_meters":6800,"station_id":"ce4bgpp2rcd13ifvqc3g","pricing_plan_id":"cebpf4jnsgd1na2vs0mg"},{"bike_id":"99efd5ee-08af-419f-a750-65a4ac4484bc","system_id":"levelo_inurba_marseille","lat":43.262219,"lon":5.379266,"is_reserved":false,"is_disabled":false,"rental_uris":{"android":"levelo://app?vid=99efd5ee-08af-419f-a750-65a4ac4484bc","ios":"levelo://app?vid=99efd5ee-08af-419f-a750-65a4ac4484bc"},"vehicle_type_id":"4","last_reported":1747512603,"current_range_meters":6800,"station_id":"ce4bhjp2rcd13ifvqg90","pricing_plan_id":"cebpf4jnsgd1na2vs0mg"},{"bike_id":"f8732d71-4b39-4796-abcc-a167e99555ea","system_id":"levelo_inurba_marseille","lat":43.29656,"lon":5.37548,"is_reserved":false,"is_disabled":false,"rental_uris":{"android":"levelo://app?vid=f8732d71-4b39-4796-abcc-a167e99555ea","ios":"levelo://app?vid=f8732d71-4b39-4796-abcc-a167e99555ea"},"vehicle_type_id":"4","last_reported":1747512603,"current_range_meters":7200,"station_id":"","pricing_plan_id":"cebpf4jnsgd1na2vs0mg"},{"bike_id":"4286ba3b-5eaa-4011-a9ab-583230023e41","system_id":"levelo_inurba_marseille","lat":43.279194,"lon":5.395823,"is_reserved":false,"is_disabled":false,"rental_uris":{"android":"levelo://app?vid=4286ba3b-5eaa-4011-a9ab-583230023e41","ios":"levelo://app?vid=4286ba3b-5eaa-4011-a9ab-583230023e41"},"vehicle_type_id":"4","last_reported":1747512603,"current_range_meters":6800,"station_id":"ce4bhf92rcd13ifvqf40","pricing_plan_id":"cebpf4jnsgd1na2vs0mg"},{"bike_id":"5e16ea8f-95fb-446c-ab51-fae1112c0aff","system_id":"levelo_inurba_marseille","lat":43.25928,"lon":5.40887,"is_reserved":false,"is_disabled":false,"rental_uris":{"android":"levelo://app?vid=5e16ea8f-95fb-446c-ab51-fae1112c0aff","ios":"levelo://app?vid=5e16ea8f-95fb-446c-ab51-fae1112c0aff"},"vehicle_type_id":"4","last_reported":1747512603,"current_range_meters":6800,"station_id":"ce4bhm92rcd13ifvqglg","pricing_plan_id":"cebpf4jnsgd1na2vs0mg"},{"bike_id":"9ccb265f-ef05-4ea2-976b-adb3f1f185f3","system_id":"levelo_inurba_marseille","lat":43.29029,"lon":5.38646,"is_reserved":false,"is_disabled":false,"rental_uris":{"android":"levelo://app?vid=9ccb265f-ef05-4ea2-976b-adb3f1f185f3","ios":"levelo://app?vid=9ccb265f-ef05-4ea2-976b-adb3f1f185f3"},"vehicle_type_id":"4","last_reported":1747512603,"current_range_meters":6800,"station_id":"ce4bh4p2rcd13ifvqe0g","pricing_plan_id":"cebpf4jnsgd1na2vs0mg"},{"bike_id":"6daabc53-bb91-4cef-9e6f-3c9361680783","system_id":"levelo_inurba_marseille","lat":43.24809,"lon":5.37458,"is_reserved":false,"is_disabled":false,"rental_uris":{"android":"levelo://app?vid=6daabc53-bb91-4cef-9e6f-3c9361680783","ios":"levelo://app?vid=6daabc53-bb91-4cef-9e6f-3c9361680783"},"vehicle_type_id":"4","last_reported":1747512603,"current_range_meters":6800,"station_id":"ce4bhgh2rcd13ifvqfb0","pricing_plan_id":"cebpf4jnsgd1na2vs0mg"},{"bike_id":"388c0c55-3cb6-456e-bb39-395ecf5495d2","system_id":"levelo_inurba_marseille","lat":43.29524,"lon":5.38544,"is_reserved":false,"is_disabled":false,"rental_uris":{"android":"levelo://app?vid=388c0c55-3cb6-456e-bb39-395ecf5495d2","ios":"levelo://app?vid=388c0c55-3cb6-456e-bb39-395ecf5495d2"},"vehicle_type_id":"4","last_reported":1747512603,"current_range_meters":6800,"station_id":"ce4bgih2rcd13ifvqba0","pricing_plan_id":"cebpf4jnsgd1na2vs0mg"},{"bike_id":"7d8130ae-9331-4223-b554-30ab8f0d0a05","system_id":"levelo_inurba_marseille","lat":43.27304,"lon":5.39116,"is_reserved":false,"is_disabled":false,"rental_uris":{"android":"levelo://app?vid=7d8130ae-9331-4223-b554-30ab8f0d0a05","ios":"levelo://app?vid=7d8130ae-9331-4223-b554-30ab8f0d0a05"},"vehicle_type_id":"4","last_reported":1747512603,"current_range_meters":6800,"station_id":"ce4bhgp2rcd13ifvqfe0","pricing_plan_id":"cebpf4jnsgd1na2vs0mg"},{"bike_id":"6ac02866-238e-4f63-9d08-2268594f21d3","system_id":"levelo_inurba_marseille","lat":43.30608,"lon":5.3722,"is_reserved":false,"is_disabled":false,"rental_uris":{"android":"levelo://app?vid=6ac02866-238e-4f63-9d08-2268594f21d3","ios":"levelo://app?vid=6ac02866-238e-4f63-9d08-2268594f21d3"},"vehicle_type_id":"4","last_reported":1747512603,"current_range_meters":6800,"station_id":"ce4bgqh2rcd13ifvqc4g","pricing_plan_id":"cebpf4jnsgd1na2vs0mg"},{"bike_id":"bf106f44-37fe-4238-91dc-77f04a4ad63b","system_id":"levelo_inurba_marseille","lat":43.31359,"lon":5.3849,"is_reserved":false,"is_disabled":false,"rental_uris":{"android":"levelo://app?vid=bf106f44-37fe-4238-91dc-77f04a4ad63b","ios":"levelo://app?vid=bf106f44-37fe-4238-91dc-77f04a4ad63b"},"vehicle_type_id":"4","last_reported":1747512603,"current_range_meters":6800,"station_id":"ce4bgt92rcd13ifvqcf0","pricing_plan_id":"cebpf4jnsgd1na2vs0mg"},{"bike_id":"89bf3776-09cc-4daa-8245-e9829b4a5cac","system_id":"levelo_inurba_marseille","lat":43.28482,"lon":5.3842,"is_reserved":false,"is_disabled":false,"rental_uris":{"android":"levelo://app?vid=89bf3776-09cc-4daa-8245-e9829b4a5cac","ios":"levelo://app?vid=89bf3776-09cc-4daa-8245-e9829b4a5cac"},"vehicle_type_id":"4","last_reported":1747512603,"current_range_meters":7200,"station_id":"ce4bh512rcd13ifvqe3g","pricing_plan_id":"cebpf4jnsgd1na2vs0mg"},{"bike_id":"031f51ca-379b-41d6-9cab-a1a6586d0a85","system_id":"levelo_inurba_marseille","lat":43.29602,"lon":5.38088,"is_reserved":false,"is_disabled":false,"rental_uris":{"android":"levelo://app?vid=031f51ca-379b-41d6-9cab-a1a6586d0a85","ios":"levelo://app?vid=031f51ca-379b-41d6-9cab-a1a6586d0a85"},"vehicle_type_id":"4","last_reported":1747512603,"current_range_meters":7200,"station_id":"ce4bgl12rcd13ifvqbo0","pricing_plan_id":"cebpf4jnsgd1na2vs0mg"},{"bike_id":"6cd5c425-f8ac-4068-b8ea-a8bfbef29ee5","system_id":"levelo_inurba_marseille","lat":43.24998,"lon":5.3793,"is_reserved":false,"is_disabled":false,"rental_uris":{"android":"levelo://app?vid=6cd5c425-f8ac-4068-b8ea-a8bfbef29ee5","ios":"levelo://app?vid=6cd5c425-f8ac-4068-b8ea-a8bfbef29ee5"},"vehicle_type_id":"4","last_reported":1747512603,"current_range_meters":7200,"station_id":"","pricing_plan_id":"cebpf4jnsgd1na2vs0mg"},{"bike_id":"da973b6e-dbca-4131-b699-f9d1d82c3982","system_id":"levelo_inurba_marseille","lat":43.30937,"lon":5.39021,"is_reserved":false,"is_disabled":false,"rental_uris":{"android":"levelo://app?vid=da973b6e-dbca-4131-b699-f9d1d82c3982","ios":"levelo://app?vid=da973b6e-dbca-4131-b699-f9d1d82c3982"},"vehicle_type_id":"4","last_reported":1747512603,"current_range_meters":7200,"station_id":"ce4bgup2rcd13ifvqco0","pricing_plan_id":"cebpf4jnsgd1na2vs0mg"},{"bike_id":"ff2b4fe3-bae0-4474-bf82-e356cbea4049","system_id":"levelo_inurba_marseille","lat":43.23964,"lon":5.36628,"is_reserved":false,"is_disabled":false,"rental_uris":{"android":"levelo://app?vid=ff2b4fe3-bae0-4474-bf82-e356cbea4049","ios":"levelo://app?vid=ff2b4fe3-bae0-4474-bf82-e356cbea4049"},"vehicle_type_id":"4","last_reported":1747512603,"current_range_meters":7200,"station_id":"ce4bhi12rcd13ifvqfp0","pricing_plan_id":"cebpf4jnsgd1na2vs0mg"},{"bike_id":"7f6746c4-1c7c-4c44-a078-4a2fb50d8073","system_id":"levelo_inurba_marseille","lat":43.245449,"lon":5.395231,"is_reserved":false,"is_disabled":false,"rental_uris":{"android":"levelo://app?vid=7f6746c4-1c7c-4c44-a078-4a2fb50d8073","ios":"levelo://app?vid=7f6746c4-1c7c-4c44-a078-4a2fb50d8073"},"vehicle_type_id":"4","last_reported":1747512603,"current_range_meters":7200,"station_id":"ce4bhlp2rcd13ifvqgjg","pricing_plan_id":"cebpf4jnsgd1na2vs0mg"},{"bike_id":"0fb02880-5c6e-4026-9e4a-07529c572b44","system_id":"levelo_inurba_marseille","lat":43.25524,"lon":5.37349,"is_reserved":false,"is_disabled":false,"rental_uris":{"android":"levelo://app?vid=0fb02880-5c6e-4026-9e4a-07529c572b44","ios":"levelo://app?vid=0fb02880-5c6e-4026-9e4a-07529c572b44"},"vehicle_type_id":"4","last_reported":1747512603,"current_range_meters":8000,"station_id":"","pricing_plan_id":"cebpf4jnsgd1na2vs0mg"},{"bike_id":"38e25838-b71c-42c4-9516-d97df645f560","system_id":"levelo_inurba_marseille","lat":43.29266,"lon":5.38436,"is_reserved":false,"is_disabled":false,"rental_uris":{"android":"levelo://app?vid=38e25838-b71c-42c4-9516-d97df645f560","ios":"levelo://app?vid=38e25838-b71c-42c4-9516-d97df645f560"},"vehicle_type_id":"4","last_reported":1747512603,"current_range_meters":8000,"station_id":"ce4bh692rcd13ifvqea0","pricing_plan_id":"cebpf4jnsgd1na2vs0mg"},{"bike_id":"81c2872b-cbdf-46b2-97b3-c916923ffb65","system_id":"levelo_inurba_marseille","lat":43.26938,"lon":5.40268,"is_reserved":false,"is_disabled":false,"rental_uris":{"android":"levelo://app?vid=81c2872b-cbdf-46b2-97b3-c916923ffb65","ios":"levelo://app?vid=81c2872b-cbdf-46b2-97b3-c916923ffb65"},"vehicle_type_id":"4","last_reported":1747512603,"current_range_meters":7200,"station_id":"cjm6bp8fraef2m0cb0m0","pricing_plan_id":"cebpf4jnsgd1na2vs0mg"},{"bike_id":"0fd235b6-005e-41d9-bf92-71a9589030c8","system_id":"levelo_inurba_marseille","lat":43.29846,"lon":5.36267,"is_reserved":false,"is_disabled":false,"rental_uris":{"android":"levelo://app?vid=0fd235b6-005e-41d9-bf92-71a9589030c8","ios":"levelo://app?vid=0fd235b6-005e-41d9-bf92-71a9589030c8"},"vehicle_type_id":"4","last_reported":1747512603,"current_range_meters":8000,"station_id":"ce4bgpp2rcd13ifvqc3g","pricing_plan_id":"cebpf4jnsgd1na2vs0mg"},{"bike_id":"515c8c0f-c6c0-4c6a-8962-663d443ca0ba","system_id":"levelo_inurba_marseille","lat":43.29531,"lon":5.38539,"is_reserved":false,"is_disabled":false,"rental_uris":{"android":"levelo://app?vid=515c8c0f-c6c0-4c6a-8962-663d443ca0ba","ios":"levelo://app?vid=515c8c0f-c6c0-4c6a-8962-663d443ca0ba"},"vehicle_type_id":"4","last_reported":1747512603,"current_range_meters":8000,"station_id":"ce4bgih2rcd13ifvqba0","pricing_plan_id":"cebpf4jnsgd1na2vs0mg"},{"bike_id":"394cadcc-3a78-4403-9bfc-1006acf0fb23","system_id":"levelo_inurba_marseille","lat":43.262006,"lon":5.379321,"is_reserved":false,"is_disabled":true,"rental_uris":{"android":"levelo://app?vid=394cadcc-3a78-4403-9bfc-1006acf0fb23","ios":"levelo://app?vid=394cadcc-3a78-4403-9bfc-1006acf0fb23"},"vehicle_type_id":"4","last_reported":1747512603,"current_range_meters":8000,"station_id":"ce4bhjp2rcd13ifvqg90","pricing_plan_id":"cebpf4jnsgd1na2vs0mg"},{"bike_id":"2bdbf59f-e481-4844-905c-61239f926a33","system_id":"levelo_inurba_marseille","lat":43.23184,"lon":5.40017,"is_reserved":false,"is_disabled":false,"rental_uris":{"android":"levelo://app?vid=2bdbf59f-e481-4844-905c-61239f926a33","ios":"levelo://app?vid=2bdbf59f-e481-4844-905c-61239f926a33"},"vehicle_type_id":"4","last_reported":1747512603,"current_range_meters":8000,"station_id":"ce4bhn12rcd13ifvqgqg","pricing_plan_id":"cebpf4jnsgd1na2vs0mg"},{"bike_id":"e6b90654-f35c-49ac-9d3a-a1d46fcb69e3","system_id":"levelo_inurba_marseille","lat":43.27317,"lon":5.391,"is_reserved":false,"is_disabled":false,"rental_uris":{"android":"levelo://app?vid=e6b90654-f35c-49ac-9d3a-a1d46fcb69e3","ios":"levelo://app?vid=e6b90654-f35c-49ac-9d3a-a1d46fcb69e3"},"vehicle_type_id":"4","last_reported":1747512603,"current_range_meters":8000,"station_id":"ce4bhgp2rcd13ifvqfe0","pricing_plan_id":"cebpf4jnsgd1na2vs0mg"},{"bike_id":"d75fdca6-1989-4d2a-9e2f-707a13bcfdfe","system_id":"levelo_inurba_marseille","lat":43.29938,"lon":5.36531,"is_reserved":false,"is_disabled":false,"rental_uris":{"android":"levelo://app?vid=d75fdca6-1989-4d2a-9e2f-707a13bcfdfe","ios":"levelo://app?vid=d75fdca6-1989-4d2a-9e2f-707a13bcfdfe"},"vehicle_type_id":"4","last_reported":1747512603,"current_range_meters":8000,"station_id":"ce4bgm92rcd13ifvqbr0","pricing_plan_id":"cebpf4jnsgd1na2vs0mg"},{"bike_id":"0c354b9a-d18c-4fad-992f-0a100a7301df","system_id":"levelo_inurba_marseille","lat":43.27051,"lon":5.40253,"is_reserved":false,"is_disabled":false,"rental_uris":{"android":"levelo://app?vid=0c354b9a-d18c-4fad-992f-0a100a7301df","ios":"levelo://app?vid=0c354b9a-d18c-4fad-992f-0a100a7301df"},"vehicle_type_id":"4","last_reported":1747512603,"current_range_meters":8000,"station_id":"ce4bhk92rcd13ifvqgc0","pricing_plan_id":"cebpf4jnsgd1na2vs0mg"},{"bike_id":"6658c1d1-adea-40d7-894a-4e11aacc9416","system_id":"levelo_inurba_marseille","lat":43.32368,"lon":5.38884,"is_reserved":false,"is_disabled":false,"rental_uris":{"android":"levelo://app?vid=6658c1d1-adea-40d7-894a-4e11aacc9416","ios":"levelo://app?vid=6658c1d1-adea-40d7-894a-4e11aacc9416"},"vehicle_type_id":"4","last_reported":1747512603,"current_range_meters":8000,"station_id":"ce4bhqp2rcd13ifvqhog","pricing_plan_id":"cebpf4jnsgd1na2vs0mg"},{"bike_id":"7711fff8-1c30-4c3a-aa27-6e5dbb51f698","system_id":"levelo_inurba_marseille","lat":43.25103,"lon":5.40322,"is_reserved":false,"is_disabled":false,"rental_uris":{"android":"levelo://app?vid=7711fff8-1c30-4c3a-aa27-6e5dbb51f698","ios":"levelo://app?vid=7711fff8-1c30-4c3a-aa27-6e5dbb51f698"},"vehicle_type_id":"4","last_reported":1747512603,"current_range_meters":8400,"station_id":"ce4bhlh2rcd13ifvqgig","pricing_plan_id":"cebpf4jnsgd1na2vs0mg"},{"bike_id":"943c9efd-6f0a-497a-b574-0774ceae3a89","system_id":"levelo_inurba_marseille","lat":43.29274,"lon":5.38438,"is_reserved":false,"is_disabled":false,"rental_uris":{"android":"levelo://app?vid=943c9efd-6f0a-497a-b574-0774ceae3a89","ios":"levelo://app?vid=943c9efd-6f0a-497a-b574-0774ceae3a89"},"vehicle_type_id":"4","last_reported":1747512603,"current_range_meters":8400,"station_id":"ce4bh692rcd13ifvqea0","pricing_plan_id":"cebpf4jnsgd1na2vs0mg"},{"bike_id":"1e5a7839-d218-47a9-988d-f5fdcdfa5acb","system_id":"levelo_inurba_marseille","lat":43.25832,"lon":5.39445,"is_reserved":false,"is_disabled":false,"rental_uris":{"android":"levelo://app?vid=1e5a7839-d218-47a9-988d-f5fdcdfa5acb","ios":"levelo://app?vid=1e5a7839-d218-47a9-988d-f5fdcdfa5acb"},"vehicle_type_id":"4","last_reported":1747512603,"current_range_meters":8400,"station_id":"ce4bhip2rcd13ifvqft0","pricing_plan_id":"cebpf4jnsgd1na2vs0mg"},{"bike_id":"30661b8c-3838-4560-8422-5e444587b594","system_id":"levelo_inurba_marseille","lat":43.27302,"lon":5.39092,"is_reserved":false,"is_disabled":false,"rental_uris":{"android":"levelo://app?vid=30661b8c-3838-4560-8422-5e444587b594","ios":"levelo://app?vid=30661b8c-3838-4560-8422-5e444587b594"},"vehicle_type_id":"4","last_reported":1747512603,"current_range_meters":8400,"station_id":"ce4bhgp2rcd13ifvqfe0","pricing_plan_id":"cebpf4jnsgd1na2vs0mg"},{"bike_id":"abcab4dc-a01d-4842-8943-3e802a150462","system_id":"levelo_inurba_marseille","lat":43.3038,"lon":5.41877,"is_reserved":false,"is_disabled":false,"rental_uris":{"android":"levelo://app?vid=abcab4dc-a01d-4842-8943-3e802a150462","ios":"levelo://app?vid=abcab4dc-a01d-4842-8943-3e802a150462"},"vehicle_type_id":"4","last_reported":1747512603,"current_range_meters":8400,"station_id":"ce4bhop2rcd13ifvqh7g","pricing_plan_id":"cebpf4jnsgd1na2vs0mg"},{"bike_id":"e8b87ffe-f2eb-4291-adec-515a33c1f8d6","system_id":"levelo_inurba_marseille","lat":43.30302,"lon":5.39211,"is_reserved":false,"is_disabled":false,"rental_uris":{"android":"levelo://app?vid=e8b87ffe-f2eb-4291-adec-515a33c1f8d6","ios":"levelo://app?vid=e8b87ffe-f2eb-4291-adec-515a33c1f8d6"},"vehicle_type_id":"4","last_reported":1747512603,"current_range_meters":8400,"station_id":"ce4bgkh2rcd13ifvqbk0","pricing_plan_id":"cebpf4jnsgd1na2vs0mg"},{"bike_id":"ece04caa-c45d-48c6-9caf-2fdbaafdde50","system_id":"levelo_inurba_marseille","lat":43.26944,"lon":5.40254,"is_reserved":false,"is_disabled":false,"rental_uris":{"android":"levelo://app?vid=ece04caa-c45d-48c6-9caf-2fdbaafdde50","ios":"levelo://app?vid=ece04caa-c45d-48c6-9caf-2fdbaafdde50"},"vehicle_type_id":"4","last_reported":1747512603,"current_range_meters":8800,"station_id":"cjm6bp8fraef2m0cb0m0","pricing_plan_id":"cebpf4jnsgd1na2vs0mg"},{"bike_id":"19b50b44-0209-4ccf-866f-dd25298070ba","system_id":"levelo_inurba_marseille","lat":43.25867,"lon":5.39894,"is_reserved":false,"is_disabled":false,"rental_uris":{"android":"levelo://app?vid=19b50b44-0209-4ccf-866f-dd25298070ba","ios":"levelo://app?vid=19b50b44-0209-4ccf-866f-dd25298070ba"},"vehicle_type_id":"4","last_reported":1747512603,"current_range_meters":8800,"station_id":"ce4bhl92rcd13ifvqghg","pricing_plan_id":"cebpf4jnsgd1na2vs0mg"},{"bike_id":"fdb61a9e-b53b-48c4-b0cb-6db5c626390b","system_id":"levelo_inurba_marseille","lat":43.29049,"lon":5.39948,"is_reserved":false,"is_disabled":true,"rental_uris":{"android":"levelo://app?vid=fdb61a9e-b53b-48c4-b0cb-6db5c626390b","ios":"levelo://app?vid=fdb61a9e-b53b-48c4-b0cb-6db5c626390b"},"vehicle_type_id":"4","last_reported":1747512603,"current_range_meters":8800,"station_id":"ce4bh392rcd13ifvqdm0","pricing_plan_id":"cebpf4jnsgd1na2vs0mg"},{"bike_id":"55fb771a-6e76-45c4-a9b7-cda97a0011d0","system_id":"levelo_inurba_marseille","lat":43.28678,"lon":5.38279,"is_reserved":false,"is_disabled":false,"rental_uris":{"android":"levelo://app?vid=55fb771a-6e76-45c4-a9b7-cda97a0011d0","ios":"levelo://app?vid=55fb771a-6e76-45c4-a9b7-cda97a0011d0"},"vehicle_type_id":"4","last_reported":1747512603,"current_range_meters":8800,"station_id":"","pricing_plan_id":"cebpf4jnsgd1na2vs0mg"},{"bike_id":"4b2a8a37-2fea-42a3-92a8-f8bac10f5a36","system_id":"levelo_inurba_marseille","lat":43.30886,"lon":5.39644,"is_reserved":false,"is_disabled":false,"rental_uris":{"android":"levelo://app?vid=4b2a8a37-2fea-42a3-92a8-f8bac10f5a36","ios":"levelo://app?vid=4b2a8a37-2fea-42a3-92a8-f8bac10f5a36"},"vehicle_type_id":"4","last_reported":1747512603,"current_range_meters":8800,"station_id":"ce4bh012rcd13ifvqcv0","pricing_plan_id":"cebpf4jnsgd1na2vs0mg"},{"bike_id":"601a4b2e-b95b-4300-a03c-0c86ee9eba75","system_id":"levelo_inurba_marseille","lat":43.29721,"lon":5.37675,"is_reserved":false,"is_disabled":false,"rental_uris":{"android":"levelo://app?vid=601a4b2e-b95b-4300-a03c-0c86ee9eba75","ios":"levelo://app?vid=601a4b2e-b95b-4300-a03c-0c86ee9eba75"},"vehicle_type_id":"4","last_reported":1747512603,"current_range_meters":8800,"station_id":"ce4bgkh2rcd13ifvqbl0","pricing_plan_id":"cebpf4jnsgd1na2vs0mg"},{"bike_id":"d0cc36ba-dea5-4301-b9bc-2db32098db5e","system_id":"levelo_inurba_marseille","lat":43.25091,"lon":5.39516,"is_reserved":false,"is_disabled":false,"rental_uris":{"android":"levelo://app?vid=d0cc36ba-dea5-4301-b9bc-2db32098db5e","ios":"levelo://app?vid=d0cc36ba-dea5-4301-b9bc-2db32098db5e"},"vehicle_type_id":"4","last_reported":1747512603,"current_range_meters":8800,"station_id":"ce4bhm12rcd13ifvqgkg","pricing_plan_id":"cebpf4jnsgd1na2vs0mg"},{"bike_id":"10748b8b-180b-48cb-a7db-0737c325b280","system_id":"levelo_inurba_marseille","lat":43.29898,"lon":5.43667,"is_reserved":false,"is_disabled":false,"rental_uris":{"android":"levelo://app?vid=10748b8b-180b-48cb-a7db-0737c325b280","ios":"levelo://app?vid=10748b8b-180b-48cb-a7db-0737c325b280"},"vehicle_type_id":"4","last_reported":1747512603,"current_range_meters":9200,"station_id":"ce4bhpp2rcd13ifvqhfg","pricing_plan_id":"cebpf4jnsgd1na2vs0mg"},{"bike_id":"fe8cdfa6-4c43-486f-bde2-f555ba86388c","system_id":"levelo_inurba_marseille","lat":43.30182,"lon":5.36586,"is_reserved":false,"is_disabled":false,"rental_uris":{"android":"levelo://app?vid=fe8cdfa6-4c43-486f-bde2-f555ba86388c","ios":"levelo://app?vid=fe8cdfa6-4c43-486f-bde2-f555ba86388c"},"vehicle_type_id":"4","last_reported":1747512603,"current_range_meters":8800,"station_id":"ce4bgrh2rcd13ifvqc8g","pricing_plan_id":"cebpf4jnsgd1na2vs0mg"},{"bike_id":"668a9fc9-28bf-4d54-9216-7019f1409685","system_id":"levelo_inurba_marseille","lat":43.29416,"lon":5.38629,"is_reserved":false,"is_disabled":false,"rental_uris":{"android":"levelo://app?vid=668a9fc9-28bf-4d54-9216-7019f1409685","ios":"levelo://app?vid=668a9fc9-28bf-4d54-9216-7019f1409685"},"vehicle_type_id":"4","last_reported":1747512603,"current_range_meters":9200,"station_id":"ce4bh2h2rcd13ifvqdh0","pricing_plan_id":"cebpf4jnsgd1na2vs0mg"},{"bike_id":"776afdc0-75b2-4caf-a16c-49404d99dc1e","system_id":"levelo_inurba_marseille","lat":43.30902,"lon":5.37197,"is_reserved":false,"is_disabled":false,"rental_uris":{"android":"levelo://app?vid=776afdc0-75b2-4caf-a16c-49404d99dc1e","ios":"levelo://app?vid=776afdc0-75b2-4caf-a16c-49404d99dc1e"},"vehicle_type_id":"4","last_reported":1747512603,"current_range_meters":8800,"station_id":"ce4bguh2rcd13ifvqckg","pricing_plan_id":"cebpf4jnsgd1na2vs0mg"},{"bike_id":"83df6560-d839-4cc1-b9c4-6c477190f614","system_id":"levelo_inurba_marseille","lat":43.24388,"lon":5.37065,"is_reserved":false,"is_disabled":true,"rental_uris":{"android":"levelo://app?vid=83df6560-d839-4cc1-b9c4-6c477190f614","ios":"levelo://app?vid=83df6560-d839-4cc1-b9c4-6c477190f614"},"vehicle_type_id":"4","last_reported":1747512603,"current_range_meters":9200,"station_id":"ce4bhhh2rcd13ifvqfk0","pricing_plan_id":"cebpf4jnsgd1na2vs0mg"},{"bike_id":"584034e2-5a2e-44fd-9fc9-13f39c66ddf4","system_id":"levelo_inurba_marseille","lat":43.28942,"lon":5.39631,"is_reserved":false,"is_disabled":false,"rental_uris":{"android":"levelo://app?vid=584034e2-5a2e-44fd-9fc9-13f39c66ddf4","ios":"levelo://app?vid=584034e2-5a2e-44fd-9fc9-13f39c66ddf4"},"vehicle_type_id":"4","last_reported":1747512603,"current_range_meters":8800,"station_id":"ce4bh3h2rcd13ifvqdn0","pricing_plan_id":"cebpf4jnsgd1na2vs0mg"},{"bike_id":"c4d898e3-5277-4bf1-a46a-7dbd652bc707","system_id":"levelo_inurba_marseille","lat":43.29305,"lon":5.37451,"is_reserved":false,"is_disabled":false,"rental_uris":{"android":"levelo://app?vid=c4d898e3-5277-4bf1-a46a-7dbd652bc707","ios":"levelo://app?vid=c4d898e3-5277-4bf1-a46a-7dbd652bc707"},"vehicle_type_id":"4","last_reported":1747512603,"current_range_meters":9200,"station_id":"ce4bgi12rcd13ifvqb70","pricing_plan_id":"cebpf4jnsgd1na2vs0mg"},{"bike_id":"9d1ced73-c438-4da3-99cb-5368d05e355b","system_id":"levelo_inurba_marseille","lat":43.26919,"lon":5.4028,"is_reserved":false,"is_disabled":false,"rental_uris":{"android":"levelo://app?vid=9d1ced73-c438-4da3-99cb-5368d05e355b","ios":"levelo://app?vid=9d1ced73-c438-4da3-99cb-5368d05e355b"},"vehicle_type_id":"4","last_reported":1747512603,"current_range_meters":9200,"station_id":"cjm6bp8fraef2m0cb0m0","pricing_plan_id":"cebpf4jnsgd1na2vs0mg"},{"bike_id":"0390d809-9393-482c-b3c5-bf6e57a8f578","system_id":"levelo_inurba_marseille","lat":43.298571,"lon":5.362819,"is_reserved":false,"is_disabled":false,"rental_uris":{"android":"levelo://app?vid=0390d809-9393-482c-b3c5-bf6e57a8f578","ios":"levelo://app?vid=0390d809-9393-482c-b3c5-bf6e57a8f578"},"vehicle_type_id":"4","last_reported":1747512603,"current_range_meters":9200,"station_id":"ce4bgpp2rcd13ifvqc3g","pricing_plan_id":"cebpf4jnsgd1na2vs0mg"},{"bike_id":"5091334a-a431-4ca8-b20a-f84a91ac0aa7","system_id":"levelo_inurba_marseille","lat":43.2558,"lon":5.38229,"is_reserved":false,"is_disabled":false,"rental_uris":{"android":"levelo://app?vid=5091334a-a431-4ca8-b20a-f84a91ac0aa7","ios":"levelo://app?vid=5091334a-a431-4ca8-b20a-f84a91ac0aa7"},"vehicle_type_id":"4","last_reported":1747512603,"current_range_meters":9200,"station_id":"ce4bhih2rcd13ifvqfs0","pricing_plan_id":"cebpf4jnsgd1na2vs0mg"},{"bike_id":"ca046087-a8bc-4f7b-9b15-45221230521d","system_id":"levelo_inurba_marseille","lat":43.27319,"lon":5.39092,"is_reserved":false,"is_disabled":false,"rental_uris":{"android":"levelo://app?vid=ca046087-a8bc-4f7b-9b15-45221230521d","ios":"levelo://app?vid=ca046087-a8bc-4f7b-9b15-45221230521d"},"vehicle_type_id":"4","last_reported":1747512603,"current_range_meters":9600,"station_id":"ce4bhgp2rcd13ifvqfe0","pricing_plan_id":"cebpf4jnsgd1na2vs0mg"},{"bike_id":"003ad96f-6345-46c9-aa10-023467854d96","system_id":"levelo_inurba_marseille","lat":43.29417,"lon":5.38627,"is_reserved":false,"is_disabled":false,"rental_uris":{"android":"levelo://app?vid=003ad96f-6345-46c9-aa10-023467854d96","ios":"levelo://app?vid=003ad96f-6345-46c9-aa10-023467854d96"},"vehicle_type_id":"4","last_reported":1747512603,"current_range_meters":9600,"station_id":"ce4bh2h2rcd13ifvqdh0","pricing_plan_id":"cebpf4jnsgd1na2vs0mg"},{"bike_id":"6bad99d6-c400-4729-a6f1-dd5f2da6c3f2","system_id":"levelo_inurba_marseille","lat":43.31726,"lon":5.42393,"is_reserved":false,"is_disabled":false,"rental_uris":{"android":"levelo://app?vid=6bad99d6-c400-4729-a6f1-dd5f2da6c3f2","ios":"levelo://app?vid=6bad99d6-c400-4729-a6f1-dd5f2da6c3f2"},"vehicle_type_id":"4","last_reported":1747512603,"current_range_meters":9600,"station_id":"ce4bhp92rcd13ifvqhbg","pricing_plan_id":"cebpf4jnsgd1na2vs0mg"},{"bike_id":"4fbb7b1b-7f23-47f7-80fe-a4e6f73e37a2","system_id":"levelo_inurba_marseille","lat":43.31354,"lon":5.38493,"is_reserved":false,"is_disabled":false,"rental_uris":{"android":"levelo://app?vid=4fbb7b1b-7f23-47f7-80fe-a4e6f73e37a2","ios":"levelo://app?vid=4fbb7b1b-7f23-47f7-80fe-a4e6f73e37a2"},"vehicle_type_id":"4","last_reported":1747512603,"current_range_meters":9600,"station_id":"ce4bgt92rcd13ifvqcf0","pricing_plan_id":"cebpf4jnsgd1na2vs0mg"},{"bike_id":"6a4abd9f-a0b2-44cb-887b-ada3a1dd2658","system_id":"levelo_inurba_marseille","lat":43.29863,"lon":5.36265,"is_reserved":false,"is_disabled":false,"rental_uris":{"android":"levelo://app?vid=6a4abd9f-a0b2-44cb-887b-ada3a1dd2658","ios":"levelo://app?vid=6a4abd9f-a0b2-44cb-887b-ada3a1dd2658"},"vehicle_type_id":"4","last_reported":1747512603,"current_range_meters":9600,"station_id":"ce4bgpp2rcd13ifvqc3g","pricing_plan_id":"cebpf4jnsgd1na2vs0mg"},{"bike_id":"5ea6f467-857b-4ea7-a4b9-4a241fcc702a","system_id":"levelo_inurba_marseille","lat":43.24676,"lon":5.38157,"is_reserved":false,"is_disabled":false,"rental_uris":{"android":"levelo://app?vid=5ea6f467-857b-4ea7-a4b9-4a241fcc702a","ios":"levelo://app?vid=5ea6f467-857b-4ea7-a4b9-4a241fcc702a"},"vehicle_type_id":"4","last_reported":1747512603,"current_range_meters":9600,"station_id":"ce4bhih2rcd13ifvqfr0","pricing_plan_id":"cebpf4jnsgd1na2vs0mg"},{"bike_id":"26808a24-9e36-4930-921c-a3113ce9be8a","system_id":"levelo_inurba_marseille","lat":43.272103,"lon":5.391044,"is_reserved":false,"is_disabled":false,"rental_uris":{"android":"levelo://app?vid=26808a24-9e36-4930-921c-a3113ce9be8a","ios":"levelo://app?vid=26808a24-9e36-4930-921c-a3113ce9be8a"},"vehicle_type_id":"4","last_reported":1747512603,"current_range_meters":9600,"station_id":"","pricing_plan_id":"cebpf4jnsgd1na2vs0mg"},{"bike_id":"f71561d3-f5fe-451d-b345-b9350f78ae1b","system_id":"levelo_inurba_marseille","lat":43.29678,"lon":5.3729,"is_reserved":false,"is_disabled":false,"rental_uris":{"android":"levelo://app?vid=f71561d3-f5fe-451d-b345-b9350f78ae1b","ios":"levelo://app?vid=f71561d3-f5fe-451d-b345-b9350f78ae1b"},"vehicle_type_id":"4","last_reported":1747512603,"current_range_meters":9200,"station_id":"ce4bgk12rcd13ifvqbj0","pricing_plan_id":"cebpf4jnsgd1na2vs0mg"},{"bike_id":"416fb16a-cb47-49d2-a3c4-d3e95d5a2830","system_id":"levelo_inurba_marseille","lat":43.24814,"lon":5.37457,"is_reserved":false,"is_disabled":false,"rental_uris":{"android":"levelo://app?vid=416fb16a-cb47-49d2-a3c4-d3e95d5a2830","ios":"levelo://app?vid=416fb16a-cb47-49d2-a3c4-d3e95d5a2830"},"vehicle_type_id":"4","last_reported":1747512603,"current_range_meters":9200,"station_id":"ce4bhgh2rcd13ifvqfb0","pricing_plan_id":"cebpf4jnsgd1na2vs0mg"},{"bike_id":"9cad89f6-20ac-4a0d-8a49-e06f4ba590cf","system_id":"levelo_inurba_marseille","lat":43.32106,"lon":5.36775,"is_reserved":false,"is_disabled":false,"rental_uris":{"android":"levelo://app?vid=9cad89f6-20ac-4a0d-8a49-e06f4ba590cf","ios":"levelo://app?vid=9cad89f6-20ac-4a0d-8a49-e06f4ba590cf"},"vehicle_type_id":"4","last_reported":1747512603,"current_range_meters":9600,"station_id":"ce4bhrh2rcd13ifvqhug","pricing_plan_id":"cebpf4jnsgd1na2vs0mg"},{"bike_id":"a063b40b-df40-49a7-9f2d-1f2ba19974f2","system_id":"levelo_inurba_marseille","lat":43.2985,"lon":5.36272,"is_reserved":false,"is_disabled":false,"rental_uris":{"android":"levelo://app?vid=a063b40b-df40-49a7-9f2d-1f2ba19974f2","ios":"levelo://app?vid=a063b40b-df40-49a7-9f2d-1f2ba19974f2"},"vehicle_type_id":"4","last_reported":1747512603,"current_range_meters":9600,"station_id":"ce4bgpp2rcd13ifvqc3g","pricing_plan_id":"cebpf4jnsgd1na2vs0mg"},{"bike_id":"d50981e1-2589-4d0e-b4f0-ba7be17f9905","system_id":"levelo_inurba_marseille","lat":43.29852,"lon":5.36275,"is_reserved":false,"is_disabled":false,"rental_uris":{"android":"levelo://app?vid=d50981e1-2589-4d0e-b4f0-ba7be17f9905","ios":"levelo://app?vid=d50981e1-2589-4d0e-b4f0-ba7be17f9905"},"vehicle_type_id":"4","last_reported":1747512603,"current_range_meters":10000,"station_id":"ce4bgpp2rcd13ifvqc3g","pricing_plan_id":"cebpf4jnsgd1na2vs0mg"},{"bike_id":"c17d6e9f-591a-44af-ba0f-91d6add79496","system_id":"levelo_inurba_marseille","lat":43.27812,"lon":5.40713,"is_reserved":false,"is_disabled":false,"rental_uris":{"android":"levelo://app?vid=c17d6e9f-591a-44af-ba0f-91d6add79496","ios":"levelo://app?vid=c17d6e9f-591a-44af-ba0f-91d6add79496"},"vehicle_type_id":"4","last_reported":1747512603,"current_range_meters":10000,"station_id":"ce4bhnh2rcd13ifvqgtg","pricing_plan_id":"cebpf4jnsgd1na2vs0mg"},{"bike_id":"c3265c52-2344-4e88-af24-baebe0e31368","system_id":"levelo_inurba_marseille","lat":43.30929,"lon":5.40145,"is_reserved":false,"is_disabled":false,"rental_uris":{"android":"levelo://app?vid=c3265c52-2344-4e88-af24-baebe0e31368","ios":"levelo://app?vid=c3265c52-2344-4e88-af24-baebe0e31368"},"vehicle_type_id":"4","last_reported":1747512603,"current_range_meters":10000,"station_id":"ce4bgvp2rcd13ifvqct0","pricing_plan_id":"cebpf4jnsgd1na2vs0mg"},{"bike_id":"b058fbc3-2d28-4c26-b042-7d542626f37d","system_id":"levelo_inurba_marseille","lat":43.32489,"lon":5.36564,"is_reserved":false,"is_disabled":false,"rental_uris":{"android":"levelo://app?vid=b058fbc3-2d28-4c26-b042-7d542626f37d","ios":"levelo://app?vid=b058fbc3-2d28-4c26-b042-7d542626f37d"},"vehicle_type_id":"4","last_reported":1747512603,"current_range_meters":9600,"station_id":"ce4bhs12rcd13ifvqhvg","pricing_plan_id":"cebpf4jnsgd1na2vs0mg"},{"bike_id":"9a392921-4a66-48db-bbda-b2067ba42117","system_id":"levelo_inurba_marseille","lat":43.29036,"lon":5.38648,"is_reserved":false,"is_disabled":false,"rental_uris":{"android":"levelo://app?vid=9a392921-4a66-48db-bbda-b2067ba42117","ios":"levelo://app?vid=9a392921-4a66-48db-bbda-b2067ba42117"},"vehicle_type_id":"4","last_reported":1747512603,"current_range_meters":10000,"station_id":"ce4bh4p2rcd13ifvqe0g","pricing_plan_id":"cebpf4jnsgd1na2vs0mg"},{"bike_id":"b8e6468b-87db-4ff6-8122-ef13bf5b7c8c","system_id":"levelo_inurba_marseille","lat":43.31379,"lon":5.37916,"is_reserved":false,"is_disabled":false,"rental_uris":{"android":"levelo://app?vid=b8e6468b-87db-4ff6-8122-ef13bf5b7c8c","ios":"levelo://app?vid=b8e6468b-87db-4ff6-8122-ef13bf5b7c8c"},"vehicle_type_id":"4","last_reported":1747512603,"current_range_meters":10000,"station_id":"","pricing_plan_id":"cebpf4jnsgd1na2vs0mg"},{"bike_id":"49d88bc7-96ad-4662-b063-4de22854d9e3","system_id":"levelo_inurba_marseille","lat":43.316963,"lon":5.404673,"is_reserved":false,"is_disabled":false,"rental_uris":{"android":"levelo://app?vid=49d88bc7-96ad-4662-b063-4de22854d9e3","ios":"levelo://app?vid=49d88bc7-96ad-4662-b063-4de22854d9e3"},"vehicle_type_id":"4","last_reported":1747512603,"current_range_meters":10000,"station_id":"ce4bh012rcd13ifvqd00","pricing_plan_id":"cebpf4jnsgd1na2vs0mg"},{"bike_id":"1d9ce790-24b9-4a6d-bdd6-5c6979c21109","system_id":"levelo_inurba_marseille","lat":43.29859,"lon":5.36292,"is_reserved":false,"is_disabled":false,"rental_uris":{"android":"levelo://app?vid=1d9ce790-24b9-4a6d-bdd6-5c6979c21109","ios":"levelo://app?vid=1d9ce790-24b9-4a6d-bdd6-5c6979c21109"},"vehicle_type_id":"4","last_reported":1747512603,"current_range_meters":11200,"station_id":"ce4bgpp2rcd13ifvqc3g","pricing_plan_id":"cebpf4jnsgd1na2vs0mg"},{"bike_id":"81c659b6-3a02-46e7-a46f-d340746ad32e","system_id":"levelo_inurba_marseille","lat":43.2739,"lon":5.36258,"is_reserved":false,"is_disabled":true,"rental_uris":{"android":"levelo://app?vid=81c659b6-3a02-46e7-a46f-d340746ad32e","ios":"levelo://app?vid=81c659b6-3a02-46e7-a46f-d340746ad32e"},"vehicle_type_id":"4","last_reported":1747512603,"current_range_meters":10000,"station_id":"ce4bhbh2rcd13ifvqeo0","pricing_plan_id":"cebpf4jnsgd1na2vs0mg"},{"bike_id":"82c75689-ac7c-4ced-85f4-24e0d3bec9dd","system_id":"levelo_inurba_marseille","lat":43.23964,"lon":5.36629,"is_reserved":false,"is_disabled":false,"rental_uris":{"android":"levelo://app?vid=82c75689-ac7c-4ced-85f4-24e0d3bec9dd","ios":"levelo://app?vid=82c75689-ac7c-4ced-85f4-24e0d3bec9dd"},"vehicle_type_id":"4","last_reported":1747512603,"current_range_meters":10000,"station_id":"ce4bhi12rcd13ifvqfp0","pricing_plan_id":"cebpf4jnsgd1na2vs0mg"},{"bike_id":"5a751cef-9c88-42a7-a700-0d164eaf8b91","system_id":"levelo_inurba_marseille","lat":43.28465,"lon":5.35892,"is_reserved":false,"is_disabled":false,"rental_uris":{"android":"levelo://app?vid=5a751cef-9c88-42a7-a700-0d164eaf8b91","ios":"levelo://app?vid=5a751cef-9c88-42a7-a700-0d164eaf8b91"},"vehicle_type_id":"4","last_reported":1747512603,"current_range_meters":10000,"station_id":"ce4bhah2rcd13ifvqei0","pricing_plan_id":"cebpf4jnsgd1na2vs0mg"},{"bike_id":"5a99f2c1-6935-4b2c-a6a9-a4bc8d25a815","system_id":"levelo_inurba_marseille","lat":43.29423,"lon":5.38621,"is_reserved":false,"is_disabled":false,"rental_uris":{"android":"levelo://app?vid=5a99f2c1-6935-4b2c-a6a9-a4bc8d25a815","ios":"levelo://app?vid=5a99f2c1-6935-4b2c-a6a9-a4bc8d25a815"},"vehicle_type_id":"4","last_reported":1747512603,"current_range_meters":10000,"station_id":"ce4bh2h2rcd13ifvqdh0","pricing_plan_id":"cebpf4jnsgd1na2vs0mg"},{"bike_id":"89b6e378-45a4-453c-b44a-d8e3186991b9","system_id":"levelo_inurba_marseille","lat":43.26214,"lon":5.37434,"is_reserved":false,"is_disabled":true,"rental_uris":{"android":"levelo://app?vid=89b6e378-45a4-453c-b44a-d8e3186991b9","ios":"levelo://app?vid=89b6e378-45a4-453c-b44a-d8e3186991b9"},"vehicle_type_id":"4","last_reported":1747512603,"current_range_meters":10000,"station_id":"ce4bhgp2rcd13ifvqfc0","pricing_plan_id":"cebpf4jnsgd1na2vs0mg"},{"bike_id":"a38c00f2-d6e5-49f9-b13f-67dc01a3c5a8","system_id":"levelo_inurba_marseille","lat":43.29955,"lon":5.36532,"is_reserved":false,"is_disabled":false,"rental_uris":{"android":"levelo://app?vid=a38c00f2-d6e5-49f9-b13f-67dc01a3c5a8","ios":"levelo://app?vid=a38c00f2-d6e5-49f9-b13f-67dc01a3c5a8"},"vehicle_type_id":"4","last_reported":1747512603,"current_range_meters":10000,"station_id":"ce4bgm92rcd13ifvqbr0","pricing_plan_id":"cebpf4jnsgd1na2vs0mg"},{"bike_id":"088a952d-05ec-4a50-84cb-9e0beaf63713","system_id":"levelo_inurba_marseille","lat":43.295855,"lon":5.367457,"is_reserved":false,"is_disabled":false,"rental_uris":{"android":"levelo://app?vid=088a952d-05ec-4a50-84cb-9e0beaf63713","ios":"levelo://app?vid=088a952d-05ec-4a50-84cb-9e0beaf63713"},"vehicle_type_id":"4","last_reported":1747512603,"current_range_meters":10800,"station_id":"ce4bgph2rcd13ifvqc2g","pricing_plan_id":"cebpf4jnsgd1na2vs0mg"},{"bike_id":"716c0eb7-73ed-48d8-ad7c-b8a9ca167ea4","system_id":"levelo_inurba_marseille","lat":43.29841,"lon":5.36267,"is_reserved":false,"is_disabled":false,"rental_uris":{"android":"levelo://app?vid=716c0eb7-73ed-48d8-ad7c-b8a9ca167ea4","ios":"levelo://app?vid=716c0eb7-73ed-48d8-ad7c-b8a9ca167ea4"},"vehicle_type_id":"4","last_reported":1747512603,"current_range_meters":10800,"station_id":"ce4bgpp2rcd13ifvqc3g","pricing_plan_id":"cebpf4jnsgd1na2vs0mg"},{"bike_id":"6e07ec42-f359-427e-86b5-7d030817122e","system_id":"levelo_inurba_marseille","lat":43.294215,"lon":5.386239,"is_reserved":false,"is_disabled":false,"rental_uris":{"android":"levelo://app?vid=6e07ec42-f359-427e-86b5-7d030817122e","ios":"levelo://app?vid=6e07ec42-f359-427e-86b5-7d030817122e"},"vehicle_type_id":"4","last_reported":1747512603,"current_range_meters":10800,"station_id":"ce4bh2h2rcd13ifvqdh0","pricing_plan_id":"cebpf4jnsgd1na2vs0mg"},{"bike_id":"2013cd87-0d43-443c-a50a-2ae65b408add","system_id":"levelo_inurba_marseille","lat":43.3237,"lon":5.38881,"is_reserved":false,"is_disabled":false,"rental_uris":{"android":"levelo://app?vid=2013cd87-0d43-443c-a50a-2ae65b408add","ios":"levelo://app?vid=2013cd87-0d43-443c-a50a-2ae65b408add"},"vehicle_type_id":"4","last_reported":1747512603,"current_range_meters":10800,"station_id":"ce4bhqp2rcd13ifvqhog","pricing_plan_id":"cebpf4jnsgd1na2vs0mg"},{"bike_id":"a1aeb7d4-cb27-433c-b277-ad0c6d1dd06d","system_id":"levelo_inurba_marseille","lat":43.31701,"lon":5.40462,"is_reserved":false,"is_disabled":false,"rental_uris":{"android":"levelo://app?vid=a1aeb7d4-cb27-433c-b277-ad0c6d1dd06d","ios":"levelo://app?vid=a1aeb7d4-cb27-433c-b277-ad0c6d1dd06d"},"vehicle_type_id":"4","last_reported":1747512603,"current_range_meters":10800,"station_id":"ce4bh012rcd13ifvqd00","pricing_plan_id":"cebpf4jnsgd1na2vs0mg"},{"bike_id":"b28bcb39-a7b8-4c4b-aa7e-fd586c8059f2","system_id":"levelo_inurba_marseille","lat":43.29418,"lon":5.38628,"is_reserved":false,"is_disabled":false,"rental_uris":{"android":"levelo://app?vid=b28bcb39-a7b8-4c4b-aa7e-fd586c8059f2","ios":"levelo://app?vid=b28bcb39-a7b8-4c4b-aa7e-fd586c8059f2"},"vehicle_type_id":"4","last_reported":1747512603,"current_range_meters":10800,"station_id":"ce4bh2h2rcd13ifvqdh0","pricing_plan_id":"cebpf4jnsgd1na2vs0mg"},{"bike_id":"43d6aac7-a7e1-4a6b-80c0-866c1b62d395","system_id":"levelo_inurba_marseille","lat":43.287,"lon":5.39985,"is_reserved":false,"is_disabled":false,"rental_uris":{"android":"levelo://app?vid=43d6aac7-a7e1-4a6b-80c0-866c1b62d395","ios":"levelo://app?vid=43d6aac7-a7e1-4a6b-80c0-866c1b62d395"},"vehicle_type_id":"4","last_reported":1747512603,"current_range_meters":10000,"station_id":"ce4bho92rcd13ifvqh3g","pricing_plan_id":"cebpf4jnsgd1na2vs0mg"},{"bike_id":"87db6c6e-35e8-400a-8d77-6a40cf65d836","system_id":"levelo_inurba_marseille","lat":43.297,"lon":5.36615,"is_reserved":false,"is_disabled":false,"rental_uris":{"android":"levelo://app?vid=87db6c6e-35e8-400a-8d77-6a40cf65d836","ios":"levelo://app?vid=87db6c6e-35e8-400a-8d77-6a40cf65d836"},"vehicle_type_id":"4","last_reported":1747512603,"current_range_meters":10800,"station_id":"ce4bgn12rcd13ifvqbt0","pricing_plan_id":"cebpf4jnsgd1na2vs0mg"},{"bike_id":"02fe123b-78d8-4d5d-998e-147cb9fbb1e5","system_id":"levelo_inurba_marseille","lat":43.30311,"lon":5.36896,"is_reserved":false,"is_disabled":false,"rental_uris":{"android":"levelo://app?vid=02fe123b-78d8-4d5d-998e-147cb9fbb1e5","ios":"levelo://app?vid=02fe123b-78d8-4d5d-998e-147cb9fbb1e5"},"vehicle_type_id":"4","last_reported":1747512603,"current_range_meters":10800,"station_id":"ce4bgqh2rcd13ifvqc5g","pricing_plan_id":"cebpf4jnsgd1na2vs0mg"},{"bike_id":"aacb7e42-8e71-48c4-8fdd-bc5b7fe6e916","system_id":"levelo_inurba_marseille","lat":43.29423,"lon":5.38621,"is_reserved":false,"is_disabled":false,"rental_uris":{"android":"levelo://app?vid=aacb7e42-8e71-48c4-8fdd-bc5b7fe6e916","ios":"levelo://app?vid=aacb7e42-8e71-48c4-8fdd-bc5b7fe6e916"},"vehicle_type_id":"4","last_reported":1747512603,"current_range_meters":10800,"station_id":"ce4bh2h2rcd13ifvqdh0","pricing_plan_id":"cebpf4jnsgd1na2vs0mg"},{"bike_id":"da17cca1-6049-4552-aa9f-6f82f234a76a","system_id":"levelo_inurba_marseille","lat":43.29421,"lon":5.38621,"is_reserved":false,"is_disabled":false,"rental_uris":{"android":"levelo://app?vid=da17cca1-6049-4552-aa9f-6f82f234a76a","ios":"levelo://app?vid=da17cca1-6049-4552-aa9f-6f82f234a76a"},"vehicle_type_id":"4","last_reported":1747512603,"current_range_meters":10800,"station_id":"ce4bh2h2rcd13ifvqdh0","pricing_plan_id":"cebpf4jnsgd1na2vs0mg"},{"bike_id":"53fa3e96-72f9-4131-a317-bcec26b3fc3d","system_id":"levelo_inurba_marseille","lat":43.31214,"lon":5.36859,"is_reserved":false,"is_disabled":false,"rental_uris":{"android":"levelo://app?vid=53fa3e96-72f9-4131-a317-bcec26b3fc3d","ios":"levelo://app?vid=53fa3e96-72f9-4131-a317-bcec26b3fc3d"},"vehicle_type_id":"4","last_reported":1747512603,"current_range_meters":10000,"station_id":"ce4bgl92rcd13ifvqbq0","pricing_plan_id":"cebpf4jnsgd1na2vs0mg"},{"bike_id":"263e113b-6016-4c2e-99e3-07599985b63f","system_id":"levelo_inurba_marseille","lat":43.27917,"lon":5.395773,"is_reserved":false,"is_disabled":false,"rental_uris":{"android":"levelo://app?vid=263e113b-6016-4c2e-99e3-07599985b63f","ios":"levelo://app?vid=263e113b-6016-4c2e-99e3-07599985b63f"},"vehicle_type_id":"4","last_reported":1747512603,"current_range_meters":11200,"station_id":"ce4bhf92rcd13ifvqf40","pricing_plan_id":"cebpf4jnsgd1na2vs0mg"},{"bike_id":"792c9dbd-158e-4661-91d4-2c1ed379e655","system_id":"levelo_inurba_marseille","lat":43.24659,"lon":5.38159,"is_reserved":false,"is_disabled":false,"rental_uris":{"android":"levelo://app?vid=792c9dbd-158e-4661-91d4-2c1ed379e655","ios":"levelo://app?vid=792c9dbd-158e-4661-91d4-2c1ed379e655"},"vehicle_type_id":"4","last_reported":1747512603,"current_range_meters":11200,"station_id":"ce4bhih2rcd13ifvqfr0","pricing_plan_id":"cebpf4jnsgd1na2vs0mg"},{"bike_id":"b934e6da-efb5-4ac5-a51a-eb50220f6e1b","system_id":"levelo_inurba_marseille","lat":43.270062,"lon":5.405898,"is_reserved":false,"is_disabled":true,"rental_uris":{"android":"levelo://app?vid=b934e6da-efb5-4ac5-a51a-eb50220f6e1b","ios":"levelo://app?vid=b934e6da-efb5-4ac5-a51a-eb50220f6e1b"},"vehicle_type_id":"4","last_reported":1747512603,"current_range_meters":11200,"station_id":"","pricing_plan_id":"cebpf4jnsgd1na2vs0mg"},{"bike_id":"8b1b9fc8-2f5f-49e8-b567-ad39dc989cb7","system_id":"levelo_inurba_marseille","lat":43.29038,"lon":5.37544,"is_reserved":false,"is_disabled":true,"rental_uris":{"android":"levelo://app?vid=8b1b9fc8-2f5f-49e8-b567-ad39dc989cb7","ios":"levelo://app?vid=8b1b9fc8-2f5f-49e8-b567-ad39dc989cb7"},"vehicle_type_id":"4","last_reported":1747512603,"current_range_meters":11200,"station_id":"ce4bh692rcd13ifvqe90","pricing_plan_id":"cebpf4jnsgd1na2vs0mg"},{"bike_id":"6ddf74ee-e09d-408d-bcc6-c3d26d69cfde","system_id":"levelo_inurba_marseille","lat":43.28669,"lon":5.38659,"is_reserved":false,"is_disabled":false,"rental_uris":{"android":"levelo://app?vid=6ddf74ee-e09d-408d-bcc6-c3d26d69cfde","ios":"levelo://app?vid=6ddf74ee-e09d-408d-bcc6-c3d26d69cfde"},"vehicle_type_id":"4","last_reported":1747512603,"current_range_meters":11200,"station_id":"ce4bh492rcd13ifvqdug","pricing_plan_id":"cebpf4jnsgd1na2vs0mg"},{"bike_id":"e56c7f16-7c7d-461a-af32-2290136ff79f","system_id":"levelo_inurba_marseille","lat":43.29191,"lon":5.39325,"is_reserved":false,"is_disabled":false,"rental_uris":{"android":"levelo://app?vid=e56c7f16-7c7d-461a-af32-2290136ff79f","ios":"levelo://app?vid=e56c7f16-7c7d-461a-af32-2290136ff79f"},"vehicle_type_id":"4","last_reported":1747512603,"current_range_meters":11600,"station_id":"ce4bh192rcd13ifvqdd0","pricing_plan_id":"cebpf4jnsgd1na2vs0mg"},{"bike_id":"3812098f-f79e-4494-b092-9699fb507498","system_id":"levelo_inurba_marseille","lat":43.29067,"lon":5.37156,"is_reserved":false,"is_disabled":true,"rental_uris":{"android":"levelo://app?vid=3812098f-f79e-4494-b092-9699fb507498","ios":"levelo://app?vid=3812098f-f79e-4494-b092-9699fb507498"},"vehicle_type_id":"4","last_reported":1747512603,"current_range_meters":11600,"station_id":"ce4bh5p2rcd13ifvqe4g","pricing_plan_id":"cebpf4jnsgd1na2vs0mg"},{"bike_id":"b7f6d2d8-3715-44e8-87af-4f1d6f8296ef","system_id":"levelo_inurba_marseille","lat":43.28367,"lon":5.38639,"is_reserved":false,"is_disabled":false,"rental_uris":{"android":"levelo://app?vid=b7f6d2d8-3715-44e8-87af-4f1d6f8296ef","ios":"levelo://app?vid=b7f6d2d8-3715-44e8-87af-4f1d6f8296ef"},"vehicle_type_id":"4","last_reported":1747512603,"current_range_meters":11600,"station_id":"ce4bh492rcd13ifvqdvg","pricing_plan_id":"cebpf4jnsgd1na2vs0mg"},{"bike_id":"810b591e-74a4-4fd3-b30d-2953d6fb710d","system_id":"levelo_inurba_marseille","lat":43.28926,"lon":5.38405,"is_reserved":false,"is_disabled":false,"rental_uris":{"android":"levelo://app?vid=810b591e-74a4-4fd3-b30d-2953d6fb710d","ios":"levelo://app?vid=810b591e-74a4-4fd3-b30d-2953d6fb710d"},"vehicle_type_id":"4","last_reported":1747512603,"current_range_meters":11200,"station_id":"ce4bh612rcd13ifvqe6g","pricing_plan_id":"cebpf4jnsgd1na2vs0mg"},{"bike_id":"99795b96-409c-4a95-83d9-3540ec7c8d7d","system_id":"levelo_inurba_marseille","lat":43.27213,"lon":5.39203,"is_reserved":false,"is_disabled":false,"rental_uris":{"android":"levelo://app?vid=99795b96-409c-4a95-83d9-3540ec7c8d7d","ios":"levelo://app?vid=99795b96-409c-4a95-83d9-3540ec7c8d7d"},"vehicle_type_id":"4","last_reported":1747512603,"current_range_meters":11600,"station_id":"ce4bhhp2rcd13ifvqfm0","pricing_plan_id":"cebpf4jnsgd1na2vs0mg"},{"bike_id":"2142000d-bd33-407f-8c2f-a1a88b804624","system_id":"levelo_inurba_marseille","lat":43.27496,"lon":5.42447,"is_reserved":false,"is_disabled":false,"rental_uris":{"android":"levelo://app?vid=2142000d-bd33-407f-8c2f-a1a88b804624","ios":"levelo://app?vid=2142000d-bd33-407f-8c2f-a1a88b804624"},"vehicle_type_id":"4","last_reported":1747512603,"current_range_meters":11200,"station_id":"ce4bhn92rcd13ifvqgrg","pricing_plan_id":"cebpf4jnsgd1na2vs0mg"},{"bike_id":"676b8b7e-1d9d-4256-bfd5-9ff3f136ec1f","system_id":"levelo_inurba_marseille","lat":43.28938,"lon":5.36635,"is_reserved":false,"is_disabled":false,"rental_uris":{"android":"levelo://app?vid=676b8b7e-1d9d-4256-bfd5-9ff3f136ec1f","ios":"levelo://app?vid=676b8b7e-1d9d-4256-bfd5-9ff3f136ec1f"},"vehicle_type_id":"4","last_reported":1747512603,"current_range_meters":11600,"station_id":"ce4bhap2rcd13ifvqek0","pricing_plan_id":"cebpf4jnsgd1na2vs0mg"},{"bike_id":"6a3884a6-c71b-45eb-b53d-44c4c58bd642","system_id":"levelo_inurba_marseille","lat":43.24814,"lon":5.37451,"is_reserved":false,"is_disabled":false,"rental_uris":{"android":"levelo://app?vid=6a3884a6-c71b-45eb-b53d-44c4c58bd642","ios":"levelo://app?vid=6a3884a6-c71b-45eb-b53d-44c4c58bd642"},"vehicle_type_id":"4","last_reported":1747512603,"current_range_meters":11600,"station_id":"ce4bhgh2rcd13ifvqfb0","pricing_plan_id":"cebpf4jnsgd1na2vs0mg"},{"bike_id":"6e1bd625-3ec1-43df-9657-36d71ae09f8d","system_id":"levelo_inurba_marseille","lat":43.33718,"lon":5.37458,"is_reserved":false,"is_disabled":false,"rental_uris":{"android":"levelo://app?vid=6e1bd625-3ec1-43df-9657-36d71ae09f8d","ios":"levelo://app?vid=6e1bd625-3ec1-43df-9657-36d71ae09f8d"},"vehicle_type_id":"4","last_reported":1747512603,"current_range_meters":11600,"station_id":"","pricing_plan_id":"cebpf4jnsgd1na2vs0mg"},{"bike_id":"99fcae64-89f3-4dbd-8dd5-d90fa6200281","system_id":"levelo_inurba_marseille","lat":43.29719,"lon":5.366,"is_reserved":false,"is_disabled":false,"rental_uris":{"android":"levelo://app?vid=99fcae64-89f3-4dbd-8dd5-d90fa6200281","ios":"levelo://app?vid=99fcae64-89f3-4dbd-8dd5-d90fa6200281"},"vehicle_type_id":"4","last_reported":1747512603,"current_range_meters":11600,"station_id":"ce4bgn12rcd13ifvqbt0","pricing_plan_id":"cebpf4jnsgd1na2vs0mg"},{"bike_id":"f127fa20-1348-44ca-bd56-24ded6d52da0","system_id":"levelo_inurba_marseille","lat":43.29622,"lon":5.3774,"is_reserved":false,"is_disabled":false,"rental_uris":{"android":"levelo://app?vid=f127fa20-1348-44ca-bd56-24ded6d52da0","ios":"levelo://app?vid=f127fa20-1348-44ca-bd56-24ded6d52da0"},"vehicle_type_id":"4","last_reported":1747512603,"current_range_meters":10800,"station_id":"ce4bgi92rcd13ifvqb90","pricing_plan_id":"cebpf4jnsgd1na2vs0mg"},{"bike_id":"568c285b-7bb4-44cf-b478-ca49daab28c4","system_id":"levelo_inurba_marseille","lat":43.337444,"lon":5.374475,"is_reserved":false,"is_disabled":false,"rental_uris":{"android":"levelo://app?vid=568c285b-7bb4-44cf-b478-ca49daab28c4","ios":"levelo://app?vid=568c285b-7bb4-44cf-b478-ca49daab28c4"},"vehicle_type_id":"4","last_reported":1747512603,"current_range_meters":12000,"station_id":"","pricing_plan_id":"cebpf4jnsgd1na2vs0mg"},{"bike_id":"68a26a9d-138e-400c-94ac-cbafe331bc9e","system_id":"levelo_inurba_marseille","lat":43.28354,"lon":5.38097,"is_reserved":false,"is_disabled":false,"rental_uris":{"android":"levelo://app?vid=68a26a9d-138e-400c-94ac-cbafe331bc9e","ios":"levelo://app?vid=68a26a9d-138e-400c-94ac-cbafe331bc9e"},"vehicle_type_id":"4","last_reported":1747512603,"current_range_meters":11600,"station_id":"ce4bh412rcd13ifvqdr0","pricing_plan_id":"cebpf4jnsgd1na2vs0mg"},{"bike_id":"7502aaf2-e0b6-4e59-86da-36975a13a9d8","system_id":"levelo_inurba_marseille","lat":43.29535,"lon":5.37508,"is_reserved":false,"is_disabled":true,"rental_uris":{"android":"levelo://app?vid=7502aaf2-e0b6-4e59-86da-36975a13a9d8","ios":"levelo://app?vid=7502aaf2-e0b6-4e59-86da-36975a13a9d8"},"vehicle_type_id":"4","last_reported":1747512603,"current_range_meters":12000,"station_id":"ce4bgkp2rcd13ifvqbmg","pricing_plan_id":"cebpf4jnsgd1na2vs0mg"},{"bike_id":"9d205712-4faf-4521-a59b-52c8a122e1ca","system_id":"levelo_inurba_marseille","lat":43.30797,"lon":5.38176,"is_reserved":false,"is_disabled":true,"rental_uris":{"android":"levelo://app?vid=9d205712-4faf-4521-a59b-52c8a122e1ca","ios":"levelo://app?vid=9d205712-4faf-4521-a59b-52c8a122e1ca"},"vehicle_type_id":"4","last_reported":1747512603,"current_range_meters":12000,"station_id":"ce4bgt12rcd13ifvqce0","pricing_plan_id":"cebpf4jnsgd1na2vs0mg"},{"bike_id":"4c33e9a2-0e5c-427f-a7cc-632c63a61d9d","system_id":"levelo_inurba_marseille","lat":43.28358,"lon":5.38099,"is_reserved":false,"is_disabled":true,"rental_uris":{"android":"levelo://app?vid=4c33e9a2-0e5c-427f-a7cc-632c63a61d9d","ios":"levelo://app?vid=4c33e9a2-0e5c-427f-a7cc-632c63a61d9d"},"vehicle_type_id":"4","last_reported":1747512603,"current_range_meters":12000,"station_id":"ce4bh412rcd13ifvqdr0","pricing_plan_id":"cebpf4jnsgd1na2vs0mg"},{"bike_id":"85a60522-0561-47e9-a0f9-4c7036fd8bf6","system_id":"levelo_inurba_marseille","lat":43.25825,"lon":5.39436,"is_reserved":false,"is_disabled":false,"rental_uris":{"android":"levelo://app?vid=85a60522-0561-47e9-a0f9-4c7036fd8bf6","ios":"levelo://app?vid=85a60522-0561-47e9-a0f9-4c7036fd8bf6"},"vehicle_type_id":"4","last_reported":1747512603,"current_range_meters":12000,"station_id":"ce4bhip2rcd13ifvqft0","pricing_plan_id":"cebpf4jnsgd1na2vs0mg"},{"bike_id":"3980d76b-e904-45ba-9bbd-4ee10919b44c","system_id":"levelo_inurba_marseille","lat":43.3108,"lon":5.38198,"is_reserved":false,"is_disabled":false,"rental_uris":{"android":"levelo://app?vid=3980d76b-e904-45ba-9bbd-4ee10919b44c","ios":"levelo://app?vid=3980d76b-e904-45ba-9bbd-4ee10919b44c"},"vehicle_type_id":"4","last_reported":1747512603,"current_range_meters":12000,"station_id":"","pricing_plan_id":"cebpf4jnsgd1na2vs0mg"},{"bike_id":"4a86f4fc-3711-4a60-b7dd-21c6880091fe","system_id":"levelo_inurba_marseille","lat":43.27682,"lon":5.38877,"is_reserved":false,"is_disabled":false,"rental_uris":{"android":"levelo://app?vid=4a86f4fc-3711-4a60-b7dd-21c6880091fe","ios":"levelo://app?vid=4a86f4fc-3711-4a60-b7dd-21c6880091fe"},"vehicle_type_id":"4","last_reported":1747512603,"current_range_meters":12000,"station_id":"ce4bhi12rcd13ifvqfo0","pricing_plan_id":"cebpf4jnsgd1na2vs0mg"},{"bike_id":"a888fd11-b13f-476f-b36f-0dffbca33bc6","system_id":"levelo_inurba_marseille","lat":43.292536,"lon":5.376194,"is_reserved":false,"is_disabled":false,"rental_uris":{"android":"levelo://app?vid=a888fd11-b13f-476f-b36f-0dffbca33bc6","ios":"levelo://app?vid=a888fd11-b13f-476f-b36f-0dffbca33bc6"},"vehicle_type_id":"4","last_reported":1747512603,"current_range_meters":12000,"station_id":"ce4bgi12rcd13ifvqb80","pricing_plan_id":"cebpf4jnsgd1na2vs0mg"},{"bike_id":"14603e41-b2dd-4757-a53c-2e366aa4f983","system_id":"levelo_inurba_marseille","lat":43.26997,"lon":5.428205,"is_reserved":false,"is_disabled":false,"rental_uris":{"android":"levelo://app?vid=14603e41-b2dd-4757-a53c-2e366aa4f983","ios":"levelo://app?vid=14603e41-b2dd-4757-a53c-2e366aa4f983"},"vehicle_type_id":"4","last_reported":1747512603,"current_range_meters":12000,"station_id":"","pricing_plan_id":"cebpf4jnsgd1na2vs0mg"},{"bike_id":"0f42c805-92e1-4274-b532-29e3edd02304","system_id":"levelo_inurba_marseille","lat":43.2927,"lon":5.40118,"is_reserved":false,"is_disabled":false,"rental_uris":{"android":"levelo://app?vid=0f42c805-92e1-4274-b532-29e3edd02304","ios":"levelo://app?vid=0f42c805-92e1-4274-b532-29e3edd02304"},"vehicle_type_id":"4","last_reported":1747512603,"current_range_meters":12400,"station_id":"ce4bh312rcd13ifvqdk0","pricing_plan_id":"cebpf4jnsgd1na2vs0mg"},{"bike_id":"f1048496-1bad-4ee4-bd22-cfe9455b0496","system_id":"levelo_inurba_marseille","lat":43.29952,"lon":5.36521,"is_reserved":false,"is_disabled":false,"rental_uris":{"android":"levelo://app?vid=f1048496-1bad-4ee4-bd22-cfe9455b0496","ios":"levelo://app?vid=f1048496-1bad-4ee4-bd22-cfe9455b0496"},"vehicle_type_id":"4","last_reported":1747512603,"current_range_meters":12400,"station_id":"ce4bgm92rcd13ifvqbr0","pricing_plan_id":"cebpf4jnsgd1na2vs0mg"},{"bike_id":"3f2493b1-ebc1-44d1-8191-db748279be54","system_id":"levelo_inurba_marseille","lat":43.292695,"lon":5.384368,"is_reserved":false,"is_disabled":false,"rental_uris":{"android":"levelo://app?vid=3f2493b1-ebc1-44d1-8191-db748279be54","ios":"levelo://app?vid=3f2493b1-ebc1-44d1-8191-db748279be54"},"vehicle_type_id":"4","last_reported":1747512603,"current_range_meters":12400,"station_id":"ce4bh692rcd13ifvqea0","pricing_plan_id":"cebpf4jnsgd1na2vs0mg"},{"bike_id":"87cafd68-56e7-4293-b612-c7fbce7297bc","system_id":"levelo_inurba_marseille","lat":43.30434,"lon":5.38887,"is_reserved":false,"is_disabled":false,"rental_uris":{"android":"levelo://app?vid=87cafd68-56e7-4293-b612-c7fbce7297bc","ios":"levelo://app?vid=87cafd68-56e7-4293-b612-c7fbce7297bc"},"vehicle_type_id":"4","last_reported":1747512603,"current_range_meters":12400,"station_id":"ce4bgk12rcd13ifvqbi0","pricing_plan_id":"cebpf4jnsgd1na2vs0mg"},{"bike_id":"0c34b593-39af-4c0b-aef0-e25cd680f42b","system_id":"levelo_inurba_marseille","lat":43.232,"lon":5.39984,"is_reserved":false,"is_disabled":false,"rental_uris":{"android":"levelo://app?vid=0c34b593-39af-4c0b-aef0-e25cd680f42b","ios":"levelo://app?vid=0c34b593-39af-4c0b-aef0-e25cd680f42b"},"vehicle_type_id":"4","last_reported":1747512603,"current_range_meters":12800,"station_id":"ce4bhn12rcd13ifvqgqg","pricing_plan_id":"cebpf4jnsgd1na2vs0mg"},{"bike_id":"13742bd2-0818-475b-86f9-91d8f9461453","system_id":"levelo_inurba_marseille","lat":43.27495,"lon":5.42445,"is_reserved":false,"is_disabled":false,"rental_uris":{"android":"levelo://app?vid=13742bd2-0818-475b-86f9-91d8f9461453","ios":"levelo://app?vid=13742bd2-0818-475b-86f9-91d8f9461453"},"vehicle_type_id":"4","last_reported":1747512603,"current_range_meters":12400,"station_id":"ce4bhn92rcd13ifvqgrg","pricing_plan_id":"cebpf4jnsgd1na2vs0mg"},{"bike_id":"ab6bc2b4-c683-437b-afc1-d732c03f576f","system_id":"levelo_inurba_marseille","lat":43.29525,"lon":5.38542,"is_reserved":false,"is_disabled":false,"rental_uris":{"android":"levelo://app?vid=ab6bc2b4-c683-437b-afc1-d732c03f576f","ios":"levelo://app?vid=ab6bc2b4-c683-437b-afc1-d732c03f576f"},"vehicle_type_id":"4","last_reported":1747512603,"current_range_meters":12400,"station_id":"ce4bgih2rcd13ifvqba0","pricing_plan_id":"cebpf4jnsgd1na2vs0mg"},{"bike_id":"00b2f3a6-26ea-4214-8b2f-00b58aa539f1","system_id":"levelo_inurba_marseille","lat":43.25016,"lon":5.38924,"is_reserved":false,"is_disabled":false,"rental_uris":{"android":"levelo://app?vid=00b2f3a6-26ea-4214-8b2f-00b58aa539f1","ios":"levelo://app?vid=00b2f3a6-26ea-4214-8b2f-00b58aa539f1"},"vehicle_type_id":"4","last_reported":1747512603,"current_range_meters":12800,"station_id":"ce4bhgp2rcd13ifvqfd0","pricing_plan_id":"cebpf4jnsgd1na2vs0mg"},{"bike_id":"b4d4fac2-0ff4-4cb6-92c3-a64c99dfd185","system_id":"levelo_inurba_marseille","lat":43.29622,"lon":5.37728,"is_reserved":false,"is_disabled":false,"rental_uris":{"android":"levelo://app?vid=b4d4fac2-0ff4-4cb6-92c3-a64c99dfd185","ios":"levelo://app?vid=b4d4fac2-0ff4-4cb6-92c3-a64c99dfd185"},"vehicle_type_id":"4","last_reported":1747512603,"current_range_meters":13600,"station_id":"ce4bgi92rcd13ifvqb90","pricing_plan_id":"cebpf4jnsgd1na2vs0mg"},{"bike_id":"0ab5196b-5bd0-4318-9263-37c66cc0e917","system_id":"levelo_inurba_marseille","lat":43.30304,"lon":5.36897,"is_reserved":false,"is_disabled":false,"rental_uris":{"android":"levelo://app?vid=0ab5196b-5bd0-4318-9263-37c66cc0e917","ios":"levelo://app?vid=0ab5196b-5bd0-4318-9263-37c66cc0e917"},"vehicle_type_id":"4","last_reported":1747512603,"current_range_meters":13600,"station_id":"ce4bgqh2rcd13ifvqc5g","pricing_plan_id":"cebpf4jnsgd1na2vs0mg"},{"bike_id":"c6e9421a-fcb0-4b3e-9f1a-1fed1b35433a","system_id":"levelo_inurba_marseille","lat":43.2314,"lon":5.43713,"is_reserved":false,"is_disabled":false,"rental_uris":{"android":"levelo://app?vid=c6e9421a-fcb0-4b3e-9f1a-1fed1b35433a","ios":"levelo://app?vid=c6e9421a-fcb0-4b3e-9f1a-1fed1b35433a"},"vehicle_type_id":"4","last_reported":1747512603,"current_range_meters":13600,"station_id":"ce4bhmp2rcd13ifvqgog","pricing_plan_id":"cebpf4jnsgd1na2vs0mg"},{"bike_id":"c5ddb572-22d8-4ba5-8736-5dc6eed67101","system_id":"levelo_inurba_marseille","lat":43.30312,"lon":5.3689,"is_reserved":false,"is_disabled":false,"rental_uris":{"android":"levelo://app?vid=c5ddb572-22d8-4ba5-8736-5dc6eed67101","ios":"levelo://app?vid=c5ddb572-22d8-4ba5-8736-5dc6eed67101"},"vehicle_type_id":"4","last_reported":1747512603,"current_range_meters":13600,"station_id":"ce4bgqh2rcd13ifvqc5g","pricing_plan_id":"cebpf4jnsgd1na2vs0mg"},{"bike_id":"073b04fc-81d8-4d02-9068-9f3e68c33eb2","system_id":"levelo_inurba_marseille","lat":43.25822,"lon":5.39432,"is_reserved":false,"is_disabled":false,"rental_uris":{"android":"levelo://app?vid=073b04fc-81d8-4d02-9068-9f3e68c33eb2","ios":"levelo://app?vid=073b04fc-81d8-4d02-9068-9f3e68c33eb2"},"vehicle_type_id":"4","last_reported":1747512603,"current_range_meters":13600,"station_id":"ce4bhip2rcd13ifvqft0","pricing_plan_id":"cebpf4jnsgd1na2vs0mg"},{"bike_id":"6187fec3-9b42-4265-b4fe-aa9fb1373e1e","system_id":"levelo_inurba_marseille","lat":43.2691,"lon":5.40273,"is_reserved":false,"is_disabled":false,"rental_uris":{"android":"levelo://app?vid=6187fec3-9b42-4265-b4fe-aa9fb1373e1e","ios":"levelo://app?vid=6187fec3-9b42-4265-b4fe-aa9fb1373e1e"},"vehicle_type_id":"4","last_reported":1747512603,"current_range_meters":13600,"station_id":"cjm6bp8fraef2m0cb0m0","pricing_plan_id":"cebpf4jnsgd1na2vs0mg"},{"bike_id":"8ec5b191-2995-4ff1-9eba-c6dab6c95aa6","system_id":"levelo_inurba_marseille","lat":43.27332,"lon":5.39083,"is_reserved":false,"is_disabled":false,"rental_uris":{"android":"levelo://app?vid=8ec5b191-2995-4ff1-9eba-c6dab6c95aa6","ios":"levelo://app?vid=8ec5b191-2995-4ff1-9eba-c6dab6c95aa6"},"vehicle_type_id":"4","last_reported":1747512603,"current_range_meters":13600,"station_id":"ce4bhgp2rcd13ifvqfe0","pricing_plan_id":"cebpf4jnsgd1na2vs0mg"},{"bike_id":"4bea67bc-698d-44f2-bc3d-1d985e14434c","system_id":"levelo_inurba_marseille","lat":43.29023,"lon":5.38644,"is_reserved":false,"is_disabled":false,"rental_uris":{"android":"levelo://app?vid=4bea67bc-698d-44f2-bc3d-1d985e14434c","ios":"levelo://app?vid=4bea67bc-698d-44f2-bc3d-1d985e14434c"},"vehicle_type_id":"4","last_reported":1747512603,"current_range_meters":14000,"station_id":"ce4bh4p2rcd13ifvqe0g","pricing_plan_id":"cebpf4jnsgd1na2vs0mg"},{"bike_id":"c90dd575-5445-4bc6-a14b-63ac755e403d","system_id":"levelo_inurba_marseille","lat":43.29935,"lon":5.36547,"is_reserved":false,"is_disabled":false,"rental_uris":{"android":"levelo://app?vid=c90dd575-5445-4bc6-a14b-63ac755e403d","ios":"levelo://app?vid=c90dd575-5445-4bc6-a14b-63ac755e403d"},"vehicle_type_id":"4","last_reported":1747512603,"current_range_meters":14000,"station_id":"ce4bgm92rcd13ifvqbr0","pricing_plan_id":"cebpf4jnsgd1na2vs0mg"},{"bike_id":"88c266e6-7038-494f-b358-90ca603fb435","system_id":"levelo_inurba_marseille","lat":43.29573,"lon":5.375133,"is_reserved":false,"is_disabled":true,"rental_uris":{"android":"levelo://app?vid=88c266e6-7038-494f-b358-90ca603fb435","ios":"levelo://app?vid=88c266e6-7038-494f-b358-90ca603fb435"},"vehicle_type_id":"4","last_reported":1747512603,"current_range_meters":14000,"station_id":"ce4bgh92rcd13ifvqb50","pricing_plan_id":"cebpf4jnsgd1na2vs0mg"},{"bike_id":"64112e14-f93f-4a9c-8e75-f0b86fe02be3","system_id":"levelo_inurba_marseille","lat":43.29851,"lon":5.36281,"is_reserved":false,"is_disabled":false,"rental_uris":{"android":"levelo://app?vid=64112e14-f93f-4a9c-8e75-f0b86fe02be3","ios":"levelo://app?vid=64112e14-f93f-4a9c-8e75-f0b86fe02be3"},"vehicle_type_id":"4","last_reported":1747512603,"current_range_meters":14000,"station_id":"ce4bgpp2rcd13ifvqc3g","pricing_plan_id":"cebpf4jnsgd1na2vs0mg"},{"bike_id":"38ac1b70-1926-4f48-a67c-01a4b9a54082","system_id":"levelo_inurba_marseille","lat":43.27998,"lon":5.40014,"is_reserved":false,"is_disabled":false,"rental_uris":{"android":"levelo://app?vid=38ac1b70-1926-4f48-a67c-01a4b9a54082","ios":"levelo://app?vid=38ac1b70-1926-4f48-a67c-01a4b9a54082"},"vehicle_type_id":"4","last_reported":1747512603,"current_range_meters":13600,"station_id":"ce4bho92rcd13ifvqh4g","pricing_plan_id":"cebpf4jnsgd1na2vs0mg"},{"bike_id":"68552e02-e8c8-4064-9632-7772370886f0","system_id":"levelo_inurba_marseille","lat":43.3167,"lon":5.3735,"is_reserved":false,"is_disabled":false,"rental_uris":{"android":"levelo://app?vid=68552e02-e8c8-4064-9632-7772370886f0","ios":"levelo://app?vid=68552e02-e8c8-4064-9632-7772370886f0"},"vehicle_type_id":"4","last_reported":1747512603,"current_range_meters":14000,"station_id":"","pricing_plan_id":"cebpf4jnsgd1na2vs0mg"},{"bike_id":"5940c72c-8389-42f0-b8ea-d3e128a6155b","system_id":"levelo_inurba_marseille","lat":43.29538,"lon":5.38542,"is_reserved":false,"is_disabled":false,"rental_uris":{"android":"levelo://app?vid=5940c72c-8389-42f0-b8ea-d3e128a6155b","ios":"levelo://app?vid=5940c72c-8389-42f0-b8ea-d3e128a6155b"},"vehicle_type_id":"4","last_reported":1747512603,"current_range_meters":14000,"station_id":"ce4bgih2rcd13ifvqba0","pricing_plan_id":"cebpf4jnsgd1na2vs0mg"},{"bike_id":"f84ef90e-0049-423e-93df-e77ebe947159","system_id":"levelo_inurba_marseille","lat":43.24074,"lon":5.37753,"is_reserved":false,"is_disabled":false,"rental_uris":{"android":"levelo://app?vid=f84ef90e-0049-423e-93df-e77ebe947159","ios":"levelo://app?vid=f84ef90e-0049-423e-93df-e77ebe947159"},"vehicle_type_id":"4","last_reported":1747512603,"current_range_meters":13600,"station_id":"ce4bhnp2rcd13ifvqgvg","pricing_plan_id":"cebpf4jnsgd1na2vs0mg"},{"bike_id":"877860b3-023e-4b4b-9e76-362fa8f62c6c","system_id":"levelo_inurba_marseille","lat":43.29712,"lon":5.37274,"is_reserved":false,"is_disabled":false,"rental_uris":{"android":"levelo://app?vid=877860b3-023e-4b4b-9e76-362fa8f62c6c","ios":"levelo://app?vid=877860b3-023e-4b4b-9e76-362fa8f62c6c"},"vehicle_type_id":"4","last_reported":1747512603,"current_range_meters":14000,"station_id":"ce4bgk12rcd13ifvqbj0","pricing_plan_id":"cebpf4jnsgd1na2vs0mg"},{"bike_id":"8d3ba799-4866-4e13-8f0a-753a801550a2","system_id":"levelo_inurba_marseille","lat":43.27338,"lon":5.39061,"is_reserved":false,"is_disabled":false,"rental_uris":{"android":"levelo://app?vid=8d3ba799-4866-4e13-8f0a-753a801550a2","ios":"levelo://app?vid=8d3ba799-4866-4e13-8f0a-753a801550a2"},"vehicle_type_id":"4","last_reported":1747512603,"current_range_meters":14000,"station_id":"ce4bhgp2rcd13ifvqfe0","pricing_plan_id":"cebpf4jnsgd1na2vs0mg"},{"bike_id":"129d818a-ec0c-4ebe-bbec-64e6e9ab53b3","system_id":"levelo_inurba_marseille","lat":43.25106,"lon":5.40327,"is_reserved":false,"is_disabled":false,"rental_uris":{"android":"levelo://app?vid=129d818a-ec0c-4ebe-bbec-64e6e9ab53b3","ios":"levelo://app?vid=129d818a-ec0c-4ebe-bbec-64e6e9ab53b3"},"vehicle_type_id":"4","last_reported":1747512603,"current_range_meters":14000,"station_id":"ce4bhlh2rcd13ifvqgig","pricing_plan_id":"cebpf4jnsgd1na2vs0mg"},{"bike_id":"f1881f4f-ab7f-4b0b-8ca0-8a2a9d7462d7","system_id":"levelo_inurba_marseille","lat":43.299403,"lon":5.365313,"is_reserved":false,"is_disabled":false,"rental_uris":{"android":"levelo://app?vid=f1881f4f-ab7f-4b0b-8ca0-8a2a9d7462d7","ios":"levelo://app?vid=f1881f4f-ab7f-4b0b-8ca0-8a2a9d7462d7"},"vehicle_type_id":"4","last_reported":1747512603,"current_range_meters":14400,"station_id":"ce4bgm92rcd13ifvqbr0","pricing_plan_id":"cebpf4jnsgd1na2vs0mg"},{"bike_id":"45ca91d3-9e28-478f-bd04-b689089cc037","system_id":"levelo_inurba_marseille","lat":43.28943,"lon":5.36639,"is_reserved":false,"is_disabled":false,"rental_uris":{"android":"levelo://app?vid=45ca91d3-9e28-478f-bd04-b689089cc037","ios":"levelo://app?vid=45ca91d3-9e28-478f-bd04-b689089cc037"},"vehicle_type_id":"4","last_reported":1747512603,"current_range_meters":14800,"station_id":"ce4bhap2rcd13ifvqek0","pricing_plan_id":"cebpf4jnsgd1na2vs0mg"},{"bike_id":"92969d67-6f26-4b37-a64e-a5555d03db3c","system_id":"levelo_inurba_marseille","lat":43.23966,"lon":5.36634,"is_reserved":false,"is_disabled":false,"rental_uris":{"android":"levelo://app?vid=92969d67-6f26-4b37-a64e-a5555d03db3c","ios":"levelo://app?vid=92969d67-6f26-4b37-a64e-a5555d03db3c"},"vehicle_type_id":"4","last_reported":1747512603,"current_range_meters":14800,"station_id":"ce4bhi12rcd13ifvqfp0","pricing_plan_id":"cebpf4jnsgd1na2vs0mg"},{"bike_id":"9e1a5fd5-2836-4dd0-918f-7584c78cf495","system_id":"levelo_inurba_marseille","lat":43.29843,"lon":5.36268,"is_reserved":false,"is_disabled":false,"rental_uris":{"android":"levelo://app?vid=9e1a5fd5-2836-4dd0-918f-7584c78cf495","ios":"levelo://app?vid=9e1a5fd5-2836-4dd0-918f-7584c78cf495"},"vehicle_type_id":"4","last_reported":1747512603,"current_range_meters":14800,"station_id":"ce4bgpp2rcd13ifvqc3g","pricing_plan_id":"cebpf4jnsgd1na2vs0mg"},{"bike_id":"0fff26c1-ee5a-45bd-8576-8f20831a7bcd","system_id":"levelo_inurba_marseille","lat":43.2998,"lon":5.38488,"is_reserved":false,"is_disabled":true,"rental_uris":{"android":"levelo://app?vid=0fff26c1-ee5a-45bd-8576-8f20831a7bcd","ios":"levelo://app?vid=0fff26c1-ee5a-45bd-8576-8f20831a7bcd"},"vehicle_type_id":"4","last_reported":1747512603,"current_range_meters":14800,"station_id":"ce4bgj92rcd13ifvqbd0","pricing_plan_id":"cebpf4jnsgd1na2vs0mg"},{"bike_id":"e00a00f0-0adb-467e-80eb-b4195bbd96b5","system_id":"levelo_inurba_marseille","lat":43.26942,"lon":5.40255,"is_reserved":false,"is_disabled":false,"rental_uris":{"android":"levelo://app?vid=e00a00f0-0adb-467e-80eb-b4195bbd96b5","ios":"levelo://app?vid=e00a00f0-0adb-467e-80eb-b4195bbd96b5"},"vehicle_type_id":"4","last_reported":1747512603,"current_range_meters":14800,"station_id":"cjm6bp8fraef2m0cb0m0","pricing_plan_id":"cebpf4jnsgd1na2vs0mg"},{"bike_id":"e45b1212-a030-40ad-9fdb-184ef036bb41","system_id":"levelo_inurba_marseille","lat":43.24071,"lon":5.37761,"is_reserved":false,"is_disabled":false,"rental_uris":{"android":"levelo://app?vid=e45b1212-a030-40ad-9fdb-184ef036bb41","ios":"levelo://app?vid=e45b1212-a030-40ad-9fdb-184ef036bb41"},"vehicle_type_id":"4","last_reported":1747512603,"current_range_meters":14800,"station_id":"ce4bhnp2rcd13ifvqgvg","pricing_plan_id":"cebpf4jnsgd1na2vs0mg"},{"bike_id":"c95d40f9-cb40-4d98-98e0-cb85ac91c255","system_id":"levelo_inurba_marseille","lat":43.28984,"lon":5.37843,"is_reserved":false,"is_disabled":false,"rental_uris":{"android":"levelo://app?vid=c95d40f9-cb40-4d98-98e0-cb85ac91c255","ios":"levelo://app?vid=c95d40f9-cb40-4d98-98e0-cb85ac91c255"},"vehicle_type_id":"4","last_reported":1747512603,"current_range_meters":14800,"station_id":"ce4bh9p2rcd13ifvqed0","pricing_plan_id":"cebpf4jnsgd1na2vs0mg"},{"bike_id":"44f77f7d-0343-4e01-893d-9aaca3f8e907","system_id":"levelo_inurba_marseille","lat":43.30313,"lon":5.36893,"is_reserved":false,"is_disabled":false,"rental_uris":{"android":"levelo://app?vid=44f77f7d-0343-4e01-893d-9aaca3f8e907","ios":"levelo://app?vid=44f77f7d-0343-4e01-893d-9aaca3f8e907"},"vehicle_type_id":"4","last_reported":1747512603,"current_range_meters":15200,"station_id":"ce4bgqh2rcd13ifvqc5g","pricing_plan_id":"cebpf4jnsgd1na2vs0mg"},{"bike_id":"a2c4ecce-9ebf-4962-82fa-f8ec6833e002","system_id":"levelo_inurba_marseille","lat":43.30536,"lon":5.36534,"is_reserved":false,"is_disabled":false,"rental_uris":{"android":"levelo://app?vid=a2c4ecce-9ebf-4962-82fa-f8ec6833e002","ios":"levelo://app?vid=a2c4ecce-9ebf-4962-82fa-f8ec6833e002"},"vehicle_type_id":"4","last_reported":1747512603,"current_range_meters":15200,"station_id":"ce4bgs12rcd13ifvqcag","pricing_plan_id":"cebpf4jnsgd1na2vs0mg"},{"bike_id":"6ee7001e-07ad-49d2-9902-4e2095457f59","system_id":"levelo_inurba_marseille","lat":43.270714,"lon":5.422824,"is_reserved":false,"is_disabled":true,"rental_uris":{"android":"levelo://app?vid=6ee7001e-07ad-49d2-9902-4e2095457f59","ios":"levelo://app?vid=6ee7001e-07ad-49d2-9902-4e2095457f59"},"vehicle_type_id":"4","last_reported":1747512603,"current_range_meters":16000,"station_id":"ce4bhk92rcd13ifvqgb0","pricing_plan_id":"cebpf4jnsgd1na2vs0mg"},{"bike_id":"4bd4a753-7fec-4cac-a403-25836854f27a","system_id":"levelo_inurba_marseille","lat":43.30884,"lon":5.39638,"is_reserved":false,"is_disabled":false,"rental_uris":{"android":"levelo://app?vid=4bd4a753-7fec-4cac-a403-25836854f27a","ios":"levelo://app?vid=4bd4a753-7fec-4cac-a403-25836854f27a"},"vehicle_type_id":"4","last_reported":1747512603,"current_range_meters":15200,"station_id":"ce4bh012rcd13ifvqcv0","pricing_plan_id":"cebpf4jnsgd1na2vs0mg"},{"bike_id":"b26a0dd7-cbdc-4ab7-8def-31c4b88b224a","system_id":"levelo_inurba_marseille","lat":43.31222,"lon":5.39259,"is_reserved":false,"is_disabled":false,"rental_uris":{"android":"levelo://app?vid=b26a0dd7-cbdc-4ab7-8def-31c4b88b224a","ios":"levelo://app?vid=b26a0dd7-cbdc-4ab7-8def-31c4b88b224a"},"vehicle_type_id":"4","last_reported":1747512603,"current_range_meters":16400,"station_id":"","pricing_plan_id":"cebpf4jnsgd1na2vs0mg"},{"bike_id":"c0db0ba8-0167-4047-b035-19d355266167","system_id":"levelo_inurba_marseille","lat":43.27299,"lon":5.39078,"is_reserved":false,"is_disabled":false,"rental_uris":{"android":"levelo://app?vid=c0db0ba8-0167-4047-b035-19d355266167","ios":"levelo://app?vid=c0db0ba8-0167-4047-b035-19d355266167"},"vehicle_type_id":"4","last_reported":1747512603,"current_range_meters":16000,"station_id":"ce4bhgp2rcd13ifvqfe0","pricing_plan_id":"cebpf4jnsgd1na2vs0mg"},{"bike_id":"b70526ec-43a3-4b67-9608-c5e3c822eab0","system_id":"levelo_inurba_marseille","lat":43.29424,"lon":5.3861,"is_reserved":false,"is_disabled":false,"rental_uris":{"android":"levelo://app?vid=b70526ec-43a3-4b67-9608-c5e3c822eab0","ios":"levelo://app?vid=b70526ec-43a3-4b67-9608-c5e3c822eab0"},"vehicle_type_id":"4","last_reported":1747512603,"current_range_meters":16000,"station_id":"ce4bh2h2rcd13ifvqdh0","pricing_plan_id":"cebpf4jnsgd1na2vs0mg"},{"bike_id":"ae50c592-70cb-4b69-8fe2-f34378194df6","system_id":"levelo_inurba_marseille","lat":43.30223,"lon":5.36597,"is_reserved":false,"is_disabled":false,"rental_uris":{"android":"levelo://app?vid=ae50c592-70cb-4b69-8fe2-f34378194df6","ios":"levelo://app?vid=ae50c592-70cb-4b69-8fe2-f34378194df6"},"vehicle_type_id":"4","last_reported":1747512603,"current_range_meters":16000,"station_id":"ce4bgrh2rcd13ifvqc8g","pricing_plan_id":"cebpf4jnsgd1na2vs0mg"},{"bike_id":"d55f9225-e6ff-4e45-92e4-2cc2ba495a7c","system_id":"levelo_inurba_marseille","lat":43.308788,"lon":5.382682,"is_reserved":false,"is_disabled":false,"rental_uris":{"android":"levelo://app?vid=d55f9225-e6ff-4e45-92e4-2cc2ba495a7c","ios":"levelo://app?vid=d55f9225-e6ff-4e45-92e4-2cc2ba495a7c"},"vehicle_type_id":"4","last_reported":1747512603,"current_range_meters":16000,"station_id":"","pricing_plan_id":"cebpf4jnsgd1na2vs0mg"},{"bike_id":"91b53cca-5dd8-44fc-8138-27e322510e5b","system_id":"levelo_inurba_marseille","lat":43.2986,"lon":5.36266,"is_reserved":false,"is_disabled":false,"rental_uris":{"android":"levelo://app?vid=91b53cca-5dd8-44fc-8138-27e322510e5b","ios":"levelo://app?vid=91b53cca-5dd8-44fc-8138-27e322510e5b"},"vehicle_type_id":"4","last_reported":1747512603,"current_range_meters":16000,"station_id":"ce4bgpp2rcd13ifvqc3g","pricing_plan_id":"cebpf4jnsgd1na2vs0mg"},{"bike_id":"06fb6274-c887-4ce8-9273-400ecb3aef67","system_id":"levelo_inurba_marseille","lat":43.28346,"lon":5.46021,"is_reserved":false,"is_disabled":false,"rental_uris":{"android":"levelo://app?vid=06fb6274-c887-4ce8-9273-400ecb3aef67","ios":"levelo://app?vid=06fb6274-c887-4ce8-9273-400ecb3aef67"},"vehicle_type_id":"4","last_reported":1747512603,"current_range_meters":16000,"station_id":"","pricing_plan_id":"cebpf4jnsgd1na2vs0mg"},{"bike_id":"a96c8754-34a3-48c5-9526-f6d1b9a50eb1","system_id":"levelo_inurba_marseille","lat":43.26939,"lon":5.40242,"is_reserved":false,"is_disabled":false,"rental_uris":{"android":"levelo://app?vid=a96c8754-34a3-48c5-9526-f6d1b9a50eb1","ios":"levelo://app?vid=a96c8754-34a3-48c5-9526-f6d1b9a50eb1"},"vehicle_type_id":"4","last_reported":1747512603,"current_range_meters":16000,"station_id":"cjm6bp8fraef2m0cb0m0","pricing_plan_id":"cebpf4jnsgd1na2vs0mg"},{"bike_id":"262696da-3bec-4444-b337-902deb595256","system_id":"levelo_inurba_marseille","lat":43.29534,"lon":5.38547,"is_reserved":false,"is_disabled":false,"rental_uris":{"android":"levelo://app?vid=262696da-3bec-4444-b337-902deb595256","ios":"levelo://app?vid=262696da-3bec-4444-b337-902deb595256"},"vehicle_type_id":"4","last_reported":1747512603,"current_range_meters":15200,"station_id":"ce4bgih2rcd13ifvqba0","pricing_plan_id":"cebpf4jnsgd1na2vs0mg"},{"bike_id":"0ac7b27e-d057-4936-b4a0-b16f8cf39698","system_id":"levelo_inurba_marseille","lat":43.2757,"lon":5.38432,"is_reserved":false,"is_disabled":false,"rental_uris":{"android":"levelo://app?vid=0ac7b27e-d057-4936-b4a0-b16f8cf39698","ios":"levelo://app?vid=0ac7b27e-d057-4936-b4a0-b16f8cf39698"},"vehicle_type_id":"4","last_reported":1747512603,"current_range_meters":16000,"station_id":"ce4bhh92rcd13ifvqfi0","pricing_plan_id":"cebpf4jnsgd1na2vs0mg"},{"bike_id":"cec13856-d26b-4a5f-8fe6-7eda022cd6fd","system_id":"levelo_inurba_marseille","lat":43.294155,"lon":5.386193,"is_reserved":false,"is_disabled":false,"rental_uris":{"android":"levelo://app?vid=cec13856-d26b-4a5f-8fe6-7eda022cd6fd","ios":"levelo://app?vid=cec13856-d26b-4a5f-8fe6-7eda022cd6fd"},"vehicle_type_id":"4","last_reported":1747512603,"current_range_meters":16400,"station_id":"ce4bh2h2rcd13ifvqdh0","pricing_plan_id":"cebpf4jnsgd1na2vs0mg"},