{"last_updated":1729156190,"ttl":60,"version":"2.2","data":{"bikes":[{"bike_id":"ca9b36f4-b4f8-462e-9ed9-17e10932734a","system_id":"levelo_inurba_marseille","lat":43.249969,"lon":5.389247,"is_reserved":false,"is_disabled":false,"rental_uris":{"android":"levelo://app?vid=ca9b36f4-b4f8-462e-9ed9-17e10932734a","ios":"levelo://app?vid=ca9b36f4-b4f8-462e-9ed9-17e10932734a"},"vehicle_type_id":"4","last_reported":1729156191,"current_range_meters":38400,"station_id":"ce4bhgp2rcd13ifvqfd0","pricing_plan_id":"cebpf4jnsgd1na2vs0mg"},{"bike_id":"38af802b-0dd3-4001-8bdf-786db676d355","system_id":"levelo_inurba_marseille","lat":43.30548,"lon":5.37492,"is_reserved":false,"is_disabled":false,"rental_uris":{"android":"levelo://app?vid=38af802b-0dd3-4001-8bdf-786db676d355","ios":"levelo://app?vid=38af802b-0dd3-4001-8bdf-786db676d355"},"vehicle_type_id":"4","last_reported":1729156191,"current_range_meters":30800,"station_id":"","pricing_plan_id":"cebpf4jnsgd1na2vs0mg"},{"bike_id":"3d3d02f6-57ad-40f5-bfce-b7476064d29e","system_id":"levelo_inurba_marseille","lat":43.2695,"lon":5.38633,"is_reserved":false,"is_disabled":false,"rental_uris":{"android":"levelo://app?vid=3d3d02f6-57ad-40f5-bfce-b7476064d29e","ios":"levelo://app?vid=3d3d02f6-57ad-40f5-bfce-b7476064d29e"},"vehicle_type_id":"4","last_reported":1729156191,"current_range_meters":9600,"station_id":"ce4bhh92rcd13ifvqfh0","pricing_plan_id":"cebpf4jnsgd1na2vs0mg"},{"bike_id":"676ec6c4-6b42-43e0-81fe-327782965da5","system_id":"levelo_inurba_marseille","lat":43.337444,"lon":5.374475,"is_reserved":false,"is_disabled":false,"rental_uris":{"android":"levelo://app?vid=676ec6c4-6b42-43e0-81fe-327782965da5","ios":"levelo://app?vid=676ec6c4-6b42-43e0-81fe-327782965da5"},"vehicle_type_id":"4","last_reported":1729156191,"current_range_meters":17200,"station_id":"","pricing_plan_id":"cebpf4jnsgd1na2vs0mg"},{"bike_id":"6b5cda88-1627-4aff-9f71-ae4a2467498b","system_id":"levelo_inurba_marseille","lat":43.29597,"lon":5.38105,"is_reserved":false,"is_disabled":false,"rental_uris":{"android":"levelo://app?vid=6b5cda88-1627-4aff-9f71-ae4a2467498b","ios":"levelo://app?vid=6b5cda88-1627-4aff-9f71-ae4a2467498b"},"vehicle_type_id":"4","last_reported":1729156191,"current_range_meters":9600,"station_id":"ce4bgl12rcd13ifvqbo0","pricing_plan_id":"cebpf4jnsgd1na2vs0mg"},{"bike_id":"a19640af-aecf-4f72-955f-13a1c7219c2d","system_id":"levelo_inurba_marseille","lat":43.288847,"lon":5.359624,"is_reserved":false,"is_disabled":false,"rental_uris":{"android":"levelo://app?vid=a19640af-aecf-4f72-955f-13a1c7219c2d","ios":"levelo://app?vid=a19640af-aecf-4f72-955f-13a1c7219c2d"},"vehicle_type_id":"4","last_reported":1729156191,"current_range_meters":29600,"station_id":"ce4bhb12rcd13ifvqem0","pricing_plan_id":"cebpf4jnsgd1na2vs0mg"},{"bike_id":"319bcf6e-3cdb-4d52-bfd1-b41d9210f02d","system_id":"levelo_inurba_marseille","lat":43.29283,"lon":5.4092,"is_reserved":false,"is_disabled":false,"rental_uris":{"android":"levelo://app?vid=319bcf6e-3cdb-4d52-bfd1-b41d9210f02d","ios":"levelo://app?vid=319bcf6e-3cdb-4d52-bfd1-b41d9210f02d"},"vehicle_type_id":"4","last_reported":1729156191,"current_range_meters":4000,"station_id":"ce4bh192rcd13ifvqdc0","pricing_plan_id":"cebpf4jnsgd1na2vs0mg"},{"bike_id":"9b646509-f5e0-4559-a689-24daba58a3f8","system_id":"levelo_inurba_marseille","lat":43.29414,"lon":5.38638,"is_reserved":false,"is_disabled":false,"rental_uris":{"android":"levelo://app?vid=9b646509-f5e0-4559-a689-24daba58a3f8","ios":"levelo://app?vid=9b646509-f5e0-4559-a689-24daba58a3f8"},"vehicle_type_id":"4","last_reported":1729156191,"current_range_meters":34000,"station_id":"ce4bh2h2rcd13ifvqdh0","pricing_plan_id":"cebpf4jnsgd1na2vs0mg"},{"bike_id":"981fdf75-d652-46e1-83af-5dfff9577aba","system_id":"levelo_inurba_marseille","lat":43.34141,"lon":5.40911,"is_reserved":false,"is_disabled":false,"rental_uris":{"android":"levelo://app?vid=981fdf75-d652-46e1-83af-5dfff9577aba","ios":"levelo://app?vid=981fdf75-d652-46e1-83af-5dfff9577aba"},"vehicle_type_id":"4","last_reported":1729156191,"current_range_meters":33200,"station_id":"ce4bhqh2rcd13ifvqhlg","pricing_plan_id":"cebpf4jnsgd1na2vs0mg"},{"bike_id":"f3147d8e-92df-4fc8-ae6d-c9849284365c","system_id":"levelo_inurba_marseille","lat":43.31336,"lon":5.36725,"is_reserved":false,"is_disabled":false,"rental_uris":{"android":"levelo://app?vid=f3147d8e-92df-4fc8-ae6d-c9849284365c","ios":"levelo://app?vid=f3147d8e-92df-4fc8-ae6d-c9849284365c"},"vehicle_type_id":"4","last_reported":1729156191,"current_range_meters":16400,"station_id":"ce4bgr92rcd13ifvqc6g","pricing_plan_id":"cebpf4jnsgd1na2vs0mg"},{"bike_id":"d1ec7458-cbdf-411a-82ea-473f4dc1791a","system_id":"levelo_inurba_marseille","lat":43.275,"lon":5.42453,"is_reserved":false,"is_disabled":false,"rental_uris":{"android":"levelo://app?vid=d1ec7458-cbdf-411a-82ea-473f4dc1791a","ios":"levelo://app?vid=d1ec7458-cbdf-411a-82ea-473f4dc1791a"},"vehicle_type_id":"4","last_reported":1729156191,"current_range_meters":16800,"station_id":"ce4bhn92rcd13ifvqgrg","pricing_plan_id":"cebpf4jnsgd1na2vs0mg"},{"bike_id":"9d3bde82-5023-43d8-a7fa-acc7e09dc6df","system_id":"levelo_inurba_marseille","lat":43.30313,"lon":5.36903,"is_reserved":false,"is_disabled":false,"rental_uris":{"android":"levelo://app?vid=9d3bde82-5023-43d8-a7fa-acc7e09dc6df","ios":"levelo://app?vid=9d3bde82-5023-43d8-a7fa-acc7e09dc6df"},"vehicle_type_id":"4","last_reported":1729156191,"current_range_meters":15200,"station_id":"ce4bgqh2rcd13ifvqc5g","pricing_plan_id":"cebpf4jnsgd1na2vs0mg"},{"bike_id":"91465fcb-56c4-402d-86e0-a549eae86045","system_id":"levelo_inurba_marseille","lat":43.27175,"lon":5.40994,"is_reserved":false,"is_disabled":false,"rental_uris":{"android":"levelo://app?vid=91465fcb-56c4-402d-86e0-a549eae86045","ios":"levelo://app?vid=91465fcb-56c4-402d-86e0-a549eae86045"},"vehicle_type_id":"4","last_reported":1729156191,"current_range_meters":31200,"station_id":"ce4bhl12rcd13ifvqgf0","pricing_plan_id":"cebpf4jnsgd1na2vs0mg"},{"bike_id":"ded16217-14fc-4433-85bb-b0af7c42d076","system_id":"levelo_inurba_marseille","lat":43.32103,"lon":5.36769,"is_reserved":false,"is_disabled":false,"rental_uris":{"android":"levelo://app?vid=ded16217-14fc-4433-85bb-b0af7c42d076","ios":"levelo://app?vid=ded16217-14fc-4433-85bb-b0af7c42d076"},"vehicle_type_id":"4","last_reported":1729156191,"current_range_meters":10000,"station_id":"ce4bhrh2rcd13ifvqhug","pricing_plan_id":"cebpf4jnsgd1na2vs0mg"},{"bike_id":"6c995c01-99ec-4751-bede-57221f76b655","system_id":"levelo_inurba_marseille","lat":43.297516,"lon":5.380786,"is_reserved":false,"is_disabled":false,"rental_uris":{"android":"levelo://app?vid=6c995c01-99ec-4751-bede-57221f76b655","ios":"levelo://app?vid=6c995c01-99ec-4751-bede-57221f76b655"},"vehicle_type_id":"4","last_reported":1729156191,"current_range_meters":19600,"station_id":"ce4bgi92rcd13ifvqb90","pricing_plan_id":"cebpf4jnsgd1na2vs0mg"},{"bike_id":"4ae2c184-8c50-452d-87fb-8f7bf4f540f3","system_id":"levelo_inurba_marseille","lat":43.24653,"lon":5.38895,"is_reserved":false,"is_disabled":false,"rental_uris":{"android":"levelo://app?vid=4ae2c184-8c50-452d-87fb-8f7bf4f540f3","ios":"levelo://app?vid=4ae2c184-8c50-452d-87fb-8f7bf4f540f3"},"vehicle_type_id":"4","last_reported":1729156191,"current_range_meters":28800,"station_id":"ce4bhg12rcd13ifvqf60","pricing_plan_id":"cebpf4jnsgd1na2vs0mg"},{"bike_id":"6886648b-f8bb-4bcf-84ec-7aee4f26a8e2","system_id":"levelo_inurba_marseille","lat":43.27486,"lon":5.42458,"is_reserved":false,"is_disabled":false,"rental_uris":{"android":"levelo://app?vid=6886648b-f8bb-4bcf-84ec-7aee4f26a8e2","ios":"levelo://app?vid=6886648b-f8bb-4bcf-84ec-7aee4f26a8e2"},"vehicle_type_id":"4","last_reported":1729156191,"current_range_meters":36400,"station_id":"ce4bhn92rcd13ifvqgrg","pricing_plan_id":"cebpf4jnsgd1na2vs0mg"},{"bike_id":"56da5a5d-e301-4452-8c07-d6a5a0f92928","system_id":"levelo_inurba_marseille","lat":43.30537,"lon":5.36714,"is_reserved":false,"is_disabled":false,"rental_uris":{"android":"levelo://app?vid=56da5a5d-e301-4452-8c07-d6a5a0f92928","ios":"levelo://app?vid=56da5a5d-e301-4452-8c07-d6a5a0f92928"},"vehicle_type_id":"4","last_reported":1729156191,"current_range_meters":9200,"station_id":"ce4bgrp2rcd13ifvqc9g","pricing_plan_id":"cebpf4jnsgd1na2vs0mg"},{"bike_id":"d5be6b8b-d4c0-4423-96a8-3fa59e23e89b","system_id":"levelo_inurba_marseille","lat":43.30537,"lon":5.38432,"is_reserved":false,"is_disabled":false,"rental_uris":{"android":"levelo://app?vid=d5be6b8b-d4c0-4423-96a8-3fa59e23e89b","ios":"levelo://app?vid=d5be6b8b-d4c0-4423-96a8-3fa59e23e89b"},"vehicle_type_id":"4","last_reported":1729156191,"current_range_meters":31200,"station_id":"ce4bgg92rcd13ifvqb30","pricing_plan_id":"cebpf4jnsgd1na2vs0mg"},{"bike_id":"7687e8de-322c-49f2-b92a-7f13ac6fc169","system_id":"levelo_inurba_marseille","lat":43.29584,"lon":5.37509,"is_reserved":false,"is_disabled":false,"rental_uris":{"android":"levelo://app?vid=7687e8de-322c-49f2-b92a-7f13ac6fc169","ios":"levelo://app?vid=7687e8de-322c-49f2-b92a-7f13ac6fc169"},"vehicle_type_id":"4","last_reported":1729156191,"current_range_meters":10000,"station_id":"ce4bgh92rcd13ifvqb50","pricing_plan_id":"cebpf4jnsgd1na2vs0mg"},{"bike_id":"052b3563-392a-4857-8174-027696f961ab","system_id":"levelo_inurba_marseille","lat":43.24649,"lon":5.38898,"is_reserved":false,"is_disabled":false,"rental_uris":{"android":"levelo://app?vid=052b3563-392a-4857-8174-027696f961ab","ios":"levelo://app?vid=052b3563-392a-4857-8174-027696f961ab"},"vehicle_type_id":"4","last_reported":1729156191,"current_range_meters":24400,"station_id":"ce4bhg12rcd13ifvqf60","pricing_plan_id":"cebpf4jnsgd1na2vs0mg"},{"bike_id":"7088a2f7-553c-47a2-a80a-ed0ece411348","system_id":"levelo_inurba_marseille","lat":43.27183,"lon":5.40991,"is_reserved":false,"is_disabled":false,"rental_uris":{"android":"levelo://app?vid=7088a2f7-553c-47a2-a80a-ed0ece411348","ios":"levelo://app?vid=7088a2f7-553c-47a2-a80a-ed0ece411348"},"vehicle_type_id":"4","last_reported":1729156191,"current_range_meters":14800,"station_id":"ce4bhl12rcd13ifvqgf0","pricing_plan_id":"cebpf4jnsgd1na2vs0mg"},{"bike_id":"319a4fe5-d3c2-475d-8d1a-a386dfca73d4","system_id":"levelo_inurba_marseille","lat":43.31356,"lon":5.36704,"is_reserved":false,"is_disabled":false,"rental_uris":{"android":"levelo://app?vid=319a4fe5-d3c2-475d-8d1a-a386dfca73d4","ios":"levelo://app?vid=319a4fe5-d3c2-475d-8d1a-a386dfca73d4"},"vehicle_type_id":"4","last_reported":1729156191,"current_range_meters":38800,"station_id":"ce4bgr92rcd13ifvqc6g","pricing_plan_id":"cebpf4jnsgd1na2vs0mg"},{"bike_id":"63b2cd26-fe78-4925-a2bc-6ec63db0d274","system_id":"levelo_inurba_marseille","lat":43.27502,"lon":5.42446,"is_reserved":false,"is_disabled":false,"rental_uris":{"android":"levelo://app?vid=63b2cd26-fe78-4925-a2bc-6ec63db0d274","ios":"levelo://app?vid=63b2cd26-fe78-4925-a2bc-6ec63db0d274"},"vehicle_type_id":"4","last_reported":1729156191,"current_range_meters":22800,"station_id":"ce4bhn92rcd13ifvqgrg","pricing_plan_id":"cebpf4jnsgd1na2vs0mg"},{"bike_id":"68d3708f-b662-4a36-98a7-3d293d171090","system_id":"levelo_inurba_marseille","lat":43.3091,"lon":5.36853,"is_reserved":false,"is_disabled":false,"rental_uris":{"android":"levelo://app?vid=68d3708f-b662-4a36-98a7-3d293d171090","ios":"levelo://app?vid=68d3708f-b662-4a36-98a7-3d293d171090"},"vehicle_type_id":"4","last_reported":1729156191,"current_range_meters":28000,"station_id":"ce4bgn92rcd13ifvqbvg","pricing_plan_id":"cebpf4jnsgd1na2vs0mg"},{"bike_id":"ee07eab1-d6cf-499f-9946-cf995decd1fd","system_id":"levelo_inurba_marseille","lat":43.27998,"lon":5.40031,"is_reserved":false,"is_disabled":false,"rental_uris":{"android":"levelo://app?vid=ee07eab1-d6cf-499f-9946-cf995decd1fd","ios":"levelo://app?vid=ee07eab1-d6cf-499f-9946-cf995decd1fd"},"vehicle_type_id":"4","last_reported":1729156191,"current_range_meters":38400,"station_id":"ce4bho92rcd13ifvqh4g","pricing_plan_id":"cebpf4jnsgd1na2vs0mg"},{"bike_id":"2af9a2ff-1e0c-4010-b9be-2899a0856ccd","system_id":"levelo_inurba_marseille","lat":43.24077,"lon":5.37759,"is_reserved":false,"is_disabled":false,"rental_uris":{"android":"levelo://app?vid=2af9a2ff-1e0c-4010-b9be-2899a0856ccd","ios":"levelo://app?vid=2af9a2ff-1e0c-4010-b9be-2899a0856ccd"},"vehicle_type_id":"4","last_reported":1729156191,"current_range_meters":36800,"station_id":"ce4bhnp2rcd13ifvqgvg","pricing_plan_id":"cebpf4jnsgd1na2vs0mg"},{"bike_id":"b5872dda-a93e-41d0-be24-ecdb4758650a","system_id":"levelo_inurba_marseille","lat":43.30138,"lon":5.3742,"is_reserved":false,"is_disabled":false,"rental_uris":{"android":"levelo://app?vid=b5872dda-a93e-41d0-be24-ecdb4758650a","ios":"levelo://app?vid=b5872dda-a93e-41d0-be24-ecdb4758650a"},"vehicle_type_id":"4","last_reported":1729156191,"current_range_meters":17200,"station_id":"ce4bgs92rcd13ifvqcc0","pricing_plan_id":"cebpf4jnsgd1na2vs0mg"},{"bike_id":"94f2e0cd-acd2-4d9c-9244-e745ed3037da","system_id":"levelo_inurba_marseille","lat":43.26685,"lon":5.38268,"is_reserved":false,"is_disabled":false,"rental_uris":{"android":"levelo://app?vid=94f2e0cd-acd2-4d9c-9244-e745ed3037da","ios":"levelo://app?vid=94f2e0cd-acd2-4d9c-9244-e745ed3037da"},"vehicle_type_id":"4","last_reported":1729156191,"current_range_meters":27600,"station_id":"ce4bhg92rcd13ifvqf90","pricing_plan_id":"cebpf4jnsgd1na2vs0mg"},{"bike_id":"f8616bb9-c63b-416b-b8c4-507ff62f07bf","system_id":"levelo_inurba_marseille","lat":43.30537,"lon":5.36545,"is_reserved":false,"is_disabled":false,"rental_uris":{"android":"levelo://app?vid=f8616bb9-c63b-416b-b8c4-507ff62f07bf","ios":"levelo://app?vid=f8616bb9-c63b-416b-b8c4-507ff62f07bf"},"vehicle_type_id":"4","last_reported":1729156191,"current_range_meters":39200,"station_id":"ce4bgs12rcd13ifvqcag","pricing_plan_id":"cebpf4jnsgd1na2vs0mg"},{"bike_id":"d06e19b0-626e-450d-886d-e880aba17640","system_id":"levelo_inurba_marseille","lat":43.29366,"lon":5.38577,"is_reserved":false,"is_disabled":false,"rental_uris":{"android":"levelo://app?vid=d06e19b0-626e-450d-886d-e880aba17640","ios":"levelo://app?vid=d06e19b0-626e-450d-886d-e880aba17640"},"vehicle_type_id":"4","last_reported":1729156191,"current_range_meters":20000,"station_id":"ce4bha92rcd13ifvqeh0","pricing_plan_id":"cebpf4jnsgd1na2vs0mg"},{"bike_id":"b5e3250c-d64d-4b58-889d-8bb864a5b8f3","system_id":"levelo_inurba_marseille","lat":43.27155,"lon":5.386,"is_reserved":false,"is_disabled":false,"rental_uris":{"android":"levelo://app?vid=b5e3250c-d64d-4b58-889d-8bb864a5b8f3","ios":"levelo://app?vid=b5e3250c-d64d-4b58-889d-8bb864a5b8f3"},"vehicle_type_id":"4","last_reported":1729156191,"current_range_meters":3600,"station_id":"ce4bhh92rcd13ifvqfh0","pricing_plan_id":"cebpf4jnsgd1na2vs0mg"},{"bike_id":"3010ec48-9760-492e-aa23-bad0703f2ce1","system_id":"levelo_inurba_marseille","lat":43.305449,"lon":5.384049,"is_reserved":false,"is_disabled":false,"rental_uris":{"android":"levelo://app?vid=3010ec48-9760-492e-aa23-bad0703f2ce1","ios":"levelo://app?vid=3010ec48-9760-492e-aa23-bad0703f2ce1"},"vehicle_type_id":"4","last_reported":1729156191,"current_range_meters":38400,"station_id":"ce4bgg92rcd13ifvqb30","pricing_plan_id":"cebpf4jnsgd1na2vs0mg"},{"bike_id":"eaa677eb-d031-4170-9bfa-9305bf3b65ac","system_id":"levelo_inurba_marseille","lat":43.23152,"lon":5.43719,"is_reserved":false,"is_disabled":false,"rental_uris":{"android":"levelo://app?vid=eaa677eb-d031-4170-9bfa-9305bf3b65ac","ios":"levelo://app?vid=eaa677eb-d031-4170-9bfa-9305bf3b65ac"},"vehicle_type_id":"4","last_reported":1729156191,"current_range_meters":20400,"station_id":"ce4bhmp2rcd13ifvqgog","pricing_plan_id":"cebpf4jnsgd1na2vs0mg"},{"bike_id":"91da4f3c-642c-4733-97bb-5f72bad25d08","system_id":"levelo_inurba_marseille","lat":43.30085,"lon":5.39078,"is_reserved":false,"is_disabled":false,"rental_uris":{"android":"levelo://app?vid=91da4f3c-642c-4733-97bb-5f72bad25d08","ios":"levelo://app?vid=91da4f3c-642c-4733-97bb-5f72bad25d08"},"vehicle_type_id":"4","last_reported":1729156191,"current_range_meters":26800,"station_id":"ce4bh192rcd13ifvqdb0","pricing_plan_id":"cebpf4jnsgd1na2vs0mg"},{"bike_id":"a75130ca-cb6a-4cf7-ad50-92bf50006bc2","system_id":"levelo_inurba_marseille","lat":43.27494,"lon":5.42452,"is_reserved":false,"is_disabled":false,"rental_uris":{"android":"levelo://app?vid=a75130ca-cb6a-4cf7-ad50-92bf50006bc2","ios":"levelo://app?vid=a75130ca-cb6a-4cf7-ad50-92bf50006bc2"},"vehicle_type_id":"4","last_reported":1729156191,"current_range_meters":17600,"station_id":"ce4bhn92rcd13ifvqgrg","pricing_plan_id":"cebpf4jnsgd1na2vs0mg"},{"bike_id":"2fa100d4-7645-41b8-8fc4-64d2fc317362","system_id":"levelo_inurba_marseille","lat":43.24665,"lon":5.38158,"is_reserved":false,"is_disabled":false,"rental_uris":{"android":"levelo://app?vid=2fa100d4-7645-41b8-8fc4-64d2fc317362","ios":"levelo://app?vid=2fa100d4-7645-41b8-8fc4-64d2fc317362"},"vehicle_type_id":"4","last_reported":1729156191,"current_range_meters":17600,"station_id":"ce4bhih2rcd13ifvqfr0","pricing_plan_id":"cebpf4jnsgd1na2vs0mg"},{"bike_id":"05191109-9f5a-4be3-b800-d79a622915ee","system_id":"levelo_inurba_marseille","lat":43.29921,"lon":5.37483,"is_reserved":false,"is_disabled":false,"rental_uris":{"android":"levelo://app?vid=05191109-9f5a-4be3-b800-d79a622915ee","ios":"levelo://app?vid=05191109-9f5a-4be3-b800-d79a622915ee"},"vehicle_type_id":"4","last_reported":1729156191,"current_range_meters":30400,"station_id":"ce4bgjh2rcd13ifvqbg0","pricing_plan_id":"cebpf4jnsgd1na2vs0mg"},{"bike_id":"73ef4567-982a-4187-a030-dba6d8fafa37","system_id":"levelo_inurba_marseille","lat":43.23151,"lon":5.43721,"is_reserved":false,"is_disabled":false,"rental_uris":{"android":"levelo://app?vid=73ef4567-982a-4187-a030-dba6d8fafa37","ios":"levelo://app?vid=73ef4567-982a-4187-a030-dba6d8fafa37"},"vehicle_type_id":"4","last_reported":1729156191,"current_range_meters":15200,"station_id":"ce4bhmp2rcd13ifvqgog","pricing_plan_id":"cebpf4jnsgd1na2vs0mg"},{"bike_id":"e371bd4b-4485-4c8b-8e23-26c25e523a51","system_id":"levelo_inurba_marseille","lat":43.2593,"lon":5.40911,"is_reserved":false,"is_disabled":false,"rental_uris":{"android":"levelo://app?vid=e371bd4b-4485-4c8b-8e23-26c25e523a51","ios":"levelo://app?vid=e371bd4b-4485-4c8b-8e23-26c25e523a51"},"vehicle_type_id":"4","last_reported":1729156191,"current_range_meters":19200,"station_id":"ce4bhm92rcd13ifvqglg","pricing_plan_id":"cebpf4jnsgd1na2vs0mg"},{"bike_id":"d18293c8-0c23-4c61-98fc-93df91cd73cd","system_id":"levelo_inurba_marseille","lat":43.260315,"lon":5.3755,"is_reserved":false,"is_disabled":false,"rental_uris":{"android":"levelo://app?vid=d18293c8-0c23-4c61-98fc-93df91cd73cd","ios":"levelo://app?vid=d18293c8-0c23-4c61-98fc-93df91cd73cd"},"vehicle_type_id":"4","last_reported":1729156191,"current_range_meters":29600,"station_id":"ce4bhgh2rcd13ifvqfa0","pricing_plan_id":"cebpf4jnsgd1na2vs0mg"},{"bike_id":"6c0cb852-8a6d-4147-92b5-d0bcf163ea0b","system_id":"levelo_inurba_marseille","lat":43.26203,"lon":5.37932,"is_reserved":false,"is_disabled":false,"rental_uris":{"android":"levelo://app?vid=6c0cb852-8a6d-4147-92b5-d0bcf163ea0b","ios":"levelo://app?vid=6c0cb852-8a6d-4147-92b5-d0bcf163ea0b"},"vehicle_type_id":"4","last_reported":1729156191,"current_range_meters":37600,"station_id":"ce4bhjp2rcd13ifvqg90","pricing_plan_id":"cebpf4jnsgd1na2vs0mg"},{"bike_id":"d4e17718-a0b7-476f-8245-a20f88132324","system_id":"levelo_inurba_marseille","lat":43.26059,"lon":5.39398,"is_reserved":false,"is_disabled":false,"rental_uris":{"android":"levelo://app?vid=d4e17718-a0b7-476f-8245-a20f88132324","ios":"levelo://app?vid=d4e17718-a0b7-476f-8245-a20f88132324"},"vehicle_type_id":"4","last_reported":1729156191,"current_range_meters":11200,"station_id":"ce4bhh92rcd13ifvqfj0","pricing_plan_id":"cebpf4jnsgd1na2vs0mg"},{"bike_id":"26c61c8a-36e1-4c3c-971e-b0e70e0798bf","system_id":"levelo_inurba_marseille","lat":43.25726,"lon":5.4111,"is_reserved":false,"is_disabled":false,"rental_uris":{"android":"levelo://app?vid=26c61c8a-36e1-4c3c-971e-b0e70e0798bf","ios":"levelo://app?vid=26c61c8a-36e1-4c3c-971e-b0e70e0798bf"},"vehicle_type_id":"4","last_reported":1729156191,"current_range_meters":31200,"station_id":"ce4bhkp2rcd13ifvqgd0","pricing_plan_id":"cebpf4jnsgd1na2vs0mg"},{"bike_id":"55c5585e-e16e-435a-8f48-ce57c692cd0e","system_id":"levelo_inurba_marseille","lat":43.30558,"lon":5.36538,"is_reserved":false,"is_disabled":false,"rental_uris":{"android":"levelo://app?vid=55c5585e-e16e-435a-8f48-ce57c692cd0e","ios":"levelo://app?vid=55c5585e-e16e-435a-8f48-ce57c692cd0e"},"vehicle_type_id":"4","last_reported":1729156191,"current_range_meters":10000,"station_id":"ce4bgs12rcd13ifvqcag","pricing_plan_id":"cebpf4jnsgd1na2vs0mg"},{"bike_id":"b3b8591c-5379-4a69-90ab-ae3253c0799a","system_id":"levelo_inurba_marseille","lat":43.23156,"lon":5.43708,"is_reserved":false,"is_disabled":false,"rental_uris":{"android":"levelo://app?vid=b3b8591c-5379-4a69-90ab-ae3253c0799a","ios":"levelo://app?vid=b3b8591c-5379-4a69-90ab-ae3253c0799a"},"vehicle_type_id":"4","last_reported":1729156191,"current_range_meters":8000,"station_id":"ce4bhmp2rcd13ifvqgog","pricing_plan_id":"cebpf4jnsgd1na2vs0mg"},{"bike_id":"136691a5-9545-43b4-9a3c-1627adb33171","system_id":"levelo_inurba_marseille","lat":43.275,"lon":5.42455,"is_reserved":false,"is_disabled":false,"rental_uris":{"android":"levelo://app?vid=136691a5-9545-43b4-9a3c-1627adb33171","ios":"levelo://app?vid=136691a5-9545-43b4-9a3c-1627adb33171"},"vehicle_type_id":"4","last_reported":1729156191,"current_range_meters":33200,"station_id":"ce4bhn92rcd13ifvqgrg","pricing_plan_id":"cebpf4jnsgd1na2vs0mg"},{"bike_id":"90263e99-d5aa-44b8-a4c8-0353aa3b308c","system_id":"levelo_inurba_marseille","lat":43.2307,"lon":5.35496,"is_reserved":false,"is_disabled":false,"rental_uris":{"android":"levelo://app?vid=90263e99-d5aa-44b8-a4c8-0353aa3b308c","ios":"levelo://app?vid=90263e99-d5aa-44b8-a4c8-0353aa3b308c"},"vehicle_type_id":"4","last_reported":1729156191,"current_range_meters":9600,"station_id":"cpo3342slgdg3j2ifvpg","pricing_plan_id":"cebpf4jnsgd1na2vs0mg"},{"bike_id":"2871640c-a4f3-4f61-a342-156b39b491e5","system_id":"levelo_inurba_marseille","lat":43.23149,"lon":5.43714,"is_reserved":false,"is_disabled":false,"rental_uris":{"android":"levelo://app?vid=2871640c-a4f3-4f61-a342-156b39b491e5","ios":"levelo://app?vid=2871640c-a4f3-4f61-a342-156b39b491e5"},"vehicle_type_id":"4","last_reported":1729156191,"current_range_meters":14000,"station_id":"ce4bhmp2rcd13ifvqgog","pricing_plan_id":"cebpf4jnsgd1na2vs0mg"},{"bike_id":"595ffabd-273c-4e9e-a9e7-1f7852f1d0de","system_id":"levelo_inurba_marseille","lat":43.26947,"lon":5.38634,"is_reserved":false,"is_disabled":false,"rental_uris":{"android":"levelo://app?vid=595ffabd-273c-4e9e-a9e7-1f7852f1d0de","ios":"levelo://app?vid=595ffabd-273c-4e9e-a9e7-1f7852f1d0de"},"vehicle_type_id":"4","last_reported":1729156191,"current_range_meters":25600,"station_id":"ce4bhh92rcd13ifvqfh0","pricing_plan_id":"cebpf4jnsgd1na2vs0mg"},{"bike_id":"f5a04492-2577-4fe1-b6be-5f7687c9119f","system_id":"levelo_inurba_marseille","lat":43.27502,"lon":5.42451,"is_reserved":false,"is_disabled":false,"rental_uris":{"android":"levelo://app?vid=f5a04492-2577-4fe1-b6be-5f7687c9119f","ios":"levelo://app?vid=f5a04492-2577-4fe1-b6be-5f7687c9119f"},"vehicle_type_id":"4","last_reported":1729156191,"current_range_meters":24400,"station_id":"ce4bhn92rcd13ifvqgrg","pricing_plan_id":"cebpf4jnsgd1na2vs0mg"},{"bike_id":"f8f2f2e5-b57d-4b64-9634-5816140898cd","system_id":"levelo_inurba_marseille","lat":43.29922,"lon":5.37469,"is_reserved":false,"is_disabled":false,"rental_uris":{"android":"levelo://app?vid=f8f2f2e5-b57d-4b64-9634-5816140898cd","ios":"levelo://app?vid=f8f2f2e5-b57d-4b64-9634-5816140898cd"},"vehicle_type_id":"4","last_reported":1729156191,"current_range_meters":16000,"station_id":"ce4bgjh2rcd13ifvqbg0","pricing_plan_id":"cebpf4jnsgd1na2vs0mg"},{"bike_id":"1cd343c8-245e-4510-bed9-dcc94a7ab19d","system_id":"levelo_inurba_marseille","lat":43.25927,"lon":5.40905,"is_reserved":false,"is_disabled":false,"rental_uris":{"android":"levelo://app?vid=1cd343c8-245e-4510-bed9-dcc94a7ab19d","ios":"levelo://app?vid=1cd343c8-245e-4510-bed9-dcc94a7ab19d"},"vehicle_type_id":"4","last_reported":1729156191,"current_range_meters":8400,"station_id":"ce4bhm92rcd13ifvqglg","pricing_plan_id":"cebpf4jnsgd1na2vs0mg"},{"bike_id":"259adaf4-2099-4724-93a6-9b4c595d6c04","system_id":"levelo_inurba_marseille","lat":43.24666,"lon":5.38158,"is_reserved":false,"is_disabled":false,"rental_uris":{"android":"levelo://app?vid=259adaf4-2099-4724-93a6-9b4c595d6c04","ios":"levelo://app?vid=259adaf4-2099-4724-93a6-9b4c595d6c04"},"vehicle_type_id":"4","last_reported":1729156191,"current_range_meters":30400,"station_id":"ce4bhih2rcd13ifvqfr0","pricing_plan_id":"cebpf4jnsgd1na2vs0mg"},{"bike_id":"f0a85da4-95f0-4613-ac48-f51fb4590b24","system_id":"levelo_inurba_marseille","lat":43.23149,"lon":5.43721,"is_reserved":false,"is_disabled":false,"rental_uris":{"android":"levelo://app?vid=f0a85da4-95f0-4613-ac48-f51fb4590b24","ios":"levelo://app?vid=f0a85da4-95f0-4613-ac48-f51fb4590b24"},"vehicle_type_id":"4","last_reported":1729156191,"current_range_meters":7200,"station_id":"ce4bhmp2rcd13ifvqgog","pricing_plan_id":"cebpf4jnsgd1na2vs0mg"},{"bike_id":"74c32cf3-99f1-4902-95c0-ae0ad9ed9462","system_id":"levelo_inurba_marseille","lat":43.31333,"lon":5.36731,"is_reserved":false,"is_disabled":false,"rental_uris":{"android":"levelo://app?vid=74c32cf3-99f1-4902-95c0-ae0ad9ed9462","ios":"levelo://app?vid=74c32cf3-99f1-4902-95c0-ae0ad9ed9462"},"vehicle_type_id":"4","last_reported":1729156191,"current_range_meters":39200,"station_id":"ce4bgr92rcd13ifvqc6g","pricing_plan_id":"cebpf4jnsgd1na2vs0mg"},{"bike_id":"df8adece-9866-4131-88ad-9e4f198de9a1","system_id":"levelo_inurba_marseille","lat":43.23148,"lon":5.4372,"is_reserved":false,"is_disabled":false,"rental_uris":{"android":"levelo://app?vid=df8adece-9866-4131-88ad-9e4f198de9a1","ios":"levelo://app?vid=df8adece-9866-4131-88ad-9e4f198de9a1"},"vehicle_type_id":"4","last_reported":1729156191,"current_range_meters":8800,"station_id":"ce4bhmp2rcd13ifvqgog","pricing_plan_id":"cebpf4jnsgd1na2vs0mg"},{"bike_id":"b636ee50-f781-402e-bae4-7faaa19fe3dd","system_id":"levelo_inurba_marseille","lat":43.29801,"lon":5.38094,"is_reserved":false,"is_disabled":false,"rental_uris":{"android":"levelo://app?vid=b636ee50-f781-402e-bae4-7faaa19fe3dd","ios":"levelo://app?vid=b636ee50-f781-402e-bae4-7faaa19fe3dd"},"vehicle_type_id":"4","last_reported":1729156191,"current_range_meters":10800,"station_id":"ce4bgip2rcd13ifvqbb0","pricing_plan_id":"cebpf4jnsgd1na2vs0mg"},{"bike_id":"3b1b5b6d-3af0-4cfd-b777-5712634b429e","system_id":"levelo_inurba_marseille","lat":43.26946,"lon":5.38632,"is_reserved":false,"is_disabled":false,"rental_uris":{"android":"levelo://app?vid=3b1b5b6d-3af0-4cfd-b777-5712634b429e","ios":"levelo://app?vid=3b1b5b6d-3af0-4cfd-b777-5712634b429e"},"vehicle_type_id":"4","last_reported":1729156191,"current_range_meters":16400,"station_id":"ce4bhh92rcd13ifvqfh0","pricing_plan_id":"cebpf4jnsgd1na2vs0mg"},{"bike_id":"1b99201e-b9c2-4170-914a-b6a958dc9c17","system_id":"levelo_inurba_marseille","lat":43.28156,"lon":5.42643,"is_reserved":false,"is_disabled":false,"rental_uris":{"android":"levelo://app?vid=1b99201e-b9c2-4170-914a-b6a958dc9c17","ios":"levelo://app?vid=1b99201e-b9c2-4170-914a-b6a958dc9c17"},"vehicle_type_id":"4","last_reported":1729156191,"current_range_meters":19200,"station_id":"ce4bhnh2rcd13ifvqgug","pricing_plan_id":"cebpf4jnsgd1na2vs0mg"},{"bike_id":"cc29fe9b-c75c-4149-8234-d09f40316e47","system_id":"levelo_inurba_marseille","lat":43.24068,"lon":5.37758,"is_reserved":false,"is_disabled":false,"rental_uris":{"android":"levelo://app?vid=cc29fe9b-c75c-4149-8234-d09f40316e47","ios":"levelo://app?vid=cc29fe9b-c75c-4149-8234-d09f40316e47"},"vehicle_type_id":"4","last_reported":1729156191,"current_range_meters":27200,"station_id":"ce4bhnp2rcd13ifvqgvg","pricing_plan_id":"cebpf4jnsgd1na2vs0mg"},{"bike_id":"fa7bbdc9-afbe-404d-8676-647037cc76a9","system_id":"levelo_inurba_marseille","lat":43.231875,"lon":5.355415,"is_reserved":false,"is_disabled":false,"rental_uris":{"android":"levelo://app?vid=fa7bbdc9-afbe-404d-8676-647037cc76a9","ios":"levelo://app?vid=fa7bbdc9-afbe-404d-8676-647037cc76a9"},"vehicle_type_id":"4","last_reported":1729156191,"current_range_meters":34800,"station_id":"ce4bhu92rcd13ifvqi70","pricing_plan_id":"cebpf4jnsgd1na2vs0mg"},{"bike_id":"ee35ad9e-a46a-4390-9dbe-4da8b2518be3","system_id":"levelo_inurba_marseille","lat":43.34146,"lon":5.40905,"is_reserved":false,"is_disabled":false,"rental_uris":{"android":"levelo://app?vid=ee35ad9e-a46a-4390-9dbe-4da8b2518be3","ios":"levelo://app?vid=ee35ad9e-a46a-4390-9dbe-4da8b2518be3"},"vehicle_type_id":"4","last_reported":1729156191,"current_range_meters":16800,"station_id":"ce4bhqh2rcd13ifvqhlg","pricing_plan_id":"cebpf4jnsgd1na2vs0mg"},{"bike_id":"931ad2f4-35ea-42b5-bc1a-1fdec477398a","system_id":"levelo_inurba_marseille","lat":43.33751,"lon":5.37446,"is_reserved":false,"is_disabled":false,"rental_uris":{"android":"levelo://app?vid=931ad2f4-35ea-42b5-bc1a-1fdec477398a","ios":"levelo://app?vid=931ad2f4-35ea-42b5-bc1a-1fdec477398a"},"vehicle_type_id":"4","last_reported":1729156191,"current_range_meters":32400,"station_id":"","pricing_plan_id":"cebpf4jnsgd1na2vs0mg"},{"bike_id":"fc1cd7fd-1915-4417-a8b6-97cc78187f4c","system_id":"levelo_inurba_marseille","lat":43.27488,"lon":5.42463,"is_reserved":false,"is_disabled":false,"rental_uris":{"android":"levelo://app?vid=fc1cd7fd-1915-4417-a8b6-97cc78187f4c","ios":"levelo://app?vid=fc1cd7fd-1915-4417-a8b6-97cc78187f4c"},"vehicle_type_id":"4","last_reported":1729156191,"current_range_meters":32000,"station_id":"ce4bhn92rcd13ifvqgrg","pricing_plan_id":"cebpf4jnsgd1na2vs0mg"},{"bike_id":"89e45b8b-dc82-4018-a313-5f868c8711f0","system_id":"levelo_inurba_marseille","lat":43.33613,"lon":5.41026,"is_reserved":false,"is_disabled":false,"rental_uris":{"android":"levelo://app?vid=89e45b8b-dc82-4018-a313-5f868c8711f0","ios":"levelo://app?vid=89e45b8b-dc82-4018-a313-5f868c8711f0"},"vehicle_type_id":"4","last_reported":1729156191,"current_range_meters":39200,"station_id":"ce4bhqh2rcd13ifvqhmg","pricing_plan_id":"cebpf4jnsgd1na2vs0mg"},{"bike_id":"e1fe222c-06a5-4c62-b95a-c69ecba28d53","system_id":"levelo_inurba_marseille","lat":43.31347,"lon":5.36719,"is_reserved":false,"is_disabled":false,"rental_uris":{"android":"levelo://app?vid=e1fe222c-06a5-4c62-b95a-c69ecba28d53","ios":"levelo://app?vid=e1fe222c-06a5-4c62-b95a-c69ecba28d53"},"vehicle_type_id":"4","last_reported":1729156191,"current_range_meters":13600,"station_id":"ce4bgr92rcd13ifvqc6g","pricing_plan_id":"cebpf4jnsgd1na2vs0mg"},{"bike_id":"aeac146b-929a-4e36-bdcd-73d6b78806ba","system_id":"levelo_inurba_marseille","lat":43.26209,"lon":5.37445,"is_reserved":false,"is_disabled":false,"rental_uris":{"android":"levelo://app?vid=aeac146b-929a-4e36-bdcd-73d6b78806ba","ios":"levelo://app?vid=aeac146b-929a-4e36-bdcd-73d6b78806ba"},"vehicle_type_id":"4","last_reported":1729156191,"current_range_meters":38400,"station_id":"ce4bhgp2rcd13ifvqfc0","pricing_plan_id":"cebpf4jnsgd1na2vs0mg"},{"bike_id":"c7671745-53fc-4e7c-8000-63dbb88ab13f","system_id":"levelo_inurba_marseille","lat":43.27619,"lon":5.36118,"is_reserved":false,"is_disabled":false,"rental_uris":{"android":"levelo://app?vid=c7671745-53fc-4e7c-8000-63dbb88ab13f","ios":"levelo://app?vid=c7671745-53fc-4e7c-8000-63dbb88ab13f"},"vehicle_type_id":"4","last_reported":1729156191,"current_range_meters":36000,"station_id":"ce4bgj92rcd13ifvqbe0","pricing_plan_id":"cebpf4jnsgd1na2vs0mg"},{"bike_id":"306be4e4-518e-462a-a570-d17dd0a2c384","system_id":"levelo_inurba_marseille","lat":43.31339,"lon":5.36711,"is_reserved":false,"is_disabled":false,"rental_uris":{"android":"levelo://app?vid=306be4e4-518e-462a-a570-d17dd0a2c384","ios":"levelo://app?vid=306be4e4-518e-462a-a570-d17dd0a2c384"},"vehicle_type_id":"4","last_reported":1729156191,"current_range_meters":36400,"station_id":"ce4bgr92rcd13ifvqc6g","pricing_plan_id":"cebpf4jnsgd1na2vs0mg"},{"bike_id":"9f8c40b5-c4d0-4cbf-9a71-1cd16415f999","system_id":"levelo_inurba_marseille","lat":43.30533,"lon":5.36555,"is_reserved":false,"is_disabled":false,"rental_uris":{"android":"levelo://app?vid=9f8c40b5-c4d0-4cbf-9a71-1cd16415f999","ios":"levelo://app?vid=9f8c40b5-c4d0-4cbf-9a71-1cd16415f999"},"vehicle_type_id":"4","last_reported":1729156191,"current_range_meters":24800,"station_id":"ce4bgs12rcd13ifvqcag","pricing_plan_id":"cebpf4jnsgd1na2vs0mg"},{"bike_id":"3601568a-c2a9-41ea-93cd-1c10b2d82372","system_id":"levelo_inurba_marseille","lat":43.24544,"lon":5.39523,"is_reserved":false,"is_disabled":false,"rental_uris":{"android":"levelo://app?vid=3601568a-c2a9-41ea-93cd-1c10b2d82372","ios":"levelo://app?vid=3601568a-c2a9-41ea-93cd-1c10b2d82372"},"vehicle_type_id":"4","last_reported":1729156191,"current_range_meters":22800,"station_id":"ce4bhlp2rcd13ifvqgjg","pricing_plan_id":"cebpf4jnsgd1na2vs0mg"},{"bike_id":"8c1ec6cb-2291-4814-837b-be8625c706f3","system_id":"levelo_inurba_marseille","lat":43.23196,"lon":5.3554,"is_reserved":false,"is_disabled":false,"rental_uris":{"android":"levelo://app?vid=8c1ec6cb-2291-4814-837b-be8625c706f3","ios":"levelo://app?vid=8c1ec6cb-2291-4814-837b-be8625c706f3"},"vehicle_type_id":"4","last_reported":1729156191,"current_range_meters":37600,"station_id":"ce4bhu92rcd13ifvqi70","pricing_plan_id":"cebpf4jnsgd1na2vs0mg"},{"bike_id":"c6964a67-916a-4c16-b990-f077fe436533","system_id":"levelo_inurba_marseille","lat":43.26963,"lon":5.38625,"is_reserved":false,"is_disabled":false,"rental_uris":{"android":"levelo://app?vid=c6964a67-916a-4c16-b990-f077fe436533","ios":"levelo://app?vid=c6964a67-916a-4c16-b990-f077fe436533"},"vehicle_type_id":"4","last_reported":1729156191,"current_range_meters":32800,"station_id":"ce4bhh92rcd13ifvqfh0","pricing_plan_id":"cebpf4jnsgd1na2vs0mg"},{"bike_id":"5b63688c-baee-442f-86d4-7a0be8d883e8","system_id":"levelo_inurba_marseille","lat":43.26938,"lon":5.38917,"is_reserved":false,"is_disabled":false,"rental_uris":{"android":"levelo://app?vid=5b63688c-baee-442f-86d4-7a0be8d883e8","ios":"levelo://app?vid=5b63688c-baee-442f-86d4-7a0be8d883e8"},"vehicle_type_id":"4","last_reported":1729156191,"current_range_meters":8800,"station_id":"ce4bhhh2rcd13ifvqfl0","pricing_plan_id":"cebpf4jnsgd1na2vs0mg"},{"bike_id":"6aad7b35-09a3-4656-912f-91689d5fb051","system_id":"levelo_inurba_marseille","lat":43.26198,"lon":5.37935,"is_reserved":false,"is_disabled":false,"rental_uris":{"android":"levelo://app?vid=6aad7b35-09a3-4656-912f-91689d5fb051","ios":"levelo://app?vid=6aad7b35-09a3-4656-912f-91689d5fb051"},"vehicle_type_id":"4","last_reported":1729156191,"current_range_meters":23200,"station_id":"ce4bhjp2rcd13ifvqg90","pricing_plan_id":"cebpf4jnsgd1na2vs0mg"},{"bike_id":"c61f009f-49b1-452a-a7ef-8f275496bf83","system_id":"levelo_inurba_marseille","lat":43.27327,"lon":5.39076,"is_reserved":false,"is_disabled":false,"rental_uris":{"android":"levelo://app?vid=c61f009f-49b1-452a-a7ef-8f275496bf83","ios":"levelo://app?vid=c61f009f-49b1-452a-a7ef-8f275496bf83"},"vehicle_type_id":"4","last_reported":1729156191,"current_range_meters":6800,"station_id":"ce4bhgp2rcd13ifvqfe0","pricing_plan_id":"cebpf4jnsgd1na2vs0mg"},{"bike_id":"5421da52-368c-42e1-8790-6c18a6fbf076","system_id":"levelo_inurba_marseille","lat":43.2872,"lon":5.37945,"is_reserved":false,"is_disabled":false,"rental_uris":{"android":"levelo://app?vid=5421da52-368c-42e1-8790-6c18a6fbf076","ios":"levelo://app?vid=5421da52-368c-42e1-8790-6c18a6fbf076"},"vehicle_type_id":"4","last_reported":1729156191,"current_range_meters":36400,"station_id":"ce4bh9p2rcd13ifvqec0","pricing_plan_id":"cebpf4jnsgd1na2vs0mg"},{"bike_id":"c1b4d58c-7d67-4800-b5de-bf664ea422e8","system_id":"levelo_inurba_marseille","lat":43.24647,"lon":5.38891,"is_reserved":false,"is_disabled":false,"rental_uris":{"android":"levelo://app?vid=c1b4d58c-7d67-4800-b5de-bf664ea422e8","ios":"levelo://app?vid=c1b4d58c-7d67-4800-b5de-bf664ea422e8"},"vehicle_type_id":"4","last_reported":1729156191,"current_range_meters":13600,"station_id":"ce4bhg12rcd13ifvqf60","pricing_plan_id":"cebpf4jnsgd1na2vs0mg"},{"bike_id":"4dff3f2d-8f80-481e-a769-c8fed23ab2fa","system_id":"levelo_inurba_marseille","lat":43.26201,"lon":5.37941,"is_reserved":false,"is_disabled":false,"rental_uris":{"android":"levelo://app?vid=4dff3f2d-8f80-481e-a769-c8fed23ab2fa","ios":"levelo://app?vid=4dff3f2d-8f80-481e-a769-c8fed23ab2fa"},"vehicle_type_id":"4","last_reported":1729156191,"current_range_meters":21600,"station_id":"ce4bhjp2rcd13ifvqg90","pricing_plan_id":"cebpf4jnsgd1na2vs0mg"},{"bike_id":"8c8833d3-032b-4dfc-8f54-fca2cb08c55d","system_id":"levelo_inurba_marseille","lat":43.28933,"lon":5.36645,"is_reserved":false,"is_disabled":false,"rental_uris":{"android":"levelo://app?vid=8c8833d3-032b-4dfc-8f54-fca2cb08c55d","ios":"levelo://app?vid=8c8833d3-032b-4dfc-8f54-fca2cb08c55d"},"vehicle_type_id":"4","last_reported":1729156191,"current_range_meters":27200,"station_id":"ce4bhap2rcd13ifvqek0","pricing_plan_id":"cebpf4jnsgd1na2vs0mg"},{"bike_id":"520489e7-555a-4ff2-aa00-0b72b9b70ffd","system_id":"levelo_inurba_marseille","lat":43.29556,"lon":5.42278,"is_reserved":false,"is_disabled":false,"rental_uris":{"android":"levelo://app?vid=520489e7-555a-4ff2-aa00-0b72b9b70ffd","ios":"levelo://app?vid=520489e7-555a-4ff2-aa00-0b72b9b70ffd"},"vehicle_type_id":"4","last_reported":1729156191,"current_range_meters":26000,"station_id":"ce4bhph2rcd13ifvqhdg","pricing_plan_id":"cebpf4jnsgd1na2vs0mg"},{"bike_id":"d372c23a-dc85-401e-bc89-b7954e57f68b","system_id":"levelo_inurba_marseille","lat":43.30545,"lon":5.36714,"is_reserved":false,"is_disabled":false,"rental_uris":{"android":"levelo://app?vid=d372c23a-dc85-401e-bc89-b7954e57f68b","ios":"levelo://app?vid=d372c23a-dc85-401e-bc89-b7954e57f68b"},"vehicle_type_id":"4","last_reported":1729156191,"current_range_meters":28800,"station_id":"ce4bgrp2rcd13ifvqc9g","pricing_plan_id":"cebpf4jnsgd1na2vs0mg"},{"bike_id":"9e1a9053-a22e-4a9b-98a7-d370811bc374","system_id":"levelo_inurba_marseille","lat":43.27176,"lon":5.40993,"is_reserved":false,"is_disabled":false,"rental_uris":{"android":"levelo://app?vid=9e1a9053-a22e-4a9b-98a7-d370811bc374","ios":"levelo://app?vid=9e1a9053-a22e-4a9b-98a7-d370811bc374"},"vehicle_type_id":"4","last_reported":1729156191,"current_range_meters":9200,"station_id":"ce4bhl12rcd13ifvqgf0","pricing_plan_id":"cebpf4jnsgd1na2vs0mg"},{"bike_id":"5acb3655-557e-4b14-9350-bc7300d051ac","system_id":"levelo_inurba_marseille","lat":43.28488,"lon":5.38561,"is_reserved":false,"is_disabled":false,"rental_uris":{"android":"levelo://app?vid=5acb3655-557e-4b14-9350-bc7300d051ac","ios":"levelo://app?vid=5acb3655-557e-4b14-9350-bc7300d051ac"},"vehicle_type_id":"4","last_reported":1729156191,"current_range_meters":36800,"station_id":"ce4bh8p2rcd13ifvqeb0","pricing_plan_id":"cebpf4jnsgd1na2vs0mg"},{"bike_id":"fec6f51b-1072-44c6-a7b0-4049f3835f7e","system_id":"levelo_inurba_marseille","lat":43.26212,"lon":5.37444,"is_reserved":false,"is_disabled":false,"rental_uris":{"android":"levelo://app?vid=fec6f51b-1072-44c6-a7b0-4049f3835f7e","ios":"levelo://app?vid=fec6f51b-1072-44c6-a7b0-4049f3835f7e"},"vehicle_type_id":"4","last_reported":1729156191,"current_range_meters":38400,"station_id":"ce4bhgp2rcd13ifvqfc0","pricing_plan_id":"cebpf4jnsgd1na2vs0mg"},{"bike_id":"874494de-7452-4f47-9fec-c5ec79478035","system_id":"levelo_inurba_marseille","lat":43.23967,"lon":5.3664,"is_reserved":false,"is_disabled":false,"rental_uris":{"android":"levelo://app?vid=874494de-7452-4f47-9fec-c5ec79478035","ios":"levelo://app?vid=874494de-7452-4f47-9fec-c5ec79478035"},"vehicle_type_id":"4","last_reported":1729156191,"current_range_meters":28800,"station_id":"ce4bhi12rcd13ifvqfp0","pricing_plan_id":"cebpf4jnsgd1na2vs0mg"},{"bike_id":"38f2a4ce-0eca-440a-a6cf-96856f1ec943","system_id":"levelo_inurba_marseille","lat":43.3055,"lon":5.36546,"is_reserved":false,"is_disabled":false,"rental_uris":{"android":"levelo://app?vid=38f2a4ce-0eca-440a-a6cf-96856f1ec943","ios":"levelo://app?vid=38f2a4ce-0eca-440a-a6cf-96856f1ec943"},"vehicle_type_id":"4","last_reported":1729156191,"current_range_meters":34000,"station_id":"ce4bgs12rcd13ifvqcag","pricing_plan_id":"cebpf4jnsgd1na2vs0mg"},{"bike_id":"9cab4e9f-1e69-4842-82e4-ee6684a3dc1f","system_id":"levelo_inurba_marseille","lat":43.25934,"lon":5.40904,"is_reserved":false,"is_disabled":false,"rental_uris":{"android":"levelo://app?vid=9cab4e9f-1e69-4842-82e4-ee6684a3dc1f","ios":"levelo://app?vid=9cab4e9f-1e69-4842-82e4-ee6684a3dc1f"},"vehicle_type_id":"4","last_reported":1729156191,"current_range_meters":31200,"station_id":"ce4bhm92rcd13ifvqglg","pricing_plan_id":"cebpf4jnsgd1na2vs0mg"},{"bike_id":"08ae83cb-f31d-469e-8b8d-1172d9f867d3","system_id":"levelo_inurba_marseille","lat":43.23962,"lon":5.36641,"is_reserved":false,"is_disabled":false,"rental_uris":{"android":"levelo://app?vid=08ae83cb-f31d-469e-8b8d-1172d9f867d3","ios":"levelo://app?vid=08ae83cb-f31d-469e-8b8d-1172d9f867d3"},"vehicle_type_id":"4","last_reported":1729156191,"current_range_meters":17600,"station_id":"ce4bhi12rcd13ifvqfp0","pricing_plan_id":"cebpf4jnsgd1na2vs0mg"},{"bike_id":"ffb30cf1-3d79-4825-943d-e778c4be0262","system_id":"levelo_inurba_marseille","lat":43.26954,"lon":5.38628,"is_reserved":false,"is_disabled":false,"rental_uris":{"android":"levelo://app?vid=ffb30cf1-3d79-4825-943d-e778c4be0262","ios":"levelo://app?vid=ffb30cf1-3d79-4825-943d-e778c4be0262"},"vehicle_type_id":"4","last_reported":1729156191,"current_range_meters":3200,"station_id":"ce4bhh92rcd13ifvqfh0","pricing_plan_id":"cebpf4jnsgd1na2vs0mg"},{"bike_id":"a0f19fcb-0a29-4a07-a8fc-115ff902bf7f","system_id":"levelo_inurba_marseille","lat":43.25,"lon":5.389278,"is_reserved":false,"is_disabled":false,"rental_uris":{"android":"levelo://app?vid=a0f19fcb-0a29-4a07-a8fc-115ff902bf7f","ios":"levelo://app?vid=a0f19fcb-0a29-4a07-a8fc-115ff902bf7f"},"vehicle_type_id":"4","last_reported":1729156191,"current_range_meters":6000,"station_id":"ce4bhgp2rcd13ifvqfd0","pricing_plan_id":"cebpf4jnsgd1na2vs0mg"},{"bike_id":"0994d7f0-fa2e-480f-b967-2b1e1b476b78","system_id":"levelo_inurba_marseille","lat":43.23188,"lon":5.35558,"is_reserved":false,"is_disabled":false,"rental_uris":{"android":"levelo://app?vid=0994d7f0-fa2e-480f-b967-2b1e1b476b78","ios":"levelo://app?vid=0994d7f0-fa2e-480f-b967-2b1e1b476b78"},"vehicle_type_id":"4","last_reported":1729156191,"current_range_meters":16000,"station_id":"ce4bhu92rcd13ifvqi70","pricing_plan_id":"cebpf4jnsgd1na2vs0mg"},{"bike_id":"94205477-3904-442b-b987-9754f9f73cf5","system_id":"levelo_inurba_marseille","lat":43.23963,"lon":5.3663,"is_reserved":false,"is_disabled":false,"rental_uris":{"android":"levelo://app?vid=94205477-3904-442b-b987-9754f9f73cf5","ios":"levelo://app?vid=94205477-3904-442b-b987-9754f9f73cf5"},"vehicle_type_id":"4","last_reported":1729156191,"current_range_meters":31200,"station_id":"ce4bhi12rcd13ifvqfp0","pricing_plan_id":"cebpf4jnsgd1na2vs0mg"},{"bike_id":"df8834dc-6561-4928-8d70-a3972a766a87","system_id":"levelo_inurba_marseille","lat":43.34142,"lon":5.40899,"is_reserved":false,"is_disabled":false,"rental_uris":{"android":"levelo://app?vid=df8834dc-6561-4928-8d70-a3972a766a87","ios":"levelo://app?vid=df8834dc-6561-4928-8d70-a3972a766a87"},"vehicle_type_id":"4","last_reported":1729156191,"current_range_meters":33600,"station_id":"ce4bhqh2rcd13ifvqhlg","pricing_plan_id":"cebpf4jnsgd1na2vs0mg"},{"bike_id":"66ccc46d-618e-4760-b09c-27382152bdab","system_id":"levelo_inurba_marseille","lat":43.23199,"lon":5.35548,"is_reserved":false,"is_disabled":false,"rental_uris":{"android":"levelo://app?vid=66ccc46d-618e-4760-b09c-27382152bdab","ios":"levelo://app?vid=66ccc46d-618e-4760-b09c-27382152bdab"},"vehicle_type_id":"4","last_reported":1729156191,"current_range_meters":34000,"station_id":"ce4bhu92rcd13ifvqi70","pricing_plan_id":"cebpf4jnsgd1na2vs0mg"},{"bike_id":"f37b6b36-22f7-4bbb-9415-766320a22b6c","system_id":"levelo_inurba_marseille","lat":43.28395,"lon":5.385865,"is_reserved":false,"is_disabled":false,"rental_uris":{"android":"levelo://app?vid=f37b6b36-22f7-4bbb-9415-766320a22b6c","ios":"levelo://app?vid=f37b6b36-22f7-4bbb-9415-766320a22b6c"},"vehicle_type_id":"4","last_reported":1729156191,"current_range_meters":18800,"station_id":"ce4bhs12rcd13ifvqhvg","pricing_plan_id":"cebpf4jnsgd1na2vs0mg"},{"bike_id":"16d57611-3afb-4c19-ab98-6a8194648026","system_id":"levelo_inurba_marseille","lat":43.30142,"lon":5.37426,"is_reserved":false,"is_disabled":false,"rental_uris":{"android":"levelo://app?vid=16d57611-3afb-4c19-ab98-6a8194648026","ios":"levelo://app?vid=16d57611-3afb-4c19-ab98-6a8194648026"},"vehicle_type_id":"4","last_reported":1729156191,"current_range_meters":8800,"station_id":"ce4bgs92rcd13ifvqcc0","pricing_plan_id":"cebpf4jnsgd1na2vs0mg"},{"bike_id":"168a271a-8673-45f2-bafe-0e70e2c77c4d","system_id":"levelo_inurba_marseille","lat":43.26684,"lon":5.38274,"is_reserved":false,"is_disabled":false,"rental_uris":{"android":"levelo://app?vid=168a271a-8673-45f2-bafe-0e70e2c77c4d","ios":"levelo://app?vid=168a271a-8673-45f2-bafe-0e70e2c77c4d"},"vehicle_type_id":"4","last_reported":1729156191,"current_range_meters":16800,"station_id":"ce4bhg92rcd13ifvqf90","pricing_plan_id":"cebpf4jnsgd1na2vs0mg"},{"bike_id":"bdb35537-e146-4505-aa2c-9bd36f349ae8","system_id":"levelo_inurba_marseille","lat":43.31346,"lon":5.36707,"is_reserved":false,"is_disabled":false,"rental_uris":{"android":"levelo://app?vid=bdb35537-e146-4505-aa2c-9bd36f349ae8","ios":"levelo://app?vid=bdb35537-e146-4505-aa2c-9bd36f349ae8"},"vehicle_type_id":"4","last_reported":1729156191,"current_range_meters":6800,"station_id":"ce4bgr92rcd13ifvqc6g","pricing_plan_id":"cebpf4jnsgd1na2vs0mg"},{"bike_id":"30404aca-08a3-4264-987a-aa6acb1f5cf1","system_id":"levelo_inurba_marseille","lat":43.25939,"lon":5.40902,"is_reserved":false,"is_disabled":false,"rental_uris":{"android":"levelo://app?vid=30404aca-08a3-4264-987a-aa6acb1f5cf1","ios":"levelo://app?vid=30404aca-08a3-4264-987a-aa6acb1f5cf1"},"vehicle_type_id":"4","last_reported":1729156191,"current_range_meters":20400,"station_id":"ce4bhm92rcd13ifvqglg","pricing_plan_id":"cebpf4jnsgd1na2vs0mg"},{"bike_id":"6300df2c-b9fe-4275-916d-dd75e59140c9","system_id":"levelo_inurba_marseille","lat":43.23206,"lon":5.35555,"is_reserved":false,"is_disabled":false,"rental_uris":{"android":"levelo://app?vid=6300df2c-b9fe-4275-916d-dd75e59140c9","ios":"levelo://app?vid=6300df2c-b9fe-4275-916d-dd75e59140c9"},"vehicle_type_id":"4","last_reported":1729156191,"current_range_meters":34000,"station_id":"ce4bhu92rcd13ifvqi70","pricing_plan_id":"cebpf4jnsgd1na2vs0mg"},{"bike_id":"8e1baea2-0043-41da-84e4-03869e41ad9c","system_id":"levelo_inurba_marseille","lat":43.25004,"lon":5.38925,"is_reserved":false,"is_disabled":false,"rental_uris":{"android":"levelo://app?vid=8e1baea2-0043-41da-84e4-03869e41ad9c","ios":"levelo://app?vid=8e1baea2-0043-41da-84e4-03869e41ad9c"},"vehicle_type_id":"4","last_reported":1729156191,"current_range_meters":38000,"station_id":"ce4bhgp2rcd13ifvqfd0","pricing_plan_id":"cebpf4jnsgd1na2vs0mg"},{"bike_id":"cb654da1-eb22-4fb9-ad1d-dbe5f51770dc","system_id":"levelo_inurba_marseille","lat":43.29908,"lon":5.38133,"is_reserved":false,"is_disabled":false,"rental_uris":{"android":"levelo://app?vid=cb654da1-eb22-4fb9-ad1d-dbe5f51770dc","ios":"levelo://app?vid=cb654da1-eb22-4fb9-ad1d-dbe5f51770dc"},"vehicle_type_id":"4","last_reported":1729156191,"current_range_meters":38800,"station_id":"ce4bgj12rcd13ifvqbc0","pricing_plan_id":"cebpf4jnsgd1na2vs0mg"},{"bike_id":"425d4857-0ef1-4d8f-b7f0-1d7838f7e90f","system_id":"levelo_inurba_marseille","lat":43.31076,"lon":5.38359,"is_reserved":false,"is_disabled":false,"rental_uris":{"android":"levelo://app?vid=425d4857-0ef1-4d8f-b7f0-1d7838f7e90f","ios":"levelo://app?vid=425d4857-0ef1-4d8f-b7f0-1d7838f7e90f"},"vehicle_type_id":"4","last_reported":1729156191,"current_range_meters":7200,"station_id":"ce4bgv92rcd13ifvqcr0","pricing_plan_id":"cebpf4jnsgd1na2vs0mg"},{"bike_id":"82b34ebe-841b-4fb1-b62e-56bca04c722f","system_id":"levelo_inurba_marseille","lat":43.25942,"lon":5.40897,"is_reserved":false,"is_disabled":false,"rental_uris":{"android":"levelo://app?vid=82b34ebe-841b-4fb1-b62e-56bca04c722f","ios":"levelo://app?vid=82b34ebe-841b-4fb1-b62e-56bca04c722f"},"vehicle_type_id":"4","last_reported":1729156191,"current_range_meters":24000,"station_id":"ce4bhm92rcd13ifvqglg","pricing_plan_id":"cebpf4jnsgd1na2vs0mg"},{"bike_id":"0d7bd601-09b1-4590-bdcc-9de15918a736","system_id":"levelo_inurba_marseille","lat":43.30908,"lon":5.36853,"is_reserved":false,"is_disabled":false,"rental_uris":{"android":"levelo://app?vid=0d7bd601-09b1-4590-bdcc-9de15918a736","ios":"levelo://app?vid=0d7bd601-09b1-4590-bdcc-9de15918a736"},"vehicle_type_id":"4","last_reported":1729156191,"current_range_meters":28800,"station_id":"ce4bgn92rcd13ifvqbvg","pricing_plan_id":"cebpf4jnsgd1na2vs0mg"},{"bike_id":"18666086-ee5b-4930-b3aa-e27d6f666049","system_id":"levelo_inurba_marseille","lat":43.27495,"lon":5.42454,"is_reserved":false,"is_disabled":false,"rental_uris":{"android":"levelo://app?vid=18666086-ee5b-4930-b3aa-e27d6f666049","ios":"levelo://app?vid=18666086-ee5b-4930-b3aa-e27d6f666049"},"vehicle_type_id":"4","last_reported":1729156191,"current_range_meters":38400,"station_id":"ce4bhn92rcd13ifvqgrg","pricing_plan_id":"cebpf4jnsgd1na2vs0mg"},{"bike_id":"a2b2864f-6afb-46e5-a502-9789958951c7","system_id":"levelo_inurba_marseille","lat":43.2593,"lon":5.40913,"is_reserved":false,"is_disabled":false,"rental_uris":{"android":"levelo://app?vid=a2b2864f-6afb-46e5-a502-9789958951c7","ios":"levelo://app?vid=a2b2864f-6afb-46e5-a502-9789958951c7"},"vehicle_type_id":"4","last_reported":1729156191,"current_range_meters":38000,"station_id":"ce4bhm92rcd13ifvqglg","pricing_plan_id":"cebpf4jnsgd1na2vs0mg"},{"bike_id":"4562e9bb-7c1e-4e0e-95e1-858d0f8d86d1","system_id":"levelo_inurba_marseille","lat":43.23196,"lon":5.35553,"is_reserved":false,"is_disabled":false,"rental_uris":{"android":"levelo://app?vid=4562e9bb-7c1e-4e0e-95e1-858d0f8d86d1","ios":"levelo://app?vid=4562e9bb-7c1e-4e0e-95e1-858d0f8d86d1"},"vehicle_type_id":"4","last_reported":1729156191,"current_range_meters":8400,"station_id":"ce4bhu92rcd13ifvqi70","pricing_plan_id":"cebpf4jnsgd1na2vs0mg"},{"bike_id":"9017b7a7-a119-4c68-9fa0-3cd1e39de0c5","system_id":"levelo_inurba_marseille","lat":43.31345,"lon":5.36704,"is_reserved":false,"is_disabled":false,"rental_uris":{"android":"levelo://app?vid=9017b7a7-a119-4c68-9fa0-3cd1e39de0c5","ios":"levelo://app?vid=9017b7a7-a119-4c68-9fa0-3cd1e39de0c5"},"vehicle_type_id":"4","last_reported":1729156191,"current_range_meters":38800,"station_id":"ce4bgr92rcd13ifvqc6g","pricing_plan_id":"cebpf4jnsgd1na2vs0mg"},{"bike_id":"c60ae59c-5f3f-493b-82be-9fdc769a1273","system_id":"levelo_inurba_marseille","lat":43.24087,"lon":5.37753,"is_reserved":false,"is_disabled":false,"rental_uris":{"android":"levelo://app?vid=c60ae59c-5f3f-493b-82be-9fdc769a1273","ios":"levelo://app?vid=c60ae59c-5f3f-493b-82be-9fdc769a1273"},"vehicle_type_id":"4","last_reported":1729156191,"current_range_meters":8000,"station_id":"ce4bhnp2rcd13ifvqgvg","pricing_plan_id":"cebpf4jnsgd1na2vs0mg"},{"bike_id":"2140b6a3-5118-4150-823e-9225aeb56201","system_id":"levelo_inurba_marseille","lat":43.23205,"lon":5.35553,"is_reserved":false,"is_disabled":false,"rental_uris":{"android":"levelo://app?vid=2140b6a3-5118-4150-823e-9225aeb56201","ios":"levelo://app?vid=2140b6a3-5118-4150-823e-9225aeb56201"},"vehicle_type_id":"4","last_reported":1729156191,"current_range_meters":36800,"station_id":"ce4bhu92rcd13ifvqi70","pricing_plan_id":"cebpf4jnsgd1na2vs0mg"},{"bike_id":"ec9bbd76-906e-4bd4-9a7c-0e9570938b75","system_id":"levelo_inurba_marseille","lat":43.25825,"lon":5.39448,"is_reserved":false,"is_disabled":false,"rental_uris":{"android":"levelo://app?vid=ec9bbd76-906e-4bd4-9a7c-0e9570938b75","ios":"levelo://app?vid=ec9bbd76-906e-4bd4-9a7c-0e9570938b75"},"vehicle_type_id":"4","last_reported":1729156191,"current_range_meters":18000,"station_id":"ce4bhip2rcd13ifvqft0","pricing_plan_id":"cebpf4jnsgd1na2vs0mg"},{"bike_id":"0575f104-b7d9-4f46-b667-438433510d2a","system_id":"levelo_inurba_marseille","lat":43.30594,"lon":5.39361,"is_reserved":false,"is_disabled":false,"rental_uris":{"android":"levelo://app?vid=0575f104-b7d9-4f46-b667-438433510d2a","ios":"levelo://app?vid=0575f104-b7d9-4f46-b667-438433510d2a"},"vehicle_type_id":"4","last_reported":1729156191,"current_range_meters":10800,"station_id":"","pricing_plan_id":"cebpf4jnsgd1na2vs0mg"},{"bike_id":"e4641a01-72c6-47e7-b438-c8bd0e170d1f","system_id":"levelo_inurba_marseille","lat":43.29782,"lon":5.37114,"is_reserved":false,"is_disabled":false,"rental_uris":{"android":"levelo://app?vid=e4641a01-72c6-47e7-b438-c8bd0e170d1f","ios":"levelo://app?vid=e4641a01-72c6-47e7-b438-c8bd0e170d1f"},"vehicle_type_id":"4","last_reported":1729156191,"current_range_meters":30000,"station_id":"ce4bgop2rcd13ifvqc1g","pricing_plan_id":"cebpf4jnsgd1na2vs0mg"},{"bike_id":"b325a85e-8ef9-454c-8892-9fa3884b4fa5","system_id":"levelo_inurba_marseille","lat":43.30539,"lon":5.38429,"is_reserved":false,"is_disabled":false,"rental_uris":{"android":"levelo://app?vid=b325a85e-8ef9-454c-8892-9fa3884b4fa5","ios":"levelo://app?vid=b325a85e-8ef9-454c-8892-9fa3884b4fa5"},"vehicle_type_id":"4","last_reported":1729156191,"current_range_meters":38800,"station_id":"ce4bgg92rcd13ifvqb30","pricing_plan_id":"cebpf4jnsgd1na2vs0mg"},{"bike_id":"602f4b14-1c69-41de-8886-71de87fb8232","system_id":"levelo_inurba_marseille","lat":43.24074,"lon":5.37763,"is_reserved":false,"is_disabled":false,"rental_uris":{"android":"levelo://app?vid=602f4b14-1c69-41de-8886-71de87fb8232","ios":"levelo://app?vid=602f4b14-1c69-41de-8886-71de87fb8232"},"vehicle_type_id":"4","last_reported":1729156191,"current_range_meters":35600,"station_id":"ce4bhnp2rcd13ifvqgvg","pricing_plan_id":"cebpf4jnsgd1na2vs0mg"},{"bike_id":"c7c2759f-6756-4905-a201-8ac04e9864d0","system_id":"levelo_inurba_marseille","lat":43.2668,"lon":5.3827,"is_reserved":false,"is_disabled":false,"rental_uris":{"android":"levelo://app?vid=c7c2759f-6756-4905-a201-8ac04e9864d0","ios":"levelo://app?vid=c7c2759f-6756-4905-a201-8ac04e9864d0"},"vehicle_type_id":"4","last_reported":1729156191,"current_range_meters":39200,"station_id":"ce4bhg92rcd13ifvqf90","pricing_plan_id":"cebpf4jnsgd1na2vs0mg"},{"bike_id":"e421bedb-66f2-43dc-8786-eb95f6f06036","system_id":"levelo_inurba_marseille","lat":43.30236,"lon":5.40067,"is_reserved":false,"is_disabled":false,"rental_uris":{"android":"levelo://app?vid=e421bedb-66f2-43dc-8786-eb95f6f06036","ios":"levelo://app?vid=e421bedb-66f2-43dc-8786-eb95f6f06036"},"vehicle_type_id":"4","last_reported":1729156191,"current_range_meters":9200,"station_id":"ce4bgvh2rcd13ifvqcs0","pricing_plan_id":"cebpf4jnsgd1na2vs0mg"},{"bike_id":"3d7f24d0-8186-4b5e-a3d8-9a5c4bd24af2","system_id":"levelo_inurba_marseille","lat":43.24174,"lon":5.39726,"is_reserved":false,"is_disabled":false,"rental_uris":{"android":"levelo://app?vid=3d7f24d0-8186-4b5e-a3d8-9a5c4bd24af2","ios":"levelo://app?vid=3d7f24d0-8186-4b5e-a3d8-9a5c4bd24af2"},"vehicle_type_id":"4","last_reported":1729156191,"current_range_meters":38000,"station_id":"ce4bhn12rcd13ifvqgpg","pricing_plan_id":"cebpf4jnsgd1na2vs0mg"},{"bike_id":"d79f5525-0de1-4334-802e-69c7e1b3ac65","system_id":"levelo_inurba_marseille","lat":43.24649,"lon":5.38893,"is_reserved":false,"is_disabled":false,"rental_uris":{"android":"levelo://app?vid=d79f5525-0de1-4334-802e-69c7e1b3ac65","ios":"levelo://app?vid=d79f5525-0de1-4334-802e-69c7e1b3ac65"},"vehicle_type_id":"4","last_reported":1729156191,"current_range_meters":20400,"station_id":"ce4bhg12rcd13ifvqf60","pricing_plan_id":"cebpf4jnsgd1na2vs0mg"},{"bike_id":"eeaaa23a-931d-4d4d-9ab9-c726ee66ef82","system_id":"levelo_inurba_marseille","lat":43.30913,"lon":5.36851,"is_reserved":false,"is_disabled":false,"rental_uris":{"android":"levelo://app?vid=eeaaa23a-931d-4d4d-9ab9-c726ee66ef82","ios":"levelo://app?vid=eeaaa23a-931d-4d4d-9ab9-c726ee66ef82"},"vehicle_type_id":"4","last_reported":1729156191,"current_range_meters":37600,"station_id":"ce4bgn92rcd13ifvqbvg","pricing_plan_id":"cebpf4jnsgd1na2vs0mg"},{"bike_id":"4c0c455a-7195-40df-8bc6-a2c0b92e8594","system_id":"levelo_inurba_marseille","lat":43.281333,"lon":5.378331,"is_reserved":false,"is_disabled":false,"rental_uris":{"android":"levelo://app?vid=4c0c455a-7195-40df-8bc6-a2c0b92e8594","ios":"levelo://app?vid=4c0c455a-7195-40df-8bc6-a2c0b92e8594"},"vehicle_type_id":"4","last_reported":1729156191,"current_range_meters":16400,"station_id":"ce4bha12rcd13ifvqee0","pricing_plan_id":"cebpf4jnsgd1na2vs0mg"},{"bike_id":"83bcafb6-7740-4133-8b56-4bf302222f17","system_id":"levelo_inurba_marseille","lat":43.23965,"lon":5.36638,"is_reserved":false,"is_disabled":false,"rental_uris":{"android":"levelo://app?vid=83bcafb6-7740-4133-8b56-4bf302222f17","ios":"levelo://app?vid=83bcafb6-7740-4133-8b56-4bf302222f17"},"vehicle_type_id":"4","last_reported":1729156191,"current_range_meters":5600,"station_id":"ce4bhi12rcd13ifvqfp0","pricing_plan_id":"cebpf4jnsgd1na2vs0mg"},{"bike_id":"7772d39f-5e28-445c-af91-069b0cf63793","system_id":"levelo_inurba_marseille","lat":43.33765,"lon":5.37448,"is_reserved":false,"is_disabled":false,"rental_uris":{"android":"levelo://app?vid=7772d39f-5e28-445c-af91-069b0cf63793","ios":"levelo://app?vid=7772d39f-5e28-445c-af91-069b0cf63793"},"vehicle_type_id":"4","last_reported":1729156191,"current_range_meters":16400,"station_id":"","pricing_plan_id":"cebpf4jnsgd1na2vs0mg"},{"bike_id":"3213665e-989c-4d22-9f5a-31c8522597dd","system_id":"levelo_inurba_marseille","lat":43.296,"lon":5.36142,"is_reserved":false,"is_disabled":false,"rental_uris":{"android":"levelo://app?vid=3213665e-989c-4d22-9f5a-31c8522597dd","ios":"levelo://app?vid=3213665e-989c-4d22-9f5a-31c8522597dd"},"vehicle_type_id":"4","last_reported":1729156191,"current_range_meters":28800,"station_id":"","pricing_plan_id":"cebpf4jnsgd1na2vs0mg"},{"bike_id":"3f211a83-46fa-4c28-b9fc-781f2ac471b9","system_id":"levelo_inurba_marseille","lat":43.30304,"lon":5.36906,"is_reserved":false,"is_disabled":false,"rental_uris":{"android":"levelo://app?vid=3f211a83-46fa-4c28-b9fc-781f2ac471b9","ios":"levelo://app?vid=3f211a83-46fa-4c28-b9fc-781f2ac471b9"},"vehicle_type_id":"4","last_reported":1729156191,"current_range_meters":36400,"station_id":"ce4bgqh2rcd13ifvqc5g","pricing_plan_id":"cebpf4jnsgd1na2vs0mg"},{"bike_id":"279e289d-9b1b-40b7-ab63-31b6f0b20953","system_id":"levelo_inurba_marseille","lat":43.33602,"lon":5.41034,"is_reserved":false,"is_disabled":false,"rental_uris":{"android":"levelo://app?vid=279e289d-9b1b-40b7-ab63-31b6f0b20953","ios":"levelo://app?vid=279e289d-9b1b-40b7-ab63-31b6f0b20953"},"vehicle_type_id":"4","last_reported":1729156191,"current_range_meters":7200,"station_id":"ce4bhqh2rcd13ifvqhmg","pricing_plan_id":"cebpf4jnsgd1na2vs0mg"},{"bike_id":"ba69c766-7b52-4df2-9a01-12b1972d425e","system_id":"levelo_inurba_marseille","lat":43.33608,"lon":5.41033,"is_reserved":false,"is_disabled":false,"rental_uris":{"android":"levelo://app?vid=ba69c766-7b52-4df2-9a01-12b1972d425e","ios":"levelo://app?vid=ba69c766-7b52-4df2-9a01-12b1972d425e"},"vehicle_type_id":"4","last_reported":1729156191,"current_range_meters":36400,"station_id":"ce4bhqh2rcd13ifvqhmg","pricing_plan_id":"cebpf4jnsgd1na2vs0mg"},{"bike_id":"c9eae638-5acd-4654-a36a-1b906214b0f3","system_id":"levelo_inurba_marseille","lat":43.25933,"lon":5.40915,"is_reserved":false,"is_disabled":false,"rental_uris":{"android":"levelo://app?vid=c9eae638-5acd-4654-a36a-1b906214b0f3","ios":"levelo://app?vid=c9eae638-5acd-4654-a36a-1b906214b0f3"},"vehicle_type_id":"4","last_reported":1729156191,"current_range_meters":32800,"station_id":"ce4bhm92rcd13ifvqglg","pricing_plan_id":"cebpf4jnsgd1na2vs0mg"},{"bike_id":"bf50d71c-390d-43f9-933f-7d7bfd69bb07","system_id":"levelo_inurba_marseille","lat":43.30558,"lon":5.36535,"is_reserved":false,"is_disabled":false,"rental_uris":{"android":"levelo://app?vid=bf50d71c-390d-43f9-933f-7d7bfd69bb07","ios":"levelo://app?vid=bf50d71c-390d-43f9-933f-7d7bfd69bb07"},"vehicle_type_id":"4","last_reported":1729156191,"current_range_meters":37600,"station_id":"ce4bgs12rcd13ifvqcag","pricing_plan_id":"cebpf4jnsgd1na2vs0mg"},{"bike_id":"1641b826-604a-4181-8231-dca386f637a6","system_id":"levelo_inurba_marseille","lat":43.23189,"lon":5.35554,"is_reserved":false,"is_disabled":false,"rental_uris":{"android":"levelo://app?vid=1641b826-604a-4181-8231-dca386f637a6","ios":"levelo://app?vid=1641b826-604a-4181-8231-dca386f637a6"},"vehicle_type_id":"4","last_reported":1729156191,"current_range_meters":35200,"station_id":"ce4bhu92rcd13ifvqi70","pricing_plan_id":"cebpf4jnsgd1na2vs0mg"},{"bike_id":"89211ee2-076f-4df3-92bd-cd8885f2e76d","system_id":"levelo_inurba_marseille","lat":43.23194,"lon":5.35563,"is_reserved":false,"is_disabled":false,"rental_uris":{"android":"levelo://app?vid=89211ee2-076f-4df3-92bd-cd8885f2e76d","ios":"levelo://app?vid=89211ee2-076f-4df3-92bd-cd8885f2e76d"},"vehicle_type_id":"4","last_reported":1729156191,"current_range_meters":34000,"station_id":"ce4bhu92rcd13ifvqi70","pricing_plan_id":"cebpf4jnsgd1na2vs0mg"},{"bike_id":"22ee74a2-7428-4203-800f-11a417fac485","system_id":"levelo_inurba_marseille","lat":43.27179,"lon":5.40993,"is_reserved":false,"is_disabled":false,"rental_uris":{"android":"levelo://app?vid=22ee74a2-7428-4203-800f-11a417fac485","ios":"levelo://app?vid=22ee74a2-7428-4203-800f-11a417fac485"},"vehicle_type_id":"4","last_reported":1729156191,"current_range_meters":10800,"station_id":"ce4bhl12rcd13ifvqgf0","pricing_plan_id":"cebpf4jnsgd1na2vs0mg"},{"bike_id":"48e6c989-8e4e-4330-9315-8bc9e5c40a82","system_id":"levelo_inurba_marseille","lat":43.30303,"lon":5.36902,"is_reserved":false,"is_disabled":false,"rental_uris":{"android":"levelo://app?vid=48e6c989-8e4e-4330-9315-8bc9e5c40a82","ios":"levelo://app?vid=48e6c989-8e4e-4330-9315-8bc9e5c40a82"},"vehicle_type_id":"4","last_reported":1729156191,"current_range_meters":15200,"station_id":"ce4bgqh2rcd13ifvqc5g","pricing_plan_id":"cebpf4jnsgd1na2vs0mg"},{"bike_id":"32a49fe8-5752-4e25-9677-224e653ef32f","system_id":"levelo_inurba_marseille","lat":43.24087,"lon":5.37748,"is_reserved":false,"is_disabled":false,"rental_uris":{"android":"levelo://app?vid=32a49fe8-5752-4e25-9677-224e653ef32f","ios":"levelo://app?vid=32a49fe8-5752-4e25-9677-224e653ef32f"},"vehicle_type_id":"4","last_reported":1729156191,"current_range_meters":19600,"station_id":"ce4bhnp2rcd13ifvqgvg","pricing_plan_id":"cebpf4jnsgd1na2vs0mg"},{"bike_id":"d39a5687-1116-472f-a8fb-62c0d09c90d0","system_id":"levelo_inurba_marseille","lat":43.23152,"lon":5.43711,"is_reserved":false,"is_disabled":false,"rental_uris":{"android":"levelo://app?vid=d39a5687-1116-472f-a8fb-62c0d09c90d0","ios":"levelo://app?vid=d39a5687-1116-472f-a8fb-62c0d09c90d0"},"vehicle_type_id":"4","last_reported":1729156191,"current_range_meters":37600,"station_id":"ce4bhmp2rcd13ifvqgog","pricing_plan_id":"cebpf4jnsgd1na2vs0mg"},{"bike_id":"c5628294-0cf6-459c-a2a4-0632c9b45036","system_id":"levelo_inurba_marseille","lat":43.24813,"lon":5.37459,"is_reserved":false,"is_disabled":false,"rental_uris":{"android":"levelo://app?vid=c5628294-0cf6-459c-a2a4-0632c9b45036","ios":"levelo://app?vid=c5628294-0cf6-459c-a2a4-0632c9b45036"},"vehicle_type_id":"4","last_reported":1729156191,"current_range_meters":28000,"station_id":"ce4bhgh2rcd13ifvqfb0","pricing_plan_id":"cebpf4jnsgd1na2vs0mg"},{"bike_id":"f6c37cde-0469-4a60-a636-b7fab523dcaa","system_id":"levelo_inurba_marseille","lat":43.29528,"lon":5.37497,"is_reserved":false,"is_disabled":false,"rental_uris":{"android":"levelo://app?vid=f6c37cde-0469-4a60-a636-b7fab523dcaa","ios":"levelo://app?vid=f6c37cde-0469-4a60-a636-b7fab523dcaa"},"vehicle_type_id":"4","last_reported":1729156191,"current_range_meters":30000,"station_id":"ce4bgkp2rcd13ifvqbmg","pricing_plan_id":"cebpf4jnsgd1na2vs0mg"},{"bike_id":"67feae24-cb8e-4f7f-843f-bb88b23dff0b","system_id":"levelo_inurba_marseille","lat":43.30539,"lon":5.38422,"is_reserved":false,"is_disabled":false,"rental_uris":{"android":"levelo://app?vid=67feae24-cb8e-4f7f-843f-bb88b23dff0b","ios":"levelo://app?vid=67feae24-cb8e-4f7f-843f-bb88b23dff0b"},"vehicle_type_id":"4","last_reported":1729156191,"current_range_meters":38000,"station_id":"ce4bgg92rcd13ifvqb30","pricing_plan_id":"cebpf4jnsgd1na2vs0mg"},{"bike_id":"87440bd7-4730-412f-b52f-03b263c3d6ba","system_id":"levelo_inurba_marseille","lat":43.23197,"lon":5.35555,"is_reserved":false,"is_disabled":false,"rental_uris":{"android":"levelo://app?vid=87440bd7-4730-412f-b52f-03b263c3d6ba","ios":"levelo://app?vid=87440bd7-4730-412f-b52f-03b263c3d6ba"},"vehicle_type_id":"4","last_reported":1729156191,"current_range_meters":20000,"station_id":"ce4bhu92rcd13ifvqi70","pricing_plan_id":"cebpf4jnsgd1na2vs0mg"},{"bike_id":"8937c157-fc3b-4704-af92-e339d8163a54","system_id":"levelo_inurba_marseille","lat":43.29587,"lon":5.36735,"is_reserved":false,"is_disabled":false,"rental_uris":{"android":"levelo://app?vid=8937c157-fc3b-4704-af92-e339d8163a54","ios":"levelo://app?vid=8937c157-fc3b-4704-af92-e339d8163a54"},"vehicle_type_id":"4","last_reported":1729156191,"current_range_meters":24000,"station_id":"ce4bgph2rcd13ifvqc2g","pricing_plan_id":"cebpf4jnsgd1na2vs0mg"},{"bike_id":"336ba3c8-57e7-4493-bcb9-fcee5ee43069","system_id":"levelo_inurba_marseille","lat":43.29622,"lon":5.37727,"is_reserved":false,"is_disabled":false,"rental_uris":{"android":"levelo://app?vid=336ba3c8-57e7-4493-bcb9-fcee5ee43069","ios":"levelo://app?vid=336ba3c8-57e7-4493-bcb9-fcee5ee43069"},"vehicle_type_id":"4","last_reported":1729156191,"current_range_meters":38000,"station_id":"ce4bgi92rcd13ifvqb90","pricing_plan_id":"cebpf4jnsgd1na2vs0mg"},{"bike_id":"d0be02d2-1ab6-43f4-be37-9a5bca71492c","system_id":"levelo_inurba_marseille","lat":43.30144,"lon":5.37414,"is_reserved":false,"is_disabled":false,"rental_uris":{"android":"levelo://app?vid=d0be02d2-1ab6-43f4-be37-9a5bca71492c","ios":"levelo://app?vid=d0be02d2-1ab6-43f4-be37-9a5bca71492c"},"vehicle_type_id":"4","last_reported":1729156191,"current_range_meters":36400,"station_id":"ce4bgs92rcd13ifvqcc0","pricing_plan_id":"cebpf4jnsgd1na2vs0mg"},{"bike_id":"1cca636a-c576-43f7-8743-4d39138c380b","system_id":"levelo_inurba_marseille","lat":43.30156,"lon":5.37426,"is_reserved":false,"is_disabled":false,"rental_uris":{"android":"levelo://app?vid=1cca636a-c576-43f7-8743-4d39138c380b","ios":"levelo://app?vid=1cca636a-c576-43f7-8743-4d39138c380b"},"vehicle_type_id":"4","last_reported":1729156191,"current_range_meters":14800,"station_id":"ce4bgs92rcd13ifvqcc0","pricing_plan_id":"cebpf4jnsgd1na2vs0mg"},{"bike_id":"4ca96806-40c7-441e-b77e-39452841df29","system_id":"levelo_inurba_marseille","lat":43.26947,"lon":5.38638,"is_reserved":false,"is_disabled":false,"rental_uris":{"android":"levelo://app?vid=4ca96806-40c7-441e-b77e-39452841df29","ios":"levelo://app?vid=4ca96806-40c7-441e-b77e-39452841df29"},"vehicle_type_id":"4","last_reported":1729156191,"current_range_meters":22800,"station_id":"ce4bhh92rcd13ifvqfh0","pricing_plan_id":"cebpf4jnsgd1na2vs0mg"},{"bike_id":"8aa3e657-627a-46c4-9b12-f9209866bf38","system_id":"levelo_inurba_marseille","lat":43.29844,"lon":5.36268,"is_reserved":false,"is_disabled":false,"rental_uris":{"android":"levelo://app?vid=8aa3e657-627a-46c4-9b12-f9209866bf38","ios":"levelo://app?vid=8aa3e657-627a-46c4-9b12-f9209866bf38"},"vehicle_type_id":"4","last_reported":1729156191,"current_range_meters":24400,"station_id":"ce4bgpp2rcd13ifvqc3g","pricing_plan_id":"cebpf4jnsgd1na2vs0mg"},{"bike_id":"76f97a37-6d0d-4f0b-b7be-162e1d446166","system_id":"levelo_inurba_marseille","lat":43.28073,"lon":5.39657,"is_reserved":false,"is_disabled":false,"rental_uris":{"android":"levelo://app?vid=76f97a37-6d0d-4f0b-b7be-162e1d446166","ios":"levelo://app?vid=76f97a37-6d0d-4f0b-b7be-162e1d446166"},"vehicle_type_id":"4","last_reported":1729156191,"current_range_meters":38000,"station_id":"ce4bho12rcd13ifvqh2g","pricing_plan_id":"cebpf4jnsgd1na2vs0mg"},{"bike_id":"49c3db25-f66c-4541-ad54-af787a8b9e0e","system_id":"levelo_inurba_marseille","lat":43.27175,"lon":5.40987,"is_reserved":false,"is_disabled":false,"rental_uris":{"android":"levelo://app?vid=49c3db25-f66c-4541-ad54-af787a8b9e0e","ios":"levelo://app?vid=49c3db25-f66c-4541-ad54-af787a8b9e0e"},"vehicle_type_id":"4","last_reported":1729156191,"current_range_meters":19600,"station_id":"ce4bhl12rcd13ifvqgf0","pricing_plan_id":"cebpf4jnsgd1na2vs0mg"},{"bike_id":"06649740-56ca-45ff-aa1e-d0d35fb0cf27","system_id":"levelo_inurba_marseille","lat":43.25581,"lon":5.38243,"is_reserved":false,"is_disabled":false,"rental_uris":{"android":"levelo://app?vid=06649740-56ca-45ff-aa1e-d0d35fb0cf27","ios":"levelo://app?vid=06649740-56ca-45ff-aa1e-d0d35fb0cf27"},"vehicle_type_id":"4","last_reported":1729156191,"current_range_meters":24800,"station_id":"ce4bhih2rcd13ifvqfs0","pricing_plan_id":"cebpf4jnsgd1na2vs0mg"},{"bike_id":"f089d4a1-7823-433a-a1c5-4fe27519edd0","system_id":"levelo_inurba_marseille","lat":43.23965,"lon":5.36631,"is_reserved":false,"is_disabled":false,"rental_uris":{"android":"levelo://app?vid=f089d4a1-7823-433a-a1c5-4fe27519edd0","ios":"levelo://app?vid=f089d4a1-7823-433a-a1c5-4fe27519edd0"},"vehicle_type_id":"4","last_reported":1729156191,"current_range_meters":36000,"station_id":"ce4bhi12rcd13ifvqfp0","pricing_plan_id":"cebpf4jnsgd1na2vs0mg"},{"bike_id":"cd1de890-fdf5-4589-a195-980771ff4335","system_id":"levelo_inurba_marseille","lat":43.23151,"lon":5.4371,"is_reserved":false,"is_disabled":false,"rental_uris":{"android":"levelo://app?vid=cd1de890-fdf5-4589-a195-980771ff4335","ios":"levelo://app?vid=cd1de890-fdf5-4589-a195-980771ff4335"},"vehicle_type_id":"4","last_reported":1729156191,"current_range_meters":38800,"station_id":"ce4bhmp2rcd13ifvqgog","pricing_plan_id":"cebpf4jnsgd1na2vs0mg"},{"bike_id":"1873aaed-de74-45c2-ad2c-aacd7ba4370d","system_id":"levelo_inurba_marseille","lat":43.24178,"lon":5.39735,"is_reserved":false,"is_disabled":false,"rental_uris":{"android":"levelo://app?vid=1873aaed-de74-45c2-ad2c-aacd7ba4370d","ios":"levelo://app?vid=1873aaed-de74-45c2-ad2c-aacd7ba4370d"},"vehicle_type_id":"4","last_reported":1729156191,"current_range_meters":22000,"station_id":"ce4bhn12rcd13ifvqgpg","pricing_plan_id":"cebpf4jnsgd1na2vs0mg"},{"bike_id":"53f11546-ee0f-4227-921a-a57d93ed79b4","system_id":"levelo_inurba_marseille","lat":43.23156,"lon":5.43708,"is_reserved":false,"is_disabled":false,"rental_uris":{"android":"levelo://app?vid=53f11546-ee0f-4227-921a-a57d93ed79b4","ios":"levelo://app?vid=53f11546-ee0f-4227-921a-a57d93ed79b4"},"vehicle_type_id":"4","last_reported":1729156191,"current_range_meters":23200,"station_id":"ce4bhmp2rcd13ifvqgog","pricing_plan_id":"cebpf4jnsgd1na2vs0mg"},{"bike_id":"648b6b48-311f-4c42-aa8d-803f0a68a464","system_id":"levelo_inurba_marseille","lat":43.33611,"lon":5.41028,"is_reserved":false,"is_disabled":false,"rental_uris":{"android":"levelo://app?vid=648b6b48-311f-4c42-aa8d-803f0a68a464","ios":"levelo://app?vid=648b6b48-311f-4c42-aa8d-803f0a68a464"},"vehicle_type_id":"4","last_reported":1729156191,"current_range_meters":22000,"station_id":"ce4bhqh2rcd13ifvqhmg","pricing_plan_id":"cebpf4jnsgd1na2vs0mg"},{"bike_id":"25f491e5-d0ff-4e5e-94b3-5535a7d3231b","system_id":"levelo_inurba_marseille","lat":43.24546,"lon":5.39528,"is_reserved":false,"is_disabled":false,"rental_uris":{"android":"levelo://app?vid=25f491e5-d0ff-4e5e-94b3-5535a7d3231b","ios":"levelo://app?vid=25f491e5-d0ff-4e5e-94b3-5535a7d3231b"},"vehicle_type_id":"4","last_reported":1729156191,"current_range_meters":38800,"station_id":"ce4bhlp2rcd13ifvqgjg","pricing_plan_id":"cebpf4jnsgd1na2vs0mg"},{"bike_id":"5989016e-b932-4157-a83f-d0dee98f1f7a","system_id":"levelo_inurba_marseille","lat":43.30539,"lon":5.36537,"is_reserved":false,"is_disabled":false,"rental_uris":{"android":"levelo://app?vid=5989016e-b932-4157-a83f-d0dee98f1f7a","ios":"levelo://app?vid=5989016e-b932-4157-a83f-d0dee98f1f7a"},"vehicle_type_id":"4","last_reported":1729156191,"current_range_meters":38800,"station_id":"ce4bgs12rcd13ifvqcag","pricing_plan_id":"cebpf4jnsgd1na2vs0mg"},{"bike_id":"f5975b0a-70fb-4fa4-b844-2543247ddda0","system_id":"levelo_inurba_marseille","lat":43.24543,"lon":5.39527,"is_reserved":false,"is_disabled":false,"rental_uris":{"android":"levelo://app?vid=f5975b0a-70fb-4fa4-b844-2543247ddda0","ios":"levelo://app?vid=f5975b0a-70fb-4fa4-b844-2543247ddda0"},"vehicle_type_id":"4","last_reported":1729156191,"current_range_meters":40000,"station_id":"ce4bhlp2rcd13ifvqgjg","pricing_plan_id":"cebpf4jnsgd1na2vs0mg"},{"bike_id":"06bb7500-aaac-4ac4-af5f-b0d62ba39584","system_id":"levelo_inurba_marseille","lat":43.30911,"lon":5.3686,"is_reserved":false,"is_disabled":false,"rental_uris":{"android":"levelo://app?vid=06bb7500-aaac-4ac4-af5f-b0d62ba39584","ios":"levelo://app?vid=06bb7500-aaac-4ac4-af5f-b0d62ba39584"},"vehicle_type_id":"4","last_reported":1729156191,"current_range_meters":27200,"station_id":"ce4bgn92rcd13ifvqbvg","pricing_plan_id":"cebpf4jnsgd1na2vs0mg"},{"bike_id":"79c1f570-1b26-400d-b995-045bcdfbe785","system_id":"levelo_inurba_marseille","lat":43.2695,"lon":5.38634,"is_reserved":false,"is_disabled":false,"rental_uris":{"android":"levelo://app?vid=79c1f570-1b26-400d-b995-045bcdfbe785","ios":"levelo://app?vid=79c1f570-1b26-400d-b995-045bcdfbe785"},"vehicle_type_id":"4","last_reported":1729156191,"current_range_meters":2800,"station_id":"ce4bhh92rcd13ifvqfh0","pricing_plan_id":"cebpf4jnsgd1na2vs0mg"},{"bike_id":"f66f225b-c5ea-405e-af04-a1d8cc867613","system_id":"levelo_inurba_marseille","lat":43.29584,"lon":5.36732,"is_reserved":false,"is_disabled":false,"rental_uris":{"android":"levelo://app?vid=f66f225b-c5ea-405e-af04-a1d8cc867613","ios":"levelo://app?vid=f66f225b-c5ea-405e-af04-a1d8cc867613"},"vehicle_type_id":"4","last_reported":1729156191,"current_range_meters":17200,"station_id":"ce4bgph2rcd13ifvqc2g","pricing_plan_id":"cebpf4jnsgd1na2vs0mg"},{"bike_id":"5b7d217b-b6a3-48b2-a7c0-1e484eaaea02","system_id":"levelo_inurba_marseille","lat":43.25941,"lon":5.40895,"is_reserved":false,"is_disabled":false,"rental_uris":{"android":"levelo://app?vid=5b7d217b-b6a3-48b2-a7c0-1e484eaaea02","ios":"levelo://app?vid=5b7d217b-b6a3-48b2-a7c0-1e484eaaea02"},"vehicle_type_id":"4","last_reported":1729156191,"current_range_meters":38400,"station_id":"ce4bhm92rcd13ifvqglg","pricing_plan_id":"cebpf4jnsgd1na2vs0mg"},{"bike_id":"292b9425-1372-40d4-bf0a-fe57aa779a41","system_id":"levelo_inurba_marseille","lat":43.23065,"lon":5.35492,"is_reserved":false,"is_disabled":false,"rental_uris":{"android":"levelo://app?vid=292b9425-1372-40d4-bf0a-fe57aa779a41","ios":"levelo://app?vid=292b9425-1372-40d4-bf0a-fe57aa779a41"},"vehicle_type_id":"4","last_reported":1729156191,"current_range_meters":24800,"station_id":"cpo3342slgdg3j2ifvpg","pricing_plan_id":"cebpf4jnsgd1na2vs0mg"},{"bike_id":"b3e4e513-e29e-4ed0-a4f7-d34879b9d0b5","system_id":"levelo_inurba_marseille","lat":43.291748,"lon":5.372193,"is_reserved":false,"is_disabled":false,"rental_uris":{"android":"levelo://app?vid=b3e4e513-e29e-4ed0-a4f7-d34879b9d0b5","ios":"levelo://app?vid=b3e4e513-e29e-4ed0-a4f7-d34879b9d0b5"},"vehicle_type_id":"4","last_reported":1729156191,"current_range_meters":25200,"station_id":"ce4bha92rcd13ifvqeh0","pricing_plan_id":"cebpf4jnsgd1na2vs0mg"},{"bike_id":"97f64c6a-6f11-4fd8-9478-4f99f06bfc40","system_id":"levelo_inurba_marseille","lat":43.24665,"lon":5.38174,"is_reserved":false,"is_disabled":false,"rental_uris":{"android":"levelo://app?vid=97f64c6a-6f11-4fd8-9478-4f99f06bfc40","ios":"levelo://app?vid=97f64c6a-6f11-4fd8-9478-4f99f06bfc40"},"vehicle_type_id":"4","last_reported":1729156191,"current_range_meters":17200,"station_id":"ce4bhih2rcd13ifvqfr0","pricing_plan_id":"cebpf4jnsgd1na2vs0mg"},{"bike_id":"c3cfbe2a-7ae0-4aba-b47a-8aba7ef90a5e","system_id":"levelo_inurba_marseille","lat":43.26685,"lon":5.3827,"is_reserved":false,"is_disabled":false,"rental_uris":{"android":"levelo://app?vid=c3cfbe2a-7ae0-4aba-b47a-8aba7ef90a5e","ios":"levelo://app?vid=c3cfbe2a-7ae0-4aba-b47a-8aba7ef90a5e"},"vehicle_type_id":"4","last_reported":1729156191,"current_range_meters":3600,"station_id":"ce4bhg92rcd13ifvqf90","pricing_plan_id":"cebpf4jnsgd1na2vs0mg"},{"bike_id":"5ab66e45-0165-4216-847f-4e1dfb4defc5","system_id":"levelo_inurba_marseille","lat":43.23156,"lon":5.43707,"is_reserved":false,"is_disabled":false,"rental_uris":{"android":"levelo://app?vid=5ab66e45-0165-4216-847f-4e1dfb4defc5","ios":"levelo://app?vid=5ab66e45-0165-4216-847f-4e1dfb4defc5"},"vehicle_type_id":"4","last_reported":1729156191,"current_range_meters":3600,"station_id":"ce4bhmp2rcd13ifvqgog","pricing_plan_id":"cebpf4jnsgd1na2vs0mg"},{"bike_id":"2a23ad8b-a80e-46ac-9bcc-9e473f334860","system_id":"levelo_inurba_marseille","lat":43.337444,"lon":5.374475,"is_reserved":false,"is_disabled":false,"rental_uris":{"android":"levelo://app?vid=2a23ad8b-a80e-46ac-9bcc-9e473f334860","ios":"levelo://app?vid=2a23ad8b-a80e-46ac-9bcc-9e473f334860"},"vehicle_type_id":"4","last_reported":1729156191,"current_range_meters":16400,"station_id":"ce4bhop2rcd13ifvqh7g","pricing_plan_id":"cebpf4jnsgd1na2vs0mg"},{"bike_id":"1f37b7e6-9139-4ccd-a095-e8bad37eaf87","system_id":"levelo_inurba_marseille","lat":43.25935,"lon":5.40904,"is_reserved":false,"is_disabled":false,"rental_uris":{"android":"levelo://app?vid=1f37b7e6-9139-4ccd-a095-e8bad37eaf87","ios":"levelo://app?vid=1f37b7e6-9139-4ccd-a095-e8bad37eaf87"},"vehicle_type_id":"4","last_reported":1729156191,"current_range_meters":15200,"station_id":"ce4bhm92rcd13ifvqglg","pricing_plan_id":"cebpf4jnsgd1na2vs0mg"},{"bike_id":"6220ca9a-5804-4392-b70b-2bda9133765d","system_id":"levelo_inurba_marseille","lat":43.30249,"lon":5.4005,"is_reserved":false,"is_disabled":false,"rental_uris":{"android":"levelo://app?vid=6220ca9a-5804-4392-b70b-2bda9133765d","ios":"levelo://app?vid=6220ca9a-5804-4392-b70b-2bda9133765d"},"vehicle_type_id":"4","last_reported":1729156191,"current_range_meters":38000,"station_id":"ce4bgvh2rcd13ifvqcs0","pricing_plan_id":"cebpf4jnsgd1na2vs0mg"},{"bike_id":"2774b68a-59b3-4787-b785-f42a30b7cb63","system_id":"levelo_inurba_marseille","lat":43.3054,"lon":5.36551,"is_reserved":false,"is_disabled":false,"rental_uris":{"android":"levelo://app?vid=2774b68a-59b3-4787-b785-f42a30b7cb63","ios":"levelo://app?vid=2774b68a-59b3-4787-b785-f42a30b7cb63"},"vehicle_type_id":"4","last_reported":1729156191,"current_range_meters":20000,"station_id":"ce4bgs12rcd13ifvqcag","pricing_plan_id":"cebpf4jnsgd1na2vs0mg"},{"bike_id":"005117c0-90a3-4ee2-af58-362346745aa6","system_id":"levelo_inurba_marseille","lat":43.27382,"lon":5.36258,"is_reserved":false,"is_disabled":false,"rental_uris":{"android":"levelo://app?vid=005117c0-90a3-4ee2-af58-362346745aa6","ios":"levelo://app?vid=005117c0-90a3-4ee2-af58-362346745aa6"},"vehicle_type_id":"4","last_reported":1729156191,"current_range_meters":3600,"station_id":"ce4bhbh2rcd13ifvqeo0","pricing_plan_id":"cebpf4jnsgd1na2vs0mg"},{"bike_id":"bc1080d4-ad20-42fa-9ed3-27d5678423a1","system_id":"levelo_inurba_marseille","lat":43.30546,"lon":5.36539,"is_reserved":false,"is_disabled":false,"rental_uris":{"android":"levelo://app?vid=bc1080d4-ad20-42fa-9ed3-27d5678423a1","ios":"levelo://app?vid=bc1080d4-ad20-42fa-9ed3-27d5678423a1"},"vehicle_type_id":"4","last_reported":1729156191,"current_range_meters":30400,"station_id":"ce4bgs12rcd13ifvqcag","pricing_plan_id":"cebpf4jnsgd1na2vs0mg"},{"bike_id":"72e2744f-e4a7-499c-8a87-b195f764a7c2","system_id":"levelo_inurba_marseille","lat":43.299306,"lon":5.365572,"is_reserved":false,"is_disabled":false,"rental_uris":{"android":"levelo://app?vid=72e2744f-e4a7-499c-8a87-b195f764a7c2","ios":"levelo://app?vid=72e2744f-e4a7-499c-8a87-b195f764a7c2"},"vehicle_type_id":"4","last_reported":1729156191,"current_range_meters":22400,"station_id":"ce4bgm92rcd13ifvqbr0","pricing_plan_id":"cebpf4jnsgd1na2vs0mg"},{"bike_id":"e3f7c29c-576b-4c66-9d05-01127c35876a","system_id":"levelo_inurba_marseille","lat":43.30536,"lon":5.36555,"is_reserved":false,"is_disabled":false,"rental_uris":{"android":"levelo://app?vid=e3f7c29c-576b-4c66-9d05-01127c35876a","ios":"levelo://app?vid=e3f7c29c-576b-4c66-9d05-01127c35876a"},"vehicle_type_id":"4","last_reported":1729156191,"current_range_meters":18000,"station_id":"ce4bgs12rcd13ifvqcag","pricing_plan_id":"cebpf4jnsgd1na2vs0mg"},{"bike_id":"29517644-3925-4037-a649-df9870d2ec08","system_id":"levelo_inurba_marseille","lat":43.24644,"lon":5.38898,"is_reserved":false,"is_disabled":false,"rental_uris":{"android":"levelo://app?vid=29517644-3925-4037-a649-df9870d2ec08","ios":"levelo://app?vid=29517644-3925-4037-a649-df9870d2ec08"},"vehicle_type_id":"4","last_reported":1729156191,"current_range_meters":8000,"station_id":"ce4bhg12rcd13ifvqf60","pricing_plan_id":"cebpf4jnsgd1na2vs0mg"},{"bike_id":"5a673800-fe7e-445f-bd0e-ba4725b8a4e8","system_id":"levelo_inurba_marseille","lat":43.29548,"lon":5.42282,"is_reserved":false,"is_disabled":false,"rental_uris":{"android":"levelo://app?vid=5a673800-fe7e-445f-bd0e-ba4725b8a4e8","ios":"levelo://app?vid=5a673800-fe7e-445f-bd0e-ba4725b8a4e8"},"vehicle_type_id":"4","last_reported":1729156191,"current_range_meters":36400,"station_id":"ce4bhph2rcd13ifvqhdg","pricing_plan_id":"cebpf4jnsgd1na2vs0mg"},{"bike_id":"cb18119f-4d0f-49b5-b01f-5ea8d9815b24","system_id":"levelo_inurba_marseille","lat":43.32483,"lon":5.36562,"is_reserved":false,"is_disabled":false,"rental_uris":{"android":"levelo://app?vid=cb18119f-4d0f-49b5-b01f-5ea8d9815b24","ios":"levelo://app?vid=cb18119f-4d0f-49b5-b01f-5ea8d9815b24"},"vehicle_type_id":"4","last_reported":1729156191,"current_range_meters":37600,"station_id":"ce4bhs12rcd13ifvqhvg","pricing_plan_id":"cebpf4jnsgd1na2vs0mg"},{"bike_id":"41781d3d-941e-4140-a86a-14bc69c69dfd","system_id":"levelo_inurba_marseille","lat":43.24083,"lon":5.37748,"is_reserved":false,"is_disabled":false,"rental_uris":{"android":"levelo://app?vid=41781d3d-941e-4140-a86a-14bc69c69dfd","ios":"levelo://app?vid=41781d3d-941e-4140-a86a-14bc69c69dfd"},"vehicle_type_id":"4","last_reported":1729156191,"current_range_meters":14400,"station_id":"ce4bhnp2rcd13ifvqgvg","pricing_plan_id":"cebpf4jnsgd1na2vs0mg"},{"bike_id":"d7208cd9-8c6d-4658-82d6-0ea6c0f39c7f","system_id":"levelo_inurba_marseille","lat":43.3091,"lon":5.36859,"is_reserved":false,"is_disabled":false,"rental_uris":{"android":"levelo://app?vid=d7208cd9-8c6d-4658-82d6-0ea6c0f39c7f","ios":"levelo://app?vid=d7208cd9-8c6d-4658-82d6-0ea6c0f39c7f"},"vehicle_type_id":"4","last_reported":1729156191,"current_range_meters":32800,"station_id":"ce4bgn92rcd13ifvqbvg","pricing_plan_id":"cebpf4jnsgd1na2vs0mg"},{"bike_id":"9782abde-fe3c-4448-b6f1-d6114c0da7b7","system_id":"levelo_inurba_marseille","lat":43.27498,"lon":5.42456,"is_reserved":false,"is_disabled":false,"rental_uris":{"android":"levelo://app?vid=9782abde-fe3c-4448-b6f1-d6114c0da7b7","ios":"levelo://app?vid=9782abde-fe3c-4448-b6f1-d6114c0da7b7"},"vehicle_type_id":"4","last_reported":1729156191,"current_range_meters":11200,"station_id":"ce4bhn92rcd13ifvqgrg","pricing_plan_id":"cebpf4jnsgd1na2vs0mg"},{"bike_id":"a9d80141-cb04-4f88-bcc5-9763572e3517","system_id":"levelo_inurba_marseille","lat":43.23203,"lon":5.35546,"is_reserved":false,"is_disabled":false,"rental_uris":{"android":"levelo://app?vid=a9d80141-cb04-4f88-bcc5-9763572e3517","ios":"levelo://app?vid=a9d80141-cb04-4f88-bcc5-9763572e3517"},"vehicle_type_id":"4","last_reported":1729156191,"current_range_meters":34000,"station_id":"ce4bhu92rcd13ifvqi70","pricing_plan_id":"cebpf4jnsgd1na2vs0mg"},{"bike_id":"e0db5bd3-d427-4f9e-b1f3-02dd007c7e39","system_id":"levelo_inurba_marseille","lat":43.24394,"lon":5.37055,"is_reserved":false,"is_disabled":false,"rental_uris":{"android":"levelo://app?vid=e0db5bd3-d427-4f9e-b1f3-02dd007c7e39","ios":"levelo://app?vid=e0db5bd3-d427-4f9e-b1f3-02dd007c7e39"},"vehicle_type_id":"4","last_reported":1729156191,"current_range_meters":20800,"station_id":"ce4bhhh2rcd13ifvqfk0","pricing_plan_id":"cebpf4jnsgd1na2vs0mg"},{"bike_id":"35a22db4-7e9d-4709-be91-f373b0a75e57","system_id":"levelo_inurba_marseille","lat":43.33756,"lon":5.37446,"is_reserved":false,"is_disabled":false,"rental_uris":{"android":"levelo://app?vid=35a22db4-7e9d-4709-be91-f373b0a75e57","ios":"levelo://app?vid=35a22db4-7e9d-4709-be91-f373b0a75e57"},"vehicle_type_id":"4","last_reported":1729156191,"current_range_meters":33200,"station_id":"","pricing_plan_id":"cebpf4jnsgd1na2vs0mg"},{"bike_id":"d05e5e83-57af-4408-87b7-54a543310884","system_id":"levelo_inurba_marseille","lat":43.24078,"lon":5.37754,"is_reserved":false,"is_disabled":false,"rental_uris":{"android":"levelo://app?vid=d05e5e83-57af-4408-87b7-54a543310884","ios":"levelo://app?vid=d05e5e83-57af-4408-87b7-54a543310884"},"vehicle_type_id":"4","last_reported":1729156191,"current_range_meters":4000,"station_id":"ce4bhnp2rcd13ifvqgvg","pricing_plan_id":"cebpf4jnsgd1na2vs0mg"},{"bike_id":"b0a519ae-365b-44c8-bc30-ad64b3144743","system_id":"levelo_inurba_marseille","lat":43.29631,"lon":5.37713,"is_reserved":false,"is_disabled":false,"rental_uris":{"android":"levelo://app?vid=b0a519ae-365b-44c8-bc30-ad64b3144743","ios":"levelo://app?vid=b0a519ae-365b-44c8-bc30-ad64b3144743"},"vehicle_type_id":"4","last_reported":1729156191,"current_range_meters":25200,"station_id":"ce4bgi92rcd13ifvqb90","pricing_plan_id":"cebpf4jnsgd1na2vs0mg"},{"bike_id":"9d390ee7-a6b9-4cda-87ae-9e6fd6b700b2","system_id":"levelo_inurba_marseille","lat":43.30541,"lon":5.36555,"is_reserved":false,"is_disabled":false,"rental_uris":{"android":"levelo://app?vid=9d390ee7-a6b9-4cda-87ae-9e6fd6b700b2","ios":"levelo://app?vid=9d390ee7-a6b9-4cda-87ae-9e6fd6b700b2"},"vehicle_type_id":"4","last_reported":1729156191,"current_range_meters":34000,"station_id":"ce4bgs12rcd13ifvqcag","pricing_plan_id":"cebpf4jnsgd1na2vs0mg"},{"bike_id":"4ce6a8a4-f543-406e-9b3b-bf69a485e2ff","system_id":"levelo_inurba_marseille","lat":43.2465,"lon":5.3889,"is_reserved":false,"is_disabled":false,"rental_uris":{"android":"levelo://app?vid=4ce6a8a4-f543-406e-9b3b-bf69a485e2ff","ios":"levelo://app?vid=4ce6a8a4-f543-406e-9b3b-bf69a485e2ff"},"vehicle_type_id":"4","last_reported":1729156191,"current_range_meters":32000,"station_id":"ce4bhg12rcd13ifvqf60","pricing_plan_id":"cebpf4jnsgd1na2vs0mg"},{"bike_id":"0b3e7fd6-2511-4337-b5d2-b8304124bef5","system_id":"levelo_inurba_marseille","lat":43.25934,"lon":5.40914,"is_reserved":false,"is_disabled":false,"rental_uris":{"android":"levelo://app?vid=0b3e7fd6-2511-4337-b5d2-b8304124bef5","ios":"levelo://app?vid=0b3e7fd6-2511-4337-b5d2-b8304124bef5"},"vehicle_type_id":"4","last_reported":1729156191,"current_range_meters":25600,"station_id":"ce4bhm92rcd13ifvqglg","pricing_plan_id":"cebpf4jnsgd1na2vs0mg"},{"bike_id":"d0fca0cd-a7d1-4aa3-b124-3197a9920e76","system_id":"levelo_inurba_marseille","lat":43.25936,"lon":5.40911,"is_reserved":false,"is_disabled":false,"rental_uris":{"android":"levelo://app?vid=d0fca0cd-a7d1-4aa3-b124-3197a9920e76","ios":"levelo://app?vid=d0fca0cd-a7d1-4aa3-b124-3197a9920e76"},"vehicle_type_id":"4","last_reported":1729156191,"current_range_meters":15200,"station_id":"ce4bhm92rcd13ifvqglg","pricing_plan_id":"cebpf4jnsgd1na2vs0mg"},{"bike_id":"4d28ec3f-5f35-40d0-be6d-4cffab2acfb2","system_id":"levelo_inurba_marseille","lat":43.26063,"lon":5.39401,"is_reserved":false,"is_disabled":false,"rental_uris":{"android":"levelo://app?vid=4d28ec3f-5f35-40d0-be6d-4cffab2acfb2","ios":"levelo://app?vid=4d28ec3f-5f35-40d0-be6d-4cffab2acfb2"},"vehicle_type_id":"4","last_reported":1729156191,"current_range_meters":20000,"station_id":"ce4bhh92rcd13ifvqfj0","pricing_plan_id":"cebpf4jnsgd1na2vs0mg"},{"bike_id":"d41309ab-1a1f-4395-acaa-455483c3f8e1","system_id":"levelo_inurba_marseille","lat":43.23194,"lon":5.35559,"is_reserved":false,"is_disabled":false,"rental_uris":{"android":"levelo://app?vid=d41309ab-1a1f-4395-acaa-455483c3f8e1","ios":"levelo://app?vid=d41309ab-1a1f-4395-acaa-455483c3f8e1"},"vehicle_type_id":"4","last_reported":1729156191,"current_range_meters":36800,"station_id":"ce4bhu92rcd13ifvqi70","pricing_plan_id":"cebpf4jnsgd1na2vs0mg"},{"bike_id":"a9baa93b-867a-4662-b119-a017ffb638ae","system_id":"levelo_inurba_marseille","lat":43.27209,"lon":5.39187,"is_reserved":false,"is_disabled":false,"rental_uris":{"android":"levelo://app?vid=a9baa93b-867a-4662-b119-a017ffb638ae","ios":"levelo://app?vid=a9baa93b-867a-4662-b119-a017ffb638ae"},"vehicle_type_id":"4","last_reported":1729156191,"current_range_meters":29600,"station_id":"ce4bhhp2rcd13ifvqfm0","pricing_plan_id":"cebpf4jnsgd1na2vs0mg"},{"bike_id":"43ab12a3-3951-4cee-a705-9d0568682849","system_id":"levelo_inurba_marseille","lat":43.3053,"lon":5.36704,"is_reserved":false,"is_disabled":false,"rental_uris":{"android":"levelo://app?vid=43ab12a3-3951-4cee-a705-9d0568682849","ios":"levelo://app?vid=43ab12a3-3951-4cee-a705-9d0568682849"},"vehicle_type_id":"4","last_reported":1729156191,"current_range_meters":28000,"station_id":"ce4bgrp2rcd13ifvqc9g","pricing_plan_id":"cebpf4jnsgd1na2vs0mg"},{"bike_id":"2dd21b36-b488-441a-a25c-f8c2af01cc94","system_id":"levelo_inurba_marseille","lat":43.30547,"lon":5.36544,"is_reserved":false,"is_disabled":false,"rental_uris":{"android":"levelo://app?vid=2dd21b36-b488-441a-a25c-f8c2af01cc94","ios":"levelo://app?vid=2dd21b36-b488-441a-a25c-f8c2af01cc94"},"vehicle_type_id":"4","last_reported":1729156191,"current_range_meters":27200,"station_id":"ce4bgs12rcd13ifvqcag","pricing_plan_id":"cebpf4jnsgd1na2vs0mg"},{"bike_id":"539f318a-5ce8-409b-8fa5-e3a2a014621b","system_id":"levelo_inurba_marseille","lat":43.31358,"lon":5.36709,"is_reserved":false,"is_disabled":false,"rental_uris":{"android":"levelo://app?vid=539f318a-5ce8-409b-8fa5-e3a2a014621b","ios":"levelo://app?vid=539f318a-5ce8-409b-8fa5-e3a2a014621b"},"vehicle_type_id":"4","last_reported":1729156191,"current_range_meters":31200,"station_id":"ce4bgr92rcd13ifvqc6g","pricing_plan_id":"cebpf4jnsgd1na2vs0mg"},{"bike_id":"a0c122e3-af93-4618-bbe9-09704639de9c","system_id":"levelo_inurba_marseille","lat":43.25928,"lon":5.40906,"is_reserved":false,"is_disabled":false,"rental_uris":{"android":"levelo://app?vid=a0c122e3-af93-4618-bbe9-09704639de9c","ios":"levelo://app?vid=a0c122e3-af93-4618-bbe9-09704639de9c"},"vehicle_type_id":"4","last_reported":1729156191,"current_range_meters":16800,"station_id":"ce4bhm92rcd13ifvqglg","pricing_plan_id":"cebpf4jnsgd1na2vs0mg"},{"bike_id":"5df4d71d-43e9-4c24-af5c-712498272190","system_id":"levelo_inurba_marseille","lat":43.29073,"lon":5.37166,"is_reserved":false,"is_disabled":false,"rental_uris":{"android":"levelo://app?vid=5df4d71d-43e9-4c24-af5c-712498272190","ios":"levelo://app?vid=5df4d71d-43e9-4c24-af5c-712498272190"},"vehicle_type_id":"4","last_reported":1729156191,"current_range_meters":32400,"station_id":"ce4bh5p2rcd13ifvqe4g","pricing_plan_id":"cebpf4jnsgd1na2vs0mg"},{"bike_id":"8c044313-cc05-475e-9acf-a7107334639e","system_id":"levelo_inurba_marseille","lat":43.27495,"lon":5.42454,"is_reserved":false,"is_disabled":false,"rental_uris":{"android":"levelo://app?vid=8c044313-cc05-475e-9acf-a7107334639e","ios":"levelo://app?vid=8c044313-cc05-475e-9acf-a7107334639e"},"vehicle_type_id":"4","last_reported":1729156191,"current_range_meters":7200,"station_id":"ce4bhn92rcd13ifvqgrg","pricing_plan_id":"cebpf4jnsgd1na2vs0mg"},{"bike_id":"c034bb6e-bc71-4d55-bc8f-ba63cd332fe3","system_id":"levelo_inurba_marseille","lat":43.2315,"lon":5.43721,"is_reserved":false,"is_disabled":false,"rental_uris":{"android":"levelo://app?vid=c034bb6e-bc71-4d55-bc8f-ba63cd332fe3","ios":"levelo://app?vid=c034bb6e-bc71-4d55-bc8f-ba63cd332fe3"},"vehicle_type_id":"4","last_reported":1729156191,"current_range_meters":24400,"station_id":"ce4bhmp2rcd13ifvqgog","pricing_plan_id":"cebpf4jnsgd1na2vs0mg"},{"bike_id":"2be1b2e9-b064-468e-b0ab-5c4bdc840ec0","system_id":"levelo_inurba_marseille","lat":43.313637,"lon":5.367163,"is_reserved":false,"is_disabled":false,"rental_uris":{"android":"levelo://app?vid=2be1b2e9-b064-468e-b0ab-5c4bdc840ec0","ios":"levelo://app?vid=2be1b2e9-b064-468e-b0ab-5c4bdc840ec0"},"vehicle_type_id":"4","last_reported":1729156191,"current_range_meters":12400,"station_id":"ce4bgr92rcd13ifvqc6g","pricing_plan_id":"cebpf4jnsgd1na2vs0mg"},{"bike_id":"033a7f68-f273-426e-84a9-8a3b2c56f6f5","system_id":"levelo_inurba_marseille","lat":43.35095,"lon":5.36803,"is_reserved":false,"is_disabled":false,"rental_uris":{"android":"levelo://app?vid=033a7f68-f273-426e-84a9-8a3b2c56f6f5","ios":"levelo://app?vid=033a7f68-f273-426e-84a9-8a3b2c56f6f5"},"vehicle_type_id":"4","last_reported":1729156191,"current_range_meters":11200,"station_id":"","pricing_plan_id":"cebpf4jnsgd1na2vs0mg"},{"bike_id":"280904e7-63d8-4281-8d15-d4f8afd3cb20","system_id":"levelo_inurba_marseille","lat":43.26684,"lon":5.38271,"is_reserved":false,"is_disabled":false,"rental_uris":{"android":"levelo://app?vid=280904e7-63d8-4281-8d15-d4f8afd3cb20","ios":"levelo://app?vid=280904e7-63d8-4281-8d15-d4f8afd3cb20"},"vehicle_type_id":"4","last_reported":1729156191,"current_range_meters":28400,"station_id":"ce4bhg92rcd13ifvqf90","pricing_plan_id":"cebpf4jnsgd1na2vs0mg"},{"bike_id":"0e368b35-d389-4bb6-9714-803631cb31b4","system_id":"levelo_inurba_marseille","lat":43.30912,"lon":5.36858,"is_reserved":false,"is_disabled":false,"rental_uris":{"android":"levelo://app?vid=0e368b35-d389-4bb6-9714-803631cb31b4","ios":"levelo://app?vid=0e368b35-d389-4bb6-9714-803631cb31b4"},"vehicle_type_id":"4","last_reported":1729156191,"current_range_meters":20800,"station_id":"ce4bgn92rcd13ifvqbvg","pricing_plan_id":"cebpf4jnsgd1na2vs0mg"},{"bike_id":"1af2813b-98a0-4b62-aaf8-89652b30f639","system_id":"levelo_inurba_marseille","lat":43.22934,"lon":5.35385,"is_reserved":false,"is_disabled":false,"rental_uris":{"android":"levelo://app?vid=1af2813b-98a0-4b62-aaf8-89652b30f639","ios":"levelo://app?vid=1af2813b-98a0-4b62-aaf8-89652b30f639"},"vehicle_type_id":"4","last_reported":1729156191,"current_range_meters":19600,"station_id":"cpo3532slgdg3j2ikp40","pricing_plan_id":"cebpf4jnsgd1na2vs0mg"},{"bike_id":"e9c7f9fc-b1e5-43b0-8828-fe7f420651b6","system_id":"levelo_inurba_marseille","lat":43.29549,"lon":5.42286,"is_reserved":false,"is_disabled":false,"rental_uris":{"android":"levelo://app?vid=e9c7f9fc-b1e5-43b0-8828-fe7f420651b6","ios":"levelo://app?vid=e9c7f9fc-b1e5-43b0-8828-fe7f420651b6"},"vehicle_type_id":"4","last_reported":1729156191,"current_range_meters":33200,"station_id":"ce4bhph2rcd13ifvqhdg","pricing_plan_id":"cebpf4jnsgd1na2vs0mg"},{"bike_id":"e7e9a469-cbf7-46c4-ad64-4721a8aad91d","system_id":"levelo_inurba_marseille","lat":43.304135,"lon":5.388034,"is_reserved":false,"is_disabled":false,"rental_uris":{"android":"levelo://app?vid=e7e9a469-cbf7-46c4-ad64-4721a8aad91d","ios":"levelo://app?vid=e7e9a469-cbf7-46c4-ad64-4721a8aad91d"},"vehicle_type_id":"4","last_reported":1729156191,"current_range_meters":18000,"station_id":"ce4bhph2rcd13ifvqhdg","pricing_plan_id":"cebpf4jnsgd1na2vs0mg"},{"bike_id":"179d7998-a28c-4c6e-a6ef-c06ea79f480d","system_id":"levelo_inurba_marseille","lat":43.30197,"lon":5.36626,"is_reserved":false,"is_disabled":false,"rental_uris":{"android":"levelo://app?vid=179d7998-a28c-4c6e-a6ef-c06ea79f480d","ios":"levelo://app?vid=179d7998-a28c-4c6e-a6ef-c06ea79f480d"},"vehicle_type_id":"4","last_reported":1729156191,"current_range_meters":28400,"station_id":"ce4bgrh2rcd13ifvqc8g","pricing_plan_id":"cebpf4jnsgd1na2vs0mg"},{"bike_id":"f93454e1-a669-4c63-a4ca-b572042c7971","system_id":"levelo_inurba_marseille","lat":43.23191,"lon":5.35561,"is_reserved":false,"is_disabled":false,"rental_uris":{"android":"levelo://app?vid=f93454e1-a669-4c63-a4ca-b572042c7971","ios":"levelo://app?vid=f93454e1-a669-4c63-a4ca-b572042c7971"},"vehicle_type_id":"4","last_reported":1729156191,"current_range_meters":15200,"station_id":"ce4bhu92rcd13ifvqi70","pricing_plan_id":"cebpf4jnsgd1na2vs0mg"},{"bike_id":"5991a3d2-0cb9-494d-b3ed-321a28cd7251","system_id":"levelo_inurba_marseille","lat":43.22932,"lon":5.3538,"is_reserved":false,"is_disabled":false,"rental_uris":{"android":"levelo://app?vid=5991a3d2-0cb9-494d-b3ed-321a28cd7251","ios":"levelo://app?vid=5991a3d2-0cb9-494d-b3ed-321a28cd7251"},"vehicle_type_id":"4","last_reported":1729156191,"current_range_meters":37600,"station_id":"cpo3532slgdg3j2ikp40","pricing_plan_id":"cebpf4jnsgd1na2vs0mg"},{"bike_id":"15d9680c-4af9-4008-9ada-537fc80cae23","system_id":"levelo_inurba_marseille","lat":43.28924,"lon":5.38403,"is_reserved":false,"is_disabled":false,"rental_uris":{"android":"levelo://app?vid=15d9680c-4af9-4008-9ada-537fc80cae23","ios":"levelo://app?vid=15d9680c-4af9-4008-9ada-537fc80cae23"},"vehicle_type_id":"4","last_reported":1729156191,"current_range_meters":17600,"station_id":"ce4bh612rcd13ifvqe6g","pricing_plan_id":"cebpf4jnsgd1na2vs0mg"},{"bike_id":"47a34cb3-c9fc-43c3-a1c5-779ae5eee241","system_id":"levelo_inurba_marseille","lat":43.31893,"lon":5.40734,"is_reserved":false,"is_disabled":false,"rental_uris":{"android":"levelo://app?vid=47a34cb3-c9fc-43c3-a1c5-779ae5eee241","ios":"levelo://app?vid=47a34cb3-c9fc-43c3-a1c5-779ae5eee241"},"vehicle_type_id":"4","last_reported":1729156191,"current_range_meters":38400,"station_id":"ce4bhq12rcd13ifvqhig","pricing_plan_id":"cebpf4jnsgd1na2vs0mg"},{"bike_id":"e3386cf0-20c5-4011-b065-8374dbc411e9","system_id":"levelo_inurba_marseille","lat":43.295381,"lon":5.381788,"is_reserved":false,"is_disabled":false,"rental_uris":{"android":"levelo://app?vid=e3386cf0-20c5-4011-b065-8374dbc411e9","ios":"levelo://app?vid=e3386cf0-20c5-4011-b065-8374dbc411e9"},"vehicle_type_id":"4","last_reported":1729156191,"current_range_meters":3200,"station_id":"ce4bgl12rcd13ifvqbo0","pricing_plan_id":"cebpf4jnsgd1na2vs0mg"},{"bike_id":"401d617b-728a-48eb-a46c-64c291dfb0af","system_id":"levelo_inurba_marseille","lat":43.29518,"lon":5.39042,"is_reserved":false,"is_disabled":false,"rental_uris":{"android":"levelo://app?vid=401d617b-728a-48eb-a46c-64c291dfb0af","ios":"levelo://app?vid=401d617b-728a-48eb-a46c-64c291dfb0af"},"vehicle_type_id":"4","last_reported":1729156191,"current_range_meters":38000,"station_id":"ce4bh3p2rcd13ifvqdp0","pricing_plan_id":"cebpf4jnsgd1na2vs0mg"},{"bike_id":"a0381083-65cb-45d1-9f62-68d73e284a6d","system_id":"levelo_inurba_marseille","lat":43.29279,"lon":5.36845,"is_reserved":false,"is_disabled":false,"rental_uris":{"android":"levelo://app?vid=a0381083-65cb-45d1-9f62-68d73e284a6d","ios":"levelo://app?vid=a0381083-65cb-45d1-9f62-68d73e284a6d"},"vehicle_type_id":"4","last_reported":1729156191,"current_range_meters":28000,"station_id":"ce4bhbp2rcd13ifvqesg","pricing_plan_id":"cebpf4jnsgd1na2vs0mg"},{"bike_id":"282be8d5-5535-4847-86c8-41c23a3305ae","system_id":"levelo_inurba_marseille","lat":43.31359,"lon":5.36706,"is_reserved":false,"is_disabled":false,"rental_uris":{"android":"levelo://app?vid=282be8d5-5535-4847-86c8-41c23a3305ae","ios":"levelo://app?vid=282be8d5-5535-4847-86c8-41c23a3305ae"},"vehicle_type_id":"4","last_reported":1729156191,"current_range_meters":27200,"station_id":"ce4bgr92rcd13ifvqc6g","pricing_plan_id":"cebpf4jnsgd1na2vs0mg"},{"bike_id":"0c0a4b97-6821-4f94-83a2-94bdb7d90891","system_id":"levelo_inurba_marseille","lat":43.33763,"lon":5.37468,"is_reserved":false,"is_disabled":false,"rental_uris":{"android":"levelo://app?vid=0c0a4b97-6821-4f94-83a2-94bdb7d90891","ios":"levelo://app?vid=0c0a4b97-6821-4f94-83a2-94bdb7d90891"},"vehicle_type_id":"4","last_reported":1729156191,"current_range_meters":27600,"station_id":"","pricing_plan_id":"cebpf4jnsgd1na2vs0mg"},{"bike_id":"d1b95093-f2b9-4e58-b0ee-efa637a8ab7c","system_id":"levelo_inurba_marseille","lat":43.24821,"lon":5.37473,"is_reserved":false,"is_disabled":false,"rental_uris":{"android":"levelo://app?vid=d1b95093-f2b9-4e58-b0ee-efa637a8ab7c","ios":"levelo://app?vid=d1b95093-f2b9-4e58-b0ee-efa637a8ab7c"},"vehicle_type_id":"4","last_reported":1729156191,"current_range_meters":11600,"station_id":"ce4bhgh2rcd13ifvqfb0","pricing_plan_id":"cebpf4jnsgd1na2vs0mg"},