{"last_updated":1683565557,"ttl":30,"version":"2.2","data":{"bikes":[{"bike_id":"a460d740-797a-4836-a104-67765b22c20c","system_id":"levelo_inurba_marseille","lat":43.313391,"lon":5.36706,"is_reserved":false,"is_disabled":false,"rental_uris":{"android":"levelo://app?vid=a460d740-797a-4836-a104-67765b22c20c","ios":"levelo://app?vid=a460d740-797a-4836-a104-67765b22c20c"},"vehicle_type_id":"4","last_reported":1683565557,"current_range_meters":30400,"station_id":"ce4bgr92rcd13ifvqc6g","pricing_plan_id":"free"},{"bike_id":"18c73854-1fe5-4ae9-8823-49503e3baa2a","system_id":"levelo_inurba_marseille","lat":43.312239,"lon":5.368562,"is_reserved":false,"is_disabled":false,"rental_uris":{"android":"levelo://app?vid=18c73854-1fe5-4ae9-8823-49503e3baa2a","ios":"levelo://app?vid=18c73854-1fe5-4ae9-8823-49503e3baa2a"},"vehicle_type_id":"4","last_reported":1683565557,"current_range_meters":31600,"station_id":"ce4bgl92rcd13ifvqbq0","pricing_plan_id":"free"},{"bike_id":"d4c844fd-c8e2-4528-8b54-5d19a852e86d","system_id":"levelo_inurba_marseille","lat":43.31237,"lon":5.36852,"is_reserved":false,"is_disabled":false,"rental_uris":{"android":"levelo://app?vid=d4c844fd-c8e2-4528-8b54-5d19a852e86d","ios":"levelo://app?vid=d4c844fd-c8e2-4528-8b54-5d19a852e86d"},"vehicle_type_id":"4","last_reported":1683565557,"current_range_meters":30400,"station_id":"ce4bgl92rcd13ifvqbq0","pricing_plan_id":"free"},{"bike_id":"e9a25624-c0f3-4659-873b-232c72054f7b","system_id":"levelo_inurba_marseille","lat":43.312239,"lon":5.368562,"is_reserved":false,"is_disabled":false,"rental_uris":{"android":"levelo://app?vid=e9a25624-c0f3-4659-873b-232c72054f7b","ios":"levelo://app?vid=e9a25624-c0f3-4659-873b-232c72054f7b"},"vehicle_type_id":"4","last_reported":1683565557,"current_range_meters":22400,"station_id":"ce4bgl92rcd13ifvqbq0","pricing_plan_id":"free"},{"bike_id":"b95e2495-fc6f-43b2-94e5-3128774aade6","system_id":"levelo_inurba_marseille","lat":43.312239,"lon":5.368562,"is_reserved":false,"is_disabled":false,"rental_uris":{"android":"levelo://app?vid=b95e2495-fc6f-43b2-94e5-3128774aade6","ios":"levelo://app?vid=b95e2495-fc6f-43b2-94e5-3128774aade6"},"vehicle_type_id":"4","last_reported":1683565557,"current_range_meters":21600,"station_id":"ce4bgl92rcd13ifvqbq0","pricing_plan_id":"free"},{"bike_id":"fc710002-a372-4213-8809-a610f48a9040","system_id":"levelo_inurba_marseille","lat":43.312239,"lon":5.368562,"is_reserved":false,"is_disabled":false,"rental_uris":{"android":"levelo://app?vid=fc710002-a372-4213-8809-a610f48a9040","ios":"levelo://app?vid=fc710002-a372-4213-8809-a610f48a9040"},"vehicle_type_id":"4","last_reported":1683565557,"current_range_meters":16000,"station_id":"ce4bgl92rcd13ifvqbq0","pricing_plan_id":"free"},{"bike_id":"6bb8ffdb-d68c-45c9-925c-c36bfb8cddcb","system_id":"levelo_inurba_marseille","lat":43.309076,"lon":5.368465,"is_reserved":false,"is_disabled":false,"rental_uris":{"android":"levelo://app?vid=6bb8ffdb-d68c-45c9-925c-c36bfb8cddcb","ios":"levelo://app?vid=6bb8ffdb-d68c-45c9-925c-c36bfb8cddcb"},"vehicle_type_id":"4","last_reported":1683565557,"current_range_meters":18800,"station_id":"ce4bgn92rcd13ifvqbvg","pricing_plan_id":"free"},{"bike_id":"d70c9b82-653a-4085-8728-02813d691fbb","system_id":"levelo_inurba_marseille","lat":43.309076,"lon":5.368465,"is_reserved":false,"is_disabled":false,"rental_uris":{"android":"levelo://app?vid=d70c9b82-653a-4085-8728-02813d691fbb","ios":"levelo://app?vid=d70c9b82-653a-4085-8728-02813d691fbb"},"vehicle_type_id":"4","last_reported":1683565557,"current_range_meters":10400,"station_id":"ce4bgn92rcd13ifvqbvg","pricing_plan_id":"free"},{"bike_id":"3a0dc016-17c7-40cd-897e-7b19072cac9f","system_id":"levelo_inurba_marseille","lat":43.308614,"lon":5.372098,"is_reserved":false,"is_disabled":false,"rental_uris":{"android":"levelo://app?vid=3a0dc016-17c7-40cd-897e-7b19072cac9f","ios":"levelo://app?vid=3a0dc016-17c7-40cd-897e-7b19072cac9f"},"vehicle_type_id":"4","last_reported":1683565557,"current_range_meters":22400,"station_id":"ce4bguh2rcd13ifvqckg","pricing_plan_id":"free"},{"bike_id":"7523a70f-033a-4e79-af78-4908d3c19595","system_id":"levelo_inurba_marseille","lat":43.308614,"lon":5.372098,"is_reserved":false,"is_disabled":false,"rental_uris":{"android":"levelo://app?vid=7523a70f-033a-4e79-af78-4908d3c19595","ios":"levelo://app?vid=7523a70f-033a-4e79-af78-4908d3c19595"},"vehicle_type_id":"4","last_reported":1683565557,"current_range_meters":400,"station_id":"ce4bguh2rcd13ifvqckg","pricing_plan_id":"free"},{"bike_id":"da381dc7-5bd2-4bcd-a0a3-25a7cf736985","system_id":"levelo_inurba_marseille","lat":43.308614,"lon":5.372098,"is_reserved":false,"is_disabled":false,"rental_uris":{"android":"levelo://app?vid=da381dc7-5bd2-4bcd-a0a3-25a7cf736985","ios":"levelo://app?vid=da381dc7-5bd2-4bcd-a0a3-25a7cf736985"},"vehicle_type_id":"4","last_reported":1683565557,"current_range_meters":31200,"station_id":"ce4bguh2rcd13ifvqckg","pricing_plan_id":"free"},{"bike_id":"a48a625a-97ca-4db2-be87-8931aa82b0f3","system_id":"levelo_inurba_marseille","lat":43.308862,"lon":5.371947,"is_reserved":false,"is_disabled":false,"rental_uris":{"android":"levelo://app?vid=a48a625a-97ca-4db2-be87-8931aa82b0f3","ios":"levelo://app?vid=a48a625a-97ca-4db2-be87-8931aa82b0f3"},"vehicle_type_id":"4","last_reported":1683565557,"current_range_meters":26800,"station_id":"","pricing_plan_id":"free"},{"bike_id":"52a1c2b9-c8d9-42ce-82f5-55a4617d0f1d","system_id":"levelo_inurba_marseille","lat":43.305706,"lon":5.365654,"is_reserved":false,"is_disabled":false,"rental_uris":{"android":"levelo://app?vid=52a1c2b9-c8d9-42ce-82f5-55a4617d0f1d","ios":"levelo://app?vid=52a1c2b9-c8d9-42ce-82f5-55a4617d0f1d"},"vehicle_type_id":"4","last_reported":1683565557,"current_range_meters":0,"station_id":"ce4bgs12rcd13ifvqcag","pricing_plan_id":"free"},{"bike_id":"24626739-5928-403c-8453-a048e5e46b23","system_id":"levelo_inurba_marseille","lat":43.30536,"lon":5.36543,"is_reserved":false,"is_disabled":false,"rental_uris":{"android":"levelo://app?vid=24626739-5928-403c-8453-a048e5e46b23","ios":"levelo://app?vid=24626739-5928-403c-8453-a048e5e46b23"},"vehicle_type_id":"4","last_reported":1683565557,"current_range_meters":400,"station_id":"","pricing_plan_id":"free"},{"bike_id":"a06d57a0-4d36-4e4a-85f6-3b26881d68f1","system_id":"levelo_inurba_marseille","lat":43.317075,"lon":5.377367,"is_reserved":false,"is_disabled":false,"rental_uris":{"android":"levelo://app?vid=a06d57a0-4d36-4e4a-85f6-3b26881d68f1","ios":"levelo://app?vid=a06d57a0-4d36-4e4a-85f6-3b26881d68f1"},"vehicle_type_id":"4","last_reported":1683565557,"current_range_meters":7600,"station_id":"ce4bgth2rcd13ifvqch0","pricing_plan_id":"free"},{"bike_id":"3a49f45a-3aa2-466e-806d-bf0ef1d3ff8e","system_id":"levelo_inurba_marseille","lat":43.317075,"lon":5.377367,"is_reserved":false,"is_disabled":false,"rental_uris":{"android":"levelo://app?vid=3a49f45a-3aa2-466e-806d-bf0ef1d3ff8e","ios":"levelo://app?vid=3a49f45a-3aa2-466e-806d-bf0ef1d3ff8e"},"vehicle_type_id":"4","last_reported":1683565557,"current_range_meters":31200,"station_id":"ce4bgth2rcd13ifvqch0","pricing_plan_id":"free"},{"bike_id":"6b92e860-772d-4eab-b62c-fc9f75e06ba0","system_id":"levelo_inurba_marseille","lat":43.303046,"lon":5.368981,"is_reserved":false,"is_disabled":false,"rental_uris":{"android":"levelo://app?vid=6b92e860-772d-4eab-b62c-fc9f75e06ba0","ios":"levelo://app?vid=6b92e860-772d-4eab-b62c-fc9f75e06ba0"},"vehicle_type_id":"4","last_reported":1683565557,"current_range_meters":29600,"station_id":"ce4bgqh2rcd13ifvqc5g","pricing_plan_id":"free"},{"bike_id":"2670b74e-9dda-431b-bc41-303baf872c7c","system_id":"levelo_inurba_marseille","lat":43.315289,"lon":5.380349,"is_reserved":false,"is_disabled":false,"rental_uris":{"android":"levelo://app?vid=2670b74e-9dda-431b-bc41-303baf872c7c","ios":"levelo://app?vid=2670b74e-9dda-431b-bc41-303baf872c7c"},"vehicle_type_id":"4","last_reported":1683565557,"current_range_meters":28400,"station_id":"ce4bhsp2rcd13ifvqi50","pricing_plan_id":"free"},{"bike_id":"278379e9-3ea3-4752-9fa5-51d24b132a79","system_id":"levelo_inurba_marseille","lat":43.315293,"lon":5.380349,"is_reserved":false,"is_disabled":false,"rental_uris":{"android":"levelo://app?vid=278379e9-3ea3-4752-9fa5-51d24b132a79","ios":"levelo://app?vid=278379e9-3ea3-4752-9fa5-51d24b132a79"},"vehicle_type_id":"4","last_reported":1683565557,"current_range_meters":30000,"station_id":"ce4bhsp2rcd13ifvqi50","pricing_plan_id":"free"},{"bike_id":"5681bfb4-3cbd-4159-a53a-1a341d6c8eeb","system_id":"levelo_inurba_marseille","lat":43.315293,"lon":5.380349,"is_reserved":false,"is_disabled":false,"rental_uris":{"android":"levelo://app?vid=5681bfb4-3cbd-4159-a53a-1a341d6c8eeb","ios":"levelo://app?vid=5681bfb4-3cbd-4159-a53a-1a341d6c8eeb"},"vehicle_type_id":"4","last_reported":1683565557,"current_range_meters":27200,"station_id":"ce4bhsp2rcd13ifvqi50","pricing_plan_id":"free"},{"bike_id":"74dc49db-f918-43ed-a8d8-199327d2e08a","system_id":"levelo_inurba_marseille","lat":43.30237,"lon":5.36473,"is_reserved":false,"is_disabled":false,"rental_uris":{"android":"levelo://app?vid=74dc49db-f918-43ed-a8d8-199327d2e08a","ios":"levelo://app?vid=74dc49db-f918-43ed-a8d8-199327d2e08a"},"vehicle_type_id":"4","last_reported":1683565557,"current_range_meters":19200,"station_id":"","pricing_plan_id":"free"},{"bike_id":"448a1aea-2c94-44c6-8ac1-28350ae36723","system_id":"levelo_inurba_marseille","lat":43.308012,"lon":5.381511,"is_reserved":false,"is_disabled":false,"rental_uris":{"android":"levelo://app?vid=448a1aea-2c94-44c6-8ac1-28350ae36723","ios":"levelo://app?vid=448a1aea-2c94-44c6-8ac1-28350ae36723"},"vehicle_type_id":"4","last_reported":1683565557,"current_range_meters":19200,"station_id":"ce4bgt12rcd13ifvqce0","pricing_plan_id":"free"},{"bike_id":"87b69ebd-c3d5-413b-863d-d1b2a67416db","system_id":"levelo_inurba_marseille","lat":43.304606,"lon":5.379026,"is_reserved":false,"is_disabled":false,"rental_uris":{"android":"levelo://app?vid=87b69ebd-c3d5-413b-863d-d1b2a67416db","ios":"levelo://app?vid=87b69ebd-c3d5-413b-863d-d1b2a67416db"},"vehicle_type_id":"4","last_reported":1683565557,"current_range_meters":10400,"station_id":"ce4bgup2rcd13ifvqcn0","pricing_plan_id":"free"},{"bike_id":"6a446190-79cc-46e2-8532-9fab08df84df","system_id":"levelo_inurba_marseille","lat":43.30144,"lon":5.37417,"is_reserved":false,"is_disabled":false,"rental_uris":{"android":"levelo://app?vid=6a446190-79cc-46e2-8532-9fab08df84df","ios":"levelo://app?vid=6a446190-79cc-46e2-8532-9fab08df84df"},"vehicle_type_id":"4","last_reported":1683565557,"current_range_meters":8800,"station_id":"","pricing_plan_id":"free"},{"bike_id":"cc1f243f-d065-4398-acb1-c501e6632e28","system_id":"levelo_inurba_marseille","lat":43.30139,"lon":5.374188,"is_reserved":false,"is_disabled":false,"rental_uris":{"android":"levelo://app?vid=cc1f243f-d065-4398-acb1-c501e6632e28","ios":"levelo://app?vid=cc1f243f-d065-4398-acb1-c501e6632e28"},"vehicle_type_id":"4","last_reported":1683565557,"current_range_meters":7200,"station_id":"ce4bgs92rcd13ifvqcc0","pricing_plan_id":"free"},{"bike_id":"7e19512e-260e-4cc7-ab65-6fb632ae7029","system_id":"levelo_inurba_marseille","lat":43.30143,"lon":5.37413,"is_reserved":false,"is_disabled":false,"rental_uris":{"android":"levelo://app?vid=7e19512e-260e-4cc7-ab65-6fb632ae7029","ios":"levelo://app?vid=7e19512e-260e-4cc7-ab65-6fb632ae7029"},"vehicle_type_id":"4","last_reported":1683565557,"current_range_meters":7200,"station_id":"ce4bgs92rcd13ifvqcc0","pricing_plan_id":"free"},{"bike_id":"1d0849d1-a7d1-4997-84e0-f9d02dcb2b96","system_id":"levelo_inurba_marseille","lat":43.313571,"lon":5.384829,"is_reserved":false,"is_disabled":false,"rental_uris":{"android":"levelo://app?vid=1d0849d1-a7d1-4997-84e0-f9d02dcb2b96","ios":"levelo://app?vid=1d0849d1-a7d1-4997-84e0-f9d02dcb2b96"},"vehicle_type_id":"4","last_reported":1683565557,"current_range_meters":13600,"station_id":"ce4bgt92rcd13ifvqcf0","pricing_plan_id":"free"},{"bike_id":"11355a26-ce04-4637-b186-e63c722271b4","system_id":"levelo_inurba_marseille","lat":43.31367,"lon":5.38519,"is_reserved":false,"is_disabled":false,"rental_uris":{"android":"levelo://app?vid=11355a26-ce04-4637-b186-e63c722271b4","ios":"levelo://app?vid=11355a26-ce04-4637-b186-e63c722271b4"},"vehicle_type_id":"4","last_reported":1683565557,"current_range_meters":26400,"station_id":"ce4bgt92rcd13ifvqcf0","pricing_plan_id":"free"},{"bike_id":"09f07163-4839-490e-b6c0-a1ce025fbb2e","system_id":"levelo_inurba_marseille","lat":43.299222,"lon":5.365554,"is_reserved":false,"is_disabled":false,"rental_uris":{"android":"levelo://app?vid=09f07163-4839-490e-b6c0-a1ce025fbb2e","ios":"levelo://app?vid=09f07163-4839-490e-b6c0-a1ce025fbb2e"},"vehicle_type_id":"4","last_reported":1683565557,"current_range_meters":28400,"station_id":"ce4bgm92rcd13ifvqbr0","pricing_plan_id":"free"},{"bike_id":"e106d5cc-b3a8-4ee4-8976-490dd54cf574","system_id":"levelo_inurba_marseille","lat":43.298433,"lon":5.362774,"is_reserved":false,"is_disabled":false,"rental_uris":{"android":"levelo://app?vid=e106d5cc-b3a8-4ee4-8976-490dd54cf574","ios":"levelo://app?vid=e106d5cc-b3a8-4ee4-8976-490dd54cf574"},"vehicle_type_id":"4","last_reported":1683565557,"current_range_meters":14000,"station_id":"ce4bgpp2rcd13ifvqc3g","pricing_plan_id":"free"},{"bike_id":"ecc391f1-05d8-48b3-b8b2-7ad3811428c7","system_id":"levelo_inurba_marseille","lat":43.298433,"lon":5.362774,"is_reserved":false,"is_disabled":false,"rental_uris":{"android":"levelo://app?vid=ecc391f1-05d8-48b3-b8b2-7ad3811428c7","ios":"levelo://app?vid=ecc391f1-05d8-48b3-b8b2-7ad3811428c7"},"vehicle_type_id":"4","last_reported":1683565557,"current_range_meters":28800,"station_id":"ce4bgpp2rcd13ifvqc3g","pricing_plan_id":"free"},{"bike_id":"6b2febdd-51de-4c3f-a944-361ce7c390e6","system_id":"levelo_inurba_marseille","lat":43.298516,"lon":5.362879,"is_reserved":false,"is_disabled":false,"rental_uris":{"android":"levelo://app?vid=6b2febdd-51de-4c3f-a944-361ce7c390e6","ios":"levelo://app?vid=6b2febdd-51de-4c3f-a944-361ce7c390e6"},"vehicle_type_id":"4","last_reported":1683565557,"current_range_meters":25200,"station_id":"ce4bgpp2rcd13ifvqc3g","pricing_plan_id":"free"},{"bike_id":"e7fa6afe-9123-436e-b00b-b8a2929ae977","system_id":"levelo_inurba_marseille","lat":43.298433,"lon":5.362774,"is_reserved":false,"is_disabled":false,"rental_uris":{"android":"levelo://app?vid=e7fa6afe-9123-436e-b00b-b8a2929ae977","ios":"levelo://app?vid=e7fa6afe-9123-436e-b00b-b8a2929ae977"},"vehicle_type_id":"4","last_reported":1683565557,"current_range_meters":7600,"station_id":"ce4bgpp2rcd13ifvqc3g","pricing_plan_id":"free"},{"bike_id":"97b29d12-add9-4eea-8ac6-420a487943ad","system_id":"levelo_inurba_marseille","lat":43.298433,"lon":5.362774,"is_reserved":false,"is_disabled":false,"rental_uris":{"android":"levelo://app?vid=97b29d12-add9-4eea-8ac6-420a487943ad","ios":"levelo://app?vid=97b29d12-add9-4eea-8ac6-420a487943ad"},"vehicle_type_id":"4","last_reported":1683565557,"current_range_meters":31200,"station_id":"ce4bgpp2rcd13ifvqc3g","pricing_plan_id":"free"},{"bike_id":"a12518fb-8c17-48f6-804a-e8b411aa9e59","system_id":"levelo_inurba_marseille","lat":43.298433,"lon":5.362774,"is_reserved":false,"is_disabled":false,"rental_uris":{"android":"levelo://app?vid=a12518fb-8c17-48f6-804a-e8b411aa9e59","ios":"levelo://app?vid=a12518fb-8c17-48f6-804a-e8b411aa9e59"},"vehicle_type_id":"4","last_reported":1683565557,"current_range_meters":22400,"station_id":"ce4bgpp2rcd13ifvqc3g","pricing_plan_id":"free"},{"bike_id":"28a3c4de-539c-4bf7-b275-ba6276d33078","system_id":"levelo_inurba_marseille","lat":43.328371,"lon":5.366912,"is_reserved":false,"is_disabled":false,"rental_uris":{"android":"levelo://app?vid=28a3c4de-539c-4bf7-b275-ba6276d33078","ios":"levelo://app?vid=28a3c4de-539c-4bf7-b275-ba6276d33078"},"vehicle_type_id":"4","last_reported":1683565557,"current_range_meters":2000,"station_id":"ce4bhs92rcd13ifvqi0g","pricing_plan_id":"free"},{"bike_id":"25b87146-52f3-489d-9083-7d154345a276","system_id":"levelo_inurba_marseille","lat":43.328371,"lon":5.366912,"is_reserved":false,"is_disabled":false,"rental_uris":{"android":"levelo://app?vid=25b87146-52f3-489d-9083-7d154345a276","ios":"levelo://app?vid=25b87146-52f3-489d-9083-7d154345a276"},"vehicle_type_id":"4","last_reported":1683565557,"current_range_meters":11200,"station_id":"ce4bhs92rcd13ifvqi0g","pricing_plan_id":"free"},{"bike_id":"d51cc7c3-9deb-497c-8345-845a46316b10","system_id":"levelo_inurba_marseille","lat":43.2968,"lon":5.37291,"is_reserved":false,"is_disabled":false,"rental_uris":{"android":"levelo://app?vid=d51cc7c3-9deb-497c-8345-845a46316b10","ios":"levelo://app?vid=d51cc7c3-9deb-497c-8345-845a46316b10"},"vehicle_type_id":"4","last_reported":1683565557,"current_range_meters":27200,"station_id":"ce4bgk12rcd13ifvqbj0","pricing_plan_id":"free"},{"bike_id":"394eed28-81e6-45aa-8207-872d121dc4aa","system_id":"levelo_inurba_marseille","lat":43.29573,"lon":5.367355,"is_reserved":false,"is_disabled":false,"rental_uris":{"android":"levelo://app?vid=394eed28-81e6-45aa-8207-872d121dc4aa","ios":"levelo://app?vid=394eed28-81e6-45aa-8207-872d121dc4aa"},"vehicle_type_id":"4","last_reported":1683565557,"current_range_meters":21200,"station_id":"ce4bgph2rcd13ifvqc2g","pricing_plan_id":"free"},{"bike_id":"7acb4088-9e65-4949-9e97-ba6629004cdd","system_id":"levelo_inurba_marseille","lat":43.29573,"lon":5.367355,"is_reserved":false,"is_disabled":false,"rental_uris":{"android":"levelo://app?vid=7acb4088-9e65-4949-9e97-ba6629004cdd","ios":"levelo://app?vid=7acb4088-9e65-4949-9e97-ba6629004cdd"},"vehicle_type_id":"4","last_reported":1683565557,"current_range_meters":3200,"station_id":"ce4bgph2rcd13ifvqc2g","pricing_plan_id":"free"},{"bike_id":"3df1f9bd-96aa-4268-b6ef-25037836a23f","system_id":"levelo_inurba_marseille","lat":43.296921,"lon":5.376579,"is_reserved":false,"is_disabled":false,"rental_uris":{"android":"levelo://app?vid=3df1f9bd-96aa-4268-b6ef-25037836a23f","ios":"levelo://app?vid=3df1f9bd-96aa-4268-b6ef-25037836a23f"},"vehicle_type_id":"4","last_reported":1683565557,"current_range_meters":2000,"station_id":"ce4bgkh2rcd13ifvqbl0","pricing_plan_id":"free"},{"bike_id":"a7bb9eb4-2c4e-4356-988c-adf1604e7a03","system_id":"levelo_inurba_marseille","lat":43.299028,"lon":5.381509,"is_reserved":false,"is_disabled":false,"rental_uris":{"android":"levelo://app?vid=a7bb9eb4-2c4e-4356-988c-adf1604e7a03","ios":"levelo://app?vid=a7bb9eb4-2c4e-4356-988c-adf1604e7a03"},"vehicle_type_id":"4","last_reported":1683565557,"current_range_meters":22800,"station_id":"ce4bgj12rcd13ifvqbc0","pricing_plan_id":"free"},{"bike_id":"40bcea4e-adf4-4001-b0a1-f6360e1f6d72","system_id":"levelo_inurba_marseille","lat":43.317557,"lon":5.390173,"is_reserved":false,"is_disabled":false,"rental_uris":{"android":"levelo://app?vid=40bcea4e-adf4-4001-b0a1-f6360e1f6d72","ios":"levelo://app?vid=40bcea4e-adf4-4001-b0a1-f6360e1f6d72"},"vehicle_type_id":"4","last_reported":1683565557,"current_range_meters":400,"station_id":"ce4bhqp2rcd13ifvqhng","pricing_plan_id":"free"},{"bike_id":"4f6418cd-2719-486c-8971-8645a7fa1118","system_id":"levelo_inurba_marseille","lat":43.317557,"lon":5.390173,"is_reserved":false,"is_disabled":false,"rental_uris":{"android":"levelo://app?vid=4f6418cd-2719-486c-8971-8645a7fa1118","ios":"levelo://app?vid=4f6418cd-2719-486c-8971-8645a7fa1118"},"vehicle_type_id":"4","last_reported":1683565557,"current_range_meters":11600,"station_id":"ce4bhqp2rcd13ifvqhng","pricing_plan_id":"free"},{"bike_id":"e0180d07-3fb3-406f-a69a-2574196c5978","system_id":"levelo_inurba_marseille","lat":43.298037,"lon":5.381066,"is_reserved":false,"is_disabled":false,"rental_uris":{"android":"levelo://app?vid=e0180d07-3fb3-406f-a69a-2574196c5978","ios":"levelo://app?vid=e0180d07-3fb3-406f-a69a-2574196c5978"},"vehicle_type_id":"4","last_reported":1683565557,"current_range_meters":11200,"station_id":"ce4bgip2rcd13ifvqbb0","pricing_plan_id":"free"},{"bike_id":"049e885f-e62d-4cc5-a9da-beddbc67c97b","system_id":"levelo_inurba_marseille","lat":43.298037,"lon":5.381066,"is_reserved":false,"is_disabled":false,"rental_uris":{"android":"levelo://app?vid=049e885f-e62d-4cc5-a9da-beddbc67c97b","ios":"levelo://app?vid=049e885f-e62d-4cc5-a9da-beddbc67c97b"},"vehicle_type_id":"4","last_reported":1683565557,"current_range_meters":22000,"station_id":"ce4bgip2rcd13ifvqbb0","pricing_plan_id":"free"},{"bike_id":"90e9dd31-133c-4ddd-9c8a-a6b54ab4eca9","system_id":"levelo_inurba_marseille","lat":43.295748,"lon":5.37522,"is_reserved":false,"is_disabled":false,"rental_uris":{"android":"levelo://app?vid=90e9dd31-133c-4ddd-9c8a-a6b54ab4eca9","ios":"levelo://app?vid=90e9dd31-133c-4ddd-9c8a-a6b54ab4eca9"},"vehicle_type_id":"4","last_reported":1683565557,"current_range_meters":14000,"station_id":"ce4bgh92rcd13ifvqb50","pricing_plan_id":"free"},{"bike_id":"41056203-1eec-4a4c-af68-b989f27e2481","system_id":"levelo_inurba_marseille","lat":43.304278,"lon":5.388868,"is_reserved":false,"is_disabled":false,"rental_uris":{"android":"levelo://app?vid=41056203-1eec-4a4c-af68-b989f27e2481","ios":"levelo://app?vid=41056203-1eec-4a4c-af68-b989f27e2481"},"vehicle_type_id":"4","last_reported":1683565557,"current_range_meters":22000,"station_id":"ce4bgk12rcd13ifvqbi0","pricing_plan_id":"free"},{"bike_id":"329e1c69-3720-4abd-940b-ec569d4e7eae","system_id":"levelo_inurba_marseille","lat":43.304278,"lon":5.388868,"is_reserved":false,"is_disabled":false,"rental_uris":{"android":"levelo://app?vid=329e1c69-3720-4abd-940b-ec569d4e7eae","ios":"levelo://app?vid=329e1c69-3720-4abd-940b-ec569d4e7eae"},"vehicle_type_id":"4","last_reported":1683565557,"current_range_meters":18800,"station_id":"ce4bgk12rcd13ifvqbi0","pricing_plan_id":"free"},{"bike_id":"a054a082-d144-4b68-8783-d567237e2ebc","system_id":"levelo_inurba_marseille","lat":43.304278,"lon":5.388868,"is_reserved":false,"is_disabled":false,"rental_uris":{"android":"levelo://app?vid=a054a082-d144-4b68-8783-d567237e2ebc","ios":"levelo://app?vid=a054a082-d144-4b68-8783-d567237e2ebc"},"vehicle_type_id":"4","last_reported":1683565557,"current_range_meters":0,"station_id":"ce4bgk12rcd13ifvqbi0","pricing_plan_id":"free"},{"bike_id":"56f5a4aa-3b43-448a-8c0c-919145618b53","system_id":"levelo_inurba_marseille","lat":43.304278,"lon":5.388868,"is_reserved":false,"is_disabled":false,"rental_uris":{"android":"levelo://app?vid=56f5a4aa-3b43-448a-8c0c-919145618b53","ios":"levelo://app?vid=56f5a4aa-3b43-448a-8c0c-919145618b53"},"vehicle_type_id":"4","last_reported":1683565557,"current_range_meters":1200,"station_id":"ce4bgk12rcd13ifvqbi0","pricing_plan_id":"free"},{"bike_id":"8755ace0-745f-46c9-bf53-258f1ca37f71","system_id":"levelo_inurba_marseille","lat":43.29621,"lon":5.37731,"is_reserved":false,"is_disabled":false,"rental_uris":{"android":"levelo://app?vid=8755ace0-745f-46c9-bf53-258f1ca37f71","ios":"levelo://app?vid=8755ace0-745f-46c9-bf53-258f1ca37f71"},"vehicle_type_id":"4","last_reported":1683565557,"current_range_meters":0,"station_id":"ce4bgi92rcd13ifvqb90","pricing_plan_id":"free"},{"bike_id":"265f5f2d-fcf6-4f1f-8f87-f337d9692662","system_id":"levelo_inurba_marseille","lat":43.296263,"lon":5.377094,"is_reserved":false,"is_disabled":false,"rental_uris":{"android":"levelo://app?vid=265f5f2d-fcf6-4f1f-8f87-f337d9692662","ios":"levelo://app?vid=265f5f2d-fcf6-4f1f-8f87-f337d9692662"},"vehicle_type_id":"4","last_reported":1683565557,"current_range_meters":25200,"station_id":"ce4bgi92rcd13ifvqb90","pricing_plan_id":"free"},{"bike_id":"99ef2aa2-97ef-4774-929d-66cbff2d9885","system_id":"levelo_inurba_marseille","lat":43.299707,"lon":5.384859,"is_reserved":false,"is_disabled":false,"rental_uris":{"android":"levelo://app?vid=99ef2aa2-97ef-4774-929d-66cbff2d9885","ios":"levelo://app?vid=99ef2aa2-97ef-4774-929d-66cbff2d9885"},"vehicle_type_id":"4","last_reported":1683565557,"current_range_meters":18800,"station_id":"ce4bgj92rcd13ifvqbd0","pricing_plan_id":"free"},{"bike_id":"b6d2584b-6561-4d93-b724-eb5530b9883a","system_id":"levelo_inurba_marseille","lat":43.29972,"lon":5.38491,"is_reserved":false,"is_disabled":false,"rental_uris":{"android":"levelo://app?vid=b6d2584b-6561-4d93-b724-eb5530b9883a","ios":"levelo://app?vid=b6d2584b-6561-4d93-b724-eb5530b9883a"},"vehicle_type_id":"4","last_reported":1683565557,"current_range_meters":22800,"station_id":"","pricing_plan_id":"free"},{"bike_id":"5056229f-3080-423d-8e9d-5f2f41a457c1","system_id":"levelo_inurba_marseille","lat":43.299717,"lon":5.384845,"is_reserved":false,"is_disabled":false,"rental_uris":{"android":"levelo://app?vid=5056229f-3080-423d-8e9d-5f2f41a457c1","ios":"levelo://app?vid=5056229f-3080-423d-8e9d-5f2f41a457c1"},"vehicle_type_id":"4","last_reported":1683565557,"current_range_meters":0,"station_id":"ce4bgj92rcd13ifvqbd0","pricing_plan_id":"free"},{"bike_id":"9f2c62fc-4bec-4c9b-877f-261beb53a497","system_id":"levelo_inurba_marseille","lat":43.29611,"lon":5.38105,"is_reserved":false,"is_disabled":false,"rental_uris":{"android":"levelo://app?vid=9f2c62fc-4bec-4c9b-877f-261beb53a497","ios":"levelo://app?vid=9f2c62fc-4bec-4c9b-877f-261beb53a497"},"vehicle_type_id":"4","last_reported":1683565557,"current_range_meters":20800,"station_id":"ce4bgl12rcd13ifvqbo0","pricing_plan_id":"free"},{"bike_id":"8718d0ed-bc1f-407e-854a-22ec38f29621","system_id":"levelo_inurba_marseille","lat":43.29601,"lon":5.381084,"is_reserved":false,"is_disabled":false,"rental_uris":{"android":"levelo://app?vid=8718d0ed-bc1f-407e-854a-22ec38f29621","ios":"levelo://app?vid=8718d0ed-bc1f-407e-854a-22ec38f29621"},"vehicle_type_id":"4","last_reported":1683565557,"current_range_meters":19600,"station_id":"ce4bgl12rcd13ifvqbo0","pricing_plan_id":"free"},{"bike_id":"42c000f5-11b3-42d9-b761-ff4df3a66a96","system_id":"levelo_inurba_marseille","lat":43.29601,"lon":5.381084,"is_reserved":false,"is_disabled":false,"rental_uris":{"android":"levelo://app?vid=42c000f5-11b3-42d9-b761-ff4df3a66a96","ios":"levelo://app?vid=42c000f5-11b3-42d9-b761-ff4df3a66a96"},"vehicle_type_id":"4","last_reported":1683565557,"current_range_meters":7600,"station_id":"ce4bgl12rcd13ifvqbo0","pricing_plan_id":"free"},{"bike_id":"c1a99c55-f479-4f7c-a8ee-cf3bba2259b4","system_id":"levelo_inurba_marseille","lat":43.293249,"lon":5.371578,"is_reserved":false,"is_disabled":false,"rental_uris":{"android":"levelo://app?vid=c1a99c55-f479-4f7c-a8ee-cf3bba2259b4","ios":"levelo://app?vid=c1a99c55-f479-4f7c-a8ee-cf3bba2259b4"},"vehicle_type_id":"4","last_reported":1683565557,"current_range_meters":18400,"station_id":"ce4bgh92rcd13ifvqb40","pricing_plan_id":"free"},{"bike_id":"f93a4be6-d7ab-46fd-9969-2d5647dcfd96","system_id":"levelo_inurba_marseille","lat":43.293249,"lon":5.371578,"is_reserved":false,"is_disabled":false,"rental_uris":{"android":"levelo://app?vid=f93a4be6-d7ab-46fd-9969-2d5647dcfd96","ios":"levelo://app?vid=f93a4be6-d7ab-46fd-9969-2d5647dcfd96"},"vehicle_type_id":"4","last_reported":1683565557,"current_range_meters":20400,"station_id":"ce4bgh92rcd13ifvqb40","pricing_plan_id":"free"},{"bike_id":"deea176b-7557-4737-8932-01cb627bf3ad","system_id":"levelo_inurba_marseille","lat":43.305994,"lon":5.393687,"is_reserved":false,"is_disabled":false,"rental_uris":{"android":"levelo://app?vid=deea176b-7557-4737-8932-01cb627bf3ad","ios":"levelo://app?vid=deea176b-7557-4737-8932-01cb627bf3ad"},"vehicle_type_id":"4","last_reported":1683565557,"current_range_meters":2800,"station_id":"ce4bh0p2rcd13ifvqd80","pricing_plan_id":"free"},{"bike_id":"fd2bfbe7-6627-4bf2-9965-d9ffcf771d9c","system_id":"levelo_inurba_marseille","lat":43.305994,"lon":5.393687,"is_reserved":false,"is_disabled":false,"rental_uris":{"android":"levelo://app?vid=fd2bfbe7-6627-4bf2-9965-d9ffcf771d9c","ios":"levelo://app?vid=fd2bfbe7-6627-4bf2-9965-d9ffcf771d9c"},"vehicle_type_id":"4","last_reported":1683565557,"current_range_meters":15200,"station_id":"ce4bh0p2rcd13ifvqd80","pricing_plan_id":"free"},{"bike_id":"6836d415-d70e-475d-a85e-1c584e0d3b3a","system_id":"levelo_inurba_marseille","lat":43.305994,"lon":5.393687,"is_reserved":false,"is_disabled":false,"rental_uris":{"android":"levelo://app?vid=6836d415-d70e-475d-a85e-1c584e0d3b3a","ios":"levelo://app?vid=6836d415-d70e-475d-a85e-1c584e0d3b3a"},"vehicle_type_id":"4","last_reported":1683565557,"current_range_meters":2800,"station_id":"ce4bh0p2rcd13ifvqd80","pricing_plan_id":"free"},{"bike_id":"eda09125-65d5-46ab-9c3c-1d2f245149f6","system_id":"levelo_inurba_marseille","lat":43.305994,"lon":5.393687,"is_reserved":false,"is_disabled":false,"rental_uris":{"android":"levelo://app?vid=eda09125-65d5-46ab-9c3c-1d2f245149f6","ios":"levelo://app?vid=eda09125-65d5-46ab-9c3c-1d2f245149f6"},"vehicle_type_id":"4","last_reported":1683565557,"current_range_meters":0,"station_id":"ce4bh0p2rcd13ifvqd80","pricing_plan_id":"free"},{"bike_id":"1f138be0-4fc2-4c17-bd26-68d6111c919a","system_id":"levelo_inurba_marseille","lat":43.305994,"lon":5.393687,"is_reserved":false,"is_disabled":false,"rental_uris":{"android":"levelo://app?vid=1f138be0-4fc2-4c17-bd26-68d6111c919a","ios":"levelo://app?vid=1f138be0-4fc2-4c17-bd26-68d6111c919a"},"vehicle_type_id":"4","last_reported":1683565557,"current_range_meters":21600,"station_id":"ce4bh0p2rcd13ifvqd80","pricing_plan_id":"free"},{"bike_id":"61b102f9-b5b2-4456-a9a2-2353fdee2a46","system_id":"levelo_inurba_marseille","lat":43.2936,"lon":5.37835,"is_reserved":false,"is_disabled":false,"rental_uris":{"android":"levelo://app?vid=61b102f9-b5b2-4456-a9a2-2353fdee2a46","ios":"levelo://app?vid=61b102f9-b5b2-4456-a9a2-2353fdee2a46"},"vehicle_type_id":"4","last_reported":1683565557,"current_range_meters":4800,"station_id":"ce4bgjh2rcd13ifvqbf0","pricing_plan_id":"free"},{"bike_id":"189efff4-2dfb-4529-8115-632d168eb715","system_id":"levelo_inurba_marseille","lat":43.30287,"lon":5.39216,"is_reserved":false,"is_disabled":false,"rental_uris":{"android":"levelo://app?vid=189efff4-2dfb-4529-8115-632d168eb715","ios":"levelo://app?vid=189efff4-2dfb-4529-8115-632d168eb715"},"vehicle_type_id":"4","last_reported":1683565557,"current_range_meters":18000,"station_id":"ce4bgkh2rcd13ifvqbk0","pricing_plan_id":"free"},{"bike_id":"6d1e28a7-04b5-42fa-97f8-e91e77d483a8","system_id":"levelo_inurba_marseille","lat":43.29224,"lon":5.36052,"is_reserved":false,"is_disabled":false,"rental_uris":{"android":"levelo://app?vid=6d1e28a7-04b5-42fa-97f8-e91e77d483a8","ios":"levelo://app?vid=6d1e28a7-04b5-42fa-97f8-e91e77d483a8"},"vehicle_type_id":"4","last_reported":1683565557,"current_range_meters":13600,"station_id":"","pricing_plan_id":"free"},{"bike_id":"95f2cba8-ece9-4fbc-9f9d-722fd389d43e","system_id":"levelo_inurba_marseille","lat":43.298764,"lon":5.388973,"is_reserved":false,"is_disabled":false,"rental_uris":{"android":"levelo://app?vid=95f2cba8-ece9-4fbc-9f9d-722fd389d43e","ios":"levelo://app?vid=95f2cba8-ece9-4fbc-9f9d-722fd389d43e"},"vehicle_type_id":"4","last_reported":1683565557,"current_range_meters":0,"station_id":"ce4bh392rcd13ifvqdl0","pricing_plan_id":"free"},{"bike_id":"02a50577-cce1-41c4-a92a-7cd10a1769a8","system_id":"levelo_inurba_marseille","lat":43.305994,"lon":5.393687,"is_reserved":false,"is_disabled":false,"rental_uris":{"android":"levelo://app?vid=02a50577-cce1-41c4-a92a-7cd10a1769a8","ios":"levelo://app?vid=02a50577-cce1-41c4-a92a-7cd10a1769a8"},"vehicle_type_id":"4","last_reported":1683565557,"current_range_meters":20400,"station_id":"ce4bh0p2rcd13ifvqd80","pricing_plan_id":"free"},{"bike_id":"ec955817-b0f8-4adf-ba33-90bb1d981929","system_id":"levelo_inurba_marseille","lat":43.30888,"lon":5.39637,"is_reserved":false,"is_disabled":false,"rental_uris":{"android":"levelo://app?vid=ec955817-b0f8-4adf-ba33-90bb1d981929","ios":"levelo://app?vid=ec955817-b0f8-4adf-ba33-90bb1d981929"},"vehicle_type_id":"4","last_reported":1683565557,"current_range_meters":24000,"station_id":"ce4bh012rcd13ifvqcv0","pricing_plan_id":"free"},{"bike_id":"c5b017a7-150e-4b7d-9da2-a8bc5a4d0e42","system_id":"levelo_inurba_marseille","lat":43.313291,"lon":5.396838,"is_reserved":false,"is_disabled":false,"rental_uris":{"android":"levelo://app?vid=c5b017a7-150e-4b7d-9da2-a8bc5a4d0e42","ios":"levelo://app?vid=c5b017a7-150e-4b7d-9da2-a8bc5a4d0e42"},"vehicle_type_id":"4","last_reported":1683565557,"current_range_meters":11200,"station_id":"ce4bgvp2rcd13ifvqcu0","pricing_plan_id":"free"},{"bike_id":"aa0b2a0f-27b5-4fd9-8385-bfa07bc0d147","system_id":"levelo_inurba_marseille","lat":43.29221,"lon":5.377,"is_reserved":false,"is_disabled":false,"rental_uris":{"android":"levelo://app?vid=aa0b2a0f-27b5-4fd9-8385-bfa07bc0d147","ios":"levelo://app?vid=aa0b2a0f-27b5-4fd9-8385-bfa07bc0d147"},"vehicle_type_id":"4","last_reported":1683565557,"current_range_meters":15200,"station_id":"ce4bh3p2rcd13ifvqdp0","pricing_plan_id":"free"},{"bike_id":"52f9a966-88e9-4e72-92c8-0db5bd19f2c4","system_id":"levelo_inurba_marseille","lat":43.313291,"lon":5.396838,"is_reserved":false,"is_disabled":false,"rental_uris":{"android":"levelo://app?vid=52f9a966-88e9-4e72-92c8-0db5bd19f2c4","ios":"levelo://app?vid=52f9a966-88e9-4e72-92c8-0db5bd19f2c4"},"vehicle_type_id":"4","last_reported":1683565557,"current_range_meters":4000,"station_id":"ce4bgvp2rcd13ifvqcu0","pricing_plan_id":"free"},{"bike_id":"27e248e1-0ee8-4e51-a5d0-4cbc3839a281","system_id":"levelo_inurba_marseille","lat":43.31332,"lon":5.39695,"is_reserved":false,"is_disabled":false,"rental_uris":{"android":"levelo://app?vid=27e248e1-0ee8-4e51-a5d0-4cbc3839a281","ios":"levelo://app?vid=27e248e1-0ee8-4e51-a5d0-4cbc3839a281"},"vehicle_type_id":"4","last_reported":1683565557,"current_range_meters":11600,"station_id":"ce4bgvp2rcd13ifvqcu0","pricing_plan_id":"free"},{"bike_id":"61030399-0dc2-4b2d-aaa4-b7f1e569da6c","system_id":"levelo_inurba_marseille","lat":43.309038,"lon":5.396546,"is_reserved":false,"is_disabled":false,"rental_uris":{"android":"levelo://app?vid=61030399-0dc2-4b2d-aaa4-b7f1e569da6c","ios":"levelo://app?vid=61030399-0dc2-4b2d-aaa4-b7f1e569da6c"},"vehicle_type_id":"4","last_reported":1683565557,"current_range_meters":12400,"station_id":"ce4bh012rcd13ifvqcv0","pricing_plan_id":"free"},{"bike_id":"0d4eeb0b-7473-4a8a-ad90-873a70a85ca2","system_id":"levelo_inurba_marseille","lat":43.29529,"lon":5.385581,"is_reserved":false,"is_disabled":false,"rental_uris":{"android":"levelo://app?vid=0d4eeb0b-7473-4a8a-ad90-873a70a85ca2","ios":"levelo://app?vid=0d4eeb0b-7473-4a8a-ad90-873a70a85ca2"},"vehicle_type_id":"4","last_reported":1683565557,"current_range_meters":22000,"station_id":"ce4bgih2rcd13ifvqba0","pricing_plan_id":"free"},{"bike_id":"ad610d87-33b7-4ce6-b1c0-5170e3301c63","system_id":"levelo_inurba_marseille","lat":43.3088,"lon":5.39656,"is_reserved":false,"is_disabled":false,"rental_uris":{"android":"levelo://app?vid=ad610d87-33b7-4ce6-b1c0-5170e3301c63","ios":"levelo://app?vid=ad610d87-33b7-4ce6-b1c0-5170e3301c63"},"vehicle_type_id":"4","last_reported":1683565557,"current_range_meters":15200,"station_id":"","pricing_plan_id":"free"},{"bike_id":"0dea751e-fdb2-453f-83ce-9226b5b144ec","system_id":"levelo_inurba_marseille","lat":43.30883,"lon":5.39658,"is_reserved":false,"is_disabled":false,"rental_uris":{"android":"levelo://app?vid=0dea751e-fdb2-453f-83ce-9226b5b144ec","ios":"levelo://app?vid=0dea751e-fdb2-453f-83ce-9226b5b144ec"},"vehicle_type_id":"4","last_reported":1683565557,"current_range_meters":17600,"station_id":"ce4bh012rcd13ifvqcv0","pricing_plan_id":"free"},{"bike_id":"ed662519-6dfa-4817-86da-76238a458fd1","system_id":"levelo_inurba_marseille","lat":43.29529,"lon":5.385581,"is_reserved":false,"is_disabled":false,"rental_uris":{"android":"levelo://app?vid=ed662519-6dfa-4817-86da-76238a458fd1","ios":"levelo://app?vid=ed662519-6dfa-4817-86da-76238a458fd1"},"vehicle_type_id":"4","last_reported":1683565557,"current_range_meters":26800,"station_id":"ce4bgih2rcd13ifvqba0","pricing_plan_id":"free"},{"bike_id":"563519ee-08cd-4248-bad9-9086201937ca","system_id":"levelo_inurba_marseille","lat":43.29529,"lon":5.385581,"is_reserved":false,"is_disabled":false,"rental_uris":{"android":"levelo://app?vid=563519ee-08cd-4248-bad9-9086201937ca","ios":"levelo://app?vid=563519ee-08cd-4248-bad9-9086201937ca"},"vehicle_type_id":"4","last_reported":1683565557,"current_range_meters":22800,"station_id":"ce4bgih2rcd13ifvqba0","pricing_plan_id":"free"},{"bike_id":"3f31b4bb-6edd-41ae-ba93-4b0ba2699799","system_id":"levelo_inurba_marseille","lat":43.29529,"lon":5.385581,"is_reserved":false,"is_disabled":false,"rental_uris":{"android":"levelo://app?vid=3f31b4bb-6edd-41ae-ba93-4b0ba2699799","ios":"levelo://app?vid=3f31b4bb-6edd-41ae-ba93-4b0ba2699799"},"vehicle_type_id":"4","last_reported":1683565557,"current_range_meters":7200,"station_id":"ce4bgih2rcd13ifvqba0","pricing_plan_id":"free"},{"bike_id":"cdd6e6a3-38b2-4d65-8875-a06f96748f22","system_id":"levelo_inurba_marseille","lat":43.29529,"lon":5.385581,"is_reserved":false,"is_disabled":false,"rental_uris":{"android":"levelo://app?vid=cdd6e6a3-38b2-4d65-8875-a06f96748f22","ios":"levelo://app?vid=cdd6e6a3-38b2-4d65-8875-a06f96748f22"},"vehicle_type_id":"4","last_reported":1683565557,"current_range_meters":14000,"station_id":"ce4bgih2rcd13ifvqba0","pricing_plan_id":"free"},{"bike_id":"85647ec9-4241-4cfe-97ed-a23c6cb5e294","system_id":"levelo_inurba_marseille","lat":43.29529,"lon":5.385581,"is_reserved":false,"is_disabled":false,"rental_uris":{"android":"levelo://app?vid=85647ec9-4241-4cfe-97ed-a23c6cb5e294","ios":"levelo://app?vid=85647ec9-4241-4cfe-97ed-a23c6cb5e294"},"vehicle_type_id":"4","last_reported":1683565557,"current_range_meters":1200,"station_id":"ce4bgih2rcd13ifvqba0","pricing_plan_id":"free"},{"bike_id":"d1b7d77b-0eaa-4398-a779-d06c3caaa2b6","system_id":"levelo_inurba_marseille","lat":43.29529,"lon":5.385581,"is_reserved":false,"is_disabled":false,"rental_uris":{"android":"levelo://app?vid=d1b7d77b-0eaa-4398-a779-d06c3caaa2b6","ios":"levelo://app?vid=d1b7d77b-0eaa-4398-a779-d06c3caaa2b6"},"vehicle_type_id":"4","last_reported":1683565557,"current_range_meters":30400,"station_id":"ce4bgih2rcd13ifvqba0","pricing_plan_id":"free"},{"bike_id":"50cc3643-f0be-4e31-b82f-539404e31e35","system_id":"levelo_inurba_marseille","lat":43.29529,"lon":5.385581,"is_reserved":false,"is_disabled":false,"rental_uris":{"android":"levelo://app?vid=50cc3643-f0be-4e31-b82f-539404e31e35","ios":"levelo://app?vid=50cc3643-f0be-4e31-b82f-539404e31e35"},"vehicle_type_id":"4","last_reported":1683565557,"current_range_meters":14800,"station_id":"ce4bgih2rcd13ifvqba0","pricing_plan_id":"free"},{"bike_id":"fad42ccc-5fe8-4dec-b641-45f49bf2c071","system_id":"levelo_inurba_marseille","lat":43.29529,"lon":5.385581,"is_reserved":false,"is_disabled":false,"rental_uris":{"android":"levelo://app?vid=fad42ccc-5fe8-4dec-b641-45f49bf2c071","ios":"levelo://app?vid=fad42ccc-5fe8-4dec-b641-45f49bf2c071"},"vehicle_type_id":"4","last_reported":1683565557,"current_range_meters":6800,"station_id":"ce4bgih2rcd13ifvqba0","pricing_plan_id":"free"},{"bike_id":"56ac0568-8491-47ab-938a-737751c5fbcb","system_id":"levelo_inurba_marseille","lat":43.29529,"lon":5.385581,"is_reserved":false,"is_disabled":false,"rental_uris":{"android":"levelo://app?vid=56ac0568-8491-47ab-938a-737751c5fbcb","ios":"levelo://app?vid=56ac0568-8491-47ab-938a-737751c5fbcb"},"vehicle_type_id":"4","last_reported":1683565557,"current_range_meters":20400,"station_id":"ce4bgih2rcd13ifvqba0","pricing_plan_id":"free"},{"bike_id":"9992e20a-d12a-4733-b64c-de90051ef2d9","system_id":"levelo_inurba_marseille","lat":43.29529,"lon":5.385581,"is_reserved":false,"is_disabled":false,"rental_uris":{"android":"levelo://app?vid=9992e20a-d12a-4733-b64c-de90051ef2d9","ios":"levelo://app?vid=9992e20a-d12a-4733-b64c-de90051ef2d9"},"vehicle_type_id":"4","last_reported":1683565557,"current_range_meters":20000,"station_id":"ce4bgih2rcd13ifvqba0","pricing_plan_id":"free"},{"bike_id":"123b5b78-76a6-4c71-a432-1542db897142","system_id":"levelo_inurba_marseille","lat":43.290779,"lon":5.371482,"is_reserved":false,"is_disabled":false,"rental_uris":{"android":"levelo://app?vid=123b5b78-76a6-4c71-a432-1542db897142","ios":"levelo://app?vid=123b5b78-76a6-4c71-a432-1542db897142"},"vehicle_type_id":"4","last_reported":1683565557,"current_range_meters":11600,"station_id":"ce4bh5p2rcd13ifvqe4g","pricing_plan_id":"free"},{"bike_id":"a86feb62-ca7f-409c-89f9-d3fa28ea49be","system_id":"levelo_inurba_marseille","lat":43.290779,"lon":5.371482,"is_reserved":false,"is_disabled":false,"rental_uris":{"android":"levelo://app?vid=a86feb62-ca7f-409c-89f9-d3fa28ea49be","ios":"levelo://app?vid=a86feb62-ca7f-409c-89f9-d3fa28ea49be"},"vehicle_type_id":"4","last_reported":1683565557,"current_range_meters":0,"station_id":"ce4bh5p2rcd13ifvqe4g","pricing_plan_id":"free"},{"bike_id":"4808a66e-1ed7-4ea5-986d-7263a10120ae","system_id":"levelo_inurba_marseille","lat":43.290779,"lon":5.371482,"is_reserved":false,"is_disabled":false,"rental_uris":{"android":"levelo://app?vid=4808a66e-1ed7-4ea5-986d-7263a10120ae","ios":"levelo://app?vid=4808a66e-1ed7-4ea5-986d-7263a10120ae"},"vehicle_type_id":"4","last_reported":1683565557,"current_range_meters":20800,"station_id":"ce4bh5p2rcd13ifvqe4g","pricing_plan_id":"free"},{"bike_id":"e92e5af3-1cba-42a7-9a26-99a325c05931","system_id":"levelo_inurba_marseille","lat":43.302008,"lon":5.394694,"is_reserved":false,"is_disabled":false,"rental_uris":{"android":"levelo://app?vid=e92e5af3-1cba-42a7-9a26-99a325c05931","ios":"levelo://app?vid=e92e5af3-1cba-42a7-9a26-99a325c05931"},"vehicle_type_id":"4","last_reported":1683565557,"current_range_meters":1600,"station_id":"ce4bh0p2rcd13ifvqd70","pricing_plan_id":"free"},{"bike_id":"f860820c-8b94-40e5-8742-49d2ec5c3b74","system_id":"levelo_inurba_marseille","lat":43.294162,"lon":5.386292,"is_reserved":false,"is_disabled":false,"rental_uris":{"android":"levelo://app?vid=f860820c-8b94-40e5-8742-49d2ec5c3b74","ios":"levelo://app?vid=f860820c-8b94-40e5-8742-49d2ec5c3b74"},"vehicle_type_id":"4","last_reported":1683565557,"current_range_meters":5600,"station_id":"ce4bh2h2rcd13ifvqdh0","pricing_plan_id":"free"},{"bike_id":"10d26ccd-fc24-48e3-9de5-ed7abccdc2ea","system_id":"levelo_inurba_marseille","lat":43.290624,"lon":5.359245,"is_reserved":false,"is_disabled":false,"rental_uris":{"android":"levelo://app?vid=10d26ccd-fc24-48e3-9de5-ed7abccdc2ea","ios":"levelo://app?vid=10d26ccd-fc24-48e3-9de5-ed7abccdc2ea"},"vehicle_type_id":"4","last_reported":1683565557,"current_range_meters":26800,"station_id":"ce4bha92rcd13ifvqeg0","pricing_plan_id":"free"},{"bike_id":"9846ea2a-9af2-47b9-bbd0-5ef390fb810c","system_id":"levelo_inurba_marseille","lat":43.294153,"lon":5.386305,"is_reserved":false,"is_disabled":false,"rental_uris":{"android":"levelo://app?vid=9846ea2a-9af2-47b9-bbd0-5ef390fb810c","ios":"levelo://app?vid=9846ea2a-9af2-47b9-bbd0-5ef390fb810c"},"vehicle_type_id":"4","last_reported":1683565557,"current_range_meters":3200,"station_id":"ce4bh2h2rcd13ifvqdh0","pricing_plan_id":"free"},{"bike_id":"1b8144b9-db2f-4b16-8903-e77b5abd4a06","system_id":"levelo_inurba_marseille","lat":43.294153,"lon":5.386305,"is_reserved":false,"is_disabled":false,"rental_uris":{"android":"levelo://app?vid=1b8144b9-db2f-4b16-8903-e77b5abd4a06","ios":"levelo://app?vid=1b8144b9-db2f-4b16-8903-e77b5abd4a06"},"vehicle_type_id":"4","last_reported":1683565557,"current_range_meters":6000,"station_id":"ce4bh2h2rcd13ifvqdh0","pricing_plan_id":"free"},{"bike_id":"33f19d90-8831-4b02-ae21-a45d39e365df","system_id":"levelo_inurba_marseille","lat":43.294153,"lon":5.386305,"is_reserved":false,"is_disabled":false,"rental_uris":{"android":"levelo://app?vid=33f19d90-8831-4b02-ae21-a45d39e365df","ios":"levelo://app?vid=33f19d90-8831-4b02-ae21-a45d39e365df"},"vehicle_type_id":"4","last_reported":1683565557,"current_range_meters":14400,"station_id":"ce4bh2h2rcd13ifvqdh0","pricing_plan_id":"free"},{"bike_id":"412e8876-f85a-4a28-8101-929639283154","system_id":"levelo_inurba_marseille","lat":43.294162,"lon":5.386292,"is_reserved":false,"is_disabled":false,"rental_uris":{"android":"levelo://app?vid=412e8876-f85a-4a28-8101-929639283154","ios":"levelo://app?vid=412e8876-f85a-4a28-8101-929639283154"},"vehicle_type_id":"4","last_reported":1683565557,"current_range_meters":19200,"station_id":"ce4bh2h2rcd13ifvqdh0","pricing_plan_id":"free"},{"bike_id":"c957cb95-9b9c-49dd-ba56-7dbc6e160fa9","system_id":"levelo_inurba_marseille","lat":43.289184,"lon":5.366408,"is_reserved":false,"is_disabled":false,"rental_uris":{"android":"levelo://app?vid=c957cb95-9b9c-49dd-ba56-7dbc6e160fa9","ios":"levelo://app?vid=c957cb95-9b9c-49dd-ba56-7dbc6e160fa9"},"vehicle_type_id":"4","last_reported":1683565557,"current_range_meters":19600,"station_id":"ce4bhap2rcd13ifvqek0","pricing_plan_id":"free"},{"bike_id":"518c6a6a-c0eb-4783-8c8f-625eebf39523","system_id":"levelo_inurba_marseille","lat":43.294548,"lon":5.386923,"is_reserved":false,"is_disabled":false,"rental_uris":{"android":"levelo://app?vid=518c6a6a-c0eb-4783-8c8f-625eebf39523","ios":"levelo://app?vid=518c6a6a-c0eb-4783-8c8f-625eebf39523"},"vehicle_type_id":"4","last_reported":1683565557,"current_range_meters":5200,"station_id":"ce4bh2h2rcd13ifvqdh0","pricing_plan_id":"free"},{"bike_id":"1efb54f3-0b39-4d68-bbed-96b32eaf9302","system_id":"levelo_inurba_marseille","lat":43.289184,"lon":5.366408,"is_reserved":false,"is_disabled":false,"rental_uris":{"android":"levelo://app?vid=1efb54f3-0b39-4d68-bbed-96b32eaf9302","ios":"levelo://app?vid=1efb54f3-0b39-4d68-bbed-96b32eaf9302"},"vehicle_type_id":"4","last_reported":1683565557,"current_range_meters":4400,"station_id":"ce4bhap2rcd13ifvqek0","pricing_plan_id":"free"},{"bike_id":"16a6c2c6-e8c0-4350-b741-acbe93394046","system_id":"levelo_inurba_marseille","lat":43.294162,"lon":5.386292,"is_reserved":false,"is_disabled":false,"rental_uris":{"android":"levelo://app?vid=16a6c2c6-e8c0-4350-b741-acbe93394046","ios":"levelo://app?vid=16a6c2c6-e8c0-4350-b741-acbe93394046"},"vehicle_type_id":"4","last_reported":1683565557,"current_range_meters":24000,"station_id":"ce4bh2h2rcd13ifvqdh0","pricing_plan_id":"free"},{"bike_id":"b750dad1-e066-4a41-b693-616afdf82402","system_id":"levelo_inurba_marseille","lat":43.289184,"lon":5.366408,"is_reserved":false,"is_disabled":false,"rental_uris":{"android":"levelo://app?vid=b750dad1-e066-4a41-b693-616afdf82402","ios":"levelo://app?vid=b750dad1-e066-4a41-b693-616afdf82402"},"vehicle_type_id":"4","last_reported":1683565557,"current_range_meters":22400,"station_id":"ce4bhap2rcd13ifvqek0","pricing_plan_id":"free"},{"bike_id":"e50ece57-634f-49f2-98a5-b2b34b7efa6e","system_id":"levelo_inurba_marseille","lat":43.289184,"lon":5.366408,"is_reserved":false,"is_disabled":false,"rental_uris":{"android":"levelo://app?vid=e50ece57-634f-49f2-98a5-b2b34b7efa6e","ios":"levelo://app?vid=e50ece57-634f-49f2-98a5-b2b34b7efa6e"},"vehicle_type_id":"4","last_reported":1683565557,"current_range_meters":25600,"station_id":"ce4bhap2rcd13ifvqek0","pricing_plan_id":"free"},{"bike_id":"0e4773d0-5c41-4e09-a2a5-9197e2e0f4fa","system_id":"levelo_inurba_marseille","lat":43.289184,"lon":5.366408,"is_reserved":false,"is_disabled":false,"rental_uris":{"android":"levelo://app?vid=0e4773d0-5c41-4e09-a2a5-9197e2e0f4fa","ios":"levelo://app?vid=0e4773d0-5c41-4e09-a2a5-9197e2e0f4fa"},"vehicle_type_id":"4","last_reported":1683565557,"current_range_meters":27200,"station_id":"ce4bhap2rcd13ifvqek0","pricing_plan_id":"free"},{"bike_id":"42e4736b-feb6-4572-8634-247cd3dc213d","system_id":"levelo_inurba_marseille","lat":43.294153,"lon":5.386305,"is_reserved":false,"is_disabled":false,"rental_uris":{"android":"levelo://app?vid=42e4736b-feb6-4572-8634-247cd3dc213d","ios":"levelo://app?vid=42e4736b-feb6-4572-8634-247cd3dc213d"},"vehicle_type_id":"4","last_reported":1683565557,"current_range_meters":24800,"station_id":"ce4bh2h2rcd13ifvqdh0","pricing_plan_id":"free"},{"bike_id":"cc844d38-caa7-4bd3-8faf-f72aa8ed8d73","system_id":"levelo_inurba_marseille","lat":43.289184,"lon":5.366408,"is_reserved":false,"is_disabled":false,"rental_uris":{"android":"levelo://app?vid=cc844d38-caa7-4bd3-8faf-f72aa8ed8d73","ios":"levelo://app?vid=cc844d38-caa7-4bd3-8faf-f72aa8ed8d73"},"vehicle_type_id":"4","last_reported":1683565557,"current_range_meters":17200,"station_id":"ce4bhap2rcd13ifvqek0","pricing_plan_id":"free"},{"bike_id":"135d58bd-5fc9-47bd-89f4-49d4bda74cbe","system_id":"levelo_inurba_marseille","lat":43.289184,"lon":5.366408,"is_reserved":false,"is_disabled":false,"rental_uris":{"android":"levelo://app?vid=135d58bd-5fc9-47bd-89f4-49d4bda74cbe","ios":"levelo://app?vid=135d58bd-5fc9-47bd-89f4-49d4bda74cbe"},"vehicle_type_id":"4","last_reported":1683565557,"current_range_meters":2000,"station_id":"ce4bhap2rcd13ifvqek0","pricing_plan_id":"free"},{"bike_id":"af93e628-7e0d-4c8d-94a3-b7faf5dafdc6","system_id":"levelo_inurba_marseille","lat":43.289184,"lon":5.366408,"is_reserved":false,"is_disabled":false,"rental_uris":{"android":"levelo://app?vid=af93e628-7e0d-4c8d-94a3-b7faf5dafdc6","ios":"levelo://app?vid=af93e628-7e0d-4c8d-94a3-b7faf5dafdc6"},"vehicle_type_id":"4","last_reported":1683565557,"current_range_meters":9200,"station_id":"ce4bhap2rcd13ifvqek0","pricing_plan_id":"free"},{"bike_id":"7bff8dd3-7dc5-46a4-b0ca-ad69f866b91c","system_id":"levelo_inurba_marseille","lat":43.289184,"lon":5.366408,"is_reserved":false,"is_disabled":false,"rental_uris":{"android":"levelo://app?vid=7bff8dd3-7dc5-46a4-b0ca-ad69f866b91c","ios":"levelo://app?vid=7bff8dd3-7dc5-46a4-b0ca-ad69f866b91c"},"vehicle_type_id":"4","last_reported":1683565557,"current_range_meters":3600,"station_id":"ce4bhap2rcd13ifvqek0","pricing_plan_id":"free"},{"bike_id":"483cdfd0-cdd1-4a20-a604-9ffd3b9aeb69","system_id":"levelo_inurba_marseille","lat":43.289184,"lon":5.366408,"is_reserved":false,"is_disabled":false,"rental_uris":{"android":"levelo://app?vid=483cdfd0-cdd1-4a20-a604-9ffd3b9aeb69","ios":"levelo://app?vid=483cdfd0-cdd1-4a20-a604-9ffd3b9aeb69"},"vehicle_type_id":"4","last_reported":1683565557,"current_range_meters":23600,"station_id":"ce4bhap2rcd13ifvqek0","pricing_plan_id":"free"},{"bike_id":"72a53e51-acf9-4bb9-ad4b-bdaabcaeb0e5","system_id":"levelo_inurba_marseille","lat":43.289468,"lon":5.363719,"is_reserved":false,"is_disabled":false,"rental_uris":{"android":"levelo://app?vid=72a53e51-acf9-4bb9-ad4b-bdaabcaeb0e5","ios":"levelo://app?vid=72a53e51-acf9-4bb9-ad4b-bdaabcaeb0e5"},"vehicle_type_id":"4","last_reported":1683565557,"current_range_meters":2400,"station_id":"ce4bhc92rcd13ifvqetg","pricing_plan_id":"free"},{"bike_id":"a4336f83-fff7-4098-8320-d3be90160961","system_id":"levelo_inurba_marseille","lat":43.289468,"lon":5.363719,"is_reserved":false,"is_disabled":false,"rental_uris":{"android":"levelo://app?vid=a4336f83-fff7-4098-8320-d3be90160961","ios":"levelo://app?vid=a4336f83-fff7-4098-8320-d3be90160961"},"vehicle_type_id":"4","last_reported":1683565557,"current_range_meters":4800,"station_id":"ce4bhc92rcd13ifvqetg","pricing_plan_id":"free"},{"bike_id":"76757f4c-d420-4370-874d-d8d8b7fcb827","system_id":"levelo_inurba_marseille","lat":43.289468,"lon":5.363719,"is_reserved":false,"is_disabled":false,"rental_uris":{"android":"levelo://app?vid=76757f4c-d420-4370-874d-d8d8b7fcb827","ios":"levelo://app?vid=76757f4c-d420-4370-874d-d8d8b7fcb827"},"vehicle_type_id":"4","last_reported":1683565557,"current_range_meters":24400,"station_id":"ce4bhc92rcd13ifvqetg","pricing_plan_id":"free"},{"bike_id":"00ade41f-fdc7-4518-a885-da3a1fc89350","system_id":"levelo_inurba_marseille","lat":43.289184,"lon":5.366408,"is_reserved":false,"is_disabled":false,"rental_uris":{"android":"levelo://app?vid=00ade41f-fdc7-4518-a885-da3a1fc89350","ios":"levelo://app?vid=00ade41f-fdc7-4518-a885-da3a1fc89350"},"vehicle_type_id":"4","last_reported":1683565557,"current_range_meters":24400,"station_id":"ce4bhap2rcd13ifvqek0","pricing_plan_id":"free"},{"bike_id":"eee5ca0d-408a-4dc8-8dc8-7c3f753e06ba","system_id":"levelo_inurba_marseille","lat":43.292644,"lon":5.384257,"is_reserved":false,"is_disabled":false,"rental_uris":{"android":"levelo://app?vid=eee5ca0d-408a-4dc8-8dc8-7c3f753e06ba","ios":"levelo://app?vid=eee5ca0d-408a-4dc8-8dc8-7c3f753e06ba"},"vehicle_type_id":"4","last_reported":1683565557,"current_range_meters":8400,"station_id":"ce4bh692rcd13ifvqea0","pricing_plan_id":"free"},{"bike_id":"c009d5e1-9e8d-42c6-919f-a71defeab081","system_id":"levelo_inurba_marseille","lat":43.29265,"lon":5.38444,"is_reserved":false,"is_disabled":false,"rental_uris":{"android":"levelo://app?vid=c009d5e1-9e8d-42c6-919f-a71defeab081","ios":"levelo://app?vid=c009d5e1-9e8d-42c6-919f-a71defeab081"},"vehicle_type_id":"4","last_reported":1683565557,"current_range_meters":29600,"station_id":"ce4bh692rcd13ifvqea0","pricing_plan_id":"free"},{"bike_id":"53b81823-c090-4d77-b2d1-7f4f68739718","system_id":"levelo_inurba_marseille","lat":43.292644,"lon":5.384257,"is_reserved":false,"is_disabled":false,"rental_uris":{"android":"levelo://app?vid=53b81823-c090-4d77-b2d1-7f4f68739718","ios":"levelo://app?vid=53b81823-c090-4d77-b2d1-7f4f68739718"},"vehicle_type_id":"4","last_reported":1683565557,"current_range_meters":6400,"station_id":"ce4bh692rcd13ifvqea0","pricing_plan_id":"free"},{"bike_id":"300f4d8b-584e-4d64-9d90-6c851da138f2","system_id":"levelo_inurba_marseille","lat":43.2926,"lon":5.38436,"is_reserved":false,"is_disabled":false,"rental_uris":{"android":"levelo://app?vid=300f4d8b-584e-4d64-9d90-6c851da138f2","ios":"levelo://app?vid=300f4d8b-584e-4d64-9d90-6c851da138f2"},"vehicle_type_id":"4","last_reported":1683565557,"current_range_meters":17200,"station_id":"ce4bh692rcd13ifvqea0","pricing_plan_id":"free"},{"bike_id":"e5e6ba2d-4cb7-49cd-a4b2-3f3f27d286b6","system_id":"levelo_inurba_marseille","lat":43.292644,"lon":5.384257,"is_reserved":false,"is_disabled":false,"rental_uris":{"android":"levelo://app?vid=e5e6ba2d-4cb7-49cd-a4b2-3f3f27d286b6","ios":"levelo://app?vid=e5e6ba2d-4cb7-49cd-a4b2-3f3f27d286b6"},"vehicle_type_id":"4","last_reported":1683565557,"current_range_meters":15600,"station_id":"ce4bh692rcd13ifvqea0","pricing_plan_id":"free"},{"bike_id":"e5552dde-06a2-4770-8225-0ca13079ceb5","system_id":"levelo_inurba_marseille","lat":43.292642,"lon":5.384254,"is_reserved":false,"is_disabled":false,"rental_uris":{"android":"levelo://app?vid=e5552dde-06a2-4770-8225-0ca13079ceb5","ios":"levelo://app?vid=e5552dde-06a2-4770-8225-0ca13079ceb5"},"vehicle_type_id":"4","last_reported":1683565557,"current_range_meters":14800,"station_id":"ce4bh692rcd13ifvqea0","pricing_plan_id":"free"},{"bike_id":"d7c4b4a5-2b64-4380-a6b0-dbd24b144ba5","system_id":"levelo_inurba_marseille","lat":43.29248,"lon":5.38431,"is_reserved":false,"is_disabled":false,"rental_uris":{"android":"levelo://app?vid=d7c4b4a5-2b64-4380-a6b0-dbd24b144ba5","ios":"levelo://app?vid=d7c4b4a5-2b64-4380-a6b0-dbd24b144ba5"},"vehicle_type_id":"4","last_reported":1683565557,"current_range_meters":20800,"station_id":"ce4bh692rcd13ifvqea0","pricing_plan_id":"free"},{"bike_id":"1242cde5-311e-4616-9f03-3854674e1e6c","system_id":"levelo_inurba_marseille","lat":43.290104,"lon":5.356111,"is_reserved":false,"is_disabled":false,"rental_uris":{"android":"levelo://app?vid=1242cde5-311e-4616-9f03-3854674e1e6c","ios":"levelo://app?vid=1242cde5-311e-4616-9f03-3854674e1e6c"},"vehicle_type_id":"4","last_reported":1683565557,"current_range_meters":4000,"station_id":"ce4bhb92rcd13ifvqen0","pricing_plan_id":"free"},{"bike_id":"2c4d1fc8-5966-49f2-8d08-251e531c7e7f","system_id":"levelo_inurba_marseille","lat":43.33043,"lon":5.38918,"is_reserved":false,"is_disabled":false,"rental_uris":{"android":"levelo://app?vid=2c4d1fc8-5966-49f2-8d08-251e531c7e7f","ios":"levelo://app?vid=2c4d1fc8-5966-49f2-8d08-251e531c7e7f"},"vehicle_type_id":"4","last_reported":1683565557,"current_range_meters":24800,"station_id":"ce4bhr92rcd13ifvqhrg","pricing_plan_id":"free"},{"bike_id":"c80426be-83d3-4e57-a092-befe7b8a7a79","system_id":"levelo_inurba_marseille","lat":43.33045,"lon":5.38916,"is_reserved":false,"is_disabled":false,"rental_uris":{"android":"levelo://app?vid=c80426be-83d3-4e57-a092-befe7b8a7a79","ios":"levelo://app?vid=c80426be-83d3-4e57-a092-befe7b8a7a79"},"vehicle_type_id":"4","last_reported":1683565557,"current_range_meters":25200,"station_id":"ce4bhr92rcd13ifvqhrg","pricing_plan_id":"free"},{"bike_id":"6876df42-a25f-4ad1-948e-cd5aabadbf62","system_id":"levelo_inurba_marseille","lat":43.33044,"lon":5.38919,"is_reserved":false,"is_disabled":false,"rental_uris":{"android":"levelo://app?vid=6876df42-a25f-4ad1-948e-cd5aabadbf62","ios":"levelo://app?vid=6876df42-a25f-4ad1-948e-cd5aabadbf62"},"vehicle_type_id":"4","last_reported":1683565557,"current_range_meters":6400,"station_id":"ce4bhr92rcd13ifvqhrg","pricing_plan_id":"free"},{"bike_id":"72f7fdc7-4763-479b-a34e-f238ca3cd360","system_id":"levelo_inurba_marseille","lat":43.33046,"lon":5.38918,"is_reserved":false,"is_disabled":false,"rental_uris":{"android":"levelo://app?vid=72f7fdc7-4763-479b-a34e-f238ca3cd360","ios":"levelo://app?vid=72f7fdc7-4763-479b-a34e-f238ca3cd360"},"vehicle_type_id":"4","last_reported":1683565557,"current_range_meters":25600,"station_id":"ce4bhr92rcd13ifvqhrg","pricing_plan_id":"free"},{"bike_id":"c10b18d0-c5a3-44a4-bd5e-2966c0fb7c91","system_id":"levelo_inurba_marseille","lat":43.29104,"lon":5.38144,"is_reserved":false,"is_disabled":false,"rental_uris":{"android":"levelo://app?vid=c10b18d0-c5a3-44a4-bd5e-2966c0fb7c91","ios":"levelo://app?vid=c10b18d0-c5a3-44a4-bd5e-2966c0fb7c91"},"vehicle_type_id":"4","last_reported":1683565557,"current_range_meters":3600,"station_id":"ce4bh512rcd13ifvqe2g","pricing_plan_id":"free"},{"bike_id":"94dfe20f-2206-4f01-b76a-bdb03fd680db","system_id":"levelo_inurba_marseille","lat":43.295169,"lon":5.390426,"is_reserved":false,"is_disabled":false,"rental_uris":{"android":"levelo://app?vid=94dfe20f-2206-4f01-b76a-bdb03fd680db","ios":"levelo://app?vid=94dfe20f-2206-4f01-b76a-bdb03fd680db"},"vehicle_type_id":"4","last_reported":1683565557,"current_range_meters":19600,"station_id":"ce4bh3p2rcd13ifvqdp0","pricing_plan_id":"free"},{"bike_id":"1316b91d-9a9f-47c8-a7a1-09ef76bffbaf","system_id":"levelo_inurba_marseille","lat":43.295169,"lon":5.390426,"is_reserved":false,"is_disabled":false,"rental_uris":{"android":"levelo://app?vid=1316b91d-9a9f-47c8-a7a1-09ef76bffbaf","ios":"levelo://app?vid=1316b91d-9a9f-47c8-a7a1-09ef76bffbaf"},"vehicle_type_id":"4","last_reported":1683565557,"current_range_meters":21600,"station_id":"ce4bh3p2rcd13ifvqdp0","pricing_plan_id":"free"},{"bike_id":"dd8c85d1-1893-43dd-9f60-6529364c14a1","system_id":"levelo_inurba_marseille","lat":43.295169,"lon":5.390426,"is_reserved":false,"is_disabled":false,"rental_uris":{"android":"levelo://app?vid=dd8c85d1-1893-43dd-9f60-6529364c14a1","ios":"levelo://app?vid=dd8c85d1-1893-43dd-9f60-6529364c14a1"},"vehicle_type_id":"4","last_reported":1683565557,"current_range_meters":12800,"station_id":"ce4bh3p2rcd13ifvqdp0","pricing_plan_id":"free"},{"bike_id":"78725f08-8d42-4f1a-9002-0d0b35dc7efd","system_id":"levelo_inurba_marseille","lat":43.3375,"lon":5.37428,"is_reserved":false,"is_disabled":false,"rental_uris":{"android":"levelo://app?vid=78725f08-8d42-4f1a-9002-0d0b35dc7efd","ios":"levelo://app?vid=78725f08-8d42-4f1a-9002-0d0b35dc7efd"},"vehicle_type_id":"4","last_reported":1683565557,"current_range_meters":14000,"station_id":"","pricing_plan_id":"free"},{"bike_id":"2360cdbc-248b-47b2-80d5-d94967df4721","system_id":"levelo_inurba_marseille","lat":43.30642,"lon":5.401031,"is_reserved":false,"is_disabled":false,"rental_uris":{"android":"levelo://app?vid=2360cdbc-248b-47b2-80d5-d94967df4721","ios":"levelo://app?vid=2360cdbc-248b-47b2-80d5-d94967df4721"},"vehicle_type_id":"4","last_reported":1683565557,"current_range_meters":0,"station_id":"ce4bh112rcd13ifvqda0","pricing_plan_id":"free"},{"bike_id":"f823d987-7056-4898-bb4c-eabc7a7b12c7","system_id":"levelo_inurba_marseille","lat":43.30642,"lon":5.401031,"is_reserved":false,"is_disabled":false,"rental_uris":{"android":"levelo://app?vid=f823d987-7056-4898-bb4c-eabc7a7b12c7","ios":"levelo://app?vid=f823d987-7056-4898-bb4c-eabc7a7b12c7"},"vehicle_type_id":"4","last_reported":1683565557,"current_range_meters":22800,"station_id":"ce4bh112rcd13ifvqda0","pricing_plan_id":"free"},{"bike_id":"98e86c9a-6a95-4077-800a-bed254a74d1b","system_id":"levelo_inurba_marseille","lat":43.3064,"lon":5.40089,"is_reserved":false,"is_disabled":false,"rental_uris":{"android":"levelo://app?vid=98e86c9a-6a95-4077-800a-bed254a74d1b","ios":"levelo://app?vid=98e86c9a-6a95-4077-800a-bed254a74d1b"},"vehicle_type_id":"4","last_reported":1683565557,"current_range_meters":9600,"station_id":"ce4bh112rcd13ifvqda0","pricing_plan_id":"free"},{"bike_id":"fe549993-059a-48ce-8401-efc760ada098","system_id":"levelo_inurba_marseille","lat":43.30642,"lon":5.401031,"is_reserved":false,"is_disabled":false,"rental_uris":{"android":"levelo://app?vid=fe549993-059a-48ce-8401-efc760ada098","ios":"levelo://app?vid=fe549993-059a-48ce-8401-efc760ada098"},"vehicle_type_id":"4","last_reported":1683565557,"current_range_meters":21200,"station_id":"ce4bh112rcd13ifvqda0","pricing_plan_id":"free"},{"bike_id":"4d4fbc7f-c375-4ce8-8a05-9e877a293e86","system_id":"levelo_inurba_marseille","lat":43.30642,"lon":5.401031,"is_reserved":false,"is_disabled":false,"rental_uris":{"android":"levelo://app?vid=4d4fbc7f-c375-4ce8-8a05-9e877a293e86","ios":"levelo://app?vid=4d4fbc7f-c375-4ce8-8a05-9e877a293e86"},"vehicle_type_id":"4","last_reported":1683565557,"current_range_meters":30800,"station_id":"ce4bh112rcd13ifvqda0","pricing_plan_id":"free"},{"bike_id":"7c7fe969-ca3b-4e6a-9b0a-6e22bc5df003","system_id":"levelo_inurba_marseille","lat":43.33775,"lon":5.37437,"is_reserved":false,"is_disabled":false,"rental_uris":{"android":"levelo://app?vid=7c7fe969-ca3b-4e6a-9b0a-6e22bc5df003","ios":"levelo://app?vid=7c7fe969-ca3b-4e6a-9b0a-6e22bc5df003"},"vehicle_type_id":"4","last_reported":1683565557,"current_range_meters":31200,"station_id":"ce4rr2p2rcd13i802rgg","pricing_plan_id":"free"},{"bike_id":"5d476b78-3b39-4e12-afa6-8ead2afa0f80","system_id":"levelo_inurba_marseille","lat":43.30642,"lon":5.401031,"is_reserved":false,"is_disabled":false,"rental_uris":{"android":"levelo://app?vid=5d476b78-3b39-4e12-afa6-8ead2afa0f80","ios":"levelo://app?vid=5d476b78-3b39-4e12-afa6-8ead2afa0f80"},"vehicle_type_id":"4","last_reported":1683565557,"current_range_meters":5200,"station_id":"ce4bh112rcd13ifvqda0","pricing_plan_id":"free"},{"bike_id":"b4d2bbff-b2dd-43d4-b642-cbde7c159902","system_id":"levelo_inurba_marseille","lat":43.33772,"lon":5.37468,"is_reserved":false,"is_disabled":false,"rental_uris":{"android":"levelo://app?vid=b4d2bbff-b2dd-43d4-b642-cbde7c159902","ios":"levelo://app?vid=b4d2bbff-b2dd-43d4-b642-cbde7c159902"},"vehicle_type_id":"4","last_reported":1683565557,"current_range_meters":26400,"station_id":"","pricing_plan_id":"free"},{"bike_id":"21fd4991-eba0-4b16-8304-09f779322b2e","system_id":"levelo_inurba_marseille","lat":43.298681,"lon":5.397225,"is_reserved":false,"is_disabled":false,"rental_uris":{"android":"levelo://app?vid=21fd4991-eba0-4b16-8304-09f779322b2e","ios":"levelo://app?vid=21fd4991-eba0-4b16-8304-09f779322b2e"},"vehicle_type_id":"4","last_reported":1683565557,"current_range_meters":2000,"station_id":"ce4bh0h2rcd13ifvqd50","pricing_plan_id":"free"},{"bike_id":"9e89e1bb-febc-440e-a066-5e002950af11","system_id":"levelo_inurba_marseille","lat":43.286039,"lon":5.370679,"is_reserved":false,"is_disabled":false,"rental_uris":{"android":"levelo://app?vid=9e89e1bb-febc-440e-a066-5e002950af11","ios":"levelo://app?vid=9e89e1bb-febc-440e-a066-5e002950af11"},"vehicle_type_id":"4","last_reported":1683565557,"current_range_meters":14800,"station_id":"ce4bht12rcd13ifvqi60","pricing_plan_id":"free"},{"bike_id":"f5d8c6c5-e2ae-4069-8e66-a6a8e2f1fc69","system_id":"levelo_inurba_marseille","lat":43.290779,"lon":5.371482,"is_reserved":false,"is_disabled":false,"rental_uris":{"android":"levelo://app?vid=f5d8c6c5-e2ae-4069-8e66-a6a8e2f1fc69","ios":"levelo://app?vid=f5d8c6c5-e2ae-4069-8e66-a6a8e2f1fc69"},"vehicle_type_id":"4","last_reported":1683565557,"current_range_meters":12000,"station_id":"ce4bh5p2rcd13ifvqe4g","pricing_plan_id":"free"},{"bike_id":"e4f446dc-8894-4469-9f4e-d7a80324155c","system_id":"levelo_inurba_marseille","lat":43.298681,"lon":5.397225,"is_reserved":false,"is_disabled":false,"rental_uris":{"android":"levelo://app?vid=e4f446dc-8894-4469-9f4e-d7a80324155c","ios":"levelo://app?vid=e4f446dc-8894-4469-9f4e-d7a80324155c"},"vehicle_type_id":"4","last_reported":1683565557,"current_range_meters":12000,"station_id":"ce4bh0h2rcd13ifvqd50","pricing_plan_id":"free"},{"bike_id":"0e2fade7-ad74-4e62-94d3-40f2c6efa66f","system_id":"levelo_inurba_marseille","lat":43.298681,"lon":5.397225,"is_reserved":false,"is_disabled":false,"rental_uris":{"android":"levelo://app?vid=0e2fade7-ad74-4e62-94d3-40f2c6efa66f","ios":"levelo://app?vid=0e2fade7-ad74-4e62-94d3-40f2c6efa66f"},"vehicle_type_id":"4","last_reported":1683565557,"current_range_meters":400,"station_id":"ce4bh0h2rcd13ifvqd50","pricing_plan_id":"free"},{"bike_id":"6bcdebb1-b30f-408f-bcb6-318c70c29012","system_id":"levelo_inurba_marseille","lat":43.302759,"lon":5.400793,"is_reserved":false,"is_disabled":false,"rental_uris":{"android":"levelo://app?vid=6bcdebb1-b30f-408f-bcb6-318c70c29012","ios":"levelo://app?vid=6bcdebb1-b30f-408f-bcb6-318c70c29012"},"vehicle_type_id":"4","last_reported":1683565557,"current_range_meters":28000,"station_id":"ce4bgvh2rcd13ifvqcs0","pricing_plan_id":"free"},{"bike_id":"4f92520c-76c4-4861-99a6-b4984a9e5ab5","system_id":"levelo_inurba_marseille","lat":43.302759,"lon":5.400793,"is_reserved":false,"is_disabled":false,"rental_uris":{"android":"levelo://app?vid=4f92520c-76c4-4861-99a6-b4984a9e5ab5","ios":"levelo://app?vid=4f92520c-76c4-4861-99a6-b4984a9e5ab5"},"vehicle_type_id":"4","last_reported":1683565557,"current_range_meters":16400,"station_id":"ce4bgvh2rcd13ifvqcs0","pricing_plan_id":"free"},{"bike_id":"d349b391-9c5d-4310-adb8-73ecce593e17","system_id":"levelo_inurba_marseille","lat":43.302759,"lon":5.400793,"is_reserved":false,"is_disabled":false,"rental_uris":{"android":"levelo://app?vid=d349b391-9c5d-4310-adb8-73ecce593e17","ios":"levelo://app?vid=d349b391-9c5d-4310-adb8-73ecce593e17"},"vehicle_type_id":"4","last_reported":1683565557,"current_range_meters":10000,"station_id":"ce4bgvh2rcd13ifvqcs0","pricing_plan_id":"free"},{"bike_id":"eba7a8c3-9563-4ade-9568-ab41225beb47","system_id":"levelo_inurba_marseille","lat":43.302759,"lon":5.400793,"is_reserved":false,"is_disabled":false,"rental_uris":{"android":"levelo://app?vid=eba7a8c3-9563-4ade-9568-ab41225beb47","ios":"levelo://app?vid=eba7a8c3-9563-4ade-9568-ab41225beb47"},"vehicle_type_id":"4","last_reported":1683565557,"current_range_meters":10000,"station_id":"ce4bgvh2rcd13ifvqcs0","pricing_plan_id":"free"},{"bike_id":"df3d76c2-1a04-412f-9594-652df385601c","system_id":"levelo_inurba_marseille","lat":43.30254,"lon":5.40077,"is_reserved":false,"is_disabled":false,"rental_uris":{"android":"levelo://app?vid=df3d76c2-1a04-412f-9594-652df385601c","ios":"levelo://app?vid=df3d76c2-1a04-412f-9594-652df385601c"},"vehicle_type_id":"4","last_reported":1683565557,"current_range_meters":8400,"station_id":"","pricing_plan_id":"free"},{"bike_id":"c09ed9e6-5ff7-4551-96cf-d834ba882ca8","system_id":"levelo_inurba_marseille","lat":43.286039,"lon":5.370679,"is_reserved":false,"is_disabled":false,"rental_uris":{"android":"levelo://app?vid=c09ed9e6-5ff7-4551-96cf-d834ba882ca8","ios":"levelo://app?vid=c09ed9e6-5ff7-4551-96cf-d834ba882ca8"},"vehicle_type_id":"4","last_reported":1683565557,"current_range_meters":4000,"station_id":"ce4bht12rcd13ifvqi60","pricing_plan_id":"free"},{"bike_id":"5d8e9d0e-ff00-4e6f-a9f3-002675cc963a","system_id":"levelo_inurba_marseille","lat":43.286039,"lon":5.370679,"is_reserved":false,"is_disabled":false,"rental_uris":{"android":"levelo://app?vid=5d8e9d0e-ff00-4e6f-a9f3-002675cc963a","ios":"levelo://app?vid=5d8e9d0e-ff00-4e6f-a9f3-002675cc963a"},"vehicle_type_id":"4","last_reported":1683565557,"current_range_meters":15600,"station_id":"ce4bht12rcd13ifvqi60","pricing_plan_id":"free"},{"bike_id":"c56749c3-d272-4843-90a2-f48972a1c742","system_id":"levelo_inurba_marseille","lat":43.286039,"lon":5.370681,"is_reserved":false,"is_disabled":false,"rental_uris":{"android":"levelo://app?vid=c56749c3-d272-4843-90a2-f48972a1c742","ios":"levelo://app?vid=c56749c3-d272-4843-90a2-f48972a1c742"},"vehicle_type_id":"4","last_reported":1683565557,"current_range_meters":22000,"station_id":"ce4bht12rcd13ifvqi60","pricing_plan_id":"free"},{"bike_id":"ec4adfa9-7d30-438a-9428-727803aa2a36","system_id":"levelo_inurba_marseille","lat":43.291994,"lon":5.392907,"is_reserved":false,"is_disabled":false,"rental_uris":{"android":"levelo://app?vid=ec4adfa9-7d30-438a-9428-727803aa2a36","ios":"levelo://app?vid=ec4adfa9-7d30-438a-9428-727803aa2a36"},"vehicle_type_id":"4","last_reported":1683565557,"current_range_meters":21200,"station_id":"ce4bh192rcd13ifvqdd0","pricing_plan_id":"free"},{"bike_id":"213af623-0f54-4a3d-b9ee-5138dced21de","system_id":"levelo_inurba_marseille","lat":43.291994,"lon":5.392907,"is_reserved":false,"is_disabled":false,"rental_uris":{"android":"levelo://app?vid=213af623-0f54-4a3d-b9ee-5138dced21de","ios":"levelo://app?vid=213af623-0f54-4a3d-b9ee-5138dced21de"},"vehicle_type_id":"4","last_reported":1683565557,"current_range_meters":8800,"station_id":"ce4bh192rcd13ifvqdd0","pricing_plan_id":"free"},{"bike_id":"c3a3070c-6eb0-41ca-bac9-d5f94e7c0c22","system_id":"levelo_inurba_marseille","lat":43.284534,"lon":5.358662,"is_reserved":false,"is_disabled":false,"rental_uris":{"android":"levelo://app?vid=c3a3070c-6eb0-41ca-bac9-d5f94e7c0c22","ios":"levelo://app?vid=c3a3070c-6eb0-41ca-bac9-d5f94e7c0c22"},"vehicle_type_id":"4","last_reported":1683565557,"current_range_meters":16000,"station_id":"ce4bhah2rcd13ifvqei0","pricing_plan_id":"free"},{"bike_id":"95dfccc2-faf0-4901-a5d6-4cf484fb14d6","system_id":"levelo_inurba_marseille","lat":43.284534,"lon":5.358662,"is_reserved":false,"is_disabled":false,"rental_uris":{"android":"levelo://app?vid=95dfccc2-faf0-4901-a5d6-4cf484fb14d6","ios":"levelo://app?vid=95dfccc2-faf0-4901-a5d6-4cf484fb14d6"},"vehicle_type_id":"4","last_reported":1683565557,"current_range_meters":4000,"station_id":"ce4bhah2rcd13ifvqei0","pricing_plan_id":"free"},{"bike_id":"ce3ebba6-38ba-4724-acee-5e309e1ca972","system_id":"levelo_inurba_marseille","lat":43.295713,"lon":5.399639,"is_reserved":false,"is_disabled":false,"rental_uris":{"android":"levelo://app?vid=ce3ebba6-38ba-4724-acee-5e309e1ca972","ios":"levelo://app?vid=ce3ebba6-38ba-4724-acee-5e309e1ca972"},"vehicle_type_id":"4","last_reported":1683565557,"current_range_meters":3200,"station_id":"ce4bh312rcd13ifvqdj0","pricing_plan_id":"free"},{"bike_id":"64070add-a04b-44ad-a056-9c6f36ea12f7","system_id":"levelo_inurba_marseille","lat":43.295721,"lon":5.3999,"is_reserved":false,"is_disabled":false,"rental_uris":{"android":"levelo://app?vid=64070add-a04b-44ad-a056-9c6f36ea12f7","ios":"levelo://app?vid=64070add-a04b-44ad-a056-9c6f36ea12f7"},"vehicle_type_id":"4","last_reported":1683565557,"current_range_meters":0,"station_id":"ce4bh312rcd13ifvqdj0","pricing_plan_id":"free"},{"bike_id":"7f3f2f50-303b-4287-b1e9-237e2f2f0dc5","system_id":"levelo_inurba_marseille","lat":43.28674,"lon":5.38656,"is_reserved":false,"is_disabled":false,"rental_uris":{"android":"levelo://app?vid=7f3f2f50-303b-4287-b1e9-237e2f2f0dc5","ios":"levelo://app?vid=7f3f2f50-303b-4287-b1e9-237e2f2f0dc5"},"vehicle_type_id":"4","last_reported":1683565557,"current_range_meters":0,"station_id":"ce4bh492rcd13ifvqdug","pricing_plan_id":"free"},{"bike_id":"b9ddc48f-8f77-465a-9057-9f5c6a039b00","system_id":"levelo_inurba_marseille","lat":43.28669,"lon":5.38653,"is_reserved":false,"is_disabled":false,"rental_uris":{"android":"levelo://app?vid=b9ddc48f-8f77-465a-9057-9f5c6a039b00","ios":"levelo://app?vid=b9ddc48f-8f77-465a-9057-9f5c6a039b00"},"vehicle_type_id":"4","last_reported":1683565557,"current_range_meters":3200,"station_id":"ce4bh492rcd13ifvqdug","pricing_plan_id":"free"},{"bike_id":"3b79a167-ab77-4723-abe0-66fc9f86f2bd","system_id":"levelo_inurba_marseille","lat":43.28671,"lon":5.38662,"is_reserved":false,"is_disabled":false,"rental_uris":{"android":"levelo://app?vid=3b79a167-ab77-4723-abe0-66fc9f86f2bd","ios":"levelo://app?vid=3b79a167-ab77-4723-abe0-66fc9f86f2bd"},"vehicle_type_id":"4","last_reported":1683565557,"current_range_meters":12800,"station_id":"ce4bh492rcd13ifvqdug","pricing_plan_id":"free"},{"bike_id":"fa7169ad-f437-4b3a-aa32-5c3ef32935d3","system_id":"levelo_inurba_marseille","lat":43.337168,"lon":5.391825,"is_reserved":false,"is_disabled":false,"rental_uris":{"android":"levelo://app?vid=fa7169ad-f437-4b3a-aa32-5c3ef32935d3","ios":"levelo://app?vid=fa7169ad-f437-4b3a-aa32-5c3ef32935d3"},"vehicle_type_id":"4","last_reported":1683565557,"current_range_meters":13200,"station_id":"ce4bhr92rcd13ifvqhsg","pricing_plan_id":"free"},{"bike_id":"9c83bfd6-c1b6-4a4e-a784-955d5b766f75","system_id":"levelo_inurba_marseille","lat":43.323464,"lon":5.406297,"is_reserved":false,"is_disabled":false,"rental_uris":{"android":"levelo://app?vid=9c83bfd6-c1b6-4a4e-a784-955d5b766f75","ios":"levelo://app?vid=9c83bfd6-c1b6-4a4e-a784-955d5b766f75"},"vehicle_type_id":"4","last_reported":1683565557,"current_range_meters":24000,"station_id":"ce4bhq92rcd13ifvqhjg","pricing_plan_id":"free"},{"bike_id":"f1aa2330-3b31-44a4-97f8-e98ceff08ecf","system_id":"levelo_inurba_marseille","lat":43.33969,"lon":5.38653,"is_reserved":false,"is_disabled":false,"rental_uris":{"android":"levelo://app?vid=f1aa2330-3b31-44a4-97f8-e98ceff08ecf","ios":"levelo://app?vid=f1aa2330-3b31-44a4-97f8-e98ceff08ecf"},"vehicle_type_id":"4","last_reported":1683565557,"current_range_meters":28400,"station_id":"","pricing_plan_id":"free"},{"bike_id":"eeed33b8-4405-4fee-8d96-fecd07572891","system_id":"levelo_inurba_marseille","lat":43.323464,"lon":5.406297,"is_reserved":false,"is_disabled":false,"rental_uris":{"android":"levelo://app?vid=eeed33b8-4405-4fee-8d96-fecd07572891","ios":"levelo://app?vid=eeed33b8-4405-4fee-8d96-fecd07572891"},"vehicle_type_id":"4","last_reported":1683565557,"current_range_meters":31200,"station_id":"ce4bhq92rcd13ifvqhjg","pricing_plan_id":"free"},{"bike_id":"f4389cde-4a8d-4f3a-a48b-d7cf25bc0727","system_id":"levelo_inurba_marseille","lat":43.284787,"lon":5.384116,"is_reserved":false,"is_disabled":false,"rental_uris":{"android":"levelo://app?vid=f4389cde-4a8d-4f3a-a48b-d7cf25bc0727","ios":"levelo://app?vid=f4389cde-4a8d-4f3a-a48b-d7cf25bc0727"},"vehicle_type_id":"4","last_reported":1683565557,"current_range_meters":26800,"station_id":"ce4bh512rcd13ifvqe3g","pricing_plan_id":"free"},{"bike_id":"d4d9dc4b-6ae9-4fa0-9c56-d31159c4dfe5","system_id":"levelo_inurba_marseille","lat":43.284793,"lon":5.384119,"is_reserved":false,"is_disabled":false,"rental_uris":{"android":"levelo://app?vid=d4d9dc4b-6ae9-4fa0-9c56-d31159c4dfe5","ios":"levelo://app?vid=d4d9dc4b-6ae9-4fa0-9c56-d31159c4dfe5"},"vehicle_type_id":"4","last_reported":1683565557,"current_range_meters":2000,"station_id":"ce4bh512rcd13ifvqe3g","pricing_plan_id":"free"},{"bike_id":"18fac095-e328-4a83-8636-21aa8d0a7351","system_id":"levelo_inurba_marseille","lat":43.288501,"lon":5.393087,"is_reserved":false,"is_disabled":false,"rental_uris":{"android":"levelo://app?vid=18fac095-e328-4a83-8636-21aa8d0a7351","ios":"levelo://app?vid=18fac095-e328-4a83-8636-21aa8d0a7351"},"vehicle_type_id":"4","last_reported":1683565557,"current_range_meters":22400,"station_id":"ce4bh2p2rcd13ifvqdi0","pricing_plan_id":"free"},{"bike_id":"3f983024-c437-4a7c-9031-99d10df4b3c7","system_id":"levelo_inurba_marseille","lat":43.288497,"lon":5.393089,"is_reserved":false,"is_disabled":false,"rental_uris":{"android":"levelo://app?vid=3f983024-c437-4a7c-9031-99d10df4b3c7","ios":"levelo://app?vid=3f983024-c437-4a7c-9031-99d10df4b3c7"},"vehicle_type_id":"4","last_reported":1683565557,"current_range_meters":18800,"station_id":"ce4bh2p2rcd13ifvqdi0","pricing_plan_id":"free"},{"bike_id":"aaa538ff-e314-4b5f-81fb-34d132333bf6","system_id":"levelo_inurba_marseille","lat":43.284187,"lon":5.349827,"is_reserved":false,"is_disabled":false,"rental_uris":{"android":"levelo://app?vid=aaa538ff-e314-4b5f-81fb-34d132333bf6","ios":"levelo://app?vid=aaa538ff-e314-4b5f-81fb-34d132333bf6"},"vehicle_type_id":"4","last_reported":1683565557,"current_range_meters":0,"station_id":"","pricing_plan_id":"free"},{"bike_id":"8044ff99-9cbc-4e2a-977d-5a4e1d33d212","system_id":"levelo_inurba_marseille","lat":43.283502,"lon":5.386471,"is_reserved":false,"is_disabled":false,"rental_uris":{"android":"levelo://app?vid=8044ff99-9cbc-4e2a-977d-5a4e1d33d212","ios":"levelo://app?vid=8044ff99-9cbc-4e2a-977d-5a4e1d33d212"},"vehicle_type_id":"4","last_reported":1683565557,"current_range_meters":0,"station_id":"ce4bh492rcd13ifvqdvg","pricing_plan_id":"free"},{"bike_id":"30cfbec4-bc47-47bf-91e4-b660b289a398","system_id":"levelo_inurba_marseille","lat":43.28039,"lon":5.369297,"is_reserved":false,"is_disabled":false,"rental_uris":{"android":"levelo://app?vid=30cfbec4-bc47-47bf-91e4-b660b289a398","ios":"levelo://app?vid=30cfbec4-bc47-47bf-91e4-b660b289a398"},"vehicle_type_id":"4","last_reported":1683565557,"current_range_meters":26800,"station_id":"ce4bha12rcd13ifvqef0","pricing_plan_id":"free"},{"bike_id":"76242f32-c407-44d4-84d7-fa1d50b0f9dc","system_id":"levelo_inurba_marseille","lat":43.32444,"lon":5.40831,"is_reserved":false,"is_disabled":false,"rental_uris":{"android":"levelo://app?vid=76242f32-c407-44d4-84d7-fa1d50b0f9dc","ios":"levelo://app?vid=76242f32-c407-44d4-84d7-fa1d50b0f9dc"},"vehicle_type_id":"4","last_reported":1683565557,"current_range_meters":0,"station_id":"","pricing_plan_id":"free"},{"bike_id":"5d533c11-d8fd-40c7-a4a6-4224053e4438","system_id":"levelo_inurba_marseille","lat":43.28043,"lon":5.36948,"is_reserved":false,"is_disabled":false,"rental_uris":{"android":"levelo://app?vid=5d533c11-d8fd-40c7-a4a6-4224053e4438","ios":"levelo://app?vid=5d533c11-d8fd-40c7-a4a6-4224053e4438"},"vehicle_type_id":"4","last_reported":1683565557,"current_range_meters":17600,"station_id":"ce4bha12rcd13ifvqef0","pricing_plan_id":"free"},{"bike_id":"4dffe24e-8439-4bd3-a688-adeab794171f","system_id":"levelo_inurba_marseille","lat":43.28039,"lon":5.369297,"is_reserved":false,"is_disabled":false,"rental_uris":{"android":"levelo://app?vid=4dffe24e-8439-4bd3-a688-adeab794171f","ios":"levelo://app?vid=4dffe24e-8439-4bd3-a688-adeab794171f"},"vehicle_type_id":"4","last_reported":1683565557,"current_range_meters":10000,"station_id":"ce4bha12rcd13ifvqef0","pricing_plan_id":"free"},{"bike_id":"cf651dc1-b62d-400d-b3cd-8b8db050d14a","system_id":"levelo_inurba_marseille","lat":43.28041,"lon":5.3695,"is_reserved":false,"is_disabled":false,"rental_uris":{"android":"levelo://app?vid=cf651dc1-b62d-400d-b3cd-8b8db050d14a","ios":"levelo://app?vid=cf651dc1-b62d-400d-b3cd-8b8db050d14a"},"vehicle_type_id":"4","last_reported":1683565557,"current_range_meters":20800,"station_id":"ce4bha12rcd13ifvqef0","pricing_plan_id":"free"},{"bike_id":"313da5e9-4c41-46e2-b3d8-b3186b8cd53e","system_id":"levelo_inurba_marseille","lat":43.28041,"lon":5.36953,"is_reserved":false,"is_disabled":false,"rental_uris":{"android":"levelo://app?vid=313da5e9-4c41-46e2-b3d8-b3186b8cd53e","ios":"levelo://app?vid=313da5e9-4c41-46e2-b3d8-b3186b8cd53e"},"vehicle_type_id":"4","last_reported":1683565557,"current_range_meters":20400,"station_id":"ce4bha12rcd13ifvqef0","pricing_plan_id":"free"},{"bike_id":"963a23f7-aefb-4db4-93ec-c5829f521534","system_id":"levelo_inurba_marseille","lat":43.28039,"lon":5.369297,"is_reserved":false,"is_disabled":false,"rental_uris":{"android":"levelo://app?vid=963a23f7-aefb-4db4-93ec-c5829f521534","ios":"levelo://app?vid=963a23f7-aefb-4db4-93ec-c5829f521534"},"vehicle_type_id":"4","last_reported":1683565557,"current_range_meters":30000,"station_id":"ce4bha12rcd13ifvqef0","pricing_plan_id":"free"},{"bike_id":"f4300baf-d67d-4414-a794-f066c8aa3b10","system_id":"levelo_inurba_marseille","lat":43.28039,"lon":5.36948,"is_reserved":false,"is_disabled":false,"rental_uris":{"android":"levelo://app?vid=f4300baf-d67d-4414-a794-f066c8aa3b10","ios":"levelo://app?vid=f4300baf-d67d-4414-a794-f066c8aa3b10"},"vehicle_type_id":"4","last_reported":1683565557,"current_range_meters":0,"station_id":"ce4bha12rcd13ifvqef0","pricing_plan_id":"free"},{"bike_id":"38ca7130-4f50-494d-93d7-7782329d2af8","system_id":"levelo_inurba_marseille","lat":43.28039,"lon":5.369297,"is_reserved":false,"is_disabled":false,"rental_uris":{"android":"levelo://app?vid=38ca7130-4f50-494d-93d7-7782329d2af8","ios":"levelo://app?vid=38ca7130-4f50-494d-93d7-7782329d2af8"},"vehicle_type_id":"4","last_reported":1683565557,"current_range_meters":22000,"station_id":"ce4bha12rcd13ifvqef0","pricing_plan_id":"free"},{"bike_id":"01ec4030-f9c1-4dd7-b138-2b3632c9d4c6","system_id":"levelo_inurba_marseille","lat":43.283502,"lon":5.386471,"is_reserved":false,"is_disabled":false,"rental_uris":{"android":"levelo://app?vid=01ec4030-f9c1-4dd7-b138-2b3632c9d4c6","ios":"levelo://app?vid=01ec4030-f9c1-4dd7-b138-2b3632c9d4c6"},"vehicle_type_id":"4","last_reported":1683565557,"current_range_meters":18400,"station_id":"ce4bh492rcd13ifvqdvg","pricing_plan_id":"free"},{"bike_id":"ffe71b75-027c-49e1-a6db-4f1e164b47af","system_id":"levelo_inurba_marseille","lat":43.28035,"lon":5.36952,"is_reserved":false,"is_disabled":false,"rental_uris":{"android":"levelo://app?vid=ffe71b75-027c-49e1-a6db-4f1e164b47af","ios":"levelo://app?vid=ffe71b75-027c-49e1-a6db-4f1e164b47af"},"vehicle_type_id":"4","last_reported":1683565557,"current_range_meters":29600,"station_id":"ce4bha12rcd13ifvqef0","pricing_plan_id":"free"},{"bike_id":"b8cb1afa-0730-46dc-8483-c2c9b5b8cfba","system_id":"levelo_inurba_marseille","lat":43.28039,"lon":5.369297,"is_reserved":false,"is_disabled":false,"rental_uris":{"android":"levelo://app?vid=b8cb1afa-0730-46dc-8483-c2c9b5b8cfba","ios":"levelo://app?vid=b8cb1afa-0730-46dc-8483-c2c9b5b8cfba"},"vehicle_type_id":"4","last_reported":1683565557,"current_range_meters":0,"station_id":"ce4bha12rcd13ifvqef0","pricing_plan_id":"free"},{"bike_id":"13e67150-c896-4123-b1fa-6d0bdf7541a2","system_id":"levelo_inurba_marseille","lat":43.296328,"lon":5.405494,"is_reserved":false,"is_disabled":false,"rental_uris":{"android":"levelo://app?vid=13e67150-c896-4123-b1fa-6d0bdf7541a2","ios":"levelo://app?vid=13e67150-c896-4123-b1fa-6d0bdf7541a2"},"vehicle_type_id":"4","last_reported":1683565557,"current_range_meters":800,"station_id":"","pricing_plan_id":"free"},{"bike_id":"456f5319-0db4-4665-8f42-dabd3313a79c","system_id":"levelo_inurba_marseille","lat":43.281211,"lon":5.378515,"is_reserved":false,"is_disabled":false,"rental_uris":{"android":"levelo://app?vid=456f5319-0db4-4665-8f42-dabd3313a79c","ios":"levelo://app?vid=456f5319-0db4-4665-8f42-dabd3313a79c"},"vehicle_type_id":"4","last_reported":1683565557,"current_range_meters":7200,"station_id":"","pricing_plan_id":"free"},{"bike_id":"09a69c57-7bca-4ef0-91cc-4925344ec304","system_id":"levelo_inurba_marseille","lat":43.281044,"lon":5.378308,"is_reserved":false,"is_disabled":false,"rental_uris":{"android":"levelo://app?vid=09a69c57-7bca-4ef0-91cc-4925344ec304","ios":"levelo://app?vid=09a69c57-7bca-4ef0-91cc-4925344ec304"},"vehicle_type_id":"4","last_reported":1683565557,"current_range_meters":22800,"station_id":"ce4bha12rcd13ifvqee0","pricing_plan_id":"free"},{"bike_id":"3bb5e6b9-f424-4b25-8b45-4795b91d1c74","system_id":"levelo_inurba_marseille","lat":43.281044,"lon":5.378308,"is_reserved":false,"is_disabled":false,"rental_uris":{"android":"levelo://app?vid=3bb5e6b9-f424-4b25-8b45-4795b91d1c74","ios":"levelo://app?vid=3bb5e6b9-f424-4b25-8b45-4795b91d1c74"},"vehicle_type_id":"4","last_reported":1683565557,"current_range_meters":16800,"station_id":"ce4bha12rcd13ifvqee0","pricing_plan_id":"free"},{"bike_id":"467544dc-b5cb-4339-bb5a-08eecf1f9193","system_id":"levelo_inurba_marseille","lat":43.296263,"lon":5.40601,"is_reserved":false,"is_disabled":false,"rental_uris":{"android":"levelo://app?vid=467544dc-b5cb-4339-bb5a-08eecf1f9193","ios":"levelo://app?vid=467544dc-b5cb-4339-bb5a-08eecf1f9193"},"vehicle_type_id":"4","last_reported":1683565557,"current_range_meters":4800,"station_id":"ce4bh0h2rcd13ifvqd60","pricing_plan_id":"free"},{"bike_id":"b15db276-d568-4013-afda-f52ce79b7264","system_id":"levelo_inurba_marseille","lat":43.284462,"lon":5.392121,"is_reserved":false,"is_disabled":false,"rental_uris":{"android":"levelo://app?vid=b15db276-d568-4013-afda-f52ce79b7264","ios":"levelo://app?vid=b15db276-d568-4013-afda-f52ce79b7264"},"vehicle_type_id":"4","last_reported":1683565557,"current_range_meters":15600,"station_id":"ce4bhoh2rcd13ifvqh5g","pricing_plan_id":"free"},{"bike_id":"7d9d45c7-bfdb-4a75-8456-66277b3fb7de","system_id":"levelo_inurba_marseille","lat":43.284462,"lon":5.392121,"is_reserved":false,"is_disabled":false,"rental_uris":{"android":"levelo://app?vid=7d9d45c7-bfdb-4a75-8456-66277b3fb7de","ios":"levelo://app?vid=7d9d45c7-bfdb-4a75-8456-66277b3fb7de"},"vehicle_type_id":"4","last_reported":1683565557,"current_range_meters":5200,"station_id":"ce4bhoh2rcd13ifvqh5g","pricing_plan_id":"free"},{"bike_id":"8eae172b-a0af-4faf-95e9-60284be22d4c","system_id":"levelo_inurba_marseille","lat":43.284462,"lon":5.392121,"is_reserved":false,"is_disabled":false,"rental_uris":{"android":"levelo://app?vid=8eae172b-a0af-4faf-95e9-60284be22d4c","ios":"levelo://app?vid=8eae172b-a0af-4faf-95e9-60284be22d4c"},"vehicle_type_id":"4","last_reported":1683565557,"current_range_meters":12800,"station_id":"ce4bhoh2rcd13ifvqh5g","pricing_plan_id":"free"},{"bike_id":"22381b0a-657d-4bef-b5f0-59a8c1b01d14","system_id":"levelo_inurba_marseille","lat":43.284462,"lon":5.392121,"is_reserved":false,"is_disabled":false,"rental_uris":{"android":"levelo://app?vid=22381b0a-657d-4bef-b5f0-59a8c1b01d14","ios":"levelo://app?vid=22381b0a-657d-4bef-b5f0-59a8c1b01d14"},"vehicle_type_id":"4","last_reported":1683565557,"current_range_meters":30400,"station_id":"ce4bhoh2rcd13ifvqh5g","pricing_plan_id":"free"},{"bike_id":"a56cc0c8-99d2-4133-be0c-34108a37445f","system_id":"levelo_inurba_marseille","lat":43.28573,"lon":5.394992,"is_reserved":false,"is_disabled":false,"rental_uris":{"android":"levelo://app?vid=a56cc0c8-99d2-4133-be0c-34108a37445f","ios":"levelo://app?vid=a56cc0c8-99d2-4133-be0c-34108a37445f"},"vehicle_type_id":"4","last_reported":1683565557,"current_range_meters":9200,"station_id":"ce4bh292rcd13ifvqdg0","pricing_plan_id":"free"},{"bike_id":"de7ea1e6-fa43-469e-b37b-7f7dd52fa4a5","system_id":"levelo_inurba_marseille","lat":43.32609,"lon":5.41049,"is_reserved":false,"is_disabled":false,"rental_uris":{"android":"levelo://app?vid=de7ea1e6-fa43-469e-b37b-7f7dd52fa4a5","ios":"levelo://app?vid=de7ea1e6-fa43-469e-b37b-7f7dd52fa4a5"},"vehicle_type_id":"4","last_reported":1683565557,"current_range_meters":1200,"station_id":"ce4bhpp2rcd13ifvqhgg","pricing_plan_id":"free"},{"bike_id":"d43101b5-746e-41b0-a429-3467052e0791","system_id":"levelo_inurba_marseille","lat":43.320045,"lon":5.415048,"is_reserved":false,"is_disabled":false,"rental_uris":{"android":"levelo://app?vid=d43101b5-746e-41b0-a429-3467052e0791","ios":"levelo://app?vid=d43101b5-746e-41b0-a429-3467052e0791"},"vehicle_type_id":"4","last_reported":1683565557,"current_range_meters":30800,"station_id":"ce4bhq92rcd13ifvqhkg","pricing_plan_id":"free"},{"bike_id":"b58044b5-53d2-4380-b355-31d5d93a315d","system_id":"levelo_inurba_marseille","lat":43.320045,"lon":5.415048,"is_reserved":false,"is_disabled":false,"rental_uris":{"android":"levelo://app?vid=b58044b5-53d2-4380-b355-31d5d93a315d","ios":"levelo://app?vid=b58044b5-53d2-4380-b355-31d5d93a315d"},"vehicle_type_id":"4","last_reported":1683565557,"current_range_meters":31200,"station_id":"ce4bhq92rcd13ifvqhkg","pricing_plan_id":"free"},{"bike_id":"5085f70d-af80-435c-aaff-3d14cb76bf44","system_id":"levelo_inurba_marseille","lat":43.320045,"lon":5.415048,"is_reserved":false,"is_disabled":false,"rental_uris":{"android":"levelo://app?vid=5085f70d-af80-435c-aaff-3d14cb76bf44","ios":"levelo://app?vid=5085f70d-af80-435c-aaff-3d14cb76bf44"},"vehicle_type_id":"4","last_reported":1683565557,"current_range_meters":22400,"station_id":"ce4bhq92rcd13ifvqhkg","pricing_plan_id":"free"},{"bike_id":"e686f7e5-789f-4098-9874-cecb185ac255","system_id":"levelo_inurba_marseille","lat":43.279742,"lon":5.38744,"is_reserved":false,"is_disabled":false,"rental_uris":{"android":"levelo://app?vid=e686f7e5-789f-4098-9874-cecb185ac255","ios":"levelo://app?vid=e686f7e5-789f-4098-9874-cecb185ac255"},"vehicle_type_id":"4","last_reported":1683565557,"current_range_meters":0,"station_id":"ce4bhg12rcd13ifvqf80","pricing_plan_id":"free"},{"bike_id":"17b255af-3133-41cc-9b13-3bf3797c30d0","system_id":"levelo_inurba_marseille","lat":43.320045,"lon":5.415048,"is_reserved":false,"is_disabled":false,"rental_uris":{"android":"levelo://app?vid=17b255af-3133-41cc-9b13-3bf3797c30d0","ios":"levelo://app?vid=17b255af-3133-41cc-9b13-3bf3797c30d0"},"vehicle_type_id":"4","last_reported":1683565557,"current_range_meters":31200,"station_id":"ce4bhq92rcd13ifvqhkg","pricing_plan_id":"free"},{"bike_id":"1522aa21-46b2-4cd1-b7e7-893c1dff0814","system_id":"levelo_inurba_marseille","lat":43.320045,"lon":5.415048,"is_reserved":false,"is_disabled":false,"rental_uris":{"android":"levelo://app?vid=1522aa21-46b2-4cd1-b7e7-893c1dff0814","ios":"levelo://app?vid=1522aa21-46b2-4cd1-b7e7-893c1dff0814"},"vehicle_type_id":"4","last_reported":1683565557,"current_range_meters":4800,"station_id":"ce4bhq92rcd13ifvqhkg","pricing_plan_id":"free"},{"bike_id":"9f261c0c-c710-4d2b-a989-f1a8a6d3d8c9","system_id":"levelo_inurba_marseille","lat":43.320045,"lon":5.415048,"is_reserved":false,"is_disabled":false,"rental_uris":{"android":"levelo://app?vid=9f261c0c-c710-4d2b-a989-f1a8a6d3d8c9","ios":"levelo://app?vid=9f261c0c-c710-4d2b-a989-f1a8a6d3d8c9"},"vehicle_type_id":"4","last_reported":1683565557,"current_range_meters":28400,"station_id":"ce4bhq92rcd13ifvqhkg","pricing_plan_id":"free"},{"bike_id":"13a355db-6cfb-499c-be68-3bee12c3f5c1","system_id":"levelo_inurba_marseille","lat":43.292571,"lon":5.409107,"is_reserved":false,"is_disabled":false,"rental_uris":{"android":"levelo://app?vid=13a355db-6cfb-499c-be68-3bee12c3f5c1","ios":"levelo://app?vid=13a355db-6cfb-499c-be68-3bee12c3f5c1"},"vehicle_type_id":"4","last_reported":1683565557,"current_range_meters":1600,"station_id":"ce4bh192rcd13ifvqdc0","pricing_plan_id":"free"},{"bike_id":"86fbc53d-c03f-4ee9-b132-46b5f07378a9","system_id":"levelo_inurba_marseille","lat":43.292571,"lon":5.409107,"is_reserved":false,"is_disabled":false,"rental_uris":{"android":"levelo://app?vid=86fbc53d-c03f-4ee9-b132-46b5f07378a9","ios":"levelo://app?vid=86fbc53d-c03f-4ee9-b132-46b5f07378a9"},"vehicle_type_id":"4","last_reported":1683565557,"current_range_meters":4400,"station_id":"ce4bh192rcd13ifvqdc0","pricing_plan_id":"free"},{"bike_id":"850e4eff-74cf-4966-8123-f9905c90a063","system_id":"levelo_inurba_marseille","lat":43.292571,"lon":5.409107,"is_reserved":false,"is_disabled":false,"rental_uris":{"android":"levelo://app?vid=850e4eff-74cf-4966-8123-f9905c90a063","ios":"levelo://app?vid=850e4eff-74cf-4966-8123-f9905c90a063"},"vehicle_type_id":"4","last_reported":1683565557,"current_range_meters":8800,"station_id":"ce4bh192rcd13ifvqdc0","pricing_plan_id":"free"},{"bike_id":"948595f3-0062-4312-971f-30a8b959f828","system_id":"levelo_inurba_marseille","lat":43.292571,"lon":5.409107,"is_reserved":false,"is_disabled":false,"rental_uris":{"android":"levelo://app?vid=948595f3-0062-4312-971f-30a8b959f828","ios":"levelo://app?vid=948595f3-0062-4312-971f-30a8b959f828"},"vehicle_type_id":"4","last_reported":1683565557,"current_range_meters":1200,"station_id":"ce4bh192rcd13ifvqdc0","pricing_plan_id":"free"},{"bike_id":"1e12c9cc-e46f-4db5-96a1-e9619a12fafe","system_id":"levelo_inurba_marseille","lat":43.3255,"lon":5.41435,"is_reserved":false,"is_disabled":false,"rental_uris":{"android":"levelo://app?vid=1e12c9cc-e46f-4db5-96a1-e9619a12fafe","ios":"levelo://app?vid=1e12c9cc-e46f-4db5-96a1-e9619a12fafe"},"vehicle_type_id":"4","last_reported":1683565557,"current_range_meters":30800,"station_id":"","pricing_plan_id":"free"},{"bike_id":"89bbb9ef-5470-4891-95dd-0f2039b348d9","system_id":"levelo_inurba_marseille","lat":43.32546,"lon":5.41445,"is_reserved":false,"is_disabled":false,"rental_uris":{"android":"levelo://app?vid=89bbb9ef-5470-4891-95dd-0f2039b348d9","ios":"levelo://app?vid=89bbb9ef-5470-4891-95dd-0f2039b348d9"},"vehicle_type_id":"4","last_reported":1683565557,"current_range_meters":31200,"station_id":"ce4bhq12rcd13ifvqhhg","pricing_plan_id":"free"},{"bike_id":"9055ed5f-83a5-4d4b-afbb-c008421beaf1","system_id":"levelo_inurba_marseille","lat":43.32546,"lon":5.41445,"is_reserved":false,"is_disabled":false,"rental_uris":{"android":"levelo://app?vid=9055ed5f-83a5-4d4b-afbb-c008421beaf1","ios":"levelo://app?vid=9055ed5f-83a5-4d4b-afbb-c008421beaf1"},"vehicle_type_id":"4","last_reported":1683565557,"current_range_meters":29200,"station_id":"ce4bhq12rcd13ifvqhhg","pricing_plan_id":"free"},{"bike_id":"f9764df3-4651-4fa2-a4e5-661ee224c0dc","system_id":"levelo_inurba_marseille","lat":43.276179,"lon":5.361009,"is_reserved":false,"is_disabled":false,"rental_uris":{"android":"levelo://app?vid=f9764df3-4651-4fa2-a4e5-661ee224c0dc","ios":"levelo://app?vid=f9764df3-4651-4fa2-a4e5-661ee224c0dc"},"vehicle_type_id":"4","last_reported":1683565557,"current_range_meters":14800,"station_id":"ce4bgj92rcd13ifvqbe0","pricing_plan_id":"free"},{"bike_id":"aa0fbbcd-9c74-4824-8a12-a268f19b87ea","system_id":"levelo_inurba_marseille","lat":43.280784,"lon":5.396622,"is_reserved":false,"is_disabled":false,"rental_uris":{"android":"levelo://app?vid=aa0fbbcd-9c74-4824-8a12-a268f19b87ea","ios":"levelo://app?vid=aa0fbbcd-9c74-4824-8a12-a268f19b87ea"},"vehicle_type_id":"4","last_reported":1683565557,"current_range_meters":25600,"station_id":"ce4bho12rcd13ifvqh2g","pricing_plan_id":"free"},{"bike_id":"e320d42d-a2f0-4900-974f-ae07c8e93de9","system_id":"levelo_inurba_marseille","lat":43.280784,"lon":5.396622,"is_reserved":false,"is_disabled":false,"rental_uris":{"android":"levelo://app?vid=e320d42d-a2f0-4900-974f-ae07c8e93de9","ios":"levelo://app?vid=e320d42d-a2f0-4900-974f-ae07c8e93de9"},"vehicle_type_id":"4","last_reported":1683565557,"current_range_meters":12400,"station_id":"ce4bho12rcd13ifvqh2g","pricing_plan_id":"free"},{"bike_id":"8c63e4ab-e428-4542-9436-260781ee411d","system_id":"levelo_inurba_marseille","lat":43.33612,"lon":5.410321,"is_reserved":false,"is_disabled":false,"rental_uris":{"android":"levelo://app?vid=8c63e4ab-e428-4542-9436-260781ee411d","ios":"levelo://app?vid=8c63e4ab-e428-4542-9436-260781ee411d"},"vehicle_type_id":"4","last_reported":1683565557,"current_range_meters":6400,"station_id":"ce4bhqh2rcd13ifvqhmg","pricing_plan_id":"free"},{"bike_id":"3b774943-fa52-4c36-b0bc-ee7d0c604e61","system_id":"levelo_inurba_marseille","lat":43.336134,"lon":5.410341,"is_reserved":false,"is_disabled":false,"rental_uris":{"android":"levelo://app?vid=3b774943-fa52-4c36-b0bc-ee7d0c604e61","ios":"levelo://app?vid=3b774943-fa52-4c36-b0bc-ee7d0c604e61"},"vehicle_type_id":"4","last_reported":1683565557,"current_range_meters":27200,"station_id":"ce4bhqh2rcd13ifvqhmg","pricing_plan_id":"free"},{"bike_id":"72a0f976-b95f-4141-a6f8-563dcf5d5036","system_id":"levelo_inurba_marseille","lat":43.276769,"lon":5.388787,"is_reserved":false,"is_disabled":false,"rental_uris":{"android":"levelo://app?vid=72a0f976-b95f-4141-a6f8-563dcf5d5036","ios":"levelo://app?vid=72a0f976-b95f-4141-a6f8-563dcf5d5036"},"vehicle_type_id":"4","last_reported":1683565557,"current_range_meters":15200,"station_id":"ce4bhi12rcd13ifvqfo0","pricing_plan_id":"free"},{"bike_id":"58edf1c4-af94-4a6b-b2e1-4ecec8722171","system_id":"levelo_inurba_marseille","lat":43.27669,"lon":5.38902,"is_reserved":false,"is_disabled":false,"rental_uris":{"android":"levelo://app?vid=58edf1c4-af94-4a6b-b2e1-4ecec8722171","ios":"levelo://app?vid=58edf1c4-af94-4a6b-b2e1-4ecec8722171"},"vehicle_type_id":"4","last_reported":1683565557,"current_range_meters":0,"station_id":"ce4bhi12rcd13ifvqfo0","pricing_plan_id":"free"},{"bike_id":"3c74701a-f6a0-435d-9b34-35e94fed7183","system_id":"levelo_inurba_marseille","lat":43.32778,"lon":5.41792,"is_reserved":false,"is_disabled":false,"rental_uris":{"android":"levelo://app?vid=3c74701a-f6a0-435d-9b34-35e94fed7183","ios":"levelo://app?vid=3c74701a-f6a0-435d-9b34-35e94fed7183"},"vehicle_type_id":"4","last_reported":1683565557,"current_range_meters":12800,"station_id":"","pricing_plan_id":"free"},{"bike_id":"fec8f199-6d7e-44f7-8d32-1436fee6581b","system_id":"levelo_inurba_marseille","lat":43.310785,"lon":5.424305,"is_reserved":false,"is_disabled":false,"rental_uris":{"android":"levelo://app?vid=fec8f199-6d7e-44f7-8d32-1436fee6581b","ios":"levelo://app?vid=fec8f199-6d7e-44f7-8d32-1436fee6581b"},"vehicle_type_id":"4","last_reported":1683565557,"current_range_meters":31200,"station_id":"ce4bhp92rcd13ifvqhag","pricing_plan_id":"free"},{"bike_id":"83d90a67-703a-47e9-a0c8-486659e4ab33","system_id":"levelo_inurba_marseille","lat":43.310785,"lon":5.424305,"is_reserved":false,"is_disabled":false,"rental_uris":{"android":"levelo://app?vid=83d90a67-703a-47e9-a0c8-486659e4ab33","ios":"levelo://app?vid=83d90a67-703a-47e9-a0c8-486659e4ab33"},"vehicle_type_id":"4","last_reported":1683565557,"current_range_meters":31200,"station_id":"ce4bhp92rcd13ifvqhag","pricing_plan_id":"free"},{"bike_id":"56460abe-93fd-4347-9359-06676c50ed5b","system_id":"levelo_inurba_marseille","lat":43.310785,"lon":5.424305,"is_reserved":false,"is_disabled":false,"rental_uris":{"android":"levelo://app?vid=56460abe-93fd-4347-9359-06676c50ed5b","ios":"levelo://app?vid=56460abe-93fd-4347-9359-06676c50ed5b"},"vehicle_type_id":"4","last_reported":1683565557,"current_range_meters":30800,"station_id":"ce4bhp92rcd13ifvqhag","pricing_plan_id":"free"},{"bike_id":"cdd66801-a1f5-4bed-847d-ccd1e7a4bc49","system_id":"levelo_inurba_marseille","lat":43.310785,"lon":5.424305,"is_reserved":false,"is_disabled":false,"rental_uris":{"android":"levelo://app?vid=cdd66801-a1f5-4bed-847d-ccd1e7a4bc49","ios":"levelo://app?vid=cdd66801-a1f5-4bed-847d-ccd1e7a4bc49"},"vehicle_type_id":"4","last_reported":1683565557,"current_range_meters":31200,"station_id":"ce4bhp92rcd13ifvqhag","pricing_plan_id":"free"},{"bike_id":"83112c16-8455-4a16-ad4a-151b6d39a577","system_id":"levelo_inurba_marseille","lat":43.31083,"lon":5.42432,"is_reserved":false,"is_disabled":false,"rental_uris":{"android":"levelo://app?vid=83112c16-8455-4a16-ad4a-151b6d39a577","ios":"levelo://app?vid=83112c16-8455-4a16-ad4a-151b6d39a577"},"vehicle_type_id":"4","last_reported":1683565557,"current_range_meters":6800,"station_id":"ce4bhp92rcd13ifvqhag","pricing_plan_id":"free"},{"bike_id":"b53ed17b-f3cd-490e-a92e-1579d25d2f74","system_id":"levelo_inurba_marseille","lat":43.317121,"lon":5.423936,"is_reserved":false,"is_disabled":false,"rental_uris":{"android":"levelo://app?vid=b53ed17b-f3cd-490e-a92e-1579d25d2f74","ios":"levelo://app?vid=b53ed17b-f3cd-490e-a92e-1579d25d2f74"},"vehicle_type_id":"4","last_reported":1683565557,"current_range_meters":22800,"station_id":"ce4bhp92rcd13ifvqhbg","pricing_plan_id":"free"},{"bike_id":"fe7eab8d-249c-4aa2-b3ec-560406333488","system_id":"levelo_inurba_marseille","lat":43.274103,"lon":5.394016,"is_reserved":false,"is_disabled":false,"rental_uris":{"android":"levelo://app?vid=fe7eab8d-249c-4aa2-b3ec-560406333488","ios":"levelo://app?vid=fe7eab8d-249c-4aa2-b3ec-560406333488"},"vehicle_type_id":"4","last_reported":1683565557,"current_range_meters":26800,"station_id":"ce4bhdp2rcd13ifvqf20","pricing_plan_id":"free"},{"bike_id":"817ff9ab-75c4-44fa-a2e5-fc99d830530c","system_id":"levelo_inurba_marseille","lat":43.274103,"lon":5.394016,"is_reserved":false,"is_disabled":false,"rental_uris":{"android":"levelo://app?vid=817ff9ab-75c4-44fa-a2e5-fc99d830530c","ios":"levelo://app?vid=817ff9ab-75c4-44fa-a2e5-fc99d830530c"},