{"last_updated":1731327434,"ttl":60,"version":"2.2","data":{"bikes":[{"bike_id":"721fbd53-b0c5-4b4d-8347-51c88d10df20","system_id":"levelo_inurba_marseille","lat":43.24807,"lon":5.37451,"is_reserved":false,"is_disabled":false,"rental_uris":{"android":"levelo://app?vid=721fbd53-b0c5-4b4d-8347-51c88d10df20","ios":"levelo://app?vid=721fbd53-b0c5-4b4d-8347-51c88d10df20"},"vehicle_type_id":"4","last_reported":1731327434,"current_range_meters":36400,"station_id":"ce4bhgh2rcd13ifvqfb0","pricing_plan_id":"cebpf4jnsgd1na2vs0mg"},{"bike_id":"55f338da-564d-4339-bcb5-5d0a4b68c4e6","system_id":"levelo_inurba_marseille","lat":43.31071,"lon":5.40081,"is_reserved":false,"is_disabled":false,"rental_uris":{"android":"levelo://app?vid=55f338da-564d-4339-bcb5-5d0a4b68c4e6","ios":"levelo://app?vid=55f338da-564d-4339-bcb5-5d0a4b68c4e6"},"vehicle_type_id":"4","last_reported":1731327434,"current_range_meters":4800,"station_id":"","pricing_plan_id":"cebpf4jnsgd1na2vs0mg"},{"bike_id":"c53d3702-81f6-4381-b998-2f654d36886a","system_id":"levelo_inurba_marseille","lat":43.282563,"lon":5.350721,"is_reserved":false,"is_disabled":false,"rental_uris":{"android":"levelo://app?vid=c53d3702-81f6-4381-b998-2f654d36886a","ios":"levelo://app?vid=c53d3702-81f6-4381-b998-2f654d36886a"},"vehicle_type_id":"4","last_reported":1731327434,"current_range_meters":28800,"station_id":"ce4bhbp2rcd13ifvqerg","pricing_plan_id":"cebpf4jnsgd1na2vs0mg"},{"bike_id":"2eab38cd-55bf-49f7-a9f1-6f3b10d77c10","system_id":"levelo_inurba_marseille","lat":43.29789,"lon":5.371,"is_reserved":false,"is_disabled":false,"rental_uris":{"android":"levelo://app?vid=2eab38cd-55bf-49f7-a9f1-6f3b10d77c10","ios":"levelo://app?vid=2eab38cd-55bf-49f7-a9f1-6f3b10d77c10"},"vehicle_type_id":"4","last_reported":1731327434,"current_range_meters":32400,"station_id":"ce4bgop2rcd13ifvqc1g","pricing_plan_id":"cebpf4jnsgd1na2vs0mg"},{"bike_id":"4fef4701-0d86-4e0c-9971-790a51913c3c","system_id":"levelo_inurba_marseille","lat":43.23186,"lon":5.39998,"is_reserved":false,"is_disabled":false,"rental_uris":{"android":"levelo://app?vid=4fef4701-0d86-4e0c-9971-790a51913c3c","ios":"levelo://app?vid=4fef4701-0d86-4e0c-9971-790a51913c3c"},"vehicle_type_id":"4","last_reported":1731327434,"current_range_meters":14000,"station_id":"ce4bhn12rcd13ifvqgqg","pricing_plan_id":"cebpf4jnsgd1na2vs0mg"},{"bike_id":"5daf7e81-adca-4c69-ac49-7439dac41928","system_id":"levelo_inurba_marseille","lat":43.29563,"lon":5.42255,"is_reserved":false,"is_disabled":false,"rental_uris":{"android":"levelo://app?vid=5daf7e81-adca-4c69-ac49-7439dac41928","ios":"levelo://app?vid=5daf7e81-adca-4c69-ac49-7439dac41928"},"vehicle_type_id":"4","last_reported":1731327434,"current_range_meters":38000,"station_id":"ce4bhph2rcd13ifvqhdg","pricing_plan_id":"cebpf4jnsgd1na2vs0mg"},{"bike_id":"a2987df7-d883-49a8-9709-aa29916ee479","system_id":"levelo_inurba_marseille","lat":43.27973,"lon":5.38736,"is_reserved":false,"is_disabled":false,"rental_uris":{"android":"levelo://app?vid=a2987df7-d883-49a8-9709-aa29916ee479","ios":"levelo://app?vid=a2987df7-d883-49a8-9709-aa29916ee479"},"vehicle_type_id":"4","last_reported":1731327434,"current_range_meters":35200,"station_id":"ce4bhg12rcd13ifvqf80","pricing_plan_id":"cebpf4jnsgd1na2vs0mg"},{"bike_id":"6f368e04-786c-48e2-b342-cf9df5ff69da","system_id":"levelo_inurba_marseille","lat":43.29894,"lon":5.39722,"is_reserved":false,"is_disabled":false,"rental_uris":{"android":"levelo://app?vid=6f368e04-786c-48e2-b342-cf9df5ff69da","ios":"levelo://app?vid=6f368e04-786c-48e2-b342-cf9df5ff69da"},"vehicle_type_id":"4","last_reported":1731327434,"current_range_meters":38400,"station_id":"ce4bh0h2rcd13ifvqd50","pricing_plan_id":"cebpf4jnsgd1na2vs0mg"},{"bike_id":"346ebc3c-4b19-49c5-90bb-a85bff191750","system_id":"levelo_inurba_marseille","lat":43.27056,"lon":5.40256,"is_reserved":false,"is_disabled":false,"rental_uris":{"android":"levelo://app?vid=346ebc3c-4b19-49c5-90bb-a85bff191750","ios":"levelo://app?vid=346ebc3c-4b19-49c5-90bb-a85bff191750"},"vehicle_type_id":"4","last_reported":1731327434,"current_range_meters":36000,"station_id":"ce4bhk92rcd13ifvqgc0","pricing_plan_id":"cebpf4jnsgd1na2vs0mg"},{"bike_id":"32727315-9232-4cab-ac3b-adba342f5318","system_id":"levelo_inurba_marseille","lat":43.27685,"lon":5.3888,"is_reserved":false,"is_disabled":false,"rental_uris":{"android":"levelo://app?vid=32727315-9232-4cab-ac3b-adba342f5318","ios":"levelo://app?vid=32727315-9232-4cab-ac3b-adba342f5318"},"vehicle_type_id":"4","last_reported":1731327434,"current_range_meters":12000,"station_id":"ce4bhi12rcd13ifvqfo0","pricing_plan_id":"cebpf4jnsgd1na2vs0mg"},{"bike_id":"6d0d5526-2b6c-4eee-93d6-42c07dbe7b80","system_id":"levelo_inurba_marseille","lat":43.25502,"lon":5.37651,"is_reserved":false,"is_disabled":false,"rental_uris":{"android":"levelo://app?vid=6d0d5526-2b6c-4eee-93d6-42c07dbe7b80","ios":"levelo://app?vid=6d0d5526-2b6c-4eee-93d6-42c07dbe7b80"},"vehicle_type_id":"4","last_reported":1731327434,"current_range_meters":39200,"station_id":"ce4bhh12rcd13ifvqff0","pricing_plan_id":"cebpf4jnsgd1na2vs0mg"},{"bike_id":"e01c4be5-4087-488f-8cc7-72e0b228c508","system_id":"levelo_inurba_marseille","lat":43.28272,"lon":5.3507,"is_reserved":false,"is_disabled":false,"rental_uris":{"android":"levelo://app?vid=e01c4be5-4087-488f-8cc7-72e0b228c508","ios":"levelo://app?vid=e01c4be5-4087-488f-8cc7-72e0b228c508"},"vehicle_type_id":"4","last_reported":1731327434,"current_range_meters":23200,"station_id":"ce4bhbp2rcd13ifvqerg","pricing_plan_id":"cebpf4jnsgd1na2vs0mg"},{"bike_id":"e190c251-c1a2-4778-a47b-9401734e23d6","system_id":"levelo_inurba_marseille","lat":43.26782,"lon":5.39413,"is_reserved":false,"is_disabled":false,"rental_uris":{"android":"levelo://app?vid=e190c251-c1a2-4778-a47b-9401734e23d6","ios":"levelo://app?vid=e190c251-c1a2-4778-a47b-9401734e23d6"},"vehicle_type_id":"4","last_reported":1731327434,"current_range_meters":38400,"station_id":"ce4bhh12rcd13ifvqfg0","pricing_plan_id":"cebpf4jnsgd1na2vs0mg"},{"bike_id":"9919db7a-8b4f-4220-becb-f54e10b5b1b8","system_id":"levelo_inurba_marseille","lat":43.23058,"lon":5.35492,"is_reserved":false,"is_disabled":false,"rental_uris":{"android":"levelo://app?vid=9919db7a-8b4f-4220-becb-f54e10b5b1b8","ios":"levelo://app?vid=9919db7a-8b4f-4220-becb-f54e10b5b1b8"},"vehicle_type_id":"4","last_reported":1731327434,"current_range_meters":36800,"station_id":"cpo3342slgdg3j2ifvpg","pricing_plan_id":"cebpf4jnsgd1na2vs0mg"},{"bike_id":"bb785616-26a0-4eb0-931b-17957df5cea3","system_id":"levelo_inurba_marseille","lat":43.29545,"lon":5.4228,"is_reserved":false,"is_disabled":false,"rental_uris":{"android":"levelo://app?vid=bb785616-26a0-4eb0-931b-17957df5cea3","ios":"levelo://app?vid=bb785616-26a0-4eb0-931b-17957df5cea3"},"vehicle_type_id":"4","last_reported":1731327434,"current_range_meters":39200,"station_id":"ce4bhph2rcd13ifvqhdg","pricing_plan_id":"cebpf4jnsgd1na2vs0mg"},{"bike_id":"1ec31f50-d96c-47c6-9806-96f227089cd4","system_id":"levelo_inurba_marseille","lat":43.27491,"lon":5.42449,"is_reserved":false,"is_disabled":false,"rental_uris":{"android":"levelo://app?vid=1ec31f50-d96c-47c6-9806-96f227089cd4","ios":"levelo://app?vid=1ec31f50-d96c-47c6-9806-96f227089cd4"},"vehicle_type_id":"4","last_reported":1731327434,"current_range_meters":37600,"station_id":"ce4bhn92rcd13ifvqgrg","pricing_plan_id":"cebpf4jnsgd1na2vs0mg"},{"bike_id":"15148f1c-efb3-45eb-a568-54df675c42df","system_id":"levelo_inurba_marseille","lat":43.28702,"lon":5.37387,"is_reserved":false,"is_disabled":false,"rental_uris":{"android":"levelo://app?vid=15148f1c-efb3-45eb-a568-54df675c42df","ios":"levelo://app?vid=15148f1c-efb3-45eb-a568-54df675c42df"},"vehicle_type_id":"4","last_reported":1731327434,"current_range_meters":38400,"station_id":"ce4bh3p2rcd13ifvqdq0","pricing_plan_id":"cebpf4jnsgd1na2vs0mg"},{"bike_id":"2ee32fd1-f8f7-4cea-a813-14501e29cb92","system_id":"levelo_inurba_marseille","lat":43.31715,"lon":5.43709,"is_reserved":false,"is_disabled":false,"rental_uris":{"android":"levelo://app?vid=2ee32fd1-f8f7-4cea-a813-14501e29cb92","ios":"levelo://app?vid=2ee32fd1-f8f7-4cea-a813-14501e29cb92"},"vehicle_type_id":"4","last_reported":1731327434,"current_range_meters":36800,"station_id":"ce4bhp92rcd13ifvqhcg","pricing_plan_id":"cebpf4jnsgd1na2vs0mg"},{"bike_id":"af3948a2-825d-4667-8575-679f5eb98ee1","system_id":"levelo_inurba_marseille","lat":43.24804,"lon":5.37457,"is_reserved":false,"is_disabled":false,"rental_uris":{"android":"levelo://app?vid=af3948a2-825d-4667-8575-679f5eb98ee1","ios":"levelo://app?vid=af3948a2-825d-4667-8575-679f5eb98ee1"},"vehicle_type_id":"4","last_reported":1731327434,"current_range_meters":28400,"station_id":"ce4bhgh2rcd13ifvqfb0","pricing_plan_id":"cebpf4jnsgd1na2vs0mg"},{"bike_id":"c9216ae2-5f88-401f-a710-0aa3cb5fdcd7","system_id":"levelo_inurba_marseille","lat":43.24803,"lon":5.37462,"is_reserved":false,"is_disabled":false,"rental_uris":{"android":"levelo://app?vid=c9216ae2-5f88-401f-a710-0aa3cb5fdcd7","ios":"levelo://app?vid=c9216ae2-5f88-401f-a710-0aa3cb5fdcd7"},"vehicle_type_id":"4","last_reported":1731327434,"current_range_meters":26800,"station_id":"ce4bhgh2rcd13ifvqfb0","pricing_plan_id":"cebpf4jnsgd1na2vs0mg"},{"bike_id":"c04e085b-2f93-438c-8325-3e100325499e","system_id":"levelo_inurba_marseille","lat":43.25001,"lon":5.3893,"is_reserved":false,"is_disabled":false,"rental_uris":{"android":"levelo://app?vid=c04e085b-2f93-438c-8325-3e100325499e","ios":"levelo://app?vid=c04e085b-2f93-438c-8325-3e100325499e"},"vehicle_type_id":"4","last_reported":1731327434,"current_range_meters":37600,"station_id":"ce4bhgp2rcd13ifvqfd0","pricing_plan_id":"cebpf4jnsgd1na2vs0mg"},{"bike_id":"504107e1-b958-483c-880e-16213edb01f2","system_id":"levelo_inurba_marseille","lat":43.25575,"lon":5.38229,"is_reserved":false,"is_disabled":false,"rental_uris":{"android":"levelo://app?vid=504107e1-b958-483c-880e-16213edb01f2","ios":"levelo://app?vid=504107e1-b958-483c-880e-16213edb01f2"},"vehicle_type_id":"4","last_reported":1731327434,"current_range_meters":20000,"station_id":"ce4bhih2rcd13ifvqfs0","pricing_plan_id":"cebpf4jnsgd1na2vs0mg"},{"bike_id":"b335a0ef-c624-495e-82b1-27ffdd14b600","system_id":"levelo_inurba_marseille","lat":43.29308,"lon":5.37465,"is_reserved":false,"is_disabled":false,"rental_uris":{"android":"levelo://app?vid=b335a0ef-c624-495e-82b1-27ffdd14b600","ios":"levelo://app?vid=b335a0ef-c624-495e-82b1-27ffdd14b600"},"vehicle_type_id":"4","last_reported":1731327434,"current_range_meters":16400,"station_id":"ce4bgi12rcd13ifvqb70","pricing_plan_id":"cebpf4jnsgd1na2vs0mg"},{"bike_id":"0fe17698-05c0-4efb-b71b-7b791adbde2f","system_id":"levelo_inurba_marseille","lat":43.30538,"lon":5.36704,"is_reserved":false,"is_disabled":false,"rental_uris":{"android":"levelo://app?vid=0fe17698-05c0-4efb-b71b-7b791adbde2f","ios":"levelo://app?vid=0fe17698-05c0-4efb-b71b-7b791adbde2f"},"vehicle_type_id":"4","last_reported":1731327434,"current_range_meters":38000,"station_id":"ce4bgrp2rcd13ifvqc9g","pricing_plan_id":"cebpf4jnsgd1na2vs0mg"},{"bike_id":"9b3427b5-8835-4521-9768-5d8a9529e3ab","system_id":"levelo_inurba_marseille","lat":43.25497,"lon":5.37651,"is_reserved":false,"is_disabled":false,"rental_uris":{"android":"levelo://app?vid=9b3427b5-8835-4521-9768-5d8a9529e3ab","ios":"levelo://app?vid=9b3427b5-8835-4521-9768-5d8a9529e3ab"},"vehicle_type_id":"4","last_reported":1731327434,"current_range_meters":39200,"station_id":"ce4bhh12rcd13ifvqff0","pricing_plan_id":"cebpf4jnsgd1na2vs0mg"},{"bike_id":"2253dd2f-adf0-4962-907e-e835f7372f74","system_id":"levelo_inurba_marseille","lat":43.231916,"lon":5.435882,"is_reserved":false,"is_disabled":false,"rental_uris":{"android":"levelo://app?vid=2253dd2f-adf0-4962-907e-e835f7372f74","ios":"levelo://app?vid=2253dd2f-adf0-4962-907e-e835f7372f74"},"vehicle_type_id":"4","last_reported":1731327434,"current_range_meters":15200,"station_id":"ce4bhmp2rcd13ifvqgog","pricing_plan_id":"cebpf4jnsgd1na2vs0mg"},{"bike_id":"bd2ad73c-7a9a-4dd2-92f6-ef8a1b15ea47","system_id":"levelo_inurba_marseille","lat":43.28419,"lon":5.34999,"is_reserved":false,"is_disabled":false,"rental_uris":{"android":"levelo://app?vid=bd2ad73c-7a9a-4dd2-92f6-ef8a1b15ea47","ios":"levelo://app?vid=bd2ad73c-7a9a-4dd2-92f6-ef8a1b15ea47"},"vehicle_type_id":"4","last_reported":1731327434,"current_range_meters":35200,"station_id":"ce4bhbh2rcd13ifvqepg","pricing_plan_id":"cebpf4jnsgd1na2vs0mg"},{"bike_id":"ea66599e-6116-4c74-a5e2-e20d242f9692","system_id":"levelo_inurba_marseille","lat":43.33736,"lon":5.39177,"is_reserved":false,"is_disabled":false,"rental_uris":{"android":"levelo://app?vid=ea66599e-6116-4c74-a5e2-e20d242f9692","ios":"levelo://app?vid=ea66599e-6116-4c74-a5e2-e20d242f9692"},"vehicle_type_id":"4","last_reported":1731327434,"current_range_meters":36800,"station_id":"ce4bhr92rcd13ifvqhsg","pricing_plan_id":"cebpf4jnsgd1na2vs0mg"},{"bike_id":"b81ee9db-87fc-45da-a598-7bae9bbe6aed","system_id":"levelo_inurba_marseille","lat":43.27174,"lon":5.40995,"is_reserved":false,"is_disabled":false,"rental_uris":{"android":"levelo://app?vid=b81ee9db-87fc-45da-a598-7bae9bbe6aed","ios":"levelo://app?vid=b81ee9db-87fc-45da-a598-7bae9bbe6aed"},"vehicle_type_id":"4","last_reported":1731327434,"current_range_meters":35600,"station_id":"ce4bhl12rcd13ifvqgf0","pricing_plan_id":"cebpf4jnsgd1na2vs0mg"},{"bike_id":"3a0d22a3-cc79-4ff1-af61-4550eb63e333","system_id":"levelo_inurba_marseille","lat":43.28847,"lon":5.39315,"is_reserved":false,"is_disabled":false,"rental_uris":{"android":"levelo://app?vid=3a0d22a3-cc79-4ff1-af61-4550eb63e333","ios":"levelo://app?vid=3a0d22a3-cc79-4ff1-af61-4550eb63e333"},"vehicle_type_id":"4","last_reported":1731327434,"current_range_meters":20000,"station_id":"ce4bh2p2rcd13ifvqdi0","pricing_plan_id":"cebpf4jnsgd1na2vs0mg"},{"bike_id":"920ad4fc-3b7a-4e9a-9d7a-56c634f46550","system_id":"levelo_inurba_marseille","lat":43.26207,"lon":5.37442,"is_reserved":false,"is_disabled":false,"rental_uris":{"android":"levelo://app?vid=920ad4fc-3b7a-4e9a-9d7a-56c634f46550","ios":"levelo://app?vid=920ad4fc-3b7a-4e9a-9d7a-56c634f46550"},"vehicle_type_id":"4","last_reported":1731327434,"current_range_meters":27600,"station_id":"ce4bhgp2rcd13ifvqfc0","pricing_plan_id":"cebpf4jnsgd1na2vs0mg"},{"bike_id":"f669496d-fae4-44fd-8a51-586e76ca89f8","system_id":"levelo_inurba_marseille","lat":43.23195,"lon":5.35555,"is_reserved":false,"is_disabled":false,"rental_uris":{"android":"levelo://app?vid=f669496d-fae4-44fd-8a51-586e76ca89f8","ios":"levelo://app?vid=f669496d-fae4-44fd-8a51-586e76ca89f8"},"vehicle_type_id":"4","last_reported":1731327434,"current_range_meters":16400,"station_id":"ce4bhu92rcd13ifvqi70","pricing_plan_id":"cebpf4jnsgd1na2vs0mg"},{"bike_id":"000a7dbc-c37b-4670-b160-6987877af413","system_id":"levelo_inurba_marseille","lat":43.28269,"lon":5.35067,"is_reserved":false,"is_disabled":false,"rental_uris":{"android":"levelo://app?vid=000a7dbc-c37b-4670-b160-6987877af413","ios":"levelo://app?vid=000a7dbc-c37b-4670-b160-6987877af413"},"vehicle_type_id":"4","last_reported":1731327434,"current_range_meters":30400,"station_id":"ce4bhbp2rcd13ifvqerg","pricing_plan_id":"cebpf4jnsgd1na2vs0mg"},{"bike_id":"333a8fd1-0af5-4d2d-8e99-f8610bc57a84","system_id":"levelo_inurba_marseille","lat":43.2396,"lon":5.36639,"is_reserved":false,"is_disabled":false,"rental_uris":{"android":"levelo://app?vid=333a8fd1-0af5-4d2d-8e99-f8610bc57a84","ios":"levelo://app?vid=333a8fd1-0af5-4d2d-8e99-f8610bc57a84"},"vehicle_type_id":"4","last_reported":1731327434,"current_range_meters":10800,"station_id":"ce4bhi12rcd13ifvqfp0","pricing_plan_id":"cebpf4jnsgd1na2vs0mg"},{"bike_id":"e45c3b16-9d56-4cb0-9735-cef5134d710a","system_id":"levelo_inurba_marseille","lat":43.25502,"lon":5.37648,"is_reserved":false,"is_disabled":false,"rental_uris":{"android":"levelo://app?vid=e45c3b16-9d56-4cb0-9735-cef5134d710a","ios":"levelo://app?vid=e45c3b16-9d56-4cb0-9735-cef5134d710a"},"vehicle_type_id":"4","last_reported":1731327434,"current_range_meters":16000,"station_id":"ce4bhh12rcd13ifvqff0","pricing_plan_id":"cebpf4jnsgd1na2vs0mg"},{"bike_id":"f2f2ad49-af25-4b8e-8e5a-253d5f2d2ed5","system_id":"levelo_inurba_marseille","lat":43.284161,"lon":5.349917,"is_reserved":false,"is_disabled":false,"rental_uris":{"android":"levelo://app?vid=f2f2ad49-af25-4b8e-8e5a-253d5f2d2ed5","ios":"levelo://app?vid=f2f2ad49-af25-4b8e-8e5a-253d5f2d2ed5"},"vehicle_type_id":"4","last_reported":1731327434,"current_range_meters":32400,"station_id":"ce4bhbh2rcd13ifvqepg","pricing_plan_id":"cebpf4jnsgd1na2vs0mg"},{"bike_id":"2972f759-c98e-4fe7-9758-85d215895273","system_id":"levelo_inurba_marseille","lat":43.23958,"lon":5.36622,"is_reserved":false,"is_disabled":false,"rental_uris":{"android":"levelo://app?vid=2972f759-c98e-4fe7-9758-85d215895273","ios":"levelo://app?vid=2972f759-c98e-4fe7-9758-85d215895273"},"vehicle_type_id":"4","last_reported":1731327434,"current_range_meters":30800,"station_id":"ce4bhi12rcd13ifvqfp0","pricing_plan_id":"cebpf4jnsgd1na2vs0mg"},{"bike_id":"7caca810-d26c-40aa-88d0-45d5685da385","system_id":"levelo_inurba_marseille","lat":43.2707,"lon":5.42278,"is_reserved":false,"is_disabled":false,"rental_uris":{"android":"levelo://app?vid=7caca810-d26c-40aa-88d0-45d5685da385","ios":"levelo://app?vid=7caca810-d26c-40aa-88d0-45d5685da385"},"vehicle_type_id":"4","last_reported":1731327434,"current_range_meters":10000,"station_id":"ce4bhk92rcd13ifvqgb0","pricing_plan_id":"cebpf4jnsgd1na2vs0mg"},{"bike_id":"e427ab07-c22b-497c-bd18-9dd687974d93","system_id":"levelo_inurba_marseille","lat":43.28459,"lon":5.35899,"is_reserved":false,"is_disabled":false,"rental_uris":{"android":"levelo://app?vid=e427ab07-c22b-497c-bd18-9dd687974d93","ios":"levelo://app?vid=e427ab07-c22b-497c-bd18-9dd687974d93"},"vehicle_type_id":"4","last_reported":1731327434,"current_range_meters":27200,"station_id":"ce4bhah2rcd13ifvqei0","pricing_plan_id":"cebpf4jnsgd1na2vs0mg"},{"bike_id":"a4451578-2f09-4193-95ba-8ea2b0b29bf6","system_id":"levelo_inurba_marseille","lat":43.27947,"lon":5.41051,"is_reserved":false,"is_disabled":false,"rental_uris":{"android":"levelo://app?vid=a4451578-2f09-4193-95ba-8ea2b0b29bf6","ios":"levelo://app?vid=a4451578-2f09-4193-95ba-8ea2b0b29bf6"},"vehicle_type_id":"4","last_reported":1731327434,"current_range_meters":25600,"station_id":"ce4bhnp2rcd13ifvqh0g","pricing_plan_id":"cebpf4jnsgd1na2vs0mg"},{"bike_id":"6f0df7a2-6c9e-4ac0-b4b6-a509278f42ae","system_id":"levelo_inurba_marseille","lat":43.28262,"lon":5.35075,"is_reserved":false,"is_disabled":false,"rental_uris":{"android":"levelo://app?vid=6f0df7a2-6c9e-4ac0-b4b6-a509278f42ae","ios":"levelo://app?vid=6f0df7a2-6c9e-4ac0-b4b6-a509278f42ae"},"vehicle_type_id":"4","last_reported":1731327434,"current_range_meters":38800,"station_id":"ce4bhbp2rcd13ifvqerg","pricing_plan_id":"cebpf4jnsgd1na2vs0mg"},{"bike_id":"b70e5e0c-b305-497b-a613-678833a2146e","system_id":"levelo_inurba_marseille","lat":43.231498,"lon":5.437161,"is_reserved":false,"is_disabled":false,"rental_uris":{"android":"levelo://app?vid=b70e5e0c-b305-497b-a613-678833a2146e","ios":"levelo://app?vid=b70e5e0c-b305-497b-a613-678833a2146e"},"vehicle_type_id":"4","last_reported":1731327434,"current_range_meters":38400,"station_id":"ce4bhmp2rcd13ifvqgog","pricing_plan_id":"cebpf4jnsgd1na2vs0mg"},{"bike_id":"7f3e1ff6-1483-4b12-acd5-3838fb7f84bf","system_id":"levelo_inurba_marseille","lat":43.23966,"lon":5.36628,"is_reserved":false,"is_disabled":false,"rental_uris":{"android":"levelo://app?vid=7f3e1ff6-1483-4b12-acd5-3838fb7f84bf","ios":"levelo://app?vid=7f3e1ff6-1483-4b12-acd5-3838fb7f84bf"},"vehicle_type_id":"4","last_reported":1731327434,"current_range_meters":16800,"station_id":"ce4bhi12rcd13ifvqfp0","pricing_plan_id":"cebpf4jnsgd1na2vs0mg"},{"bike_id":"6a80fe0c-de95-4c8f-8057-8ccf69945671","system_id":"levelo_inurba_marseille","lat":43.27815,"lon":5.38794,"is_reserved":false,"is_disabled":false,"rental_uris":{"android":"levelo://app?vid=6a80fe0c-de95-4c8f-8057-8ccf69945671","ios":"levelo://app?vid=6a80fe0c-de95-4c8f-8057-8ccf69945671"},"vehicle_type_id":"4","last_reported":1731327434,"current_range_meters":20400,"station_id":"ce4bhg12rcd13ifvqf80","pricing_plan_id":"cebpf4jnsgd1na2vs0mg"},{"bike_id":"b40c9466-e600-43f9-8b74-f177bb2c2e3a","system_id":"levelo_inurba_marseille","lat":43.24079,"lon":5.37752,"is_reserved":false,"is_disabled":false,"rental_uris":{"android":"levelo://app?vid=b40c9466-e600-43f9-8b74-f177bb2c2e3a","ios":"levelo://app?vid=b40c9466-e600-43f9-8b74-f177bb2c2e3a"},"vehicle_type_id":"4","last_reported":1731327434,"current_range_meters":3600,"station_id":"ce4bhnp2rcd13ifvqgvg","pricing_plan_id":"cebpf4jnsgd1na2vs0mg"},{"bike_id":"3a74e668-c81c-4ede-a059-9116e8f90e9b","system_id":"levelo_inurba_marseille","lat":43.2315,"lon":5.43711,"is_reserved":false,"is_disabled":false,"rental_uris":{"android":"levelo://app?vid=3a74e668-c81c-4ede-a059-9116e8f90e9b","ios":"levelo://app?vid=3a74e668-c81c-4ede-a059-9116e8f90e9b"},"vehicle_type_id":"4","last_reported":1731327434,"current_range_meters":39200,"station_id":"ce4bhmp2rcd13ifvqgog","pricing_plan_id":"cebpf4jnsgd1na2vs0mg"},{"bike_id":"8050e412-a32c-4830-b2c8-42f9f06f61c2","system_id":"levelo_inurba_marseille","lat":43.27058,"lon":5.40268,"is_reserved":false,"is_disabled":false,"rental_uris":{"android":"levelo://app?vid=8050e412-a32c-4830-b2c8-42f9f06f61c2","ios":"levelo://app?vid=8050e412-a32c-4830-b2c8-42f9f06f61c2"},"vehicle_type_id":"4","last_reported":1731327434,"current_range_meters":28000,"station_id":"ce4bhk92rcd13ifvqgc0","pricing_plan_id":"cebpf4jnsgd1na2vs0mg"},{"bike_id":"253356f7-26d6-4e01-be18-b70450141aab","system_id":"levelo_inurba_marseille","lat":43.30889,"lon":5.37202,"is_reserved":false,"is_disabled":false,"rental_uris":{"android":"levelo://app?vid=253356f7-26d6-4e01-be18-b70450141aab","ios":"levelo://app?vid=253356f7-26d6-4e01-be18-b70450141aab"},"vehicle_type_id":"4","last_reported":1731327434,"current_range_meters":38400,"station_id":"ce4bguh2rcd13ifvqckg","pricing_plan_id":"cebpf4jnsgd1na2vs0mg"},{"bike_id":"606120ec-c12c-47f4-b7e9-0220feacd55e","system_id":"levelo_inurba_marseille","lat":43.25868,"lon":5.39898,"is_reserved":false,"is_disabled":false,"rental_uris":{"android":"levelo://app?vid=606120ec-c12c-47f4-b7e9-0220feacd55e","ios":"levelo://app?vid=606120ec-c12c-47f4-b7e9-0220feacd55e"},"vehicle_type_id":"4","last_reported":1731327434,"current_range_meters":39200,"station_id":"ce4bhl92rcd13ifvqghg","pricing_plan_id":"cebpf4jnsgd1na2vs0mg"},{"bike_id":"8b867ec3-9f40-4218-bb82-8540d6bddad4","system_id":"levelo_inurba_marseille","lat":43.24394,"lon":5.37058,"is_reserved":false,"is_disabled":false,"rental_uris":{"android":"levelo://app?vid=8b867ec3-9f40-4218-bb82-8540d6bddad4","ios":"levelo://app?vid=8b867ec3-9f40-4218-bb82-8540d6bddad4"},"vehicle_type_id":"4","last_reported":1731327434,"current_range_meters":23200,"station_id":"ce4bhhh2rcd13ifvqfk0","pricing_plan_id":"cebpf4jnsgd1na2vs0mg"},{"bike_id":"af2ba120-baaa-460d-a585-6895b6ee57b0","system_id":"levelo_inurba_marseille","lat":43.23155,"lon":5.4371,"is_reserved":false,"is_disabled":false,"rental_uris":{"android":"levelo://app?vid=af2ba120-baaa-460d-a585-6895b6ee57b0","ios":"levelo://app?vid=af2ba120-baaa-460d-a585-6895b6ee57b0"},"vehicle_type_id":"4","last_reported":1731327434,"current_range_meters":35600,"station_id":"ce4bhmp2rcd13ifvqgog","pricing_plan_id":"cebpf4jnsgd1na2vs0mg"},{"bike_id":"59ba0f35-e538-4e71-8d54-7f5c4d9291a4","system_id":"levelo_inurba_marseille","lat":43.318787,"lon":5.407449,"is_reserved":false,"is_disabled":false,"rental_uris":{"android":"levelo://app?vid=59ba0f35-e538-4e71-8d54-7f5c4d9291a4","ios":"levelo://app?vid=59ba0f35-e538-4e71-8d54-7f5c4d9291a4"},"vehicle_type_id":"4","last_reported":1731327434,"current_range_meters":6400,"station_id":"ce4bhq12rcd13ifvqhig","pricing_plan_id":"cebpf4jnsgd1na2vs0mg"},{"bike_id":"f5f7adb1-08a0-41e5-84f8-4eacbb87fa6f","system_id":"levelo_inurba_marseille","lat":43.239618,"lon":5.366389,"is_reserved":false,"is_disabled":false,"rental_uris":{"android":"levelo://app?vid=f5f7adb1-08a0-41e5-84f8-4eacbb87fa6f","ios":"levelo://app?vid=f5f7adb1-08a0-41e5-84f8-4eacbb87fa6f"},"vehicle_type_id":"4","last_reported":1731327434,"current_range_meters":38400,"station_id":"ce4bhi12rcd13ifvqfp0","pricing_plan_id":"cebpf4jnsgd1na2vs0mg"},{"bike_id":"851779bb-3e79-4286-ac84-8245b0f01285","system_id":"levelo_inurba_marseille","lat":43.24547,"lon":5.39529,"is_reserved":false,"is_disabled":false,"rental_uris":{"android":"levelo://app?vid=851779bb-3e79-4286-ac84-8245b0f01285","ios":"levelo://app?vid=851779bb-3e79-4286-ac84-8245b0f01285"},"vehicle_type_id":"4","last_reported":1731327434,"current_range_meters":38800,"station_id":"ce4bhlp2rcd13ifvqgjg","pricing_plan_id":"cebpf4jnsgd1na2vs0mg"},{"bike_id":"02699c10-6407-4b81-a578-9afb1d219bfe","system_id":"levelo_inurba_marseille","lat":43.33613,"lon":5.41035,"is_reserved":false,"is_disabled":false,"rental_uris":{"android":"levelo://app?vid=02699c10-6407-4b81-a578-9afb1d219bfe","ios":"levelo://app?vid=02699c10-6407-4b81-a578-9afb1d219bfe"},"vehicle_type_id":"4","last_reported":1731327434,"current_range_meters":10800,"station_id":"ce4bhqh2rcd13ifvqhmg","pricing_plan_id":"cebpf4jnsgd1na2vs0mg"},{"bike_id":"8fb82155-6a2c-4957-a8a3-8196e42788f3","system_id":"levelo_inurba_marseille","lat":43.27316,"lon":5.39079,"is_reserved":false,"is_disabled":false,"rental_uris":{"android":"levelo://app?vid=8fb82155-6a2c-4957-a8a3-8196e42788f3","ios":"levelo://app?vid=8fb82155-6a2c-4957-a8a3-8196e42788f3"},"vehicle_type_id":"4","last_reported":1731327434,"current_range_meters":21600,"station_id":"ce4bhgp2rcd13ifvqfe0","pricing_plan_id":"cebpf4jnsgd1na2vs0mg"},{"bike_id":"c28c30a0-39dd-4299-a220-222985df9d05","system_id":"levelo_inurba_marseille","lat":43.34132,"lon":5.40909,"is_reserved":false,"is_disabled":false,"rental_uris":{"android":"levelo://app?vid=c28c30a0-39dd-4299-a220-222985df9d05","ios":"levelo://app?vid=c28c30a0-39dd-4299-a220-222985df9d05"},"vehicle_type_id":"4","last_reported":1731327434,"current_range_meters":30400,"station_id":"ce4bhqh2rcd13ifvqhlg","pricing_plan_id":"cebpf4jnsgd1na2vs0mg"},{"bike_id":"aebf389d-d557-42cb-9a83-26709e2249b2","system_id":"levelo_inurba_marseille","lat":43.24808,"lon":5.37459,"is_reserved":false,"is_disabled":false,"rental_uris":{"android":"levelo://app?vid=aebf389d-d557-42cb-9a83-26709e2249b2","ios":"levelo://app?vid=aebf389d-d557-42cb-9a83-26709e2249b2"},"vehicle_type_id":"4","last_reported":1731327434,"current_range_meters":27200,"station_id":"ce4bhgh2rcd13ifvqfb0","pricing_plan_id":"cebpf4jnsgd1na2vs0mg"},{"bike_id":"85e2f4f3-6aa2-4c02-8cb0-3f10017cc61a","system_id":"levelo_inurba_marseille","lat":43.25084,"lon":5.39519,"is_reserved":false,"is_disabled":false,"rental_uris":{"android":"levelo://app?vid=85e2f4f3-6aa2-4c02-8cb0-3f10017cc61a","ios":"levelo://app?vid=85e2f4f3-6aa2-4c02-8cb0-3f10017cc61a"},"vehicle_type_id":"4","last_reported":1731327434,"current_range_meters":39200,"station_id":"ce4bhm12rcd13ifvqgkg","pricing_plan_id":"cebpf4jnsgd1na2vs0mg"},{"bike_id":"66ea80ff-5ed1-4bf4-a73c-39df4108ba31","system_id":"levelo_inurba_marseille","lat":43.28074,"lon":5.39662,"is_reserved":false,"is_disabled":false,"rental_uris":{"android":"levelo://app?vid=66ea80ff-5ed1-4bf4-a73c-39df4108ba31","ios":"levelo://app?vid=66ea80ff-5ed1-4bf4-a73c-39df4108ba31"},"vehicle_type_id":"4","last_reported":1731327434,"current_range_meters":33200,"station_id":"ce4bho12rcd13ifvqh2g","pricing_plan_id":"cebpf4jnsgd1na2vs0mg"},{"bike_id":"3d6ab80a-d16b-4bfc-b98e-9b75f8902807","system_id":"levelo_inurba_marseille","lat":43.28269,"lon":5.35067,"is_reserved":false,"is_disabled":false,"rental_uris":{"android":"levelo://app?vid=3d6ab80a-d16b-4bfc-b98e-9b75f8902807","ios":"levelo://app?vid=3d6ab80a-d16b-4bfc-b98e-9b75f8902807"},"vehicle_type_id":"4","last_reported":1731327434,"current_range_meters":33600,"station_id":"ce4bhbp2rcd13ifvqerg","pricing_plan_id":"cebpf4jnsgd1na2vs0mg"},{"bike_id":"debe5137-bc8a-4d86-876c-fbfbd9447ac6","system_id":"levelo_inurba_marseille","lat":43.30549,"lon":5.36558,"is_reserved":false,"is_disabled":false,"rental_uris":{"android":"levelo://app?vid=debe5137-bc8a-4d86-876c-fbfbd9447ac6","ios":"levelo://app?vid=debe5137-bc8a-4d86-876c-fbfbd9447ac6"},"vehicle_type_id":"4","last_reported":1731327434,"current_range_meters":33200,"station_id":"ce4bgs12rcd13ifvqcag","pricing_plan_id":"cebpf4jnsgd1na2vs0mg"},{"bike_id":"dd5f1716-d9fc-4b5a-bb9b-9777d93017b4","system_id":"levelo_inurba_marseille","lat":43.28416,"lon":5.34985,"is_reserved":false,"is_disabled":false,"rental_uris":{"android":"levelo://app?vid=dd5f1716-d9fc-4b5a-bb9b-9777d93017b4","ios":"levelo://app?vid=dd5f1716-d9fc-4b5a-bb9b-9777d93017b4"},"vehicle_type_id":"4","last_reported":1731327434,"current_range_meters":19600,"station_id":"ce4bhbh2rcd13ifvqepg","pricing_plan_id":"cebpf4jnsgd1na2vs0mg"},{"bike_id":"1348ab3b-862b-4b63-9222-197e3ceb49e1","system_id":"levelo_inurba_marseille","lat":43.25493,"lon":5.3765,"is_reserved":false,"is_disabled":false,"rental_uris":{"android":"levelo://app?vid=1348ab3b-862b-4b63-9222-197e3ceb49e1","ios":"levelo://app?vid=1348ab3b-862b-4b63-9222-197e3ceb49e1"},"vehicle_type_id":"4","last_reported":1731327434,"current_range_meters":35200,"station_id":"ce4bhh12rcd13ifvqff0","pricing_plan_id":"cebpf4jnsgd1na2vs0mg"},{"bike_id":"1738d94f-8cb1-44cf-affb-0b3bc5528744","system_id":"levelo_inurba_marseille","lat":43.31725,"lon":5.42399,"is_reserved":false,"is_disabled":false,"rental_uris":{"android":"levelo://app?vid=1738d94f-8cb1-44cf-affb-0b3bc5528744","ios":"levelo://app?vid=1738d94f-8cb1-44cf-affb-0b3bc5528744"},"vehicle_type_id":"4","last_reported":1731327434,"current_range_meters":21600,"station_id":"ce4bhp92rcd13ifvqhbg","pricing_plan_id":"cebpf4jnsgd1na2vs0mg"},{"bike_id":"e63e4e57-c325-4368-bed4-48c0eb1ab811","system_id":"levelo_inurba_marseille","lat":43.29972,"lon":5.37173,"is_reserved":false,"is_disabled":false,"rental_uris":{"android":"levelo://app?vid=e63e4e57-c325-4368-bed4-48c0eb1ab811","ios":"levelo://app?vid=e63e4e57-c325-4368-bed4-48c0eb1ab811"},"vehicle_type_id":"4","last_reported":1731327434,"current_range_meters":39200,"station_id":"ce4bgr92rcd13ifvqc7g","pricing_plan_id":"cebpf4jnsgd1na2vs0mg"},{"bike_id":"09a1e313-58bb-4933-ac4b-7b06aceafd7a","system_id":"levelo_inurba_marseille","lat":43.26058,"lon":5.39403,"is_reserved":false,"is_disabled":false,"rental_uris":{"android":"levelo://app?vid=09a1e313-58bb-4933-ac4b-7b06aceafd7a","ios":"levelo://app?vid=09a1e313-58bb-4933-ac4b-7b06aceafd7a"},"vehicle_type_id":"4","last_reported":1731327434,"current_range_meters":33200,"station_id":"ce4bhh92rcd13ifvqfj0","pricing_plan_id":"cebpf4jnsgd1na2vs0mg"},{"bike_id":"18ba77ba-b275-4354-a54b-31a85eeb10c8","system_id":"levelo_inurba_marseille","lat":43.25576,"lon":5.38235,"is_reserved":false,"is_disabled":false,"rental_uris":{"android":"levelo://app?vid=18ba77ba-b275-4354-a54b-31a85eeb10c8","ios":"levelo://app?vid=18ba77ba-b275-4354-a54b-31a85eeb10c8"},"vehicle_type_id":"4","last_reported":1731327434,"current_range_meters":34800,"station_id":"ce4bhih2rcd13ifvqfs0","pricing_plan_id":"cebpf4jnsgd1na2vs0mg"},{"bike_id":"625e1995-b00f-42c2-82c5-28168c1b3c12","system_id":"levelo_inurba_marseille","lat":43.28262,"lon":5.35062,"is_reserved":false,"is_disabled":false,"rental_uris":{"android":"levelo://app?vid=625e1995-b00f-42c2-82c5-28168c1b3c12","ios":"levelo://app?vid=625e1995-b00f-42c2-82c5-28168c1b3c12"},"vehicle_type_id":"4","last_reported":1731327434,"current_range_meters":26800,"station_id":"ce4bhbp2rcd13ifvqerg","pricing_plan_id":"cebpf4jnsgd1na2vs0mg"},{"bike_id":"89a934bf-3f12-402e-a4e4-ef91851cbf7b","system_id":"levelo_inurba_marseille","lat":43.2558,"lon":5.38233,"is_reserved":false,"is_disabled":false,"rental_uris":{"android":"levelo://app?vid=89a934bf-3f12-402e-a4e4-ef91851cbf7b","ios":"levelo://app?vid=89a934bf-3f12-402e-a4e4-ef91851cbf7b"},"vehicle_type_id":"4","last_reported":1731327434,"current_range_meters":39200,"station_id":"ce4bhih2rcd13ifvqfs0","pricing_plan_id":"cebpf4jnsgd1na2vs0mg"},{"bike_id":"e43e3dfb-08a3-4503-84d0-903a542426c9","system_id":"levelo_inurba_marseille","lat":43.25825,"lon":5.3943,"is_reserved":false,"is_disabled":false,"rental_uris":{"android":"levelo://app?vid=e43e3dfb-08a3-4503-84d0-903a542426c9","ios":"levelo://app?vid=e43e3dfb-08a3-4503-84d0-903a542426c9"},"vehicle_type_id":"4","last_reported":1731327434,"current_range_meters":17600,"station_id":"ce4bhip2rcd13ifvqft0","pricing_plan_id":"cebpf4jnsgd1na2vs0mg"},{"bike_id":"b8cdbc72-fb69-4a3a-8350-1fcbc7da926b","system_id":"levelo_inurba_marseille","lat":43.25866,"lon":5.39904,"is_reserved":false,"is_disabled":false,"rental_uris":{"android":"levelo://app?vid=b8cdbc72-fb69-4a3a-8350-1fcbc7da926b","ios":"levelo://app?vid=b8cdbc72-fb69-4a3a-8350-1fcbc7da926b"},"vehicle_type_id":"4","last_reported":1731327434,"current_range_meters":38000,"station_id":"ce4bhl92rcd13ifvqghg","pricing_plan_id":"cebpf4jnsgd1na2vs0mg"},{"bike_id":"ca6bc757-afb2-47ae-8348-d50290e625d2","system_id":"levelo_inurba_marseille","lat":43.24806,"lon":5.37451,"is_reserved":false,"is_disabled":false,"rental_uris":{"android":"levelo://app?vid=ca6bc757-afb2-47ae-8348-d50290e625d2","ios":"levelo://app?vid=ca6bc757-afb2-47ae-8348-d50290e625d2"},"vehicle_type_id":"4","last_reported":1731327434,"current_range_meters":30000,"station_id":"ce4bhgh2rcd13ifvqfb0","pricing_plan_id":"cebpf4jnsgd1na2vs0mg"},{"bike_id":"bdf00644-feeb-4cfc-b7e7-a0b3e87216f9","system_id":"levelo_inurba_marseille","lat":43.23197,"lon":5.35551,"is_reserved":false,"is_disabled":false,"rental_uris":{"android":"levelo://app?vid=bdf00644-feeb-4cfc-b7e7-a0b3e87216f9","ios":"levelo://app?vid=bdf00644-feeb-4cfc-b7e7-a0b3e87216f9"},"vehicle_type_id":"4","last_reported":1731327434,"current_range_meters":38000,"station_id":"ce4bhu92rcd13ifvqi70","pricing_plan_id":"cebpf4jnsgd1na2vs0mg"},{"bike_id":"1b055698-e49c-42c1-a459-ade29d509c88","system_id":"levelo_inurba_marseille","lat":43.28722,"lon":5.37943,"is_reserved":false,"is_disabled":false,"rental_uris":{"android":"levelo://app?vid=1b055698-e49c-42c1-a459-ade29d509c88","ios":"levelo://app?vid=1b055698-e49c-42c1-a459-ade29d509c88"},"vehicle_type_id":"4","last_reported":1731327434,"current_range_meters":30800,"station_id":"ce4bh9p2rcd13ifvqec0","pricing_plan_id":"cebpf4jnsgd1na2vs0mg"},{"bike_id":"b7be4a98-cbde-46fb-9668-ebdb296d0759","system_id":"levelo_inurba_marseille","lat":43.26495,"lon":5.39543,"is_reserved":false,"is_disabled":false,"rental_uris":{"android":"levelo://app?vid=b7be4a98-cbde-46fb-9668-ebdb296d0759","ios":"levelo://app?vid=b7be4a98-cbde-46fb-9668-ebdb296d0759"},"vehicle_type_id":"4","last_reported":1731327434,"current_range_meters":37600,"station_id":"ce4bhi12rcd13ifvqfq0","pricing_plan_id":"cebpf4jnsgd1na2vs0mg"},{"bike_id":"00079633-0204-49b0-9404-0f1d9390baca","system_id":"levelo_inurba_marseille","lat":43.24804,"lon":5.37455,"is_reserved":false,"is_disabled":false,"rental_uris":{"android":"levelo://app?vid=00079633-0204-49b0-9404-0f1d9390baca","ios":"levelo://app?vid=00079633-0204-49b0-9404-0f1d9390baca"},"vehicle_type_id":"4","last_reported":1731327434,"current_range_meters":38800,"station_id":"ce4bhgh2rcd13ifvqfb0","pricing_plan_id":"cebpf4jnsgd1na2vs0mg"},{"bike_id":"58d0d5ad-c05f-4cbc-af98-020376e50129","system_id":"levelo_inurba_marseille","lat":43.265442,"lon":5.372827,"is_reserved":false,"is_disabled":false,"rental_uris":{"android":"levelo://app?vid=58d0d5ad-c05f-4cbc-af98-020376e50129","ios":"levelo://app?vid=58d0d5ad-c05f-4cbc-af98-020376e50129"},"vehicle_type_id":"4","last_reported":1731327434,"current_range_meters":16000,"station_id":"ce4bhg12rcd13ifvqf70","pricing_plan_id":"cebpf4jnsgd1na2vs0mg"},{"bike_id":"9226d27d-6e60-49c4-8e9f-d5478dd5f09c","system_id":"levelo_inurba_marseille","lat":43.29597,"lon":5.38101,"is_reserved":false,"is_disabled":false,"rental_uris":{"android":"levelo://app?vid=9226d27d-6e60-49c4-8e9f-d5478dd5f09c","ios":"levelo://app?vid=9226d27d-6e60-49c4-8e9f-d5478dd5f09c"},"vehicle_type_id":"4","last_reported":1731327434,"current_range_meters":24000,"station_id":"ce4bgl12rcd13ifvqbo0","pricing_plan_id":"cebpf4jnsgd1na2vs0mg"},{"bike_id":"06cd1fbe-f59a-4691-ad4a-838c581827cf","system_id":"levelo_inurba_marseille","lat":43.28418,"lon":5.34994,"is_reserved":false,"is_disabled":false,"rental_uris":{"android":"levelo://app?vid=06cd1fbe-f59a-4691-ad4a-838c581827cf","ios":"levelo://app?vid=06cd1fbe-f59a-4691-ad4a-838c581827cf"},"vehicle_type_id":"4","last_reported":1731327434,"current_range_meters":26800,"station_id":"ce4bhbh2rcd13ifvqepg","pricing_plan_id":"cebpf4jnsgd1na2vs0mg"},{"bike_id":"d205b9f3-5ec8-4dc0-bbd8-2595e44a413e","system_id":"levelo_inurba_marseille","lat":43.27064,"lon":5.42276,"is_reserved":false,"is_disabled":false,"rental_uris":{"android":"levelo://app?vid=d205b9f3-5ec8-4dc0-bbd8-2595e44a413e","ios":"levelo://app?vid=d205b9f3-5ec8-4dc0-bbd8-2595e44a413e"},"vehicle_type_id":"4","last_reported":1731327434,"current_range_meters":36800,"station_id":"ce4bhk92rcd13ifvqgb0","pricing_plan_id":"cebpf4jnsgd1na2vs0mg"},{"bike_id":"5b7436c1-f772-4ded-8e69-45ee2cf656ad","system_id":"levelo_inurba_marseille","lat":43.281086,"lon":5.378327,"is_reserved":false,"is_disabled":false,"rental_uris":{"android":"levelo://app?vid=5b7436c1-f772-4ded-8e69-45ee2cf656ad","ios":"levelo://app?vid=5b7436c1-f772-4ded-8e69-45ee2cf656ad"},"vehicle_type_id":"4","last_reported":1731327434,"current_range_meters":38800,"station_id":"ce4bha12rcd13ifvqee0","pricing_plan_id":"cebpf4jnsgd1na2vs0mg"},{"bike_id":"720d1874-b46b-47ba-999c-812502b47039","system_id":"levelo_inurba_marseille","lat":43.24806,"lon":5.37457,"is_reserved":false,"is_disabled":false,"rental_uris":{"android":"levelo://app?vid=720d1874-b46b-47ba-999c-812502b47039","ios":"levelo://app?vid=720d1874-b46b-47ba-999c-812502b47039"},"vehicle_type_id":"4","last_reported":1731327434,"current_range_meters":38000,"station_id":"ce4bhgh2rcd13ifvqfb0","pricing_plan_id":"cebpf4jnsgd1na2vs0mg"},{"bike_id":"d1cc468e-c8d9-4d2b-9113-bdb1fbee9584","system_id":"levelo_inurba_marseille","lat":43.31763,"lon":5.39018,"is_reserved":false,"is_disabled":false,"rental_uris":{"android":"levelo://app?vid=d1cc468e-c8d9-4d2b-9113-bdb1fbee9584","ios":"levelo://app?vid=d1cc468e-c8d9-4d2b-9113-bdb1fbee9584"},"vehicle_type_id":"4","last_reported":1731327434,"current_range_meters":38800,"station_id":"ce4bhqp2rcd13ifvqhng","pricing_plan_id":"cebpf4jnsgd1na2vs0mg"},{"bike_id":"181fa628-fd06-4339-88f4-5d411c857699","system_id":"levelo_inurba_marseille","lat":43.27067,"lon":5.42277,"is_reserved":false,"is_disabled":false,"rental_uris":{"android":"levelo://app?vid=181fa628-fd06-4339-88f4-5d411c857699","ios":"levelo://app?vid=181fa628-fd06-4339-88f4-5d411c857699"},"vehicle_type_id":"4","last_reported":1731327434,"current_range_meters":37600,"station_id":"ce4bhk92rcd13ifvqgb0","pricing_plan_id":"cebpf4jnsgd1na2vs0mg"},{"bike_id":"ee9a9f16-7436-46c7-9860-6d2e7a85a104","system_id":"levelo_inurba_marseille","lat":43.28273,"lon":5.35065,"is_reserved":false,"is_disabled":false,"rental_uris":{"android":"levelo://app?vid=ee9a9f16-7436-46c7-9860-6d2e7a85a104","ios":"levelo://app?vid=ee9a9f16-7436-46c7-9860-6d2e7a85a104"},"vehicle_type_id":"4","last_reported":1731327434,"current_range_meters":38800,"station_id":"ce4bhbp2rcd13ifvqerg","pricing_plan_id":"cebpf4jnsgd1na2vs0mg"},{"bike_id":"9a5eb101-92a2-4eeb-93bd-8d070d90c1ea","system_id":"levelo_inurba_marseille","lat":43.30435,"lon":5.42531,"is_reserved":false,"is_disabled":false,"rental_uris":{"android":"levelo://app?vid=9a5eb101-92a2-4eeb-93bd-8d070d90c1ea","ios":"levelo://app?vid=9a5eb101-92a2-4eeb-93bd-8d070d90c1ea"},"vehicle_type_id":"4","last_reported":1731327434,"current_range_meters":8000,"station_id":"","pricing_plan_id":"cebpf4jnsgd1na2vs0mg"},{"bike_id":"25adbc93-41f2-4285-ab08-bf4f1c8f7a2d","system_id":"levelo_inurba_marseille","lat":43.28614,"lon":5.3511,"is_reserved":false,"is_disabled":false,"rental_uris":{"android":"levelo://app?vid=25adbc93-41f2-4285-ab08-bf4f1c8f7a2d","ios":"levelo://app?vid=25adbc93-41f2-4285-ab08-bf4f1c8f7a2d"},"vehicle_type_id":"4","last_reported":1731327434,"current_range_meters":14000,"station_id":"ce4bhch2rcd13ifvqeug","pricing_plan_id":"cebpf4jnsgd1na2vs0mg"},{"bike_id":"4e9da362-ae4c-40bd-acbc-ca6d266e9f96","system_id":"levelo_inurba_marseille","lat":43.31705,"lon":5.37766,"is_reserved":false,"is_disabled":false,"rental_uris":{"android":"levelo://app?vid=4e9da362-ae4c-40bd-acbc-ca6d266e9f96","ios":"levelo://app?vid=4e9da362-ae4c-40bd-acbc-ca6d266e9f96"},"vehicle_type_id":"4","last_reported":1731327434,"current_range_meters":39200,"station_id":"ce4bgth2rcd13ifvqch0","pricing_plan_id":"cebpf4jnsgd1na2vs0mg"},{"bike_id":"de94f2b3-58a6-4a4e-97a5-a8bc0c5fc96a","system_id":"levelo_inurba_marseille","lat":43.292511,"lon":5.367122,"is_reserved":false,"is_disabled":false,"rental_uris":{"android":"levelo://app?vid=de94f2b3-58a6-4a4e-97a5-a8bc0c5fc96a","ios":"levelo://app?vid=de94f2b3-58a6-4a4e-97a5-a8bc0c5fc96a"},"vehicle_type_id":"4","last_reported":1731327434,"current_range_meters":29600,"station_id":"ce4bgi12rcd13ifvqb70","pricing_plan_id":"cebpf4jnsgd1na2vs0mg"},{"bike_id":"1e7fd650-28c5-42ee-9922-4070c0acdb85","system_id":"levelo_inurba_marseille","lat":43.27496,"lon":5.42459,"is_reserved":false,"is_disabled":false,"rental_uris":{"android":"levelo://app?vid=1e7fd650-28c5-42ee-9922-4070c0acdb85","ios":"levelo://app?vid=1e7fd650-28c5-42ee-9922-4070c0acdb85"},"vehicle_type_id":"4","last_reported":1731327434,"current_range_meters":35600,"station_id":"ce4bhn92rcd13ifvqgrg","pricing_plan_id":"cebpf4jnsgd1na2vs0mg"},{"bike_id":"d707c47c-cfe9-49e7-9b6c-d36ceefb458c","system_id":"levelo_inurba_marseille","lat":43.29197,"lon":5.35797,"is_reserved":false,"is_disabled":false,"rental_uris":{"android":"levelo://app?vid=d707c47c-cfe9-49e7-9b6c-d36ceefb458c","ios":"levelo://app?vid=d707c47c-cfe9-49e7-9b6c-d36ceefb458c"},"vehicle_type_id":"4","last_reported":1731327434,"current_range_meters":19200,"station_id":"ce4bhb12rcd13ifvqel0","pricing_plan_id":"cebpf4jnsgd1na2vs0mg"},{"bike_id":"55ae3613-d99b-40ae-9761-667d1b59c284","system_id":"levelo_inurba_marseille","lat":43.28459,"lon":5.35899,"is_reserved":false,"is_disabled":false,"rental_uris":{"android":"levelo://app?vid=55ae3613-d99b-40ae-9761-667d1b59c284","ios":"levelo://app?vid=55ae3613-d99b-40ae-9761-667d1b59c284"},"vehicle_type_id":"4","last_reported":1731327434,"current_range_meters":12400,"station_id":"ce4bhah2rcd13ifvqei0","pricing_plan_id":"cebpf4jnsgd1na2vs0mg"},{"bike_id":"1dc7ac1a-b527-47b1-86f9-8ca8fddb6202","system_id":"levelo_inurba_marseille","lat":43.23061,"lon":5.35496,"is_reserved":false,"is_disabled":false,"rental_uris":{"android":"levelo://app?vid=1dc7ac1a-b527-47b1-86f9-8ca8fddb6202","ios":"levelo://app?vid=1dc7ac1a-b527-47b1-86f9-8ca8fddb6202"},"vehicle_type_id":"4","last_reported":1731327434,"current_range_meters":6400,"station_id":"cpo3342slgdg3j2ifvpg","pricing_plan_id":"cebpf4jnsgd1na2vs0mg"},{"bike_id":"a5379cc8-aca3-463b-9c9c-1562c0ff3ffe","system_id":"levelo_inurba_marseille","lat":43.24391,"lon":5.37052,"is_reserved":false,"is_disabled":false,"rental_uris":{"android":"levelo://app?vid=a5379cc8-aca3-463b-9c9c-1562c0ff3ffe","ios":"levelo://app?vid=a5379cc8-aca3-463b-9c9c-1562c0ff3ffe"},"vehicle_type_id":"4","last_reported":1731327434,"current_range_meters":31200,"station_id":"ce4bhhh2rcd13ifvqfk0","pricing_plan_id":"cebpf4jnsgd1na2vs0mg"},{"bike_id":"ab5a1d47-ff92-432e-912e-6692a5357e86","system_id":"levelo_inurba_marseille","lat":43.29256,"lon":5.40905,"is_reserved":false,"is_disabled":false,"rental_uris":{"android":"levelo://app?vid=ab5a1d47-ff92-432e-912e-6692a5357e86","ios":"levelo://app?vid=ab5a1d47-ff92-432e-912e-6692a5357e86"},"vehicle_type_id":"4","last_reported":1731327434,"current_range_meters":37600,"station_id":"ce4bh192rcd13ifvqdc0","pricing_plan_id":"cebpf4jnsgd1na2vs0mg"},{"bike_id":"554a23aa-ed32-4edf-b302-862f268a7d0f","system_id":"levelo_inurba_marseille","lat":43.27666,"lon":5.38883,"is_reserved":false,"is_disabled":false,"rental_uris":{"android":"levelo://app?vid=554a23aa-ed32-4edf-b302-862f268a7d0f","ios":"levelo://app?vid=554a23aa-ed32-4edf-b302-862f268a7d0f"},"vehicle_type_id":"4","last_reported":1731327434,"current_range_meters":6400,"station_id":"ce4bhi12rcd13ifvqfo0","pricing_plan_id":"cebpf4jnsgd1na2vs0mg"},{"bike_id":"07704a86-dbed-425a-854d-11b1a4e3d84c","system_id":"levelo_inurba_marseille","lat":43.337524,"lon":5.374456,"is_reserved":false,"is_disabled":false,"rental_uris":{"android":"levelo://app?vid=07704a86-dbed-425a-854d-11b1a4e3d84c","ios":"levelo://app?vid=07704a86-dbed-425a-854d-11b1a4e3d84c"},"vehicle_type_id":"4","last_reported":1731327434,"current_range_meters":25200,"station_id":"","pricing_plan_id":"cebpf4jnsgd1na2vs0mg"},{"bike_id":"5eb98245-bce3-4138-a00d-434ad59401f1","system_id":"levelo_inurba_marseille","lat":43.3054,"lon":5.36697,"is_reserved":false,"is_disabled":false,"rental_uris":{"android":"levelo://app?vid=5eb98245-bce3-4138-a00d-434ad59401f1","ios":"levelo://app?vid=5eb98245-bce3-4138-a00d-434ad59401f1"},"vehicle_type_id":"4","last_reported":1731327434,"current_range_meters":34800,"station_id":"ce4bgrp2rcd13ifvqc9g","pricing_plan_id":"cebpf4jnsgd1na2vs0mg"},{"bike_id":"4bfcecc4-8e60-4c8e-a7dd-123e0766ccac","system_id":"levelo_inurba_marseille","lat":43.28612,"lon":5.35104,"is_reserved":false,"is_disabled":false,"rental_uris":{"android":"levelo://app?vid=4bfcecc4-8e60-4c8e-a7dd-123e0766ccac","ios":"levelo://app?vid=4bfcecc4-8e60-4c8e-a7dd-123e0766ccac"},"vehicle_type_id":"4","last_reported":1731327434,"current_range_meters":25600,"station_id":"ce4bhch2rcd13ifvqeug","pricing_plan_id":"cebpf4jnsgd1na2vs0mg"},{"bike_id":"14d20505-09c3-49e6-b487-149678ce51b5","system_id":"levelo_inurba_marseille","lat":43.23196,"lon":5.35549,"is_reserved":false,"is_disabled":false,"rental_uris":{"android":"levelo://app?vid=14d20505-09c3-49e6-b487-149678ce51b5","ios":"levelo://app?vid=14d20505-09c3-49e6-b487-149678ce51b5"},"vehicle_type_id":"4","last_reported":1731327434,"current_range_meters":24400,"station_id":"ce4bhu92rcd13ifvqi70","pricing_plan_id":"cebpf4jnsgd1na2vs0mg"},{"bike_id":"0a952cd2-4356-431f-a561-7311570ce45a","system_id":"levelo_inurba_marseille","lat":43.2509,"lon":5.39518,"is_reserved":false,"is_disabled":false,"rental_uris":{"android":"levelo://app?vid=0a952cd2-4356-431f-a561-7311570ce45a","ios":"levelo://app?vid=0a952cd2-4356-431f-a561-7311570ce45a"},"vehicle_type_id":"4","last_reported":1731327434,"current_range_meters":36400,"station_id":"ce4bhm12rcd13ifvqgkg","pricing_plan_id":"cebpf4jnsgd1na2vs0mg"},{"bike_id":"d2bd9332-8f9b-4e5f-b0ca-5e8e4a76daca","system_id":"levelo_inurba_marseille","lat":43.27611,"lon":5.36107,"is_reserved":false,"is_disabled":false,"rental_uris":{"android":"levelo://app?vid=d2bd9332-8f9b-4e5f-b0ca-5e8e4a76daca","ios":"levelo://app?vid=d2bd9332-8f9b-4e5f-b0ca-5e8e4a76daca"},"vehicle_type_id":"4","last_reported":1731327434,"current_range_meters":30400,"station_id":"ce4bgj92rcd13ifvqbe0","pricing_plan_id":"cebpf4jnsgd1na2vs0mg"},{"bike_id":"7f2feffc-ef5a-4c9c-bb61-5132dd5debb0","system_id":"levelo_inurba_marseille","lat":43.31995,"lon":5.38163,"is_reserved":false,"is_disabled":false,"rental_uris":{"android":"levelo://app?vid=7f2feffc-ef5a-4c9c-bb61-5132dd5debb0","ios":"levelo://app?vid=7f2feffc-ef5a-4c9c-bb61-5132dd5debb0"},"vehicle_type_id":"4","last_reported":1731327434,"current_range_meters":38800,"station_id":"ce4bhr12rcd13ifvqhpg","pricing_plan_id":"cebpf4jnsgd1na2vs0mg"},{"bike_id":"3157a5a2-f26b-49fa-9ccb-0a3d12d0d255","system_id":"levelo_inurba_marseille","lat":43.31894,"lon":5.40734,"is_reserved":false,"is_disabled":false,"rental_uris":{"android":"levelo://app?vid=3157a5a2-f26b-49fa-9ccb-0a3d12d0d255","ios":"levelo://app?vid=3157a5a2-f26b-49fa-9ccb-0a3d12d0d255"},"vehicle_type_id":"4","last_reported":1731327434,"current_range_meters":38800,"station_id":"ce4bhq12rcd13ifvqhig","pricing_plan_id":"cebpf4jnsgd1na2vs0mg"},{"bike_id":"c03d28f4-80d9-457c-9220-97c257611916","system_id":"levelo_inurba_marseille","lat":43.29276,"lon":5.3684,"is_reserved":false,"is_disabled":false,"rental_uris":{"android":"levelo://app?vid=c03d28f4-80d9-457c-9220-97c257611916","ios":"levelo://app?vid=c03d28f4-80d9-457c-9220-97c257611916"},"vehicle_type_id":"4","last_reported":1731327434,"current_range_meters":36000,"station_id":"ce4bhbp2rcd13ifvqesg","pricing_plan_id":"cebpf4jnsgd1na2vs0mg"},{"bike_id":"223cb3dc-89db-437f-a733-d8ba2fd6c352","system_id":"levelo_inurba_marseille","lat":43.28269,"lon":5.35065,"is_reserved":false,"is_disabled":false,"rental_uris":{"android":"levelo://app?vid=223cb3dc-89db-437f-a733-d8ba2fd6c352","ios":"levelo://app?vid=223cb3dc-89db-437f-a733-d8ba2fd6c352"},"vehicle_type_id":"4","last_reported":1731327434,"current_range_meters":26800,"station_id":"ce4bhbp2rcd13ifvqerg","pricing_plan_id":"cebpf4jnsgd1na2vs0mg"},{"bike_id":"baac3be3-010c-4ab7-b814-2af962c842f8","system_id":"levelo_inurba_marseille","lat":43.28361,"lon":5.37523,"is_reserved":false,"is_disabled":false,"rental_uris":{"android":"levelo://app?vid=baac3be3-010c-4ab7-b814-2af962c842f8","ios":"levelo://app?vid=baac3be3-010c-4ab7-b814-2af962c842f8"},"vehicle_type_id":"4","last_reported":1731327434,"current_range_meters":21600,"station_id":"ce4bh412rcd13ifvqds0","pricing_plan_id":"cebpf4jnsgd1na2vs0mg"},{"bike_id":"c1e70269-c155-460e-aa50-d5a936cbf590","system_id":"levelo_inurba_marseille","lat":43.23066,"lon":5.3549,"is_reserved":false,"is_disabled":false,"rental_uris":{"android":"levelo://app?vid=c1e70269-c155-460e-aa50-d5a936cbf590","ios":"levelo://app?vid=c1e70269-c155-460e-aa50-d5a936cbf590"},"vehicle_type_id":"4","last_reported":1731327434,"current_range_meters":35600,"station_id":"cpo3342slgdg3j2ifvpg","pricing_plan_id":"cebpf4jnsgd1na2vs0mg"},{"bike_id":"034f36be-cee5-403d-9ff8-2605b17e6610","system_id":"levelo_inurba_marseille","lat":43.26024,"lon":5.37548,"is_reserved":false,"is_disabled":false,"rental_uris":{"android":"levelo://app?vid=034f36be-cee5-403d-9ff8-2605b17e6610","ios":"levelo://app?vid=034f36be-cee5-403d-9ff8-2605b17e6610"},"vehicle_type_id":"4","last_reported":1731327434,"current_range_meters":26000,"station_id":"ce4bhgh2rcd13ifvqfa0","pricing_plan_id":"cebpf4jnsgd1na2vs0mg"},{"bike_id":"a3eee593-554c-49b6-a072-1e002305f4af","system_id":"levelo_inurba_marseille","lat":43.2621,"lon":5.37446,"is_reserved":false,"is_disabled":false,"rental_uris":{"android":"levelo://app?vid=a3eee593-554c-49b6-a072-1e002305f4af","ios":"levelo://app?vid=a3eee593-554c-49b6-a072-1e002305f4af"},"vehicle_type_id":"4","last_reported":1731327434,"current_range_meters":8400,"station_id":"ce4bhgp2rcd13ifvqfc0","pricing_plan_id":"cebpf4jnsgd1na2vs0mg"},{"bike_id":"f5293701-df9b-4a3c-bf61-d686249e5d80","system_id":"levelo_inurba_marseille","lat":43.25865,"lon":5.39899,"is_reserved":false,"is_disabled":false,"rental_uris":{"android":"levelo://app?vid=f5293701-df9b-4a3c-bf61-d686249e5d80","ios":"levelo://app?vid=f5293701-df9b-4a3c-bf61-d686249e5d80"},"vehicle_type_id":"4","last_reported":1731327434,"current_range_meters":32800,"station_id":"ce4bhl92rcd13ifvqghg","pricing_plan_id":"cebpf4jnsgd1na2vs0mg"},{"bike_id":"1cc1673f-94f9-4e64-a182-b138537642cb","system_id":"levelo_inurba_marseille","lat":43.29679,"lon":5.36159,"is_reserved":false,"is_disabled":false,"rental_uris":{"android":"levelo://app?vid=1cc1673f-94f9-4e64-a182-b138537642cb","ios":"levelo://app?vid=1cc1673f-94f9-4e64-a182-b138537642cb"},"vehicle_type_id":"4","last_reported":1731327434,"current_range_meters":33200,"station_id":"","pricing_plan_id":"cebpf4jnsgd1na2vs0mg"},{"bike_id":"40bf69f9-dc7b-49d1-8a9f-5311bd77c2b5","system_id":"levelo_inurba_marseille","lat":43.29044,"lon":5.3757,"is_reserved":false,"is_disabled":false,"rental_uris":{"android":"levelo://app?vid=40bf69f9-dc7b-49d1-8a9f-5311bd77c2b5","ios":"levelo://app?vid=40bf69f9-dc7b-49d1-8a9f-5311bd77c2b5"},"vehicle_type_id":"4","last_reported":1731327434,"current_range_meters":20400,"station_id":"ce4bh692rcd13ifvqe90","pricing_plan_id":"cebpf4jnsgd1na2vs0mg"},{"bike_id":"f231988b-c677-4d61-8d18-d58a52fe96b5","system_id":"levelo_inurba_marseille","lat":43.25501,"lon":5.37655,"is_reserved":false,"is_disabled":false,"rental_uris":{"android":"levelo://app?vid=f231988b-c677-4d61-8d18-d58a52fe96b5","ios":"levelo://app?vid=f231988b-c677-4d61-8d18-d58a52fe96b5"},"vehicle_type_id":"4","last_reported":1731327434,"current_range_meters":39200,"station_id":"ce4bhh12rcd13ifvqff0","pricing_plan_id":"cebpf4jnsgd1na2vs0mg"},{"bike_id":"05b62862-8331-49c7-8a0f-0d0121269a5e","system_id":"levelo_inurba_marseille","lat":43.28416,"lon":5.34982,"is_reserved":false,"is_disabled":false,"rental_uris":{"android":"levelo://app?vid=05b62862-8331-49c7-8a0f-0d0121269a5e","ios":"levelo://app?vid=05b62862-8331-49c7-8a0f-0d0121269a5e"},"vehicle_type_id":"4","last_reported":1731327434,"current_range_meters":39200,"station_id":"ce4bhbh2rcd13ifvqepg","pricing_plan_id":"cebpf4jnsgd1na2vs0mg"},{"bike_id":"85f3ddc3-1af9-4244-a6e8-4949da19964c","system_id":"levelo_inurba_marseille","lat":43.2707,"lon":5.42272,"is_reserved":false,"is_disabled":false,"rental_uris":{"android":"levelo://app?vid=85f3ddc3-1af9-4244-a6e8-4949da19964c","ios":"levelo://app?vid=85f3ddc3-1af9-4244-a6e8-4949da19964c"},"vehicle_type_id":"4","last_reported":1731327434,"current_range_meters":38000,"station_id":"ce4bhk92rcd13ifvqgb0","pricing_plan_id":"cebpf4jnsgd1na2vs0mg"},{"bike_id":"0ddc6cef-4a19-42a6-95a0-b546207e9d35","system_id":"levelo_inurba_marseille","lat":43.23193,"lon":5.35553,"is_reserved":false,"is_disabled":false,"rental_uris":{"android":"levelo://app?vid=0ddc6cef-4a19-42a6-95a0-b546207e9d35","ios":"levelo://app?vid=0ddc6cef-4a19-42a6-95a0-b546207e9d35"},"vehicle_type_id":"4","last_reported":1731327434,"current_range_meters":31200,"station_id":"ce4bhu92rcd13ifvqi70","pricing_plan_id":"cebpf4jnsgd1na2vs0mg"},{"bike_id":"6d72a493-11da-48b3-be50-fd384c9287b5","system_id":"levelo_inurba_marseille","lat":43.29851,"lon":5.36284,"is_reserved":false,"is_disabled":false,"rental_uris":{"android":"levelo://app?vid=6d72a493-11da-48b3-be50-fd384c9287b5","ios":"levelo://app?vid=6d72a493-11da-48b3-be50-fd384c9287b5"},"vehicle_type_id":"4","last_reported":1731327434,"current_range_meters":32000,"station_id":"ce4bgpp2rcd13ifvqc3g","pricing_plan_id":"cebpf4jnsgd1na2vs0mg"},{"bike_id":"f111eda8-189a-4138-9a19-b757e972f1c0","system_id":"levelo_inurba_marseille","lat":43.28349,"lon":5.381,"is_reserved":false,"is_disabled":false,"rental_uris":{"android":"levelo://app?vid=f111eda8-189a-4138-9a19-b757e972f1c0","ios":"levelo://app?vid=f111eda8-189a-4138-9a19-b757e972f1c0"},"vehicle_type_id":"4","last_reported":1731327434,"current_range_meters":34000,"station_id":"ce4bh412rcd13ifvqdr0","pricing_plan_id":"cebpf4jnsgd1na2vs0mg"},{"bike_id":"6b0d6d37-8d2e-49ab-a416-f47cc79172e3","system_id":"levelo_inurba_marseille","lat":43.29185,"lon":5.35811,"is_reserved":false,"is_disabled":false,"rental_uris":{"android":"levelo://app?vid=6b0d6d37-8d2e-49ab-a416-f47cc79172e3","ios":"levelo://app?vid=6b0d6d37-8d2e-49ab-a416-f47cc79172e3"},"vehicle_type_id":"4","last_reported":1731327434,"current_range_meters":39200,"station_id":"ce4bhb12rcd13ifvqel0","pricing_plan_id":"cebpf4jnsgd1na2vs0mg"},{"bike_id":"fecdd1f9-9ba9-40fe-8ffd-765c3531dbdd","system_id":"levelo_inurba_marseille","lat":43.26558,"lon":5.39005,"is_reserved":false,"is_disabled":false,"rental_uris":{"android":"levelo://app?vid=fecdd1f9-9ba9-40fe-8ffd-765c3531dbdd","ios":"levelo://app?vid=fecdd1f9-9ba9-40fe-8ffd-765c3531dbdd"},"vehicle_type_id":"4","last_reported":1731327434,"current_range_meters":38800,"station_id":"ce4bhe12rcd13ifvqf30","pricing_plan_id":"cebpf4jnsgd1na2vs0mg"},{"bike_id":"82ce0d1a-35aa-4501-b8b0-471c54595dce","system_id":"levelo_inurba_marseille","lat":43.23967,"lon":5.3663,"is_reserved":false,"is_disabled":false,"rental_uris":{"android":"levelo://app?vid=82ce0d1a-35aa-4501-b8b0-471c54595dce","ios":"levelo://app?vid=82ce0d1a-35aa-4501-b8b0-471c54595dce"},"vehicle_type_id":"4","last_reported":1731327434,"current_range_meters":24400,"station_id":"ce4bhi12rcd13ifvqfp0","pricing_plan_id":"cebpf4jnsgd1na2vs0mg"},{"bike_id":"d8d7565d-a4d8-461e-9c0d-792ffd976b3d","system_id":"levelo_inurba_marseille","lat":43.28673,"lon":5.38657,"is_reserved":false,"is_disabled":false,"rental_uris":{"android":"levelo://app?vid=d8d7565d-a4d8-461e-9c0d-792ffd976b3d","ios":"levelo://app?vid=d8d7565d-a4d8-461e-9c0d-792ffd976b3d"},"vehicle_type_id":"4","last_reported":1731327434,"current_range_meters":34000,"station_id":"ce4bh492rcd13ifvqdug","pricing_plan_id":"cebpf4jnsgd1na2vs0mg"},{"bike_id":"fc9482d6-2cec-49d7-8468-c3cb20b00d08","system_id":"levelo_inurba_marseille","lat":43.288879,"lon":5.394966,"is_reserved":false,"is_disabled":false,"rental_uris":{"android":"levelo://app?vid=fc9482d6-2cec-49d7-8468-c3cb20b00d08","ios":"levelo://app?vid=fc9482d6-2cec-49d7-8468-c3cb20b00d08"},"vehicle_type_id":"4","last_reported":1731327434,"current_range_meters":4400,"station_id":"ce4bh3h2rcd13ifvqdn0","pricing_plan_id":"cebpf4jnsgd1na2vs0mg"},{"bike_id":"b2fd0916-e46b-428f-a30e-067850d8a24a","system_id":"levelo_inurba_marseille","lat":43.30136,"lon":5.37405,"is_reserved":false,"is_disabled":false,"rental_uris":{"android":"levelo://app?vid=b2fd0916-e46b-428f-a30e-067850d8a24a","ios":"levelo://app?vid=b2fd0916-e46b-428f-a30e-067850d8a24a"},"vehicle_type_id":"4","last_reported":1731327434,"current_range_meters":27600,"station_id":"ce4bgs92rcd13ifvqcc0","pricing_plan_id":"cebpf4jnsgd1na2vs0mg"},{"bike_id":"85849e39-f38e-4437-afbd-f8d706fa4b32","system_id":"levelo_inurba_marseille","lat":43.28425,"lon":5.34988,"is_reserved":false,"is_disabled":false,"rental_uris":{"android":"levelo://app?vid=85849e39-f38e-4437-afbd-f8d706fa4b32","ios":"levelo://app?vid=85849e39-f38e-4437-afbd-f8d706fa4b32"},"vehicle_type_id":"4","last_reported":1731327434,"current_range_meters":32400,"station_id":"ce4bhbh2rcd13ifvqepg","pricing_plan_id":"cebpf4jnsgd1na2vs0mg"},{"bike_id":"6c7b35cd-d4d3-4413-a118-8c1d79899da4","system_id":"levelo_inurba_marseille","lat":43.28479,"lon":5.38427,"is_reserved":false,"is_disabled":false,"rental_uris":{"android":"levelo://app?vid=6c7b35cd-d4d3-4413-a118-8c1d79899da4","ios":"levelo://app?vid=6c7b35cd-d4d3-4413-a118-8c1d79899da4"},"vehicle_type_id":"4","last_reported":1731327434,"current_range_meters":31200,"station_id":"ce4bh512rcd13ifvqe3g","pricing_plan_id":"cebpf4jnsgd1na2vs0mg"},{"bike_id":"cf9aba8e-16f9-4582-ad53-0d8f645170b3","system_id":"levelo_inurba_marseille","lat":43.26494,"lon":5.39551,"is_reserved":false,"is_disabled":false,"rental_uris":{"android":"levelo://app?vid=cf9aba8e-16f9-4582-ad53-0d8f645170b3","ios":"levelo://app?vid=cf9aba8e-16f9-4582-ad53-0d8f645170b3"},"vehicle_type_id":"4","last_reported":1731327434,"current_range_meters":37600,"station_id":"ce4bhi12rcd13ifvqfq0","pricing_plan_id":"cebpf4jnsgd1na2vs0mg"},{"bike_id":"d5990e19-0551-4ad3-8c2a-d80513ba61ae","system_id":"levelo_inurba_marseille","lat":43.23194,"lon":5.35552,"is_reserved":false,"is_disabled":false,"rental_uris":{"android":"levelo://app?vid=d5990e19-0551-4ad3-8c2a-d80513ba61ae","ios":"levelo://app?vid=d5990e19-0551-4ad3-8c2a-d80513ba61ae"},"vehicle_type_id":"4","last_reported":1731327434,"current_range_meters":39200,"station_id":"ce4bhu92rcd13ifvqi70","pricing_plan_id":"cebpf4jnsgd1na2vs0mg"},{"bike_id":"2424299b-8b8f-44d7-926a-b2d623699646","system_id":"levelo_inurba_marseille","lat":43.28037,"lon":5.36947,"is_reserved":false,"is_disabled":false,"rental_uris":{"android":"levelo://app?vid=2424299b-8b8f-44d7-926a-b2d623699646","ios":"levelo://app?vid=2424299b-8b8f-44d7-926a-b2d623699646"},"vehicle_type_id":"4","last_reported":1731327434,"current_range_meters":20800,"station_id":"ce4bha12rcd13ifvqef0","pricing_plan_id":"cebpf4jnsgd1na2vs0mg"},{"bike_id":"d0de0228-1d77-44ff-abd5-a2717cad4818","system_id":"levelo_inurba_marseille","lat":43.27176,"lon":5.40998,"is_reserved":false,"is_disabled":false,"rental_uris":{"android":"levelo://app?vid=d0de0228-1d77-44ff-abd5-a2717cad4818","ios":"levelo://app?vid=d0de0228-1d77-44ff-abd5-a2717cad4818"},"vehicle_type_id":"4","last_reported":1731327434,"current_range_meters":28800,"station_id":"ce4bhl12rcd13ifvqgf0","pricing_plan_id":"cebpf4jnsgd1na2vs0mg"},{"bike_id":"b2f3adca-b446-441d-a1ab-5903c30fd432","system_id":"levelo_inurba_marseille","lat":43.33772,"lon":5.37447,"is_reserved":false,"is_disabled":false,"rental_uris":{"android":"levelo://app?vid=b2f3adca-b446-441d-a1ab-5903c30fd432","ios":"levelo://app?vid=b2f3adca-b446-441d-a1ab-5903c30fd432"},"vehicle_type_id":"4","last_reported":1731327434,"current_range_meters":11200,"station_id":"","pricing_plan_id":"cebpf4jnsgd1na2vs0mg"},{"bike_id":"f8a80f2d-b549-46ec-a2ef-7f7a2490b738","system_id":"levelo_inurba_marseille","lat":43.26793,"lon":5.39411,"is_reserved":false,"is_disabled":false,"rental_uris":{"android":"levelo://app?vid=f8a80f2d-b549-46ec-a2ef-7f7a2490b738","ios":"levelo://app?vid=f8a80f2d-b549-46ec-a2ef-7f7a2490b738"},"vehicle_type_id":"4","last_reported":1731327434,"current_range_meters":39200,"station_id":"ce4bhh12rcd13ifvqfg0","pricing_plan_id":"cebpf4jnsgd1na2vs0mg"},{"bike_id":"6394262a-0aeb-404c-b1b8-e9e4f67976b3","system_id":"levelo_inurba_marseille","lat":43.28037,"lon":5.36952,"is_reserved":false,"is_disabled":false,"rental_uris":{"android":"levelo://app?vid=6394262a-0aeb-404c-b1b8-e9e4f67976b3","ios":"levelo://app?vid=6394262a-0aeb-404c-b1b8-e9e4f67976b3"},"vehicle_type_id":"4","last_reported":1731327434,"current_range_meters":38800,"station_id":"ce4bha12rcd13ifvqef0","pricing_plan_id":"cebpf4jnsgd1na2vs0mg"},{"bike_id":"2bdf9060-9eaa-4055-aa8b-ae8cd81f6e98","system_id":"levelo_inurba_marseille","lat":43.27073,"lon":5.42275,"is_reserved":false,"is_disabled":false,"rental_uris":{"android":"levelo://app?vid=2bdf9060-9eaa-4055-aa8b-ae8cd81f6e98","ios":"levelo://app?vid=2bdf9060-9eaa-4055-aa8b-ae8cd81f6e98"},"vehicle_type_id":"4","last_reported":1731327434,"current_range_meters":10800,"station_id":"ce4bhk92rcd13ifvqgb0","pricing_plan_id":"cebpf4jnsgd1na2vs0mg"},{"bike_id":"61d59144-939f-4582-9efc-d588c6421da9","system_id":"levelo_inurba_marseille","lat":43.24167,"lon":5.364,"is_reserved":false,"is_disabled":false,"rental_uris":{"android":"levelo://app?vid=61d59144-939f-4582-9efc-d588c6421da9","ios":"levelo://app?vid=61d59144-939f-4582-9efc-d588c6421da9"},"vehicle_type_id":"4","last_reported":1731327434,"current_range_meters":20400,"station_id":"cpo36qri1sfpv3e86is0","pricing_plan_id":"cebpf4jnsgd1na2vs0mg"},{"bike_id":"9ab3b81e-4cd0-44e1-aa28-4461d425e0c0","system_id":"levelo_inurba_marseille","lat":43.3266,"lon":5.40985,"is_reserved":false,"is_disabled":false,"rental_uris":{"android":"levelo://app?vid=9ab3b81e-4cd0-44e1-aa28-4461d425e0c0","ios":"levelo://app?vid=9ab3b81e-4cd0-44e1-aa28-4461d425e0c0"},"vehicle_type_id":"4","last_reported":1731327434,"current_range_meters":32400,"station_id":"ce4bhpp2rcd13ifvqhgg","pricing_plan_id":"cebpf4jnsgd1na2vs0mg"},{"bike_id":"bedfe257-ec8e-44aa-a6ac-c456d43815ff","system_id":"levelo_inurba_marseille","lat":43.33609,"lon":5.41025,"is_reserved":false,"is_disabled":false,"rental_uris":{"android":"levelo://app?vid=bedfe257-ec8e-44aa-a6ac-c456d43815ff","ios":"levelo://app?vid=bedfe257-ec8e-44aa-a6ac-c456d43815ff"},"vehicle_type_id":"4","last_reported":1731327434,"current_range_meters":38800,"station_id":"ce4bhqh2rcd13ifvqhmg","pricing_plan_id":"cebpf4jnsgd1na2vs0mg"},{"bike_id":"b72ca6e7-47e9-42be-9a97-b74e22acdc0e","system_id":"levelo_inurba_marseille","lat":43.32104,"lon":5.36772,"is_reserved":false,"is_disabled":false,"rental_uris":{"android":"levelo://app?vid=b72ca6e7-47e9-42be-9a97-b74e22acdc0e","ios":"levelo://app?vid=b72ca6e7-47e9-42be-9a97-b74e22acdc0e"},"vehicle_type_id":"4","last_reported":1731327434,"current_range_meters":30800,"station_id":"ce4bhrh2rcd13ifvqhug","pricing_plan_id":"cebpf4jnsgd1na2vs0mg"},{"bike_id":"0ae11c31-db72-4e40-9e57-0bca5798b242","system_id":"levelo_inurba_marseille","lat":43.26031,"lon":5.37551,"is_reserved":false,"is_disabled":false,"rental_uris":{"android":"levelo://app?vid=0ae11c31-db72-4e40-9e57-0bca5798b242","ios":"levelo://app?vid=0ae11c31-db72-4e40-9e57-0bca5798b242"},"vehicle_type_id":"4","last_reported":1731327434,"current_range_meters":38000,"station_id":"ce4bhgh2rcd13ifvqfa0","pricing_plan_id":"cebpf4jnsgd1na2vs0mg"},{"bike_id":"0df8bb59-b428-49af-9f16-568e84e6042c","system_id":"levelo_inurba_marseille","lat":43.24068,"lon":5.3776,"is_reserved":false,"is_disabled":false,"rental_uris":{"android":"levelo://app?vid=0df8bb59-b428-49af-9f16-568e84e6042c","ios":"levelo://app?vid=0df8bb59-b428-49af-9f16-568e84e6042c"},"vehicle_type_id":"4","last_reported":1731327434,"current_range_meters":32800,"station_id":"ce4bhnp2rcd13ifvqgvg","pricing_plan_id":"cebpf4jnsgd1na2vs0mg"},{"bike_id":"9d41cd61-533c-4420-b35d-c42d4354af1c","system_id":"levelo_inurba_marseille","lat":43.2603,"lon":5.37553,"is_reserved":false,"is_disabled":false,"rental_uris":{"android":"levelo://app?vid=9d41cd61-533c-4420-b35d-c42d4354af1c","ios":"levelo://app?vid=9d41cd61-533c-4420-b35d-c42d4354af1c"},"vehicle_type_id":"4","last_reported":1731327434,"current_range_meters":14800,"station_id":"ce4bhgh2rcd13ifvqfa0","pricing_plan_id":"cebpf4jnsgd1na2vs0mg"},{"bike_id":"e261fa72-7d32-4fb1-88c4-7333a1bbba14","system_id":"levelo_inurba_marseille","lat":43.26781,"lon":5.39413,"is_reserved":false,"is_disabled":false,"rental_uris":{"android":"levelo://app?vid=e261fa72-7d32-4fb1-88c4-7333a1bbba14","ios":"levelo://app?vid=e261fa72-7d32-4fb1-88c4-7333a1bbba14"},"vehicle_type_id":"4","last_reported":1731327434,"current_range_meters":39200,"station_id":"ce4bhh12rcd13ifvqfg0","pricing_plan_id":"cebpf4jnsgd1na2vs0mg"},{"bike_id":"db41b906-8121-4352-9c9c-6251ec74c9b2","system_id":"levelo_inurba_marseille","lat":43.26214,"lon":5.3744,"is_reserved":false,"is_disabled":false,"rental_uris":{"android":"levelo://app?vid=db41b906-8121-4352-9c9c-6251ec74c9b2","ios":"levelo://app?vid=db41b906-8121-4352-9c9c-6251ec74c9b2"},"vehicle_type_id":"4","last_reported":1731327434,"current_range_meters":38400,"station_id":"ce4bhgp2rcd13ifvqfc0","pricing_plan_id":"cebpf4jnsgd1na2vs0mg"},{"bike_id":"901a8ee9-a86a-49aa-b9b0-44d3ae03326a","system_id":"levelo_inurba_marseille","lat":43.31714,"lon":5.43702,"is_reserved":false,"is_disabled":false,"rental_uris":{"android":"levelo://app?vid=901a8ee9-a86a-49aa-b9b0-44d3ae03326a","ios":"levelo://app?vid=901a8ee9-a86a-49aa-b9b0-44d3ae03326a"},"vehicle_type_id":"4","last_reported":1731327434,"current_range_meters":8000,"station_id":"ce4bhp92rcd13ifvqhcg","pricing_plan_id":"cebpf4jnsgd1na2vs0mg"},{"bike_id":"52a71ef5-8ef7-4a13-9edb-b931936b8cfb","system_id":"levelo_inurba_marseille","lat":43.33726,"lon":5.39186,"is_reserved":false,"is_disabled":false,"rental_uris":{"android":"levelo://app?vid=52a71ef5-8ef7-4a13-9edb-b931936b8cfb","ios":"levelo://app?vid=52a71ef5-8ef7-4a13-9edb-b931936b8cfb"},"vehicle_type_id":"4","last_reported":1731327434,"current_range_meters":30400,"station_id":"ce4bhr92rcd13ifvqhsg","pricing_plan_id":"cebpf4jnsgd1na2vs0mg"},{"bike_id":"f51901d5-f297-4260-8491-7be7250cd569","system_id":"levelo_inurba_marseille","lat":43.26566,"lon":5.38998,"is_reserved":false,"is_disabled":false,"rental_uris":{"android":"levelo://app?vid=f51901d5-f297-4260-8491-7be7250cd569","ios":"levelo://app?vid=f51901d5-f297-4260-8491-7be7250cd569"},"vehicle_type_id":"4","last_reported":1731327434,"current_range_meters":24000,"station_id":"ce4bhe12rcd13ifvqf30","pricing_plan_id":"cebpf4jnsgd1na2vs0mg"},{"bike_id":"8f803afa-5642-4caf-899b-e5614b30849d","system_id":"levelo_inurba_marseille","lat":43.28269,"lon":5.3508,"is_reserved":false,"is_disabled":false,"rental_uris":{"android":"levelo://app?vid=8f803afa-5642-4caf-899b-e5614b30849d","ios":"levelo://app?vid=8f803afa-5642-4caf-899b-e5614b30849d"},"vehicle_type_id":"4","last_reported":1731327434,"current_range_meters":38800,"station_id":"ce4bhbp2rcd13ifvqerg","pricing_plan_id":"cebpf4jnsgd1na2vs0mg"},{"bike_id":"b42cb898-3c97-4984-ad72-adc4d4048afd","system_id":"levelo_inurba_marseille","lat":43.22926,"lon":5.35372,"is_reserved":false,"is_disabled":false,"rental_uris":{"android":"levelo://app?vid=b42cb898-3c97-4984-ad72-adc4d4048afd","ios":"levelo://app?vid=b42cb898-3c97-4984-ad72-adc4d4048afd"},"vehicle_type_id":"4","last_reported":1731327434,"current_range_meters":14000,"station_id":"cpo3532slgdg3j2ikp40","pricing_plan_id":"cebpf4jnsgd1na2vs0mg"},{"bike_id":"effe6a52-fd80-4e1d-a183-e0e0f1622037","system_id":"levelo_inurba_marseille","lat":43.31994,"lon":5.38161,"is_reserved":false,"is_disabled":false,"rental_uris":{"android":"levelo://app?vid=effe6a52-fd80-4e1d-a183-e0e0f1622037","ios":"levelo://app?vid=effe6a52-fd80-4e1d-a183-e0e0f1622037"},"vehicle_type_id":"4","last_reported":1731327434,"current_range_meters":28800,"station_id":"ce4bhr12rcd13ifvqhpg","pricing_plan_id":"cebpf4jnsgd1na2vs0mg"},{"bike_id":"4f0b5eb1-7d50-489a-b482-e83519ff277a","system_id":"levelo_inurba_marseille","lat":43.25087,"lon":5.39521,"is_reserved":false,"is_disabled":false,"rental_uris":{"android":"levelo://app?vid=4f0b5eb1-7d50-489a-b482-e83519ff277a","ios":"levelo://app?vid=4f0b5eb1-7d50-489a-b482-e83519ff277a"},"vehicle_type_id":"4","last_reported":1731327434,"current_range_meters":28800,"station_id":"ce4bhm12rcd13ifvqgkg","pricing_plan_id":"cebpf4jnsgd1na2vs0mg"},{"bike_id":"7688bd19-3d11-406e-84d9-9c8cd611bb73","system_id":"levelo_inurba_marseille","lat":43.28156,"lon":5.42629,"is_reserved":false,"is_disabled":false,"rental_uris":{"android":"levelo://app?vid=7688bd19-3d11-406e-84d9-9c8cd611bb73","ios":"levelo://app?vid=7688bd19-3d11-406e-84d9-9c8cd611bb73"},"vehicle_type_id":"4","last_reported":1731327434,"current_range_meters":38000,"station_id":"ce4bhnh2rcd13ifvqgug","pricing_plan_id":"cebpf4jnsgd1na2vs0mg"},{"bike_id":"c74a236a-3f2a-4617-8ca8-47c166434983","system_id":"levelo_inurba_marseille","lat":43.28152,"lon":5.42642,"is_reserved":false,"is_disabled":false,"rental_uris":{"android":"levelo://app?vid=c74a236a-3f2a-4617-8ca8-47c166434983","ios":"levelo://app?vid=c74a236a-3f2a-4617-8ca8-47c166434983"},"vehicle_type_id":"4","last_reported":1731327434,"current_range_meters":33200,"station_id":"ce4bhnh2rcd13ifvqgug","pricing_plan_id":"cebpf4jnsgd1na2vs0mg"},{"bike_id":"45704ee0-86f5-40df-a999-9835f4d217e2","system_id":"levelo_inurba_marseille","lat":43.30541,"lon":5.36695,"is_reserved":false,"is_disabled":false,"rental_uris":{"android":"levelo://app?vid=45704ee0-86f5-40df-a999-9835f4d217e2","ios":"levelo://app?vid=45704ee0-86f5-40df-a999-9835f4d217e2"},"vehicle_type_id":"4","last_reported":1731327434,"current_range_meters":38800,"station_id":"ce4bgrp2rcd13ifvqc9g","pricing_plan_id":"cebpf4jnsgd1na2vs0mg"},{"bike_id":"10854acd-bc01-4b81-976f-338cd3da6243","system_id":"levelo_inurba_marseille","lat":43.25105,"lon":5.40324,"is_reserved":false,"is_disabled":false,"rental_uris":{"android":"levelo://app?vid=10854acd-bc01-4b81-976f-338cd3da6243","ios":"levelo://app?vid=10854acd-bc01-4b81-976f-338cd3da6243"},"vehicle_type_id":"4","last_reported":1731327434,"current_range_meters":38800,"station_id":"ce4bhlh2rcd13ifvqgig","pricing_plan_id":"cebpf4jnsgd1na2vs0mg"},{"bike_id":"81c3c706-55d5-4515-bcda-e2c7ffc6d53f","system_id":"levelo_inurba_marseille","lat":43.3079,"lon":5.43523,"is_reserved":false,"is_disabled":false,"rental_uris":{"android":"levelo://app?vid=81c3c706-55d5-4515-bcda-e2c7ffc6d53f","ios":"levelo://app?vid=81c3c706-55d5-4515-bcda-e2c7ffc6d53f"},"vehicle_type_id":"4","last_reported":1731327434,"current_range_meters":38800,"station_id":"ce4bhph2rcd13ifvqheg","pricing_plan_id":"cebpf4jnsgd1na2vs0mg"},{"bike_id":"16edd5e5-0497-4831-bb6b-d18eb7e92293","system_id":"levelo_inurba_marseille","lat":43.24808,"lon":5.37453,"is_reserved":false,"is_disabled":false,"rental_uris":{"android":"levelo://app?vid=16edd5e5-0497-4831-bb6b-d18eb7e92293","ios":"levelo://app?vid=16edd5e5-0497-4831-bb6b-d18eb7e92293"},"vehicle_type_id":"4","last_reported":1731327434,"current_range_meters":24400,"station_id":"ce4bhgh2rcd13ifvqfb0","pricing_plan_id":"cebpf4jnsgd1na2vs0mg"},{"bike_id":"feb86f62-2c80-4064-8e38-33c5534046da","system_id":"levelo_inurba_marseille","lat":43.28208,"lon":5.39928,"is_reserved":false,"is_disabled":false,"rental_uris":{"android":"levelo://app?vid=feb86f62-2c80-4064-8e38-33c5534046da","ios":"levelo://app?vid=feb86f62-2c80-4064-8e38-33c5534046da"},"vehicle_type_id":"4","last_reported":1731327434,"current_range_meters":16400,"station_id":"","pricing_plan_id":"cebpf4jnsgd1na2vs0mg"},{"bike_id":"e4668a9c-7db4-4140-ae91-c11fb3580077","system_id":"levelo_inurba_marseille","lat":43.27982,"lon":5.41662,"is_reserved":false,"is_disabled":false,"rental_uris":{"android":"levelo://app?vid=e4668a9c-7db4-4140-ae91-c11fb3580077","ios":"levelo://app?vid=e4668a9c-7db4-4140-ae91-c11fb3580077"},"vehicle_type_id":"4","last_reported":1731327434,"current_range_meters":25600,"station_id":"ce4bho12rcd13ifvqh1g","pricing_plan_id":"cebpf4jnsgd1na2vs0mg"},{"bike_id":"a2e0dbd8-6bb6-4f58-81e6-a5bb2ebfdca4","system_id":"levelo_inurba_marseille","lat":43.23194,"lon":5.35553,"is_reserved":false,"is_disabled":false,"rental_uris":{"android":"levelo://app?vid=a2e0dbd8-6bb6-4f58-81e6-a5bb2ebfdca4","ios":"levelo://app?vid=a2e0dbd8-6bb6-4f58-81e6-a5bb2ebfdca4"},"vehicle_type_id":"4","last_reported":1731327434,"current_range_meters":39200,"station_id":"ce4bhu92rcd13ifvqi70","pricing_plan_id":"cebpf4jnsgd1na2vs0mg"},{"bike_id":"a827fd9c-f618-4b09-8683-68b27d1649bd","system_id":"levelo_inurba_marseille","lat":43.29195,"lon":5.35805,"is_reserved":false,"is_disabled":false,"rental_uris":{"android":"levelo://app?vid=a827fd9c-f618-4b09-8683-68b27d1649bd","ios":"levelo://app?vid=a827fd9c-f618-4b09-8683-68b27d1649bd"},"vehicle_type_id":"4","last_reported":1731327434,"current_range_meters":30000,"station_id":"ce4bhb12rcd13ifvqel0","pricing_plan_id":"cebpf4jnsgd1na2vs0mg"},{"bike_id":"1ffeff18-7c61-4ed0-b0fe-34a4ca7bc3d5","system_id":"levelo_inurba_marseille","lat":43.28863,"lon":5.39398,"is_reserved":false,"is_disabled":false,"rental_uris":{"android":"levelo://app?vid=1ffeff18-7c61-4ed0-b0fe-34a4ca7bc3d5","ios":"levelo://app?vid=1ffeff18-7c61-4ed0-b0fe-34a4ca7bc3d5"},"vehicle_type_id":"4","last_reported":1731327434,"current_range_meters":6800,"station_id":"","pricing_plan_id":"cebpf4jnsgd1na2vs0mg"},{"bike_id":"9e3f5526-dc45-4ee1-9c8e-05c036614c5b","system_id":"levelo_inurba_marseille","lat":43.248,"lon":5.37455,"is_reserved":false,"is_disabled":false,"rental_uris":{"android":"levelo://app?vid=9e3f5526-dc45-4ee1-9c8e-05c036614c5b","ios":"levelo://app?vid=9e3f5526-dc45-4ee1-9c8e-05c036614c5b"},"vehicle_type_id":"4","last_reported":1731327434,"current_range_meters":36400,"station_id":"ce4bhgh2rcd13ifvqfb0","pricing_plan_id":"cebpf4jnsgd1na2vs0mg"},{"bike_id":"d34bf5b5-25e3-4cbb-9654-ea9ef4a468a2","system_id":"levelo_inurba_marseille","lat":43.23964,"lon":5.36641,"is_reserved":false,"is_disabled":false,"rental_uris":{"android":"levelo://app?vid=d34bf5b5-25e3-4cbb-9654-ea9ef4a468a2","ios":"levelo://app?vid=d34bf5b5-25e3-4cbb-9654-ea9ef4a468a2"},"vehicle_type_id":"4","last_reported":1731327434,"current_range_meters":20800,"station_id":"ce4bhi12rcd13ifvqfp0","pricing_plan_id":"cebpf4jnsgd1na2vs0mg"},{"bike_id":"5dd5003b-de5e-4f9e-a1b8-cbd6e8dd73f4","system_id":"levelo_inurba_marseille","lat":43.27911,"lon":5.3958,"is_reserved":false,"is_disabled":false,"rental_uris":{"android":"levelo://app?vid=5dd5003b-de5e-4f9e-a1b8-cbd6e8dd73f4","ios":"levelo://app?vid=5dd5003b-de5e-4f9e-a1b8-cbd6e8dd73f4"},"vehicle_type_id":"4","last_reported":1731327434,"current_range_meters":7200,"station_id":"ce4bhf92rcd13ifvqf40","pricing_plan_id":"cebpf4jnsgd1na2vs0mg"},{"bike_id":"ab2a664c-93a2-484e-b5f9-981e6a4f4ccf","system_id":"levelo_inurba_marseille","lat":43.25862,"lon":5.39904,"is_reserved":false,"is_disabled":false,"rental_uris":{"android":"levelo://app?vid=ab2a664c-93a2-484e-b5f9-981e6a4f4ccf","ios":"levelo://app?vid=ab2a664c-93a2-484e-b5f9-981e6a4f4ccf"},"vehicle_type_id":"4","last_reported":1731327434,"current_range_meters":32400,"station_id":"ce4bhl92rcd13ifvqghg","pricing_plan_id":"cebpf4jnsgd1na2vs0mg"},{"bike_id":"d7979457-c72f-4f9f-afe8-1edc23346266","system_id":"levelo_inurba_marseille","lat":43.28419,"lon":5.34987,"is_reserved":false,"is_disabled":false,"rental_uris":{"android":"levelo://app?vid=d7979457-c72f-4f9f-afe8-1edc23346266","ios":"levelo://app?vid=d7979457-c72f-4f9f-afe8-1edc23346266"},"vehicle_type_id":"4","last_reported":1731327434,"current_range_meters":27600,"station_id":"ce4bhbh2rcd13ifvqepg","pricing_plan_id":"cebpf4jnsgd1na2vs0mg"},{"bike_id":"4309f03e-5283-4f55-82ed-32b19dbc53cd","system_id":"levelo_inurba_marseille","lat":43.29029,"lon":5.37555,"is_reserved":false,"is_disabled":false,"rental_uris":{"android":"levelo://app?vid=4309f03e-5283-4f55-82ed-32b19dbc53cd","ios":"levelo://app?vid=4309f03e-5283-4f55-82ed-32b19dbc53cd"},"vehicle_type_id":"4","last_reported":1731327434,"current_range_meters":36800,"station_id":"ce4bh692rcd13ifvqe90","pricing_plan_id":"cebpf4jnsgd1na2vs0mg"},{"bike_id":"cdfbc247-da95-4467-b8de-f60c866cf66a","system_id":"levelo_inurba_marseille","lat":43.29553,"lon":5.42285,"is_reserved":false,"is_disabled":false,"rental_uris":{"android":"levelo://app?vid=cdfbc247-da95-4467-b8de-f60c866cf66a","ios":"levelo://app?vid=cdfbc247-da95-4467-b8de-f60c866cf66a"},"vehicle_type_id":"4","last_reported":1731327434,"current_range_meters":10800,"station_id":"ce4bhph2rcd13ifvqhdg","pricing_plan_id":"cebpf4jnsgd1na2vs0mg"},{"bike_id":"57af29f6-f51d-4f0a-b501-e449eacfa998","system_id":"levelo_inurba_marseille","lat":43.286145,"lon":5.370737,"is_reserved":false,"is_disabled":false,"rental_uris":{"android":"levelo://app?vid=57af29f6-f51d-4f0a-b501-e449eacfa998","ios":"levelo://app?vid=57af29f6-f51d-4f0a-b501-e449eacfa998"},"vehicle_type_id":"4","last_reported":1731327434,"current_range_meters":17200,"station_id":"ce4bht12rcd13ifvqi60","pricing_plan_id":"cebpf4jnsgd1na2vs0mg"},{"bike_id":"7ca74166-6ab5-495b-9696-584d02466e1d","system_id":"levelo_inurba_marseille","lat":43.336,"lon":5.41007,"is_reserved":false,"is_disabled":false,"rental_uris":{"android":"levelo://app?vid=7ca74166-6ab5-495b-9696-584d02466e1d","ios":"levelo://app?vid=7ca74166-6ab5-495b-9696-584d02466e1d"},"vehicle_type_id":"4","last_reported":1731327434,"current_range_meters":13600,"station_id":"ce4bhqh2rcd13ifvqhmg","pricing_plan_id":"cebpf4jnsgd1na2vs0mg"},{"bike_id":"0e1b6e24-8ebe-441d-ac01-cf4aede805b5","system_id":"levelo_inurba_marseille","lat":43.28272,"lon":5.35072,"is_reserved":false,"is_disabled":false,"rental_uris":{"android":"levelo://app?vid=0e1b6e24-8ebe-441d-ac01-cf4aede805b5","ios":"levelo://app?vid=0e1b6e24-8ebe-441d-ac01-cf4aede805b5"},"vehicle_type_id":"4","last_reported":1731327434,"current_range_meters":30400,"station_id":"ce4bhbp2rcd13ifvqerg","pricing_plan_id":"cebpf4jnsgd1na2vs0mg"},{"bike_id":"4ec64de8-7fe0-47cf-b20d-6779a023e615","system_id":"levelo_inurba_marseille","lat":43.26495,"lon":5.3955,"is_reserved":false,"is_disabled":false,"rental_uris":{"android":"levelo://app?vid=4ec64de8-7fe0-47cf-b20d-6779a023e615","ios":"levelo://app?vid=4ec64de8-7fe0-47cf-b20d-6779a023e615"},"vehicle_type_id":"4","last_reported":1731327434,"current_range_meters":38400,"station_id":"ce4bhi12rcd13ifvqfq0","pricing_plan_id":"cebpf4jnsgd1na2vs0mg"},{"bike_id":"a9279aec-fd42-446f-98f8-78f07cda3dc4","system_id":"levelo_inurba_marseille","lat":43.24168,"lon":5.36396,"is_reserved":false,"is_disabled":false,"rental_uris":{"android":"levelo://app?vid=a9279aec-fd42-446f-98f8-78f07cda3dc4","ios":"levelo://app?vid=a9279aec-fd42-446f-98f8-78f07cda3dc4"},"vehicle_type_id":"4","last_reported":1731327434,"current_range_meters":11200,"station_id":"cpo36qri1sfpv3e86is0","pricing_plan_id":"cebpf4jnsgd1na2vs0mg"},{"bike_id":"239e691a-d067-4401-941a-ffa21686cf64","system_id":"levelo_inurba_marseille","lat":43.25083,"lon":5.39523,"is_reserved":false,"is_disabled":false,"rental_uris":{"android":"levelo://app?vid=239e691a-d067-4401-941a-ffa21686cf64","ios":"levelo://app?vid=239e691a-d067-4401-941a-ffa21686cf64"},"vehicle_type_id":"4","last_reported":1731327434,"current_range_meters":25600,"station_id":"ce4bhm12rcd13ifvqgkg","pricing_plan_id":"cebpf4jnsgd1na2vs0mg"},{"bike_id":"b16943e1-6e4b-4767-8789-7da828786277","system_id":"levelo_inurba_marseille","lat":43.34179,"lon":5.38602,"is_reserved":false,"is_disabled":false,"rental_uris":{"android":"levelo://app?vid=b16943e1-6e4b-4767-8789-7da828786277","ios":"levelo://app?vid=b16943e1-6e4b-4767-8789-7da828786277"},"vehicle_type_id":"4","last_reported":1731327434,"current_range_meters":13600,"station_id":"","pricing_plan_id":"cebpf4jnsgd1na2vs0mg"},{"bike_id":"ed6676aa-9b65-4909-829e-204a69bd9fbc","system_id":"levelo_inurba_marseille","lat":43.30285,"lon":5.37712,"is_reserved":false,"is_disabled":false,"rental_uris":{"android":"levelo://app?vid=ed6676aa-9b65-4909-829e-204a69bd9fbc","ios":"levelo://app?vid=ed6676aa-9b65-4909-829e-204a69bd9fbc"},"vehicle_type_id":"4","last_reported":1731327434,"current_range_meters":24400,"station_id":"ce4bguh2rcd13ifvqcj0","pricing_plan_id":"cebpf4jnsgd1na2vs0mg"},{"bike_id":"0acccacb-5c5e-4293-af73-a3ca4b76801a","system_id":"levelo_inurba_marseille","lat":43.27951,"lon":5.41047,"is_reserved":false,"is_disabled":false,"rental_uris":{"android":"levelo://app?vid=0acccacb-5c5e-4293-af73-a3ca4b76801a","ios":"levelo://app?vid=0acccacb-5c5e-4293-af73-a3ca4b76801a"},"vehicle_type_id":"4","last_reported":1731327434,"current_range_meters":8800,"station_id":"ce4bhnp2rcd13ifvqh0g","pricing_plan_id":"cebpf4jnsgd1na2vs0mg"},{"bike_id":"034ba016-6715-4249-a358-5d5a5d22db28","system_id":"levelo_inurba_marseille","lat":43.27954,"lon":5.41036,"is_reserved":false,"is_disabled":false,"rental_uris":{"android":"levelo://app?vid=034ba016-6715-4249-a358-5d5a5d22db28","ios":"levelo://app?vid=034ba016-6715-4249-a358-5d5a5d22db28"},"vehicle_type_id":"4","last_reported":1731327434,"current_range_meters":17200,"station_id":"ce4bhnp2rcd13ifvqh0g","pricing_plan_id":"cebpf4jnsgd1na2vs0mg"},{"bike_id":"dcde0e06-b3db-4814-a1b9-58df6e1ceb9c","system_id":"levelo_inurba_marseille","lat":43.2827,"lon":5.35063,"is_reserved":false,"is_disabled":false,"rental_uris":{"android":"levelo://app?vid=dcde0e06-b3db-4814-a1b9-58df6e1ceb9c","ios":"levelo://app?vid=dcde0e06-b3db-4814-a1b9-58df6e1ceb9c"},"vehicle_type_id":"4","last_reported":1731327434,"current_range_meters":38800,"station_id":"ce4bhbp2rcd13ifvqerg","pricing_plan_id":"cebpf4jnsgd1na2vs0mg"},{"bike_id":"099b4713-533f-4885-990d-46711f582187","system_id":"levelo_inurba_marseille","lat":43.31721,"lon":5.42399,"is_reserved":false,"is_disabled":false,"rental_uris":{"android":"levelo://app?vid=099b4713-533f-4885-990d-46711f582187","ios":"levelo://app?vid=099b4713-533f-4885-990d-46711f582187"},"vehicle_type_id":"4","last_reported":1731327434,"current_range_meters":18800,"station_id":"ce4bhp92rcd13ifvqhbg","pricing_plan_id":"cebpf4jnsgd1na2vs0mg"},{"bike_id":"ac107f88-cb4e-4e0d-bc80-1f9223d6554b","system_id":"levelo_inurba_marseille","lat":43.25581,"lon":5.38236,"is_reserved":false,"is_disabled":false,"rental_uris":{"android":"levelo://app?vid=ac107f88-cb4e-4e0d-bc80-1f9223d6554b","ios":"levelo://app?vid=ac107f88-cb4e-4e0d-bc80-1f9223d6554b"},"vehicle_type_id":"4","last_reported":1731327434,"current_range_meters":38800,"station_id":"ce4bhih2rcd13ifvqfs0","pricing_plan_id":"cebpf4jnsgd1na2vs0mg"},{"bike_id":"6fa90877-f6be-45c8-aee9-caf644627a1c","system_id":"levelo_inurba_marseille","lat":43.33288,"lon":5.39552,"is_reserved":false,"is_disabled":false,"rental_uris":{"android":"levelo://app?vid=6fa90877-f6be-45c8-aee9-caf644627a1c","ios":"levelo://app?vid=6fa90877-f6be-45c8-aee9-caf644627a1c"},"vehicle_type_id":"4","last_reported":1731327434,"current_range_meters":14800,"station_id":"","pricing_plan_id":"cebpf4jnsgd1na2vs0mg"},{"bike_id":"a347c9be-d588-4eb0-b9e9-73e02db827dd","system_id":"levelo_inurba_marseille","lat":43.28961,"lon":5.36473,"is_reserved":false,"is_disabled":false,"rental_uris":{"android":"levelo://app?vid=a347c9be-d588-4eb0-b9e9-73e02db827dd","ios":"levelo://app?vid=a347c9be-d588-4eb0-b9e9-73e02db827dd"},"vehicle_type_id":"4","last_reported":1731327434,"current_range_meters":27200,"station_id":"","pricing_plan_id":"cebpf4jnsgd1na2vs0mg"},{"bike_id":"c64fdf34-ff0b-4e61-bc76-c773e8a402db","system_id":"levelo_inurba_marseille","lat":43.26782,"lon":5.39424,"is_reserved":false,"is_disabled":false,"rental_uris":{"android":"levelo://app?vid=c64fdf34-ff0b-4e61-bc76-c773e8a402db","ios":"levelo://app?vid=c64fdf34-ff0b-4e61-bc76-c773e8a402db"},"vehicle_type_id":"4","last_reported":1731327434,"current_range_meters":38800,"station_id":"ce4bhh12rcd13ifvqfg0","pricing_plan_id":"cebpf4jnsgd1na2vs0mg"},{"bike_id":"e2cc5980-3043-4af4-8741-513bcf3d133d","system_id":"levelo_inurba_marseille","lat":43.30211,"lon":5.39474,"is_reserved":false,"is_disabled":false,"rental_uris":{"android":"levelo://app?vid=e2cc5980-3043-4af4-8741-513bcf3d133d","ios":"levelo://app?vid=e2cc5980-3043-4af4-8741-513bcf3d133d"},"vehicle_type_id":"4","last_reported":1731327434,"current_range_meters":36000,"station_id":"ce4bh0p2rcd13ifvqd70","pricing_plan_id":"cebpf4jnsgd1na2vs0mg"},{"bike_id":"358f07dd-ad4c-4bc2-9ba0-4c8a51e9edcf","system_id":"levelo_inurba_marseille","lat":43.29976,"lon":5.37175,"is_reserved":false,"is_disabled":false,"rental_uris":{"android":"levelo://app?vid=358f07dd-ad4c-4bc2-9ba0-4c8a51e9edcf","ios":"levelo://app?vid=358f07dd-ad4c-4bc2-9ba0-4c8a51e9edcf"},"vehicle_type_id":"4","last_reported":1731327434,"current_range_meters":35600,"station_id":"ce4bgr92rcd13ifvqc7g","pricing_plan_id":"cebpf4jnsgd1na2vs0mg"},{"bike_id":"fab79938-510c-4093-9a69-02c483512556","system_id":"levelo_inurba_marseille","lat":43.29553,"lon":5.42277,"is_reserved":false,"is_disabled":false,"rental_uris":{"android":"levelo://app?vid=fab79938-510c-4093-9a69-02c483512556","ios":"levelo://app?vid=fab79938-510c-4093-9a69-02c483512556"},"vehicle_type_id":"4","last_reported":1731327434,"current_range_meters":37600,"station_id":"ce4bhph2rcd13ifvqhdg","pricing_plan_id":"cebpf4jnsgd1na2vs0mg"},{"bike_id":"919b8114-8455-4c55-ad8f-2d74f8ad5173","system_id":"levelo_inurba_marseille","lat":43.28263,"lon":5.35051,"is_reserved":false,"is_disabled":false,"rental_uris":{"android":"levelo://app?vid=919b8114-8455-4c55-ad8f-2d74f8ad5173","ios":"levelo://app?vid=919b8114-8455-4c55-ad8f-2d74f8ad5173"},"vehicle_type_id":"4","last_reported":1731327434,"current_range_meters":30000,"station_id":"ce4bhbp2rcd13ifvqerg","pricing_plan_id":"cebpf4jnsgd1na2vs0mg"},{"bike_id":"a06cedee-684e-46f0-8e6b-96ef7d667b77","system_id":"levelo_inurba_marseille","lat":43.28266,"lon":5.35063,"is_reserved":false,"is_disabled":false,"rental_uris":{"android":"levelo://app?vid=a06cedee-684e-46f0-8e6b-96ef7d667b77","ios":"levelo://app?vid=a06cedee-684e-46f0-8e6b-96ef7d667b77"},"vehicle_type_id":"4","last_reported":1731327434,"current_range_meters":16400,"station_id":"ce4bhbp2rcd13ifvqerg","pricing_plan_id":"cebpf4jnsgd1na2vs0mg"},{"bike_id":"ce56e011-3499-47a7-9be3-f3863f6a2003","system_id":"levelo_inurba_marseille","lat":43.3054,"lon":5.36693,"is_reserved":false,"is_disabled":false,"rental_uris":{"android":"levelo://app?vid=ce56e011-3499-47a7-9be3-f3863f6a2003","ios":"levelo://app?vid=ce56e011-3499-47a7-9be3-f3863f6a2003"},"vehicle_type_id":"4","last_reported":1731327434,"current_range_meters":25200,"station_id":"ce4bgrp2rcd13ifvqc9g","pricing_plan_id":"cebpf4jnsgd1na2vs0mg"},{"bike_id":"92d14c7b-5fd1-43bb-befb-420c3b49c9ad","system_id":"levelo_inurba_marseille","lat":43.28949,"lon":5.36642,"is_reserved":false,"is_disabled":false,"rental_uris":{"android":"levelo://app?vid=92d14c7b-5fd1-43bb-befb-420c3b49c9ad","ios":"levelo://app?vid=92d14c7b-5fd1-43bb-befb-420c3b49c9ad"},"vehicle_type_id":"4","last_reported":1731327434,"current_range_meters":12800,"station_id":"ce4bhap2rcd13ifvqek0","pricing_plan_id":"cebpf4jnsgd1na2vs0mg"},{"bike_id":"defc3f91-0e20-4f36-862e-dd9891d2e2de","system_id":"levelo_inurba_marseille","lat":43.26804,"lon":5.40267,"is_reserved":false,"is_disabled":false,"rental_uris":{"android":"levelo://app?vid=defc3f91-0e20-4f36-862e-dd9891d2e2de","ios":"levelo://app?vid=defc3f91-0e20-4f36-862e-dd9891d2e2de"},"vehicle_type_id":"4","last_reported":1731327434,"current_range_meters":38800,"station_id":"ce501612rcd8frsf0b60","pricing_plan_id":"cebpf4jnsgd1na2vs0mg"},{"bike_id":"979aed6a-bbaa-44e6-a1d2-768448cb6c9f","system_id":"levelo_inurba_marseille","lat":43.29407,"lon":5.37401,"is_reserved":false,"is_disabled":false,"rental_uris":{"android":"levelo://app?vid=979aed6a-bbaa-44e6-a1d2-768448cb6c9f","ios":"levelo://app?vid=979aed6a-bbaa-44e6-a1d2-768448cb6c9f"},"vehicle_type_id":"4","last_reported":1731327434,"current_range_meters":27200,"station_id":"ce4bgt12rcd13ifvqcd0","pricing_plan_id":"cebpf4jnsgd1na2vs0mg"},{"bike_id":"be47f5ab-e8fd-44ff-b203-4ff2b034d7a8","system_id":"levelo_inurba_marseille","lat":43.28154,"lon":5.42646,"is_reserved":false,"is_disabled":false,"rental_uris":{"android":"levelo://app?vid=be47f5ab-e8fd-44ff-b203-4ff2b034d7a8","ios":"levelo://app?vid=be47f5ab-e8fd-44ff-b203-4ff2b034d7a8"},"vehicle_type_id":"4","last_reported":1731327434,"current_range_meters":19600,"station_id":"ce4bhnh2rcd13ifvqgug","pricing_plan_id":"cebpf4jnsgd1na2vs0mg"},{"bike_id":"95a29b49-7218-4ae2-8a20-f16d50246826","system_id":"levelo_inurba_marseille","lat":43.31711,"lon":5.43709,"is_reserved":false,"is_disabled":false,"rental_uris":{"android":"levelo://app?vid=95a29b49-7218-4ae2-8a20-f16d50246826","ios":"levelo://app?vid=95a29b49-7218-4ae2-8a20-f16d50246826"},"vehicle_type_id":"4","last_reported":1731327434,"current_range_meters":38800,"station_id":"ce4bhp92rcd13ifvqhcg","pricing_plan_id":"cebpf4jnsgd1na2vs0mg"},{"bike_id":"be8d4783-5c7f-42e8-a5c2-d03bee020a7d","system_id":"levelo_inurba_marseille","lat":43.24385,"lon":5.37055,"is_reserved":false,"is_disabled":false,"rental_uris":{"android":"levelo://app?vid=be8d4783-5c7f-42e8-a5c2-d03bee020a7d","ios":"levelo://app?vid=be8d4783-5c7f-42e8-a5c2-d03bee020a7d"},"vehicle_type_id":"4","last_reported":1731327434,"current_range_meters":38800,"station_id":"ce4bhhh2rcd13ifvqfk0","pricing_plan_id":"cebpf4jnsgd1na2vs0mg"},{"bike_id":"d4a84b74-1db0-4b3d-a1a1-5e5049f76316","system_id":"levelo_inurba_marseille","lat":43.28268,"lon":5.35071,"is_reserved":false,"is_disabled":false,"rental_uris":{"android":"levelo://app?vid=d4a84b74-1db0-4b3d-a1a1-5e5049f76316","ios":"levelo://app?vid=d4a84b74-1db0-4b3d-a1a1-5e5049f76316"},"vehicle_type_id":"4","last_reported":1731327434,"current_range_meters":35600,"station_id":"ce4bhbp2rcd13ifvqerg","pricing_plan_id":"cebpf4jnsgd1na2vs0mg"},{"bike_id":"b2692077-0bc7-46b6-b249-44f47c8031c6","system_id":"levelo_inurba_marseille","lat":43.28268,"lon":5.3507,"is_reserved":false,"is_disabled":false,"rental_uris":{"android":"levelo://app?vid=b2692077-0bc7-46b6-b249-44f47c8031c6","ios":"levelo://app?vid=b2692077-0bc7-46b6-b249-44f47c8031c6"},"vehicle_type_id":"4","last_reported":1731327434,"current_range_meters":33200,"station_id":"ce4bhbp2rcd13ifvqerg","pricing_plan_id":"cebpf4jnsgd1na2vs0mg"},{"bike_id":"fe8e0107-4c97-493e-b4c7-9a0ec11dd98e","system_id":"levelo_inurba_marseille","lat":43.28621,"lon":5.3511,"is_reserved":false,"is_disabled":false,"rental_uris":{"android":"levelo://app?vid=fe8e0107-4c97-493e-b4c7-9a0ec11dd98e","ios":"levelo://app?vid=fe8e0107-4c97-493e-b4c7-9a0ec11dd98e"},"vehicle_type_id":"4","last_reported":1731327434,"current_range_meters":12000,"station_id":"ce4bhch2rcd13ifvqeug","pricing_plan_id":"cebpf4jnsgd1na2vs0mg"},{"bike_id":"537256ee-18b9-4e44-8f63-02c6657718e5","system_id":"levelo_inurba_marseille","lat":43.34143,"lon":5.40897,"is_reserved":false,"is_disabled":false,"rental_uris":{"android":"levelo://app?vid=537256ee-18b9-4e44-8f63-02c6657718e5","ios":"levelo://app?vid=537256ee-18b9-4e44-8f63-02c6657718e5"},"vehicle_type_id":"4","last_reported":1731327434,"current_range_meters":38800,"station_id":"ce4bhqh2rcd13ifvqhlg","pricing_plan_id":"cebpf4jnsgd1na2vs0mg"},{"bike_id":"8099b985-7d19-47bc-b0ce-b70896d93bd3","system_id":"levelo_inurba_marseille","lat":43.337444,"lon":5.374475,"is_reserved":false,"is_disabled":false,"rental_uris":{"android":"levelo://app?vid=8099b985-7d19-47bc-b0ce-b70896d93bd3","ios":"levelo://app?vid=8099b985-7d19-47bc-b0ce-b70896d93bd3"},"vehicle_type_id":"4","last_reported":1731327434,"current_range_meters":38400,"station_id":"","pricing_plan_id":"cebpf4jnsgd1na2vs0mg"},{"bike_id":"67b999bd-776f-4820-9bc7-0360299c23dc","system_id":"levelo_inurba_marseille","lat":43.27977,"lon":5.38742,"is_reserved":false,"is_disabled":false,"rental_uris":{"android":"levelo://app?vid=67b999bd-776f-4820-9bc7-0360299c23dc","ios":"levelo://app?vid=67b999bd-776f-4820-9bc7-0360299c23dc"},"vehicle_type_id":"4","last_reported":1731327434,"current_range_meters":22000,"station_id":"ce4bhg12rcd13ifvqf80","pricing_plan_id":"cebpf4jnsgd1na2vs0mg"},{"bike_id":"f54e6294-deca-4f60-bdb0-ef53b82be61c","system_id":"levelo_inurba_marseille","lat":43.29023,"lon":5.37556,"is_reserved":false,"is_disabled":false,"rental_uris":{"android":"levelo://app?vid=f54e6294-deca-4f60-bdb0-ef53b82be61c","ios":"levelo://app?vid=f54e6294-deca-4f60-bdb0-ef53b82be61c"},"vehicle_type_id":"4","last_reported":1731327434,"current_range_meters":32800,"station_id":"ce4bh692rcd13ifvqe90","pricing_plan_id":"cebpf4jnsgd1na2vs0mg"},{"bike_id":"91d27678-9fb5-4cf2-a1c3-8861feddf228","system_id":"levelo_inurba_marseille","lat":43.2319,"lon":5.35552,"is_reserved":false,"is_disabled":false,"rental_uris":{"android":"levelo://app?vid=91d27678-9fb5-4cf2-a1c3-8861feddf228","ios":"levelo://app?vid=91d27678-9fb5-4cf2-a1c3-8861feddf228"},"vehicle_type_id":"4","last_reported":1731327434,"current_range_meters":37600,"station_id":"ce4bhu92rcd13ifvqi70","pricing_plan_id":"cebpf4jnsgd1na2vs0mg"},{"bike_id":"05fc3fb8-ae33-44c7-b675-4384f2c4db2d","system_id":"levelo_inurba_marseille","lat":43.29202,"lon":5.39324,"is_reserved":false,"is_disabled":false,"rental_uris":{"android":"levelo://app?vid=05fc3fb8-ae33-44c7-b675-4384f2c4db2d","ios":"levelo://app?vid=05fc3fb8-ae33-44c7-b675-4384f2c4db2d"},"vehicle_type_id":"4","last_reported":1731327434,"current_range_meters":33200,"station_id":"ce4bh192rcd13ifvqdd0","pricing_plan_id":"cebpf4jnsgd1na2vs0mg"},{"bike_id":"99a6c2e4-b8ee-4300-9b79-70a7c6a17340","system_id":"levelo_inurba_marseille","lat":43.34141,"lon":5.40905,"is_reserved":false,"is_disabled":false,"rental_uris":{"android":"levelo://app?vid=99a6c2e4-b8ee-4300-9b79-70a7c6a17340","ios":"levelo://app?vid=99a6c2e4-b8ee-4300-9b79-70a7c6a17340"},"vehicle_type_id":"4","last_reported":1731327434,"current_range_meters":39200,"station_id":"ce4bhqh2rcd13ifvqhlg","pricing_plan_id":"cebpf4jnsgd1na2vs0mg"},{"bike_id":"2248b0df-9abc-4114-8c0c-dff063128507","system_id":"levelo_inurba_marseille","lat":43.28425,"lon":5.34984,"is_reserved":false,"is_disabled":false,"rental_uris":{"android":"levelo://app?vid=2248b0df-9abc-4114-8c0c-dff063128507","ios":"levelo://app?vid=2248b0df-9abc-4114-8c0c-dff063128507"},"vehicle_type_id":"4","last_reported":1731327434,"current_range_meters":6800,"station_id":"ce4bhbh2rcd13ifvqepg","pricing_plan_id":"cebpf4jnsgd1na2vs0mg"},{"bike_id":"a7eb5692-1f2b-48c6-af16-f2fe0b372124","system_id":"levelo_inurba_marseille","lat":43.3372,"lon":5.39179,"is_reserved":false,"is_disabled":false,"rental_uris":{"android":"levelo://app?vid=a7eb5692-1f2b-48c6-af16-f2fe0b372124","ios":"levelo://app?vid=a7eb5692-1f2b-48c6-af16-f2fe0b372124"},"vehicle_type_id":"4","last_reported":1731327434,"current_range_meters":39200,"station_id":"ce4bhr92rcd13ifvqhsg","pricing_plan_id":"cebpf4jnsgd1na2vs0mg"},{"bike_id":"d9c63469-b5a1-445f-9a76-57fb3239e033","system_id":"levelo_inurba_marseille","lat":43.29967,"lon":5.38491,"is_reserved":false,"is_disabled":false,"rental_uris":{"android":"levelo://app?vid=d9c63469-b5a1-445f-9a76-57fb3239e033","ios":"levelo://app?vid=d9c63469-b5a1-445f-9a76-57fb3239e033"},"vehicle_type_id":"4","last_reported":1731327434,"current_range_meters":39200,"station_id":"ce4bgj92rcd13ifvqbd0","pricing_plan_id":"cebpf4jnsgd1na2vs0mg"},{"bike_id":"4dc0e3bd-ab9c-461a-835f-d4784d7b8326","system_id":"levelo_inurba_marseille","lat":43.31323,"lon":5.423558,"is_reserved":false,"is_disabled":false,"rental_uris":{"android":"levelo://app?vid=4dc0e3bd-ab9c-461a-835f-d4784d7b8326","ios":"levelo://app?vid=4dc0e3bd-ab9c-461a-835f-d4784d7b8326"},"vehicle_type_id":"4","last_reported":1731327434,"current_range_meters":8800,"station_id":"ce4bhp92rcd13ifvqhcg","pricing_plan_id":"cebpf4jnsgd1na2vs0mg"},{"bike_id":"c798056d-d27f-42c7-a7ab-1e0055ba8343","system_id":"levelo_inurba_marseille","lat":43.30546,"lon":5.36524,"is_reserved":false,"is_disabled":false,"rental_uris":{"android":"levelo://app?vid=c798056d-d27f-42c7-a7ab-1e0055ba8343","ios":"levelo://app?vid=c798056d-d27f-42c7-a7ab-1e0055ba8343"},"vehicle_type_id":"4","last_reported":1731327434,"current_range_meters":38400,"station_id":"ce4bgs12rcd13ifvqcag","pricing_plan_id":"cebpf4jnsgd1na2vs0mg"},{"bike_id":"8e3d5b00-e559-4ba4-8506-b31b8a4e5008","system_id":"levelo_inurba_marseille","lat":43.28427,"lon":5.34985,"is_reserved":false,"is_disabled":false,"rental_uris":{"android":"levelo://app?vid=8e3d5b00-e559-4ba4-8506-b31b8a4e5008","ios":"levelo://app?vid=8e3d5b00-e559-4ba4-8506-b31b8a4e5008"},"vehicle_type_id":"4","last_reported":1731327434,"current_range_meters":39200,"station_id":"ce4bhbh2rcd13ifvqepg","pricing_plan_id":"cebpf4jnsgd1na2vs0mg"},{"bike_id":"52cbd37b-1529-4980-ae8a-b78e49fdebce","system_id":"levelo_inurba_marseille","lat":43.23962,"lon":5.36628,"is_reserved":false,"is_disabled":false,"rental_uris":{"android":"levelo://app?vid=52cbd37b-1529-4980-ae8a-b78e49fdebce","ios":"levelo://app?vid=52cbd37b-1529-4980-ae8a-b78e49fdebce"},"vehicle_type_id":"4","last_reported":1731327434,"current_range_meters":8000,"station_id":"ce4bhi12rcd13ifvqfp0","pricing_plan_id":"cebpf4jnsgd1na2vs0mg"},{"bike_id":"0ad65408-ee71-47de-ab71-fa0478a09827","system_id":"levelo_inurba_marseille","lat":43.30303,"lon":5.40077,"is_reserved":false,"is_disabled":false,"rental_uris":{"android":"levelo://app?vid=0ad65408-ee71-47de-ab71-fa0478a09827","ios":"levelo://app?vid=0ad65408-ee71-47de-ab71-fa0478a09827"},"vehicle_type_id":"4","last_reported":1731327434,"current_range_meters":27600,"station_id":"ce4bgvh2rcd13ifvqcs0","pricing_plan_id":"cebpf4jnsgd1na2vs0mg"},{"bike_id":"a52f3a4d-3e1c-41e3-a469-3a347f1206d4","system_id":"levelo_inurba_marseille","lat":43.28277,"lon":5.35066,"is_reserved":false,"is_disabled":false,"rental_uris":{"android":"levelo://app?vid=a52f3a4d-3e1c-41e3-a469-3a347f1206d4","ios":"levelo://app?vid=a52f3a4d-3e1c-41e3-a469-3a347f1206d4"},"vehicle_type_id":"4","last_reported":1731327434,"current_range_meters":38800,"station_id":"ce4bhbp2rcd13ifvqerg","pricing_plan_id":"cebpf4jnsgd1na2vs0mg"},{"bike_id":"d9d52fbe-cc42-4018-9315-d332eb49574d","system_id":"levelo_inurba_marseille","lat":43.27666,"lon":5.384,"is_reserved":false,"is_disabled":false,"rental_uris":{"android":"levelo://app?vid=d9d52fbe-cc42-4018-9315-d332eb49574d","ios":"levelo://app?vid=d9d52fbe-cc42-4018-9315-d332eb49574d"},"vehicle_type_id":"4","last_reported":1731327434,"current_range_meters":20800,"station_id":"ce4bhi12rcd13ifvqfo0","pricing_plan_id":"cebpf4jnsgd1na2vs0mg"},{"bike_id":"a1d465bc-6452-4465-9068-95636f960d2b","system_id":"levelo_inurba_marseille","lat":43.23152,"lon":5.43726,"is_reserved":false,"is_disabled":false,"rental_uris":{"android":"levelo://app?vid=a1d465bc-6452-4465-9068-95636f960d2b","ios":"levelo://app?vid=a1d465bc-6452-4465-9068-95636f960d2b"},"vehicle_type_id":"4","last_reported":1731327434,"current_range_meters":36800,"station_id":"ce4bhmp2rcd13ifvqgog","pricing_plan_id":"cebpf4jnsgd1na2vs0mg"},