{"last_updated":1700939085,"ttl":30,"version":"2.2","data":{"bikes":[{"bike_id":"2c4e2ab4-2bc9-4e71-8e28-b7f9c78b7444","system_id":"levelo_inurba_marseille","lat":43.305714,"lon":5.365633,"is_reserved":false,"is_disabled":false,"rental_uris":{"android":"levelo://app?vid=2c4e2ab4-2bc9-4e71-8e28-b7f9c78b7444","ios":"levelo://app?vid=2c4e2ab4-2bc9-4e71-8e28-b7f9c78b7444"},"vehicle_type_id":"4","last_reported":1700939085,"current_range_meters":2800,"station_id":"ce4bgs12rcd13ifvqcag","pricing_plan_id":"free"},{"bike_id":"5ca87c10-74bd-4775-a038-482dcf08c6cc","system_id":"levelo_inurba_marseille","lat":43.305706,"lon":5.365654,"is_reserved":false,"is_disabled":false,"rental_uris":{"android":"levelo://app?vid=5ca87c10-74bd-4775-a038-482dcf08c6cc","ios":"levelo://app?vid=5ca87c10-74bd-4775-a038-482dcf08c6cc"},"vehicle_type_id":"4","last_reported":1700939085,"current_range_meters":27200,"station_id":"ce4bgs12rcd13ifvqcag","pricing_plan_id":"free"},{"bike_id":"fbee8a33-e79f-4c00-8dd0-ad00834a63e3","system_id":"levelo_inurba_marseille","lat":43.305989,"lon":5.37225,"is_reserved":false,"is_disabled":false,"rental_uris":{"android":"levelo://app?vid=fbee8a33-e79f-4c00-8dd0-ad00834a63e3","ios":"levelo://app?vid=fbee8a33-e79f-4c00-8dd0-ad00834a63e3"},"vehicle_type_id":"4","last_reported":1700939085,"current_range_meters":29200,"station_id":"ce4bgqh2rcd13ifvqc4g","pricing_plan_id":"free"},{"bike_id":"573a870a-b6c4-429d-8587-8103772b84bc","system_id":"levelo_inurba_marseille","lat":43.30816,"lon":5.376623,"is_reserved":false,"is_disabled":false,"rental_uris":{"android":"levelo://app?vid=573a870a-b6c4-429d-8587-8103772b84bc","ios":"levelo://app?vid=573a870a-b6c4-429d-8587-8103772b84bc"},"vehicle_type_id":"4","last_reported":1700939085,"current_range_meters":4400,"station_id":"ce4bgv92rcd13ifvqcq0","pricing_plan_id":"free"},{"bike_id":"f427a2c3-6e4a-446b-ae2f-9be8aa7f4122","system_id":"levelo_inurba_marseille","lat":43.31719,"lon":5.376813,"is_reserved":false,"is_disabled":false,"rental_uris":{"android":"levelo://app?vid=f427a2c3-6e4a-446b-ae2f-9be8aa7f4122","ios":"levelo://app?vid=f427a2c3-6e4a-446b-ae2f-9be8aa7f4122"},"vehicle_type_id":"4","last_reported":1700939085,"current_range_meters":24000,"station_id":"ce4bgth2rcd13ifvqch0","pricing_plan_id":"free"},{"bike_id":"b898b018-f57d-4901-bab2-fdd15d391de9","system_id":"levelo_inurba_marseille","lat":43.317168,"lon":5.376883,"is_reserved":false,"is_disabled":false,"rental_uris":{"android":"levelo://app?vid=b898b018-f57d-4901-bab2-fdd15d391de9","ios":"levelo://app?vid=b898b018-f57d-4901-bab2-fdd15d391de9"},"vehicle_type_id":"4","last_reported":1700939085,"current_range_meters":26400,"station_id":"ce4bgth2rcd13ifvqch0","pricing_plan_id":"free"},{"bike_id":"f318135a-e9e6-4cff-b425-4abeff83d291","system_id":"levelo_inurba_marseille","lat":43.307945,"lon":5.376487,"is_reserved":false,"is_disabled":false,"rental_uris":{"android":"levelo://app?vid=f318135a-e9e6-4cff-b425-4abeff83d291","ios":"levelo://app?vid=f318135a-e9e6-4cff-b425-4abeff83d291"},"vehicle_type_id":"4","last_reported":1700939085,"current_range_meters":29600,"station_id":"ce4bgv92rcd13ifvqcq0","pricing_plan_id":"free"},{"bike_id":"a3de5efb-215a-4923-ba68-cada8526636c","system_id":"levelo_inurba_marseille","lat":43.307945,"lon":5.376487,"is_reserved":false,"is_disabled":false,"rental_uris":{"android":"levelo://app?vid=a3de5efb-215a-4923-ba68-cada8526636c","ios":"levelo://app?vid=a3de5efb-215a-4923-ba68-cada8526636c"},"vehicle_type_id":"4","last_reported":1700939085,"current_range_meters":26800,"station_id":"ce4bgv92rcd13ifvqcq0","pricing_plan_id":"free"},{"bike_id":"1fc9d8ba-d8b6-4e07-9372-865b7ff31a18","system_id":"levelo_inurba_marseille","lat":43.303046,"lon":5.368981,"is_reserved":false,"is_disabled":false,"rental_uris":{"android":"levelo://app?vid=1fc9d8ba-d8b6-4e07-9372-865b7ff31a18","ios":"levelo://app?vid=1fc9d8ba-d8b6-4e07-9372-865b7ff31a18"},"vehicle_type_id":"4","last_reported":1700939085,"current_range_meters":28400,"station_id":"ce4bgqh2rcd13ifvqc5g","pricing_plan_id":"free"},{"bike_id":"b67535f3-d82e-4e90-93c9-fe77a1526ce9","system_id":"levelo_inurba_marseille","lat":43.308012,"lon":5.381511,"is_reserved":false,"is_disabled":false,"rental_uris":{"android":"levelo://app?vid=b67535f3-d82e-4e90-93c9-fe77a1526ce9","ios":"levelo://app?vid=b67535f3-d82e-4e90-93c9-fe77a1526ce9"},"vehicle_type_id":"4","last_reported":1700939085,"current_range_meters":8000,"station_id":"ce4bgt12rcd13ifvqce0","pricing_plan_id":"free"},{"bike_id":"c187216d-1b21-4e9b-81b0-5c6ff8ab9bed","system_id":"levelo_inurba_marseille","lat":43.302784,"lon":5.377158,"is_reserved":false,"is_disabled":false,"rental_uris":{"android":"levelo://app?vid=c187216d-1b21-4e9b-81b0-5c6ff8ab9bed","ios":"levelo://app?vid=c187216d-1b21-4e9b-81b0-5c6ff8ab9bed"},"vehicle_type_id":"4","last_reported":1700939085,"current_range_meters":25600,"station_id":"ce4bguh2rcd13ifvqcj0","pricing_plan_id":"free"},{"bike_id":"581e0236-d4a6-4805-92f0-1200c5b125a3","system_id":"levelo_inurba_marseille","lat":43.30143,"lon":5.37413,"is_reserved":false,"is_disabled":false,"rental_uris":{"android":"levelo://app?vid=581e0236-d4a6-4805-92f0-1200c5b125a3","ios":"levelo://app?vid=581e0236-d4a6-4805-92f0-1200c5b125a3"},"vehicle_type_id":"4","last_reported":1700939085,"current_range_meters":21200,"station_id":"ce4bgs92rcd13ifvqcc0","pricing_plan_id":"free"},{"bike_id":"61c3170f-f6d3-4966-b9c3-9805bcc1f5d4","system_id":"levelo_inurba_marseille","lat":43.30143,"lon":5.37413,"is_reserved":false,"is_disabled":false,"rental_uris":{"android":"levelo://app?vid=61c3170f-f6d3-4966-b9c3-9805bcc1f5d4","ios":"levelo://app?vid=61c3170f-f6d3-4966-b9c3-9805bcc1f5d4"},"vehicle_type_id":"4","last_reported":1700939085,"current_range_meters":17600,"station_id":"ce4bgs92rcd13ifvqcc0","pricing_plan_id":"free"},{"bike_id":"f9fe1cb9-50c9-4a09-ae6d-841afbd811ed","system_id":"levelo_inurba_marseille","lat":43.302784,"lon":5.377158,"is_reserved":false,"is_disabled":false,"rental_uris":{"android":"levelo://app?vid=f9fe1cb9-50c9-4a09-ae6d-841afbd811ed","ios":"levelo://app?vid=f9fe1cb9-50c9-4a09-ae6d-841afbd811ed"},"vehicle_type_id":"4","last_reported":1700939085,"current_range_meters":30000,"station_id":"ce4bguh2rcd13ifvqcj0","pricing_plan_id":"free"},{"bike_id":"2c0cfbc9-8aed-4ab2-9052-67d693991efd","system_id":"levelo_inurba_marseille","lat":43.31992,"lon":5.38162,"is_reserved":false,"is_disabled":false,"rental_uris":{"android":"levelo://app?vid=2c0cfbc9-8aed-4ab2-9052-67d693991efd","ios":"levelo://app?vid=2c0cfbc9-8aed-4ab2-9052-67d693991efd"},"vehicle_type_id":"4","last_reported":1700939085,"current_range_meters":6000,"station_id":"ce4bhr12rcd13ifvqhpg","pricing_plan_id":"free"},{"bike_id":"85a1b2e7-1092-41dc-8fea-b07cb6175595","system_id":"levelo_inurba_marseille","lat":43.31997,"lon":5.38158,"is_reserved":false,"is_disabled":false,"rental_uris":{"android":"levelo://app?vid=85a1b2e7-1092-41dc-8fea-b07cb6175595","ios":"levelo://app?vid=85a1b2e7-1092-41dc-8fea-b07cb6175595"},"vehicle_type_id":"4","last_reported":1700939085,"current_range_meters":20800,"station_id":"ce4bhr12rcd13ifvqhpg","pricing_plan_id":"free"},{"bike_id":"6a26d0ec-e476-4178-b7a4-38d9d3eba74c","system_id":"levelo_inurba_marseille","lat":43.319935,"lon":5.381699,"is_reserved":false,"is_disabled":false,"rental_uris":{"android":"levelo://app?vid=6a26d0ec-e476-4178-b7a4-38d9d3eba74c","ios":"levelo://app?vid=6a26d0ec-e476-4178-b7a4-38d9d3eba74c"},"vehicle_type_id":"4","last_reported":1700939085,"current_range_meters":18400,"station_id":"ce4bhr12rcd13ifvqhpg","pricing_plan_id":"free"},{"bike_id":"2b9d10a5-da7a-435e-9d60-88185af14094","system_id":"levelo_inurba_marseille","lat":43.299724,"lon":5.371829,"is_reserved":false,"is_disabled":false,"rental_uris":{"android":"levelo://app?vid=2b9d10a5-da7a-435e-9d60-88185af14094","ios":"levelo://app?vid=2b9d10a5-da7a-435e-9d60-88185af14094"},"vehicle_type_id":"4","last_reported":1700939085,"current_range_meters":17200,"station_id":"ce4bgr92rcd13ifvqc7g","pricing_plan_id":"free"},{"bike_id":"d9a91ca9-18e4-43ff-8962-c503c22f899d","system_id":"levelo_inurba_marseille","lat":43.297794,"lon":5.370888,"is_reserved":false,"is_disabled":false,"rental_uris":{"android":"levelo://app?vid=d9a91ca9-18e4-43ff-8962-c503c22f899d","ios":"levelo://app?vid=d9a91ca9-18e4-43ff-8962-c503c22f899d"},"vehicle_type_id":"4","last_reported":1700939085,"current_range_meters":4800,"station_id":"ce4bgop2rcd13ifvqc1g","pricing_plan_id":"free"},{"bike_id":"f9fce30d-0cf4-4e60-9d5e-3e6280524e9e","system_id":"levelo_inurba_marseille","lat":43.322872,"lon":5.382756,"is_reserved":false,"is_disabled":false,"rental_uris":{"android":"levelo://app?vid=f9fce30d-0cf4-4e60-9d5e-3e6280524e9e","ios":"levelo://app?vid=f9fce30d-0cf4-4e60-9d5e-3e6280524e9e"},"vehicle_type_id":"4","last_reported":1700939085,"current_range_meters":28400,"station_id":"ce4bhr12rcd13ifvqhqg","pricing_plan_id":"free"},{"bike_id":"5a1baf68-f9af-496c-ab26-e428d44bc382","system_id":"levelo_inurba_marseille","lat":43.322872,"lon":5.382756,"is_reserved":false,"is_disabled":false,"rental_uris":{"android":"levelo://app?vid=5a1baf68-f9af-496c-ab26-e428d44bc382","ios":"levelo://app?vid=5a1baf68-f9af-496c-ab26-e428d44bc382"},"vehicle_type_id":"4","last_reported":1700939085,"current_range_meters":30000,"station_id":"ce4bhr12rcd13ifvqhqg","pricing_plan_id":"free"},{"bike_id":"0b85aafd-2d06-4b3d-bf23-17256839d1de","system_id":"levelo_inurba_marseille","lat":43.322872,"lon":5.382756,"is_reserved":false,"is_disabled":false,"rental_uris":{"android":"levelo://app?vid=0b85aafd-2d06-4b3d-bf23-17256839d1de","ios":"levelo://app?vid=0b85aafd-2d06-4b3d-bf23-17256839d1de"},"vehicle_type_id":"4","last_reported":1700939085,"current_range_meters":10000,"station_id":"ce4bhr12rcd13ifvqhqg","pricing_plan_id":"free"},{"bike_id":"d4ce39f9-7fa1-46e3-a433-f250b4fdb796","system_id":"levelo_inurba_marseille","lat":43.322872,"lon":5.382756,"is_reserved":false,"is_disabled":false,"rental_uris":{"android":"levelo://app?vid=d4ce39f9-7fa1-46e3-a433-f250b4fdb796","ios":"levelo://app?vid=d4ce39f9-7fa1-46e3-a433-f250b4fdb796"},"vehicle_type_id":"4","last_reported":1700939085,"current_range_meters":26400,"station_id":"ce4bhr12rcd13ifvqhqg","pricing_plan_id":"free"},{"bike_id":"95825c38-6c59-4753-b43e-2f944bdb26b9","system_id":"levelo_inurba_marseille","lat":43.32827,"lon":5.36685,"is_reserved":false,"is_disabled":false,"rental_uris":{"android":"levelo://app?vid=95825c38-6c59-4753-b43e-2f944bdb26b9","ios":"levelo://app?vid=95825c38-6c59-4753-b43e-2f944bdb26b9"},"vehicle_type_id":"4","last_reported":1700939085,"current_range_meters":14800,"station_id":"ce4bhs92rcd13ifvqi0g","pricing_plan_id":"free"},{"bike_id":"07a03e0e-e12b-474e-a940-8baf07c98432","system_id":"levelo_inurba_marseille","lat":43.32829,"lon":5.3668,"is_reserved":false,"is_disabled":false,"rental_uris":{"android":"levelo://app?vid=07a03e0e-e12b-474e-a940-8baf07c98432","ios":"levelo://app?vid=07a03e0e-e12b-474e-a940-8baf07c98432"},"vehicle_type_id":"4","last_reported":1700939085,"current_range_meters":14400,"station_id":"ce4bhs92rcd13ifvqi0g","pricing_plan_id":"free"},{"bike_id":"a7156c28-1946-468b-9e64-3365962b5f30","system_id":"levelo_inurba_marseille","lat":43.328371,"lon":5.366909,"is_reserved":false,"is_disabled":false,"rental_uris":{"android":"levelo://app?vid=a7156c28-1946-468b-9e64-3365962b5f30","ios":"levelo://app?vid=a7156c28-1946-468b-9e64-3365962b5f30"},"vehicle_type_id":"4","last_reported":1700939085,"current_range_meters":12000,"station_id":"ce4bhs92rcd13ifvqi0g","pricing_plan_id":"free"},{"bike_id":"8791a58e-e3a0-43a8-b083-b15b0d3679b4","system_id":"levelo_inurba_marseille","lat":43.328371,"lon":5.366909,"is_reserved":false,"is_disabled":false,"rental_uris":{"android":"levelo://app?vid=8791a58e-e3a0-43a8-b083-b15b0d3679b4","ios":"levelo://app?vid=8791a58e-e3a0-43a8-b083-b15b0d3679b4"},"vehicle_type_id":"4","last_reported":1700939085,"current_range_meters":7200,"station_id":"ce4bhs92rcd13ifvqi0g","pricing_plan_id":"free"},{"bike_id":"5af4af5f-639f-40ad-8c9e-8ac21aac7bb9","system_id":"levelo_inurba_marseille","lat":43.297163,"lon":5.365866,"is_reserved":false,"is_disabled":false,"rental_uris":{"android":"levelo://app?vid=5af4af5f-639f-40ad-8c9e-8ac21aac7bb9","ios":"levelo://app?vid=5af4af5f-639f-40ad-8c9e-8ac21aac7bb9"},"vehicle_type_id":"4","last_reported":1700939085,"current_range_meters":800,"station_id":"ce4bgn12rcd13ifvqbt0","pricing_plan_id":"free"},{"bike_id":"8e0b024a-cf26-4b65-ac01-3f5bea6a73f0","system_id":"levelo_inurba_marseille","lat":43.31759,"lon":5.39023,"is_reserved":false,"is_disabled":false,"rental_uris":{"android":"levelo://app?vid=8e0b024a-cf26-4b65-ac01-3f5bea6a73f0","ios":"levelo://app?vid=8e0b024a-cf26-4b65-ac01-3f5bea6a73f0"},"vehicle_type_id":"4","last_reported":1700939085,"current_range_meters":0,"station_id":"ce4bhqp2rcd13ifvqhng","pricing_plan_id":"free"},{"bike_id":"5cf18634-ca96-4683-9702-4446d1ccffc6","system_id":"levelo_inurba_marseille","lat":43.304274,"lon":5.388873,"is_reserved":false,"is_disabled":false,"rental_uris":{"android":"levelo://app?vid=5cf18634-ca96-4683-9702-4446d1ccffc6","ios":"levelo://app?vid=5cf18634-ca96-4683-9702-4446d1ccffc6"},"vehicle_type_id":"4","last_reported":1700939085,"current_range_meters":10800,"station_id":"ce4bgk12rcd13ifvqbi0","pricing_plan_id":"free"},{"bike_id":"e30eafde-84ed-41f6-9523-5867acf865d0","system_id":"levelo_inurba_marseille","lat":43.295748,"lon":5.37522,"is_reserved":false,"is_disabled":false,"rental_uris":{"android":"levelo://app?vid=e30eafde-84ed-41f6-9523-5867acf865d0","ios":"levelo://app?vid=e30eafde-84ed-41f6-9523-5867acf865d0"},"vehicle_type_id":"4","last_reported":1700939085,"current_range_meters":22800,"station_id":"ce4bgh92rcd13ifvqb50","pricing_plan_id":"free"},{"bike_id":"f746807b-d451-4a5e-8ba2-5a8bd387b3ec","system_id":"levelo_inurba_marseille","lat":43.304274,"lon":5.388873,"is_reserved":false,"is_disabled":false,"rental_uris":{"android":"levelo://app?vid=f746807b-d451-4a5e-8ba2-5a8bd387b3ec","ios":"levelo://app?vid=f746807b-d451-4a5e-8ba2-5a8bd387b3ec"},"vehicle_type_id":"4","last_reported":1700939085,"current_range_meters":0,"station_id":"ce4bgk12rcd13ifvqbi0","pricing_plan_id":"free"},{"bike_id":"62eaf8f3-31b4-40f8-a57e-950de2a0cd01","system_id":"levelo_inurba_marseille","lat":43.304274,"lon":5.388873,"is_reserved":false,"is_disabled":false,"rental_uris":{"android":"levelo://app?vid=62eaf8f3-31b4-40f8-a57e-950de2a0cd01","ios":"levelo://app?vid=62eaf8f3-31b4-40f8-a57e-950de2a0cd01"},"vehicle_type_id":"4","last_reported":1700939085,"current_range_meters":29600,"station_id":"ce4bgk12rcd13ifvqbi0","pricing_plan_id":"free"},{"bike_id":"1a33da03-61de-4ddc-b2fa-87711b4afcd2","system_id":"levelo_inurba_marseille","lat":43.296263,"lon":5.377094,"is_reserved":false,"is_disabled":false,"rental_uris":{"android":"levelo://app?vid=1a33da03-61de-4ddc-b2fa-87711b4afcd2","ios":"levelo://app?vid=1a33da03-61de-4ddc-b2fa-87711b4afcd2"},"vehicle_type_id":"4","last_reported":1700939085,"current_range_meters":4000,"station_id":"ce4bgi92rcd13ifvqb90","pricing_plan_id":"free"},{"bike_id":"b21b5e75-83b5-45bc-927b-65e95e240d70","system_id":"levelo_inurba_marseille","lat":43.295748,"lon":5.37522,"is_reserved":false,"is_disabled":false,"rental_uris":{"android":"levelo://app?vid=b21b5e75-83b5-45bc-927b-65e95e240d70","ios":"levelo://app?vid=b21b5e75-83b5-45bc-927b-65e95e240d70"},"vehicle_type_id":"4","last_reported":1700939085,"current_range_meters":9600,"station_id":"ce4bgh92rcd13ifvqb50","pricing_plan_id":"free"},{"bike_id":"e8951041-caac-435c-afc7-4608bf3e4da9","system_id":"levelo_inurba_marseille","lat":43.295279,"lon":5.375048,"is_reserved":false,"is_disabled":false,"rental_uris":{"android":"levelo://app?vid=e8951041-caac-435c-afc7-4608bf3e4da9","ios":"levelo://app?vid=e8951041-caac-435c-afc7-4608bf3e4da9"},"vehicle_type_id":"4","last_reported":1700939085,"current_range_meters":23200,"station_id":"ce4bgkp2rcd13ifvqbmg","pricing_plan_id":"free"},{"bike_id":"ddbd8158-5370-4870-8abf-e6fa37856537","system_id":"levelo_inurba_marseille","lat":43.299724,"lon":5.384848,"is_reserved":false,"is_disabled":false,"rental_uris":{"android":"levelo://app?vid=ddbd8158-5370-4870-8abf-e6fa37856537","ios":"levelo://app?vid=ddbd8158-5370-4870-8abf-e6fa37856537"},"vehicle_type_id":"4","last_reported":1700939085,"current_range_meters":4800,"station_id":"ce4bgj92rcd13ifvqbd0","pricing_plan_id":"free"},{"bike_id":"6b621983-5e9e-42f7-990d-ad5a093820d2","system_id":"levelo_inurba_marseille","lat":43.293801,"lon":5.363066,"is_reserved":false,"is_disabled":false,"rental_uris":{"android":"levelo://app?vid=6b621983-5e9e-42f7-990d-ad5a093820d2","ios":"levelo://app?vid=6b621983-5e9e-42f7-990d-ad5a093820d2"},"vehicle_type_id":"4","last_reported":1700939085,"current_range_meters":0,"station_id":"","pricing_plan_id":"free"},{"bike_id":"634e50cd-522d-44d6-8503-5a3fd7e2560b","system_id":"levelo_inurba_marseille","lat":43.311722,"lon":5.387247,"is_reserved":false,"is_disabled":false,"rental_uris":{"android":"levelo://app?vid=634e50cd-522d-44d6-8503-5a3fd7e2560b","ios":"levelo://app?vid=634e50cd-522d-44d6-8503-5a3fd7e2560b"},"vehicle_type_id":"4","last_reported":1700939085,"current_range_meters":16000,"station_id":"ce4bgv12rcd13ifvqcp0","pricing_plan_id":"free"},{"bike_id":"c08692de-893b-4842-ac6a-624a77fd78ec","system_id":"levelo_inurba_marseille","lat":43.323792,"lon":5.389684,"is_reserved":false,"is_disabled":false,"rental_uris":{"android":"levelo://app?vid=c08692de-893b-4842-ac6a-624a77fd78ec","ios":"levelo://app?vid=c08692de-893b-4842-ac6a-624a77fd78ec"},"vehicle_type_id":"4","last_reported":1700939085,"current_range_meters":2400,"station_id":"","pricing_plan_id":"free"},{"bike_id":"89659d1a-cb35-4ac1-84fe-373b5df291e0","system_id":"levelo_inurba_marseille","lat":43.29312,"lon":5.37177,"is_reserved":false,"is_disabled":false,"rental_uris":{"android":"levelo://app?vid=89659d1a-cb35-4ac1-84fe-373b5df291e0","ios":"levelo://app?vid=89659d1a-cb35-4ac1-84fe-373b5df291e0"},"vehicle_type_id":"4","last_reported":1700939085,"current_range_meters":28800,"station_id":"ce4bgh92rcd13ifvqb40","pricing_plan_id":"free"},{"bike_id":"27d8a0fe-697f-4cd1-a6ef-43a0dadcdf06","system_id":"levelo_inurba_marseille","lat":43.29311,"lon":5.37178,"is_reserved":false,"is_disabled":false,"rental_uris":{"android":"levelo://app?vid=27d8a0fe-697f-4cd1-a6ef-43a0dadcdf06","ios":"levelo://app?vid=27d8a0fe-697f-4cd1-a6ef-43a0dadcdf06"},"vehicle_type_id":"4","last_reported":1700939085,"current_range_meters":11200,"station_id":"ce4bgh92rcd13ifvqb40","pricing_plan_id":"free"},{"bike_id":"86cfb3f5-bb07-4160-bbbd-b3f1c2748d43","system_id":"levelo_inurba_marseille","lat":43.293068,"lon":5.371548,"is_reserved":false,"is_disabled":false,"rental_uris":{"android":"levelo://app?vid=86cfb3f5-bb07-4160-bbbd-b3f1c2748d43","ios":"levelo://app?vid=86cfb3f5-bb07-4160-bbbd-b3f1c2748d43"},"vehicle_type_id":"4","last_reported":1700939085,"current_range_meters":26400,"station_id":"ce4bgh92rcd13ifvqb40","pricing_plan_id":"free"},{"bike_id":"8fe523ab-bb5c-4840-8bd3-25ab4fa048e3","system_id":"levelo_inurba_marseille","lat":43.293083,"lon":5.371683,"is_reserved":false,"is_disabled":false,"rental_uris":{"android":"levelo://app?vid=8fe523ab-bb5c-4840-8bd3-25ab4fa048e3","ios":"levelo://app?vid=8fe523ab-bb5c-4840-8bd3-25ab4fa048e3"},"vehicle_type_id":"4","last_reported":1700939085,"current_range_meters":27600,"station_id":"ce4bgh92rcd13ifvqb40","pricing_plan_id":"free"},{"bike_id":"cc4f7414-f00f-4dca-aa54-4435ba273d6a","system_id":"levelo_inurba_marseille","lat":43.29305,"lon":5.37177,"is_reserved":false,"is_disabled":false,"rental_uris":{"android":"levelo://app?vid=cc4f7414-f00f-4dca-aa54-4435ba273d6a","ios":"levelo://app?vid=cc4f7414-f00f-4dca-aa54-4435ba273d6a"},"vehicle_type_id":"4","last_reported":1700939085,"current_range_meters":25600,"station_id":"ce4bgh92rcd13ifvqb40","pricing_plan_id":"free"},{"bike_id":"00c23701-2820-4894-801f-4e7a05c45a31","system_id":"levelo_inurba_marseille","lat":43.29274,"lon":5.36848,"is_reserved":false,"is_disabled":false,"rental_uris":{"android":"levelo://app?vid=00c23701-2820-4894-801f-4e7a05c45a31","ios":"levelo://app?vid=00c23701-2820-4894-801f-4e7a05c45a31"},"vehicle_type_id":"4","last_reported":1700939085,"current_range_meters":13600,"station_id":"ce4bhbp2rcd13ifvqesg","pricing_plan_id":"free"},{"bike_id":"c2c2a825-4a3b-4717-b959-c4b26334697c","system_id":"levelo_inurba_marseille","lat":43.29273,"lon":5.36841,"is_reserved":false,"is_disabled":false,"rental_uris":{"android":"levelo://app?vid=c2c2a825-4a3b-4717-b959-c4b26334697c","ios":"levelo://app?vid=c2c2a825-4a3b-4717-b959-c4b26334697c"},"vehicle_type_id":"4","last_reported":1700939085,"current_range_meters":0,"station_id":"ce4bhbp2rcd13ifvqesg","pricing_plan_id":"free"},{"bike_id":"c4edb324-1eeb-4553-b583-67340cf9e3c6","system_id":"levelo_inurba_marseille","lat":43.292645,"lon":5.36842,"is_reserved":false,"is_disabled":false,"rental_uris":{"android":"levelo://app?vid=c4edb324-1eeb-4553-b583-67340cf9e3c6","ios":"levelo://app?vid=c4edb324-1eeb-4553-b583-67340cf9e3c6"},"vehicle_type_id":"4","last_reported":1700939085,"current_range_meters":14400,"station_id":"ce4bhbp2rcd13ifvqesg","pricing_plan_id":"free"},{"bike_id":"ee23014f-1ff0-44ad-ac6f-e3ff91b40e27","system_id":"levelo_inurba_marseille","lat":43.291671,"lon":5.371575,"is_reserved":false,"is_disabled":false,"rental_uris":{"android":"levelo://app?vid=ee23014f-1ff0-44ad-ac6f-e3ff91b40e27","ios":"levelo://app?vid=ee23014f-1ff0-44ad-ac6f-e3ff91b40e27"},"vehicle_type_id":"4","last_reported":1700939085,"current_range_meters":20400,"station_id":"ce4bha92rcd13ifvqeh0","pricing_plan_id":"free"},{"bike_id":"e42263e7-8663-4bec-a7ad-afb8c0299c60","system_id":"levelo_inurba_marseille","lat":43.291675,"lon":5.371583,"is_reserved":false,"is_disabled":false,"rental_uris":{"android":"levelo://app?vid=e42263e7-8663-4bec-a7ad-afb8c0299c60","ios":"levelo://app?vid=e42263e7-8663-4bec-a7ad-afb8c0299c60"},"vehicle_type_id":"4","last_reported":1700939085,"current_range_meters":26400,"station_id":"ce4bha92rcd13ifvqeh0","pricing_plan_id":"free"},{"bike_id":"a9b05085-cbec-4d47-a5d2-469f36f40f42","system_id":"levelo_inurba_marseille","lat":43.313291,"lon":5.396838,"is_reserved":false,"is_disabled":false,"rental_uris":{"android":"levelo://app?vid=a9b05085-cbec-4d47-a5d2-469f36f40f42","ios":"levelo://app?vid=a9b05085-cbec-4d47-a5d2-469f36f40f42"},"vehicle_type_id":"4","last_reported":1700939085,"current_range_meters":0,"station_id":"ce4bgvp2rcd13ifvqcu0","pricing_plan_id":"free"},{"bike_id":"a9ab8c96-60c7-4b45-9026-234f983145c8","system_id":"levelo_inurba_marseille","lat":43.312974,"lon":5.396993,"is_reserved":false,"is_disabled":false,"rental_uris":{"android":"levelo://app?vid=a9ab8c96-60c7-4b45-9026-234f983145c8","ios":"levelo://app?vid=a9ab8c96-60c7-4b45-9026-234f983145c8"},"vehicle_type_id":"4","last_reported":1700939085,"current_range_meters":0,"station_id":"","pricing_plan_id":"free"},{"bike_id":"8b6e8b49-2a80-445b-a1ed-683100a156ed","system_id":"levelo_inurba_marseille","lat":43.31318,"lon":5.39703,"is_reserved":false,"is_disabled":false,"rental_uris":{"android":"levelo://app?vid=8b6e8b49-2a80-445b-a1ed-683100a156ed","ios":"levelo://app?vid=8b6e8b49-2a80-445b-a1ed-683100a156ed"},"vehicle_type_id":"4","last_reported":1700939085,"current_range_meters":4400,"station_id":"ce4bgvp2rcd13ifvqcu0","pricing_plan_id":"free"},{"bike_id":"6798455c-032c-434a-a4ea-a03f956157ce","system_id":"levelo_inurba_marseille","lat":43.29529,"lon":5.385581,"is_reserved":false,"is_disabled":false,"rental_uris":{"android":"levelo://app?vid=6798455c-032c-434a-a4ea-a03f956157ce","ios":"levelo://app?vid=6798455c-032c-434a-a4ea-a03f956157ce"},"vehicle_type_id":"4","last_reported":1700939085,"current_range_meters":13600,"station_id":"ce4bgih2rcd13ifvqba0","pricing_plan_id":"free"},{"bike_id":"71c5461a-436c-4b11-89dc-ed0f4bd267c6","system_id":"levelo_inurba_marseille","lat":43.29529,"lon":5.385581,"is_reserved":false,"is_disabled":false,"rental_uris":{"android":"levelo://app?vid=71c5461a-436c-4b11-89dc-ed0f4bd267c6","ios":"levelo://app?vid=71c5461a-436c-4b11-89dc-ed0f4bd267c6"},"vehicle_type_id":"4","last_reported":1700939085,"current_range_meters":800,"station_id":"ce4bgih2rcd13ifvqba0","pricing_plan_id":"free"},{"bike_id":"c3a0438b-8752-4342-91c8-70d95f49ec35","system_id":"levelo_inurba_marseille","lat":43.29529,"lon":5.385581,"is_reserved":false,"is_disabled":false,"rental_uris":{"android":"levelo://app?vid=c3a0438b-8752-4342-91c8-70d95f49ec35","ios":"levelo://app?vid=c3a0438b-8752-4342-91c8-70d95f49ec35"},"vehicle_type_id":"4","last_reported":1700939085,"current_range_meters":4400,"station_id":"ce4bgih2rcd13ifvqba0","pricing_plan_id":"free"},{"bike_id":"da709bde-0935-4eb8-81f3-e463e2e58380","system_id":"levelo_inurba_marseille","lat":43.29531,"lon":5.38551,"is_reserved":false,"is_disabled":false,"rental_uris":{"android":"levelo://app?vid=da709bde-0935-4eb8-81f3-e463e2e58380","ios":"levelo://app?vid=da709bde-0935-4eb8-81f3-e463e2e58380"},"vehicle_type_id":"4","last_reported":1700939085,"current_range_meters":20000,"station_id":"ce4bgih2rcd13ifvqba0","pricing_plan_id":"free"},{"bike_id":"e5ffc6e9-a375-41f8-ae4f-0e676e0a73ac","system_id":"levelo_inurba_marseille","lat":43.294153,"lon":5.386305,"is_reserved":false,"is_disabled":false,"rental_uris":{"android":"levelo://app?vid=e5ffc6e9-a375-41f8-ae4f-0e676e0a73ac","ios":"levelo://app?vid=e5ffc6e9-a375-41f8-ae4f-0e676e0a73ac"},"vehicle_type_id":"4","last_reported":1700939085,"current_range_meters":24000,"station_id":"ce4bh2h2rcd13ifvqdh0","pricing_plan_id":"free"},{"bike_id":"0af62923-4987-4515-99a4-958cdba82876","system_id":"levelo_inurba_marseille","lat":43.294162,"lon":5.386292,"is_reserved":false,"is_disabled":false,"rental_uris":{"android":"levelo://app?vid=0af62923-4987-4515-99a4-958cdba82876","ios":"levelo://app?vid=0af62923-4987-4515-99a4-958cdba82876"},"vehicle_type_id":"4","last_reported":1700939085,"current_range_meters":400,"station_id":"ce4bh2h2rcd13ifvqdh0","pricing_plan_id":"free"},{"bike_id":"736464b0-5110-4535-94e2-f3fab3751e9a","system_id":"levelo_inurba_marseille","lat":43.294153,"lon":5.386305,"is_reserved":false,"is_disabled":false,"rental_uris":{"android":"levelo://app?vid=736464b0-5110-4535-94e2-f3fab3751e9a","ios":"levelo://app?vid=736464b0-5110-4535-94e2-f3fab3751e9a"},"vehicle_type_id":"4","last_reported":1700939085,"current_range_meters":400,"station_id":"ce4bh2h2rcd13ifvqdh0","pricing_plan_id":"free"},{"bike_id":"10d44578-881b-44ef-8e3e-b7143f8f6133","system_id":"levelo_inurba_marseille","lat":43.294162,"lon":5.386292,"is_reserved":false,"is_disabled":false,"rental_uris":{"android":"levelo://app?vid=10d44578-881b-44ef-8e3e-b7143f8f6133","ios":"levelo://app?vid=10d44578-881b-44ef-8e3e-b7143f8f6133"},"vehicle_type_id":"4","last_reported":1700939085,"current_range_meters":0,"station_id":"ce4bh2h2rcd13ifvqdh0","pricing_plan_id":"free"},{"bike_id":"85b213bc-2d84-44ba-9fbf-ec204044df21","system_id":"levelo_inurba_marseille","lat":43.289184,"lon":5.366408,"is_reserved":false,"is_disabled":false,"rental_uris":{"android":"levelo://app?vid=85b213bc-2d84-44ba-9fbf-ec204044df21","ios":"levelo://app?vid=85b213bc-2d84-44ba-9fbf-ec204044df21"},"vehicle_type_id":"4","last_reported":1700939085,"current_range_meters":20400,"station_id":"ce4bhap2rcd13ifvqek0","pricing_plan_id":"free"},{"bike_id":"272ee312-e2aa-42cb-867c-4544bb0a211e","system_id":"levelo_inurba_marseille","lat":43.289184,"lon":5.366408,"is_reserved":false,"is_disabled":false,"rental_uris":{"android":"levelo://app?vid=272ee312-e2aa-42cb-867c-4544bb0a211e","ios":"levelo://app?vid=272ee312-e2aa-42cb-867c-4544bb0a211e"},"vehicle_type_id":"4","last_reported":1700939085,"current_range_meters":16400,"station_id":"ce4bhap2rcd13ifvqek0","pricing_plan_id":"free"},{"bike_id":"2a322096-4787-4bcf-8273-aded05e60730","system_id":"levelo_inurba_marseille","lat":43.289184,"lon":5.366408,"is_reserved":false,"is_disabled":false,"rental_uris":{"android":"levelo://app?vid=2a322096-4787-4bcf-8273-aded05e60730","ios":"levelo://app?vid=2a322096-4787-4bcf-8273-aded05e60730"},"vehicle_type_id":"4","last_reported":1700939085,"current_range_meters":10400,"station_id":"ce4bhap2rcd13ifvqek0","pricing_plan_id":"free"},{"bike_id":"77f472a5-d8d7-429c-be76-0301e9e08d76","system_id":"levelo_inurba_marseille","lat":43.289468,"lon":5.363719,"is_reserved":false,"is_disabled":false,"rental_uris":{"android":"levelo://app?vid=77f472a5-d8d7-429c-be76-0301e9e08d76","ios":"levelo://app?vid=77f472a5-d8d7-429c-be76-0301e9e08d76"},"vehicle_type_id":"4","last_reported":1700939085,"current_range_meters":29200,"station_id":"ce4bhc92rcd13ifvqetg","pricing_plan_id":"free"},{"bike_id":"27e87c14-a250-4927-9e73-f7db406122dd","system_id":"levelo_inurba_marseille","lat":43.304274,"lon":5.397513,"is_reserved":false,"is_disabled":false,"rental_uris":{"android":"levelo://app?vid=27e87c14-a250-4927-9e73-f7db406122dd","ios":"levelo://app?vid=27e87c14-a250-4927-9e73-f7db406122dd"},"vehicle_type_id":"4","last_reported":1700939085,"current_range_meters":20800,"station_id":"ce4bh092rcd13ifvqd20","pricing_plan_id":"free"},{"bike_id":"4b75f13a-dad0-4260-80b4-12a5b9cb1fba","system_id":"levelo_inurba_marseille","lat":43.29266,"lon":5.38443,"is_reserved":false,"is_disabled":false,"rental_uris":{"android":"levelo://app?vid=4b75f13a-dad0-4260-80b4-12a5b9cb1fba","ios":"levelo://app?vid=4b75f13a-dad0-4260-80b4-12a5b9cb1fba"},"vehicle_type_id":"4","last_reported":1700939085,"current_range_meters":23200,"station_id":"ce4bh692rcd13ifvqea0","pricing_plan_id":"free"},{"bike_id":"c82855ee-0373-40fa-98cc-a66d7954f1c6","system_id":"levelo_inurba_marseille","lat":43.292642,"lon":5.384254,"is_reserved":false,"is_disabled":false,"rental_uris":{"android":"levelo://app?vid=c82855ee-0373-40fa-98cc-a66d7954f1c6","ios":"levelo://app?vid=c82855ee-0373-40fa-98cc-a66d7954f1c6"},"vehicle_type_id":"4","last_reported":1700939085,"current_range_meters":6000,"station_id":"ce4bh692rcd13ifvqea0","pricing_plan_id":"free"},{"bike_id":"4301b4ee-4ebf-482d-a058-ae7a1cb96ca2","system_id":"levelo_inurba_marseille","lat":43.292605,"lon":5.38449,"is_reserved":false,"is_disabled":false,"rental_uris":{"android":"levelo://app?vid=4301b4ee-4ebf-482d-a058-ae7a1cb96ca2","ios":"levelo://app?vid=4301b4ee-4ebf-482d-a058-ae7a1cb96ca2"},"vehicle_type_id":"4","last_reported":1700939085,"current_range_meters":13200,"station_id":"ce4bh692rcd13ifvqea0","pricing_plan_id":"free"},{"bike_id":"3294f984-c4d0-47f9-96a9-03396dadc264","system_id":"levelo_inurba_marseille","lat":43.29783,"lon":5.3934,"is_reserved":false,"is_disabled":false,"rental_uris":{"android":"levelo://app?vid=3294f984-c4d0-47f9-96a9-03396dadc264","ios":"levelo://app?vid=3294f984-c4d0-47f9-96a9-03396dadc264"},"vehicle_type_id":"4","last_reported":1700939085,"current_range_meters":10800,"station_id":"chh1huq6cuj3fo74tm60","pricing_plan_id":"free"},{"bike_id":"a664e8d1-847d-4baf-8ebf-b742d1edf92c","system_id":"levelo_inurba_marseille","lat":43.29786,"lon":5.39344,"is_reserved":false,"is_disabled":false,"rental_uris":{"android":"levelo://app?vid=a664e8d1-847d-4baf-8ebf-b742d1edf92c","ios":"levelo://app?vid=a664e8d1-847d-4baf-8ebf-b742d1edf92c"},"vehicle_type_id":"4","last_reported":1700939085,"current_range_meters":1200,"station_id":"chh1huq6cuj3fo74tm60","pricing_plan_id":"free"},{"bike_id":"9c9bd7db-a71c-419c-ba42-83618cc977b4","system_id":"levelo_inurba_marseille","lat":43.309634,"lon":5.400722,"is_reserved":false,"is_disabled":false,"rental_uris":{"android":"levelo://app?vid=9c9bd7db-a71c-419c-ba42-83618cc977b4","ios":"levelo://app?vid=9c9bd7db-a71c-419c-ba42-83618cc977b4"},"vehicle_type_id":"4","last_reported":1700939085,"current_range_meters":0,"station_id":"","pricing_plan_id":"free"},{"bike_id":"1396be27-855d-47c4-9b70-3e0c38c7548e","system_id":"levelo_inurba_marseille","lat":43.28824,"lon":5.375583,"is_reserved":false,"is_disabled":false,"rental_uris":{"android":"levelo://app?vid=1396be27-855d-47c4-9b70-3e0c38c7548e","ios":"levelo://app?vid=1396be27-855d-47c4-9b70-3e0c38c7548e"},"vehicle_type_id":"4","last_reported":1700939085,"current_range_meters":12400,"station_id":"ce4bh412rcd13ifvqds0","pricing_plan_id":"free"},{"bike_id":"82ca81cd-1004-4eae-8f75-43088ecec8b5","system_id":"levelo_inurba_marseille","lat":43.312826,"lon":5.401707,"is_reserved":false,"is_disabled":false,"rental_uris":{"android":"levelo://app?vid=82ca81cd-1004-4eae-8f75-43088ecec8b5","ios":"levelo://app?vid=82ca81cd-1004-4eae-8f75-43088ecec8b5"},"vehicle_type_id":"4","last_reported":1700939085,"current_range_meters":17200,"station_id":"ce4bh092rcd13ifvqd30","pricing_plan_id":"free"},{"bike_id":"2b23f38a-1831-49fe-a943-86c9ec15f136","system_id":"levelo_inurba_marseille","lat":43.337462,"lon":5.374608,"is_reserved":false,"is_disabled":false,"rental_uris":{"android":"levelo://app?vid=2b23f38a-1831-49fe-a943-86c9ec15f136","ios":"levelo://app?vid=2b23f38a-1831-49fe-a943-86c9ec15f136"},"vehicle_type_id":"4","last_reported":1700939085,"current_range_meters":800,"station_id":"","pricing_plan_id":"free"},{"bike_id":"ac285e26-46ab-4b23-8672-d078d8fed511","system_id":"levelo_inurba_marseille","lat":43.3376,"lon":5.37452,"is_reserved":false,"is_disabled":false,"rental_uris":{"android":"levelo://app?vid=ac285e26-46ab-4b23-8672-d078d8fed511","ios":"levelo://app?vid=ac285e26-46ab-4b23-8672-d078d8fed511"},"vehicle_type_id":"4","last_reported":1700939085,"current_range_meters":24800,"station_id":"","pricing_plan_id":"free"},{"bike_id":"cde2c622-349a-4323-acf6-1cfccb53c987","system_id":"levelo_inurba_marseille","lat":43.30137,"lon":5.39869,"is_reserved":false,"is_disabled":false,"rental_uris":{"android":"levelo://app?vid=cde2c622-349a-4323-acf6-1cfccb53c987","ios":"levelo://app?vid=cde2c622-349a-4323-acf6-1cfccb53c987"},"vehicle_type_id":"4","last_reported":1700939085,"current_range_meters":4400,"station_id":"ce4bh0h2rcd13ifvqd40","pricing_plan_id":"free"},{"bike_id":"9f0dcef8-e011-4503-bbd9-9da18eccff4f","system_id":"levelo_inurba_marseille","lat":43.286961,"lon":5.373785,"is_reserved":false,"is_disabled":false,"rental_uris":{"android":"levelo://app?vid=9f0dcef8-e011-4503-bbd9-9da18eccff4f","ios":"levelo://app?vid=9f0dcef8-e011-4503-bbd9-9da18eccff4f"},"vehicle_type_id":"4","last_reported":1700939085,"current_range_meters":14800,"station_id":"ce4bh3p2rcd13ifvqdq0","pricing_plan_id":"free"},{"bike_id":"bad6d32a-cbc9-4c06-b84c-adc8d4c3b451","system_id":"levelo_inurba_marseille","lat":43.295196,"lon":5.39397,"is_reserved":false,"is_disabled":false,"rental_uris":{"android":"levelo://app?vid=bad6d32a-cbc9-4c06-b84c-adc8d4c3b451","ios":"levelo://app?vid=bad6d32a-cbc9-4c06-b84c-adc8d4c3b451"},"vehicle_type_id":"4","last_reported":1700939085,"current_range_meters":12800,"station_id":"ce4bh292rcd13ifvqdf0","pricing_plan_id":"free"},{"bike_id":"6d5429e5-4b7e-4c34-a5df-146022ac8153","system_id":"levelo_inurba_marseille","lat":43.295196,"lon":5.39397,"is_reserved":false,"is_disabled":false,"rental_uris":{"android":"levelo://app?vid=6d5429e5-4b7e-4c34-a5df-146022ac8153","ios":"levelo://app?vid=6d5429e5-4b7e-4c34-a5df-146022ac8153"},"vehicle_type_id":"4","last_reported":1700939085,"current_range_meters":24400,"station_id":"ce4bh292rcd13ifvqdf0","pricing_plan_id":"free"},{"bike_id":"307b3722-ada0-4079-8286-72b36f82955b","system_id":"levelo_inurba_marseille","lat":43.295194,"lon":5.39397,"is_reserved":false,"is_disabled":false,"rental_uris":{"android":"levelo://app?vid=307b3722-ada0-4079-8286-72b36f82955b","ios":"levelo://app?vid=307b3722-ada0-4079-8286-72b36f82955b"},"vehicle_type_id":"4","last_reported":1700939085,"current_range_meters":16400,"station_id":"ce4bh292rcd13ifvqdf0","pricing_plan_id":"free"},{"bike_id":"55b29b2d-5e03-494e-8176-c4057ede04da","system_id":"levelo_inurba_marseille","lat":43.302759,"lon":5.400793,"is_reserved":false,"is_disabled":false,"rental_uris":{"android":"levelo://app?vid=55b29b2d-5e03-494e-8176-c4057ede04da","ios":"levelo://app?vid=55b29b2d-5e03-494e-8176-c4057ede04da"},"vehicle_type_id":"4","last_reported":1700939085,"current_range_meters":17600,"station_id":"ce4bgvh2rcd13ifvqcs0","pricing_plan_id":"free"},{"bike_id":"e1cfd804-c192-4c35-ad5c-c8d01222a441","system_id":"levelo_inurba_marseille","lat":43.286039,"lon":5.370679,"is_reserved":false,"is_disabled":false,"rental_uris":{"android":"levelo://app?vid=e1cfd804-c192-4c35-ad5c-c8d01222a441","ios":"levelo://app?vid=e1cfd804-c192-4c35-ad5c-c8d01222a441"},"vehicle_type_id":"4","last_reported":1700939085,"current_range_meters":2400,"station_id":"ce4bht12rcd13ifvqi60","pricing_plan_id":"free"},{"bike_id":"0f56fa0f-1117-4140-8fde-612592dc4d4f","system_id":"levelo_inurba_marseille","lat":43.286039,"lon":5.370679,"is_reserved":false,"is_disabled":false,"rental_uris":{"android":"levelo://app?vid=0f56fa0f-1117-4140-8fde-612592dc4d4f","ios":"levelo://app?vid=0f56fa0f-1117-4140-8fde-612592dc4d4f"},"vehicle_type_id":"4","last_reported":1700939085,"current_range_meters":20800,"station_id":"ce4bht12rcd13ifvqi60","pricing_plan_id":"free"},{"bike_id":"7109feb0-a723-4820-9abd-aab9b6f84b1f","system_id":"levelo_inurba_marseille","lat":43.272116,"lon":5.391747,"is_reserved":false,"is_disabled":false,"rental_uris":{"android":"levelo://app?vid=7109feb0-a723-4820-9abd-aab9b6f84b1f","ios":"levelo://app?vid=7109feb0-a723-4820-9abd-aab9b6f84b1f"},"vehicle_type_id":"4","last_reported":1700939085,"current_range_meters":6400,"station_id":"ce4bhhp2rcd13ifvqfm0","pricing_plan_id":"free"},{"bike_id":"a0d8f301-c9c4-4c50-aed1-5b3e61bede60","system_id":"levelo_inurba_marseille","lat":43.287184,"lon":5.37937,"is_reserved":false,"is_disabled":false,"rental_uris":{"android":"levelo://app?vid=a0d8f301-c9c4-4c50-aed1-5b3e61bede60","ios":"levelo://app?vid=a0d8f301-c9c4-4c50-aed1-5b3e61bede60"},"vehicle_type_id":"4","last_reported":1700939085,"current_range_meters":25600,"station_id":"ce4bh9p2rcd13ifvqec0","pricing_plan_id":"free"},{"bike_id":"759665d9-a082-42ab-8b75-9d90bc62109d","system_id":"levelo_inurba_marseille","lat":43.316517,"lon":5.404375,"is_reserved":false,"is_disabled":false,"rental_uris":{"android":"levelo://app?vid=759665d9-a082-42ab-8b75-9d90bc62109d","ios":"levelo://app?vid=759665d9-a082-42ab-8b75-9d90bc62109d"},"vehicle_type_id":"4","last_reported":1700939085,"current_range_meters":400,"station_id":"ce4bh012rcd13ifvqd00","pricing_plan_id":"free"},{"bike_id":"276ef7ef-e2af-45b4-a18f-0f94677440a1","system_id":"levelo_inurba_marseille","lat":43.316523,"lon":5.404367,"is_reserved":false,"is_disabled":false,"rental_uris":{"android":"levelo://app?vid=276ef7ef-e2af-45b4-a18f-0f94677440a1","ios":"levelo://app?vid=276ef7ef-e2af-45b4-a18f-0f94677440a1"},"vehicle_type_id":"4","last_reported":1700939085,"current_range_meters":12800,"station_id":"ce4bh012rcd13ifvqd00","pricing_plan_id":"free"},{"bike_id":"862e173b-ade9-428a-920d-6f87fe14c6c4","system_id":"levelo_inurba_marseille","lat":43.28463,"lon":5.3589,"is_reserved":false,"is_disabled":false,"rental_uris":{"android":"levelo://app?vid=862e173b-ade9-428a-920d-6f87fe14c6c4","ios":"levelo://app?vid=862e173b-ade9-428a-920d-6f87fe14c6c4"},"vehicle_type_id":"4","last_reported":1700939085,"current_range_meters":0,"station_id":"ce4bhah2rcd13ifvqei0","pricing_plan_id":"free"},{"bike_id":"2d2ecd5d-0594-4cc6-8c0c-9b301e727a2a","system_id":"levelo_inurba_marseille","lat":43.284538,"lon":5.358657,"is_reserved":false,"is_disabled":false,"rental_uris":{"android":"levelo://app?vid=2d2ecd5d-0594-4cc6-8c0c-9b301e727a2a","ios":"levelo://app?vid=2d2ecd5d-0594-4cc6-8c0c-9b301e727a2a"},"vehicle_type_id":"4","last_reported":1700939085,"current_range_meters":1200,"station_id":"ce4bhah2rcd13ifvqei0","pricing_plan_id":"free"},{"bike_id":"f18bfd66-9c11-43fc-a6fa-cf2edce6e4d4","system_id":"levelo_inurba_marseille","lat":43.28617,"lon":5.351,"is_reserved":false,"is_disabled":false,"rental_uris":{"android":"levelo://app?vid=f18bfd66-9c11-43fc-a6fa-cf2edce6e4d4","ios":"levelo://app?vid=f18bfd66-9c11-43fc-a6fa-cf2edce6e4d4"},"vehicle_type_id":"4","last_reported":1700939085,"current_range_meters":29200,"station_id":"ce4bhch2rcd13ifvqeug","pricing_plan_id":"free"},{"bike_id":"a7f3395c-9c1f-48d9-94c6-7b9f511f37a7","system_id":"levelo_inurba_marseille","lat":43.283998,"lon":5.375062,"is_reserved":false,"is_disabled":false,"rental_uris":{"android":"levelo://app?vid=a7f3395c-9c1f-48d9-94c6-7b9f511f37a7","ios":"levelo://app?vid=a7f3395c-9c1f-48d9-94c6-7b9f511f37a7"},"vehicle_type_id":"4","last_reported":1700939085,"current_range_meters":31200,"station_id":"ce4bh412rcd13ifvqds0","pricing_plan_id":"free"},{"bike_id":"00226c1f-f9c7-4717-bef1-123d14105322","system_id":"levelo_inurba_marseille","lat":43.283998,"lon":5.375062,"is_reserved":false,"is_disabled":false,"rental_uris":{"android":"levelo://app?vid=00226c1f-f9c7-4717-bef1-123d14105322","ios":"levelo://app?vid=00226c1f-f9c7-4717-bef1-123d14105322"},"vehicle_type_id":"4","last_reported":1700939085,"current_range_meters":26000,"station_id":"ce4bh412rcd13ifvqds0","pricing_plan_id":"free"},{"bike_id":"d3aeb8c7-a6fb-4641-ba7c-ea349ab8a2b1","system_id":"levelo_inurba_marseille","lat":43.283998,"lon":5.375062,"is_reserved":false,"is_disabled":false,"rental_uris":{"android":"levelo://app?vid=d3aeb8c7-a6fb-4641-ba7c-ea349ab8a2b1","ios":"levelo://app?vid=d3aeb8c7-a6fb-4641-ba7c-ea349ab8a2b1"},"vehicle_type_id":"4","last_reported":1700939085,"current_range_meters":25200,"station_id":"ce4bh412rcd13ifvqds0","pricing_plan_id":"free"},{"bike_id":"3ec7c8a2-f851-44fe-a66c-55be2ab224d4","system_id":"levelo_inurba_marseille","lat":43.283998,"lon":5.375062,"is_reserved":false,"is_disabled":false,"rental_uris":{"android":"levelo://app?vid=3ec7c8a2-f851-44fe-a66c-55be2ab224d4","ios":"levelo://app?vid=3ec7c8a2-f851-44fe-a66c-55be2ab224d4"},"vehicle_type_id":"4","last_reported":1700939085,"current_range_meters":30000,"station_id":"ce4bh412rcd13ifvqds0","pricing_plan_id":"free"},{"bike_id":"2511a730-557d-4e46-9ae1-d86445792f2f","system_id":"levelo_inurba_marseille","lat":43.28403,"lon":5.375063,"is_reserved":false,"is_disabled":false,"rental_uris":{"android":"levelo://app?vid=2511a730-557d-4e46-9ae1-d86445792f2f","ios":"levelo://app?vid=2511a730-557d-4e46-9ae1-d86445792f2f"},"vehicle_type_id":"4","last_reported":1700939085,"current_range_meters":21200,"station_id":"","pricing_plan_id":"free"},{"bike_id":"2913d144-6683-4e76-a17d-5d1ccac91527","system_id":"levelo_inurba_marseille","lat":43.319179,"lon":5.407725,"is_reserved":false,"is_disabled":false,"rental_uris":{"android":"levelo://app?vid=2913d144-6683-4e76-a17d-5d1ccac91527","ios":"levelo://app?vid=2913d144-6683-4e76-a17d-5d1ccac91527"},"vehicle_type_id":"4","last_reported":1700939085,"current_range_meters":6800,"station_id":"ce4bhq12rcd13ifvqhig","pricing_plan_id":"free"},{"bike_id":"75a0c32e-6491-4ac2-a9fb-a7f065316e85","system_id":"levelo_inurba_marseille","lat":43.28476,"lon":5.38415,"is_reserved":false,"is_disabled":false,"rental_uris":{"android":"levelo://app?vid=75a0c32e-6491-4ac2-a9fb-a7f065316e85","ios":"levelo://app?vid=75a0c32e-6491-4ac2-a9fb-a7f065316e85"},"vehicle_type_id":"4","last_reported":1700939085,"current_range_meters":0,"station_id":"ce4bh512rcd13ifvqe3g","pricing_plan_id":"free"},{"bike_id":"3699e9ca-2aa9-4fd3-b652-c2ba8886ea78","system_id":"levelo_inurba_marseille","lat":43.283498,"lon":5.380948,"is_reserved":false,"is_disabled":false,"rental_uris":{"android":"levelo://app?vid=3699e9ca-2aa9-4fd3-b652-c2ba8886ea78","ios":"levelo://app?vid=3699e9ca-2aa9-4fd3-b652-c2ba8886ea78"},"vehicle_type_id":"4","last_reported":1700939085,"current_range_meters":22800,"station_id":"ce4bh412rcd13ifvqdr0","pricing_plan_id":"free"},{"bike_id":"71c0564d-4813-4cf0-91a2-fdeaef16a272","system_id":"levelo_inurba_marseille","lat":43.288501,"lon":5.393087,"is_reserved":false,"is_disabled":false,"rental_uris":{"android":"levelo://app?vid=71c0564d-4813-4cf0-91a2-fdeaef16a272","ios":"levelo://app?vid=71c0564d-4813-4cf0-91a2-fdeaef16a272"},"vehicle_type_id":"4","last_reported":1700939085,"current_range_meters":26000,"station_id":"ce4bh2p2rcd13ifvqdi0","pricing_plan_id":"free"},{"bike_id":"8b11aefe-6e11-47ee-9236-2213b5053f69","system_id":"levelo_inurba_marseille","lat":43.283498,"lon":5.380948,"is_reserved":false,"is_disabled":false,"rental_uris":{"android":"levelo://app?vid=8b11aefe-6e11-47ee-9236-2213b5053f69","ios":"levelo://app?vid=8b11aefe-6e11-47ee-9236-2213b5053f69"},"vehicle_type_id":"4","last_reported":1700939085,"current_range_meters":10400,"station_id":"ce4bh412rcd13ifvqdr0","pricing_plan_id":"free"},{"bike_id":"84eebdd8-e3d4-48f5-8fda-370432b3a0d9","system_id":"levelo_inurba_marseille","lat":43.284217,"lon":5.349697,"is_reserved":false,"is_disabled":false,"rental_uris":{"android":"levelo://app?vid=84eebdd8-e3d4-48f5-8fda-370432b3a0d9","ios":"levelo://app?vid=84eebdd8-e3d4-48f5-8fda-370432b3a0d9"},"vehicle_type_id":"4","last_reported":1700939085,"current_range_meters":6400,"station_id":"ce4bhbh2rcd13ifvqepg","pricing_plan_id":"free"},{"bike_id":"ff627ae9-8791-46fa-b768-f6397d219620","system_id":"levelo_inurba_marseille","lat":43.28411,"lon":5.34984,"is_reserved":false,"is_disabled":false,"rental_uris":{"android":"levelo://app?vid=ff627ae9-8791-46fa-b768-f6397d219620","ios":"levelo://app?vid=ff627ae9-8791-46fa-b768-f6397d219620"},"vehicle_type_id":"4","last_reported":1700939085,"current_range_meters":12800,"station_id":"ce4bhbh2rcd13ifvqepg","pricing_plan_id":"free"},{"bike_id":"e2284003-4e46-4e0a-93e7-73d05c3666d9","system_id":"levelo_inurba_marseille","lat":43.33508,"lon":5.397755,"is_reserved":false,"is_disabled":false,"rental_uris":{"android":"levelo://app?vid=e2284003-4e46-4e0a-93e7-73d05c3666d9","ios":"levelo://app?vid=e2284003-4e46-4e0a-93e7-73d05c3666d9"},"vehicle_type_id":"4","last_reported":1700939085,"current_range_meters":21600,"station_id":"","pricing_plan_id":"free"},{"bike_id":"df737519-de4a-44c4-a52a-bb17490d46d8","system_id":"levelo_inurba_marseille","lat":43.282754,"lon":5.350519,"is_reserved":false,"is_disabled":false,"rental_uris":{"android":"levelo://app?vid=df737519-de4a-44c4-a52a-bb17490d46d8","ios":"levelo://app?vid=df737519-de4a-44c4-a52a-bb17490d46d8"},"vehicle_type_id":"4","last_reported":1700939085,"current_range_meters":14400,"station_id":"ce4bhbp2rcd13ifvqerg","pricing_plan_id":"free"},{"bike_id":"76be997f-a913-47d5-93e1-1045ae1f86a4","system_id":"levelo_inurba_marseille","lat":43.281044,"lon":5.378308,"is_reserved":false,"is_disabled":false,"rental_uris":{"android":"levelo://app?vid=76be997f-a913-47d5-93e1-1045ae1f86a4","ios":"levelo://app?vid=76be997f-a913-47d5-93e1-1045ae1f86a4"},"vehicle_type_id":"4","last_reported":1700939085,"current_range_meters":0,"station_id":"ce4bha12rcd13ifvqee0","pricing_plan_id":"free"},{"bike_id":"2d7787f2-fab1-4738-9397-38e4e54c98e8","system_id":"levelo_inurba_marseille","lat":43.304188,"lon":5.412904,"is_reserved":false,"is_disabled":false,"rental_uris":{"android":"levelo://app?vid=2d7787f2-fab1-4738-9397-38e4e54c98e8","ios":"levelo://app?vid=2d7787f2-fab1-4738-9397-38e4e54c98e8"},"vehicle_type_id":"4","last_reported":1700939085,"current_range_meters":6800,"station_id":"ce4bhop2rcd13ifvqh8g","pricing_plan_id":"free"},{"bike_id":"d518a33b-6858-4e87-a734-14a892a328e0","system_id":"levelo_inurba_marseille","lat":43.304188,"lon":5.412904,"is_reserved":false,"is_disabled":false,"rental_uris":{"android":"levelo://app?vid=d518a33b-6858-4e87-a734-14a892a328e0","ios":"levelo://app?vid=d518a33b-6858-4e87-a734-14a892a328e0"},"vehicle_type_id":"4","last_reported":1700939085,"current_range_meters":31600,"station_id":"ce4bhop2rcd13ifvqh8g","pricing_plan_id":"free"},{"bike_id":"363f2ae4-2b32-454f-8f89-76483a2ead65","system_id":"levelo_inurba_marseille","lat":43.299579,"lon":5.413255,"is_reserved":false,"is_disabled":false,"rental_uris":{"android":"levelo://app?vid=363f2ae4-2b32-454f-8f89-76483a2ead65","ios":"levelo://app?vid=363f2ae4-2b32-454f-8f89-76483a2ead65"},"vehicle_type_id":"4","last_reported":1700939085,"current_range_meters":30800,"station_id":"ce4bhp12rcd13ifvqh9g","pricing_plan_id":"free"},{"bike_id":"513098f0-5141-4a34-81d2-2d326258ef02","system_id":"levelo_inurba_marseille","lat":43.27618,"lon":5.361009,"is_reserved":false,"is_disabled":false,"rental_uris":{"android":"levelo://app?vid=513098f0-5141-4a34-81d2-2d326258ef02","ios":"levelo://app?vid=513098f0-5141-4a34-81d2-2d326258ef02"},"vehicle_type_id":"4","last_reported":1700939085,"current_range_meters":31200,"station_id":"ce4bgj92rcd13ifvqbe0","pricing_plan_id":"free"},{"bike_id":"1239042e-69f0-4305-b7ed-e482ed229840","system_id":"levelo_inurba_marseille","lat":43.325243,"lon":5.414326,"is_reserved":false,"is_disabled":false,"rental_uris":{"android":"levelo://app?vid=1239042e-69f0-4305-b7ed-e482ed229840","ios":"levelo://app?vid=1239042e-69f0-4305-b7ed-e482ed229840"},"vehicle_type_id":"4","last_reported":1700939085,"current_range_meters":30400,"station_id":"ce4bhq12rcd13ifvqhhg","pricing_plan_id":"free"},{"bike_id":"b6bd24e6-943a-4566-9f51-569035dc9592","system_id":"levelo_inurba_marseille","lat":43.325243,"lon":5.414326,"is_reserved":false,"is_disabled":false,"rental_uris":{"android":"levelo://app?vid=b6bd24e6-943a-4566-9f51-569035dc9592","ios":"levelo://app?vid=b6bd24e6-943a-4566-9f51-569035dc9592"},"vehicle_type_id":"4","last_reported":1700939085,"current_range_meters":4800,"station_id":"ce4bhq12rcd13ifvqhhg","pricing_plan_id":"free"},{"bike_id":"e9333e17-ea63-4942-a642-cb0a1ba22a55","system_id":"levelo_inurba_marseille","lat":43.325243,"lon":5.414326,"is_reserved":false,"is_disabled":false,"rental_uris":{"android":"levelo://app?vid=e9333e17-ea63-4942-a642-cb0a1ba22a55","ios":"levelo://app?vid=e9333e17-ea63-4942-a642-cb0a1ba22a55"},"vehicle_type_id":"4","last_reported":1700939085,"current_range_meters":26000,"station_id":"ce4bhq12rcd13ifvqhhg","pricing_plan_id":"free"},{"bike_id":"a3c6def1-5296-4c7a-9eea-c8d4b330c208","system_id":"levelo_inurba_marseille","lat":43.27618,"lon":5.361009,"is_reserved":false,"is_disabled":false,"rental_uris":{"android":"levelo://app?vid=a3c6def1-5296-4c7a-9eea-c8d4b330c208","ios":"levelo://app?vid=a3c6def1-5296-4c7a-9eea-c8d4b330c208"},"vehicle_type_id":"4","last_reported":1700939085,"current_range_meters":31200,"station_id":"ce4bgj92rcd13ifvqbe0","pricing_plan_id":"free"},{"bike_id":"85e3b333-2fed-44a5-a314-796a3dd3f66d","system_id":"levelo_inurba_marseille","lat":43.303837,"lon":5.418724,"is_reserved":false,"is_disabled":false,"rental_uris":{"android":"levelo://app?vid=85e3b333-2fed-44a5-a314-796a3dd3f66d","ios":"levelo://app?vid=85e3b333-2fed-44a5-a314-796a3dd3f66d"},"vehicle_type_id":"4","last_reported":1700939085,"current_range_meters":4800,"station_id":"ce4bhop2rcd13ifvqh7g","pricing_plan_id":"free"},{"bike_id":"c25ea147-e804-4786-9d25-91f61a8ed59a","system_id":"levelo_inurba_marseille","lat":43.293651,"lon":5.41268,"is_reserved":false,"is_disabled":false,"rental_uris":{"android":"levelo://app?vid=c25ea147-e804-4786-9d25-91f61a8ed59a","ios":"levelo://app?vid=c25ea147-e804-4786-9d25-91f61a8ed59a"},"vehicle_type_id":"4","last_reported":1700939085,"current_range_meters":0,"station_id":"","pricing_plan_id":"free"},{"bike_id":"9ad360ac-da03-4985-abd3-acecd73c2a42","system_id":"levelo_inurba_marseille","lat":43.280784,"lon":5.396622,"is_reserved":false,"is_disabled":false,"rental_uris":{"android":"levelo://app?vid=9ad360ac-da03-4985-abd3-acecd73c2a42","ios":"levelo://app?vid=9ad360ac-da03-4985-abd3-acecd73c2a42"},"vehicle_type_id":"4","last_reported":1700939085,"current_range_meters":10400,"station_id":"ce4bho12rcd13ifvqh2g","pricing_plan_id":"free"},{"bike_id":"78e49968-8fe2-4040-8a54-8431596f0d78","system_id":"levelo_inurba_marseille","lat":43.303837,"lon":5.418724,"is_reserved":false,"is_disabled":false,"rental_uris":{"android":"levelo://app?vid=78e49968-8fe2-4040-8a54-8431596f0d78","ios":"levelo://app?vid=78e49968-8fe2-4040-8a54-8431596f0d78"},"vehicle_type_id":"4","last_reported":1700939085,"current_range_meters":9200,"station_id":"ce4bhop2rcd13ifvqh7g","pricing_plan_id":"free"},{"bike_id":"44a713c1-e816-4c42-a0d6-57ff4dd012b2","system_id":"levelo_inurba_marseille","lat":43.27381,"lon":5.36251,"is_reserved":false,"is_disabled":false,"rental_uris":{"android":"levelo://app?vid=44a713c1-e816-4c42-a0d6-57ff4dd012b2","ios":"levelo://app?vid=44a713c1-e816-4c42-a0d6-57ff4dd012b2"},"vehicle_type_id":"4","last_reported":1700939085,"current_range_meters":9200,"station_id":"ce4bhbh2rcd13ifvqeo0","pricing_plan_id":"free"},{"bike_id":"9fa10c37-8c73-4b53-ad67-ae62941f5d2c","system_id":"levelo_inurba_marseille","lat":43.336134,"lon":5.410341,"is_reserved":false,"is_disabled":false,"rental_uris":{"android":"levelo://app?vid=9fa10c37-8c73-4b53-ad67-ae62941f5d2c","ios":"levelo://app?vid=9fa10c37-8c73-4b53-ad67-ae62941f5d2c"},"vehicle_type_id":"4","last_reported":1700939085,"current_range_meters":27200,"station_id":"ce4bhqh2rcd13ifvqhmg","pricing_plan_id":"free"},{"bike_id":"9890f477-5bbe-4f57-9f77-3b2da0b78b68","system_id":"levelo_inurba_marseille","lat":43.336148,"lon":5.410349,"is_reserved":false,"is_disabled":false,"rental_uris":{"android":"levelo://app?vid=9890f477-5bbe-4f57-9f77-3b2da0b78b68","ios":"levelo://app?vid=9890f477-5bbe-4f57-9f77-3b2da0b78b68"},"vehicle_type_id":"4","last_reported":1700939085,"current_range_meters":10000,"station_id":"ce4bhqh2rcd13ifvqhmg","pricing_plan_id":"free"},{"bike_id":"0fbf5b58-7ce4-4115-b285-fee12726188f","system_id":"levelo_inurba_marseille","lat":43.336182,"lon":5.410384,"is_reserved":false,"is_disabled":false,"rental_uris":{"android":"levelo://app?vid=0fbf5b58-7ce4-4115-b285-fee12726188f","ios":"levelo://app?vid=0fbf5b58-7ce4-4115-b285-fee12726188f"},"vehicle_type_id":"4","last_reported":1700939085,"current_range_meters":12400,"station_id":"ce4bhqh2rcd13ifvqhmg","pricing_plan_id":"free"},{"bike_id":"561d56c0-616a-4955-bd15-b0e0ddd3d6ba","system_id":"levelo_inurba_marseille","lat":43.279952,"lon":5.400085,"is_reserved":false,"is_disabled":false,"rental_uris":{"android":"levelo://app?vid=561d56c0-616a-4955-bd15-b0e0ddd3d6ba","ios":"levelo://app?vid=561d56c0-616a-4955-bd15-b0e0ddd3d6ba"},"vehicle_type_id":"4","last_reported":1700939085,"current_range_meters":30400,"station_id":"ce4bho92rcd13ifvqh4g","pricing_plan_id":"free"},{"bike_id":"60395232-e532-4f5a-ae3e-52a22da3b50f","system_id":"levelo_inurba_marseille","lat":43.3108,"lon":5.42432,"is_reserved":false,"is_disabled":false,"rental_uris":{"android":"levelo://app?vid=60395232-e532-4f5a-ae3e-52a22da3b50f","ios":"levelo://app?vid=60395232-e532-4f5a-ae3e-52a22da3b50f"},"vehicle_type_id":"4","last_reported":1700939085,"current_range_meters":6800,"station_id":"ce4bhp92rcd13ifvqhag","pricing_plan_id":"free"},{"bike_id":"0d2fdf3b-3e3c-4c40-a998-3277124b880b","system_id":"levelo_inurba_marseille","lat":43.310785,"lon":5.424305,"is_reserved":false,"is_disabled":false,"rental_uris":{"android":"levelo://app?vid=0d2fdf3b-3e3c-4c40-a998-3277124b880b","ios":"levelo://app?vid=0d2fdf3b-3e3c-4c40-a998-3277124b880b"},"vehicle_type_id":"4","last_reported":1700939085,"current_range_meters":8800,"station_id":"ce4bhp92rcd13ifvqhag","pricing_plan_id":"free"},{"bike_id":"5129acc1-7977-4d29-8689-fece97171c5b","system_id":"levelo_inurba_marseille","lat":43.310785,"lon":5.424305,"is_reserved":false,"is_disabled":false,"rental_uris":{"android":"levelo://app?vid=5129acc1-7977-4d29-8689-fece97171c5b","ios":"levelo://app?vid=5129acc1-7977-4d29-8689-fece97171c5b"},"vehicle_type_id":"4","last_reported":1700939085,"current_range_meters":31600,"station_id":"ce4bhp92rcd13ifvqhag","pricing_plan_id":"free"},{"bike_id":"91f50619-8d3b-4ed7-89b6-0047eb5d1550","system_id":"levelo_inurba_marseille","lat":43.304096,"lon":5.425385,"is_reserved":false,"is_disabled":false,"rental_uris":{"android":"levelo://app?vid=91f50619-8d3b-4ed7-89b6-0047eb5d1550","ios":"levelo://app?vid=91f50619-8d3b-4ed7-89b6-0047eb5d1550"},"vehicle_type_id":"4","last_reported":1700939085,"current_range_meters":8400,"station_id":"ce4bhoh2rcd13ifvqh6g","pricing_plan_id":"free"},{"bike_id":"58a74f2c-3205-4aed-bf2c-a4151057b68d","system_id":"levelo_inurba_marseille","lat":43.295523,"lon":5.422926,"is_reserved":false,"is_disabled":false,"rental_uris":{"android":"levelo://app?vid=58a74f2c-3205-4aed-bf2c-a4151057b68d","ios":"levelo://app?vid=58a74f2c-3205-4aed-bf2c-a4151057b68d"},"vehicle_type_id":"4","last_reported":1700939085,"current_range_meters":23600,"station_id":"ce4bhph2rcd13ifvqhdg","pricing_plan_id":"free"},{"bike_id":"0c5fe61a-15d7-4bdf-8560-e838ed8fc746","system_id":"levelo_inurba_marseille","lat":43.295511,"lon":5.422926,"is_reserved":false,"is_disabled":false,"rental_uris":{"android":"levelo://app?vid=0c5fe61a-15d7-4bdf-8560-e838ed8fc746","ios":"levelo://app?vid=0c5fe61a-15d7-4bdf-8560-e838ed8fc746"},"vehicle_type_id":"4","last_reported":1700939085,"current_range_meters":10400,"station_id":"ce4bhph2rcd13ifvqhdg","pricing_plan_id":"free"},{"bike_id":"098afb58-8b3e-4210-b260-2732460ef706","system_id":"levelo_inurba_marseille","lat":43.272124,"lon":5.391768,"is_reserved":false,"is_disabled":false,"rental_uris":{"android":"levelo://app?vid=098afb58-8b3e-4210-b260-2732460ef706","ios":"levelo://app?vid=098afb58-8b3e-4210-b260-2732460ef706"},"vehicle_type_id":"4","last_reported":1700939085,"current_range_meters":17200,"station_id":"ce4bhhp2rcd13ifvqfm0","pricing_plan_id":"free"},{"bike_id":"f3f75a82-6655-436f-bf27-30af7fda7b8f","system_id":"levelo_inurba_marseille","lat":43.269319,"lon":5.389397,"is_reserved":false,"is_disabled":false,"rental_uris":{"android":"levelo://app?vid=f3f75a82-6655-436f-bf27-30af7fda7b8f","ios":"levelo://app?vid=f3f75a82-6655-436f-bf27-30af7fda7b8f"},"vehicle_type_id":"4","last_reported":1700939085,"current_range_meters":23200,"station_id":"ce4bhhh2rcd13ifvqfl0","pricing_plan_id":"free"},{"bike_id":"c591508b-2bf7-4387-a3c0-15fe16ce7efe","system_id":"levelo_inurba_marseille","lat":43.26681,"lon":5.382694,"is_reserved":false,"is_disabled":false,"rental_uris":{"android":"levelo://app?vid=c591508b-2bf7-4387-a3c0-15fe16ce7efe","ios":"levelo://app?vid=c591508b-2bf7-4387-a3c0-15fe16ce7efe"},"vehicle_type_id":"4","last_reported":1700939085,"current_range_meters":19600,"station_id":"ce4bhg92rcd13ifvqf90","pricing_plan_id":"free"},{"bike_id":"f23d8119-b478-4639-98c5-6883279f9f84","system_id":"levelo_inurba_marseille","lat":43.32592,"lon":5.43067,"is_reserved":false,"is_disabled":false,"rental_uris":{"android":"levelo://app?vid=f23d8119-b478-4639-98c5-6883279f9f84","ios":"levelo://app?vid=f23d8119-b478-4639-98c5-6883279f9f84"},"vehicle_type_id":"4","last_reported":1700939085,"current_range_meters":25600,"station_id":"","pricing_plan_id":"free"},{"bike_id":"e7b368e8-9edf-4ac8-acef-7e9558d427aa","system_id":"levelo_inurba_marseille","lat":43.32591,"lon":5.430713,"is_reserved":false,"is_disabled":false,"rental_uris":{"android":"levelo://app?vid=e7b368e8-9edf-4ac8-acef-7e9558d427aa","ios":"levelo://app?vid=e7b368e8-9edf-4ac8-acef-7e9558d427aa"},"vehicle_type_id":"4","last_reported":1700939085,"current_range_meters":0,"station_id":"","pricing_plan_id":"free"},{"bike_id":"ed30d6a1-b23a-49e5-9c83-5546be72a734","system_id":"levelo_inurba_marseille","lat":43.3259,"lon":5.43075,"is_reserved":false,"is_disabled":false,"rental_uris":{"android":"levelo://app?vid=ed30d6a1-b23a-49e5-9c83-5546be72a734","ios":"levelo://app?vid=ed30d6a1-b23a-49e5-9c83-5546be72a734"},"vehicle_type_id":"4","last_reported":1700939085,"current_range_meters":20400,"station_id":"","pricing_plan_id":"free"},{"bike_id":"d67469ee-5362-4610-a163-fe05ae3cf4f7","system_id":"levelo_inurba_marseille","lat":43.32604,"lon":5.430817,"is_reserved":false,"is_disabled":false,"rental_uris":{"android":"levelo://app?vid=d67469ee-5362-4610-a163-fe05ae3cf4f7","ios":"levelo://app?vid=d67469ee-5362-4610-a163-fe05ae3cf4f7"},"vehicle_type_id":"4","last_reported":1700939085,"current_range_meters":8800,"station_id":"","pricing_plan_id":"free"},{"bike_id":"97e80021-871f-43cf-ad8e-99b17a254f61","system_id":"levelo_inurba_marseille","lat":43.27996,"lon":5.416624,"is_reserved":false,"is_disabled":false,"rental_uris":{"android":"levelo://app?vid=97e80021-871f-43cf-ad8e-99b17a254f61","ios":"levelo://app?vid=97e80021-871f-43cf-ad8e-99b17a254f61"},"vehicle_type_id":"4","last_reported":1700939085,"current_range_meters":0,"station_id":"ce4bho12rcd13ifvqh1g","pricing_plan_id":"free"},{"bike_id":"2b5f0b27-ae58-4e9e-bd76-c585f78e8a73","system_id":"levelo_inurba_marseille","lat":43.26386,"lon":5.37454,"is_reserved":false,"is_disabled":false,"rental_uris":{"android":"levelo://app?vid=2b5f0b27-ae58-4e9e-bd76-c585f78e8a73","ios":"levelo://app?vid=2b5f0b27-ae58-4e9e-bd76-c585f78e8a73"},"vehicle_type_id":"4","last_reported":1700939085,"current_range_meters":10000,"station_id":"","pricing_plan_id":"free"},{"bike_id":"9db8f32c-9221-4773-ac4a-ae648888acd4","system_id":"levelo_inurba_marseille","lat":43.26941,"lon":5.40258,"is_reserved":false,"is_disabled":false,"rental_uris":{"android":"levelo://app?vid=9db8f32c-9221-4773-ac4a-ae648888acd4","ios":"levelo://app?vid=9db8f32c-9221-4773-ac4a-ae648888acd4"},"vehicle_type_id":"4","last_reported":1700939085,"current_range_meters":22400,"station_id":"cjm6bp8fraef2m0cb0m0","pricing_plan_id":"free"},{"bike_id":"a557bc3e-6255-419b-8a70-ddf4b9c79f66","system_id":"levelo_inurba_marseille","lat":43.317104,"lon":5.436818,"is_reserved":false,"is_disabled":false,"rental_uris":{"android":"levelo://app?vid=a557bc3e-6255-419b-8a70-ddf4b9c79f66","ios":"levelo://app?vid=a557bc3e-6255-419b-8a70-ddf4b9c79f66"},"vehicle_type_id":"4","last_reported":1700939085,"current_range_meters":2800,"station_id":"ce4bhp92rcd13ifvqhcg","pricing_plan_id":"free"},{"bike_id":"1a0511eb-9e33-461b-89a6-4ba2f1f430d7","system_id":"levelo_inurba_marseille","lat":43.317104,"lon":5.436818,"is_reserved":false,"is_disabled":false,"rental_uris":{"android":"levelo://app?vid=1a0511eb-9e33-461b-89a6-4ba2f1f430d7","ios":"levelo://app?vid=1a0511eb-9e33-461b-89a6-4ba2f1f430d7"},"vehicle_type_id":"4","last_reported":1700939085,"current_range_meters":18000,"station_id":"ce4bhp92rcd13ifvqhcg","pricing_plan_id":"free"},{"bike_id":"7f6bc14c-609a-459f-ad90-3c8e55a66b7b","system_id":"levelo_inurba_marseille","lat":43.317104,"lon":5.436818,"is_reserved":false,"is_disabled":false,"rental_uris":{"android":"levelo://app?vid=7f6bc14c-609a-459f-ad90-3c8e55a66b7b","ios":"levelo://app?vid=7f6bc14c-609a-459f-ad90-3c8e55a66b7b"},"vehicle_type_id":"4","last_reported":1700939085,"current_range_meters":12000,"station_id":"ce4bhp92rcd13ifvqhcg","pricing_plan_id":"free"},{"bike_id":"ec593df7-85d2-4a7c-a892-75fec147bf75","system_id":"levelo_inurba_marseille","lat":43.317104,"lon":5.436818,"is_reserved":false,"is_disabled":false,"rental_uris":{"android":"levelo://app?vid=ec593df7-85d2-4a7c-a892-75fec147bf75","ios":"levelo://app?vid=ec593df7-85d2-4a7c-a892-75fec147bf75"},"vehicle_type_id":"4","last_reported":1700939085,"current_range_meters":800,"station_id":"ce4bhp92rcd13ifvqhcg","pricing_plan_id":"free"},{"bike_id":"345d3c3d-5215-44d7-a610-0848b0e8b817","system_id":"levelo_inurba_marseille","lat":43.317104,"lon":5.436818,"is_reserved":false,"is_disabled":false,"rental_uris":{"android":"levelo://app?vid=345d3c3d-5215-44d7-a610-0848b0e8b817","ios":"levelo://app?vid=345d3c3d-5215-44d7-a610-0848b0e8b817"},"vehicle_type_id":"4","last_reported":1700939085,"current_range_meters":4000,"station_id":"ce4bhp92rcd13ifvqhcg","pricing_plan_id":"free"},{"bike_id":"55861d20-03e8-4416-8d73-55fb2140610b","system_id":"levelo_inurba_marseille","lat":43.317104,"lon":5.436818,"is_reserved":false,"is_disabled":false,"rental_uris":{"android":"levelo://app?vid=55861d20-03e8-4416-8d73-55fb2140610b","ios":"levelo://app?vid=55861d20-03e8-4416-8d73-55fb2140610b"},"vehicle_type_id":"4","last_reported":1700939085,"current_range_meters":26000,"station_id":"ce4bhp92rcd13ifvqhcg","pricing_plan_id":"free"},{"bike_id":"22f3147d-5b3f-4ae9-9e18-cceefc4cd910","system_id":"levelo_inurba_marseille","lat":43.271388,"lon":5.409269,"is_reserved":false,"is_disabled":false,"rental_uris":{"android":"levelo://app?vid=22f3147d-5b3f-4ae9-9e18-cceefc4cd910","ios":"levelo://app?vid=22f3147d-5b3f-4ae9-9e18-cceefc4cd910"},"vehicle_type_id":"4","last_reported":1700939085,"current_range_meters":6400,"station_id":"ce4bhl12rcd13ifvqgf0","pricing_plan_id":"free"},{"bike_id":"80547084-53ce-4ff4-862e-c082056176bc","system_id":"levelo_inurba_marseille","lat":43.271368,"lon":5.40928,"is_reserved":false,"is_disabled":false,"rental_uris":{"android":"levelo://app?vid=80547084-53ce-4ff4-862e-c082056176bc","ios":"levelo://app?vid=80547084-53ce-4ff4-862e-c082056176bc"},"vehicle_type_id":"4","last_reported":1700939085,"current_range_meters":24400,"station_id":"ce4bhl12rcd13ifvqgf0","pricing_plan_id":"free"},{"bike_id":"d33ff373-472b-4acc-9928-25c5b0a30ee3","system_id":"levelo_inurba_marseille","lat":43.271368,"lon":5.40928,"is_reserved":false,"is_disabled":false,"rental_uris":{"android":"levelo://app?vid=d33ff373-472b-4acc-9928-25c5b0a30ee3","ios":"levelo://app?vid=d33ff373-472b-4acc-9928-25c5b0a30ee3"},"vehicle_type_id":"4","last_reported":1700939085,"current_range_meters":28400,"station_id":"ce4bhl12rcd13ifvqgf0","pricing_plan_id":"free"},{"bike_id":"dbf62bfb-d43b-46dc-b301-0e9e00d707fe","system_id":"levelo_inurba_marseille","lat":43.261751,"lon":5.379009,"is_reserved":false,"is_disabled":false,"rental_uris":{"android":"levelo://app?vid=dbf62bfb-d43b-46dc-b301-0e9e00d707fe","ios":"levelo://app?vid=dbf62bfb-d43b-46dc-b301-0e9e00d707fe"},"vehicle_type_id":"4","last_reported":1700939085,"current_range_meters":27600,"station_id":"ce4bhjp2rcd13ifvqg90","pricing_plan_id":"free"},{"bike_id":"d24921c1-8c61-4b91-941a-2e11a6ed2b73","system_id":"levelo_inurba_marseille","lat":43.29896,"lon":5.43651,"is_reserved":false,"is_disabled":false,"rental_uris":{"android":"levelo://app?vid=d24921c1-8c61-4b91-941a-2e11a6ed2b73","ios":"levelo://app?vid=d24921c1-8c61-4b91-941a-2e11a6ed2b73"},"vehicle_type_id":"4","last_reported":1700939085,"current_range_meters":10000,"station_id":"ce4bhpp2rcd13ifvqhfg","pricing_plan_id":"free"},{"bike_id":"7c5a83ac-336c-4b91-a5ea-82b3c6d6127d","system_id":"levelo_inurba_marseille","lat":43.298768,"lon":5.43643,"is_reserved":false,"is_disabled":false,"rental_uris":{"android":"levelo://app?vid=7c5a83ac-336c-4b91-a5ea-82b3c6d6127d","ios":"levelo://app?vid=7c5a83ac-336c-4b91-a5ea-82b3c6d6127d"},"vehicle_type_id":"4","last_reported":1700939085,"current_range_meters":31200,"station_id":"ce4bhpp2rcd13ifvqhfg","pricing_plan_id":"free"},{"bike_id":"8af0d2ed-93d1-485d-9803-40c71e52d0d9","system_id":"levelo_inurba_marseille","lat":43.29901,"lon":5.43672,"is_reserved":false,"is_disabled":false,"rental_uris":{"android":"levelo://app?vid=8af0d2ed-93d1-485d-9803-40c71e52d0d9","ios":"levelo://app?vid=8af0d2ed-93d1-485d-9803-40c71e52d0d9"},"vehicle_type_id":"4","last_reported":1700939085,"current_range_meters":12400,"station_id":"ce4bhpp2rcd13ifvqhfg","pricing_plan_id":"free"},{"bike_id":"b411f88a-5fa4-416f-847f-1bea67e59ece","system_id":"levelo_inurba_marseille","lat":43.298768,"lon":5.43643,"is_reserved":false,"is_disabled":false,"rental_uris":{"android":"levelo://app?vid=b411f88a-5fa4-416f-847f-1bea67e59ece","ios":"levelo://app?vid=b411f88a-5fa4-416f-847f-1bea67e59ece"},"vehicle_type_id":"4","last_reported":1700939085,"current_range_meters":26800,"station_id":"ce4bhpp2rcd13ifvqhfg","pricing_plan_id":"free"},{"bike_id":"372a56a6-b97f-4070-a187-8525964b44f5","system_id":"levelo_inurba_marseille","lat":43.260225,"lon":5.375455,"is_reserved":false,"is_disabled":false,"rental_uris":{"android":"levelo://app?vid=372a56a6-b97f-4070-a187-8525964b44f5","ios":"levelo://app?vid=372a56a6-b97f-4070-a187-8525964b44f5"},"vehicle_type_id":"4","last_reported":1700939085,"current_range_meters":9600,"station_id":"ce4bhgh2rcd13ifvqfa0","pricing_plan_id":"free"},{"bike_id":"cc1db4d9-f555-4a27-b0a8-6fca1c0b1288","system_id":"levelo_inurba_marseille","lat":43.260225,"lon":5.375455,"is_reserved":false,"is_disabled":false,"rental_uris":{"android":"levelo://app?vid=cc1db4d9-f555-4a27-b0a8-6fca1c0b1288","ios":"levelo://app?vid=cc1db4d9-f555-4a27-b0a8-6fca1c0b1288"},"vehicle_type_id":"4","last_reported":1700939085,"current_range_meters":24400,"station_id":"ce4bhgh2rcd13ifvqfa0","pricing_plan_id":"free"},{"bike_id":"6c9de495-5a95-4849-9083-067e994909fa","system_id":"levelo_inurba_marseille","lat":43.2607,"lon":5.393983,"is_reserved":false,"is_disabled":false,"rental_uris":{"android":"levelo://app?vid=6c9de495-5a95-4849-9083-067e994909fa","ios":"levelo://app?vid=6c9de495-5a95-4849-9083-067e994909fa"},"vehicle_type_id":"4","last_reported":1700939085,"current_range_meters":9200,"station_id":"ce4bhh92rcd13ifvqfj0","pricing_plan_id":"free"},{"bike_id":"aa77a12d-deb1-4b11-9269-c127b15cd19b","system_id":"levelo_inurba_marseille","lat":43.26104,"lon":5.39765,"is_reserved":false,"is_disabled":false,"rental_uris":{"android":"levelo://app?vid=aa77a12d-deb1-4b11-9269-c127b15cd19b","ios":"levelo://app?vid=aa77a12d-deb1-4b11-9269-c127b15cd19b"},"vehicle_type_id":"4","last_reported":1700939085,"current_range_meters":25200,"station_id":"ce4bhi12rcd13ifvqfq0","pricing_plan_id":"free"},{"bike_id":"c85f7616-3a9e-47a4-ae16-28a03e51ab4f","system_id":"levelo_inurba_marseille","lat":43.289324,"lon":5.438665,"is_reserved":false,"is_disabled":false,"rental_uris":{"android":"levelo://app?vid=c85f7616-3a9e-47a4-ae16-28a03e51ab4f","ios":"levelo://app?vid=c85f7616-3a9e-47a4-ae16-28a03e51ab4f"},"vehicle_type_id":"4","last_reported":1700939085,"current_range_meters":6800,"station_id":"","pricing_plan_id":"free"},{"bike_id":"2ffdcd9f-3493-4985-b831-2d43c5ba0dd3","system_id":"levelo_inurba_marseille","lat":43.25583,"lon":5.38235,"is_reserved":false,"is_disabled":false,"rental_uris":{"android":"levelo://app?vid=2ffdcd9f-3493-4985-b831-2d43c5ba0dd3","ios":"levelo://app?vid=2ffdcd9f-3493-4985-b831-2d43c5ba0dd3"},"vehicle_type_id":"4","last_reported":1700939085,"current_range_meters":0,"station_id":"ce4bhih2rcd13ifvqfs0","pricing_plan_id":"free"},{"bike_id":"0a00c029-d623-4912-ae35-fdb6b32b0399","system_id":"levelo_inurba_marseille","lat":43.258224,"lon":5.394369,"is_reserved":false,"is_disabled":false,"rental_uris":{"android":"levelo://app?vid=0a00c029-d623-4912-ae35-fdb6b32b0399","ios":"levelo://app?vid=0a00c029-d623-4912-ae35-fdb6b32b0399"},"vehicle_type_id":"4","last_reported":1700939085,"current_range_meters":30000,"station_id":"ce4bhip2rcd13ifvqft0","pricing_plan_id":"free"},{"bike_id":"fab89978-062b-4dbd-b11c-d8e5cf6e9286","system_id":"levelo_inurba_marseille","lat":43.258224,"lon":5.394369,"is_reserved":false,"is_disabled":false,"rental_uris":{"android":"levelo://app?vid=fab89978-062b-4dbd-b11c-d8e5cf6e9286","ios":"levelo://app?vid=fab89978-062b-4dbd-b11c-d8e5cf6e9286"},"vehicle_type_id":"4","last_reported":1700939085,"current_range_meters":30400,"station_id":"ce4bhip2rcd13ifvqft0","pricing_plan_id":"free"},{"bike_id":"6fedcaae-4f6b-4e12-a8b8-099be54de571","system_id":"levelo_inurba_marseille","lat":43.270721,"lon":5.422764,"is_reserved":false,"is_disabled":false,"rental_uris":{"android":"levelo://app?vid=6fedcaae-4f6b-4e12-a8b8-099be54de571","ios":"levelo://app?vid=6fedcaae-4f6b-4e12-a8b8-099be54de571"},"vehicle_type_id":"4","last_reported":1700939085,"current_range_meters":29600,"station_id":"ce4bhk92rcd13ifvqgb0","pricing_plan_id":"free"},{"bike_id":"e06a8c78-4d48-491c-8072-84514714cbe8","system_id":"levelo_inurba_marseille","lat":43.270721,"lon":5.422764,"is_reserved":false,"is_disabled":false,"rental_uris":{"android":"levelo://app?vid=e06a8c78-4d48-491c-8072-84514714cbe8","ios":"levelo://app?vid=e06a8c78-4d48-491c-8072-84514714cbe8"},"vehicle_type_id":"4","last_reported":1700939085,"current_range_meters":31200,"station_id":"ce4bhk92rcd13ifvqgb0","pricing_plan_id":"free"},{"bike_id":"d26b91b0-7080-4c02-baa9-575cb32ac54a","system_id":"levelo_inurba_marseille","lat":43.258658,"lon":5.398935,"is_reserved":false,"is_disabled":false,"rental_uris":{"android":"levelo://app?vid=d26b91b0-7080-4c02-baa9-575cb32ac54a","ios":"levelo://app?vid=d26b91b0-7080-4c02-baa9-575cb32ac54a"},"vehicle_type_id":"4","last_reported":1700939085,"current_range_meters":4000,"station_id":"ce4bhl92rcd13ifvqghg","pricing_plan_id":"free"},{"bike_id":"e99dc85c-871d-4a4f-8f28-998ed8a7752f","system_id":"levelo_inurba_marseille","lat":43.258658,"lon":5.398935,"is_reserved":false,"is_disabled":false,"rental_uris":{"android":"levelo://app?vid=e99dc85c-871d-4a4f-8f28-998ed8a7752f","ios":"levelo://app?vid=e99dc85c-871d-4a4f-8f28-998ed8a7752f"},"vehicle_type_id":"4","last_reported":1700939085,"current_range_meters":11600,"station_id":"ce4bhl92rcd13ifvqghg","pricing_plan_id":"free"},{"bike_id":"8b6e2a1b-c4f1-43f8-ad2c-fdfaa77fc447","system_id":"levelo_inurba_marseille","lat":43.257079,"lon":5.411051,"is_reserved":false,"is_disabled":false,"rental_uris":{"android":"levelo://app?vid=8b6e2a1b-c4f1-43f8-ad2c-fdfaa77fc447","ios":"levelo://app?vid=8b6e2a1b-c4f1-43f8-ad2c-fdfaa77fc447"},"vehicle_type_id":"4","last_reported":1700939085,"current_range_meters":19200,"station_id":"ce4bhkp2rcd13ifvqgd0","pricing_plan_id":"free"},{"bike_id":"76f36148-5dd9-400b-baa8-9aa3b229b966","system_id":"levelo_inurba_marseille","lat":43.250009,"lon":5.389195,"is_reserved":false,"is_disabled":false,"rental_uris":{"android":"levelo://app?vid=76f36148-5dd9-400b-baa8-9aa3b229b966","ios":"levelo://app?vid=76f36148-5dd9-400b-baa8-9aa3b229b966"},"vehicle_type_id":"4","last_reported":1700939085,"current_range_meters":28800,"station_id":"ce4bhgp2rcd13ifvqfd0","pricing_plan_id":"free"},{"bike_id":"c1f5b93e-9ddc-4ee6-9d4c-a11cbe8f3706","system_id":"levelo_inurba_marseille","lat":43.250023,"lon":5.38919,"is_reserved":false,"is_disabled":false,"rental_uris":{"android":"levelo://app?vid=c1f5b93e-9ddc-4ee6-9d4c-a11cbe8f3706","ios":"levelo://app?vid=c1f5b93e-9ddc-4ee6-9d4c-a11cbe8f3706"},"vehicle_type_id":"4","last_reported":1700939085,"current_range_meters":24400,"station_id":"ce4bhgp2rcd13ifvqfd0","pricing_plan_id":"free"},{"bike_id":"244029a1-2b80-446a-98fa-9940caf87526","system_id":"levelo_inurba_marseille","lat":43.2479,"lon":5.374457,"is_reserved":false,"is_disabled":false,"rental_uris":{"android":"levelo://app?vid=244029a1-2b80-446a-98fa-9940caf87526","ios":"levelo://app?vid=244029a1-2b80-446a-98fa-9940caf87526"},"vehicle_type_id":"4","last_reported":1700939085,"current_range_meters":28800,"station_id":"ce4bhgh2rcd13ifvqfb0","pricing_plan_id":"free"},{"bike_id":"02d75adc-1043-49bf-8a92-cc2e66fe63fc","system_id":"levelo_inurba_marseille","lat":43.24806,"lon":5.37459,"is_reserved":false,"is_disabled":false,"rental_uris":{"android":"levelo://app?vid=02d75adc-1043-49bf-8a92-cc2e66fe63fc","ios":"levelo://app?vid=02d75adc-1043-49bf-8a92-cc2e66fe63fc"},"vehicle_type_id":"4","last_reported":1700939085,"current_range_meters":12800,"station_id":"ce4bhgh2rcd13ifvqfb0","pricing_plan_id":"free"},{"bike_id":"4718b3d7-4847-4237-a22f-3d52e449c36d","system_id":"levelo_inurba_marseille","lat":43.250897,"lon":5.395161,"is_reserved":false,"is_disabled":false,"rental_uris":{"android":"levelo://app?vid=4718b3d7-4847-4237-a22f-3d52e449c36d","ios":"levelo://app?vid=4718b3d7-4847-4237-a22f-3d52e449c36d"},"vehicle_type_id":"4","last_reported":1700939085,"current_range_meters":27200,"station_id":"ce4bhm12rcd13ifvqgkg","pricing_plan_id":"free"},{"bike_id":"4e22f755-9fb8-454a-aed8-0ce31691dc80","system_id":"levelo_inurba_marseille","lat":43.2473,"lon":5.37395,"is_reserved":false,"is_disabled":false,"rental_uris":{"android":"levelo://app?vid=4e22f755-9fb8-454a-aed8-0ce31691dc80","ios":"levelo://app?vid=4e22f755-9fb8-454a-aed8-0ce31691dc80"},"vehicle_type_id":"4","last_reported":1700939085,"current_range_meters":18400,"station_id":"","pricing_plan_id":"free"},{"bike_id":"0317d6ae-40ea-485c-8ac1-17cc21825d16","system_id":"levelo_inurba_marseille","lat":43.24693,"lon":5.382096,"is_reserved":false,"is_disabled":false,"rental_uris":{"android":"levelo://app?vid=0317d6ae-40ea-485c-8ac1-17cc21825d16","ios":"levelo://app?vid=0317d6ae-40ea-485c-8ac1-17cc21825d16"},"vehicle_type_id":"4","last_reported":1700939085,"current_range_meters":28400,"station_id":"ce4bhih2rcd13ifvqfr0","pricing_plan_id":"free"},{"bike_id":"2645cd39-512e-4061-b025-45f27893a23b","system_id":"levelo_inurba_marseille","lat":43.24664,"lon":5.38155,"is_reserved":false,"is_disabled":false,"rental_uris":{"android":"levelo://app?vid=2645cd39-512e-4061-b025-45f27893a23b","ios":"levelo://app?vid=2645cd39-512e-4061-b025-45f27893a23b"},"vehicle_type_id":"4","last_reported":1700939085,"current_range_meters":30400,"station_id":"ce4bhih2rcd13ifvqfr0","pricing_plan_id":"free"},{"bike_id":"9ed01af7-6a19-43f1-aec3-e36b032e276c","system_id":"levelo_inurba_marseille","lat":43.24693,"lon":5.382096,"is_reserved":false,"is_disabled":false,"rental_uris":{"android":"levelo://app?vid=9ed01af7-6a19-43f1-aec3-e36b032e276c","ios":"levelo://app?vid=9ed01af7-6a19-43f1-aec3-e36b032e276c"},"vehicle_type_id":"4","last_reported":1700939085,"current_range_meters":30000,"station_id":"ce4bhih2rcd13ifvqfr0","pricing_plan_id":"free"},{"bike_id":"0c05ab02-3487-4f78-9bd6-e664a5c59f38","system_id":"levelo_inurba_marseille","lat":43.24659,"lon":5.38159,"is_reserved":false,"is_disabled":false,"rental_uris":{"android":"levelo://app?vid=0c05ab02-3487-4f78-9bd6-e664a5c59f38","ios":"levelo://app?vid=0c05ab02-3487-4f78-9bd6-e664a5c59f38"},"vehicle_type_id":"4","last_reported":1700939085,"current_range_meters":15600,"station_id":"ce4bhih2rcd13ifvqfr0","pricing_plan_id":"free"},{"bike_id":"890f1931-e5ec-4066-b5a7-0222afec386c","system_id":"levelo_inurba_marseille","lat":43.25102,"lon":5.403214,"is_reserved":false,"is_disabled":false,"rental_uris":{"android":"levelo://app?vid=890f1931-e5ec-4066-b5a7-0222afec386c","ios":"levelo://app?vid=890f1931-e5ec-4066-b5a7-0222afec386c"},"vehicle_type_id":"4","last_reported":1700939085,"current_range_meters":21200,"station_id":"ce4bhlh2rcd13ifvqgig","pricing_plan_id":"free"},{"bike_id":"4754d520-6d94-4ceb-b936-c49fc9af26ed","system_id":"levelo_inurba_marseille","lat":43.2511,"lon":5.40326,"is_reserved":false,"is_disabled":false,"rental_uris":{"android":"levelo://app?vid=4754d520-6d94-4ceb-b936-c49fc9af26ed","ios":"levelo://app?vid=4754d520-6d94-4ceb-b936-c49fc9af26ed"},"vehicle_type_id":"4","last_reported":1700939085,"current_range_meters":0,"station_id":"ce4bhlh2rcd13ifvqgig","pricing_plan_id":"free"},{"bike_id":"1f088b2a-bd00-4ce5-b39c-c0f45ad5c1e2","system_id":"levelo_inurba_marseille","lat":43.246467,"lon":5.388984,"is_reserved":false,"is_disabled":false,"rental_uris":{"android":"levelo://app?vid=1f088b2a-bd00-4ce5-b39c-c0f45ad5c1e2","ios":"levelo://app?vid=1f088b2a-bd00-4ce5-b39c-c0f45ad5c1e2"},"vehicle_type_id":"4","last_reported":1700939085,"current_range_meters":14800,"station_id":"ce4bhg12rcd13ifvqf60","pricing_plan_id":"free"},{"bike_id":"16cbc471-e842-49b7-be91-1309994883e2","system_id":"levelo_inurba_marseille","lat":43.246432,"lon":5.388972,"is_reserved":false,"is_disabled":false,"rental_uris":{"android":"levelo://app?vid=16cbc471-e842-49b7-be91-1309994883e2","ios":"levelo://app?vid=16cbc471-e842-49b7-be91-1309994883e2"},"vehicle_type_id":"4","last_reported":1700939085,"current_range_meters":24400,"station_id":"ce4bhg12rcd13ifvqf60","pricing_plan_id":"free"},{"bike_id":"cc04dfcb-5bc4-482d-bd7c-dbab351ae3b2","system_id":"levelo_inurba_marseille","lat":43.243884,"lon":5.370737,"is_reserved":false,"is_disabled":false,"rental_uris":{"android":"levelo://app?vid=cc04dfcb-5bc4-482d-bd7c-dbab351ae3b2","ios":"levelo://app?vid=cc04dfcb-5bc4-482d-bd7c-dbab351ae3b2"},"vehicle_type_id":"4","last_reported":1700939085,"current_range_meters":24800,"station_id":"ce4bhhh2rcd13ifvqfk0","pricing_plan_id":"free"},{"bike_id":"7bed99d9-4e0c-4f40-9819-196a0a911f92","system_id":"levelo_inurba_marseille","lat":43.243884,"lon":5.370736,"is_reserved":false,"is_disabled":false,"rental_uris":{"android":"levelo://app?vid=7bed99d9-4e0c-4f40-9819-196a0a911f92","ios":"levelo://app?vid=7bed99d9-4e0c-4f40-9819-196a0a911f92"},"vehicle_type_id":"4","last_reported":1700939085,"current_range_meters":16400,"station_id":"ce4bhhh2rcd13ifvqfk0","pricing_plan_id":"free"},{"bike_id":"39002252-3a4e-4851-b9f4-40e7bda57747","system_id":"levelo_inurba_marseille","lat":43.245581,"lon":5.395069,"is_reserved":false,"is_disabled":false,"rental_uris":{"android":"levelo://app?vid=39002252-3a4e-4851-b9f4-40e7bda57747","ios":"levelo://app?vid=39002252-3a4e-4851-b9f4-40e7bda57747"},"vehicle_type_id":"4","last_reported":1700939085,"current_range_meters":7600,"station_id":"ce4bhlp2rcd13ifvqgjg","pricing_plan_id":"free"},{"bike_id":"f208a7fe-6a06-4894-b966-a0fabce96d98","system_id":"levelo_inurba_marseille","lat":43.245581,"lon":5.395069,"is_reserved":false,"is_disabled":false,"rental_uris":{"android":"levelo://app?vid=f208a7fe-6a06-4894-b966-a0fabce96d98","ios":"levelo://app?vid=f208a7fe-6a06-4894-b966-a0fabce96d98"},"vehicle_type_id":"4","last_reported":1700939085,"current_range_meters":32000,"station_id":"ce4bhlp2rcd13ifvqgjg","pricing_plan_id":"free"},{"bike_id":"5e44c71a-47d0-4387-9d16-f6c8f80e2099","system_id":"levelo_inurba_marseille","lat":43.245581,"lon":5.395069,"is_reserved":false,"is_disabled":false,"rental_uris":{"android":"levelo://app?vid=5e44c71a-47d0-4387-9d16-f6c8f80e2099","ios":"levelo://app?vid=5e44c71a-47d0-4387-9d16-f6c8f80e2099"},"vehicle_type_id":"4","last_reported":1700939085,"current_range_meters":28400,"station_id":"ce4bhlp2rcd13ifvqgjg","pricing_plan_id":"free"},{"bike_id":"0265b60e-d829-4d27-8cee-8f8a0b69f409","system_id":"levelo_inurba_marseille","lat":43.240764,"lon":5.377558,"is_reserved":false,"is_disabled":false,"rental_uris":{"android":"levelo://app?vid=0265b60e-d829-4d27-8cee-8f8a0b69f409","ios":"levelo://app?vid=0265b60e-d829-4d27-8cee-8f8a0b69f409"},"vehicle_type_id":"4","last_reported":1700939085,"current_range_meters":0,"station_id":"ce4bhnp2rcd13ifvqgvg","pricing_plan_id":"free"},{"bike_id":"ff01dbe1-223f-43a9-b0c6-51a5a8d2ed05","system_id":"levelo_inurba_marseille","lat":43.239588,"lon":5.366238,"is_reserved":false,"is_disabled":false,"rental_uris":{"android":"levelo://app?vid=ff01dbe1-223f-43a9-b0c6-51a5a8d2ed05","ios":"levelo://app?vid=ff01dbe1-223f-43a9-b0c6-51a5a8d2ed05"},"vehicle_type_id":"4","last_reported":1700939085,"current_range_meters":31200,"station_id":"ce4bhi12rcd13ifvqfp0","pricing_plan_id":"free"},{"bike_id":"a0e1f1d6-3f92-4eff-927c-9ca415b7ca93","system_id":"levelo_inurba_marseille","lat":43.23968,"lon":5.36633,"is_reserved":false,"is_disabled":false,"rental_uris":{"android":"levelo://app?vid=a0e1f1d6-3f92-4eff-927c-9ca415b7ca93","ios":"levelo://app?vid=a0e1f1d6-3f92-4eff-927c-9ca415b7ca93"},"vehicle_type_id":"4","last_reported":1700939085,"current_range_meters":5200,"station_id":"ce4bhi12rcd13ifvqfp0","pricing_plan_id":"free"},{"bike_id":"340ba89e-beb6-4edd-9f37-a6ad2b2c6a9c","system_id":"levelo_inurba_marseille","lat":43.239588,"lon":5.366238,"is_reserved":false,"is_disabled":false,"rental_uris":{"android":"levelo://app?vid=340ba89e-beb6-4edd-9f37-a6ad2b2c6a9c","ios":"levelo://app?vid=340ba89e-beb6-4edd-9f37-a6ad2b2c6a9c"},"vehicle_type_id":"4","last_reported":1700939085,"current_range_meters":13600,"station_id":"ce4bhi12rcd13ifvqfp0","pricing_plan_id":"free"},{"bike_id":"c8b0fc92-e06b-450c-b7d7-d6ab9ca59443","system_id":"levelo_inurba_marseille","lat":43.239666,"lon":5.366295,"is_reserved":false,"is_disabled":false,"rental_uris":{"android":"levelo://app?vid=c8b0fc92-e06b-450c-b7d7-d6ab9ca59443","ios":"levelo://app?vid=c8b0fc92-e06b-450c-b7d7-d6ab9ca59443"},"vehicle_type_id":"4","last_reported":1700939085,"current_range_meters":31200,"station_id":"ce4bhi12rcd13ifvqfp0","pricing_plan_id":"free"},{"bike_id":"2928aec4-a092-4b20-8697-2fcf599c9821","system_id":"levelo_inurba_marseille","lat":43.239588,"lon":5.366238,"is_reserved":false,"is_disabled":false,"rental_uris":{"android":"levelo://app?vid=2928aec4-a092-4b20-8697-2fcf599c9821","ios":"levelo://app?vid=2928aec4-a092-4b20-8697-2fcf599c9821"},"vehicle_type_id":"4","last_reported":1700939085,"current_range_meters":24800,"station_id":"ce4bhi12rcd13ifvqfp0","pricing_plan_id":"free"},{"bike_id":"9f9408e6-aa68-4285-81c8-741b34f2d379","system_id":"levelo_inurba_marseille","lat":43.239588,"lon":5.366238,"is_reserved":false,"is_disabled":false,"rental_uris":{"android":"levelo://app?vid=9f9408e6-aa68-4285-81c8-741b34f2d379","ios":"levelo://app?vid=9f9408e6-aa68-4285-81c8-741b34f2d379"},"vehicle_type_id":"4","last_reported":1700939085,"current_range_meters":18400,"station_id":"ce4bhi12rcd13ifvqfp0","pricing_plan_id":"free"},{"bike_id":"8ddc8e40-82e4-4cc6-90af-c119357648f0","system_id":"levelo_inurba_marseille","lat":43.239588,"lon":5.366238,"is_reserved":false,"is_disabled":false,"rental_uris":{"android":"levelo://app?vid=8ddc8e40-82e4-4cc6-90af-c119357648f0","ios":"levelo://app?vid=8ddc8e40-82e4-4cc6-90af-c119357648f0"},"vehicle_type_id":"4","last_reported":1700939085,"current_range_meters":24800,"station_id":"ce4bhi12rcd13ifvqfp0","pricing_plan_id":"free"},{"bike_id":"47e43998-06a7-44f6-a336-05874a757f9d","system_id":"levelo_inurba_marseille","lat":43.239588,"lon":5.366238,"is_reserved":false,"is_disabled":false,"rental_uris":{"android":"levelo://app?vid=47e43998-06a7-44f6-a336-05874a757f9d","ios":"levelo://app?vid=47e43998-06a7-44f6-a336-05874a757f9d"},"vehicle_type_id":"4","last_reported":1700939085,"current_range_meters":15600,"station_id":"ce4bhi12rcd13ifvqfp0","pricing_plan_id":"free"},{"bike_id":"a59a9f52-9d06-4b12-9392-cdd5f569c2ca","system_id":"levelo_inurba_marseille","lat":43.239626,"lon":5.366286,"is_reserved":false,"is_disabled":false,"rental_uris":{"android":"levelo://app?vid=a59a9f52-9d06-4b12-9392-cdd5f569c2ca","ios":"levelo://app?vid=a59a9f52-9d06-4b12-9392-cdd5f569c2ca"},"vehicle_type_id":"4","last_reported":1700939085,"current_range_meters":30000,"station_id":"ce4bhi12rcd13ifvqfp0","pricing_plan_id":"free"},{"bike_id":"fc6ccc5a-bc4d-4544-a669-27960c9fde66","system_id":"levelo_inurba_marseille","lat":43.239588,"lon":5.366238,"is_reserved":false,"is_disabled":false,"rental_uris":{"android":"levelo://app?vid=fc6ccc5a-bc4d-4544-a669-27960c9fde66","ios":"levelo://app?vid=fc6ccc5a-bc4d-4544-a669-27960c9fde66"},"vehicle_type_id":"4","last_reported":1700939085,"current_range_meters":18800,"station_id":"ce4bhi12rcd13ifvqfp0","pricing_plan_id":"free"},{"bike_id":"b3ffab4a-cf52-4b4f-9f0f-fcb873d0f038","system_id":"levelo_inurba_marseille","lat":43.239582,"lon":5.366305,"is_reserved":false,"is_disabled":false,"rental_uris":{"android":"levelo://app?vid=b3ffab4a-cf52-4b4f-9f0f-fcb873d0f038","ios":"levelo://app?vid=b3ffab4a-cf52-4b4f-9f0f-fcb873d0f038"},"vehicle_type_id":"4","last_reported":1700939085,"current_range_meters":30000,"station_id":"ce4bhi12rcd13ifvqfp0","pricing_plan_id":"free"},{"bike_id":"fb7be5a0-e980-436b-ac60-879a3e279215","system_id":"levelo_inurba_marseille","lat":43.239552,"lon":5.366324,"is_reserved":false,"is_disabled":false,"rental_uris":{"android":"levelo://app?vid=fb7be5a0-e980-436b-ac60-879a3e279215","ios":"levelo://app?vid=fb7be5a0-e980-436b-ac60-879a3e279215"},"vehicle_type_id":"4","last_reported":1700939085,"current_range_meters":23200,"station_id":"ce4bhi12rcd13ifvqfp0","pricing_plan_id":"free"},{"bike_id":"3a80e295-c002-4f0a-b7c9-49f35da52fbf","system_id":"levelo_inurba_marseille","lat":43.243884,"lon":5.370737,"is_reserved":false,"is_disabled":false,"rental_uris":{"android":"levelo://app?vid=3a80e295-c002-4f0a-b7c9-49f35da52fbf","ios":"levelo://app?vid=3a80e295-c002-4f0a-b7c9-49f35da52fbf"},"vehicle_type_id":"4","last_reported":1700939085,"current_range_meters":8800,"station_id":"ce4bhhh2rcd13ifvqfk0","pricing_plan_id":"free"},{"bike_id":"0a69e9f0-ff3f-403d-833e-5882675ed141","system_id":"levelo_inurba_marseille","lat":43.24183,"lon":5.39722,"is_reserved":false,"is_disabled":false,"rental_uris":{"android":"levelo://app?vid=0a69e9f0-ff3f-403d-833e-5882675ed141","ios":"levelo://app?vid=0a69e9f0-ff3f-403d-833e-5882675ed141"},"vehicle_type_id":"4","last_reported":1700939085,"current_range_meters":12400,"station_id":"ce4bhn12rcd13ifvqgpg","pricing_plan_id":"free"},{"bike_id":"0a349838-8936-442e-8a55-c173dbb54834","system_id":"levelo_inurba_marseille","lat":43.23202,"lon":5.35554,"is_reserved":false,"is_disabled":false,"rental_uris":{"android":"levelo://app?vid=0a349838-8936-442e-8a55-c173dbb54834","ios":"levelo://app?vid=0a349838-8936-442e-8a55-c173dbb54834"},"vehicle_type_id":"4","last_reported":1700939085,"current_range_meters":24800,"station_id":"ce4bhu92rcd13ifvqi70","pricing_plan_id":"free"},{"bike_id":"5bff0059-dd00-4b40-a553-4cfd62c8ce61","system_id":"levelo_inurba_marseille","lat":43.231923,"lon":5.355545,"is_reserved":false,"is_disabled":false,"rental_uris":{"android":"levelo://app?vid=5bff0059-dd00-4b40-a553-4cfd62c8ce61","ios":"levelo://app?vid=5bff0059-dd00-4b40-a553-4cfd62c8ce61"},"vehicle_type_id":"4","last_reported":1700939085,"current_range_meters":28000,"station_id":"ce4bhu92rcd13ifvqi70","pricing_plan_id":"free"},{"bike_id":"1e16dd2f-319e-42df-a632-08aaf736ca5f","system_id":"levelo_inurba_marseille","lat":43.231923,"lon":5.355545,"is_reserved":false,"is_disabled":false,"rental_uris":{"android":"levelo://app?vid=1e16dd2f-319e-42df-a632-08aaf736ca5f","ios":"levelo://app?vid=1e16dd2f-319e-42df-a632-08aaf736ca5f"},"vehicle_type_id":"4","last_reported":1700939085,"current_range_meters":17200,"station_id":"ce4bhu92rcd13ifvqi70","pricing_plan_id":"free"},{"bike_id":"dcc8f0d2-659c-44cb-9a1d-9d57ae623781","system_id":"levelo_inurba_marseille","lat":43.23194,"lon":5.35561,"is_reserved":false,"is_disabled":false,"rental_uris":{"android":"levelo://app?vid=dcc8f0d2-659c-44cb-9a1d-9d57ae623781","ios":"levelo://app?vid=dcc8f0d2-659c-44cb-9a1d-9d57ae623781"},"vehicle_type_id":"4","last_reported":1700939085,"current_range_meters":20000,"station_id":"ce4bhu92rcd13ifvqi70","pricing_plan_id":"free"},{"bike_id":"48217564-eee6-47a9-ae01-f8f1659e40db","system_id":"levelo_inurba_marseille","lat":43.231923,"lon":5.355545,"is_reserved":false,"is_disabled":false,"rental_uris":{"android":"levelo://app?vid=48217564-eee6-47a9-ae01-f8f1659e40db","ios":"levelo://app?vid=48217564-eee6-47a9-ae01-f8f1659e40db"},"vehicle_type_id":"4","last_reported":1700939085,"current_range_meters":32000,"station_id":"ce4bhu92rcd13ifvqi70","pricing_plan_id":"free"},{"bike_id":"76da77ba-a8a2-45d9-bea0-75d9631bba15","system_id":"levelo_inurba_marseille","lat":43.231923,"lon":5.355545,"is_reserved":false,"is_disabled":false,"rental_uris":{"android":"levelo://app?vid=76da77ba-a8a2-45d9-bea0-75d9631bba15","ios":"levelo://app?vid=76da77ba-a8a2-45d9-bea0-75d9631bba15"},"vehicle_type_id":"4","last_reported":1700939085,"current_range_meters":30400,"station_id":"ce4bhu92rcd13ifvqi70","pricing_plan_id":"free"},{"bike_id":"2c965575-bc91-4e3f-b6d2-1df5b195e3bf","system_id":"levelo_inurba_marseille","lat":43.2319,"lon":5.35559,"is_reserved":false,"is_disabled":false,"rental_uris":{"android":"levelo://app?vid=2c965575-bc91-4e3f-b6d2-1df5b195e3bf","ios":"levelo://app?vid=2c965575-bc91-4e3f-b6d2-1df5b195e3bf"},"vehicle_type_id":"4","last_reported":1700939085,"current_range_meters":20400,"station_id":"ce4bhu92rcd13ifvqi70","pricing_plan_id":"free"},{"bike_id":"582d113c-0c5f-4418-8125-8a8ab02fd7da","system_id":"levelo_inurba_marseille","lat":43.231927,"lon":5.399887,"is_reserved":false,"is_disabled":false,"rental_uris":{"android":"levelo://app?vid=582d113c-0c5f-4418-8125-8a8ab02fd7da","ios":"levelo://app?vid=582d113c-0c5f-4418-8125-8a8ab02fd7da"},"vehicle_type_id":"4","last_reported":1700939085,"current_range_meters":0,"station_id":"ce4bhn12rcd13ifvqgqg","pricing_plan_id":"free"},{"bike_id":"23a1829f-9a6c-49bf-9a74-ced5b141be40","system_id":"levelo_inurba_marseille","lat":43.237877,"lon":5.432225,"is_reserved":false,"is_disabled":false,"rental_uris":{"android":"levelo://app?vid=23a1829f-9a6c-49bf-9a74-ced5b141be40","ios":"levelo://app?vid=23a1829f-9a6c-49bf-9a74-ced5b141be40"},"vehicle_type_id":"4","last_reported":1700939085,"current_range_meters":1600,"station_id":"","pricing_plan_id":"free"},{"bike_id":"0508bfaa-dc89-4d6c-bd00-5fdfebdcd3d7","system_id":"levelo_inurba_marseille","lat":43.231562,"lon":5.436933,"is_reserved":false,"is_disabled":false,"rental_uris":{"android":"levelo://app?vid=0508bfaa-dc89-4d6c-bd00-5fdfebdcd3d7","ios":"levelo://app?vid=0508bfaa-dc89-4d6c-bd00-5fdfebdcd3d7"},"vehicle_type_id":"4","last_reported":1700939085,"current_range_meters":29200,"station_id":"ce4bhmp2rcd13ifvqgog","pricing_plan_id":"free"},{"bike_id":"9f5a8eea-995a-45d5-8a53-0f7fe9b11cc0","system_id":"levelo_inurba_marseille","lat":43.231562,"lon":5.436933,"is_reserved":false,"is_disabled":false,"rental_uris":{"android":"levelo://app?vid=9f5a8eea-995a-45d5-8a53-0f7fe9b11cc0","ios":"levelo://app?vid=9f5a8eea-995a-45d5-8a53-0f7fe9b11cc0"},"vehicle_type_id":"4","last_reported":1700939085,"current_range_meters":14400,"station_id":"ce4bhmp2rcd13ifvqgog","pricing_plan_id":"free"},{"bike_id":"fa6e6170-c6e0-4eea-ae59-68e940aa4abf","system_id":"levelo_inurba_marseille","lat":43.231562,"lon":5.436933,"is_reserved":false,"is_disabled":false,"rental_uris":{"android":"levelo://app?vid=fa6e6170-c6e0-4eea-ae59-68e940aa4abf","ios":"levelo://app?vid=fa6e6170-c6e0-4eea-ae59-68e940aa4abf"},"vehicle_type_id":"4","last_reported":1700939085,"current_range_meters":28000,"station_id":"ce4bhmp2rcd13ifvqgog","pricing_plan_id":"free"},{"bike_id":"cc2a9f89-2b4a-422c-9aac-e0b99b845eba","system_id":"levelo_inurba_marseille","lat":43.231562,"lon":5.436933,"is_reserved":false,"is_disabled":false,"rental_uris":{"android":"levelo://app?vid=cc2a9f89-2b4a-422c-9aac-e0b99b845eba","ios":"levelo://app?vid=cc2a9f89-2b4a-422c-9aac-e0b99b845eba"},"vehicle_type_id":"4","last_reported":1700939085,"current_range_meters":31200,"station_id":"ce4bhmp2rcd13ifvqgog","pricing_plan_id":"free"}]}}