{"last_updated":1752685968,"ttl":60,"version":"2.2","data":{"bikes":[{"bike_id":"53b742a7-31ae-4272-9bba-7740339e2a2f","system_id":"levelo_inurba_marseille","lat":43.33747,"lon":5.37463,"is_reserved":false,"is_disabled":false,"rental_uris":{"android":"levelo://app?vid=53b742a7-31ae-4272-9bba-7740339e2a2f","ios":"levelo://app?vid=53b742a7-31ae-4272-9bba-7740339e2a2f"},"vehicle_type_id":"1","last_reported":1752685968,"current_range_meters":28000,"station_id":"","pricing_plan_id":"cebpf4jnsgd1na2vs0mg"},{"bike_id":"7823603e-e185-4083-ae8b-7983c9f44ef6","system_id":"levelo_inurba_marseille","lat":43.2902,"lon":5.35605,"is_reserved":false,"is_disabled":false,"rental_uris":{"android":"levelo://app?vid=7823603e-e185-4083-ae8b-7983c9f44ef6","ios":"levelo://app?vid=7823603e-e185-4083-ae8b-7983c9f44ef6"},"vehicle_type_id":"4","last_reported":1752685968,"current_range_meters":2800,"station_id":"ce4bhb92rcd13ifvqen0","pricing_plan_id":"cebpf4jnsgd1na2vs0mg"},{"bike_id":"ecda0de5-ceed-4943-a98f-fbf15179b31b","system_id":"levelo_inurba_marseille","lat":43.28616,"lon":5.35108,"is_reserved":false,"is_disabled":false,"rental_uris":{"android":"levelo://app?vid=ecda0de5-ceed-4943-a98f-fbf15179b31b","ios":"levelo://app?vid=ecda0de5-ceed-4943-a98f-fbf15179b31b"},"vehicle_type_id":"4","last_reported":1752685968,"current_range_meters":2800,"station_id":"ce4bhch2rcd13ifvqeug","pricing_plan_id":"cebpf4jnsgd1na2vs0mg"},{"bike_id":"7369b721-15d3-47c3-bb47-7b9f0c923832","system_id":"levelo_inurba_marseille","lat":43.31723,"lon":5.43682,"is_reserved":false,"is_disabled":false,"rental_uris":{"android":"levelo://app?vid=7369b721-15d3-47c3-bb47-7b9f0c923832","ios":"levelo://app?vid=7369b721-15d3-47c3-bb47-7b9f0c923832"},"vehicle_type_id":"4","last_reported":1752685968,"current_range_meters":2800,"station_id":"ce4bhp92rcd13ifvqhcg","pricing_plan_id":"cebpf4jnsgd1na2vs0mg"},{"bike_id":"5f6e1cbd-dcd8-4205-89ed-a1beed7da717","system_id":"levelo_inurba_marseille","lat":43.29964,"lon":5.38494,"is_reserved":false,"is_disabled":false,"rental_uris":{"android":"levelo://app?vid=5f6e1cbd-dcd8-4205-89ed-a1beed7da717","ios":"levelo://app?vid=5f6e1cbd-dcd8-4205-89ed-a1beed7da717"},"vehicle_type_id":"4","last_reported":1752685968,"current_range_meters":2800,"station_id":"ce4bgj92rcd13ifvqbd0","pricing_plan_id":"cebpf4jnsgd1na2vs0mg"},{"bike_id":"0517f226-9c35-473e-b2c6-52179b326362","system_id":"levelo_inurba_marseille","lat":43.282639,"lon":5.350543,"is_reserved":false,"is_disabled":false,"rental_uris":{"android":"levelo://app?vid=0517f226-9c35-473e-b2c6-52179b326362","ios":"levelo://app?vid=0517f226-9c35-473e-b2c6-52179b326362"},"vehicle_type_id":"4","last_reported":1752685968,"current_range_meters":3200,"station_id":"","pricing_plan_id":"cebpf4jnsgd1na2vs0mg"},{"bike_id":"ce44358e-afa4-4b9c-8de3-b08684351f76","system_id":"levelo_inurba_marseille","lat":43.27953,"lon":5.41017,"is_reserved":false,"is_disabled":true,"rental_uris":{"android":"levelo://app?vid=ce44358e-afa4-4b9c-8de3-b08684351f76","ios":"levelo://app?vid=ce44358e-afa4-4b9c-8de3-b08684351f76"},"vehicle_type_id":"4","last_reported":1752685968,"current_range_meters":3200,"station_id":"ce4bhnp2rcd13ifvqh0g","pricing_plan_id":"cebpf4jnsgd1na2vs0mg"},{"bike_id":"9d8a0d1d-708c-4243-908e-c947cfe6653e","system_id":"levelo_inurba_marseille","lat":43.26561,"lon":5.37281,"is_reserved":false,"is_disabled":false,"rental_uris":{"android":"levelo://app?vid=9d8a0d1d-708c-4243-908e-c947cfe6653e","ios":"levelo://app?vid=9d8a0d1d-708c-4243-908e-c947cfe6653e"},"vehicle_type_id":"4","last_reported":1752685968,"current_range_meters":3200,"station_id":"ce4bhg12rcd13ifvqf70","pricing_plan_id":"cebpf4jnsgd1na2vs0mg"},{"bike_id":"6368de16-d144-4f73-833e-ca19d2aeee12","system_id":"levelo_inurba_marseille","lat":43.22531,"lon":5.34767,"is_reserved":false,"is_disabled":false,"rental_uris":{"android":"levelo://app?vid=6368de16-d144-4f73-833e-ca19d2aeee12","ios":"levelo://app?vid=6368de16-d144-4f73-833e-ca19d2aeee12"},"vehicle_type_id":"4","last_reported":1752685968,"current_range_meters":3200,"station_id":"st_cvj5dfep6f1abm77gieg","pricing_plan_id":"cebpf4jnsgd1na2vs0mg"},{"bike_id":"37871391-2b6c-4c87-8aaa-869bf2f55fe2","system_id":"levelo_inurba_marseille","lat":43.27372,"lon":5.36257,"is_reserved":false,"is_disabled":false,"rental_uris":{"android":"levelo://app?vid=37871391-2b6c-4c87-8aaa-869bf2f55fe2","ios":"levelo://app?vid=37871391-2b6c-4c87-8aaa-869bf2f55fe2"},"vehicle_type_id":"4","last_reported":1752685968,"current_range_meters":3200,"station_id":"ce4bhbh2rcd13ifvqeo0","pricing_plan_id":"cebpf4jnsgd1na2vs0mg"},{"bike_id":"83a1868f-383d-42d2-86d9-a78523f23c3f","system_id":"levelo_inurba_marseille","lat":43.28264,"lon":5.35057,"is_reserved":false,"is_disabled":false,"rental_uris":{"android":"levelo://app?vid=83a1868f-383d-42d2-86d9-a78523f23c3f","ios":"levelo://app?vid=83a1868f-383d-42d2-86d9-a78523f23c3f"},"vehicle_type_id":"4","last_reported":1752685968,"current_range_meters":3600,"station_id":"ce4bhbp2rcd13ifvqerg","pricing_plan_id":"cebpf4jnsgd1na2vs0mg"},{"bike_id":"b768df0c-b626-42be-ba01-490ec7292476","system_id":"levelo_inurba_marseille","lat":43.28447,"lon":5.39195,"is_reserved":false,"is_disabled":false,"rental_uris":{"android":"levelo://app?vid=b768df0c-b626-42be-ba01-490ec7292476","ios":"levelo://app?vid=b768df0c-b626-42be-ba01-490ec7292476"},"vehicle_type_id":"4","last_reported":1752685968,"current_range_meters":3600,"station_id":"ce4bhoh2rcd13ifvqh5g","pricing_plan_id":"cebpf4jnsgd1na2vs0mg"},{"bike_id":"684f48e3-8b0e-4467-ae0e-d517dbbffd8a","system_id":"levelo_inurba_marseille","lat":43.30133,"lon":5.39858,"is_reserved":false,"is_disabled":false,"rental_uris":{"android":"levelo://app?vid=684f48e3-8b0e-4467-ae0e-d517dbbffd8a","ios":"levelo://app?vid=684f48e3-8b0e-4467-ae0e-d517dbbffd8a"},"vehicle_type_id":"4","last_reported":1752685968,"current_range_meters":3600,"station_id":"ce4bh0h2rcd13ifvqd40","pricing_plan_id":"cebpf4jnsgd1na2vs0mg"},{"bike_id":"7b62aa35-b8ac-40c2-943a-005ffb7203dc","system_id":"levelo_inurba_marseille","lat":43.2963,"lon":5.4061,"is_reserved":false,"is_disabled":false,"rental_uris":{"android":"levelo://app?vid=7b62aa35-b8ac-40c2-943a-005ffb7203dc","ios":"levelo://app?vid=7b62aa35-b8ac-40c2-943a-005ffb7203dc"},"vehicle_type_id":"4","last_reported":1752685968,"current_range_meters":4000,"station_id":"ce4bh0h2rcd13ifvqd60","pricing_plan_id":"cebpf4jnsgd1na2vs0mg"},{"bike_id":"087763ea-286c-4179-843a-f9866e8a2d2f","system_id":"levelo_inurba_marseille","lat":43.279616,"lon":5.410839,"is_reserved":false,"is_disabled":false,"rental_uris":{"android":"levelo://app?vid=087763ea-286c-4179-843a-f9866e8a2d2f","ios":"levelo://app?vid=087763ea-286c-4179-843a-f9866e8a2d2f"},"vehicle_type_id":"4","last_reported":1752685968,"current_range_meters":4000,"station_id":"ce4bhnp2rcd13ifvqh0g","pricing_plan_id":"cebpf4jnsgd1na2vs0mg"},{"bike_id":"85b7d8f3-20e4-4680-acd9-6b8997fb46c0","system_id":"levelo_inurba_marseille","lat":43.28458,"lon":5.35881,"is_reserved":false,"is_disabled":false,"rental_uris":{"android":"levelo://app?vid=85b7d8f3-20e4-4680-acd9-6b8997fb46c0","ios":"levelo://app?vid=85b7d8f3-20e4-4680-acd9-6b8997fb46c0"},"vehicle_type_id":"4","last_reported":1752685968,"current_range_meters":4800,"station_id":"ce4bhah2rcd13ifvqei0","pricing_plan_id":"cebpf4jnsgd1na2vs0mg"},{"bike_id":"2064bdb7-372e-49ad-84cc-61def3fdbc2e","system_id":"levelo_inurba_marseille","lat":43.28614,"lon":5.35101,"is_reserved":false,"is_disabled":false,"rental_uris":{"android":"levelo://app?vid=2064bdb7-372e-49ad-84cc-61def3fdbc2e","ios":"levelo://app?vid=2064bdb7-372e-49ad-84cc-61def3fdbc2e"},"vehicle_type_id":"4","last_reported":1752685968,"current_range_meters":4800,"station_id":"ce4bhch2rcd13ifvqeug","pricing_plan_id":"cebpf4jnsgd1na2vs0mg"},{"bike_id":"a1b9bae8-5baa-476f-8927-a2f9e8766e73","system_id":"levelo_inurba_marseille","lat":43.27635,"lon":5.36126,"is_reserved":false,"is_disabled":false,"rental_uris":{"android":"levelo://app?vid=a1b9bae8-5baa-476f-8927-a2f9e8766e73","ios":"levelo://app?vid=a1b9bae8-5baa-476f-8927-a2f9e8766e73"},"vehicle_type_id":"4","last_reported":1752685968,"current_range_meters":4800,"station_id":"ce4bgj92rcd13ifvqbe0","pricing_plan_id":"cebpf4jnsgd1na2vs0mg"},{"bike_id":"ab5468f0-449a-42ca-855f-29415a2d10d4","system_id":"levelo_inurba_marseille","lat":43.30885,"lon":5.39641,"is_reserved":false,"is_disabled":false,"rental_uris":{"android":"levelo://app?vid=ab5468f0-449a-42ca-855f-29415a2d10d4","ios":"levelo://app?vid=ab5468f0-449a-42ca-855f-29415a2d10d4"},"vehicle_type_id":"4","last_reported":1752685968,"current_range_meters":5600,"station_id":"ce4bh012rcd13ifvqcv0","pricing_plan_id":"cebpf4jnsgd1na2vs0mg"},{"bike_id":"4cfb4a81-dd6f-45fb-a573-2445e6c501e1","system_id":"levelo_inurba_marseille","lat":43.32479,"lon":5.36582,"is_reserved":false,"is_disabled":false,"rental_uris":{"android":"levelo://app?vid=4cfb4a81-dd6f-45fb-a573-2445e6c501e1","ios":"levelo://app?vid=4cfb4a81-dd6f-45fb-a573-2445e6c501e1"},"vehicle_type_id":"4","last_reported":1752685968,"current_range_meters":4800,"station_id":"ce4bhs12rcd13ifvqhvg","pricing_plan_id":"cebpf4jnsgd1na2vs0mg"},{"bike_id":"d9ef59b1-449e-46e0-825d-feadf2760d65","system_id":"levelo_inurba_marseille","lat":43.24807,"lon":5.37458,"is_reserved":false,"is_disabled":false,"rental_uris":{"android":"levelo://app?vid=d9ef59b1-449e-46e0-825d-feadf2760d65","ios":"levelo://app?vid=d9ef59b1-449e-46e0-825d-feadf2760d65"},"vehicle_type_id":"4","last_reported":1752685968,"current_range_meters":6000,"station_id":"ce4bhgh2rcd13ifvqfb0","pricing_plan_id":"cebpf4jnsgd1na2vs0mg"},{"bike_id":"3c17c28d-4296-4f88-b59a-88e5b62d973a","system_id":"levelo_inurba_marseille","lat":43.2961,"lon":5.37709,"is_reserved":false,"is_disabled":false,"rental_uris":{"android":"levelo://app?vid=3c17c28d-4296-4f88-b59a-88e5b62d973a","ios":"levelo://app?vid=3c17c28d-4296-4f88-b59a-88e5b62d973a"},"vehicle_type_id":"4","last_reported":1752685968,"current_range_meters":6000,"station_id":"ce4bgi92rcd13ifvqb90","pricing_plan_id":"cebpf4jnsgd1na2vs0mg"},{"bike_id":"e2f2f893-16c7-42e5-8c51-893940a1136e","system_id":"levelo_inurba_marseille","lat":43.3007,"lon":5.36833,"is_reserved":false,"is_disabled":false,"rental_uris":{"android":"levelo://app?vid=e2f2f893-16c7-42e5-8c51-893940a1136e","ios":"levelo://app?vid=e2f2f893-16c7-42e5-8c51-893940a1136e"},"vehicle_type_id":"4","last_reported":1752685968,"current_range_meters":6400,"station_id":"","pricing_plan_id":"cebpf4jnsgd1na2vs0mg"},{"bike_id":"602168d2-30d7-41e4-a82d-5cd9b72f5bd0","system_id":"levelo_inurba_marseille","lat":43.29581,"lon":5.36742,"is_reserved":false,"is_disabled":false,"rental_uris":{"android":"levelo://app?vid=602168d2-30d7-41e4-a82d-5cd9b72f5bd0","ios":"levelo://app?vid=602168d2-30d7-41e4-a82d-5cd9b72f5bd0"},"vehicle_type_id":"4","last_reported":1752685968,"current_range_meters":6400,"station_id":"ce4bgph2rcd13ifvqc2g","pricing_plan_id":"cebpf4jnsgd1na2vs0mg"},{"bike_id":"a250903b-b00e-44cd-9ae7-df50bd547366","system_id":"levelo_inurba_marseille","lat":43.29587,"lon":5.36741,"is_reserved":false,"is_disabled":false,"rental_uris":{"android":"levelo://app?vid=a250903b-b00e-44cd-9ae7-df50bd547366","ios":"levelo://app?vid=a250903b-b00e-44cd-9ae7-df50bd547366"},"vehicle_type_id":"4","last_reported":1752685968,"current_range_meters":6400,"station_id":"ce4bgph2rcd13ifvqc2g","pricing_plan_id":"cebpf4jnsgd1na2vs0mg"},{"bike_id":"3a6e470c-10f4-46c4-a9cb-a95e9584b7a2","system_id":"levelo_inurba_marseille","lat":43.32061,"lon":5.41532,"is_reserved":false,"is_disabled":false,"rental_uris":{"android":"levelo://app?vid=3a6e470c-10f4-46c4-a9cb-a95e9584b7a2","ios":"levelo://app?vid=3a6e470c-10f4-46c4-a9cb-a95e9584b7a2"},"vehicle_type_id":"4","last_reported":1752685968,"current_range_meters":6400,"station_id":"ce4bhq92rcd13ifvqhkg","pricing_plan_id":"cebpf4jnsgd1na2vs0mg"},{"bike_id":"0945ab0b-efba-4e0f-9a55-3723ea2bf3f4","system_id":"levelo_inurba_marseille","lat":43.28464,"lon":5.35878,"is_reserved":false,"is_disabled":false,"rental_uris":{"android":"levelo://app?vid=0945ab0b-efba-4e0f-9a55-3723ea2bf3f4","ios":"levelo://app?vid=0945ab0b-efba-4e0f-9a55-3723ea2bf3f4"},"vehicle_type_id":"4","last_reported":1752685968,"current_range_meters":6400,"station_id":"ce4bhah2rcd13ifvqei0","pricing_plan_id":"cebpf4jnsgd1na2vs0mg"},{"bike_id":"5ff06d2e-1fcb-4f7f-b26f-494ef01051e2","system_id":"levelo_inurba_marseille","lat":43.26587,"lon":5.39483,"is_reserved":false,"is_disabled":true,"rental_uris":{"android":"levelo://app?vid=5ff06d2e-1fcb-4f7f-b26f-494ef01051e2","ios":"levelo://app?vid=5ff06d2e-1fcb-4f7f-b26f-494ef01051e2"},"vehicle_type_id":"4","last_reported":1752685968,"current_range_meters":6400,"station_id":"","pricing_plan_id":"cebpf4jnsgd1na2vs0mg"},{"bike_id":"313d872d-9dbc-41ab-a52b-b2e64727024a","system_id":"levelo_inurba_marseille","lat":43.29311,"lon":5.3745,"is_reserved":false,"is_disabled":false,"rental_uris":{"android":"levelo://app?vid=313d872d-9dbc-41ab-a52b-b2e64727024a","ios":"levelo://app?vid=313d872d-9dbc-41ab-a52b-b2e64727024a"},"vehicle_type_id":"4","last_reported":1752685968,"current_range_meters":6400,"station_id":"ce4bgi12rcd13ifvqb70","pricing_plan_id":"cebpf4jnsgd1na2vs0mg"},{"bike_id":"892165f6-25a5-4f0a-a9a6-cf4efe50c3be","system_id":"levelo_inurba_marseille","lat":43.24853,"lon":5.42527,"is_reserved":false,"is_disabled":false,"rental_uris":{"android":"levelo://app?vid=892165f6-25a5-4f0a-a9a6-cf4efe50c3be","ios":"levelo://app?vid=892165f6-25a5-4f0a-a9a6-cf4efe50c3be"},"vehicle_type_id":"4","last_reported":1752685968,"current_range_meters":6800,"station_id":"","pricing_plan_id":"cebpf4jnsgd1na2vs0mg"},{"bike_id":"aa85db87-45c9-42c8-9f92-c2883729b9fb","system_id":"levelo_inurba_marseille","lat":43.23967,"lon":5.3663,"is_reserved":false,"is_disabled":false,"rental_uris":{"android":"levelo://app?vid=aa85db87-45c9-42c8-9f92-c2883729b9fb","ios":"levelo://app?vid=aa85db87-45c9-42c8-9f92-c2883729b9fb"},"vehicle_type_id":"4","last_reported":1752685968,"current_range_meters":7200,"station_id":"ce4bhi12rcd13ifvqfp0","pricing_plan_id":"cebpf4jnsgd1na2vs0mg"},{"bike_id":"0ed72fc3-e60d-4f1c-9c25-9a97002b44cf","system_id":"levelo_inurba_marseille","lat":43.26554,"lon":5.37283,"is_reserved":false,"is_disabled":false,"rental_uris":{"android":"levelo://app?vid=0ed72fc3-e60d-4f1c-9c25-9a97002b44cf","ios":"levelo://app?vid=0ed72fc3-e60d-4f1c-9c25-9a97002b44cf"},"vehicle_type_id":"4","last_reported":1752685968,"current_range_meters":7200,"station_id":"ce4bhg12rcd13ifvqf70","pricing_plan_id":"cebpf4jnsgd1na2vs0mg"},{"bike_id":"3859f018-7b5f-469a-871e-d6832dcfaf8e","system_id":"levelo_inurba_marseille","lat":43.2479,"lon":5.37453,"is_reserved":false,"is_disabled":true,"rental_uris":{"android":"levelo://app?vid=3859f018-7b5f-469a-871e-d6832dcfaf8e","ios":"levelo://app?vid=3859f018-7b5f-469a-871e-d6832dcfaf8e"},"vehicle_type_id":"4","last_reported":1752685968,"current_range_meters":7200,"station_id":"ce4bhgh2rcd13ifvqfb0","pricing_plan_id":"cebpf4jnsgd1na2vs0mg"},{"bike_id":"c588f21b-3a83-42a4-9068-2e0425a358b3","system_id":"levelo_inurba_marseille","lat":43.29451,"lon":5.38637,"is_reserved":false,"is_disabled":false,"rental_uris":{"android":"levelo://app?vid=c588f21b-3a83-42a4-9068-2e0425a358b3","ios":"levelo://app?vid=c588f21b-3a83-42a4-9068-2e0425a358b3"},"vehicle_type_id":"4","last_reported":1752685968,"current_range_meters":7200,"station_id":"ce4bh2h2rcd13ifvqdh0","pricing_plan_id":"cebpf4jnsgd1na2vs0mg"},{"bike_id":"286f18d0-5a2e-4e69-bbfc-db6eae161854","system_id":"levelo_inurba_marseille","lat":43.29007,"lon":5.3561,"is_reserved":false,"is_disabled":false,"rental_uris":{"android":"levelo://app?vid=286f18d0-5a2e-4e69-bbfc-db6eae161854","ios":"levelo://app?vid=286f18d0-5a2e-4e69-bbfc-db6eae161854"},"vehicle_type_id":"4","last_reported":1752685968,"current_range_meters":7200,"station_id":"ce4bhb92rcd13ifvqen0","pricing_plan_id":"cebpf4jnsgd1na2vs0mg"},{"bike_id":"0f359a4d-550a-4331-8421-4db4b223d855","system_id":"levelo_inurba_marseille","lat":43.27622,"lon":5.36119,"is_reserved":false,"is_disabled":false,"rental_uris":{"android":"levelo://app?vid=0f359a4d-550a-4331-8421-4db4b223d855","ios":"levelo://app?vid=0f359a4d-550a-4331-8421-4db4b223d855"},"vehicle_type_id":"4","last_reported":1752685968,"current_range_meters":7200,"station_id":"ce4bgj92rcd13ifvqbe0","pricing_plan_id":"cebpf4jnsgd1na2vs0mg"},{"bike_id":"ac4c15fc-929d-470c-a6fd-07d6b6ebec10","system_id":"levelo_inurba_marseille","lat":43.29537,"lon":5.38543,"is_reserved":false,"is_disabled":false,"rental_uris":{"android":"levelo://app?vid=ac4c15fc-929d-470c-a6fd-07d6b6ebec10","ios":"levelo://app?vid=ac4c15fc-929d-470c-a6fd-07d6b6ebec10"},"vehicle_type_id":"4","last_reported":1752685968,"current_range_meters":7200,"station_id":"ce4bgih2rcd13ifvqba0","pricing_plan_id":"cebpf4jnsgd1na2vs0mg"},{"bike_id":"5aead351-76a0-4c1b-879e-a6b0dac9ae22","system_id":"levelo_inurba_marseille","lat":43.23057,"lon":5.3549,"is_reserved":false,"is_disabled":false,"rental_uris":{"android":"levelo://app?vid=5aead351-76a0-4c1b-879e-a6b0dac9ae22","ios":"levelo://app?vid=5aead351-76a0-4c1b-879e-a6b0dac9ae22"},"vehicle_type_id":"4","last_reported":1752685968,"current_range_meters":7200,"station_id":"cpo3342slgdg3j2ifvpg","pricing_plan_id":"cebpf4jnsgd1na2vs0mg"},{"bike_id":"d5d8dd19-5dd6-4f3f-9319-c8303afcd3ca","system_id":"levelo_inurba_marseille","lat":43.28931,"lon":5.38396,"is_reserved":false,"is_disabled":false,"rental_uris":{"android":"levelo://app?vid=d5d8dd19-5dd6-4f3f-9319-c8303afcd3ca","ios":"levelo://app?vid=d5d8dd19-5dd6-4f3f-9319-c8303afcd3ca"},"vehicle_type_id":"4","last_reported":1752685968,"current_range_meters":8000,"station_id":"ce4bh612rcd13ifvqe6g","pricing_plan_id":"cebpf4jnsgd1na2vs0mg"},{"bike_id":"f88fa424-fab6-48be-ae49-0c91ada455d4","system_id":"levelo_inurba_marseille","lat":43.29196,"lon":5.35809,"is_reserved":false,"is_disabled":false,"rental_uris":{"android":"levelo://app?vid=f88fa424-fab6-48be-ae49-0c91ada455d4","ios":"levelo://app?vid=f88fa424-fab6-48be-ae49-0c91ada455d4"},"vehicle_type_id":"4","last_reported":1752685968,"current_range_meters":8000,"station_id":"ce4bhb12rcd13ifvqel0","pricing_plan_id":"cebpf4jnsgd1na2vs0mg"},{"bike_id":"440e6dc7-e3e0-4a56-8618-1656a87b069c","system_id":"levelo_inurba_marseille","lat":43.29284,"lon":5.36841,"is_reserved":false,"is_disabled":false,"rental_uris":{"android":"levelo://app?vid=440e6dc7-e3e0-4a56-8618-1656a87b069c","ios":"levelo://app?vid=440e6dc7-e3e0-4a56-8618-1656a87b069c"},"vehicle_type_id":"4","last_reported":1752685968,"current_range_meters":8000,"station_id":"ce4bhbp2rcd13ifvqesg","pricing_plan_id":"cebpf4jnsgd1na2vs0mg"},{"bike_id":"e5ec4b25-dbcc-42eb-bf86-2cca309a0b15","system_id":"levelo_inurba_marseille","lat":43.264945,"lon":5.395365,"is_reserved":false,"is_disabled":true,"rental_uris":{"android":"levelo://app?vid=e5ec4b25-dbcc-42eb-bf86-2cca309a0b15","ios":"levelo://app?vid=e5ec4b25-dbcc-42eb-bf86-2cca309a0b15"},"vehicle_type_id":"4","last_reported":1752685968,"current_range_meters":8000,"station_id":"","pricing_plan_id":"cebpf4jnsgd1na2vs0mg"},{"bike_id":"a8ce6efe-50ae-4699-a953-570b09452efb","system_id":"levelo_inurba_marseille","lat":43.250102,"lon":5.389137,"is_reserved":false,"is_disabled":true,"rental_uris":{"android":"levelo://app?vid=a8ce6efe-50ae-4699-a953-570b09452efb","ios":"levelo://app?vid=a8ce6efe-50ae-4699-a953-570b09452efb"},"vehicle_type_id":"4","last_reported":1752685968,"current_range_meters":8000,"station_id":"ce4bhgp2rcd13ifvqfd0","pricing_plan_id":"cebpf4jnsgd1na2vs0mg"},{"bike_id":"a8f0f936-c328-4254-b778-3bf4dc855588","system_id":"levelo_inurba_marseille","lat":43.28623,"lon":5.35101,"is_reserved":false,"is_disabled":false,"rental_uris":{"android":"levelo://app?vid=a8f0f936-c328-4254-b778-3bf4dc855588","ios":"levelo://app?vid=a8f0f936-c328-4254-b778-3bf4dc855588"},"vehicle_type_id":"4","last_reported":1752685968,"current_range_meters":8000,"station_id":"ce4bhch2rcd13ifvqeug","pricing_plan_id":"cebpf4jnsgd1na2vs0mg"},{"bike_id":"af8e8b2a-2908-4787-8c78-40ff4dd95736","system_id":"levelo_inurba_marseille","lat":43.27839,"lon":5.39222,"is_reserved":false,"is_disabled":false,"rental_uris":{"android":"levelo://app?vid=af8e8b2a-2908-4787-8c78-40ff4dd95736","ios":"levelo://app?vid=af8e8b2a-2908-4787-8c78-40ff4dd95736"},"vehicle_type_id":"4","last_reported":1752685968,"current_range_meters":8400,"station_id":"ce4bhjp2rcd13ifvqga0","pricing_plan_id":"cebpf4jnsgd1na2vs0mg"},{"bike_id":"48850635-b827-45d3-82ff-6a0908de5e09","system_id":"levelo_inurba_marseille","lat":43.28616,"lon":5.35117,"is_reserved":false,"is_disabled":false,"rental_uris":{"android":"levelo://app?vid=48850635-b827-45d3-82ff-6a0908de5e09","ios":"levelo://app?vid=48850635-b827-45d3-82ff-6a0908de5e09"},"vehicle_type_id":"4","last_reported":1752685968,"current_range_meters":8400,"station_id":"ce4bhch2rcd13ifvqeug","pricing_plan_id":"cebpf4jnsgd1na2vs0mg"},{"bike_id":"3a1340c2-c220-44ac-8f78-3f522a1fee86","system_id":"levelo_inurba_marseille","lat":43.30424,"lon":5.41277,"is_reserved":false,"is_disabled":false,"rental_uris":{"android":"levelo://app?vid=3a1340c2-c220-44ac-8f78-3f522a1fee86","ios":"levelo://app?vid=3a1340c2-c220-44ac-8f78-3f522a1fee86"},"vehicle_type_id":"4","last_reported":1752685968,"current_range_meters":8400,"station_id":"ce4bhop2rcd13ifvqh8g","pricing_plan_id":"cebpf4jnsgd1na2vs0mg"},{"bike_id":"e68bf710-0ffd-492d-9248-5137910ce720","system_id":"levelo_inurba_marseille","lat":43.29005,"lon":5.35601,"is_reserved":false,"is_disabled":false,"rental_uris":{"android":"levelo://app?vid=e68bf710-0ffd-492d-9248-5137910ce720","ios":"levelo://app?vid=e68bf710-0ffd-492d-9248-5137910ce720"},"vehicle_type_id":"4","last_reported":1752685968,"current_range_meters":8400,"station_id":"ce4bhb92rcd13ifvqen0","pricing_plan_id":"cebpf4jnsgd1na2vs0mg"},{"bike_id":"e87d3985-f642-4e3d-8fa4-14b9f2525a4b","system_id":"levelo_inurba_marseille","lat":43.29538,"lon":5.385379,"is_reserved":false,"is_disabled":false,"rental_uris":{"android":"levelo://app?vid=e87d3985-f642-4e3d-8fa4-14b9f2525a4b","ios":"levelo://app?vid=e87d3985-f642-4e3d-8fa4-14b9f2525a4b"},"vehicle_type_id":"4","last_reported":1752685968,"current_range_meters":8800,"station_id":"ce4bh092rcd13ifvqd20","pricing_plan_id":"cebpf4jnsgd1na2vs0mg"},{"bike_id":"0bac0d9f-25cf-4a77-bdfd-d80bd3309aab","system_id":"levelo_inurba_marseille","lat":43.31367,"lon":5.3849,"is_reserved":false,"is_disabled":false,"rental_uris":{"android":"levelo://app?vid=0bac0d9f-25cf-4a77-bdfd-d80bd3309aab","ios":"levelo://app?vid=0bac0d9f-25cf-4a77-bdfd-d80bd3309aab"},"vehicle_type_id":"4","last_reported":1752685968,"current_range_meters":8400,"station_id":"ce4bgt92rcd13ifvqcf0","pricing_plan_id":"cebpf4jnsgd1na2vs0mg"},{"bike_id":"87e6a2f2-e7ef-4dba-aeba-5588e1270124","system_id":"levelo_inurba_marseille","lat":43.22926,"lon":5.35381,"is_reserved":false,"is_disabled":false,"rental_uris":{"android":"levelo://app?vid=87e6a2f2-e7ef-4dba-aeba-5588e1270124","ios":"levelo://app?vid=87e6a2f2-e7ef-4dba-aeba-5588e1270124"},"vehicle_type_id":"4","last_reported":1752685968,"current_range_meters":8800,"station_id":"cpo3532slgdg3j2ikp40","pricing_plan_id":"cebpf4jnsgd1na2vs0mg"},{"bike_id":"51396765-9ad0-4d1d-a813-68fff86b2907","system_id":"levelo_inurba_marseille","lat":43.30468,"lon":5.36684,"is_reserved":false,"is_disabled":false,"rental_uris":{"android":"levelo://app?vid=51396765-9ad0-4d1d-a813-68fff86b2907","ios":"levelo://app?vid=51396765-9ad0-4d1d-a813-68fff86b2907"},"vehicle_type_id":"4","last_reported":1752685968,"current_range_meters":8800,"station_id":"","pricing_plan_id":"cebpf4jnsgd1na2vs0mg"},{"bike_id":"df2b0818-6e7e-4c84-a1a6-86a93196ec88","system_id":"levelo_inurba_marseille","lat":43.25587,"lon":5.38233,"is_reserved":false,"is_disabled":false,"rental_uris":{"android":"levelo://app?vid=df2b0818-6e7e-4c84-a1a6-86a93196ec88","ios":"levelo://app?vid=df2b0818-6e7e-4c84-a1a6-86a93196ec88"},"vehicle_type_id":"4","last_reported":1752685968,"current_range_meters":8800,"station_id":"ce4bhih2rcd13ifvqfs0","pricing_plan_id":"cebpf4jnsgd1na2vs0mg"},{"bike_id":"009d97ca-d301-427b-8711-1475525c6508","system_id":"levelo_inurba_marseille","lat":43.27993,"lon":5.40009,"is_reserved":false,"is_disabled":false,"rental_uris":{"android":"levelo://app?vid=009d97ca-d301-427b-8711-1475525c6508","ios":"levelo://app?vid=009d97ca-d301-427b-8711-1475525c6508"},"vehicle_type_id":"4","last_reported":1752685968,"current_range_meters":8800,"station_id":"ce4bho92rcd13ifvqh4g","pricing_plan_id":"cebpf4jnsgd1na2vs0mg"},{"bike_id":"b898f0d1-a326-4716-9775-71527b6813c2","system_id":"levelo_inurba_marseille","lat":43.28266,"lon":5.35081,"is_reserved":false,"is_disabled":false,"rental_uris":{"android":"levelo://app?vid=b898f0d1-a326-4716-9775-71527b6813c2","ios":"levelo://app?vid=b898f0d1-a326-4716-9775-71527b6813c2"},"vehicle_type_id":"4","last_reported":1752685968,"current_range_meters":8800,"station_id":"ce4bhbp2rcd13ifvqerg","pricing_plan_id":"cebpf4jnsgd1na2vs0mg"},{"bike_id":"f6e8f202-04c4-40e0-9c3e-537e1c582415","system_id":"levelo_inurba_marseille","lat":43.280003,"lon":5.40011,"is_reserved":false,"is_disabled":false,"rental_uris":{"android":"levelo://app?vid=f6e8f202-04c4-40e0-9c3e-537e1c582415","ios":"levelo://app?vid=f6e8f202-04c4-40e0-9c3e-537e1c582415"},"vehicle_type_id":"4","last_reported":1752685968,"current_range_meters":8800,"station_id":"ce4bho92rcd13ifvqh4g","pricing_plan_id":"cebpf4jnsgd1na2vs0mg"},{"bike_id":"080b0f22-14dd-4044-a18f-ee7f74366cea","system_id":"levelo_inurba_marseille","lat":43.319954,"lon":5.381525,"is_reserved":false,"is_disabled":true,"rental_uris":{"android":"levelo://app?vid=080b0f22-14dd-4044-a18f-ee7f74366cea","ios":"levelo://app?vid=080b0f22-14dd-4044-a18f-ee7f74366cea"},"vehicle_type_id":"4","last_reported":1752685968,"current_range_meters":8800,"station_id":"ce4bhr12rcd13ifvqhpg","pricing_plan_id":"cebpf4jnsgd1na2vs0mg"},{"bike_id":"5a986192-2a11-402e-8dc7-4697d80be3bb","system_id":"levelo_inurba_marseille","lat":43.29597,"lon":5.38085,"is_reserved":false,"is_disabled":false,"rental_uris":{"android":"levelo://app?vid=5a986192-2a11-402e-8dc7-4697d80be3bb","ios":"levelo://app?vid=5a986192-2a11-402e-8dc7-4697d80be3bb"},"vehicle_type_id":"4","last_reported":1752685968,"current_range_meters":8800,"station_id":"ce4bgl12rcd13ifvqbo0","pricing_plan_id":"cebpf4jnsgd1na2vs0mg"},{"bike_id":"62470a35-082f-434b-822f-6737b57b7f70","system_id":"levelo_inurba_marseille","lat":43.31328,"lon":5.39689,"is_reserved":false,"is_disabled":false,"rental_uris":{"android":"levelo://app?vid=62470a35-082f-434b-822f-6737b57b7f70","ios":"levelo://app?vid=62470a35-082f-434b-822f-6737b57b7f70"},"vehicle_type_id":"4","last_reported":1752685968,"current_range_meters":9200,"station_id":"ce4bgvp2rcd13ifvqcu0","pricing_plan_id":"cebpf4jnsgd1na2vs0mg"},{"bike_id":"dd980a13-a598-4d26-ac65-1ca2dae94c1c","system_id":"levelo_inurba_marseille","lat":43.26576,"lon":5.37283,"is_reserved":false,"is_disabled":false,"rental_uris":{"android":"levelo://app?vid=dd980a13-a598-4d26-ac65-1ca2dae94c1c","ios":"levelo://app?vid=dd980a13-a598-4d26-ac65-1ca2dae94c1c"},"vehicle_type_id":"4","last_reported":1752685968,"current_range_meters":9200,"station_id":"ce4bhg12rcd13ifvqf70","pricing_plan_id":"cebpf4jnsgd1na2vs0mg"},{"bike_id":"b17cd133-4b6e-4d13-99c7-028917be34d7","system_id":"levelo_inurba_marseille","lat":43.28619,"lon":5.3511,"is_reserved":false,"is_disabled":false,"rental_uris":{"android":"levelo://app?vid=b17cd133-4b6e-4d13-99c7-028917be34d7","ios":"levelo://app?vid=b17cd133-4b6e-4d13-99c7-028917be34d7"},"vehicle_type_id":"4","last_reported":1752685968,"current_range_meters":9200,"station_id":"ce4bhch2rcd13ifvqeug","pricing_plan_id":"cebpf4jnsgd1na2vs0mg"},{"bike_id":"50ce8034-c9fd-43e0-91a9-267deaa54c4a","system_id":"levelo_inurba_marseille","lat":43.30285,"lon":5.37685,"is_reserved":false,"is_disabled":false,"rental_uris":{"android":"levelo://app?vid=50ce8034-c9fd-43e0-91a9-267deaa54c4a","ios":"levelo://app?vid=50ce8034-c9fd-43e0-91a9-267deaa54c4a"},"vehicle_type_id":"4","last_reported":1752685968,"current_range_meters":9200,"station_id":"ce4bguh2rcd13ifvqcj0","pricing_plan_id":"cebpf4jnsgd1na2vs0mg"},{"bike_id":"f4091af9-3620-4810-8b47-da40c80e097a","system_id":"levelo_inurba_marseille","lat":43.28614,"lon":5.35105,"is_reserved":false,"is_disabled":false,"rental_uris":{"android":"levelo://app?vid=f4091af9-3620-4810-8b47-da40c80e097a","ios":"levelo://app?vid=f4091af9-3620-4810-8b47-da40c80e097a"},"vehicle_type_id":"4","last_reported":1752685968,"current_range_meters":9200,"station_id":"ce4bhch2rcd13ifvqeug","pricing_plan_id":"cebpf4jnsgd1na2vs0mg"},{"bike_id":"cdc421df-1e7f-434e-983d-930f65f192a9","system_id":"levelo_inurba_marseille","lat":43.28272,"lon":5.35068,"is_reserved":false,"is_disabled":false,"rental_uris":{"android":"levelo://app?vid=cdc421df-1e7f-434e-983d-930f65f192a9","ios":"levelo://app?vid=cdc421df-1e7f-434e-983d-930f65f192a9"},"vehicle_type_id":"4","last_reported":1752685968,"current_range_meters":9200,"station_id":"ce4bhbp2rcd13ifvqerg","pricing_plan_id":"cebpf4jnsgd1na2vs0mg"},{"bike_id":"8d5391c8-0526-413d-8a5b-4fb1ae0f37b3","system_id":"levelo_inurba_marseille","lat":43.2895,"lon":5.36401,"is_reserved":false,"is_disabled":false,"rental_uris":{"android":"levelo://app?vid=8d5391c8-0526-413d-8a5b-4fb1ae0f37b3","ios":"levelo://app?vid=8d5391c8-0526-413d-8a5b-4fb1ae0f37b3"},"vehicle_type_id":"4","last_reported":1752685968,"current_range_meters":9200,"station_id":"ce4bhc92rcd13ifvqetg","pricing_plan_id":"cebpf4jnsgd1na2vs0mg"},{"bike_id":"f974e8d9-aa3e-4618-aadd-32d4821e8ed7","system_id":"levelo_inurba_marseille","lat":43.2994,"lon":5.36554,"is_reserved":false,"is_disabled":false,"rental_uris":{"android":"levelo://app?vid=f974e8d9-aa3e-4618-aadd-32d4821e8ed7","ios":"levelo://app?vid=f974e8d9-aa3e-4618-aadd-32d4821e8ed7"},"vehicle_type_id":"4","last_reported":1752685968,"current_range_meters":9200,"station_id":"ce4bgm92rcd13ifvqbr0","pricing_plan_id":"cebpf4jnsgd1na2vs0mg"},{"bike_id":"939b8240-b3ec-4b5c-ba64-7f19787a61e5","system_id":"levelo_inurba_marseille","lat":43.26492,"lon":5.39546,"is_reserved":false,"is_disabled":false,"rental_uris":{"android":"levelo://app?vid=939b8240-b3ec-4b5c-ba64-7f19787a61e5","ios":"levelo://app?vid=939b8240-b3ec-4b5c-ba64-7f19787a61e5"},"vehicle_type_id":"4","last_reported":1752685968,"current_range_meters":9200,"station_id":"ce4bhi12rcd13ifvqfq0","pricing_plan_id":"cebpf4jnsgd1na2vs0mg"},{"bike_id":"5dde87d5-2760-4012-a953-672526345cd1","system_id":"levelo_inurba_marseille","lat":43.29527,"lon":5.37507,"is_reserved":false,"is_disabled":false,"rental_uris":{"android":"levelo://app?vid=5dde87d5-2760-4012-a953-672526345cd1","ios":"levelo://app?vid=5dde87d5-2760-4012-a953-672526345cd1"},"vehicle_type_id":"4","last_reported":1752685968,"current_range_meters":9200,"station_id":"ce4bgkp2rcd13ifvqbmg","pricing_plan_id":"cebpf4jnsgd1na2vs0mg"},{"bike_id":"23bea0ab-8703-494d-9c02-d12aed685832","system_id":"levelo_inurba_marseille","lat":43.28619,"lon":5.351,"is_reserved":false,"is_disabled":false,"rental_uris":{"android":"levelo://app?vid=23bea0ab-8703-494d-9c02-d12aed685832","ios":"levelo://app?vid=23bea0ab-8703-494d-9c02-d12aed685832"},"vehicle_type_id":"4","last_reported":1752685968,"current_range_meters":9200,"station_id":"ce4bhch2rcd13ifvqeug","pricing_plan_id":"cebpf4jnsgd1na2vs0mg"},{"bike_id":"9a735743-56c8-418f-b328-8c4eb51a26f1","system_id":"levelo_inurba_marseille","lat":43.28493,"lon":5.38548,"is_reserved":false,"is_disabled":false,"rental_uris":{"android":"levelo://app?vid=9a735743-56c8-418f-b328-8c4eb51a26f1","ios":"levelo://app?vid=9a735743-56c8-418f-b328-8c4eb51a26f1"},"vehicle_type_id":"4","last_reported":1752685968,"current_range_meters":9600,"station_id":"ce4bh8p2rcd13ifvqeb0","pricing_plan_id":"cebpf4jnsgd1na2vs0mg"},{"bike_id":"8973c8cf-71c7-4abd-aaa7-dc4737782cb5","system_id":"levelo_inurba_marseille","lat":43.2439,"lon":5.37052,"is_reserved":false,"is_disabled":false,"rental_uris":{"android":"levelo://app?vid=8973c8cf-71c7-4abd-aaa7-dc4737782cb5","ios":"levelo://app?vid=8973c8cf-71c7-4abd-aaa7-dc4737782cb5"},"vehicle_type_id":"4","last_reported":1752685968,"current_range_meters":9600,"station_id":"ce4bhhh2rcd13ifvqfk0","pricing_plan_id":"cebpf4jnsgd1na2vs0mg"},{"bike_id":"d98ef30e-38a0-41ef-a00a-304afa979a1e","system_id":"levelo_inurba_marseille","lat":43.29885,"lon":5.43663,"is_reserved":false,"is_disabled":true,"rental_uris":{"android":"levelo://app?vid=d98ef30e-38a0-41ef-a00a-304afa979a1e","ios":"levelo://app?vid=d98ef30e-38a0-41ef-a00a-304afa979a1e"},"vehicle_type_id":"4","last_reported":1752685968,"current_range_meters":9600,"station_id":"ce4bhpp2rcd13ifvqhfg","pricing_plan_id":"cebpf4jnsgd1na2vs0mg"},{"bike_id":"fd98485d-d049-4777-ad0b-170381c262c9","system_id":"levelo_inurba_marseille","lat":43.29025,"lon":5.3752,"is_reserved":false,"is_disabled":false,"rental_uris":{"android":"levelo://app?vid=fd98485d-d049-4777-ad0b-170381c262c9","ios":"levelo://app?vid=fd98485d-d049-4777-ad0b-170381c262c9"},"vehicle_type_id":"4","last_reported":1752685968,"current_range_meters":9600,"station_id":"ce4bh692rcd13ifvqe90","pricing_plan_id":"cebpf4jnsgd1na2vs0mg"},{"bike_id":"0011b263-5856-466d-abb3-7dcc94ac73d0","system_id":"levelo_inurba_marseille","lat":43.28944,"lon":5.36383,"is_reserved":false,"is_disabled":true,"rental_uris":{"android":"levelo://app?vid=0011b263-5856-466d-abb3-7dcc94ac73d0","ios":"levelo://app?vid=0011b263-5856-466d-abb3-7dcc94ac73d0"},"vehicle_type_id":"4","last_reported":1752685968,"current_range_meters":9600,"station_id":"ce4bhc92rcd13ifvqetg","pricing_plan_id":"cebpf4jnsgd1na2vs0mg"},{"bike_id":"a0fa65ea-e4c8-45fa-95b8-e0f0f07dc195","system_id":"levelo_inurba_marseille","lat":43.28666,"lon":5.36349,"is_reserved":false,"is_disabled":false,"rental_uris":{"android":"levelo://app?vid=a0fa65ea-e4c8-45fa-95b8-e0f0f07dc195","ios":"levelo://app?vid=a0fa65ea-e4c8-45fa-95b8-e0f0f07dc195"},"vehicle_type_id":"4","last_reported":1752685968,"current_range_meters":9600,"station_id":"ce4bhah2rcd13ifvqej0","pricing_plan_id":"cebpf4jnsgd1na2vs0mg"},{"bike_id":"f72bbde0-618e-48f1-9cf9-276abca03eb4","system_id":"levelo_inurba_marseille","lat":43.31494,"lon":5.37306,"is_reserved":false,"is_disabled":false,"rental_uris":{"android":"levelo://app?vid=f72bbde0-618e-48f1-9cf9-276abca03eb4","ios":"levelo://app?vid=f72bbde0-618e-48f1-9cf9-276abca03eb4"},"vehicle_type_id":"4","last_reported":1752685968,"current_range_meters":9200,"station_id":"ce4bgt12rcd13ifvqcd0","pricing_plan_id":"cebpf4jnsgd1na2vs0mg"},{"bike_id":"b1d2f655-1873-4c5c-a91f-863aa4b27358","system_id":"levelo_inurba_marseille","lat":43.25818,"lon":5.39424,"is_reserved":false,"is_disabled":false,"rental_uris":{"android":"levelo://app?vid=b1d2f655-1873-4c5c-a91f-863aa4b27358","ios":"levelo://app?vid=b1d2f655-1873-4c5c-a91f-863aa4b27358"},"vehicle_type_id":"4","last_reported":1752685968,"current_range_meters":9600,"station_id":"ce4bhip2rcd13ifvqft0","pricing_plan_id":"cebpf4jnsgd1na2vs0mg"},{"bike_id":"4dd784f6-6546-4c21-945b-44809730ab1c","system_id":"levelo_inurba_marseille","lat":43.28617,"lon":5.35106,"is_reserved":false,"is_disabled":false,"rental_uris":{"android":"levelo://app?vid=4dd784f6-6546-4c21-945b-44809730ab1c","ios":"levelo://app?vid=4dd784f6-6546-4c21-945b-44809730ab1c"},"vehicle_type_id":"4","last_reported":1752685968,"current_range_meters":9600,"station_id":"ce4bhch2rcd13ifvqeug","pricing_plan_id":"cebpf4jnsgd1na2vs0mg"},{"bike_id":"74b4390d-0242-429b-b32a-0523a3e24ef3","system_id":"levelo_inurba_marseille","lat":43.25468,"lon":5.37583,"is_reserved":false,"is_disabled":false,"rental_uris":{"android":"levelo://app?vid=74b4390d-0242-429b-b32a-0523a3e24ef3","ios":"levelo://app?vid=74b4390d-0242-429b-b32a-0523a3e24ef3"},"vehicle_type_id":"4","last_reported":1752685968,"current_range_meters":10000,"station_id":"","pricing_plan_id":"cebpf4jnsgd1na2vs0mg"},{"bike_id":"c41b7e65-4433-4812-a909-8573a015f1db","system_id":"levelo_inurba_marseille","lat":43.27372,"lon":5.36258,"is_reserved":false,"is_disabled":false,"rental_uris":{"android":"levelo://app?vid=c41b7e65-4433-4812-a909-8573a015f1db","ios":"levelo://app?vid=c41b7e65-4433-4812-a909-8573a015f1db"},"vehicle_type_id":"4","last_reported":1752685968,"current_range_meters":10000,"station_id":"ce4bhbh2rcd13ifvqeo0","pricing_plan_id":"cebpf4jnsgd1na2vs0mg"},{"bike_id":"4537b8fc-d361-4a97-966f-04f3c2e9b48b","system_id":"levelo_inurba_marseille","lat":43.29257,"lon":5.40911,"is_reserved":false,"is_disabled":false,"rental_uris":{"android":"levelo://app?vid=4537b8fc-d361-4a97-966f-04f3c2e9b48b","ios":"levelo://app?vid=4537b8fc-d361-4a97-966f-04f3c2e9b48b"},"vehicle_type_id":"4","last_reported":1752685968,"current_range_meters":9600,"station_id":"ce4bh192rcd13ifvqdc0","pricing_plan_id":"cebpf4jnsgd1na2vs0mg"},{"bike_id":"b733d901-5f75-4493-9960-b987b87cd8f7","system_id":"levelo_inurba_marseille","lat":43.22503,"lon":5.34779,"is_reserved":false,"is_disabled":false,"rental_uris":{"android":"levelo://app?vid=b733d901-5f75-4493-9960-b987b87cd8f7","ios":"levelo://app?vid=b733d901-5f75-4493-9960-b987b87cd8f7"},"vehicle_type_id":"4","last_reported":1752685968,"current_range_meters":10000,"station_id":"st_cvj5dfep6f1abm77gieg","pricing_plan_id":"cebpf4jnsgd1na2vs0mg"},{"bike_id":"fbcd1b7d-598f-4f0d-8e09-733bdcf7806b","system_id":"levelo_inurba_marseille","lat":43.28941,"lon":5.36391,"is_reserved":false,"is_disabled":false,"rental_uris":{"android":"levelo://app?vid=fbcd1b7d-598f-4f0d-8e09-733bdcf7806b","ios":"levelo://app?vid=fbcd1b7d-598f-4f0d-8e09-733bdcf7806b"},"vehicle_type_id":"4","last_reported":1752685968,"current_range_meters":10000,"station_id":"ce4bhc92rcd13ifvqetg","pricing_plan_id":"cebpf4jnsgd1na2vs0mg"},{"bike_id":"dec9a2a3-95c9-410a-93ff-76e3754c1372","system_id":"levelo_inurba_marseille","lat":43.29197,"lon":5.35802,"is_reserved":false,"is_disabled":false,"rental_uris":{"android":"levelo://app?vid=dec9a2a3-95c9-410a-93ff-76e3754c1372","ios":"levelo://app?vid=dec9a2a3-95c9-410a-93ff-76e3754c1372"},"vehicle_type_id":"4","last_reported":1752685968,"current_range_meters":10000,"station_id":"ce4bhb12rcd13ifvqel0","pricing_plan_id":"cebpf4jnsgd1na2vs0mg"},{"bike_id":"1bd36e8f-9902-44aa-9bd7-fa22c4374576","system_id":"levelo_inurba_marseille","lat":43.29184,"lon":5.35798,"is_reserved":false,"is_disabled":false,"rental_uris":{"android":"levelo://app?vid=1bd36e8f-9902-44aa-9bd7-fa22c4374576","ios":"levelo://app?vid=1bd36e8f-9902-44aa-9bd7-fa22c4374576"},"vehicle_type_id":"4","last_reported":1752685968,"current_range_meters":10800,"station_id":"ce4bhb12rcd13ifvqel0","pricing_plan_id":"cebpf4jnsgd1na2vs0mg"},{"bike_id":"1145602c-3b12-4604-b8ff-291284dfc532","system_id":"levelo_inurba_marseille","lat":43.22508,"lon":5.34775,"is_reserved":false,"is_disabled":false,"rental_uris":{"android":"levelo://app?vid=1145602c-3b12-4604-b8ff-291284dfc532","ios":"levelo://app?vid=1145602c-3b12-4604-b8ff-291284dfc532"},"vehicle_type_id":"4","last_reported":1752685968,"current_range_meters":10800,"station_id":"st_cvj5dfep6f1abm77gieg","pricing_plan_id":"cebpf4jnsgd1na2vs0mg"},{"bike_id":"2bacaccd-1bb2-41bf-ab2e-30b8a5fb7d5d","system_id":"levelo_inurba_marseille","lat":43.27377,"lon":5.36234,"is_reserved":false,"is_disabled":true,"rental_uris":{"android":"levelo://app?vid=2bacaccd-1bb2-41bf-ab2e-30b8a5fb7d5d","ios":"levelo://app?vid=2bacaccd-1bb2-41bf-ab2e-30b8a5fb7d5d"},"vehicle_type_id":"4","last_reported":1752685968,"current_range_meters":10800,"station_id":"ce4bhbh2rcd13ifvqeo0","pricing_plan_id":"cebpf4jnsgd1na2vs0mg"},{"bike_id":"a8fa3032-6b80-4821-a5a5-27332eeffd22","system_id":"levelo_inurba_marseille","lat":43.28424,"lon":5.34984,"is_reserved":false,"is_disabled":false,"rental_uris":{"android":"levelo://app?vid=a8fa3032-6b80-4821-a5a5-27332eeffd22","ios":"levelo://app?vid=a8fa3032-6b80-4821-a5a5-27332eeffd22"},"vehicle_type_id":"4","last_reported":1752685968,"current_range_meters":10800,"station_id":"ce4bhbh2rcd13ifvqepg","pricing_plan_id":"cebpf4jnsgd1na2vs0mg"},{"bike_id":"7a2ad774-7284-4a8c-9221-2d77e97d5b3b","system_id":"levelo_inurba_marseille","lat":43.27961,"lon":5.38711,"is_reserved":false,"is_disabled":false,"rental_uris":{"android":"levelo://app?vid=7a2ad774-7284-4a8c-9221-2d77e97d5b3b","ios":"levelo://app?vid=7a2ad774-7284-4a8c-9221-2d77e97d5b3b"},"vehicle_type_id":"4","last_reported":1752685968,"current_range_meters":11200,"station_id":"ce4bhg12rcd13ifvqf80","pricing_plan_id":"cebpf4jnsgd1na2vs0mg"},{"bike_id":"097b7f71-46e8-4d66-9e5f-2ba8c42255ff","system_id":"levelo_inurba_marseille","lat":43.25121,"lon":5.40316,"is_reserved":false,"is_disabled":false,"rental_uris":{"android":"levelo://app?vid=097b7f71-46e8-4d66-9e5f-2ba8c42255ff","ios":"levelo://app?vid=097b7f71-46e8-4d66-9e5f-2ba8c42255ff"},"vehicle_type_id":"4","last_reported":1752685968,"current_range_meters":11200,"station_id":"ce4bhlh2rcd13ifvqgig","pricing_plan_id":"cebpf4jnsgd1na2vs0mg"},{"bike_id":"652abf99-a378-42df-8ac6-e6fe6eac2c13","system_id":"levelo_inurba_marseille","lat":43.29198,"lon":5.35802,"is_reserved":false,"is_disabled":false,"rental_uris":{"android":"levelo://app?vid=652abf99-a378-42df-8ac6-e6fe6eac2c13","ios":"levelo://app?vid=652abf99-a378-42df-8ac6-e6fe6eac2c13"},"vehicle_type_id":"4","last_reported":1752685968,"current_range_meters":11200,"station_id":"ce4bhb12rcd13ifvqel0","pricing_plan_id":"cebpf4jnsgd1na2vs0mg"},{"bike_id":"a195566c-3c95-4766-a0cc-f9777748bfed","system_id":"levelo_inurba_marseille","lat":43.28472,"lon":5.38426,"is_reserved":false,"is_disabled":false,"rental_uris":{"android":"levelo://app?vid=a195566c-3c95-4766-a0cc-f9777748bfed","ios":"levelo://app?vid=a195566c-3c95-4766-a0cc-f9777748bfed"},"vehicle_type_id":"4","last_reported":1752685968,"current_range_meters":11600,"station_id":"ce4bh512rcd13ifvqe3g","pricing_plan_id":"cebpf4jnsgd1na2vs0mg"},{"bike_id":"54b283c6-c314-444c-b492-3e78ed7f2d30","system_id":"levelo_inurba_marseille","lat":43.32935,"lon":5.39055,"is_reserved":false,"is_disabled":false,"rental_uris":{"android":"levelo://app?vid=54b283c6-c314-444c-b492-3e78ed7f2d30","ios":"levelo://app?vid=54b283c6-c314-444c-b492-3e78ed7f2d30"},"vehicle_type_id":"4","last_reported":1752685968,"current_range_meters":11600,"station_id":"","pricing_plan_id":"cebpf4jnsgd1na2vs0mg"},{"bike_id":"b6c5bba3-1cd8-4d97-ba61-c786fb63d5eb","system_id":"levelo_inurba_marseille","lat":43.28718,"lon":5.36087,"is_reserved":false,"is_disabled":false,"rental_uris":{"android":"levelo://app?vid=b6c5bba3-1cd8-4d97-ba61-c786fb63d5eb","ios":"levelo://app?vid=b6c5bba3-1cd8-4d97-ba61-c786fb63d5eb"},"vehicle_type_id":"4","last_reported":1752685968,"current_range_meters":11600,"station_id":"cki0cbj6b192h4jlfktg","pricing_plan_id":"cebpf4jnsgd1na2vs0mg"},{"bike_id":"de42f901-f670-491f-9348-fd30c71374c2","system_id":"levelo_inurba_marseille","lat":43.297095,"lon":5.366096,"is_reserved":false,"is_disabled":false,"rental_uris":{"android":"levelo://app?vid=de42f901-f670-491f-9348-fd30c71374c2","ios":"levelo://app?vid=de42f901-f670-491f-9348-fd30c71374c2"},"vehicle_type_id":"4","last_reported":1752685968,"current_range_meters":11600,"station_id":"ce4bgn12rcd13ifvqbt0","pricing_plan_id":"cebpf4jnsgd1na2vs0mg"},{"bike_id":"732f8e0a-94bc-4131-827b-c3a5c2be99dc","system_id":"levelo_inurba_marseille","lat":43.29434,"lon":5.39755,"is_reserved":false,"is_disabled":false,"rental_uris":{"android":"levelo://app?vid=732f8e0a-94bc-4131-827b-c3a5c2be99dc","ios":"levelo://app?vid=732f8e0a-94bc-4131-827b-c3a5c2be99dc"},"vehicle_type_id":"4","last_reported":1752685968,"current_range_meters":11600,"station_id":"ce4bh3h2rcd13ifvqdo0","pricing_plan_id":"cebpf4jnsgd1na2vs0mg"},{"bike_id":"d93f8d8c-60fc-41a3-8ea2-3eb7d8051acf","system_id":"levelo_inurba_marseille","lat":43.283793,"lon":5.386432,"is_reserved":false,"is_disabled":false,"rental_uris":{"android":"levelo://app?vid=d93f8d8c-60fc-41a3-8ea2-3eb7d8051acf","ios":"levelo://app?vid=d93f8d8c-60fc-41a3-8ea2-3eb7d8051acf"},"vehicle_type_id":"4","last_reported":1752685968,"current_range_meters":11600,"station_id":"ce4bh492rcd13ifvqdvg","pricing_plan_id":"cebpf4jnsgd1na2vs0mg"},{"bike_id":"9fbaf0a5-9a71-4461-8ebc-054c544f8874","system_id":"levelo_inurba_marseille","lat":43.305316,"lon":5.367038,"is_reserved":false,"is_disabled":false,"rental_uris":{"android":"levelo://app?vid=9fbaf0a5-9a71-4461-8ebc-054c544f8874","ios":"levelo://app?vid=9fbaf0a5-9a71-4461-8ebc-054c544f8874"},"vehicle_type_id":"4","last_reported":1752685968,"current_range_meters":11600,"station_id":"","pricing_plan_id":"cebpf4jnsgd1na2vs0mg"},{"bike_id":"641a5c7b-1272-4cc3-a860-298e7c415d8c","system_id":"levelo_inurba_marseille","lat":43.279076,"lon":5.387902,"is_reserved":false,"is_disabled":false,"rental_uris":{"android":"levelo://app?vid=641a5c7b-1272-4cc3-a860-298e7c415d8c","ios":"levelo://app?vid=641a5c7b-1272-4cc3-a860-298e7c415d8c"},"vehicle_type_id":"4","last_reported":1752685968,"current_range_meters":11600,"station_id":"ce4bhg12rcd13ifvqf80","pricing_plan_id":"cebpf4jnsgd1na2vs0mg"},{"bike_id":"26235242-3188-401f-a712-0c7c1a7d1541","system_id":"levelo_inurba_marseille","lat":43.27617,"lon":5.36112,"is_reserved":false,"is_disabled":false,"rental_uris":{"android":"levelo://app?vid=26235242-3188-401f-a712-0c7c1a7d1541","ios":"levelo://app?vid=26235242-3188-401f-a712-0c7c1a7d1541"},"vehicle_type_id":"4","last_reported":1752685968,"current_range_meters":11600,"station_id":"ce4bgj92rcd13ifvqbe0","pricing_plan_id":"cebpf4jnsgd1na2vs0mg"},{"bike_id":"f6601602-a891-436a-9a5c-b607c3c99d9e","system_id":"levelo_inurba_marseille","lat":43.29533,"lon":5.38533,"is_reserved":false,"is_disabled":false,"rental_uris":{"android":"levelo://app?vid=f6601602-a891-436a-9a5c-b607c3c99d9e","ios":"levelo://app?vid=f6601602-a891-436a-9a5c-b607c3c99d9e"},"vehicle_type_id":"4","last_reported":1752685968,"current_range_meters":12000,"station_id":"ce4bgih2rcd13ifvqba0","pricing_plan_id":"cebpf4jnsgd1na2vs0mg"},{"bike_id":"5550bbcb-725c-49e1-bb15-678565461451","system_id":"levelo_inurba_marseille","lat":43.24818,"lon":5.37452,"is_reserved":false,"is_disabled":false,"rental_uris":{"android":"levelo://app?vid=5550bbcb-725c-49e1-bb15-678565461451","ios":"levelo://app?vid=5550bbcb-725c-49e1-bb15-678565461451"},"vehicle_type_id":"4","last_reported":1752685968,"current_range_meters":12000,"station_id":"ce4bhgh2rcd13ifvqfb0","pricing_plan_id":"cebpf4jnsgd1na2vs0mg"},{"bike_id":"794b998d-7e45-4d53-b270-ae51136a9420","system_id":"levelo_inurba_marseille","lat":43.31617,"lon":5.38165,"is_reserved":false,"is_disabled":false,"rental_uris":{"android":"levelo://app?vid=794b998d-7e45-4d53-b270-ae51136a9420","ios":"levelo://app?vid=794b998d-7e45-4d53-b270-ae51136a9420"},"vehicle_type_id":"4","last_reported":1752685968,"current_range_meters":12000,"station_id":"","pricing_plan_id":"cebpf4jnsgd1na2vs0mg"},{"bike_id":"338de1f6-1801-40f5-8252-d637cf4b19c5","system_id":"levelo_inurba_marseille","lat":43.28164,"lon":5.4263,"is_reserved":false,"is_disabled":false,"rental_uris":{"android":"levelo://app?vid=338de1f6-1801-40f5-8252-d637cf4b19c5","ios":"levelo://app?vid=338de1f6-1801-40f5-8252-d637cf4b19c5"},"vehicle_type_id":"4","last_reported":1752685968,"current_range_meters":12400,"station_id":"ce4bhnh2rcd13ifvqgug","pricing_plan_id":"cebpf4jnsgd1na2vs0mg"},{"bike_id":"f8e88d89-c6a8-409c-b0bc-54943a0331bb","system_id":"levelo_inurba_marseille","lat":43.284099,"lon":5.349916,"is_reserved":false,"is_disabled":false,"rental_uris":{"android":"levelo://app?vid=f8e88d89-c6a8-409c-b0bc-54943a0331bb","ios":"levelo://app?vid=f8e88d89-c6a8-409c-b0bc-54943a0331bb"},"vehicle_type_id":"4","last_reported":1752685968,"current_range_meters":12400,"station_id":"ce4bhbh2rcd13ifvqepg","pricing_plan_id":"cebpf4jnsgd1na2vs0mg"},{"bike_id":"61d450bc-9614-4ecf-9afc-7246df53a751","system_id":"levelo_inurba_marseille","lat":43.28407,"lon":5.37522,"is_reserved":false,"is_disabled":false,"rental_uris":{"android":"levelo://app?vid=61d450bc-9614-4ecf-9afc-7246df53a751","ios":"levelo://app?vid=61d450bc-9614-4ecf-9afc-7246df53a751"},"vehicle_type_id":"4","last_reported":1752685968,"current_range_meters":12400,"station_id":"ce4bh412rcd13ifvqds0","pricing_plan_id":"cebpf4jnsgd1na2vs0mg"},{"bike_id":"f3508927-1798-431e-b8e6-c1236b11ab80","system_id":"levelo_inurba_marseille","lat":43.29798,"lon":5.39354,"is_reserved":false,"is_disabled":false,"rental_uris":{"android":"levelo://app?vid=f3508927-1798-431e-b8e6-c1236b11ab80","ios":"levelo://app?vid=f3508927-1798-431e-b8e6-c1236b11ab80"},"vehicle_type_id":"4","last_reported":1752685968,"current_range_meters":12800,"station_id":"chh1huq6cuj3fo74tm60","pricing_plan_id":"cebpf4jnsgd1na2vs0mg"},{"bike_id":"2f7d48dc-a90b-412a-ab40-15bfc7de2d41","system_id":"levelo_inurba_marseille","lat":43.28431,"lon":5.34978,"is_reserved":false,"is_disabled":false,"rental_uris":{"android":"levelo://app?vid=2f7d48dc-a90b-412a-ab40-15bfc7de2d41","ios":"levelo://app?vid=2f7d48dc-a90b-412a-ab40-15bfc7de2d41"},"vehicle_type_id":"4","last_reported":1752685968,"current_range_meters":12800,"station_id":"ce4bhbh2rcd13ifvqepg","pricing_plan_id":"cebpf4jnsgd1na2vs0mg"},{"bike_id":"652b2b86-09dc-4150-a994-6bd202ab3da8","system_id":"levelo_inurba_marseille","lat":43.30146,"lon":5.3986,"is_reserved":false,"is_disabled":false,"rental_uris":{"android":"levelo://app?vid=652b2b86-09dc-4150-a994-6bd202ab3da8","ios":"levelo://app?vid=652b2b86-09dc-4150-a994-6bd202ab3da8"},"vehicle_type_id":"4","last_reported":1752685968,"current_range_meters":12800,"station_id":"ce4bh0h2rcd13ifvqd40","pricing_plan_id":"cebpf4jnsgd1na2vs0mg"},{"bike_id":"f53ab926-2de1-4f3c-a7d9-6743ca1bfb1f","system_id":"levelo_inurba_marseille","lat":43.21206,"lon":5.35063,"is_reserved":false,"is_disabled":false,"rental_uris":{"android":"levelo://app?vid=f53ab926-2de1-4f3c-a7d9-6743ca1bfb1f","ios":"levelo://app?vid=f53ab926-2de1-4f3c-a7d9-6743ca1bfb1f"},"vehicle_type_id":"4","last_reported":1752685968,"current_range_meters":12800,"station_id":"st_cvj6sg6p6f1abm77japg","pricing_plan_id":"cebpf4jnsgd1na2vs0mg"},{"bike_id":"17429d3f-608c-4933-af00-8d38146b8baf","system_id":"levelo_inurba_marseille","lat":43.27829,"lon":5.39195,"is_reserved":false,"is_disabled":false,"rental_uris":{"android":"levelo://app?vid=17429d3f-608c-4933-af00-8d38146b8baf","ios":"levelo://app?vid=17429d3f-608c-4933-af00-8d38146b8baf"},"vehicle_type_id":"4","last_reported":1752685968,"current_range_meters":12800,"station_id":"ce4bhjp2rcd13ifvqga0","pricing_plan_id":"cebpf4jnsgd1na2vs0mg"},{"bike_id":"e5bec6b1-43e6-46f2-9810-affd93766dd8","system_id":"levelo_inurba_marseille","lat":43.33766,"lon":5.37482,"is_reserved":false,"is_disabled":true,"rental_uris":{"android":"levelo://app?vid=e5bec6b1-43e6-46f2-9810-affd93766dd8","ios":"levelo://app?vid=e5bec6b1-43e6-46f2-9810-affd93766dd8"},"vehicle_type_id":"4","last_reported":1752685968,"current_range_meters":13600,"station_id":"","pricing_plan_id":"cebpf4jnsgd1na2vs0mg"},{"bike_id":"a5b6caa3-0bae-4037-abc3-dae8c7afd6a7","system_id":"levelo_inurba_marseille","lat":43.25108,"lon":5.40319,"is_reserved":false,"is_disabled":false,"rental_uris":{"android":"levelo://app?vid=a5b6caa3-0bae-4037-abc3-dae8c7afd6a7","ios":"levelo://app?vid=a5b6caa3-0bae-4037-abc3-dae8c7afd6a7"},"vehicle_type_id":"4","last_reported":1752685968,"current_range_meters":13600,"station_id":"ce4bhlh2rcd13ifvqgig","pricing_plan_id":"cebpf4jnsgd1na2vs0mg"},{"bike_id":"61a9e916-b95f-4f2c-8dca-c5b11be80287","system_id":"levelo_inurba_marseille","lat":43.29221,"lon":5.36042,"is_reserved":false,"is_disabled":true,"rental_uris":{"android":"levelo://app?vid=61a9e916-b95f-4f2c-8dca-c5b11be80287","ios":"levelo://app?vid=61a9e916-b95f-4f2c-8dca-c5b11be80287"},"vehicle_type_id":"4","last_reported":1752685968,"current_range_meters":13600,"station_id":"ce4bhbh2rcd13ifvqeqg","pricing_plan_id":"cebpf4jnsgd1na2vs0mg"},{"bike_id":"c4100995-3c01-4ec0-9541-6d3928a99122","system_id":"levelo_inurba_marseille","lat":43.28265,"lon":5.35065,"is_reserved":false,"is_disabled":false,"rental_uris":{"android":"levelo://app?vid=c4100995-3c01-4ec0-9541-6d3928a99122","ios":"levelo://app?vid=c4100995-3c01-4ec0-9541-6d3928a99122"},"vehicle_type_id":"4","last_reported":1752685968,"current_range_meters":14000,"station_id":"ce4bhbp2rcd13ifvqerg","pricing_plan_id":"cebpf4jnsgd1na2vs0mg"},{"bike_id":"ed6a5b8b-9e51-4157-9e5b-f3518c096f0d","system_id":"levelo_inurba_marseille","lat":43.295232,"lon":5.394075,"is_reserved":false,"is_disabled":false,"rental_uris":{"android":"levelo://app?vid=ed6a5b8b-9e51-4157-9e5b-f3518c096f0d","ios":"levelo://app?vid=ed6a5b8b-9e51-4157-9e5b-f3518c096f0d"},"vehicle_type_id":"4","last_reported":1752685968,"current_range_meters":14000,"station_id":"","pricing_plan_id":"cebpf4jnsgd1na2vs0mg"},{"bike_id":"7cb436ee-0a7d-4cab-9ac9-7b256e3be257","system_id":"levelo_inurba_marseille","lat":43.28617,"lon":5.35108,"is_reserved":false,"is_disabled":false,"rental_uris":{"android":"levelo://app?vid=7cb436ee-0a7d-4cab-9ac9-7b256e3be257","ios":"levelo://app?vid=7cb436ee-0a7d-4cab-9ac9-7b256e3be257"},"vehicle_type_id":"4","last_reported":1752685968,"current_range_meters":14000,"station_id":"ce4bhch2rcd13ifvqeug","pricing_plan_id":"cebpf4jnsgd1na2vs0mg"},{"bike_id":"938b63f2-af1f-42c4-9a73-adb22ed511f3","system_id":"levelo_inurba_marseille","lat":43.300947,"lon":5.390661,"is_reserved":false,"is_disabled":false,"rental_uris":{"android":"levelo://app?vid=938b63f2-af1f-42c4-9a73-adb22ed511f3","ios":"levelo://app?vid=938b63f2-af1f-42c4-9a73-adb22ed511f3"},"vehicle_type_id":"4","last_reported":1752685968,"current_range_meters":14000,"station_id":"ce4bh192rcd13ifvqdb0","pricing_plan_id":"cebpf4jnsgd1na2vs0mg"},{"bike_id":"2f37e499-0f78-43eb-acc3-b7db1a5886d0","system_id":"levelo_inurba_marseille","lat":43.26936,"lon":5.38921,"is_reserved":false,"is_disabled":false,"rental_uris":{"android":"levelo://app?vid=2f37e499-0f78-43eb-acc3-b7db1a5886d0","ios":"levelo://app?vid=2f37e499-0f78-43eb-acc3-b7db1a5886d0"},"vehicle_type_id":"4","last_reported":1752685968,"current_range_meters":14000,"station_id":"ce4bhhh2rcd13ifvqfl0","pricing_plan_id":"cebpf4jnsgd1na2vs0mg"},{"bike_id":"f5817eae-0567-4a50-9665-23663a2ae4f8","system_id":"levelo_inurba_marseille","lat":43.28415,"lon":5.34979,"is_reserved":false,"is_disabled":false,"rental_uris":{"android":"levelo://app?vid=f5817eae-0567-4a50-9665-23663a2ae4f8","ios":"levelo://app?vid=f5817eae-0567-4a50-9665-23663a2ae4f8"},"vehicle_type_id":"4","last_reported":1752685968,"current_range_meters":14400,"station_id":"ce4bhbh2rcd13ifvqepg","pricing_plan_id":"cebpf4jnsgd1na2vs0mg"},{"bike_id":"f1e9e722-d054-490d-b0eb-fa2dfdb4ffa3","system_id":"levelo_inurba_marseille","lat":43.286173,"lon":5.351115,"is_reserved":false,"is_disabled":false,"rental_uris":{"android":"levelo://app?vid=f1e9e722-d054-490d-b0eb-fa2dfdb4ffa3","ios":"levelo://app?vid=f1e9e722-d054-490d-b0eb-fa2dfdb4ffa3"},"vehicle_type_id":"4","last_reported":1752685968,"current_range_meters":14400,"station_id":"ce4bhch2rcd13ifvqeug","pricing_plan_id":"cebpf4jnsgd1na2vs0mg"},{"bike_id":"bfaf68cc-d7b3-4a09-bae6-a1969889d718","system_id":"levelo_inurba_marseille","lat":43.30413,"lon":5.41291,"is_reserved":false,"is_disabled":false,"rental_uris":{"android":"levelo://app?vid=bfaf68cc-d7b3-4a09-bae6-a1969889d718","ios":"levelo://app?vid=bfaf68cc-d7b3-4a09-bae6-a1969889d718"},"vehicle_type_id":"4","last_reported":1752685968,"current_range_meters":14400,"station_id":"ce4bhop2rcd13ifvqh8g","pricing_plan_id":"cebpf4jnsgd1na2vs0mg"},{"bike_id":"475ab063-a861-4f30-a216-3d334e20b922","system_id":"levelo_inurba_marseille","lat":43.2603,"lon":5.37547,"is_reserved":false,"is_disabled":false,"rental_uris":{"android":"levelo://app?vid=475ab063-a861-4f30-a216-3d334e20b922","ios":"levelo://app?vid=475ab063-a861-4f30-a216-3d334e20b922"},"vehicle_type_id":"4","last_reported":1752685968,"current_range_meters":14400,"station_id":"ce4bhgh2rcd13ifvqfa0","pricing_plan_id":"cebpf4jnsgd1na2vs0mg"},{"bike_id":"21278574-57c5-40e9-b2f5-f73fc648a616","system_id":"levelo_inurba_marseille","lat":43.28623,"lon":5.37062,"is_reserved":false,"is_disabled":false,"rental_uris":{"android":"levelo://app?vid=21278574-57c5-40e9-b2f5-f73fc648a616","ios":"levelo://app?vid=21278574-57c5-40e9-b2f5-f73fc648a616"},"vehicle_type_id":"4","last_reported":1752685968,"current_range_meters":14400,"station_id":"ce4bht12rcd13ifvqi60","pricing_plan_id":"cebpf4jnsgd1na2vs0mg"},{"bike_id":"32d1218f-165c-441f-ad46-a226bdc8e1de","system_id":"levelo_inurba_marseille","lat":43.286157,"lon":5.351034,"is_reserved":false,"is_disabled":false,"rental_uris":{"android":"levelo://app?vid=32d1218f-165c-441f-ad46-a226bdc8e1de","ios":"levelo://app?vid=32d1218f-165c-441f-ad46-a226bdc8e1de"},"vehicle_type_id":"4","last_reported":1752685968,"current_range_meters":14400,"station_id":"ce4bhch2rcd13ifvqeug","pricing_plan_id":"cebpf4jnsgd1na2vs0mg"},{"bike_id":"554b0256-6c83-48a0-b234-b3b35034312f","system_id":"levelo_inurba_marseille","lat":43.28271,"lon":5.35054,"is_reserved":false,"is_disabled":false,"rental_uris":{"android":"levelo://app?vid=554b0256-6c83-48a0-b234-b3b35034312f","ios":"levelo://app?vid=554b0256-6c83-48a0-b234-b3b35034312f"},"vehicle_type_id":"4","last_reported":1752685968,"current_range_meters":14400,"station_id":"ce4bhbp2rcd13ifvqerg","pricing_plan_id":"cebpf4jnsgd1na2vs0mg"},{"bike_id":"bb91fdfd-e2e6-4861-a682-9985a5c5d97b","system_id":"levelo_inurba_marseille","lat":43.2319,"lon":5.39969,"is_reserved":false,"is_disabled":false,"rental_uris":{"android":"levelo://app?vid=bb91fdfd-e2e6-4861-a682-9985a5c5d97b","ios":"levelo://app?vid=bb91fdfd-e2e6-4861-a682-9985a5c5d97b"},"vehicle_type_id":"4","last_reported":1752685968,"current_range_meters":14400,"station_id":"ce4bhn12rcd13ifvqgqg","pricing_plan_id":"cebpf4jnsgd1na2vs0mg"},{"bike_id":"c208334e-8770-4eae-8f53-468da9872006","system_id":"levelo_inurba_marseille","lat":43.29299,"lon":5.37446,"is_reserved":false,"is_disabled":false,"rental_uris":{"android":"levelo://app?vid=c208334e-8770-4eae-8f53-468da9872006","ios":"levelo://app?vid=c208334e-8770-4eae-8f53-468da9872006"},"vehicle_type_id":"4","last_reported":1752685968,"current_range_meters":14400,"station_id":"ce4bgi12rcd13ifvqb70","pricing_plan_id":"cebpf4jnsgd1na2vs0mg"},{"bike_id":"dcffc596-d13e-450d-b0a1-9418eec5cbad","system_id":"levelo_inurba_marseille","lat":43.27105,"lon":5.40235,"is_reserved":false,"is_disabled":false,"rental_uris":{"android":"levelo://app?vid=dcffc596-d13e-450d-b0a1-9418eec5cbad","ios":"levelo://app?vid=dcffc596-d13e-450d-b0a1-9418eec5cbad"},"vehicle_type_id":"4","last_reported":1752685968,"current_range_meters":14400,"station_id":"ce4bhk92rcd13ifvqgc0","pricing_plan_id":"cebpf4jnsgd1na2vs0mg"},{"bike_id":"b18c91ed-1137-464d-b9f6-22606474f7bb","system_id":"levelo_inurba_marseille","lat":43.31633,"lon":5.36795,"is_reserved":false,"is_disabled":false,"rental_uris":{"android":"levelo://app?vid=b18c91ed-1137-464d-b9f6-22606474f7bb","ios":"levelo://app?vid=b18c91ed-1137-464d-b9f6-22606474f7bb"},"vehicle_type_id":"4","last_reported":1752685968,"current_range_meters":14800,"station_id":"","pricing_plan_id":"cebpf4jnsgd1na2vs0mg"},{"bike_id":"3d228f27-072c-46f2-84c5-c882fe420e35","system_id":"levelo_inurba_marseille","lat":43.29966,"lon":5.38494,"is_reserved":false,"is_disabled":false,"rental_uris":{"android":"levelo://app?vid=3d228f27-072c-46f2-84c5-c882fe420e35","ios":"levelo://app?vid=3d228f27-072c-46f2-84c5-c882fe420e35"},"vehicle_type_id":"4","last_reported":1752685968,"current_range_meters":14800,"station_id":"ce4bgj92rcd13ifvqbd0","pricing_plan_id":"cebpf4jnsgd1na2vs0mg"},{"bike_id":"941f5e0c-adb3-4b4e-bcb7-3588acd87787","system_id":"levelo_inurba_marseille","lat":43.30135,"lon":5.38785,"is_reserved":false,"is_disabled":true,"rental_uris":{"android":"levelo://app?vid=941f5e0c-adb3-4b4e-bcb7-3588acd87787","ios":"levelo://app?vid=941f5e0c-adb3-4b4e-bcb7-3588acd87787"},"vehicle_type_id":"4","last_reported":1752685968,"current_range_meters":14800,"station_id":"ce4bghh2rcd13ifvqb60","pricing_plan_id":"cebpf4jnsgd1na2vs0mg"},{"bike_id":"4196a211-1d85-4429-b974-dc9819474b43","system_id":"levelo_inurba_marseille","lat":43.31119,"lon":5.37765,"is_reserved":false,"is_disabled":false,"rental_uris":{"android":"levelo://app?vid=4196a211-1d85-4429-b974-dc9819474b43","ios":"levelo://app?vid=4196a211-1d85-4429-b974-dc9819474b43"},"vehicle_type_id":"4","last_reported":1752685968,"current_range_meters":14800,"station_id":"ce4bgt92rcd13ifvqcg0","pricing_plan_id":"cebpf4jnsgd1na2vs0mg"},{"bike_id":"e06e3d2f-8361-45e7-b5b8-f266ea691270","system_id":"levelo_inurba_marseille","lat":43.25493,"lon":5.376491,"is_reserved":false,"is_disabled":false,"rental_uris":{"android":"levelo://app?vid=e06e3d2f-8361-45e7-b5b8-f266ea691270","ios":"levelo://app?vid=e06e3d2f-8361-45e7-b5b8-f266ea691270"},"vehicle_type_id":"4","last_reported":1752685968,"current_range_meters":14800,"station_id":"ce4bhh12rcd13ifvqff0","pricing_plan_id":"cebpf4jnsgd1na2vs0mg"},{"bike_id":"d68fb65c-492e-4fc6-bc4f-dfda0e2a1c37","system_id":"levelo_inurba_marseille","lat":43.29966,"lon":5.38492,"is_reserved":false,"is_disabled":false,"rental_uris":{"android":"levelo://app?vid=d68fb65c-492e-4fc6-bc4f-dfda0e2a1c37","ios":"levelo://app?vid=d68fb65c-492e-4fc6-bc4f-dfda0e2a1c37"},"vehicle_type_id":"4","last_reported":1752685968,"current_range_meters":14800,"station_id":"ce4bgj92rcd13ifvqbd0","pricing_plan_id":"cebpf4jnsgd1na2vs0mg"},{"bike_id":"8eeeb77c-8234-4556-b507-da0594d01e95","system_id":"levelo_inurba_marseille","lat":43.2251,"lon":5.34762,"is_reserved":false,"is_disabled":false,"rental_uris":{"android":"levelo://app?vid=8eeeb77c-8234-4556-b507-da0594d01e95","ios":"levelo://app?vid=8eeeb77c-8234-4556-b507-da0594d01e95"},"vehicle_type_id":"4","last_reported":1752685968,"current_range_meters":14800,"station_id":"st_cvj5dfep6f1abm77gieg","pricing_plan_id":"cebpf4jnsgd1na2vs0mg"},{"bike_id":"7dee92bf-5b07-4927-aa41-9e9493644eeb","system_id":"levelo_inurba_marseille","lat":43.211936,"lon":5.350733,"is_reserved":false,"is_disabled":false,"rental_uris":{"android":"levelo://app?vid=7dee92bf-5b07-4927-aa41-9e9493644eeb","ios":"levelo://app?vid=7dee92bf-5b07-4927-aa41-9e9493644eeb"},"vehicle_type_id":"4","last_reported":1752685968,"current_range_meters":14800,"station_id":"st_cvj6sg6p6f1abm77japg","pricing_plan_id":"cebpf4jnsgd1na2vs0mg"},{"bike_id":"e5faa61f-ccee-448b-9eda-c8ce742ac7df","system_id":"levelo_inurba_marseille","lat":43.31075,"lon":5.38352,"is_reserved":false,"is_disabled":false,"rental_uris":{"android":"levelo://app?vid=e5faa61f-ccee-448b-9eda-c8ce742ac7df","ios":"levelo://app?vid=e5faa61f-ccee-448b-9eda-c8ce742ac7df"},"vehicle_type_id":"4","last_reported":1752685968,"current_range_meters":14800,"station_id":"ce4bgv92rcd13ifvqcr0","pricing_plan_id":"cebpf4jnsgd1na2vs0mg"},{"bike_id":"229a51b8-d35a-46ef-90d9-099d3d4f556b","system_id":"levelo_inurba_marseille","lat":43.29416,"lon":5.38588,"is_reserved":false,"is_disabled":true,"rental_uris":{"android":"levelo://app?vid=229a51b8-d35a-46ef-90d9-099d3d4f556b","ios":"levelo://app?vid=229a51b8-d35a-46ef-90d9-099d3d4f556b"},"vehicle_type_id":"4","last_reported":1752685968,"current_range_meters":15200,"station_id":"ce4bh2h2rcd13ifvqdh0","pricing_plan_id":"cebpf4jnsgd1na2vs0mg"},{"bike_id":"8803ed9a-eadb-4604-b9e1-60c718b93b6b","system_id":"levelo_inurba_marseille","lat":43.26935,"lon":5.38917,"is_reserved":false,"is_disabled":false,"rental_uris":{"android":"levelo://app?vid=8803ed9a-eadb-4604-b9e1-60c718b93b6b","ios":"levelo://app?vid=8803ed9a-eadb-4604-b9e1-60c718b93b6b"},"vehicle_type_id":"4","last_reported":1752685968,"current_range_meters":15200,"station_id":"ce4bhhh2rcd13ifvqfl0","pricing_plan_id":"cebpf4jnsgd1na2vs0mg"},{"bike_id":"bd1957c7-66f8-44d2-bae7-c84dd13ebc52","system_id":"levelo_inurba_marseille","lat":43.29023,"lon":5.38643,"is_reserved":false,"is_disabled":false,"rental_uris":{"android":"levelo://app?vid=bd1957c7-66f8-44d2-bae7-c84dd13ebc52","ios":"levelo://app?vid=bd1957c7-66f8-44d2-bae7-c84dd13ebc52"},"vehicle_type_id":"4","last_reported":1752685968,"current_range_meters":15200,"station_id":"ce4bh4p2rcd13ifvqe0g","pricing_plan_id":"cebpf4jnsgd1na2vs0mg"},{"bike_id":"c4ebdafa-3612-4ef4-8d2b-e09930b2dfc8","system_id":"levelo_inurba_marseille","lat":43.28713,"lon":5.3999,"is_reserved":false,"is_disabled":false,"rental_uris":{"android":"levelo://app?vid=c4ebdafa-3612-4ef4-8d2b-e09930b2dfc8","ios":"levelo://app?vid=c4ebdafa-3612-4ef4-8d2b-e09930b2dfc8"},"vehicle_type_id":"4","last_reported":1752685968,"current_range_meters":16000,"station_id":"ce4bho92rcd13ifvqh3g","pricing_plan_id":"cebpf4jnsgd1na2vs0mg"},{"bike_id":"7d5bf739-9b5e-480b-bcac-abe3c351a3b5","system_id":"levelo_inurba_marseille","lat":43.29967,"lon":5.38495,"is_reserved":false,"is_disabled":false,"rental_uris":{"android":"levelo://app?vid=7d5bf739-9b5e-480b-bcac-abe3c351a3b5","ios":"levelo://app?vid=7d5bf739-9b5e-480b-bcac-abe3c351a3b5"},"vehicle_type_id":"4","last_reported":1752685968,"current_range_meters":16000,"station_id":"ce4bgj92rcd13ifvqbd0","pricing_plan_id":"cebpf4jnsgd1na2vs0mg"},{"bike_id":"47e84c87-4631-48fa-8064-ac43c2313bba","system_id":"levelo_inurba_marseille","lat":43.293045,"lon":5.37169,"is_reserved":false,"is_disabled":true,"rental_uris":{"android":"levelo://app?vid=47e84c87-4631-48fa-8064-ac43c2313bba","ios":"levelo://app?vid=47e84c87-4631-48fa-8064-ac43c2313bba"},"vehicle_type_id":"4","last_reported":1752685968,"current_range_meters":16000,"station_id":"ce4bgh92rcd13ifvqb40","pricing_plan_id":"cebpf4jnsgd1na2vs0mg"},{"bike_id":"28fe130f-da9f-45dc-ac2f-87d475e82541","system_id":"levelo_inurba_marseille","lat":43.29016,"lon":5.35596,"is_reserved":false,"is_disabled":false,"rental_uris":{"android":"levelo://app?vid=28fe130f-da9f-45dc-ac2f-87d475e82541","ios":"levelo://app?vid=28fe130f-da9f-45dc-ac2f-87d475e82541"},"vehicle_type_id":"4","last_reported":1752685968,"current_range_meters":16000,"station_id":"ce4bhb92rcd13ifvqen0","pricing_plan_id":"cebpf4jnsgd1na2vs0mg"},{"bike_id":"b83ebe5b-715a-4e73-9e79-7020d08643a0","system_id":"levelo_inurba_marseille","lat":43.29595,"lon":5.37718,"is_reserved":false,"is_disabled":true,"rental_uris":{"android":"levelo://app?vid=b83ebe5b-715a-4e73-9e79-7020d08643a0","ios":"levelo://app?vid=b83ebe5b-715a-4e73-9e79-7020d08643a0"},"vehicle_type_id":"4","last_reported":1752685968,"current_range_meters":16000,"station_id":"ce4bgi92rcd13ifvqb90","pricing_plan_id":"cebpf4jnsgd1na2vs0mg"},{"bike_id":"742922c9-1b61-4753-a73c-0d5b4b131484","system_id":"levelo_inurba_marseille","lat":43.282811,"lon":5.350708,"is_reserved":false,"is_disabled":false,"rental_uris":{"android":"levelo://app?vid=742922c9-1b61-4753-a73c-0d5b4b131484","ios":"levelo://app?vid=742922c9-1b61-4753-a73c-0d5b4b131484"},"vehicle_type_id":"4","last_reported":1752685968,"current_range_meters":16000,"station_id":"ce4bhbp2rcd13ifvqerg","pricing_plan_id":"cebpf4jnsgd1na2vs0mg"},{"bike_id":"91a31f9c-39a6-4bc7-b01e-4b709b2db2a4","system_id":"levelo_inurba_marseille","lat":43.28285,"lon":5.35067,"is_reserved":false,"is_disabled":false,"rental_uris":{"android":"levelo://app?vid=91a31f9c-39a6-4bc7-b01e-4b709b2db2a4","ios":"levelo://app?vid=91a31f9c-39a6-4bc7-b01e-4b709b2db2a4"},"vehicle_type_id":"4","last_reported":1752685968,"current_range_meters":16000,"station_id":"ce4bhbp2rcd13ifvqerg","pricing_plan_id":"cebpf4jnsgd1na2vs0mg"},{"bike_id":"c63e052a-e1aa-456f-8eb2-745a20b67bcb","system_id":"levelo_inurba_marseille","lat":43.2904,"lon":5.359,"is_reserved":false,"is_disabled":false,"rental_uris":{"android":"levelo://app?vid=c63e052a-e1aa-456f-8eb2-745a20b67bcb","ios":"levelo://app?vid=c63e052a-e1aa-456f-8eb2-745a20b67bcb"},"vehicle_type_id":"4","last_reported":1752685968,"current_range_meters":16000,"station_id":"ce4bha92rcd13ifvqeg0","pricing_plan_id":"cebpf4jnsgd1na2vs0mg"},{"bike_id":"d697e4f3-cf7d-45e9-b67b-45ee6d3593f5","system_id":"levelo_inurba_marseille","lat":43.28619,"lon":5.35092,"is_reserved":false,"is_disabled":false,"rental_uris":{"android":"levelo://app?vid=d697e4f3-cf7d-45e9-b67b-45ee6d3593f5","ios":"levelo://app?vid=d697e4f3-cf7d-45e9-b67b-45ee6d3593f5"},"vehicle_type_id":"4","last_reported":1752685968,"current_range_meters":16000,"station_id":"ce4bhch2rcd13ifvqeug","pricing_plan_id":"cebpf4jnsgd1na2vs0mg"},{"bike_id":"9c5f4a1a-b323-4daf-9e2f-4408ae6c6b17","system_id":"levelo_inurba_marseille","lat":43.29222,"lon":5.36069,"is_reserved":false,"is_disabled":false,"rental_uris":{"android":"levelo://app?vid=9c5f4a1a-b323-4daf-9e2f-4408ae6c6b17","ios":"levelo://app?vid=9c5f4a1a-b323-4daf-9e2f-4408ae6c6b17"},"vehicle_type_id":"4","last_reported":1752685968,"current_range_meters":16000,"station_id":"ce4bhbh2rcd13ifvqeqg","pricing_plan_id":"cebpf4jnsgd1na2vs0mg"},{"bike_id":"d5fa8f59-5da6-4d73-a49c-6c6448b1fdde","system_id":"levelo_inurba_marseille","lat":43.29004,"lon":5.35609,"is_reserved":false,"is_disabled":false,"rental_uris":{"android":"levelo://app?vid=d5fa8f59-5da6-4d73-a49c-6c6448b1fdde","ios":"levelo://app?vid=d5fa8f59-5da6-4d73-a49c-6c6448b1fdde"},"vehicle_type_id":"4","last_reported":1752685968,"current_range_meters":16400,"station_id":"ce4bhb92rcd13ifvqen0","pricing_plan_id":"cebpf4jnsgd1na2vs0mg"},{"bike_id":"57c5cb18-5bd1-4bb2-a03f-cdbd2ebc5642","system_id":"levelo_inurba_marseille","lat":43.28416,"lon":5.3498,"is_reserved":false,"is_disabled":false,"rental_uris":{"android":"levelo://app?vid=57c5cb18-5bd1-4bb2-a03f-cdbd2ebc5642","ios":"levelo://app?vid=57c5cb18-5bd1-4bb2-a03f-cdbd2ebc5642"},"vehicle_type_id":"4","last_reported":1752685968,"current_range_meters":16400,"station_id":"ce4bhbh2rcd13ifvqepg","pricing_plan_id":"cebpf4jnsgd1na2vs0mg"},{"bike_id":"ff8a6a31-a01c-40ca-a92b-01c2e37ed608","system_id":"levelo_inurba_marseille","lat":43.31217,"lon":5.36851,"is_reserved":false,"is_disabled":false,"rental_uris":{"android":"levelo://app?vid=ff8a6a31-a01c-40ca-a92b-01c2e37ed608","ios":"levelo://app?vid=ff8a6a31-a01c-40ca-a92b-01c2e37ed608"},"vehicle_type_id":"4","last_reported":1752685968,"current_range_meters":16000,"station_id":"ce4bgl92rcd13ifvqbq0","pricing_plan_id":"cebpf4jnsgd1na2vs0mg"},{"bike_id":"2a91bad5-4ae2-4d2f-8d70-696ff200d900","system_id":"levelo_inurba_marseille","lat":43.24811,"lon":5.37452,"is_reserved":false,"is_disabled":false,"rental_uris":{"android":"levelo://app?vid=2a91bad5-4ae2-4d2f-8d70-696ff200d900","ios":"levelo://app?vid=2a91bad5-4ae2-4d2f-8d70-696ff200d900"},"vehicle_type_id":"4","last_reported":1752685968,"current_range_meters":16400,"station_id":"ce4bhgh2rcd13ifvqfb0","pricing_plan_id":"cebpf4jnsgd1na2vs0mg"},{"bike_id":"7425af41-f939-4fb5-81a7-e1169ccaa6d8","system_id":"levelo_inurba_marseille","lat":43.24704,"lon":5.38157,"is_reserved":false,"is_disabled":true,"rental_uris":{"android":"levelo://app?vid=7425af41-f939-4fb5-81a7-e1169ccaa6d8","ios":"levelo://app?vid=7425af41-f939-4fb5-81a7-e1169ccaa6d8"},"vehicle_type_id":"4","last_reported":1752685968,"current_range_meters":16400,"station_id":"ce4bhih2rcd13ifvqfr0","pricing_plan_id":"cebpf4jnsgd1na2vs0mg"},{"bike_id":"fb7e57c1-17d0-4211-9eff-ffe253e5ff01","system_id":"levelo_inurba_marseille","lat":43.28158,"lon":5.42619,"is_reserved":false,"is_disabled":false,"rental_uris":{"android":"levelo://app?vid=fb7e57c1-17d0-4211-9eff-ffe253e5ff01","ios":"levelo://app?vid=fb7e57c1-17d0-4211-9eff-ffe253e5ff01"},"vehicle_type_id":"4","last_reported":1752685968,"current_range_meters":16400,"station_id":"ce4bhnh2rcd13ifvqgug","pricing_plan_id":"cebpf4jnsgd1na2vs0mg"},{"bike_id":"a3266973-c915-4662-8e35-7f2d8c487755","system_id":"levelo_inurba_marseille","lat":43.29781,"lon":5.37115,"is_reserved":false,"is_disabled":false,"rental_uris":{"android":"levelo://app?vid=a3266973-c915-4662-8e35-7f2d8c487755","ios":"levelo://app?vid=a3266973-c915-4662-8e35-7f2d8c487755"},"vehicle_type_id":"4","last_reported":1752685968,"current_range_meters":16400,"station_id":"ce4bgop2rcd13ifvqc1g","pricing_plan_id":"cebpf4jnsgd1na2vs0mg"},{"bike_id":"9090e647-a713-44ba-b392-5ac73cd154dd","system_id":"levelo_inurba_marseille","lat":43.23066,"lon":5.3549,"is_reserved":false,"is_disabled":false,"rental_uris":{"android":"levelo://app?vid=9090e647-a713-44ba-b392-5ac73cd154dd","ios":"levelo://app?vid=9090e647-a713-44ba-b392-5ac73cd154dd"},"vehicle_type_id":"4","last_reported":1752685968,"current_range_meters":16400,"station_id":"cpo3342slgdg3j2ifvpg","pricing_plan_id":"cebpf4jnsgd1na2vs0mg"},{"bike_id":"1864e210-fe66-4dad-be32-1c83a21b1897","system_id":"levelo_inurba_marseille","lat":43.251296,"lon":5.403356,"is_reserved":false,"is_disabled":false,"rental_uris":{"android":"levelo://app?vid=1864e210-fe66-4dad-be32-1c83a21b1897","ios":"levelo://app?vid=1864e210-fe66-4dad-be32-1c83a21b1897"},"vehicle_type_id":"4","last_reported":1752685968,"current_range_meters":16400,"station_id":"ce4bhlh2rcd13ifvqgig","pricing_plan_id":"cebpf4jnsgd1na2vs0mg"},{"bike_id":"555bc53e-5286-4fb6-9154-af42b3fd9792","system_id":"levelo_inurba_marseille","lat":43.30078,"lon":5.37282,"is_reserved":false,"is_disabled":false,"rental_uris":{"android":"levelo://app?vid=555bc53e-5286-4fb6-9154-af42b3fd9792","ios":"levelo://app?vid=555bc53e-5286-4fb6-9154-af42b3fd9792"},"vehicle_type_id":"4","last_reported":1752685968,"current_range_meters":16400,"station_id":"","pricing_plan_id":"cebpf4jnsgd1na2vs0mg"},{"bike_id":"8ea8e93b-205a-48ee-a9c1-a8d5cc6f6b02","system_id":"levelo_inurba_marseille","lat":43.26238,"lon":5.37427,"is_reserved":false,"is_disabled":false,"rental_uris":{"android":"levelo://app?vid=8ea8e93b-205a-48ee-a9c1-a8d5cc6f6b02","ios":"levelo://app?vid=8ea8e93b-205a-48ee-a9c1-a8d5cc6f6b02"},"vehicle_type_id":"4","last_reported":1752685968,"current_range_meters":16400,"station_id":"ce4bhgp2rcd13ifvqfc0","pricing_plan_id":"cebpf4jnsgd1na2vs0mg"},{"bike_id":"ecf4558d-3cef-439b-8ff3-6f1c795a80cd","system_id":"levelo_inurba_marseille","lat":43.28282,"lon":5.35052,"is_reserved":false,"is_disabled":false,"rental_uris":{"android":"levelo://app?vid=ecf4558d-3cef-439b-8ff3-6f1c795a80cd","ios":"levelo://app?vid=ecf4558d-3cef-439b-8ff3-6f1c795a80cd"},"vehicle_type_id":"4","last_reported":1752685968,"current_range_meters":16400,"station_id":"ce4bhbp2rcd13ifvqerg","pricing_plan_id":"cebpf4jnsgd1na2vs0mg"},{"bike_id":"761350d9-0dac-46b7-a5f9-176d5ba9b822","system_id":"levelo_inurba_marseille","lat":43.28414,"lon":5.34982,"is_reserved":false,"is_disabled":false,"rental_uris":{"android":"levelo://app?vid=761350d9-0dac-46b7-a5f9-176d5ba9b822","ios":"levelo://app?vid=761350d9-0dac-46b7-a5f9-176d5ba9b822"},"vehicle_type_id":"4","last_reported":1752685968,"current_range_meters":16400,"station_id":"ce4bhbh2rcd13ifvqepg","pricing_plan_id":"cebpf4jnsgd1na2vs0mg"},{"bike_id":"285aaa26-07be-4c4a-9be9-3c0873597bc5","system_id":"levelo_inurba_marseille","lat":43.29631,"lon":5.36738,"is_reserved":false,"is_disabled":false,"rental_uris":{"android":"levelo://app?vid=285aaa26-07be-4c4a-9be9-3c0873597bc5","ios":"levelo://app?vid=285aaa26-07be-4c4a-9be9-3c0873597bc5"},"vehicle_type_id":"4","last_reported":1752685968,"current_range_meters":16400,"station_id":"","pricing_plan_id":"cebpf4jnsgd1na2vs0mg"},{"bike_id":"bf7cb8bd-f5eb-4441-9bde-55e520634923","system_id":"levelo_inurba_marseille","lat":43.264954,"lon":5.395305,"is_reserved":false,"is_disabled":false,"rental_uris":{"android":"levelo://app?vid=bf7cb8bd-f5eb-4441-9bde-55e520634923","ios":"levelo://app?vid=bf7cb8bd-f5eb-4441-9bde-55e520634923"},"vehicle_type_id":"4","last_reported":1752685968,"current_range_meters":16400,"station_id":"ce4bhi12rcd13ifvqfq0","pricing_plan_id":"cebpf4jnsgd1na2vs0mg"},{"bike_id":"39c6203f-25ee-487c-9399-b36ef495fc6b","system_id":"levelo_inurba_marseille","lat":43.24084,"lon":5.37736,"is_reserved":false,"is_disabled":false,"rental_uris":{"android":"levelo://app?vid=39c6203f-25ee-487c-9399-b36ef495fc6b","ios":"levelo://app?vid=39c6203f-25ee-487c-9399-b36ef495fc6b"},"vehicle_type_id":"4","last_reported":1752685968,"current_range_meters":16400,"station_id":"ce4bhnp2rcd13ifvqgvg","pricing_plan_id":"cebpf4jnsgd1na2vs0mg"},{"bike_id":"8417ad62-2136-4647-b89c-f46e0aabae59","system_id":"levelo_inurba_marseille","lat":43.22927,"lon":5.35374,"is_reserved":false,"is_disabled":false,"rental_uris":{"android":"levelo://app?vid=8417ad62-2136-4647-b89c-f46e0aabae59","ios":"levelo://app?vid=8417ad62-2136-4647-b89c-f46e0aabae59"},"vehicle_type_id":"4","last_reported":1752685968,"current_range_meters":16400,"station_id":"cpo3532slgdg3j2ikp40","pricing_plan_id":"cebpf4jnsgd1na2vs0mg"},{"bike_id":"0398468c-6c0f-49fd-b525-08c45b6a4cd9","system_id":"levelo_inurba_marseille","lat":43.22503,"lon":5.34771,"is_reserved":false,"is_disabled":false,"rental_uris":{"android":"levelo://app?vid=0398468c-6c0f-49fd-b525-08c45b6a4cd9","ios":"levelo://app?vid=0398468c-6c0f-49fd-b525-08c45b6a4cd9"},"vehicle_type_id":"4","last_reported":1752685968,"current_range_meters":16800,"station_id":"st_cvj5dfep6f1abm77gieg","pricing_plan_id":"cebpf4jnsgd1na2vs0mg"},{"bike_id":"50e152cf-edc9-4bc9-8232-19cb41a00858","system_id":"levelo_inurba_marseille","lat":43.28424,"lon":5.34988,"is_reserved":false,"is_disabled":false,"rental_uris":{"android":"levelo://app?vid=50e152cf-edc9-4bc9-8232-19cb41a00858","ios":"levelo://app?vid=50e152cf-edc9-4bc9-8232-19cb41a00858"},"vehicle_type_id":"4","last_reported":1752685968,"current_range_meters":16800,"station_id":"ce4bhbh2rcd13ifvqepg","pricing_plan_id":"cebpf4jnsgd1na2vs0mg"},{"bike_id":"4833afe1-c073-4b47-beab-85bcc147349f","system_id":"levelo_inurba_marseille","lat":43.292719,"lon":5.368377,"is_reserved":false,"is_disabled":false,"rental_uris":{"android":"levelo://app?vid=4833afe1-c073-4b47-beab-85bcc147349f","ios":"levelo://app?vid=4833afe1-c073-4b47-beab-85bcc147349f"},"vehicle_type_id":"4","last_reported":1752685968,"current_range_meters":16800,"station_id":"","pricing_plan_id":"cebpf4jnsgd1na2vs0mg"},{"bike_id":"3444bdc6-514a-4ba6-9650-f9073305e33d","system_id":"levelo_inurba_marseille","lat":43.29682,"lon":5.3698,"is_reserved":false,"is_disabled":false,"rental_uris":{"android":"levelo://app?vid=3444bdc6-514a-4ba6-9650-f9073305e33d","ios":"levelo://app?vid=3444bdc6-514a-4ba6-9650-f9073305e33d"},"vehicle_type_id":"4","last_reported":1752685968,"current_range_meters":16800,"station_id":"","pricing_plan_id":"cebpf4jnsgd1na2vs0mg"},{"bike_id":"34e62ee5-3131-428c-842a-9ad03de94ba5","system_id":"levelo_inurba_marseille","lat":43.22502,"lon":5.34783,"is_reserved":false,"is_disabled":false,"rental_uris":{"android":"levelo://app?vid=34e62ee5-3131-428c-842a-9ad03de94ba5","ios":"levelo://app?vid=34e62ee5-3131-428c-842a-9ad03de94ba5"},"vehicle_type_id":"4","last_reported":1752685968,"current_range_meters":16800,"station_id":"st_cvj5dfep6f1abm77gieg","pricing_plan_id":"cebpf4jnsgd1na2vs0mg"},{"bike_id":"bcde9883-e98f-4a92-909e-e5fd6f77c809","system_id":"levelo_inurba_marseille","lat":43.29893,"lon":5.43669,"is_reserved":false,"is_disabled":false,"rental_uris":{"android":"levelo://app?vid=bcde9883-e98f-4a92-909e-e5fd6f77c809","ios":"levelo://app?vid=bcde9883-e98f-4a92-909e-e5fd6f77c809"},"vehicle_type_id":"4","last_reported":1752685968,"current_range_meters":16800,"station_id":"ce4bhpp2rcd13ifvqhfg","pricing_plan_id":"cebpf4jnsgd1na2vs0mg"},{"bike_id":"f9fbac16-b0d2-41ee-a305-6c8a5a8258e8","system_id":"levelo_inurba_marseille","lat":43.29005,"lon":5.35611,"is_reserved":false,"is_disabled":false,"rental_uris":{"android":"levelo://app?vid=f9fbac16-b0d2-41ee-a305-6c8a5a8258e8","ios":"levelo://app?vid=f9fbac16-b0d2-41ee-a305-6c8a5a8258e8"},"vehicle_type_id":"4","last_reported":1752685968,"current_range_meters":16800,"station_id":"ce4bhb92rcd13ifvqen0","pricing_plan_id":"cebpf4jnsgd1na2vs0mg"},{"bike_id":"ff5c8968-3975-479f-9d7b-125d882ea4b6","system_id":"levelo_inurba_marseille","lat":43.28422,"lon":5.34991,"is_reserved":false,"is_disabled":false,"rental_uris":{"android":"levelo://app?vid=ff5c8968-3975-479f-9d7b-125d882ea4b6","ios":"levelo://app?vid=ff5c8968-3975-479f-9d7b-125d882ea4b6"},"vehicle_type_id":"4","last_reported":1752685968,"current_range_meters":16800,"station_id":"ce4bhbh2rcd13ifvqepg","pricing_plan_id":"cebpf4jnsgd1na2vs0mg"},{"bike_id":"1f10401f-b7cc-4ad8-b16a-62268da07c88","system_id":"levelo_inurba_marseille","lat":43.21187,"lon":5.35068,"is_reserved":false,"is_disabled":false,"rental_uris":{"android":"levelo://app?vid=1f10401f-b7cc-4ad8-b16a-62268da07c88","ios":"levelo://app?vid=1f10401f-b7cc-4ad8-b16a-62268da07c88"},"vehicle_type_id":"4","last_reported":1752685968,"current_range_meters":16800,"station_id":"st_cvj6sg6p6f1abm77japg","pricing_plan_id":"cebpf4jnsgd1na2vs0mg"},{"bike_id":"b399da78-cf63-4de2-b505-0740a1d1e170","system_id":"levelo_inurba_marseille","lat":43.22506,"lon":5.34781,"is_reserved":false,"is_disabled":false,"rental_uris":{"android":"levelo://app?vid=b399da78-cf63-4de2-b505-0740a1d1e170","ios":"levelo://app?vid=b399da78-cf63-4de2-b505-0740a1d1e170"},"vehicle_type_id":"4","last_reported":1752685968,"current_range_meters":16800,"station_id":"st_cvj5dfep6f1abm77gieg","pricing_plan_id":"cebpf4jnsgd1na2vs0mg"},{"bike_id":"07f5ae19-0925-43ef-aab4-48ec58bc62b9","system_id":"levelo_inurba_marseille","lat":43.31449,"lon":5.3744,"is_reserved":false,"is_disabled":false,"rental_uris":{"android":"levelo://app?vid=07f5ae19-0925-43ef-aab4-48ec58bc62b9","ios":"levelo://app?vid=07f5ae19-0925-43ef-aab4-48ec58bc62b9"},"vehicle_type_id":"4","last_reported":1752685968,"current_range_meters":16800,"station_id":"","pricing_plan_id":"cebpf4jnsgd1na2vs0mg"},{"bike_id":"243ff24d-c224-4f6c-8766-a9a443123038","system_id":"levelo_inurba_marseille","lat":43.23964,"lon":5.36634,"is_reserved":false,"is_disabled":false,"rental_uris":{"android":"levelo://app?vid=243ff24d-c224-4f6c-8766-a9a443123038","ios":"levelo://app?vid=243ff24d-c224-4f6c-8766-a9a443123038"},"vehicle_type_id":"4","last_reported":1752685968,"current_range_meters":16800,"station_id":"ce4bhi12rcd13ifvqfp0","pricing_plan_id":"cebpf4jnsgd1na2vs0mg"},{"bike_id":"b0913f93-a684-4140-9689-82edfbc4235d","system_id":"levelo_inurba_marseille","lat":43.211914,"lon":5.350741,"is_reserved":false,"is_disabled":false,"rental_uris":{"android":"levelo://app?vid=b0913f93-a684-4140-9689-82edfbc4235d","ios":"levelo://app?vid=b0913f93-a684-4140-9689-82edfbc4235d"},"vehicle_type_id":"4","last_reported":1752685968,"current_range_meters":17200,"station_id":"st_cvj6sg6p6f1abm77japg","pricing_plan_id":"cebpf4jnsgd1na2vs0mg"},{"bike_id":"baf819d3-69cc-4e2f-8cc3-261bef54b3b9","system_id":"levelo_inurba_marseille","lat":43.28418,"lon":5.34977,"is_reserved":false,"is_disabled":false,"rental_uris":{"android":"levelo://app?vid=baf819d3-69cc-4e2f-8cc3-261bef54b3b9","ios":"levelo://app?vid=baf819d3-69cc-4e2f-8cc3-261bef54b3b9"},"vehicle_type_id":"4","last_reported":1752685968,"current_range_meters":17200,"station_id":"ce4bhbh2rcd13ifvqepg","pricing_plan_id":"cebpf4jnsgd1na2vs0mg"},{"bike_id":"36a6c12e-eead-45de-84c6-953ebc98825e","system_id":"levelo_inurba_marseille","lat":43.31267,"lon":5.40166,"is_reserved":false,"is_disabled":false,"rental_uris":{"android":"levelo://app?vid=36a6c12e-eead-45de-84c6-953ebc98825e","ios":"levelo://app?vid=36a6c12e-eead-45de-84c6-953ebc98825e"},"vehicle_type_id":"4","last_reported":1752685968,"current_range_meters":17200,"station_id":"ce4bh092rcd13ifvqd30","pricing_plan_id":"cebpf4jnsgd1na2vs0mg"},{"bike_id":"8acdf02c-787e-4a1e-956a-5c94a3dff06a","system_id":"levelo_inurba_marseille","lat":43.2851,"lon":5.40586,"is_reserved":false,"is_disabled":false,"rental_uris":{"android":"levelo://app?vid=8acdf02c-787e-4a1e-956a-5c94a3dff06a","ios":"levelo://app?vid=8acdf02c-787e-4a1e-956a-5c94a3dff06a"},"vehicle_type_id":"4","last_reported":1752685968,"current_range_meters":17200,"station_id":"","pricing_plan_id":"cebpf4jnsgd1na2vs0mg"},{"bike_id":"84cce11c-8c82-461d-ba45-a8a56b83a639","system_id":"levelo_inurba_marseille","lat":43.28354,"lon":5.38109,"is_reserved":false,"is_disabled":false,"rental_uris":{"android":"levelo://app?vid=84cce11c-8c82-461d-ba45-a8a56b83a639","ios":"levelo://app?vid=84cce11c-8c82-461d-ba45-a8a56b83a639"},"vehicle_type_id":"4","last_reported":1752685968,"current_range_meters":17200,"station_id":"ce4bh412rcd13ifvqdr0","pricing_plan_id":"cebpf4jnsgd1na2vs0mg"},{"bike_id":"81f522cb-97be-4947-9705-84fda6832d4c","system_id":"levelo_inurba_marseille","lat":43.337444,"lon":5.374475,"is_reserved":false,"is_disabled":false,"rental_uris":{"android":"levelo://app?vid=81f522cb-97be-4947-9705-84fda6832d4c","ios":"levelo://app?vid=81f522cb-97be-4947-9705-84fda6832d4c"},"vehicle_type_id":"4","last_reported":1752685968,"current_range_meters":17200,"station_id":"ce4bhh92rcd13ifvqfj0","pricing_plan_id":"cebpf4jnsgd1na2vs0mg"},{"bike_id":"def589f8-1927-40c7-bbb8-81631032d093","system_id":"levelo_inurba_marseille","lat":43.22496,"lon":5.34796,"is_reserved":false,"is_disabled":false,"rental_uris":{"android":"levelo://app?vid=def589f8-1927-40c7-bbb8-81631032d093","ios":"levelo://app?vid=def589f8-1927-40c7-bbb8-81631032d093"},"vehicle_type_id":"4","last_reported":1752685968,"current_range_meters":17200,"station_id":"st_cvj5dfep6f1abm77gieg","pricing_plan_id":"cebpf4jnsgd1na2vs0mg"},{"bike_id":"0ed3d7a5-f132-48bb-a1d1-88edb4482f46","system_id":"levelo_inurba_marseille","lat":43.29872,"lon":5.39729,"is_reserved":false,"is_disabled":false,"rental_uris":{"android":"levelo://app?vid=0ed3d7a5-f132-48bb-a1d1-88edb4482f46","ios":"levelo://app?vid=0ed3d7a5-f132-48bb-a1d1-88edb4482f46"},"vehicle_type_id":"4","last_reported":1752685968,"current_range_meters":17600,"station_id":"ce4bh0h2rcd13ifvqd50","pricing_plan_id":"cebpf4jnsgd1na2vs0mg"},{"bike_id":"0113d280-522b-4679-bde9-135a6a8591f2","system_id":"levelo_inurba_marseille","lat":43.21189,"lon":5.35046,"is_reserved":false,"is_disabled":false,"rental_uris":{"android":"levelo://app?vid=0113d280-522b-4679-bde9-135a6a8591f2","ios":"levelo://app?vid=0113d280-522b-4679-bde9-135a6a8591f2"},"vehicle_type_id":"4","last_reported":1752685968,"current_range_meters":17600,"station_id":"st_cvj6sg6p6f1abm77japg","pricing_plan_id":"cebpf4jnsgd1na2vs0mg"},{"bike_id":"0feca23e-d248-45b9-b676-8aec975a6ea0","system_id":"levelo_inurba_marseille","lat":43.28411,"lon":5.35,"is_reserved":false,"is_disabled":false,"rental_uris":{"android":"levelo://app?vid=0feca23e-d248-45b9-b676-8aec975a6ea0","ios":"levelo://app?vid=0feca23e-d248-45b9-b676-8aec975a6ea0"},"vehicle_type_id":"4","last_reported":1752685968,"current_range_meters":17600,"station_id":"ce4bhbh2rcd13ifvqepg","pricing_plan_id":"cebpf4jnsgd1na2vs0mg"},{"bike_id":"fe82892b-1b61-4269-b832-b5c5b7f1a23f","system_id":"levelo_inurba_marseille","lat":43.28407,"lon":5.37515,"is_reserved":false,"is_disabled":false,"rental_uris":{"android":"levelo://app?vid=fe82892b-1b61-4269-b832-b5c5b7f1a23f","ios":"levelo://app?vid=fe82892b-1b61-4269-b832-b5c5b7f1a23f"},"vehicle_type_id":"4","last_reported":1752685968,"current_range_meters":18000,"station_id":"ce4bh412rcd13ifvqds0","pricing_plan_id":"cebpf4jnsgd1na2vs0mg"},{"bike_id":"15e281ac-ac0d-4b6f-b426-fa5c002bd7ee","system_id":"levelo_inurba_marseille","lat":43.2767,"lon":5.38896,"is_reserved":false,"is_disabled":true,"rental_uris":{"android":"levelo://app?vid=15e281ac-ac0d-4b6f-b426-fa5c002bd7ee","ios":"levelo://app?vid=15e281ac-ac0d-4b6f-b426-fa5c002bd7ee"},"vehicle_type_id":"4","last_reported":1752685968,"current_range_meters":18000,"station_id":"ce4bhi12rcd13ifvqfo0","pricing_plan_id":"cebpf4jnsgd1na2vs0mg"},{"bike_id":"f6e67167-3686-4cae-82da-4610049996dc","system_id":"levelo_inurba_marseille","lat":43.26911,"lon":5.38539,"is_reserved":false,"is_disabled":false,"rental_uris":{"android":"levelo://app?vid=f6e67167-3686-4cae-82da-4610049996dc","ios":"levelo://app?vid=f6e67167-3686-4cae-82da-4610049996dc"},"vehicle_type_id":"4","last_reported":1752685968,"current_range_meters":18000,"station_id":"","pricing_plan_id":"cebpf4jnsgd1na2vs0mg"},{"bike_id":"8f539e6f-9094-40c9-8752-bb47e845cf19","system_id":"levelo_inurba_marseille","lat":43.29774,"lon":5.38095,"is_reserved":false,"is_disabled":false,"rental_uris":{"android":"levelo://app?vid=8f539e6f-9094-40c9-8752-bb47e845cf19","ios":"levelo://app?vid=8f539e6f-9094-40c9-8752-bb47e845cf19"},"vehicle_type_id":"4","last_reported":1752685968,"current_range_meters":18000,"station_id":"ce4bgip2rcd13ifvqbb0","pricing_plan_id":"cebpf4jnsgd1na2vs0mg"},{"bike_id":"c4d7c0d3-3fa0-42f9-a775-3626a94c8e22","system_id":"levelo_inurba_marseille","lat":43.273746,"lon":5.362604,"is_reserved":false,"is_disabled":false,"rental_uris":{"android":"levelo://app?vid=c4d7c0d3-3fa0-42f9-a775-3626a94c8e22","ios":"levelo://app?vid=c4d7c0d3-3fa0-42f9-a775-3626a94c8e22"},"vehicle_type_id":"4","last_reported":1752685968,"current_range_meters":18000,"station_id":"ce4bhbh2rcd13ifvqeo0","pricing_plan_id":"cebpf4jnsgd1na2vs0mg"},{"bike_id":"387cfbef-45c2-445a-83ff-2e5089f417be","system_id":"levelo_inurba_marseille","lat":43.30214,"lon":5.39466,"is_reserved":false,"is_disabled":false,"rental_uris":{"android":"levelo://app?vid=387cfbef-45c2-445a-83ff-2e5089f417be","ios":"levelo://app?vid=387cfbef-45c2-445a-83ff-2e5089f417be"},"vehicle_type_id":"4","last_reported":1752685968,"current_range_meters":18000,"station_id":"ce4bh0p2rcd13ifvqd70","pricing_plan_id":"cebpf4jnsgd1na2vs0mg"},{"bike_id":"d4de712a-114a-499b-9a91-17a1fda216c2","system_id":"levelo_inurba_marseille","lat":43.279,"lon":5.37995,"is_reserved":false,"is_disabled":false,"rental_uris":{"android":"levelo://app?vid=d4de712a-114a-499b-9a91-17a1fda216c2","ios":"levelo://app?vid=d4de712a-114a-499b-9a91-17a1fda216c2"},"vehicle_type_id":"4","last_reported":1752685968,"current_range_meters":18000,"station_id":"ce4bhf92rcd13ifvqf50","pricing_plan_id":"cebpf4jnsgd1na2vs0mg"},{"bike_id":"5edaaff6-d2a9-43d5-97e9-b3e7190297c6","system_id":"levelo_inurba_marseille","lat":43.28421,"lon":5.34997,"is_reserved":false,"is_disabled":false,"rental_uris":{"android":"levelo://app?vid=5edaaff6-d2a9-43d5-97e9-b3e7190297c6","ios":"levelo://app?vid=5edaaff6-d2a9-43d5-97e9-b3e7190297c6"},"vehicle_type_id":"4","last_reported":1752685968,"current_range_meters":18000,"station_id":"ce4bhbh2rcd13ifvqepg","pricing_plan_id":"cebpf4jnsgd1na2vs0mg"},{"bike_id":"a05087b2-37de-4855-8040-647edc0892c4","system_id":"levelo_inurba_marseille","lat":43.28429,"lon":5.34974,"is_reserved":false,"is_disabled":false,"rental_uris":{"android":"levelo://app?vid=a05087b2-37de-4855-8040-647edc0892c4","ios":"levelo://app?vid=a05087b2-37de-4855-8040-647edc0892c4"},"vehicle_type_id":"4","last_reported":1752685968,"current_range_meters":18000,"station_id":"ce4bhbh2rcd13ifvqepg","pricing_plan_id":"cebpf4jnsgd1na2vs0mg"},{"bike_id":"a785c67c-d38f-4e50-bb1f-c385f36e298c","system_id":"levelo_inurba_marseille","lat":43.27058,"lon":5.40251,"is_reserved":false,"is_disabled":false,"rental_uris":{"android":"levelo://app?vid=a785c67c-d38f-4e50-bb1f-c385f36e298c","ios":"levelo://app?vid=a785c67c-d38f-4e50-bb1f-c385f36e298c"},"vehicle_type_id":"4","last_reported":1752685968,"current_range_meters":18000,"station_id":"ce4bhk92rcd13ifvqgc0","pricing_plan_id":"cebpf4jnsgd1na2vs0mg"},{"bike_id":"75203b7a-4b9e-4b6b-9201-44c4e1860c09","system_id":"levelo_inurba_marseille","lat":43.286191,"lon":5.350974,"is_reserved":false,"is_disabled":false,"rental_uris":{"android":"levelo://app?vid=75203b7a-4b9e-4b6b-9201-44c4e1860c09","ios":"levelo://app?vid=75203b7a-4b9e-4b6b-9201-44c4e1860c09"},"vehicle_type_id":"4","last_reported":1752685968,"current_range_meters":18000,"station_id":"ce4bhch2rcd13ifvqeug","pricing_plan_id":"cebpf4jnsgd1na2vs0mg"},{"bike_id":"f7947e96-4d95-4c2a-b94f-12bda140a7ff","system_id":"levelo_inurba_marseille","lat":43.28434,"lon":5.35002,"is_reserved":false,"is_disabled":false,"rental_uris":{"android":"levelo://app?vid=f7947e96-4d95-4c2a-b94f-12bda140a7ff","ios":"levelo://app?vid=f7947e96-4d95-4c2a-b94f-12bda140a7ff"},"vehicle_type_id":"4","last_reported":1752685968,"current_range_meters":18000,"station_id":"ce4bhbh2rcd13ifvqepg","pricing_plan_id":"cebpf4jnsgd1na2vs0mg"},{"bike_id":"37376433-0095-43b8-b737-71f0deb53eaa","system_id":"levelo_inurba_marseille","lat":43.29599,"lon":5.3809,"is_reserved":false,"is_disabled":false,"rental_uris":{"android":"levelo://app?vid=37376433-0095-43b8-b737-71f0deb53eaa","ios":"levelo://app?vid=37376433-0095-43b8-b737-71f0deb53eaa"},"vehicle_type_id":"4","last_reported":1752685968,"current_range_meters":18000,"station_id":"ce4bgl12rcd13ifvqbo0","pricing_plan_id":"cebpf4jnsgd1na2vs0mg"},{"bike_id":"501278eb-04b5-4f7e-807f-704568873a61","system_id":"levelo_inurba_marseille","lat":43.29378,"lon":5.37832,"is_reserved":false,"is_disabled":false,"rental_uris":{"android":"levelo://app?vid=501278eb-04b5-4f7e-807f-704568873a61","ios":"levelo://app?vid=501278eb-04b5-4f7e-807f-704568873a61"},"vehicle_type_id":"4","last_reported":1752685968,"current_range_meters":18000,"station_id":"ce4bgjh2rcd13ifvqbf0","pricing_plan_id":"cebpf4jnsgd1na2vs0mg"},{"bike_id":"8716a6dc-edc9-4ce8-b2db-da4e68c247be","system_id":"levelo_inurba_marseille","lat":43.29561,"lon":5.38543,"is_reserved":false,"is_disabled":true,"rental_uris":{"android":"levelo://app?vid=8716a6dc-edc9-4ce8-b2db-da4e68c247be","ios":"levelo://app?vid=8716a6dc-edc9-4ce8-b2db-da4e68c247be"},"vehicle_type_id":"4","last_reported":1752685968,"current_range_meters":18800,"station_id":"ce4bgih2rcd13ifvqba0","pricing_plan_id":"cebpf4jnsgd1na2vs0mg"},{"bike_id":"1a1de22c-864f-4087-990e-227151d55abc","system_id":"levelo_inurba_marseille","lat":43.21238,"lon":5.3504,"is_reserved":false,"is_disabled":false,"rental_uris":{"android":"levelo://app?vid=1a1de22c-864f-4087-990e-227151d55abc","ios":"levelo://app?vid=1a1de22c-864f-4087-990e-227151d55abc"},"vehicle_type_id":"4","last_reported":1752685968,"current_range_meters":18800,"station_id":"","pricing_plan_id":"cebpf4jnsgd1na2vs0mg"},{"bike_id":"e2ccee9d-2eb4-4d53-8997-2917ccfb407b","system_id":"levelo_inurba_marseille","lat":43.291949,"lon":5.358131,"is_reserved":false,"is_disabled":false,"rental_uris":{"android":"levelo://app?vid=e2ccee9d-2eb4-4d53-8997-2917ccfb407b","ios":"levelo://app?vid=e2ccee9d-2eb4-4d53-8997-2917ccfb407b"},"vehicle_type_id":"4","last_reported":1752685968,"current_range_meters":18800,"station_id":"ce4bhb12rcd13ifvqel0","pricing_plan_id":"cebpf4jnsgd1na2vs0mg"},{"bike_id":"1d48e09b-70d1-423f-b0cd-305f1bb6c9fa","system_id":"levelo_inurba_marseille","lat":43.26195,"lon":5.37932,"is_reserved":false,"is_disabled":false,"rental_uris":{"android":"levelo://app?vid=1d48e09b-70d1-423f-b0cd-305f1bb6c9fa","ios":"levelo://app?vid=1d48e09b-70d1-423f-b0cd-305f1bb6c9fa"},"vehicle_type_id":"4","last_reported":1752685968,"current_range_meters":18000,"station_id":"ce4bhjp2rcd13ifvqg90","pricing_plan_id":"cebpf4jnsgd1na2vs0mg"},{"bike_id":"f73f631a-b347-44e7-b124-fa7c03f0abd8","system_id":"levelo_inurba_marseille","lat":43.2862,"lon":5.35109,"is_reserved":false,"is_disabled":false,"rental_uris":{"android":"levelo://app?vid=f73f631a-b347-44e7-b124-fa7c03f0abd8","ios":"levelo://app?vid=f73f631a-b347-44e7-b124-fa7c03f0abd8"},"vehicle_type_id":"4","last_reported":1752685968,"current_range_meters":18800,"station_id":"ce4bhch2rcd13ifvqeug","pricing_plan_id":"cebpf4jnsgd1na2vs0mg"},{"bike_id":"601d63f5-45ba-444b-ae10-7d4ee6339f76","system_id":"levelo_inurba_marseille","lat":43.29887,"lon":5.43663,"is_reserved":false,"is_disabled":false,"rental_uris":{"android":"levelo://app?vid=601d63f5-45ba-444b-ae10-7d4ee6339f76","ios":"levelo://app?vid=601d63f5-45ba-444b-ae10-7d4ee6339f76"},"vehicle_type_id":"4","last_reported":1752685968,"current_range_meters":18800,"station_id":"ce4bhpp2rcd13ifvqhfg","pricing_plan_id":"cebpf4jnsgd1na2vs0mg"},{"bike_id":"855ff8f9-641c-41af-8e00-5d71e1a04e0f","system_id":"levelo_inurba_marseille","lat":43.22502,"lon":5.34777,"is_reserved":false,"is_disabled":false,"rental_uris":{"android":"levelo://app?vid=855ff8f9-641c-41af-8e00-5d71e1a04e0f","ios":"levelo://app?vid=855ff8f9-641c-41af-8e00-5d71e1a04e0f"},"vehicle_type_id":"4","last_reported":1752685968,"current_range_meters":18800,"station_id":"st_cvj5dfep6f1abm77gieg","pricing_plan_id":"cebpf4jnsgd1na2vs0mg"},{"bike_id":"11b72075-5f2e-4bb6-9f9f-fa1d2b604cfe","system_id":"levelo_inurba_marseille","lat":43.30439,"lon":5.38892,"is_reserved":false,"is_disabled":false,"rental_uris":{"android":"levelo://app?vid=11b72075-5f2e-4bb6-9f9f-fa1d2b604cfe","ios":"levelo://app?vid=11b72075-5f2e-4bb6-9f9f-fa1d2b604cfe"},"vehicle_type_id":"4","last_reported":1752685968,"current_range_meters":18800,"station_id":"ce4bgk12rcd13ifvqbi0","pricing_plan_id":"cebpf4jnsgd1na2vs0mg"},{"bike_id":"b1208273-42aa-4171-81e5-753574979850","system_id":"levelo_inurba_marseille","lat":43.297084,"lon":5.366082,"is_reserved":false,"is_disabled":false,"rental_uris":{"android":"levelo://app?vid=b1208273-42aa-4171-81e5-753574979850","ios":"levelo://app?vid=b1208273-42aa-4171-81e5-753574979850"},"vehicle_type_id":"4","last_reported":1752685968,"current_range_meters":18800,"station_id":"ce4bgn12rcd13ifvqbt0","pricing_plan_id":"cebpf4jnsgd1na2vs0mg"},{"bike_id":"012332f9-a776-43c4-9db3-01b19351c5f0","system_id":"levelo_inurba_marseille","lat":43.27821,"lon":5.40709,"is_reserved":false,"is_disabled":false,"rental_uris":{"android":"levelo://app?vid=012332f9-a776-43c4-9db3-01b19351c5f0","ios":"levelo://app?vid=012332f9-a776-43c4-9db3-01b19351c5f0"},"vehicle_type_id":"4","last_reported":1752685968,"current_range_meters":18800,"station_id":"ce4bhnh2rcd13ifvqgtg","pricing_plan_id":"cebpf4jnsgd1na2vs0mg"},{"bike_id":"3e919868-c14f-47c4-8f1b-a78b78a770b4","system_id":"levelo_inurba_marseille","lat":43.284088,"lon":5.349744,"is_reserved":false,"is_disabled":false,"rental_uris":{"android":"levelo://app?vid=3e919868-c14f-47c4-8f1b-a78b78a770b4","ios":"levelo://app?vid=3e919868-c14f-47c4-8f1b-a78b78a770b4"},"vehicle_type_id":"4","last_reported":1752685968,"current_range_meters":18800,"station_id":"ce4bhbh2rcd13ifvqepg","pricing_plan_id":"cebpf4jnsgd1na2vs0mg"},{"bike_id":"6ee8d378-1434-4939-bf16-63584542c5b9","system_id":"levelo_inurba_marseille","lat":43.3034,"lon":5.36876,"is_reserved":false,"is_disabled":false,"rental_uris":{"android":"levelo://app?vid=6ee8d378-1434-4939-bf16-63584542c5b9","ios":"levelo://app?vid=6ee8d378-1434-4939-bf16-63584542c5b9"},"vehicle_type_id":"4","last_reported":1752685968,"current_range_meters":18800,"station_id":"ce4bgqh2rcd13ifvqc5g","pricing_plan_id":"cebpf4jnsgd1na2vs0mg"},{"bike_id":"63362215-e6b0-499c-9a27-42bef6c7836f","system_id":"levelo_inurba_marseille","lat":43.21789,"lon":5.3457,"is_reserved":false,"is_disabled":false,"rental_uris":{"android":"levelo://app?vid=63362215-e6b0-499c-9a27-42bef6c7836f","ios":"levelo://app?vid=63362215-e6b0-499c-9a27-42bef6c7836f"},"vehicle_type_id":"4","last_reported":1752685968,"current_range_meters":18800,"station_id":"st_cvj6r9ubvosntc0bgbag","pricing_plan_id":"cebpf4jnsgd1na2vs0mg"},{"bike_id":"0def44e1-c1e0-408b-bc83-72838c29c860","system_id":"levelo_inurba_marseille","lat":43.28289,"lon":5.35071,"is_reserved":false,"is_disabled":false,"rental_uris":{"android":"levelo://app?vid=0def44e1-c1e0-408b-bc83-72838c29c860","ios":"levelo://app?vid=0def44e1-c1e0-408b-bc83-72838c29c860"},"vehicle_type_id":"4","last_reported":1752685968,"current_range_meters":18800,"station_id":"ce4bhbp2rcd13ifvqerg","pricing_plan_id":"cebpf4jnsgd1na2vs0mg"},{"bike_id":"1ca615e7-7f19-4968-9700-1ee26a09d223","system_id":"levelo_inurba_marseille","lat":43.28618,"lon":5.3511,"is_reserved":false,"is_disabled":false,"rental_uris":{"android":"levelo://app?vid=1ca615e7-7f19-4968-9700-1ee26a09d223","ios":"levelo://app?vid=1ca615e7-7f19-4968-9700-1ee26a09d223"},"vehicle_type_id":"4","last_reported":1752685968,"current_range_meters":18800,"station_id":"ce4bhch2rcd13ifvqeug","pricing_plan_id":"cebpf4jnsgd1na2vs0mg"},{"bike_id":"76a41c45-8c9c-472a-9f3d-81b9e2615031","system_id":"levelo_inurba_marseille","lat":43.288503,"lon":5.358472,"is_reserved":false,"is_disabled":false,"rental_uris":{"android":"levelo://app?vid=76a41c45-8c9c-472a-9f3d-81b9e2615031","ios":"levelo://app?vid=76a41c45-8c9c-472a-9f3d-81b9e2615031"},