{"last_updated":1740489497,"ttl":60,"version":"2.2","data":{"bikes":[{"bike_id":"ce45a249-a1a5-44c5-9073-2989ee5cdbc8","system_id":"levelo_inurba_marseille","lat":43.29276,"lon":5.36863,"is_reserved":false,"is_disabled":false,"rental_uris":{"android":"levelo://app?vid=ce45a249-a1a5-44c5-9073-2989ee5cdbc8","ios":"levelo://app?vid=ce45a249-a1a5-44c5-9073-2989ee5cdbc8"},"vehicle_type_id":"4","last_reported":1740489497,"current_range_meters":2800,"station_id":"ce4bhbp2rcd13ifvqesg","pricing_plan_id":"cebpf4jnsgd1na2vs0mg"},{"bike_id":"7af1115c-7c6d-40da-aaf8-4081f21d8594","system_id":"levelo_inurba_marseille","lat":43.25116,"lon":5.40317,"is_reserved":false,"is_disabled":false,"rental_uris":{"android":"levelo://app?vid=7af1115c-7c6d-40da-aaf8-4081f21d8594","ios":"levelo://app?vid=7af1115c-7c6d-40da-aaf8-4081f21d8594"},"vehicle_type_id":"4","last_reported":1740489497,"current_range_meters":5600,"station_id":"ce4bhlh2rcd13ifvqgig","pricing_plan_id":"cebpf4jnsgd1na2vs0mg"},{"bike_id":"f626cb21-124f-418e-abb7-73c4fcee0d36","system_id":"levelo_inurba_marseille","lat":43.25819,"lon":5.39424,"is_reserved":false,"is_disabled":true,"rental_uris":{"android":"levelo://app?vid=f626cb21-124f-418e-abb7-73c4fcee0d36","ios":"levelo://app?vid=f626cb21-124f-418e-abb7-73c4fcee0d36"},"vehicle_type_id":"4","last_reported":1740489497,"current_range_meters":3200,"station_id":"ce4bhip2rcd13ifvqft0","pricing_plan_id":"cebpf4jnsgd1na2vs0mg"},{"bike_id":"3ddcc190-aae8-47bc-861a-80235f0afb3b","system_id":"levelo_inurba_marseille","lat":43.2902,"lon":5.38134,"is_reserved":false,"is_disabled":false,"rental_uris":{"android":"levelo://app?vid=3ddcc190-aae8-47bc-861a-80235f0afb3b","ios":"levelo://app?vid=3ddcc190-aae8-47bc-861a-80235f0afb3b"},"vehicle_type_id":"4","last_reported":1740489497,"current_range_meters":3200,"station_id":"ce4bh4p2rcd13ifvqe1g","pricing_plan_id":"cebpf4jnsgd1na2vs0mg"},{"bike_id":"bddf8e7b-3da7-4773-b7ae-9c6dd1337414","system_id":"levelo_inurba_marseille","lat":43.28171,"lon":5.42624,"is_reserved":false,"is_disabled":true,"rental_uris":{"android":"levelo://app?vid=bddf8e7b-3da7-4773-b7ae-9c6dd1337414","ios":"levelo://app?vid=bddf8e7b-3da7-4773-b7ae-9c6dd1337414"},"vehicle_type_id":"4","last_reported":1740489497,"current_range_meters":4000,"station_id":"ce4bhnh2rcd13ifvqgug","pricing_plan_id":"cebpf4jnsgd1na2vs0mg"},{"bike_id":"1078676f-2909-4fc2-bd0c-cf3ddb4f5940","system_id":"levelo_inurba_marseille","lat":43.24073,"lon":5.37762,"is_reserved":false,"is_disabled":false,"rental_uris":{"android":"levelo://app?vid=1078676f-2909-4fc2-bd0c-cf3ddb4f5940","ios":"levelo://app?vid=1078676f-2909-4fc2-bd0c-cf3ddb4f5940"},"vehicle_type_id":"4","last_reported":1740489497,"current_range_meters":4400,"station_id":"ce4bhnp2rcd13ifvqgvg","pricing_plan_id":"cebpf4jnsgd1na2vs0mg"},{"bike_id":"335bbf2c-803f-4371-bdcd-3d61a566a783","system_id":"levelo_inurba_marseille","lat":43.24807,"lon":5.37456,"is_reserved":false,"is_disabled":false,"rental_uris":{"android":"levelo://app?vid=335bbf2c-803f-4371-bdcd-3d61a566a783","ios":"levelo://app?vid=335bbf2c-803f-4371-bdcd-3d61a566a783"},"vehicle_type_id":"4","last_reported":1740489497,"current_range_meters":7200,"station_id":"ce4bhgh2rcd13ifvqfb0","pricing_plan_id":"cebpf4jnsgd1na2vs0mg"},{"bike_id":"59b39ff9-8e91-4d87-8053-8a4de9bda84f","system_id":"levelo_inurba_marseille","lat":43.24083,"lon":5.37754,"is_reserved":false,"is_disabled":false,"rental_uris":{"android":"levelo://app?vid=59b39ff9-8e91-4d87-8053-8a4de9bda84f","ios":"levelo://app?vid=59b39ff9-8e91-4d87-8053-8a4de9bda84f"},"vehicle_type_id":"4","last_reported":1740489497,"current_range_meters":4400,"station_id":"ce4bhnp2rcd13ifvqgvg","pricing_plan_id":"cebpf4jnsgd1na2vs0mg"},{"bike_id":"bd1c9204-109d-453d-a655-cc2878aad0c5","system_id":"levelo_inurba_marseille","lat":43.29891,"lon":5.43662,"is_reserved":false,"is_disabled":false,"rental_uris":{"android":"levelo://app?vid=bd1c9204-109d-453d-a655-cc2878aad0c5","ios":"levelo://app?vid=bd1c9204-109d-453d-a655-cc2878aad0c5"},"vehicle_type_id":"4","last_reported":1740489497,"current_range_meters":4800,"station_id":"ce4bhpp2rcd13ifvqhfg","pricing_plan_id":"cebpf4jnsgd1na2vs0mg"},{"bike_id":"8f8d825c-3b00-4753-896d-84a4c26dcc3a","system_id":"levelo_inurba_marseille","lat":43.28717,"lon":5.37931,"is_reserved":false,"is_disabled":false,"rental_uris":{"android":"levelo://app?vid=8f8d825c-3b00-4753-896d-84a4c26dcc3a","ios":"levelo://app?vid=8f8d825c-3b00-4753-896d-84a4c26dcc3a"},"vehicle_type_id":"4","last_reported":1740489497,"current_range_meters":4800,"station_id":"ce4bh9p2rcd13ifvqec0","pricing_plan_id":"cebpf4jnsgd1na2vs0mg"},{"bike_id":"a5ed9653-9507-47cc-8b29-96098de67ca5","system_id":"levelo_inurba_marseille","lat":43.303,"lon":5.39222,"is_reserved":false,"is_disabled":false,"rental_uris":{"android":"levelo://app?vid=a5ed9653-9507-47cc-8b29-96098de67ca5","ios":"levelo://app?vid=a5ed9653-9507-47cc-8b29-96098de67ca5"},"vehicle_type_id":"4","last_reported":1740489497,"current_range_meters":5600,"station_id":"ce4bgkh2rcd13ifvqbk0","pricing_plan_id":"cebpf4jnsgd1na2vs0mg"},{"bike_id":"c93a81cd-6f4d-4858-87d2-9289cc072b8d","system_id":"levelo_inurba_marseille","lat":43.24187,"lon":5.39727,"is_reserved":false,"is_disabled":false,"rental_uris":{"android":"levelo://app?vid=c93a81cd-6f4d-4858-87d2-9289cc072b8d","ios":"levelo://app?vid=c93a81cd-6f4d-4858-87d2-9289cc072b8d"},"vehicle_type_id":"4","last_reported":1740489497,"current_range_meters":7200,"station_id":"ce4bhn12rcd13ifvqgpg","pricing_plan_id":"cebpf4jnsgd1na2vs0mg"},{"bike_id":"863539c7-9c2b-44e5-81f5-9eaa34a6b8c7","system_id":"levelo_inurba_marseille","lat":43.25933,"lon":5.40874,"is_reserved":false,"is_disabled":false,"rental_uris":{"android":"levelo://app?vid=863539c7-9c2b-44e5-81f5-9eaa34a6b8c7","ios":"levelo://app?vid=863539c7-9c2b-44e5-81f5-9eaa34a6b8c7"},"vehicle_type_id":"4","last_reported":1740489497,"current_range_meters":9200,"station_id":"ce4bhm92rcd13ifvqglg","pricing_plan_id":"cebpf4jnsgd1na2vs0mg"},{"bike_id":"9e14b65c-ec98-4fc6-ac9c-5d3287ff5440","system_id":"levelo_inurba_marseille","lat":43.28462,"lon":5.3589,"is_reserved":false,"is_disabled":false,"rental_uris":{"android":"levelo://app?vid=9e14b65c-ec98-4fc6-ac9c-5d3287ff5440","ios":"levelo://app?vid=9e14b65c-ec98-4fc6-ac9c-5d3287ff5440"},"vehicle_type_id":"4","last_reported":1740489497,"current_range_meters":6000,"station_id":"ce4bhah2rcd13ifvqei0","pricing_plan_id":"cebpf4jnsgd1na2vs0mg"},{"bike_id":"3eb9b231-c1ca-4744-b0f7-4f1d3b1e6417","system_id":"levelo_inurba_marseille","lat":43.29895,"lon":5.43669,"is_reserved":false,"is_disabled":false,"rental_uris":{"android":"levelo://app?vid=3eb9b231-c1ca-4744-b0f7-4f1d3b1e6417","ios":"levelo://app?vid=3eb9b231-c1ca-4744-b0f7-4f1d3b1e6417"},"vehicle_type_id":"4","last_reported":1740489497,"current_range_meters":6000,"station_id":"ce4bhpp2rcd13ifvqhfg","pricing_plan_id":"cebpf4jnsgd1na2vs0mg"},{"bike_id":"f2b51999-6603-4020-b553-cbdb6d2f3dd4","system_id":"levelo_inurba_marseille","lat":43.29056,"lon":5.37155,"is_reserved":false,"is_disabled":false,"rental_uris":{"android":"levelo://app?vid=f2b51999-6603-4020-b553-cbdb6d2f3dd4","ios":"levelo://app?vid=f2b51999-6603-4020-b553-cbdb6d2f3dd4"},"vehicle_type_id":"4","last_reported":1740489497,"current_range_meters":6000,"station_id":"ce4bh5p2rcd13ifvqe4g","pricing_plan_id":"cebpf4jnsgd1na2vs0mg"},{"bike_id":"87bbda1f-0db0-4d79-a046-a87b5e94995a","system_id":"levelo_inurba_marseille","lat":43.24163,"lon":5.364,"is_reserved":false,"is_disabled":false,"rental_uris":{"android":"levelo://app?vid=87bbda1f-0db0-4d79-a046-a87b5e94995a","ios":"levelo://app?vid=87bbda1f-0db0-4d79-a046-a87b5e94995a"},"vehicle_type_id":"4","last_reported":1740489497,"current_range_meters":6400,"station_id":"cpo36qri1sfpv3e86is0","pricing_plan_id":"cebpf4jnsgd1na2vs0mg"},{"bike_id":"71f606a5-4879-4b26-9ccd-1543fb1a6ec7","system_id":"levelo_inurba_marseille","lat":43.28371,"lon":5.39022,"is_reserved":false,"is_disabled":false,"rental_uris":{"android":"levelo://app?vid=71f606a5-4879-4b26-9ccd-1543fb1a6ec7","ios":"levelo://app?vid=71f606a5-4879-4b26-9ccd-1543fb1a6ec7"},"vehicle_type_id":"4","last_reported":1740489497,"current_range_meters":6400,"station_id":"","pricing_plan_id":"cebpf4jnsgd1na2vs0mg"},{"bike_id":"b52b99ab-0898-4dfe-87fe-9513713caf1b","system_id":"levelo_inurba_marseille","lat":43.31073,"lon":5.38359,"is_reserved":false,"is_disabled":false,"rental_uris":{"android":"levelo://app?vid=b52b99ab-0898-4dfe-87fe-9513713caf1b","ios":"levelo://app?vid=b52b99ab-0898-4dfe-87fe-9513713caf1b"},"vehicle_type_id":"4","last_reported":1740489497,"current_range_meters":6400,"station_id":"ce4bgv92rcd13ifvqcr0","pricing_plan_id":"cebpf4jnsgd1na2vs0mg"},{"bike_id":"f3e2d31b-bf16-4d93-8358-e1b5fc69cdb1","system_id":"levelo_inurba_marseille","lat":43.28056,"lon":5.39881,"is_reserved":false,"is_disabled":false,"rental_uris":{"android":"levelo://app?vid=f3e2d31b-bf16-4d93-8358-e1b5fc69cdb1","ios":"levelo://app?vid=f3e2d31b-bf16-4d93-8358-e1b5fc69cdb1"},"vehicle_type_id":"4","last_reported":1740489497,"current_range_meters":6800,"station_id":"","pricing_plan_id":"cebpf4jnsgd1na2vs0mg"},{"bike_id":"15d63c41-d467-4e01-ab9d-1a4d98399eb8","system_id":"levelo_inurba_marseille","lat":43.2808,"lon":5.39673,"is_reserved":false,"is_disabled":true,"rental_uris":{"android":"levelo://app?vid=15d63c41-d467-4e01-ab9d-1a4d98399eb8","ios":"levelo://app?vid=15d63c41-d467-4e01-ab9d-1a4d98399eb8"},"vehicle_type_id":"4","last_reported":1740489497,"current_range_meters":6800,"station_id":"ce4bho12rcd13ifvqh2g","pricing_plan_id":"cebpf4jnsgd1na2vs0mg"},{"bike_id":"a8d47fab-b803-48a3-aa29-eaa042b5a804","system_id":"levelo_inurba_marseille","lat":43.30308,"lon":5.39221,"is_reserved":false,"is_disabled":false,"rental_uris":{"android":"levelo://app?vid=a8d47fab-b803-48a3-aa29-eaa042b5a804","ios":"levelo://app?vid=a8d47fab-b803-48a3-aa29-eaa042b5a804"},"vehicle_type_id":"4","last_reported":1740489497,"current_range_meters":6800,"station_id":"ce4bgkh2rcd13ifvqbk0","pricing_plan_id":"cebpf4jnsgd1na2vs0mg"},{"bike_id":"c78ccdc4-2942-4732-b87d-222df9f779ac","system_id":"levelo_inurba_marseille","lat":43.30301,"lon":5.39215,"is_reserved":false,"is_disabled":false,"rental_uris":{"android":"levelo://app?vid=c78ccdc4-2942-4732-b87d-222df9f779ac","ios":"levelo://app?vid=c78ccdc4-2942-4732-b87d-222df9f779ac"},"vehicle_type_id":"4","last_reported":1740489497,"current_range_meters":6800,"station_id":"ce4bgkh2rcd13ifvqbk0","pricing_plan_id":"cebpf4jnsgd1na2vs0mg"},{"bike_id":"4e3483dc-0e4a-419b-bff7-c5274db2d5fa","system_id":"levelo_inurba_marseille","lat":43.30952,"lon":5.39014,"is_reserved":false,"is_disabled":false,"rental_uris":{"android":"levelo://app?vid=4e3483dc-0e4a-419b-bff7-c5274db2d5fa","ios":"levelo://app?vid=4e3483dc-0e4a-419b-bff7-c5274db2d5fa"},"vehicle_type_id":"4","last_reported":1740489497,"current_range_meters":7200,"station_id":"ce4bgup2rcd13ifvqco0","pricing_plan_id":"cebpf4jnsgd1na2vs0mg"},{"bike_id":"62a98753-2d05-4885-8ae9-ddccaa0dcf03","system_id":"levelo_inurba_marseille","lat":43.27491,"lon":5.42459,"is_reserved":false,"is_disabled":false,"rental_uris":{"android":"levelo://app?vid=62a98753-2d05-4885-8ae9-ddccaa0dcf03","ios":"levelo://app?vid=62a98753-2d05-4885-8ae9-ddccaa0dcf03"},"vehicle_type_id":"4","last_reported":1740489497,"current_range_meters":7200,"station_id":"ce4bhn92rcd13ifvqgrg","pricing_plan_id":"cebpf4jnsgd1na2vs0mg"},{"bike_id":"11407179-7894-440d-85ec-8c6ca5e3cb94","system_id":"levelo_inurba_marseille","lat":43.29,"lon":5.35617,"is_reserved":false,"is_disabled":false,"rental_uris":{"android":"levelo://app?vid=11407179-7894-440d-85ec-8c6ca5e3cb94","ios":"levelo://app?vid=11407179-7894-440d-85ec-8c6ca5e3cb94"},"vehicle_type_id":"4","last_reported":1740489497,"current_range_meters":6800,"station_id":"ce4bhb92rcd13ifvqen0","pricing_plan_id":"cebpf4jnsgd1na2vs0mg"},{"bike_id":"446313c8-37fc-4f36-b9c3-a1d481dfb62b","system_id":"levelo_inurba_marseille","lat":43.26832,"lon":5.41122,"is_reserved":false,"is_disabled":false,"rental_uris":{"android":"levelo://app?vid=446313c8-37fc-4f36-b9c3-a1d481dfb62b","ios":"levelo://app?vid=446313c8-37fc-4f36-b9c3-a1d481dfb62b"},"vehicle_type_id":"4","last_reported":1740489497,"current_range_meters":8800,"station_id":"","pricing_plan_id":"cebpf4jnsgd1na2vs0mg"},{"bike_id":"cd69df25-4c8b-4737-97f3-cb925df54c98","system_id":"levelo_inurba_marseille","lat":43.294739,"lon":5.375883,"is_reserved":false,"is_disabled":false,"rental_uris":{"android":"levelo://app?vid=cd69df25-4c8b-4737-97f3-cb925df54c98","ios":"levelo://app?vid=cd69df25-4c8b-4737-97f3-cb925df54c98"},"vehicle_type_id":"4","last_reported":1740489497,"current_range_meters":6800,"station_id":"ce4bgjh2rcd13ifvqbf0","pricing_plan_id":"cebpf4jnsgd1na2vs0mg"},{"bike_id":"d61c8ca2-3401-478b-96e8-04eadc994df0","system_id":"levelo_inurba_marseille","lat":43.28723,"lon":5.37942,"is_reserved":false,"is_disabled":false,"rental_uris":{"android":"levelo://app?vid=d61c8ca2-3401-478b-96e8-04eadc994df0","ios":"levelo://app?vid=d61c8ca2-3401-478b-96e8-04eadc994df0"},"vehicle_type_id":"4","last_reported":1740489497,"current_range_meters":7200,"station_id":"ce4bh9p2rcd13ifvqec0","pricing_plan_id":"cebpf4jnsgd1na2vs0mg"},{"bike_id":"20b57cb2-f504-49bf-b1b5-932814c3f93b","system_id":"levelo_inurba_marseille","lat":43.29593,"lon":5.38088,"is_reserved":false,"is_disabled":false,"rental_uris":{"android":"levelo://app?vid=20b57cb2-f504-49bf-b1b5-932814c3f93b","ios":"levelo://app?vid=20b57cb2-f504-49bf-b1b5-932814c3f93b"},"vehicle_type_id":"4","last_reported":1740489497,"current_range_meters":7200,"station_id":"ce4bgl12rcd13ifvqbo0","pricing_plan_id":"cebpf4jnsgd1na2vs0mg"},{"bike_id":"ec17ff6a-26f9-4514-bd43-4ec7017c0b01","system_id":"levelo_inurba_marseille","lat":43.29327,"lon":5.37667,"is_reserved":false,"is_disabled":false,"rental_uris":{"android":"levelo://app?vid=ec17ff6a-26f9-4514-bd43-4ec7017c0b01","ios":"levelo://app?vid=ec17ff6a-26f9-4514-bd43-4ec7017c0b01"},"vehicle_type_id":"4","last_reported":1740489497,"current_range_meters":8000,"station_id":"","pricing_plan_id":"cebpf4jnsgd1na2vs0mg"},{"bike_id":"146aebc9-098b-47c2-b26e-46c1350561bc","system_id":"levelo_inurba_marseille","lat":43.33769,"lon":5.37479,"is_reserved":false,"is_disabled":false,"rental_uris":{"android":"levelo://app?vid=146aebc9-098b-47c2-b26e-46c1350561bc","ios":"levelo://app?vid=146aebc9-098b-47c2-b26e-46c1350561bc"},"vehicle_type_id":"4","last_reported":1740489497,"current_range_meters":8000,"station_id":"","pricing_plan_id":"cebpf4jnsgd1na2vs0mg"},{"bike_id":"6a1b71e6-4075-497f-ac39-e979e8ef35b2","system_id":"levelo_inurba_marseille","lat":43.31438,"lon":5.37609,"is_reserved":false,"is_disabled":false,"rental_uris":{"android":"levelo://app?vid=6a1b71e6-4075-497f-ac39-e979e8ef35b2","ios":"levelo://app?vid=6a1b71e6-4075-497f-ac39-e979e8ef35b2"},"vehicle_type_id":"4","last_reported":1740489497,"current_range_meters":8400,"station_id":"","pricing_plan_id":"cebpf4jnsgd1na2vs0mg"},{"bike_id":"1f2df738-29ca-4206-9f13-91b4be99064f","system_id":"levelo_inurba_marseille","lat":43.3135,"lon":5.3669,"is_reserved":false,"is_disabled":false,"rental_uris":{"android":"levelo://app?vid=1f2df738-29ca-4206-9f13-91b4be99064f","ios":"levelo://app?vid=1f2df738-29ca-4206-9f13-91b4be99064f"},"vehicle_type_id":"4","last_reported":1740489497,"current_range_meters":8400,"station_id":"ce4bgr92rcd13ifvqc6g","pricing_plan_id":"cebpf4jnsgd1na2vs0mg"},{"bike_id":"fdb7ea3f-e2d2-46fd-ac84-ff3c72615b93","system_id":"levelo_inurba_marseille","lat":43.28937,"lon":5.36629,"is_reserved":false,"is_disabled":false,"rental_uris":{"android":"levelo://app?vid=fdb7ea3f-e2d2-46fd-ac84-ff3c72615b93","ios":"levelo://app?vid=fdb7ea3f-e2d2-46fd-ac84-ff3c72615b93"},"vehicle_type_id":"4","last_reported":1740489497,"current_range_meters":8400,"station_id":"ce4bhap2rcd13ifvqek0","pricing_plan_id":"cebpf4jnsgd1na2vs0mg"},{"bike_id":"5162c2ce-a731-4d3b-a21a-a1c8cb63150f","system_id":"levelo_inurba_marseille","lat":43.31711,"lon":5.43704,"is_reserved":false,"is_disabled":false,"rental_uris":{"android":"levelo://app?vid=5162c2ce-a731-4d3b-a21a-a1c8cb63150f","ios":"levelo://app?vid=5162c2ce-a731-4d3b-a21a-a1c8cb63150f"},"vehicle_type_id":"4","last_reported":1740489497,"current_range_meters":8400,"station_id":"ce4bhp92rcd13ifvqhcg","pricing_plan_id":"cebpf4jnsgd1na2vs0mg"},{"bike_id":"fbdb8f79-f2ba-44a7-8779-12eada6115ed","system_id":"levelo_inurba_marseille","lat":43.25873,"lon":5.40866,"is_reserved":false,"is_disabled":false,"rental_uris":{"android":"levelo://app?vid=fbdb8f79-f2ba-44a7-8779-12eada6115ed","ios":"levelo://app?vid=fbdb8f79-f2ba-44a7-8779-12eada6115ed"},"vehicle_type_id":"4","last_reported":1740489497,"current_range_meters":8400,"station_id":"","pricing_plan_id":"cebpf4jnsgd1na2vs0mg"},{"bike_id":"57eed615-c283-4dc3-a510-22dba226a673","system_id":"levelo_inurba_marseille","lat":43.29725,"lon":5.37693,"is_reserved":false,"is_disabled":false,"rental_uris":{"android":"levelo://app?vid=57eed615-c283-4dc3-a510-22dba226a673","ios":"levelo://app?vid=57eed615-c283-4dc3-a510-22dba226a673"},"vehicle_type_id":"4","last_reported":1740489497,"current_range_meters":8400,"station_id":"ce4bgkh2rcd13ifvqbl0","pricing_plan_id":"cebpf4jnsgd1na2vs0mg"},{"bike_id":"134e832a-aa90-4ef3-8ba6-b68c12ac5055","system_id":"levelo_inurba_marseille","lat":43.31317,"lon":5.39703,"is_reserved":false,"is_disabled":false,"rental_uris":{"android":"levelo://app?vid=134e832a-aa90-4ef3-8ba6-b68c12ac5055","ios":"levelo://app?vid=134e832a-aa90-4ef3-8ba6-b68c12ac5055"},"vehicle_type_id":"4","last_reported":1740489497,"current_range_meters":8800,"station_id":"ce4bgvp2rcd13ifvqcu0","pricing_plan_id":"cebpf4jnsgd1na2vs0mg"},{"bike_id":"d469ae70-b06c-49f4-b9c4-a41e0d165d26","system_id":"levelo_inurba_marseille","lat":43.24162,"lon":5.36406,"is_reserved":false,"is_disabled":false,"rental_uris":{"android":"levelo://app?vid=d469ae70-b06c-49f4-b9c4-a41e0d165d26","ios":"levelo://app?vid=d469ae70-b06c-49f4-b9c4-a41e0d165d26"},"vehicle_type_id":"4","last_reported":1740489497,"current_range_meters":9200,"station_id":"cpo36qri1sfpv3e86is0","pricing_plan_id":"cebpf4jnsgd1na2vs0mg"},{"bike_id":"ce08e129-3210-4784-8e00-3661099c392d","system_id":"levelo_inurba_marseille","lat":43.29904,"lon":5.43663,"is_reserved":false,"is_disabled":false,"rental_uris":{"android":"levelo://app?vid=ce08e129-3210-4784-8e00-3661099c392d","ios":"levelo://app?vid=ce08e129-3210-4784-8e00-3661099c392d"},"vehicle_type_id":"4","last_reported":1740489497,"current_range_meters":9200,"station_id":"ce4bhpp2rcd13ifvqhfg","pricing_plan_id":"cebpf4jnsgd1na2vs0mg"},{"bike_id":"797eb86a-a68a-41df-abb5-e456b6dce43c","system_id":"levelo_inurba_marseille","lat":43.275,"lon":5.42457,"is_reserved":false,"is_disabled":false,"rental_uris":{"android":"levelo://app?vid=797eb86a-a68a-41df-abb5-e456b6dce43c","ios":"levelo://app?vid=797eb86a-a68a-41df-abb5-e456b6dce43c"},"vehicle_type_id":"4","last_reported":1740489497,"current_range_meters":8800,"station_id":"ce4bhn92rcd13ifvqgrg","pricing_plan_id":"cebpf4jnsgd1na2vs0mg"},{"bike_id":"d92ce8f2-4b1c-4b29-bf6d-1835cab53196","system_id":"levelo_inurba_marseille","lat":43.2873,"lon":5.37961,"is_reserved":false,"is_disabled":false,"rental_uris":{"android":"levelo://app?vid=d92ce8f2-4b1c-4b29-bf6d-1835cab53196","ios":"levelo://app?vid=d92ce8f2-4b1c-4b29-bf6d-1835cab53196"},"vehicle_type_id":"4","last_reported":1740489497,"current_range_meters":9200,"station_id":"ce4bh9p2rcd13ifvqec0","pricing_plan_id":"cebpf4jnsgd1na2vs0mg"},{"bike_id":"2d9f0777-5b96-4c1e-80c5-10449636aa92","system_id":"levelo_inurba_marseille","lat":43.32378,"lon":5.389,"is_reserved":false,"is_disabled":false,"rental_uris":{"android":"levelo://app?vid=2d9f0777-5b96-4c1e-80c5-10449636aa92","ios":"levelo://app?vid=2d9f0777-5b96-4c1e-80c5-10449636aa92"},"vehicle_type_id":"4","last_reported":1740489497,"current_range_meters":9200,"station_id":"ce4bhqp2rcd13ifvqhog","pricing_plan_id":"cebpf4jnsgd1na2vs0mg"},{"bike_id":"e10546ad-6294-4afc-82bb-67f99aa6c4be","system_id":"levelo_inurba_marseille","lat":43.25004,"lon":5.38935,"is_reserved":false,"is_disabled":false,"rental_uris":{"android":"levelo://app?vid=e10546ad-6294-4afc-82bb-67f99aa6c4be","ios":"levelo://app?vid=e10546ad-6294-4afc-82bb-67f99aa6c4be"},"vehicle_type_id":"4","last_reported":1740489497,"current_range_meters":9200,"station_id":"ce4bhgp2rcd13ifvqfd0","pricing_plan_id":"cebpf4jnsgd1na2vs0mg"},{"bike_id":"16139490-0881-4755-84d7-a13a456fa301","system_id":"levelo_inurba_marseille","lat":43.29078,"lon":5.37168,"is_reserved":false,"is_disabled":false,"rental_uris":{"android":"levelo://app?vid=16139490-0881-4755-84d7-a13a456fa301","ios":"levelo://app?vid=16139490-0881-4755-84d7-a13a456fa301"},"vehicle_type_id":"4","last_reported":1740489497,"current_range_meters":9200,"station_id":"ce4bh5p2rcd13ifvqe4g","pricing_plan_id":"cebpf4jnsgd1na2vs0mg"},{"bike_id":"e6c9ed70-4cfe-4f55-a736-704d3e305ded","system_id":"levelo_inurba_marseille","lat":43.28415,"lon":5.37504,"is_reserved":false,"is_disabled":false,"rental_uris":{"android":"levelo://app?vid=e6c9ed70-4cfe-4f55-a736-704d3e305ded","ios":"levelo://app?vid=e6c9ed70-4cfe-4f55-a736-704d3e305ded"},"vehicle_type_id":"4","last_reported":1740489497,"current_range_meters":9600,"station_id":"ce4bh412rcd13ifvqds0","pricing_plan_id":"cebpf4jnsgd1na2vs0mg"},{"bike_id":"2b2edf77-06c0-47fd-b6e8-e081763ffda6","system_id":"levelo_inurba_marseille","lat":43.30194,"lon":5.3662,"is_reserved":false,"is_disabled":false,"rental_uris":{"android":"levelo://app?vid=2b2edf77-06c0-47fd-b6e8-e081763ffda6","ios":"levelo://app?vid=2b2edf77-06c0-47fd-b6e8-e081763ffda6"},"vehicle_type_id":"4","last_reported":1740489497,"current_range_meters":12000,"station_id":"ce4bgrh2rcd13ifvqc8g","pricing_plan_id":"cebpf4jnsgd1na2vs0mg"},{"bike_id":"ffa538ce-22c2-49c2-9202-be8be289c4e7","system_id":"levelo_inurba_marseille","lat":43.32494,"lon":5.36568,"is_reserved":false,"is_disabled":false,"rental_uris":{"android":"levelo://app?vid=ffa538ce-22c2-49c2-9202-be8be289c4e7","ios":"levelo://app?vid=ffa538ce-22c2-49c2-9202-be8be289c4e7"},"vehicle_type_id":"4","last_reported":1740489497,"current_range_meters":9600,"station_id":"ce4bhs12rcd13ifvqhvg","pricing_plan_id":"cebpf4jnsgd1na2vs0mg"},{"bike_id":"904b033d-588a-40a2-acbf-5f2654ddbdcd","system_id":"levelo_inurba_marseille","lat":43.29909,"lon":5.37466,"is_reserved":false,"is_disabled":false,"rental_uris":{"android":"levelo://app?vid=904b033d-588a-40a2-acbf-5f2654ddbdcd","ios":"levelo://app?vid=904b033d-588a-40a2-acbf-5f2654ddbdcd"},"vehicle_type_id":"4","last_reported":1740489497,"current_range_meters":10000,"station_id":"","pricing_plan_id":"cebpf4jnsgd1na2vs0mg"},{"bike_id":"c0585d1b-ad22-48e4-8709-6d21b4d08a47","system_id":"levelo_inurba_marseille","lat":43.26784,"lon":5.39414,"is_reserved":false,"is_disabled":false,"rental_uris":{"android":"levelo://app?vid=c0585d1b-ad22-48e4-8709-6d21b4d08a47","ios":"levelo://app?vid=c0585d1b-ad22-48e4-8709-6d21b4d08a47"},"vehicle_type_id":"4","last_reported":1740489497,"current_range_meters":11200,"station_id":"ce4bhh12rcd13ifvqfg0","pricing_plan_id":"cebpf4jnsgd1na2vs0mg"},{"bike_id":"e5c275a2-a964-47d8-9489-ed1126cf4cef","system_id":"levelo_inurba_marseille","lat":43.29621,"lon":5.37928,"is_reserved":false,"is_disabled":false,"rental_uris":{"android":"levelo://app?vid=e5c275a2-a964-47d8-9489-ed1126cf4cef","ios":"levelo://app?vid=e5c275a2-a964-47d8-9489-ed1126cf4cef"},"vehicle_type_id":"4","last_reported":1740489497,"current_range_meters":10000,"station_id":"","pricing_plan_id":"cebpf4jnsgd1na2vs0mg"},{"bike_id":"b86f6d09-16f9-40a7-b718-fbd2f6f5e660","system_id":"levelo_inurba_marseille","lat":43.25577,"lon":5.38229,"is_reserved":false,"is_disabled":false,"rental_uris":{"android":"levelo://app?vid=b86f6d09-16f9-40a7-b718-fbd2f6f5e660","ios":"levelo://app?vid=b86f6d09-16f9-40a7-b718-fbd2f6f5e660"},"vehicle_type_id":"4","last_reported":1740489497,"current_range_meters":10000,"station_id":"ce4bhih2rcd13ifvqfs0","pricing_plan_id":"cebpf4jnsgd1na2vs0mg"},{"bike_id":"f4421d8b-4b81-46ee-8db0-0f77bd74c197","system_id":"levelo_inurba_marseille","lat":43.27309,"lon":5.39149,"is_reserved":false,"is_disabled":false,"rental_uris":{"android":"levelo://app?vid=f4421d8b-4b81-46ee-8db0-0f77bd74c197","ios":"levelo://app?vid=f4421d8b-4b81-46ee-8db0-0f77bd74c197"},"vehicle_type_id":"4","last_reported":1740489497,"current_range_meters":10000,"station_id":"ce4bhgp2rcd13ifvqfe0","pricing_plan_id":"cebpf4jnsgd1na2vs0mg"},{"bike_id":"b8ce8132-e8a7-4e14-aa42-3537bd2b6a78","system_id":"levelo_inurba_marseille","lat":43.2465,"lon":5.38184,"is_reserved":false,"is_disabled":false,"rental_uris":{"android":"levelo://app?vid=b8ce8132-e8a7-4e14-aa42-3537bd2b6a78","ios":"levelo://app?vid=b8ce8132-e8a7-4e14-aa42-3537bd2b6a78"},"vehicle_type_id":"4","last_reported":1740489497,"current_range_meters":17600,"station_id":"ce4bhih2rcd13ifvqfr0","pricing_plan_id":"cebpf4jnsgd1na2vs0mg"},{"bike_id":"cb1dca2d-42b0-4b63-b8de-48ac3f2952bb","system_id":"levelo_inurba_marseille","lat":43.33019,"lon":5.39047,"is_reserved":false,"is_disabled":false,"rental_uris":{"android":"levelo://app?vid=cb1dca2d-42b0-4b63-b8de-48ac3f2952bb","ios":"levelo://app?vid=cb1dca2d-42b0-4b63-b8de-48ac3f2952bb"},"vehicle_type_id":"4","last_reported":1740489497,"current_range_meters":10000,"station_id":"ce4bhr92rcd13ifvqhrg","pricing_plan_id":"cebpf4jnsgd1na2vs0mg"},{"bike_id":"723864c1-6cc4-47c6-9ea7-8902d9b08bd4","system_id":"levelo_inurba_marseille","lat":43.29527,"lon":5.38531,"is_reserved":false,"is_disabled":false,"rental_uris":{"android":"levelo://app?vid=723864c1-6cc4-47c6-9ea7-8902d9b08bd4","ios":"levelo://app?vid=723864c1-6cc4-47c6-9ea7-8902d9b08bd4"},"vehicle_type_id":"4","last_reported":1740489497,"current_range_meters":10800,"station_id":"ce4bgih2rcd13ifvqba0","pricing_plan_id":"cebpf4jnsgd1na2vs0mg"},{"bike_id":"fbd8c7e4-6d2d-4820-beea-78d6471c251c","system_id":"levelo_inurba_marseille","lat":43.29973,"lon":5.37165,"is_reserved":false,"is_disabled":false,"rental_uris":{"android":"levelo://app?vid=fbd8c7e4-6d2d-4820-beea-78d6471c251c","ios":"levelo://app?vid=fbd8c7e4-6d2d-4820-beea-78d6471c251c"},"vehicle_type_id":"4","last_reported":1740489497,"current_range_meters":11200,"station_id":"ce4bgr92rcd13ifvqc7g","pricing_plan_id":"cebpf4jnsgd1na2vs0mg"},{"bike_id":"85707dcc-9cb6-4ce1-82f7-641c586fc6a2","system_id":"levelo_inurba_marseille","lat":43.29044,"lon":5.40013,"is_reserved":false,"is_disabled":false,"rental_uris":{"android":"levelo://app?vid=85707dcc-9cb6-4ce1-82f7-641c586fc6a2","ios":"levelo://app?vid=85707dcc-9cb6-4ce1-82f7-641c586fc6a2"},"vehicle_type_id":"4","last_reported":1740489497,"current_range_meters":10000,"station_id":"ce4bh392rcd13ifvqdm0","pricing_plan_id":"cebpf4jnsgd1na2vs0mg"},{"bike_id":"65e3dbf5-cb43-4afc-9f8b-0026fd886e1f","system_id":"levelo_inurba_marseille","lat":43.32495,"lon":5.36556,"is_reserved":false,"is_disabled":false,"rental_uris":{"android":"levelo://app?vid=65e3dbf5-cb43-4afc-9f8b-0026fd886e1f","ios":"levelo://app?vid=65e3dbf5-cb43-4afc-9f8b-0026fd886e1f"},"vehicle_type_id":"4","last_reported":1740489497,"current_range_meters":10800,"station_id":"ce4bhs12rcd13ifvqhvg","pricing_plan_id":"cebpf4jnsgd1na2vs0mg"},{"bike_id":"a4a24fb6-46b6-4074-af2f-eab4dc504424","system_id":"levelo_inurba_marseille","lat":43.27322,"lon":5.39078,"is_reserved":false,"is_disabled":false,"rental_uris":{"android":"levelo://app?vid=a4a24fb6-46b6-4074-af2f-eab4dc504424","ios":"levelo://app?vid=a4a24fb6-46b6-4074-af2f-eab4dc504424"},"vehicle_type_id":"4","last_reported":1740489497,"current_range_meters":10800,"station_id":"ce4bhgp2rcd13ifvqfe0","pricing_plan_id":"cebpf4jnsgd1na2vs0mg"},{"bike_id":"c53ed6e7-916e-40f4-9e84-94eccc7a73ea","system_id":"levelo_inurba_marseille","lat":43.23177,"lon":5.4372,"is_reserved":false,"is_disabled":false,"rental_uris":{"android":"levelo://app?vid=c53ed6e7-916e-40f4-9e84-94eccc7a73ea","ios":"levelo://app?vid=c53ed6e7-916e-40f4-9e84-94eccc7a73ea"},"vehicle_type_id":"4","last_reported":1740489497,"current_range_meters":11200,"station_id":"ce4bhmp2rcd13ifvqgog","pricing_plan_id":"cebpf4jnsgd1na2vs0mg"},{"bike_id":"02261c0a-e32b-40d6-bd07-1f00940d609b","system_id":"levelo_inurba_marseille","lat":43.2967,"lon":5.37294,"is_reserved":false,"is_disabled":false,"rental_uris":{"android":"levelo://app?vid=02261c0a-e32b-40d6-bd07-1f00940d609b","ios":"levelo://app?vid=02261c0a-e32b-40d6-bd07-1f00940d609b"},"vehicle_type_id":"4","last_reported":1740489497,"current_range_meters":11200,"station_id":"ce4bgk12rcd13ifvqbj0","pricing_plan_id":"cebpf4jnsgd1na2vs0mg"},{"bike_id":"b8056528-61d4-45d9-b2dd-e6ab8ef50c51","system_id":"levelo_inurba_marseille","lat":43.31282,"lon":5.40149,"is_reserved":false,"is_disabled":false,"rental_uris":{"android":"levelo://app?vid=b8056528-61d4-45d9-b2dd-e6ab8ef50c51","ios":"levelo://app?vid=b8056528-61d4-45d9-b2dd-e6ab8ef50c51"},"vehicle_type_id":"4","last_reported":1740489497,"current_range_meters":11600,"station_id":"ce4bh092rcd13ifvqd30","pricing_plan_id":"cebpf4jnsgd1na2vs0mg"},{"bike_id":"41c45514-78ef-4437-b6cf-da857a9e58ef","system_id":"levelo_inurba_marseille","lat":43.25825,"lon":5.39427,"is_reserved":false,"is_disabled":false,"rental_uris":{"android":"levelo://app?vid=41c45514-78ef-4437-b6cf-da857a9e58ef","ios":"levelo://app?vid=41c45514-78ef-4437-b6cf-da857a9e58ef"},"vehicle_type_id":"4","last_reported":1740489497,"current_range_meters":11600,"station_id":"ce4bhip2rcd13ifvqft0","pricing_plan_id":"cebpf4jnsgd1na2vs0mg"},{"bike_id":"a369fee7-599c-4bad-91bb-85ffc7cdb375","system_id":"levelo_inurba_marseille","lat":43.29228,"lon":5.36059,"is_reserved":false,"is_disabled":false,"rental_uris":{"android":"levelo://app?vid=a369fee7-599c-4bad-91bb-85ffc7cdb375","ios":"levelo://app?vid=a369fee7-599c-4bad-91bb-85ffc7cdb375"},"vehicle_type_id":"4","last_reported":1740489497,"current_range_meters":12000,"station_id":"ce4bhbh2rcd13ifvqeqg","pricing_plan_id":"cebpf4jnsgd1na2vs0mg"},{"bike_id":"8b50cb91-471e-4bba-86b9-2a8678b6b9ea","system_id":"levelo_inurba_marseille","lat":43.29531,"lon":5.38532,"is_reserved":false,"is_disabled":false,"rental_uris":{"android":"levelo://app?vid=8b50cb91-471e-4bba-86b9-2a8678b6b9ea","ios":"levelo://app?vid=8b50cb91-471e-4bba-86b9-2a8678b6b9ea"},"vehicle_type_id":"4","last_reported":1740489497,"current_range_meters":8800,"station_id":"ce4bgih2rcd13ifvqba0","pricing_plan_id":"cebpf4jnsgd1na2vs0mg"},{"bike_id":"006d898a-aee4-4a50-ba33-a19bacf21393","system_id":"levelo_inurba_marseille","lat":43.29035,"lon":5.38643,"is_reserved":false,"is_disabled":false,"rental_uris":{"android":"levelo://app?vid=006d898a-aee4-4a50-ba33-a19bacf21393","ios":"levelo://app?vid=006d898a-aee4-4a50-ba33-a19bacf21393"},"vehicle_type_id":"4","last_reported":1740489497,"current_range_meters":11600,"station_id":"ce4bh4p2rcd13ifvqe0g","pricing_plan_id":"cebpf4jnsgd1na2vs0mg"},{"bike_id":"05f51bd6-bf8c-4b6c-ba2f-d7bf7cec3006","system_id":"levelo_inurba_marseille","lat":43.23191,"lon":5.35564,"is_reserved":false,"is_disabled":false,"rental_uris":{"android":"levelo://app?vid=05f51bd6-bf8c-4b6c-ba2f-d7bf7cec3006","ios":"levelo://app?vid=05f51bd6-bf8c-4b6c-ba2f-d7bf7cec3006"},"vehicle_type_id":"4","last_reported":1740489497,"current_range_meters":12000,"station_id":"ce4bhu92rcd13ifvqi70","pricing_plan_id":"cebpf4jnsgd1na2vs0mg"},{"bike_id":"29e9abc6-80d1-4ec0-8ea7-34c8cce90d09","system_id":"levelo_inurba_marseille","lat":43.29933,"lon":5.36542,"is_reserved":false,"is_disabled":false,"rental_uris":{"android":"levelo://app?vid=29e9abc6-80d1-4ec0-8ea7-34c8cce90d09","ios":"levelo://app?vid=29e9abc6-80d1-4ec0-8ea7-34c8cce90d09"},"vehicle_type_id":"4","last_reported":1740489497,"current_range_meters":12000,"station_id":"ce4bgm92rcd13ifvqbr0","pricing_plan_id":"cebpf4jnsgd1na2vs0mg"},{"bike_id":"4a40bf19-bec1-4fda-8ce8-dcca5326a159","system_id":"levelo_inurba_marseille","lat":43.25732,"lon":5.41072,"is_reserved":false,"is_disabled":false,"rental_uris":{"android":"levelo://app?vid=4a40bf19-bec1-4fda-8ce8-dcca5326a159","ios":"levelo://app?vid=4a40bf19-bec1-4fda-8ce8-dcca5326a159"},"vehicle_type_id":"4","last_reported":1740489497,"current_range_meters":20000,"station_id":"ce4bhkp2rcd13ifvqgd0","pricing_plan_id":"cebpf4jnsgd1na2vs0mg"},{"bike_id":"1c2f3bdc-68fa-40a8-b99e-fcf41f32f9e4","system_id":"levelo_inurba_marseille","lat":43.29213,"lon":5.40521,"is_reserved":false,"is_disabled":false,"rental_uris":{"android":"levelo://app?vid=1c2f3bdc-68fa-40a8-b99e-fcf41f32f9e4","ios":"levelo://app?vid=1c2f3bdc-68fa-40a8-b99e-fcf41f32f9e4"},"vehicle_type_id":"4","last_reported":1740489497,"current_range_meters":13600,"station_id":"","pricing_plan_id":"cebpf4jnsgd1na2vs0mg"},{"bike_id":"6bb7a600-4627-48d6-a6ba-24a72f10b0e3","system_id":"levelo_inurba_marseille","lat":43.23159,"lon":5.43713,"is_reserved":false,"is_disabled":false,"rental_uris":{"android":"levelo://app?vid=6bb7a600-4627-48d6-a6ba-24a72f10b0e3","ios":"levelo://app?vid=6bb7a600-4627-48d6-a6ba-24a72f10b0e3"},"vehicle_type_id":"4","last_reported":1740489497,"current_range_meters":12400,"station_id":"ce4bhmp2rcd13ifvqgog","pricing_plan_id":"cebpf4jnsgd1na2vs0mg"},{"bike_id":"aa461733-5cf8-4735-867e-49f8d4ad6795","system_id":"levelo_inurba_marseille","lat":43.29271,"lon":5.36851,"is_reserved":false,"is_disabled":false,"rental_uris":{"android":"levelo://app?vid=aa461733-5cf8-4735-867e-49f8d4ad6795","ios":"levelo://app?vid=aa461733-5cf8-4735-867e-49f8d4ad6795"},"vehicle_type_id":"4","last_reported":1740489497,"current_range_meters":13600,"station_id":"ce4bhbp2rcd13ifvqesg","pricing_plan_id":"cebpf4jnsgd1na2vs0mg"},{"bike_id":"c2336e3d-90a2-4750-a7a4-7124c33ece43","system_id":"levelo_inurba_marseille","lat":43.23144,"lon":5.43714,"is_reserved":false,"is_disabled":false,"rental_uris":{"android":"levelo://app?vid=c2336e3d-90a2-4750-a7a4-7124c33ece43","ios":"levelo://app?vid=c2336e3d-90a2-4750-a7a4-7124c33ece43"},"vehicle_type_id":"4","last_reported":1740489497,"current_range_meters":13600,"station_id":"ce4bhmp2rcd13ifvqgog","pricing_plan_id":"cebpf4jnsgd1na2vs0mg"},{"bike_id":"f570f6b1-325e-451d-987c-3eee1201eb78","system_id":"levelo_inurba_marseille","lat":43.24064,"lon":5.37765,"is_reserved":false,"is_disabled":false,"rental_uris":{"android":"levelo://app?vid=f570f6b1-325e-451d-987c-3eee1201eb78","ios":"levelo://app?vid=f570f6b1-325e-451d-987c-3eee1201eb78"},"vehicle_type_id":"4","last_reported":1740489497,"current_range_meters":17200,"station_id":"ce4bhnp2rcd13ifvqgvg","pricing_plan_id":"cebpf4jnsgd1na2vs0mg"},{"bike_id":"9062f7b6-9c81-49b8-a1bd-5df58202afcd","system_id":"levelo_inurba_marseille","lat":43.3171,"lon":5.43708,"is_reserved":false,"is_disabled":false,"rental_uris":{"android":"levelo://app?vid=9062f7b6-9c81-49b8-a1bd-5df58202afcd","ios":"levelo://app?vid=9062f7b6-9c81-49b8-a1bd-5df58202afcd"},"vehicle_type_id":"4","last_reported":1740489497,"current_range_meters":13600,"station_id":"ce4bhp92rcd13ifvqhcg","pricing_plan_id":"cebpf4jnsgd1na2vs0mg"},{"bike_id":"3c5f949b-6f7c-4175-884a-b85816e22df3","system_id":"levelo_inurba_marseille","lat":43.31327,"lon":5.39684,"is_reserved":false,"is_disabled":false,"rental_uris":{"android":"levelo://app?vid=3c5f949b-6f7c-4175-884a-b85816e22df3","ios":"levelo://app?vid=3c5f949b-6f7c-4175-884a-b85816e22df3"},"vehicle_type_id":"4","last_reported":1740489497,"current_range_meters":13600,"station_id":"ce4bgvp2rcd13ifvqcu0","pricing_plan_id":"cebpf4jnsgd1na2vs0mg"},{"bike_id":"36427cee-8fdc-4a4f-9ac9-c2ae0b53a1e7","system_id":"levelo_inurba_marseille","lat":43.32359,"lon":5.38896,"is_reserved":false,"is_disabled":false,"rental_uris":{"android":"levelo://app?vid=36427cee-8fdc-4a4f-9ac9-c2ae0b53a1e7","ios":"levelo://app?vid=36427cee-8fdc-4a4f-9ac9-c2ae0b53a1e7"},"vehicle_type_id":"4","last_reported":1740489497,"current_range_meters":13600,"station_id":"ce4bhqp2rcd13ifvqhog","pricing_plan_id":"cebpf4jnsgd1na2vs0mg"},{"bike_id":"0563d022-a45b-4537-b5b3-48e39921f7b3","system_id":"levelo_inurba_marseille","lat":43.28355,"lon":5.38103,"is_reserved":false,"is_disabled":false,"rental_uris":{"android":"levelo://app?vid=0563d022-a45b-4537-b5b3-48e39921f7b3","ios":"levelo://app?vid=0563d022-a45b-4537-b5b3-48e39921f7b3"},"vehicle_type_id":"4","last_reported":1740489497,"current_range_meters":15200,"station_id":"ce4bh412rcd13ifvqdr0","pricing_plan_id":"cebpf4jnsgd1na2vs0mg"},{"bike_id":"317a1a55-b41c-4bca-8dbb-d35ad77844e8","system_id":"levelo_inurba_marseille","lat":43.24071,"lon":5.37759,"is_reserved":false,"is_disabled":false,"rental_uris":{"android":"levelo://app?vid=317a1a55-b41c-4bca-8dbb-d35ad77844e8","ios":"levelo://app?vid=317a1a55-b41c-4bca-8dbb-d35ad77844e8"},"vehicle_type_id":"4","last_reported":1740489497,"current_range_meters":14000,"station_id":"ce4bhnp2rcd13ifvqgvg","pricing_plan_id":"cebpf4jnsgd1na2vs0mg"},{"bike_id":"278c8dfa-dce5-4580-9f98-1e5bf687fe79","system_id":"levelo_inurba_marseille","lat":43.32487,"lon":5.36573,"is_reserved":false,"is_disabled":false,"rental_uris":{"android":"levelo://app?vid=278c8dfa-dce5-4580-9f98-1e5bf687fe79","ios":"levelo://app?vid=278c8dfa-dce5-4580-9f98-1e5bf687fe79"},"vehicle_type_id":"4","last_reported":1740489497,"current_range_meters":20000,"station_id":"ce4bhs12rcd13ifvqhvg","pricing_plan_id":"cebpf4jnsgd1na2vs0mg"},{"bike_id":"de5228bf-270f-451c-85e3-8b0a86a12912","system_id":"levelo_inurba_marseille","lat":43.30296,"lon":5.39224,"is_reserved":false,"is_disabled":false,"rental_uris":{"android":"levelo://app?vid=de5228bf-270f-451c-85e3-8b0a86a12912","ios":"levelo://app?vid=de5228bf-270f-451c-85e3-8b0a86a12912"},"vehicle_type_id":"4","last_reported":1740489497,"current_range_meters":14000,"station_id":"ce4bgkh2rcd13ifvqbk0","pricing_plan_id":"cebpf4jnsgd1na2vs0mg"},{"bike_id":"2c6aaea4-1349-44f6-8d2b-bf6f79a83cbc","system_id":"levelo_inurba_marseille","lat":43.30326,"lon":5.40432,"is_reserved":false,"is_disabled":false,"rental_uris":{"android":"levelo://app?vid=2c6aaea4-1349-44f6-8d2b-bf6f79a83cbc","ios":"levelo://app?vid=2c6aaea4-1349-44f6-8d2b-bf6f79a83cbc"},"vehicle_type_id":"4","last_reported":1740489497,"current_range_meters":12000,"station_id":"ce4bh012rcd13ifvqd10","pricing_plan_id":"cebpf4jnsgd1na2vs0mg"},{"bike_id":"6433cc9a-a305-4634-ae05-67bf1e361cc9","system_id":"levelo_inurba_marseille","lat":43.29039,"lon":5.37568,"is_reserved":false,"is_disabled":false,"rental_uris":{"android":"levelo://app?vid=6433cc9a-a305-4634-ae05-67bf1e361cc9","ios":"levelo://app?vid=6433cc9a-a305-4634-ae05-67bf1e361cc9"},"vehicle_type_id":"4","last_reported":1740489497,"current_range_meters":14000,"station_id":"ce4bh692rcd13ifvqe90","pricing_plan_id":"cebpf4jnsgd1na2vs0mg"},{"bike_id":"bd21364d-7e60-4376-aa54-37bf9f048f03","system_id":"levelo_inurba_marseille","lat":43.28336,"lon":5.38689,"is_reserved":false,"is_disabled":false,"rental_uris":{"android":"levelo://app?vid=bd21364d-7e60-4376-aa54-37bf9f048f03","ios":"levelo://app?vid=bd21364d-7e60-4376-aa54-37bf9f048f03"},"vehicle_type_id":"4","last_reported":1740489497,"current_range_meters":14400,"station_id":"","pricing_plan_id":"cebpf4jnsgd1na2vs0mg"},{"bike_id":"3ca12e5b-bc10-471e-b621-aa59335cc3bb","system_id":"levelo_inurba_marseille","lat":43.29522,"lon":5.40778,"is_reserved":false,"is_disabled":false,"rental_uris":{"android":"levelo://app?vid=3ca12e5b-bc10-471e-b621-aa59335cc3bb","ios":"levelo://app?vid=3ca12e5b-bc10-471e-b621-aa59335cc3bb"},"vehicle_type_id":"4","last_reported":1740489497,"current_range_meters":14000,"station_id":"","pricing_plan_id":"cebpf4jnsgd1na2vs0mg"},{"bike_id":"7c45866a-bd99-4c12-9747-66203f12a96e","system_id":"levelo_inurba_marseille","lat":43.23137,"lon":5.35504,"is_reserved":false,"is_disabled":false,"rental_uris":{"android":"levelo://app?vid=7c45866a-bd99-4c12-9747-66203f12a96e","ios":"levelo://app?vid=7c45866a-bd99-4c12-9747-66203f12a96e"},"vehicle_type_id":"4","last_reported":1740489497,"current_range_meters":14000,"station_id":"","pricing_plan_id":"cebpf4jnsgd1na2vs0mg"},{"bike_id":"536d7136-9e82-41d8-9a71-86277e3ad329","system_id":"levelo_inurba_marseille","lat":43.30463,"lon":5.37909,"is_reserved":false,"is_disabled":false,"rental_uris":{"android":"levelo://app?vid=536d7136-9e82-41d8-9a71-86277e3ad329","ios":"levelo://app?vid=536d7136-9e82-41d8-9a71-86277e3ad329"},"vehicle_type_id":"4","last_reported":1740489497,"current_range_meters":14000,"station_id":"ce4bgup2rcd13ifvqcn0","pricing_plan_id":"cebpf4jnsgd1na2vs0mg"},{"bike_id":"078ec0b8-f3ee-40a5-83dd-16c6ac25214b","system_id":"levelo_inurba_marseille","lat":43.250059,"lon":5.38919,"is_reserved":false,"is_disabled":false,"rental_uris":{"android":"levelo://app?vid=078ec0b8-f3ee-40a5-83dd-16c6ac25214b","ios":"levelo://app?vid=078ec0b8-f3ee-40a5-83dd-16c6ac25214b"},"vehicle_type_id":"4","last_reported":1740489497,"current_range_meters":14000,"station_id":"ce4bhgp2rcd13ifvqfd0","pricing_plan_id":"cebpf4jnsgd1na2vs0mg"},{"bike_id":"d0801915-0de0-4f9d-9726-750b42c06614","system_id":"levelo_inurba_marseille","lat":43.32116,"lon":5.36769,"is_reserved":false,"is_disabled":false,"rental_uris":{"android":"levelo://app?vid=d0801915-0de0-4f9d-9726-750b42c06614","ios":"levelo://app?vid=d0801915-0de0-4f9d-9726-750b42c06614"},"vehicle_type_id":"4","last_reported":1740489497,"current_range_meters":14000,"station_id":"ce4bhrh2rcd13ifvqhug","pricing_plan_id":"cebpf4jnsgd1na2vs0mg"},{"bike_id":"592ac74c-d26b-437c-ba21-90fed58fbfad","system_id":"levelo_inurba_marseille","lat":43.30166,"lon":5.38074,"is_reserved":false,"is_disabled":false,"rental_uris":{"android":"levelo://app?vid=592ac74c-d26b-437c-ba21-90fed58fbfad","ios":"levelo://app?vid=592ac74c-d26b-437c-ba21-90fed58fbfad"},"vehicle_type_id":"4","last_reported":1740489497,"current_range_meters":14000,"station_id":"ce4bgjp2rcd13ifvqbh0","pricing_plan_id":"cebpf4jnsgd1na2vs0mg"},{"bike_id":"004fa1c2-aba9-4d61-a4b3-c8261c971e9f","system_id":"levelo_inurba_marseille","lat":43.31071,"lon":5.38357,"is_reserved":false,"is_disabled":false,"rental_uris":{"android":"levelo://app?vid=004fa1c2-aba9-4d61-a4b3-c8261c971e9f","ios":"levelo://app?vid=004fa1c2-aba9-4d61-a4b3-c8261c971e9f"},"vehicle_type_id":"4","last_reported":1740489497,"current_range_meters":14400,"station_id":"ce4bgv92rcd13ifvqcr0","pricing_plan_id":"cebpf4jnsgd1na2vs0mg"},{"bike_id":"7b072264-296b-4c4e-af0d-e8f87c1d3df7","system_id":"levelo_inurba_marseille","lat":43.29916,"lon":5.37477,"is_reserved":false,"is_disabled":false,"rental_uris":{"android":"levelo://app?vid=7b072264-296b-4c4e-af0d-e8f87c1d3df7","ios":"levelo://app?vid=7b072264-296b-4c4e-af0d-e8f87c1d3df7"},"vehicle_type_id":"4","last_reported":1740489497,"current_range_meters":14400,"station_id":"ce4bgjh2rcd13ifvqbg0","pricing_plan_id":"cebpf4jnsgd1na2vs0mg"},{"bike_id":"b4575384-2e84-4063-b920-e5caaa8b15e2","system_id":"levelo_inurba_marseille","lat":43.28155,"lon":5.42638,"is_reserved":false,"is_disabled":false,"rental_uris":{"android":"levelo://app?vid=b4575384-2e84-4063-b920-e5caaa8b15e2","ios":"levelo://app?vid=b4575384-2e84-4063-b920-e5caaa8b15e2"},"vehicle_type_id":"4","last_reported":1740489497,"current_range_meters":14400,"station_id":"ce4bhnh2rcd13ifvqgug","pricing_plan_id":"cebpf4jnsgd1na2vs0mg"},{"bike_id":"c5edc599-ec18-499b-a8e1-d2f72d2c7acf","system_id":"levelo_inurba_marseille","lat":43.3042,"lon":5.39749,"is_reserved":false,"is_disabled":false,"rental_uris":{"android":"levelo://app?vid=c5edc599-ec18-499b-a8e1-d2f72d2c7acf","ios":"levelo://app?vid=c5edc599-ec18-499b-a8e1-d2f72d2c7acf"},"vehicle_type_id":"4","last_reported":1740489497,"current_range_meters":14400,"station_id":"ce4bh092rcd13ifvqd20","pricing_plan_id":"cebpf4jnsgd1na2vs0mg"},{"bike_id":"5ffa7d72-60e7-4c36-872e-b63a6e5a0c59","system_id":"levelo_inurba_marseille","lat":43.27333,"lon":5.39086,"is_reserved":false,"is_disabled":false,"rental_uris":{"android":"levelo://app?vid=5ffa7d72-60e7-4c36-872e-b63a6e5a0c59","ios":"levelo://app?vid=5ffa7d72-60e7-4c36-872e-b63a6e5a0c59"},"vehicle_type_id":"4","last_reported":1740489497,"current_range_meters":14800,"station_id":"ce4bhgp2rcd13ifvqfe0","pricing_plan_id":"cebpf4jnsgd1na2vs0mg"},{"bike_id":"7521262a-df32-496c-bb53-5f9fa91d7a81","system_id":"levelo_inurba_marseille","lat":43.27374,"lon":5.36264,"is_reserved":false,"is_disabled":false,"rental_uris":{"android":"levelo://app?vid=7521262a-df32-496c-bb53-5f9fa91d7a81","ios":"levelo://app?vid=7521262a-df32-496c-bb53-5f9fa91d7a81"},"vehicle_type_id":"4","last_reported":1740489497,"current_range_meters":14800,"station_id":"ce4bhbh2rcd13ifvqeo0","pricing_plan_id":"cebpf4jnsgd1na2vs0mg"},{"bike_id":"fa64865d-66ba-4eb3-a5e7-da4d8a111750","system_id":"levelo_inurba_marseille","lat":43.2407,"lon":5.37759,"is_reserved":false,"is_disabled":false,"rental_uris":{"android":"levelo://app?vid=fa64865d-66ba-4eb3-a5e7-da4d8a111750","ios":"levelo://app?vid=fa64865d-66ba-4eb3-a5e7-da4d8a111750"},"vehicle_type_id":"4","last_reported":1740489497,"current_range_meters":14800,"station_id":"ce4bhnp2rcd13ifvqgvg","pricing_plan_id":"cebpf4jnsgd1na2vs0mg"},{"bike_id":"bb76425b-b3d5-4276-b78e-6ba609d47b37","system_id":"levelo_inurba_marseille","lat":43.29915,"lon":5.38154,"is_reserved":false,"is_disabled":false,"rental_uris":{"android":"levelo://app?vid=bb76425b-b3d5-4276-b78e-6ba609d47b37","ios":"levelo://app?vid=bb76425b-b3d5-4276-b78e-6ba609d47b37"},"vehicle_type_id":"4","last_reported":1740489497,"current_range_meters":20800,"station_id":"ce4bgj12rcd13ifvqbc0","pricing_plan_id":"cebpf4jnsgd1na2vs0mg"},{"bike_id":"f9aeb58a-c82d-47a8-9513-8a76751490c3","system_id":"levelo_inurba_marseille","lat":43.2872,"lon":5.36085,"is_reserved":false,"is_disabled":false,"rental_uris":{"android":"levelo://app?vid=f9aeb58a-c82d-47a8-9513-8a76751490c3","ios":"levelo://app?vid=f9aeb58a-c82d-47a8-9513-8a76751490c3"},"vehicle_type_id":"4","last_reported":1740489497,"current_range_meters":15200,"station_id":"cki0cbj6b192h4jlfktg","pricing_plan_id":"cebpf4jnsgd1na2vs0mg"},{"bike_id":"6a322d10-e576-4838-b30b-1ffd02f84288","system_id":"levelo_inurba_marseille","lat":43.23152,"lon":5.43723,"is_reserved":false,"is_disabled":false,"rental_uris":{"android":"levelo://app?vid=6a322d10-e576-4838-b30b-1ffd02f84288","ios":"levelo://app?vid=6a322d10-e576-4838-b30b-1ffd02f84288"},"vehicle_type_id":"4","last_reported":1740489497,"current_range_meters":14800,"station_id":"ce4bhmp2rcd13ifvqgog","pricing_plan_id":"cebpf4jnsgd1na2vs0mg"},{"bike_id":"19fc91b8-7ac0-4caa-89c0-b395ae6b9802","system_id":"levelo_inurba_marseille","lat":43.26226,"lon":5.37432,"is_reserved":false,"is_disabled":false,"rental_uris":{"android":"levelo://app?vid=19fc91b8-7ac0-4caa-89c0-b395ae6b9802","ios":"levelo://app?vid=19fc91b8-7ac0-4caa-89c0-b395ae6b9802"},"vehicle_type_id":"4","last_reported":1740489497,"current_range_meters":15200,"station_id":"ce4bhgp2rcd13ifvqfc0","pricing_plan_id":"cebpf4jnsgd1na2vs0mg"},{"bike_id":"289d079a-b942-48f5-b3b3-4efebdda4145","system_id":"levelo_inurba_marseille","lat":43.3021,"lon":5.39473,"is_reserved":false,"is_disabled":false,"rental_uris":{"android":"levelo://app?vid=289d079a-b942-48f5-b3b3-4efebdda4145","ios":"levelo://app?vid=289d079a-b942-48f5-b3b3-4efebdda4145"},"vehicle_type_id":"4","last_reported":1740489497,"current_range_meters":15200,"station_id":"ce4bh0p2rcd13ifvqd70","pricing_plan_id":"cebpf4jnsgd1na2vs0mg"},{"bike_id":"b68c4a8d-14d8-4987-9dce-59319ae96c78","system_id":"levelo_inurba_marseille","lat":43.30595,"lon":5.37207,"is_reserved":false,"is_disabled":false,"rental_uris":{"android":"levelo://app?vid=b68c4a8d-14d8-4987-9dce-59319ae96c78","ios":"levelo://app?vid=b68c4a8d-14d8-4987-9dce-59319ae96c78"},"vehicle_type_id":"4","last_reported":1740489497,"current_range_meters":13600,"station_id":"ce4bgqh2rcd13ifvqc4g","pricing_plan_id":"cebpf4jnsgd1na2vs0mg"},{"bike_id":"084d3dfe-5fd2-44e2-989b-bdf48428dd68","system_id":"levelo_inurba_marseille","lat":43.306485,"lon":5.40073,"is_reserved":false,"is_disabled":false,"rental_uris":{"android":"levelo://app?vid=084d3dfe-5fd2-44e2-989b-bdf48428dd68","ios":"levelo://app?vid=084d3dfe-5fd2-44e2-989b-bdf48428dd68"},"vehicle_type_id":"4","last_reported":1740489497,"current_range_meters":15200,"station_id":"ce4bh112rcd13ifvqda0","pricing_plan_id":"cebpf4jnsgd1na2vs0mg"},{"bike_id":"77aea034-d40b-44ec-a3b0-a9bd9b158889","system_id":"levelo_inurba_marseille","lat":43.283,"lon":5.35094,"is_reserved":false,"is_disabled":false,"rental_uris":{"android":"levelo://app?vid=77aea034-d40b-44ec-a3b0-a9bd9b158889","ios":"levelo://app?vid=77aea034-d40b-44ec-a3b0-a9bd9b158889"},"vehicle_type_id":"4","last_reported":1740489497,"current_range_meters":16400,"station_id":"ce4bhbp2rcd13ifvqerg","pricing_plan_id":"cebpf4jnsgd1na2vs0mg"},{"bike_id":"ebf18b50-37ba-4ef9-8eca-f595f189e384","system_id":"levelo_inurba_marseille","lat":43.28125,"lon":5.37867,"is_reserved":false,"is_disabled":false,"rental_uris":{"android":"levelo://app?vid=ebf18b50-37ba-4ef9-8eca-f595f189e384","ios":"levelo://app?vid=ebf18b50-37ba-4ef9-8eca-f595f189e384"},"vehicle_type_id":"4","last_reported":1740489497,"current_range_meters":16000,"station_id":"ce4bha12rcd13ifvqee0","pricing_plan_id":"cebpf4jnsgd1na2vs0mg"},{"bike_id":"4277977f-2081-4f4c-b8fa-7068f0c99ab8","system_id":"levelo_inurba_marseille","lat":43.34138,"lon":5.40904,"is_reserved":false,"is_disabled":false,"rental_uris":{"android":"levelo://app?vid=4277977f-2081-4f4c-b8fa-7068f0c99ab8","ios":"levelo://app?vid=4277977f-2081-4f4c-b8fa-7068f0c99ab8"},"vehicle_type_id":"4","last_reported":1740489497,"current_range_meters":16000,"station_id":"ce4bhqh2rcd13ifvqhlg","pricing_plan_id":"cebpf4jnsgd1na2vs0mg"},{"bike_id":"6fe475fd-06c5-454f-b2b4-f6f7ee196956","system_id":"levelo_inurba_marseille","lat":43.23204,"lon":5.39979,"is_reserved":false,"is_disabled":false,"rental_uris":{"android":"levelo://app?vid=6fe475fd-06c5-454f-b2b4-f6f7ee196956","ios":"levelo://app?vid=6fe475fd-06c5-454f-b2b4-f6f7ee196956"},"vehicle_type_id":"4","last_reported":1740489497,"current_range_meters":16000,"station_id":"ce4bhn12rcd13ifvqgqg","pricing_plan_id":"cebpf4jnsgd1na2vs0mg"},{"bike_id":"33cd2373-a0d9-4102-bb01-a6c87910c552","system_id":"levelo_inurba_marseille","lat":43.2315,"lon":5.43721,"is_reserved":false,"is_disabled":false,"rental_uris":{"android":"levelo://app?vid=33cd2373-a0d9-4102-bb01-a6c87910c552","ios":"levelo://app?vid=33cd2373-a0d9-4102-bb01-a6c87910c552"},"vehicle_type_id":"4","last_reported":1740489497,"current_range_meters":16000,"station_id":"ce4bhmp2rcd13ifvqgog","pricing_plan_id":"cebpf4jnsgd1na2vs0mg"},{"bike_id":"06fd754e-5486-4766-85d4-3e5d45aaf9a6","system_id":"levelo_inurba_marseille","lat":43.31327,"lon":5.39693,"is_reserved":false,"is_disabled":false,"rental_uris":{"android":"levelo://app?vid=06fd754e-5486-4766-85d4-3e5d45aaf9a6","ios":"levelo://app?vid=06fd754e-5486-4766-85d4-3e5d45aaf9a6"},"vehicle_type_id":"4","last_reported":1740489497,"current_range_meters":16000,"station_id":"ce4bgvp2rcd13ifvqcu0","pricing_plan_id":"cebpf4jnsgd1na2vs0mg"},{"bike_id":"aba51740-29e3-48c1-9870-e759fd1be32d","system_id":"levelo_inurba_marseille","lat":43.28847,"lon":5.3585,"is_reserved":false,"is_disabled":false,"rental_uris":{"android":"levelo://app?vid=aba51740-29e3-48c1-9870-e759fd1be32d","ios":"levelo://app?vid=aba51740-29e3-48c1-9870-e759fd1be32d"},"vehicle_type_id":"4","last_reported":1740489497,"current_range_meters":16000,"station_id":"ce4bhb12rcd13ifvqem0","pricing_plan_id":"cebpf4jnsgd1na2vs0mg"},{"bike_id":"d4c17f10-1c12-4a44-b36e-dba777d42d93","system_id":"levelo_inurba_marseille","lat":43.23144,"lon":5.43715,"is_reserved":false,"is_disabled":false,"rental_uris":{"android":"levelo://app?vid=d4c17f10-1c12-4a44-b36e-dba777d42d93","ios":"levelo://app?vid=d4c17f10-1c12-4a44-b36e-dba777d42d93"},"vehicle_type_id":"4","last_reported":1740489497,"current_range_meters":16000,"station_id":"ce4bhmp2rcd13ifvqgog","pricing_plan_id":"cebpf4jnsgd1na2vs0mg"},{"bike_id":"c63c50fa-9c17-47a2-9a17-99c28b798570","system_id":"levelo_inurba_marseille","lat":43.29073,"lon":5.37173,"is_reserved":false,"is_disabled":false,"rental_uris":{"android":"levelo://app?vid=c63c50fa-9c17-47a2-9a17-99c28b798570","ios":"levelo://app?vid=c63c50fa-9c17-47a2-9a17-99c28b798570"},"vehicle_type_id":"4","last_reported":1740489497,"current_range_meters":16000,"station_id":"ce4bh5p2rcd13ifvqe4g","pricing_plan_id":"cebpf4jnsgd1na2vs0mg"},{"bike_id":"0f12edd9-d77b-4614-a616-b20a18fd421f","system_id":"levelo_inurba_marseille","lat":43.29691,"lon":5.37282,"is_reserved":false,"is_disabled":false,"rental_uris":{"android":"levelo://app?vid=0f12edd9-d77b-4614-a616-b20a18fd421f","ios":"levelo://app?vid=0f12edd9-d77b-4614-a616-b20a18fd421f"},"vehicle_type_id":"4","last_reported":1740489497,"current_range_meters":15200,"station_id":"ce4bgk12rcd13ifvqbj0","pricing_plan_id":"cebpf4jnsgd1na2vs0mg"},{"bike_id":"12ab9d10-d6dc-48aa-890c-b3d5b517e576","system_id":"levelo_inurba_marseille","lat":43.23187,"lon":5.39991,"is_reserved":false,"is_disabled":false,"rental_uris":{"android":"levelo://app?vid=12ab9d10-d6dc-48aa-890c-b3d5b517e576","ios":"levelo://app?vid=12ab9d10-d6dc-48aa-890c-b3d5b517e576"},"vehicle_type_id":"4","last_reported":1740489497,"current_range_meters":17600,"station_id":"ce4bhn12rcd13ifvqgqg","pricing_plan_id":"cebpf4jnsgd1na2vs0mg"},{"bike_id":"67ee95a1-160f-49c1-b11e-b3640680cd0d","system_id":"levelo_inurba_marseille","lat":43.321043,"lon":5.367727,"is_reserved":false,"is_disabled":false,"rental_uris":{"android":"levelo://app?vid=67ee95a1-160f-49c1-b11e-b3640680cd0d","ios":"levelo://app?vid=67ee95a1-160f-49c1-b11e-b3640680cd0d"},"vehicle_type_id":"4","last_reported":1740489497,"current_range_meters":16400,"station_id":"ce4bhrh2rcd13ifvqhug","pricing_plan_id":"cebpf4jnsgd1na2vs0mg"},{"bike_id":"5c4fc2a1-1fb9-4ff4-8e8b-9fddc3057e03","system_id":"levelo_inurba_marseille","lat":43.28463,"lon":5.38552,"is_reserved":false,"is_disabled":false,"rental_uris":{"android":"levelo://app?vid=5c4fc2a1-1fb9-4ff4-8e8b-9fddc3057e03","ios":"levelo://app?vid=5c4fc2a1-1fb9-4ff4-8e8b-9fddc3057e03"},"vehicle_type_id":"4","last_reported":1740489497,"current_range_meters":17200,"station_id":"ce4bh8p2rcd13ifvqeb0","pricing_plan_id":"cebpf4jnsgd1na2vs0mg"},{"bike_id":"803e3647-d4bb-4e92-8015-b570dc24b8ad","system_id":"levelo_inurba_marseille","lat":43.2679,"lon":5.39416,"is_reserved":false,"is_disabled":false,"rental_uris":{"android":"levelo://app?vid=803e3647-d4bb-4e92-8015-b570dc24b8ad","ios":"levelo://app?vid=803e3647-d4bb-4e92-8015-b570dc24b8ad"},"vehicle_type_id":"4","last_reported":1740489497,"current_range_meters":16000,"station_id":"ce4bhh12rcd13ifvqfg0","pricing_plan_id":"cebpf4jnsgd1na2vs0mg"},{"bike_id":"9b713e7f-bbb7-44c2-ac41-0851f577364e","system_id":"levelo_inurba_marseille","lat":43.29369,"lon":5.37845,"is_reserved":false,"is_disabled":false,"rental_uris":{"android":"levelo://app?vid=9b713e7f-bbb7-44c2-ac41-0851f577364e","ios":"levelo://app?vid=9b713e7f-bbb7-44c2-ac41-0851f577364e"},"vehicle_type_id":"4","last_reported":1740489497,"current_range_meters":16400,"station_id":"ce4bgjh2rcd13ifvqbf0","pricing_plan_id":"cebpf4jnsgd1na2vs0mg"},{"bike_id":"56cedde2-db31-4598-9fd2-18719739a9aa","system_id":"levelo_inurba_marseille","lat":43.31225,"lon":5.36856,"is_reserved":false,"is_disabled":false,"rental_uris":{"android":"levelo://app?vid=56cedde2-db31-4598-9fd2-18719739a9aa","ios":"levelo://app?vid=56cedde2-db31-4598-9fd2-18719739a9aa"},"vehicle_type_id":"4","last_reported":1740489497,"current_range_meters":16800,"station_id":"ce4bgl92rcd13ifvqbq0","pricing_plan_id":"cebpf4jnsgd1na2vs0mg"},{"bike_id":"59fa1c82-615e-4542-926f-b3beed36c55e","system_id":"levelo_inurba_marseille","lat":43.29573,"lon":5.37516,"is_reserved":false,"is_disabled":false,"rental_uris":{"android":"levelo://app?vid=59fa1c82-615e-4542-926f-b3beed36c55e","ios":"levelo://app?vid=59fa1c82-615e-4542-926f-b3beed36c55e"},"vehicle_type_id":"4","last_reported":1740489497,"current_range_meters":17200,"station_id":"ce4bgh92rcd13ifvqb50","pricing_plan_id":"cebpf4jnsgd1na2vs0mg"},{"bike_id":"99ecdcac-415f-4765-98a3-24c1718bdda8","system_id":"levelo_inurba_marseille","lat":43.3054,"lon":5.36685,"is_reserved":false,"is_disabled":false,"rental_uris":{"android":"levelo://app?vid=99ecdcac-415f-4765-98a3-24c1718bdda8","ios":"levelo://app?vid=99ecdcac-415f-4765-98a3-24c1718bdda8"},"vehicle_type_id":"4","last_reported":1740489497,"current_range_meters":16800,"station_id":"ce4bgrp2rcd13ifvqc9g","pricing_plan_id":"cebpf4jnsgd1na2vs0mg"},{"bike_id":"ddbee266-99f9-489a-a734-5c87a58e8327","system_id":"levelo_inurba_marseille","lat":43.2903,"lon":5.39971,"is_reserved":false,"is_disabled":false,"rental_uris":{"android":"levelo://app?vid=ddbee266-99f9-489a-a734-5c87a58e8327","ios":"levelo://app?vid=ddbee266-99f9-489a-a734-5c87a58e8327"},"vehicle_type_id":"4","last_reported":1740489497,"current_range_meters":16800,"station_id":"ce4bh392rcd13ifvqdm0","pricing_plan_id":"cebpf4jnsgd1na2vs0mg"},{"bike_id":"f18936d8-674a-4935-8a1d-8c46dad78e01","system_id":"levelo_inurba_marseille","lat":43.302623,"lon":5.400541,"is_reserved":false,"is_disabled":false,"rental_uris":{"android":"levelo://app?vid=f18936d8-674a-4935-8a1d-8c46dad78e01","ios":"levelo://app?vid=f18936d8-674a-4935-8a1d-8c46dad78e01"},"vehicle_type_id":"4","last_reported":1740489497,"current_range_meters":16400,"station_id":"ce4bgvh2rcd13ifvqcs0","pricing_plan_id":"cebpf4jnsgd1na2vs0mg"},{"bike_id":"b8dfb634-2b51-43ec-954d-d0670b4b3eb8","system_id":"levelo_inurba_marseille","lat":43.30152,"lon":5.38096,"is_reserved":false,"is_disabled":false,"rental_uris":{"android":"levelo://app?vid=b8dfb634-2b51-43ec-954d-d0670b4b3eb8","ios":"levelo://app?vid=b8dfb634-2b51-43ec-954d-d0670b4b3eb8"},"vehicle_type_id":"4","last_reported":1740489497,"current_range_meters":17200,"station_id":"ce4bgjp2rcd13ifvqbh0","pricing_plan_id":"cebpf4jnsgd1na2vs0mg"},{"bike_id":"1e6d620e-08ee-41a2-bedf-36a29f8b5341","system_id":"levelo_inurba_marseille","lat":43.28939,"lon":5.36637,"is_reserved":false,"is_disabled":false,"rental_uris":{"android":"levelo://app?vid=1e6d620e-08ee-41a2-bedf-36a29f8b5341","ios":"levelo://app?vid=1e6d620e-08ee-41a2-bedf-36a29f8b5341"},"vehicle_type_id":"4","last_reported":1740489497,"current_range_meters":19600,"station_id":"ce4bhap2rcd13ifvqek0","pricing_plan_id":"cebpf4jnsgd1na2vs0mg"},{"bike_id":"c0ed74a2-e2a8-41f0-9b03-a680909f2682","system_id":"levelo_inurba_marseille","lat":43.27939,"lon":5.41046,"is_reserved":false,"is_disabled":false,"rental_uris":{"android":"levelo://app?vid=c0ed74a2-e2a8-41f0-9b03-a680909f2682","ios":"levelo://app?vid=c0ed74a2-e2a8-41f0-9b03-a680909f2682"},"vehicle_type_id":"4","last_reported":1740489497,"current_range_meters":17200,"station_id":"ce4bhnp2rcd13ifvqh0g","pricing_plan_id":"cebpf4jnsgd1na2vs0mg"},{"bike_id":"1fe19272-a045-487f-8975-2b2a31d8ebb8","system_id":"levelo_inurba_marseille","lat":43.28627,"lon":5.3508,"is_reserved":false,"is_disabled":false,"rental_uris":{"android":"levelo://app?vid=1fe19272-a045-487f-8975-2b2a31d8ebb8","ios":"levelo://app?vid=1fe19272-a045-487f-8975-2b2a31d8ebb8"},"vehicle_type_id":"4","last_reported":1740489497,"current_range_meters":24000,"station_id":"ce4bhch2rcd13ifvqeug","pricing_plan_id":"cebpf4jnsgd1na2vs0mg"},{"bike_id":"ad45f892-d70d-4ee2-b49b-6f5b55f6868a","system_id":"levelo_inurba_marseille","lat":43.30894,"lon":5.39653,"is_reserved":false,"is_disabled":false,"rental_uris":{"android":"levelo://app?vid=ad45f892-d70d-4ee2-b49b-6f5b55f6868a","ios":"levelo://app?vid=ad45f892-d70d-4ee2-b49b-6f5b55f6868a"},"vehicle_type_id":"4","last_reported":1740489497,"current_range_meters":17200,"station_id":"ce4bh012rcd13ifvqcv0","pricing_plan_id":"cebpf4jnsgd1na2vs0mg"},{"bike_id":"db8d2345-0550-42d6-b5e7-783462e13f1f","system_id":"levelo_inurba_marseille","lat":43.30892,"lon":5.37192,"is_reserved":false,"is_disabled":false,"rental_uris":{"android":"levelo://app?vid=db8d2345-0550-42d6-b5e7-783462e13f1f","ios":"levelo://app?vid=db8d2345-0550-42d6-b5e7-783462e13f1f"},"vehicle_type_id":"4","last_reported":1740489497,"current_range_meters":17200,"station_id":"ce4bguh2rcd13ifvqckg","pricing_plan_id":"cebpf4jnsgd1na2vs0mg"},{"bike_id":"7b88c800-54aa-42e1-a004-54e561b43f53","system_id":"levelo_inurba_marseille","lat":43.3014,"lon":5.37369,"is_reserved":false,"is_disabled":false,"rental_uris":{"android":"levelo://app?vid=7b88c800-54aa-42e1-a004-54e561b43f53","ios":"levelo://app?vid=7b88c800-54aa-42e1-a004-54e561b43f53"},"vehicle_type_id":"4","last_reported":1740489497,"current_range_meters":17200,"station_id":"ce4bgs92rcd13ifvqcc0","pricing_plan_id":"cebpf4jnsgd1na2vs0mg"},{"bike_id":"1477478a-bf59-48e3-8ea6-dca0b371c94b","system_id":"levelo_inurba_marseille","lat":43.31359,"lon":5.38491,"is_reserved":false,"is_disabled":false,"rental_uris":{"android":"levelo://app?vid=1477478a-bf59-48e3-8ea6-dca0b371c94b","ios":"levelo://app?vid=1477478a-bf59-48e3-8ea6-dca0b371c94b"},"vehicle_type_id":"4","last_reported":1740489497,"current_range_meters":18000,"station_id":"ce4bgt92rcd13ifvqcf0","pricing_plan_id":"cebpf4jnsgd1na2vs0mg"},{"bike_id":"b9cd210d-b69b-4970-b56f-0325861cbcb6","system_id":"levelo_inurba_marseille","lat":43.32031,"lon":5.41556,"is_reserved":false,"is_disabled":false,"rental_uris":{"android":"levelo://app?vid=b9cd210d-b69b-4970-b56f-0325861cbcb6","ios":"levelo://app?vid=b9cd210d-b69b-4970-b56f-0325861cbcb6"},"vehicle_type_id":"4","last_reported":1740489497,"current_range_meters":17600,"station_id":"ce4bhq92rcd13ifvqhkg","pricing_plan_id":"cebpf4jnsgd1na2vs0mg"},{"bike_id":"dd598117-60a3-430d-bc42-379c76e9ece7","system_id":"levelo_inurba_marseille","lat":43.28481,"lon":5.38485,"is_reserved":false,"is_disabled":false,"rental_uris":{"android":"levelo://app?vid=dd598117-60a3-430d-bc42-379c76e9ece7","ios":"levelo://app?vid=dd598117-60a3-430d-bc42-379c76e9ece7"},"vehicle_type_id":"4","last_reported":1740489497,"current_range_meters":17600,"station_id":"","pricing_plan_id":"cebpf4jnsgd1na2vs0mg"},{"bike_id":"451ee27c-3053-4dad-97f9-30aa721d9def","system_id":"levelo_inurba_marseille","lat":43.27989,"lon":5.40025,"is_reserved":false,"is_disabled":false,"rental_uris":{"android":"levelo://app?vid=451ee27c-3053-4dad-97f9-30aa721d9def","ios":"levelo://app?vid=451ee27c-3053-4dad-97f9-30aa721d9def"},"vehicle_type_id":"4","last_reported":1740489497,"current_range_meters":18000,"station_id":"ce4bho92rcd13ifvqh4g","pricing_plan_id":"cebpf4jnsgd1na2vs0mg"},{"bike_id":"85fc72ce-381d-4876-8b45-b7944be93d43","system_id":"levelo_inurba_marseille","lat":43.29569,"lon":5.37521,"is_reserved":false,"is_disabled":false,"rental_uris":{"android":"levelo://app?vid=85fc72ce-381d-4876-8b45-b7944be93d43","ios":"levelo://app?vid=85fc72ce-381d-4876-8b45-b7944be93d43"},"vehicle_type_id":"4","last_reported":1740489497,"current_range_meters":17600,"station_id":"ce4bgh92rcd13ifvqb50","pricing_plan_id":"cebpf4jnsgd1na2vs0mg"},{"bike_id":"c696ad9a-9b68-4977-82bb-f7e0b53efe6f","system_id":"levelo_inurba_marseille","lat":43.29583,"lon":5.36747,"is_reserved":false,"is_disabled":false,"rental_uris":{"android":"levelo://app?vid=c696ad9a-9b68-4977-82bb-f7e0b53efe6f","ios":"levelo://app?vid=c696ad9a-9b68-4977-82bb-f7e0b53efe6f"},"vehicle_type_id":"4","last_reported":1740489497,"current_range_meters":17600,"station_id":"ce4bgph2rcd13ifvqc2g","pricing_plan_id":"cebpf4jnsgd1na2vs0mg"},{"bike_id":"883f8347-0a1a-469f-b39f-af3ab784d027","system_id":"levelo_inurba_marseille","lat":43.29275,"lon":5.36848,"is_reserved":false,"is_disabled":false,"rental_uris":{"android":"levelo://app?vid=883f8347-0a1a-469f-b39f-af3ab784d027","ios":"levelo://app?vid=883f8347-0a1a-469f-b39f-af3ab784d027"},"vehicle_type_id":"4","last_reported":1740489497,"current_range_meters":17600,"station_id":"ce4bhbp2rcd13ifvqesg","pricing_plan_id":"cebpf4jnsgd1na2vs0mg"},{"bike_id":"a4b5fdfe-eee4-4204-9a59-b368bc41d70b","system_id":"levelo_inurba_marseille","lat":43.26195,"lon":5.37447,"is_reserved":false,"is_disabled":false,"rental_uris":{"android":"levelo://app?vid=a4b5fdfe-eee4-4204-9a59-b368bc41d70b","ios":"levelo://app?vid=a4b5fdfe-eee4-4204-9a59-b368bc41d70b"},"vehicle_type_id":"4","last_reported":1740489497,"current_range_meters":16400,"station_id":"ce4bhgp2rcd13ifvqfc0","pricing_plan_id":"cebpf4jnsgd1na2vs0mg"},{"bike_id":"008319ef-fa04-4448-b9e2-86c6495434e0","system_id":"levelo_inurba_marseille","lat":43.29008,"lon":5.39992,"is_reserved":false,"is_disabled":false,"rental_uris":{"android":"levelo://app?vid=008319ef-fa04-4448-b9e2-86c6495434e0","ios":"levelo://app?vid=008319ef-fa04-4448-b9e2-86c6495434e0"},"vehicle_type_id":"4","last_reported":1740489497,"current_range_meters":17600,"station_id":"ce4bh392rcd13ifvqdm0","pricing_plan_id":"cebpf4jnsgd1na2vs0mg"},{"bike_id":"c3d0fefa-5db4-49bd-a964-1a22da440d36","system_id":"levelo_inurba_marseille","lat":43.269559,"lon":5.386313,"is_reserved":false,"is_disabled":true,"rental_uris":{"android":"levelo://app?vid=c3d0fefa-5db4-49bd-a964-1a22da440d36","ios":"levelo://app?vid=c3d0fefa-5db4-49bd-a964-1a22da440d36"},"vehicle_type_id":"4","last_reported":1740489497,"current_range_meters":17600,"station_id":"","pricing_plan_id":"cebpf4jnsgd1na2vs0mg"},{"bike_id":"e8cc1561-4f0c-4a21-a4db-cffe6cee99dc","system_id":"levelo_inurba_marseille","lat":43.26681,"lon":5.38273,"is_reserved":false,"is_disabled":false,"rental_uris":{"android":"levelo://app?vid=e8cc1561-4f0c-4a21-a4db-cffe6cee99dc","ios":"levelo://app?vid=e8cc1561-4f0c-4a21-a4db-cffe6cee99dc"},"vehicle_type_id":"4","last_reported":1740489497,"current_range_meters":17600,"station_id":"ce4bhg92rcd13ifvqf90","pricing_plan_id":"cebpf4jnsgd1na2vs0mg"},{"bike_id":"9b692535-0b73-476a-aef6-448c45139f87","system_id":"levelo_inurba_marseille","lat":43.304164,"lon":5.41266,"is_reserved":false,"is_disabled":false,"rental_uris":{"android":"levelo://app?vid=9b692535-0b73-476a-aef6-448c45139f87","ios":"levelo://app?vid=9b692535-0b73-476a-aef6-448c45139f87"},"vehicle_type_id":"4","last_reported":1740489497,"current_range_meters":18800,"station_id":"ce4bhop2rcd13ifvqh8g","pricing_plan_id":"cebpf4jnsgd1na2vs0mg"},{"bike_id":"6fa61dd4-e1b7-4904-8f2e-d59b996e269d","system_id":"levelo_inurba_marseille","lat":43.25816,"lon":5.3944,"is_reserved":false,"is_disabled":false,"rental_uris":{"android":"levelo://app?vid=6fa61dd4-e1b7-4904-8f2e-d59b996e269d","ios":"levelo://app?vid=6fa61dd4-e1b7-4904-8f2e-d59b996e269d"},"vehicle_type_id":"4","last_reported":1740489497,"current_range_meters":18000,"station_id":"ce4bhip2rcd13ifvqft0","pricing_plan_id":"cebpf4jnsgd1na2vs0mg"},{"bike_id":"4db09b19-edaa-4a57-9288-7fb5bf8cbccd","system_id":"levelo_inurba_marseille","lat":43.28442,"lon":5.39211,"is_reserved":false,"is_disabled":false,"rental_uris":{"android":"levelo://app?vid=4db09b19-edaa-4a57-9288-7fb5bf8cbccd","ios":"levelo://app?vid=4db09b19-edaa-4a57-9288-7fb5bf8cbccd"},"vehicle_type_id":"4","last_reported":1740489497,"current_range_meters":18000,"station_id":"ce4bhoh2rcd13ifvqh5g","pricing_plan_id":"cebpf4jnsgd1na2vs0mg"},{"bike_id":"7a9e15fc-072b-4f06-aa63-0b59af6b080c","system_id":"levelo_inurba_marseille","lat":43.29256,"lon":5.40895,"is_reserved":false,"is_disabled":false,"rental_uris":{"android":"levelo://app?vid=7a9e15fc-072b-4f06-aa63-0b59af6b080c","ios":"levelo://app?vid=7a9e15fc-072b-4f06-aa63-0b59af6b080c"},"vehicle_type_id":"4","last_reported":1740489497,"current_range_meters":18000,"station_id":"ce4bh192rcd13ifvqdc0","pricing_plan_id":"cebpf4jnsgd1na2vs0mg"},{"bike_id":"0828292d-255c-463c-ac4c-e69cd246c7aa","system_id":"levelo_inurba_marseille","lat":43.27498,"lon":5.42453,"is_reserved":false,"is_disabled":false,"rental_uris":{"android":"levelo://app?vid=0828292d-255c-463c-ac4c-e69cd246c7aa","ios":"levelo://app?vid=0828292d-255c-463c-ac4c-e69cd246c7aa"},"vehicle_type_id":"4","last_reported":1740489497,"current_range_meters":18000,"station_id":"ce4bhn92rcd13ifvqgrg","pricing_plan_id":"cebpf4jnsgd1na2vs0mg"},{"bike_id":"dedd94c8-bd81-4ee6-a712-bd0272747939","system_id":"levelo_inurba_marseille","lat":43.27496,"lon":5.42454,"is_reserved":false,"is_disabled":false,"rental_uris":{"android":"levelo://app?vid=dedd94c8-bd81-4ee6-a712-bd0272747939","ios":"levelo://app?vid=dedd94c8-bd81-4ee6-a712-bd0272747939"},"vehicle_type_id":"4","last_reported":1740489497,"current_range_meters":18000,"station_id":"ce4bhn92rcd13ifvqgrg","pricing_plan_id":"cebpf4jnsgd1na2vs0mg"},{"bike_id":"48905205-66c4-4a33-804b-dfca584ee148","system_id":"levelo_inurba_marseille","lat":43.30422,"lon":5.39746,"is_reserved":false,"is_disabled":false,"rental_uris":{"android":"levelo://app?vid=48905205-66c4-4a33-804b-dfca584ee148","ios":"levelo://app?vid=48905205-66c4-4a33-804b-dfca584ee148"},"vehicle_type_id":"4","last_reported":1740489497,"current_range_meters":18000,"station_id":"ce4bh092rcd13ifvqd20","pricing_plan_id":"cebpf4jnsgd1na2vs0mg"},{"bike_id":"1e1a79de-66c6-4e89-bda9-cea230b0f89a","system_id":"levelo_inurba_marseille","lat":43.27496,"lon":5.42446,"is_reserved":false,"is_disabled":false,"rental_uris":{"android":"levelo://app?vid=1e1a79de-66c6-4e89-bda9-cea230b0f89a","ios":"levelo://app?vid=1e1a79de-66c6-4e89-bda9-cea230b0f89a"},"vehicle_type_id":"4","last_reported":1740489497,"current_range_meters":17600,"station_id":"ce4bhn92rcd13ifvqgrg","pricing_plan_id":"cebpf4jnsgd1na2vs0mg"},{"bike_id":"a2d8ae96-bc22-4455-87e7-6e7c18b8bf20","system_id":"levelo_inurba_marseille","lat":43.27501,"lon":5.42455,"is_reserved":false,"is_disabled":false,"rental_uris":{"android":"levelo://app?vid=a2d8ae96-bc22-4455-87e7-6e7c18b8bf20","ios":"levelo://app?vid=a2d8ae96-bc22-4455-87e7-6e7c18b8bf20"},"vehicle_type_id":"4","last_reported":1740489497,"current_range_meters":18000,"station_id":"ce4bhn92rcd13ifvqgrg","pricing_plan_id":"cebpf4jnsgd1na2vs0mg"},{"bike_id":"50f19b18-a63e-4a12-9378-fc7a1b104525","system_id":"levelo_inurba_marseille","lat":43.28666,"lon":5.38667,"is_reserved":false,"is_disabled":true,"rental_uris":{"android":"levelo://app?vid=50f19b18-a63e-4a12-9378-fc7a1b104525","ios":"levelo://app?vid=50f19b18-a63e-4a12-9378-fc7a1b104525"},"vehicle_type_id":"4","last_reported":1740489497,"current_range_meters":18800,"station_id":"ce4bh492rcd13ifvqdug","pricing_plan_id":"cebpf4jnsgd1na2vs0mg"},{"bike_id":"4855574e-db37-446f-9f12-a82ae5432aaa","system_id":"levelo_inurba_marseille","lat":43.24808,"lon":5.37461,"is_reserved":false,"is_disabled":false,"rental_uris":{"android":"levelo://app?vid=4855574e-db37-446f-9f12-a82ae5432aaa","ios":"levelo://app?vid=4855574e-db37-446f-9f12-a82ae5432aaa"},"vehicle_type_id":"4","last_reported":1740489497,"current_range_meters":18000,"station_id":"ce4bhgh2rcd13ifvqfb0","pricing_plan_id":"cebpf4jnsgd1na2vs0mg"},{"bike_id":"1a856f10-c5bc-4b12-a5aa-06d011bd52a2","system_id":"levelo_inurba_marseille","lat":43.27818,"lon":5.40716,"is_reserved":false,"is_disabled":false,"rental_uris":{"android":"levelo://app?vid=1a856f10-c5bc-4b12-a5aa-06d011bd52a2","ios":"levelo://app?vid=1a856f10-c5bc-4b12-a5aa-06d011bd52a2"},"vehicle_type_id":"4","last_reported":1740489497,"current_range_meters":18800,"station_id":"ce4bhnh2rcd13ifvqgtg","pricing_plan_id":"cebpf4jnsgd1na2vs0mg"},{"bike_id":"2ad574ab-a84b-4194-be7b-5d19750113c3","system_id":"levelo_inurba_marseille","lat":43.32343,"lon":5.38899,"is_reserved":false,"is_disabled":false,"rental_uris":{"android":"levelo://app?vid=2ad574ab-a84b-4194-be7b-5d19750113c3","ios":"levelo://app?vid=2ad574ab-a84b-4194-be7b-5d19750113c3"},"vehicle_type_id":"4","last_reported":1740489497,"current_range_meters":19200,"station_id":"ce4bhqp2rcd13ifvqhog","pricing_plan_id":"cebpf4jnsgd1na2vs0mg"},{"bike_id":"0c45db8a-f07f-468d-a6ef-c08290b1a757","system_id":"levelo_inurba_marseille","lat":43.29736,"lon":5.37664,"is_reserved":false,"is_disabled":false,"rental_uris":{"android":"levelo://app?vid=0c45db8a-f07f-468d-a6ef-c08290b1a757","ios":"levelo://app?vid=0c45db8a-f07f-468d-a6ef-c08290b1a757"},"vehicle_type_id":"4","last_reported":1740489497,"current_range_meters":18800,"station_id":"ce4bgkh2rcd13ifvqbl0","pricing_plan_id":"cebpf4jnsgd1na2vs0mg"},{"bike_id":"c2e6e6f2-61ad-4410-9f43-a72e88907af9","system_id":"levelo_inurba_marseille","lat":43.30187,"lon":5.3664,"is_reserved":false,"is_disabled":false,"rental_uris":{"android":"levelo://app?vid=c2e6e6f2-61ad-4410-9f43-a72e88907af9","ios":"levelo://app?vid=c2e6e6f2-61ad-4410-9f43-a72e88907af9"},"vehicle_type_id":"4","last_reported":1740489497,"current_range_meters":18800,"station_id":"ce4bgrh2rcd13ifvqc8g","pricing_plan_id":"cebpf4jnsgd1na2vs0mg"},{"bike_id":"213567d1-3505-401c-a126-d07140b5bd92","system_id":"levelo_inurba_marseille","lat":43.26217,"lon":5.3744,"is_reserved":false,"is_disabled":false,"rental_uris":{"android":"levelo://app?vid=213567d1-3505-401c-a126-d07140b5bd92","ios":"levelo://app?vid=213567d1-3505-401c-a126-d07140b5bd92"},"vehicle_type_id":"4","last_reported":1740489497,"current_range_meters":18800,"station_id":"ce4bhgp2rcd13ifvqfc0","pricing_plan_id":"cebpf4jnsgd1na2vs0mg"},{"bike_id":"d471f499-8a10-48cc-aeda-d0bf99fec247","system_id":"levelo_inurba_marseille","lat":43.2861,"lon":5.37062,"is_reserved":false,"is_disabled":false,"rental_uris":{"android":"levelo://app?vid=d471f499-8a10-48cc-aeda-d0bf99fec247","ios":"levelo://app?vid=d471f499-8a10-48cc-aeda-d0bf99fec247"},"vehicle_type_id":"4","last_reported":1740489497,"current_range_meters":18000,"station_id":"ce4bht12rcd13ifvqi60","pricing_plan_id":"cebpf4jnsgd1na2vs0mg"},{"bike_id":"efaff286-fa42-41a1-ad4e-53f0f463ea3c","system_id":"levelo_inurba_marseille","lat":43.29261,"lon":5.38458,"is_reserved":false,"is_disabled":false,"rental_uris":{"android":"levelo://app?vid=efaff286-fa42-41a1-ad4e-53f0f463ea3c","ios":"levelo://app?vid=efaff286-fa42-41a1-ad4e-53f0f463ea3c"},"vehicle_type_id":"4","last_reported":1740489497,"current_range_meters":19200,"station_id":"ce4bh692rcd13ifvqea0","pricing_plan_id":"cebpf4jnsgd1na2vs0mg"},{"bike_id":"25411262-23d1-41bb-a382-a545d4af1ec3","system_id":"levelo_inurba_marseille","lat":43.25118,"lon":5.40337,"is_reserved":false,"is_disabled":false,"rental_uris":{"android":"levelo://app?vid=25411262-23d1-41bb-a382-a545d4af1ec3","ios":"levelo://app?vid=25411262-23d1-41bb-a382-a545d4af1ec3"},"vehicle_type_id":"4","last_reported":1740489497,"current_range_meters":19200,"station_id":"ce4bhlh2rcd13ifvqgig","pricing_plan_id":"cebpf4jnsgd1na2vs0mg"},{"bike_id":"129f35a0-616c-41b2-9074-104328b9959b","system_id":"levelo_inurba_marseille","lat":43.30313,"lon":5.36895,"is_reserved":false,"is_disabled":false,"rental_uris":{"android":"levelo://app?vid=129f35a0-616c-41b2-9074-104328b9959b","ios":"levelo://app?vid=129f35a0-616c-41b2-9074-104328b9959b"},"vehicle_type_id":"4","last_reported":1740489497,"current_range_meters":19200,"station_id":"ce4bgqh2rcd13ifvqc5g","pricing_plan_id":"cebpf4jnsgd1na2vs0mg"},{"bike_id":"b7d3c0bb-7d03-4d09-a6c9-12107485a8da","system_id":"levelo_inurba_marseille","lat":43.31992,"lon":5.38157,"is_reserved":false,"is_disabled":false,"rental_uris":{"android":"levelo://app?vid=b7d3c0bb-7d03-4d09-a6c9-12107485a8da","ios":"levelo://app?vid=b7d3c0bb-7d03-4d09-a6c9-12107485a8da"},"vehicle_type_id":"4","last_reported":1740489497,"current_range_meters":19200,"station_id":"ce4bhr12rcd13ifvqhpg","pricing_plan_id":"cebpf4jnsgd1na2vs0mg"},{"bike_id":"14aff543-928d-4ec6-acd8-5644df4d50a8","system_id":"levelo_inurba_marseille","lat":43.28727,"lon":5.36085,"is_reserved":false,"is_disabled":false,"rental_uris":{"android":"levelo://app?vid=14aff543-928d-4ec6-acd8-5644df4d50a8","ios":"levelo://app?vid=14aff543-928d-4ec6-acd8-5644df4d50a8"},"vehicle_type_id":"4","last_reported":1740489497,"current_range_meters":19200,"station_id":"cki0cbj6b192h4jlfktg","pricing_plan_id":"cebpf4jnsgd1na2vs0mg"},{"bike_id":"7d3b6e9e-baab-414b-be9e-9be0f9ec8977","system_id":"levelo_inurba_marseille","lat":43.30538,"lon":5.38426,"is_reserved":false,"is_disabled":false,"rental_uris":{"android":"levelo://app?vid=7d3b6e9e-baab-414b-be9e-9be0f9ec8977","ios":"levelo://app?vid=7d3b6e9e-baab-414b-be9e-9be0f9ec8977"},"vehicle_type_id":"4","last_reported":1740489497,"current_range_meters":19200,"station_id":"ce4bgg92rcd13ifvqb30","pricing_plan_id":"cebpf4jnsgd1na2vs0mg"},{"bike_id":"e4b61e67-5c22-4221-873e-01cee989859c","system_id":"levelo_inurba_marseille","lat":43.29894,"lon":5.43666,"is_reserved":false,"is_disabled":false,"rental_uris":{"android":"levelo://app?vid=e4b61e67-5c22-4221-873e-01cee989859c","ios":"levelo://app?vid=e4b61e67-5c22-4221-873e-01cee989859c"},"vehicle_type_id":"4","last_reported":1740489497,"current_range_meters":20000,"station_id":"ce4bhpp2rcd13ifvqhfg","pricing_plan_id":"cebpf4jnsgd1na2vs0mg"},{"bike_id":"c8a16170-4d61-4ad6-958a-6c144cbbb947","system_id":"levelo_inurba_marseille","lat":43.274927,"lon":5.424637,"is_reserved":false,"is_disabled":false,"rental_uris":{"android":"levelo://app?vid=c8a16170-4d61-4ad6-958a-6c144cbbb947","ios":"levelo://app?vid=c8a16170-4d61-4ad6-958a-6c144cbbb947"},"vehicle_type_id":"4","last_reported":1740489497,"current_range_meters":19200,"station_id":"ce4bhn92rcd13ifvqgrg","pricing_plan_id":"cebpf4jnsgd1na2vs0mg"},{"bike_id":"e939cbfb-9c2b-4a3e-8b3b-a29c6116c074","system_id":"levelo_inurba_marseille","lat":43.28415,"lon":5.37507,"is_reserved":false,"is_disabled":false,"rental_uris":{"android":"levelo://app?vid=e939cbfb-9c2b-4a3e-8b3b-a29c6116c074","ios":"levelo://app?vid=e939cbfb-9c2b-4a3e-8b3b-a29c6116c074"},"vehicle_type_id":"4","last_reported":1740489497,"current_range_meters":19200,"station_id":"","pricing_plan_id":"cebpf4jnsgd1na2vs0mg"},{"bike_id":"eaeac06d-26ad-4f57-9623-35eea07c2cb7","system_id":"levelo_inurba_marseille","lat":43.30889,"lon":5.3966,"is_reserved":false,"is_disabled":false,"rental_uris":{"android":"levelo://app?vid=eaeac06d-26ad-4f57-9623-35eea07c2cb7","ios":"levelo://app?vid=eaeac06d-26ad-4f57-9623-35eea07c2cb7"},"vehicle_type_id":"4","last_reported":1740489497,"current_range_meters":19600,"station_id":"ce4bh012rcd13ifvqcv0","pricing_plan_id":"cebpf4jnsgd1na2vs0mg"},{"bike_id":"3bd8c65f-d3da-4b9a-9660-60162769328b","system_id":"levelo_inurba_marseille","lat":43.300865,"lon":5.370365,"is_reserved":false,"is_disabled":false,"rental_uris":{"android":"levelo://app?vid=3bd8c65f-d3da-4b9a-9660-60162769328b","ios":"levelo://app?vid=3bd8c65f-d3da-4b9a-9660-60162769328b"},"vehicle_type_id":"4","last_reported":1740489497,"current_range_meters":4000,"station_id":"ce4bgr92rcd13ifvqc6g","pricing_plan_id":"cebpf4jnsgd1na2vs0mg"},{"bike_id":"45127abe-699f-4c02-9aab-c9892981149b","system_id":"levelo_inurba_marseille","lat":43.27191,"lon":5.40972,"is_reserved":false,"is_disabled":false,"rental_uris":{"android":"levelo://app?vid=45127abe-699f-4c02-9aab-c9892981149b","ios":"levelo://app?vid=45127abe-699f-4c02-9aab-c9892981149b"},"vehicle_type_id":"4","last_reported":1740489497,"current_range_meters":19600,"station_id":"ce4bhl12rcd13ifvqgf0","pricing_plan_id":"cebpf4jnsgd1na2vs0mg"},{"bike_id":"74613cd9-8372-460d-b7a5-33f22a0d2702","system_id":"levelo_inurba_marseille","lat":43.25496,"lon":5.37649,"is_reserved":false,"is_disabled":false,"rental_uris":{"android":"levelo://app?vid=74613cd9-8372-460d-b7a5-33f22a0d2702","ios":"levelo://app?vid=74613cd9-8372-460d-b7a5-33f22a0d2702"},"vehicle_type_id":"4","last_reported":1740489497,"current_range_meters":19200,"station_id":"ce4bhh12rcd13ifvqff0","pricing_plan_id":"cebpf4jnsgd1na2vs0mg"},{"bike_id":"2a3f9f71-22d1-4be0-b1b8-b453512a2a25","system_id":"levelo_inurba_marseille","lat":43.2923,"lon":5.36058,"is_reserved":false,"is_disabled":false,"rental_uris":{"android":"levelo://app?vid=2a3f9f71-22d1-4be0-b1b8-b453512a2a25","ios":"levelo://app?vid=2a3f9f71-22d1-4be0-b1b8-b453512a2a25"},"vehicle_type_id":"4","last_reported":1740489497,"current_range_meters":19600,"station_id":"ce4bhbh2rcd13ifvqeqg","pricing_plan_id":"cebpf4jnsgd1na2vs0mg"},{"bike_id":"9cae26cf-a2fc-4e9c-92e8-f854f5e4fb45","system_id":"levelo_inurba_marseille","lat":43.32479,"lon":5.36576,"is_reserved":false,"is_disabled":true,"rental_uris":{"android":"levelo://app?vid=9cae26cf-a2fc-4e9c-92e8-f854f5e4fb45","ios":"levelo://app?vid=9cae26cf-a2fc-4e9c-92e8-f854f5e4fb45"},"vehicle_type_id":"4","last_reported":1740489497,"current_range_meters":19600,"station_id":"","pricing_plan_id":"cebpf4jnsgd1na2vs0mg"},{"bike_id":"198c7f48-2ef4-46c0-b27a-f66e54d352af","system_id":"levelo_inurba_marseille","lat":43.30597,"lon":5.39372,"is_reserved":false,"is_disabled":false,"rental_uris":{"android":"levelo://app?vid=198c7f48-2ef4-46c0-b27a-f66e54d352af","ios":"levelo://app?vid=198c7f48-2ef4-46c0-b27a-f66e54d352af"},"vehicle_type_id":"4","last_reported":1740489497,"current_range_meters":20000,"station_id":"ce4bh0p2rcd13ifvqd80","pricing_plan_id":"cebpf4jnsgd1na2vs0mg"},{"bike_id":"f0ae965e-9011-407a-a317-79d002cc2b50","system_id":"levelo_inurba_marseille","lat":43.29782,"lon":5.381,"is_reserved":false,"is_disabled":true,"rental_uris":{"android":"levelo://app?vid=f0ae965e-9011-407a-a317-79d002cc2b50","ios":"levelo://app?vid=f0ae965e-9011-407a-a317-79d002cc2b50"},"vehicle_type_id":"4","last_reported":1740489497,"current_range_meters":20000,"station_id":"ce4bgip2rcd13ifvqbb0","pricing_plan_id":"cebpf4jnsgd1na2vs0mg"},{"bike_id":"160a0057-7540-4605-909e-41a66f606b79","system_id":"levelo_inurba_marseille","lat":43.28975,"lon":5.37839,"is_reserved":false,"is_disabled":false,"rental_uris":{"android":"levelo://app?vid=160a0057-7540-4605-909e-41a66f606b79","ios":"levelo://app?vid=160a0057-7540-4605-909e-41a66f606b79"},"vehicle_type_id":"4","last_reported":1740489497,"current_range_meters":19600,"station_id":"ce4bh9p2rcd13ifvqed0","pricing_plan_id":"cebpf4jnsgd1na2vs0mg"},{"bike_id":"bd9a744c-86c8-46e9-b6d2-d94cb9448edb","system_id":"levelo_inurba_marseille","lat":43.31488,"lon":5.37311,"is_reserved":false,"is_disabled":false,"rental_uris":{"android":"levelo://app?vid=bd9a744c-86c8-46e9-b6d2-d94cb9448edb","ios":"levelo://app?vid=bd9a744c-86c8-46e9-b6d2-d94cb9448edb"},"vehicle_type_id":"4","last_reported":1740489497,"current_range_meters":20000,"station_id":"ce4bgt12rcd13ifvqcd0","pricing_plan_id":"cebpf4jnsgd1na2vs0mg"},{"bike_id":"16b10589-0ee3-4420-bf12-962709afbe7b","system_id":"levelo_inurba_marseille","lat":43.29567,"lon":5.37519,"is_reserved":false,"is_disabled":false,"rental_uris":{"android":"levelo://app?vid=16b10589-0ee3-4420-bf12-962709afbe7b","ios":"levelo://app?vid=16b10589-0ee3-4420-bf12-962709afbe7b"},"vehicle_type_id":"4","last_reported":1740489497,"current_range_meters":19200,"station_id":"ce4bgh92rcd13ifvqb50","pricing_plan_id":"cebpf4jnsgd1na2vs0mg"},{"bike_id":"9573858b-e206-49f2-a648-0ae2bb06901f","system_id":"levelo_inurba_marseille","lat":43.293702,"lon":5.37837,"is_reserved":false,"is_disabled":false,"rental_uris":{"android":"levelo://app?vid=9573858b-e206-49f2-a648-0ae2bb06901f","ios":"levelo://app?vid=9573858b-e206-49f2-a648-0ae2bb06901f"},"vehicle_type_id":"4","last_reported":1740489497,"current_range_meters":20000,"station_id":"ce4bgjh2rcd13ifvqbf0","pricing_plan_id":"cebpf4jnsgd1na2vs0mg"},{"bike_id":"1df32ffb-b6d0-42f0-8856-8dbb268b7110","system_id":"levelo_inurba_marseille","lat":43.31713,"lon":5.43714,"is_reserved":false,"is_disabled":false,"rental_uris":{"android":"levelo://app?vid=1df32ffb-b6d0-42f0-8856-8dbb268b7110","ios":"levelo://app?vid=1df32ffb-b6d0-42f0-8856-8dbb268b7110"},"vehicle_type_id":"4","last_reported":1740489497,"current_range_meters":20000,"station_id":"ce4bhp92rcd13ifvqhcg","pricing_plan_id":"cebpf4jnsgd1na2vs0mg"},{"bike_id":"c4afa780-a21b-4cf6-9c2c-6cad36665498","system_id":"levelo_inurba_marseille","lat":43.24802,"lon":5.37458,"is_reserved":false,"is_disabled":false,"rental_uris":{"android":"levelo://app?vid=c4afa780-a21b-4cf6-9c2c-6cad36665498","ios":"levelo://app?vid=c4afa780-a21b-4cf6-9c2c-6cad36665498"},"vehicle_type_id":"4","last_reported":1740489497,"current_range_meters":20000,"station_id":"ce4bhgh2rcd13ifvqfb0","pricing_plan_id":"cebpf4jnsgd1na2vs0mg"},{"bike_id":"b7c09535-9389-45fc-8971-cbc7b7282bc9","system_id":"levelo_inurba_marseille","lat":43.25094,"lon":5.39519,"is_reserved":false,"is_disabled":false,"rental_uris":{"android":"levelo://app?vid=b7c09535-9389-45fc-8971-cbc7b7282bc9","ios":"levelo://app?vid=b7c09535-9389-45fc-8971-cbc7b7282bc9"},"vehicle_type_id":"4","last_reported":1740489497,"current_range_meters":23200,"station_id":"ce4bhm12rcd13ifvqgkg","pricing_plan_id":"cebpf4jnsgd1na2vs0mg"},{"bike_id":"006e2a3e-4fa5-4a1a-a09c-9695648ef8a2","system_id":"levelo_inurba_marseille","lat":43.2512,"lon":5.40318,"is_reserved":false,"is_disabled":false,"rental_uris":{"android":"levelo://app?vid=006e2a3e-4fa5-4a1a-a09c-9695648ef8a2","ios":"levelo://app?vid=006e2a3e-4fa5-4a1a-a09c-9695648ef8a2"},"vehicle_type_id":"4","last_reported":1740489497,"current_range_meters":20400,"station_id":"ce4bhlh2rcd13ifvqgig","pricing_plan_id":"cebpf4jnsgd1na2vs0mg"},{"bike_id":"3142f017-c4b6-483e-aa73-b65aa0cf64a2","system_id":"levelo_inurba_marseille","lat":43.28036,"lon":5.36956,"is_reserved":false,"is_disabled":true,"rental_uris":{"android":"levelo://app?vid=3142f017-c4b6-483e-aa73-b65aa0cf64a2","ios":"levelo://app?vid=3142f017-c4b6-483e-aa73-b65aa0cf64a2"},"vehicle_type_id":"4","last_reported":1740489497,"current_range_meters":20400,"station_id":"ce4bha12rcd13ifvqef0","pricing_plan_id":"cebpf4jnsgd1na2vs0mg"},{"bike_id":"7c232172-df92-4ec4-93b5-0a25ac2065c1","system_id":"levelo_inurba_marseille","lat":43.29053,"lon":5.3593,"is_reserved":false,"is_disabled":false,"rental_uris":{"android":"levelo://app?vid=7c232172-df92-4ec4-93b5-0a25ac2065c1","ios":"levelo://app?vid=7c232172-df92-4ec4-93b5-0a25ac2065c1"},"vehicle_type_id":"4","last_reported":1740489497,"current_range_meters":20000,"station_id":"ce4bha92rcd13ifvqeg0","pricing_plan_id":"cebpf4jnsgd1na2vs0mg"},{"bike_id":"482011d2-8057-485a-8b78-fa7ab5388dfb","system_id":"levelo_inurba_marseille","lat":43.30914,"lon":5.36842,"is_reserved":false,"is_disabled":false,"rental_uris":{"android":"levelo://app?vid=482011d2-8057-485a-8b78-fa7ab5388dfb","ios":"levelo://app?vid=482011d2-8057-485a-8b78-fa7ab5388dfb"},"vehicle_type_id":"4","last_reported":1740489497,"current_range_meters":20400,"station_id":"ce4bgn92rcd13ifvqbvg","pricing_plan_id":"cebpf4jnsgd1na2vs0mg"},{"bike_id":"ba169ec5-ffa7-4037-ab17-71da76fe902e","system_id":"levelo_inurba_marseille","lat":43.3135,"lon":5.36691,"is_reserved":false,"is_disabled":false,"rental_uris":{"android":"levelo://app?vid=ba169ec5-ffa7-4037-ab17-71da76fe902e","ios":"levelo://app?vid=ba169ec5-ffa7-4037-ab17-71da76fe902e"},"vehicle_type_id":"4","last_reported":1740489497,"current_range_meters":20400,"station_id":"ce4bgr92rcd13ifvqc6g","pricing_plan_id":"cebpf4jnsgd1na2vs0mg"},{"bike_id":"d4572c21-5612-4f34-8adc-7915c81c1f28","system_id":"levelo_inurba_marseille","lat":43.30797,"lon":5.38163,"is_reserved":false,"is_disabled":false,"rental_uris":{"android":"levelo://app?vid=d4572c21-5612-4f34-8adc-7915c81c1f28","ios":"levelo://app?vid=d4572c21-5612-4f34-8adc-7915c81c1f28"},"vehicle_type_id":"4","last_reported":1740489497,"current_range_meters":20400,"station_id":"ce4bgt12rcd13ifvqce0","pricing_plan_id":"cebpf4jnsgd1na2vs0mg"},{"bike_id":"3aaca506-5054-4b1b-b29a-24232f7f02a2","system_id":"levelo_inurba_marseille","lat":43.24653,"lon":5.38899,"is_reserved":false,"is_disabled":false,"rental_uris":{"android":"levelo://app?vid=3aaca506-5054-4b1b-b29a-24232f7f02a2","ios":"levelo://app?vid=3aaca506-5054-4b1b-b29a-24232f7f02a2"},"vehicle_type_id":"4","last_reported":1740489497,"current_range_meters":20800,"station_id":"ce4bhg12rcd13ifvqf60","pricing_plan_id":"cebpf4jnsgd1na2vs0mg"},{"bike_id":"1015abbd-7082-4ba1-86ea-5a0ad2804113","system_id":"levelo_inurba_marseille","lat":43.29889,"lon":5.43659,"is_reserved":false,"is_disabled":false,"rental_uris":{"android":"levelo://app?vid=1015abbd-7082-4ba1-86ea-5a0ad2804113","ios":"levelo://app?vid=1015abbd-7082-4ba1-86ea-5a0ad2804113"},"vehicle_type_id":"4","last_reported":1740489497,"current_range_meters":20800,"station_id":"ce4bhpp2rcd13ifvqhfg","pricing_plan_id":"cebpf4jnsgd1na2vs0mg"},{"bike_id":"b2d0ea14-9d13-4a6f-b9fc-bac921bfcd2d","system_id":"levelo_inurba_marseille","lat":43.29567,"lon":5.3752,"is_reserved":false,"is_disabled":false,"rental_uris":{"android":"levelo://app?vid=b2d0ea14-9d13-4a6f-b9fc-bac921bfcd2d","ios":"levelo://app?vid=b2d0ea14-9d13-4a6f-b9fc-bac921bfcd2d"},"vehicle_type_id":"4","last_reported":1740489497,"current_range_meters":20800,"station_id":"ce4bgh92rcd13ifvqb50","pricing_plan_id":"cebpf4jnsgd1na2vs0mg"},{"bike_id":"c43b050f-7f23-467d-b65b-33c760f3de58","system_id":"levelo_inurba_marseille","lat":43.32486,"lon":5.36568,"is_reserved":false,"is_disabled":false,"rental_uris":{"android":"levelo://app?vid=c43b050f-7f23-467d-b65b-33c760f3de58","ios":"levelo://app?vid=c43b050f-7f23-467d-b65b-33c760f3de58"},"vehicle_type_id":"4","last_reported":1740489497,"current_range_meters":20800,"station_id":"ce4bhs12rcd13ifvqhvg","pricing_plan_id":"cebpf4jnsgd1na2vs0mg"},{"bike_id":"2aca1087-2e8d-44f7-9721-482dd5b7c878","system_id":"levelo_inurba_marseille","lat":43.29052,"lon":5.39964,"is_reserved":false,"is_disabled":false,"rental_uris":{"android":"levelo://app?vid=2aca1087-2e8d-44f7-9721-482dd5b7c878","ios":"levelo://app?vid=2aca1087-2e8d-44f7-9721-482dd5b7c878"},"vehicle_type_id":"4","last_reported":1740489497,"current_range_meters":20800,"station_id":"ce4bh392rcd13ifvqdm0","pricing_plan_id":"cebpf4jnsgd1na2vs0mg"},{"bike_id":"ce6c3a57-2472-4142-ab26-fc6dee861395","system_id":"levelo_inurba_marseille","lat":43.32773,"lon":5.3782,"is_reserved":false,"is_disabled":false,"rental_uris":{"android":"levelo://app?vid=ce6c3a57-2472-4142-ab26-fc6dee861395","ios":"levelo://app?vid=ce6c3a57-2472-4142-ab26-fc6dee861395"},"vehicle_type_id":"4","last_reported":1740489497,"current_range_meters":22000,"station_id":"","pricing_plan_id":"cebpf4jnsgd1na2vs0mg"},{"bike_id":"1ca663ad-0d5e-4853-8390-9eb213c60bd7","system_id":"levelo_inurba_marseille","lat":43.3018,"lon":5.39469,"is_reserved":false,"is_disabled":false,"rental_uris":{"android":"levelo://app?vid=1ca663ad-0d5e-4853-8390-9eb213c60bd7","ios":"levelo://app?vid=1ca663ad-0d5e-4853-8390-9eb213c60bd7"},"vehicle_type_id":"4","last_reported":1740489497,"current_range_meters":20800,"station_id":"ce4bh0p2rcd13ifvqd70","pricing_plan_id":"cebpf4jnsgd1na2vs0mg"},{"bike_id":"d7fceee5-61fb-427f-b42d-925d12647cc9","system_id":"levelo_inurba_marseille","lat":43.26963,"lon":5.38594,"is_reserved":false,"is_disabled":false,"rental_uris":{"android":"levelo://app?vid=d7fceee5-61fb-427f-b42d-925d12647cc9","ios":"levelo://app?vid=d7fceee5-61fb-427f-b42d-925d12647cc9"},"vehicle_type_id":"4","last_reported":1740489497,"current_range_meters":21600,"station_id":"ce4bhh92rcd13ifvqfh0","pricing_plan_id":"cebpf4jnsgd1na2vs0mg"},{"bike_id":"04264387-929d-44fb-9b3e-3bfe01d5bccc","system_id":"levelo_inurba_marseille","lat":43.31515,"lon":5.37277,"is_reserved":false,"is_disabled":false,"rental_uris":{"android":"levelo://app?vid=04264387-929d-44fb-9b3e-3bfe01d5bccc","ios":"levelo://app?vid=04264387-929d-44fb-9b3e-3bfe01d5bccc"},"vehicle_type_id":"4","last_reported":1740489497,"current_range_meters":21600,"station_id":"ce4bgt12rcd13ifvqcd0","pricing_plan_id":"cebpf4jnsgd1na2vs0mg"},{"bike_id":"6b166e2d-a6e0-43cd-94a8-ce2519b80a15","system_id":"levelo_inurba_marseille","lat":43.3043,"lon":5.39745,"is_reserved":false,"is_disabled":false,"rental_uris":{"android":"levelo://app?vid=6b166e2d-a6e0-43cd-94a8-ce2519b80a15","ios":"levelo://app?vid=6b166e2d-a6e0-43cd-94a8-ce2519b80a15"},"vehicle_type_id":"4","last_reported":1740489497,"current_range_meters":21600,"station_id":"ce4bh092rcd13ifvqd20","pricing_plan_id":"cebpf4jnsgd1na2vs0mg"},{"bike_id":"a6bc59b0-4261-4628-953f-6e052f54fac5","system_id":"levelo_inurba_marseille","lat":43.28851,"lon":5.35845,"is_reserved":false,"is_disabled":false,"rental_uris":{"android":"levelo://app?vid=a6bc59b0-4261-4628-953f-6e052f54fac5","ios":"levelo://app?vid=a6bc59b0-4261-4628-953f-6e052f54fac5"},"vehicle_type_id":"4","last_reported":1740489497,"current_range_meters":21600,"station_id":"ce4bhb12rcd13ifvqem0","pricing_plan_id":"cebpf4jnsgd1na2vs0mg"},{"bike_id":"76fc8d3b-8740-4b7d-b0b3-636ec5100ccf","system_id":"levelo_inurba_marseille","lat":43.275427,"lon":5.424116,"is_reserved":false,"is_disabled":false,"rental_uris":{"android":"levelo://app?vid=76fc8d3b-8740-4b7d-b0b3-636ec5100ccf","ios":"levelo://app?vid=76fc8d3b-8740-4b7d-b0b3-636ec5100ccf"},"vehicle_type_id":"4","last_reported":1740489497,"current_range_meters":21600,"station_id":"ce4bhn92rcd13ifvqgrg","pricing_plan_id":"cebpf4jnsgd1na2vs0mg"},{"bike_id":"a101829d-3359-43d2-9cd1-c1d0e39e680b","system_id":"levelo_inurba_marseille","lat":43.29931,"lon":5.37474,"is_reserved":false,"is_disabled":false,"rental_uris":{"android":"levelo://app?vid=a101829d-3359-43d2-9cd1-c1d0e39e680b","ios":"levelo://app?vid=a101829d-3359-43d2-9cd1-c1d0e39e680b"},"vehicle_type_id":"4","last_reported":1740489497,"current_range_meters":21600,"station_id":"ce4bgjh2rcd13ifvqbg0","pricing_plan_id":"cebpf4jnsgd1na2vs0mg"},{"bike_id":"c17f70a8-0b90-4785-a8bb-0bdf80ba2011","system_id":"levelo_inurba_marseille","lat":43.30146,"lon":5.37402,"is_reserved":false,"is_disabled":false,"rental_uris":{"android":"levelo://app?vid=c17f70a8-0b90-4785-a8bb-0bdf80ba2011","ios":"levelo://app?vid=c17f70a8-0b90-4785-a8bb-0bdf80ba2011"},"vehicle_type_id":"4","last_reported":1740489497,"current_range_meters":22000,"station_id":"ce4bgs92rcd13ifvqcc0","pricing_plan_id":"cebpf4jnsgd1na2vs0mg"},{"bike_id":"8abf98f4-cccb-4648-9c88-55b99be0bc06","system_id":"levelo_inurba_marseille","lat":43.2407,"lon":5.37752,"is_reserved":false,"is_disabled":false,"rental_uris":{"android":"levelo://app?vid=8abf98f4-cccb-4648-9c88-55b99be0bc06","ios":"levelo://app?vid=8abf98f4-cccb-4648-9c88-55b99be0bc06"},"vehicle_type_id":"4","last_reported":1740489497,"current_range_meters":21600,"station_id":"ce4bhnp2rcd13ifvqgvg","pricing_plan_id":"cebpf4jnsgd1na2vs0mg"},{"bike_id":"9eb10ab9-ef97-459e-a893-bed63e589588","system_id":"levelo_inurba_marseille","lat":43.24998,"lon":5.38933,"is_reserved":false,"is_disabled":false,"rental_uris":{"android":"levelo://app?vid=9eb10ab9-ef97-459e-a893-bed63e589588","ios":"levelo://app?vid=9eb10ab9-ef97-459e-a893-bed63e589588"},"vehicle_type_id":"4","last_reported":1740489497,"current_range_meters":22000,"station_id":"ce4bhgp2rcd13ifvqfd0","pricing_plan_id":"cebpf4jnsgd1na2vs0mg"},{"bike_id":"1366b694-e0e8-42ed-81b0-57de05a72d88","system_id":"levelo_inurba_marseille","lat":43.29582,"lon":5.37519,"is_reserved":false,"is_disabled":false,"rental_uris":{"android":"levelo://app?vid=1366b694-e0e8-42ed-81b0-57de05a72d88","ios":"levelo://app?vid=1366b694-e0e8-42ed-81b0-57de05a72d88"},"vehicle_type_id":"4","last_reported":1740489497,"current_range_meters":22000,"station_id":"ce4bgh92rcd13ifvqb50","pricing_plan_id":"cebpf4jnsgd1na2vs0mg"},{"bike_id":"73a29c95-1bf0-4f28-a432-796459869795","system_id":"levelo_inurba_marseille","lat":43.29898,"lon":5.4367,"is_reserved":false,"is_disabled":false,"rental_uris":{"android":"levelo://app?vid=73a29c95-1bf0-4f28-a432-796459869795","ios":"levelo://app?vid=73a29c95-1bf0-4f28-a432-796459869795"},"vehicle_type_id":"4","last_reported":1740489497,"current_range_meters":22400,"station_id":"ce4bhpp2rcd13ifvqhfg","pricing_plan_id":"cebpf4jnsgd1na2vs0mg"},{"bike_id":"1a4dca53-4541-4179-88e4-d3690f77473f","system_id":"levelo_inurba_marseille","lat":43.29907,"lon":5.38115,"is_reserved":false,"is_disabled":false,"rental_uris":{"android":"levelo://app?vid=1a4dca53-4541-4179-88e4-d3690f77473f","ios":"levelo://app?vid=1a4dca53-4541-4179-88e4-d3690f77473f"},"vehicle_type_id":"4","last_reported":1740489497,"current_range_meters":22000,"station_id":"ce4bgj12rcd13ifvqbc0","pricing_plan_id":"cebpf4jnsgd1na2vs0mg"},{"bike_id":"21797445-352b-43a4-9eca-77df29ca5f12","system_id":"levelo_inurba_marseille","lat":43.2958,"lon":5.375206,"is_reserved":false,"is_disabled":false,"rental_uris":{"android":"levelo://app?vid=21797445-352b-43a4-9eca-77df29ca5f12","ios":"levelo://app?vid=21797445-352b-43a4-9eca-77df29ca5f12"},"vehicle_type_id":"4","last_reported":1740489497,"current_range_meters":22400,"station_id":"ce4bgph2rcd13ifvqc2g","pricing_plan_id":"cebpf4jnsgd1na2vs0mg"},{"bike_id":"ee7498ac-afae-4101-a827-ddb2ec43033c","system_id":"levelo_inurba_marseille","lat":43.2318,"lon":5.39983,"is_reserved":false,"is_disabled":false,"rental_uris":{"android":"levelo://app?vid=ee7498ac-afae-4101-a827-ddb2ec43033c","ios":"levelo://app?vid=ee7498ac-afae-4101-a827-ddb2ec43033c"},"vehicle_type_id":"4","last_reported":1740489497,"current_range_meters":22000,"station_id":"ce4bhn12rcd13ifvqgqg","pricing_plan_id":"cebpf4jnsgd1na2vs0mg"},{"bike_id":"95f05b6e-2c2a-4940-b7cb-ec4781dfe40c","system_id":"levelo_inurba_marseille","lat":43.2593,"lon":5.40877,"is_reserved":false,"is_disabled":false,"rental_uris":{"android":"levelo://app?vid=95f05b6e-2c2a-4940-b7cb-ec4781dfe40c","ios":"levelo://app?vid=95f05b6e-2c2a-4940-b7cb-ec4781dfe40c"},"vehicle_type_id":"4","last_reported":1740489497,"current_range_meters":22000,"station_id":"ce4bhm92rcd13ifvqglg","pricing_plan_id":"cebpf4jnsgd1na2vs0mg"},{"bike_id":"6a4f172c-6a53-4de1-884e-785fbeb843a4","system_id":"levelo_inurba_marseille","lat":43.30424,"lon":5.3975,"is_reserved":false,"is_disabled":false,"rental_uris":{"android":"levelo://app?vid=6a4f172c-6a53-4de1-884e-785fbeb843a4","ios":"levelo://app?vid=6a4f172c-6a53-4de1-884e-785fbeb843a4"},"vehicle_type_id":"4","last_reported":1740489497,"current_range_meters":22000,"station_id":"ce4bh092rcd13ifvqd20","pricing_plan_id":"cebpf4jnsgd1na2vs0mg"},{"bike_id":"f6044b89-f38d-4b16-b638-7150da10a5eb","system_id":"levelo_inurba_marseille","lat":43.26502,"lon":5.39532,"is_reserved":false,"is_disabled":false,"rental_uris":{"android":"levelo://app?vid=f6044b89-f38d-4b16-b638-7150da10a5eb","ios":"levelo://app?vid=f6044b89-f38d-4b16-b638-7150da10a5eb"},"vehicle_type_id":"4","last_reported":1740489497,"current_range_meters":21600,"station_id":"ce4bhi12rcd13ifvqfq0","pricing_plan_id":"cebpf4jnsgd1na2vs0mg"},{"bike_id":"08af00f1-1606-42a3-b310-d0d1e654f972","system_id":"levelo_inurba_marseille","lat":43.30892,"lon":5.39661,"is_reserved":false,"is_disabled":false,"rental_uris":{"android":"levelo://app?vid=08af00f1-1606-42a3-b310-d0d1e654f972","ios":"levelo://app?vid=08af00f1-1606-42a3-b310-d0d1e654f972"},"vehicle_type_id":"4","last_reported":1740489497,"current_range_meters":22400,"station_id":"ce4bh012rcd13ifvqcv0","pricing_plan_id":"cebpf4jnsgd1na2vs0mg"},{"bike_id":"1720ecc2-ac4d-4511-8f0c-53362d7f903a","system_id":"levelo_inurba_marseille","lat":43.26218,"lon":5.40377,"is_reserved":false,"is_disabled":false,"rental_uris":{"android":"levelo://app?vid=1720ecc2-ac4d-4511-8f0c-53362d7f903a","ios":"levelo://app?vid=1720ecc2-ac4d-4511-8f0c-53362d7f903a"},"vehicle_type_id":"4","last_reported":1740489497,"current_range_meters":26000,"station_id":"","pricing_plan_id":"cebpf4jnsgd1na2vs0mg"},{"bike_id":"b9b21e79-eeef-4db7-bfa0-7930e1d3c9ac","system_id":"levelo_inurba_marseille","lat":43.29524,"lon":5.39052,"is_reserved":false,"is_disabled":false,"rental_uris":{"android":"levelo://app?vid=b9b21e79-eeef-4db7-bfa0-7930e1d3c9ac","ios":"levelo://app?vid=b9b21e79-eeef-4db7-bfa0-7930e1d3c9ac"},"vehicle_type_id":"4","last_reported":1740489497,"current_range_meters":23200,"station_id":"ce4bh3p2rcd13ifvqdp0","pricing_plan_id":"cebpf4jnsgd1na2vs0mg"},{"bike_id":"731c13a9-eea4-4255-b859-04590ae17401","system_id":"levelo_inurba_marseille","lat":43.308,"lon":5.43529,"is_reserved":false,"is_disabled":false,"rental_uris":{"android":"levelo://app?vid=731c13a9-eea4-4255-b859-04590ae17401","ios":"levelo://app?vid=731c13a9-eea4-4255-b859-04590ae17401"},"vehicle_type_id":"4","last_reported":1740489497,"current_range_meters":22000,"station_id":"ce4bhph2rcd13ifvqheg","pricing_plan_id":"cebpf4jnsgd1na2vs0mg"},{"bike_id":"b0a18b26-683f-4e72-b0b5-445f147276b2","system_id":"levelo_inurba_marseille","lat":43.28412,"lon":5.37513,"is_reserved":false,"is_disabled":false,"rental_uris":{"android":"levelo://app?vid=b0a18b26-683f-4e72-b0b5-445f147276b2","ios":"levelo://app?vid=b0a18b26-683f-4e72-b0b5-445f147276b2"},