{"last_updated":1702155936,"ttl":30,"version":"2.2","data":{"bikes":[{"bike_id":"1db0f672-20e7-497d-b8a2-32ba1172d6bb","system_id":"levelo_inurba_marseille","lat":43.312239,"lon":5.368562,"is_reserved":false,"is_disabled":false,"rental_uris":{"android":"levelo://app?vid=1db0f672-20e7-497d-b8a2-32ba1172d6bb","ios":"levelo://app?vid=1db0f672-20e7-497d-b8a2-32ba1172d6bb"},"vehicle_type_id":"4","last_reported":1702155937,"current_range_meters":9200,"station_id":"ce4bgl92rcd13ifvqbq0","pricing_plan_id":"free"},{"bike_id":"d27c46b1-6855-4092-9a74-492f973213fb","system_id":"levelo_inurba_marseille","lat":43.312239,"lon":5.368562,"is_reserved":false,"is_disabled":false,"rental_uris":{"android":"levelo://app?vid=d27c46b1-6855-4092-9a74-492f973213fb","ios":"levelo://app?vid=d27c46b1-6855-4092-9a74-492f973213fb"},"vehicle_type_id":"4","last_reported":1702155937,"current_range_meters":11200,"station_id":"ce4bgl92rcd13ifvqbq0","pricing_plan_id":"free"},{"bike_id":"6ef1924a-0c86-47e2-8dcc-1134a4c96ba6","system_id":"levelo_inurba_marseille","lat":43.309076,"lon":5.368465,"is_reserved":false,"is_disabled":false,"rental_uris":{"android":"levelo://app?vid=6ef1924a-0c86-47e2-8dcc-1134a4c96ba6","ios":"levelo://app?vid=6ef1924a-0c86-47e2-8dcc-1134a4c96ba6"},"vehicle_type_id":"4","last_reported":1702155937,"current_range_meters":20000,"station_id":"ce4bgn92rcd13ifvqbvg","pricing_plan_id":"free"},{"bike_id":"9716034b-a46a-41f9-9ebe-da1337dfc33b","system_id":"levelo_inurba_marseille","lat":43.309076,"lon":5.368465,"is_reserved":false,"is_disabled":false,"rental_uris":{"android":"levelo://app?vid=9716034b-a46a-41f9-9ebe-da1337dfc33b","ios":"levelo://app?vid=9716034b-a46a-41f9-9ebe-da1337dfc33b"},"vehicle_type_id":"4","last_reported":1702155937,"current_range_meters":18000,"station_id":"ce4bgn92rcd13ifvqbvg","pricing_plan_id":"free"},{"bike_id":"8a8aaf11-4d51-442e-81a0-940f1ee0ab07","system_id":"levelo_inurba_marseille","lat":43.314811,"lon":5.373103,"is_reserved":false,"is_disabled":false,"rental_uris":{"android":"levelo://app?vid=8a8aaf11-4d51-442e-81a0-940f1ee0ab07","ios":"levelo://app?vid=8a8aaf11-4d51-442e-81a0-940f1ee0ab07"},"vehicle_type_id":"4","last_reported":1702155937,"current_range_meters":22800,"station_id":"ce4bgt12rcd13ifvqcd0","pricing_plan_id":"free"},{"bike_id":"be563e93-b17e-4620-ad92-0eee294546ce","system_id":"levelo_inurba_marseille","lat":43.305712,"lon":5.365641,"is_reserved":false,"is_disabled":false,"rental_uris":{"android":"levelo://app?vid=be563e93-b17e-4620-ad92-0eee294546ce","ios":"levelo://app?vid=be563e93-b17e-4620-ad92-0eee294546ce"},"vehicle_type_id":"4","last_reported":1702155937,"current_range_meters":10400,"station_id":"ce4bgs12rcd13ifvqcag","pricing_plan_id":"free"},{"bike_id":"5a0222ca-0749-4580-9a2c-bc77d82cde46","system_id":"levelo_inurba_marseille","lat":43.305989,"lon":5.37225,"is_reserved":false,"is_disabled":false,"rental_uris":{"android":"levelo://app?vid=5a0222ca-0749-4580-9a2c-bc77d82cde46","ios":"levelo://app?vid=5a0222ca-0749-4580-9a2c-bc77d82cde46"},"vehicle_type_id":"4","last_reported":1702155937,"current_range_meters":12400,"station_id":"ce4bgqh2rcd13ifvqc4g","pricing_plan_id":"free"},{"bike_id":"08189aa3-0c80-4444-b4be-9b8bf2f6c4b8","system_id":"levelo_inurba_marseille","lat":43.305989,"lon":5.37225,"is_reserved":false,"is_disabled":false,"rental_uris":{"android":"levelo://app?vid=08189aa3-0c80-4444-b4be-9b8bf2f6c4b8","ios":"levelo://app?vid=08189aa3-0c80-4444-b4be-9b8bf2f6c4b8"},"vehicle_type_id":"4","last_reported":1702155937,"current_range_meters":25200,"station_id":"ce4bgqh2rcd13ifvqc4g","pricing_plan_id":"free"},{"bike_id":"5354665f-7865-49b3-a452-936f3397a84c","system_id":"levelo_inurba_marseille","lat":43.317075,"lon":5.377367,"is_reserved":false,"is_disabled":false,"rental_uris":{"android":"levelo://app?vid=5354665f-7865-49b3-a452-936f3397a84c","ios":"levelo://app?vid=5354665f-7865-49b3-a452-936f3397a84c"},"vehicle_type_id":"4","last_reported":1702155937,"current_range_meters":13200,"station_id":"ce4bgth2rcd13ifvqch0","pricing_plan_id":"free"},{"bike_id":"cf63ca16-724c-4922-b38a-e44c883d7d49","system_id":"levelo_inurba_marseille","lat":43.31534,"lon":5.38029,"is_reserved":false,"is_disabled":false,"rental_uris":{"android":"levelo://app?vid=cf63ca16-724c-4922-b38a-e44c883d7d49","ios":"levelo://app?vid=cf63ca16-724c-4922-b38a-e44c883d7d49"},"vehicle_type_id":"4","last_reported":1702155937,"current_range_meters":25200,"station_id":"ce4bhsp2rcd13ifvqi50","pricing_plan_id":"free"},{"bike_id":"f33bb746-67d8-495b-aa8e-1cdfb98b48b9","system_id":"levelo_inurba_marseille","lat":43.31529,"lon":5.3804,"is_reserved":false,"is_disabled":false,"rental_uris":{"android":"levelo://app?vid=f33bb746-67d8-495b-aa8e-1cdfb98b48b9","ios":"levelo://app?vid=f33bb746-67d8-495b-aa8e-1cdfb98b48b9"},"vehicle_type_id":"4","last_reported":1702155937,"current_range_meters":15200,"station_id":"ce4bhsp2rcd13ifvqi50","pricing_plan_id":"free"},{"bike_id":"7191bc5d-0cdc-410d-aa2b-c63903d1a1f3","system_id":"levelo_inurba_marseille","lat":43.301939,"lon":5.366286,"is_reserved":false,"is_disabled":false,"rental_uris":{"android":"levelo://app?vid=7191bc5d-0cdc-410d-aa2b-c63903d1a1f3","ios":"levelo://app?vid=7191bc5d-0cdc-410d-aa2b-c63903d1a1f3"},"vehicle_type_id":"4","last_reported":1702155937,"current_range_meters":22400,"station_id":"ce4bgrh2rcd13ifvqc8g","pricing_plan_id":"free"},{"bike_id":"3d46c0af-4576-4f2f-87b0-0abde914ad06","system_id":"levelo_inurba_marseille","lat":43.308049,"lon":5.381629,"is_reserved":false,"is_disabled":false,"rental_uris":{"android":"levelo://app?vid=3d46c0af-4576-4f2f-87b0-0abde914ad06","ios":"levelo://app?vid=3d46c0af-4576-4f2f-87b0-0abde914ad06"},"vehicle_type_id":"4","last_reported":1702155937,"current_range_meters":0,"station_id":"ce4bgt12rcd13ifvqce0","pricing_plan_id":"free"},{"bike_id":"59b1982d-0c16-4fb6-a0ee-9acc09a937da","system_id":"levelo_inurba_marseille","lat":43.30154,"lon":5.37385,"is_reserved":false,"is_disabled":false,"rental_uris":{"android":"levelo://app?vid=59b1982d-0c16-4fb6-a0ee-9acc09a937da","ios":"levelo://app?vid=59b1982d-0c16-4fb6-a0ee-9acc09a937da"},"vehicle_type_id":"4","last_reported":1702155937,"current_range_meters":0,"station_id":"ce4bgs92rcd13ifvqcc0","pricing_plan_id":"free"},{"bike_id":"d8be298e-f4c0-4479-a66b-e307c680d7cc","system_id":"levelo_inurba_marseille","lat":43.31356,"lon":5.38493,"is_reserved":false,"is_disabled":false,"rental_uris":{"android":"levelo://app?vid=d8be298e-f4c0-4479-a66b-e307c680d7cc","ios":"levelo://app?vid=d8be298e-f4c0-4479-a66b-e307c680d7cc"},"vehicle_type_id":"4","last_reported":1702155937,"current_range_meters":22800,"station_id":"ce4bgt92rcd13ifvqcf0","pricing_plan_id":"free"},{"bike_id":"7b74c22d-0d28-40fd-9ff3-0c02348d5e38","system_id":"levelo_inurba_marseille","lat":43.313571,"lon":5.384829,"is_reserved":false,"is_disabled":false,"rental_uris":{"android":"levelo://app?vid=7b74c22d-0d28-40fd-9ff3-0c02348d5e38","ios":"levelo://app?vid=7b74c22d-0d28-40fd-9ff3-0c02348d5e38"},"vehicle_type_id":"4","last_reported":1702155937,"current_range_meters":800,"station_id":"ce4bgt92rcd13ifvqcf0","pricing_plan_id":"free"},{"bike_id":"4447cac3-debb-42c7-9f34-76cfbac038af","system_id":"levelo_inurba_marseille","lat":43.299724,"lon":5.371829,"is_reserved":false,"is_disabled":false,"rental_uris":{"android":"levelo://app?vid=4447cac3-debb-42c7-9f34-76cfbac038af","ios":"levelo://app?vid=4447cac3-debb-42c7-9f34-76cfbac038af"},"vehicle_type_id":"4","last_reported":1702155937,"current_range_meters":23200,"station_id":"ce4bgr92rcd13ifvqc7g","pricing_plan_id":"free"},{"bike_id":"9b81655d-e9fd-4df6-89b3-dc88c058625e","system_id":"levelo_inurba_marseille","lat":43.29931,"lon":5.36528,"is_reserved":false,"is_disabled":false,"rental_uris":{"android":"levelo://app?vid=9b81655d-e9fd-4df6-89b3-dc88c058625e","ios":"levelo://app?vid=9b81655d-e9fd-4df6-89b3-dc88c058625e"},"vehicle_type_id":"4","last_reported":1702155937,"current_range_meters":2800,"station_id":"ce4bgm92rcd13ifvqbr0","pricing_plan_id":"free"},{"bike_id":"548973cd-31e2-464b-8888-8e528c7d375b","system_id":"levelo_inurba_marseille","lat":43.299222,"lon":5.365554,"is_reserved":false,"is_disabled":false,"rental_uris":{"android":"levelo://app?vid=548973cd-31e2-464b-8888-8e528c7d375b","ios":"levelo://app?vid=548973cd-31e2-464b-8888-8e528c7d375b"},"vehicle_type_id":"4","last_reported":1702155937,"current_range_meters":0,"station_id":"ce4bgm92rcd13ifvqbr0","pricing_plan_id":"free"},{"bike_id":"c0a64277-f5dd-4691-8acb-5c084fb0cfac","system_id":"levelo_inurba_marseille","lat":43.298433,"lon":5.362774,"is_reserved":false,"is_disabled":false,"rental_uris":{"android":"levelo://app?vid=c0a64277-f5dd-4691-8acb-5c084fb0cfac","ios":"levelo://app?vid=c0a64277-f5dd-4691-8acb-5c084fb0cfac"},"vehicle_type_id":"4","last_reported":1702155937,"current_range_meters":4800,"station_id":"ce4bgpp2rcd13ifvqc3g","pricing_plan_id":"free"},{"bike_id":"ba39bb7e-bccd-4082-800b-9fb035e8cb87","system_id":"levelo_inurba_marseille","lat":43.305364,"lon":5.384119,"is_reserved":false,"is_disabled":false,"rental_uris":{"android":"levelo://app?vid=ba39bb7e-bccd-4082-800b-9fb035e8cb87","ios":"levelo://app?vid=ba39bb7e-bccd-4082-800b-9fb035e8cb87"},"vehicle_type_id":"4","last_reported":1702155937,"current_range_meters":24400,"station_id":"ce4bgg92rcd13ifvqb30","pricing_plan_id":"free"},{"bike_id":"bbd2ff55-b4eb-46c2-b1b1-11df9760b54b","system_id":"levelo_inurba_marseille","lat":43.31167,"lon":5.38725,"is_reserved":false,"is_disabled":false,"rental_uris":{"android":"levelo://app?vid=bbd2ff55-b4eb-46c2-b1b1-11df9760b54b","ios":"levelo://app?vid=bbd2ff55-b4eb-46c2-b1b1-11df9760b54b"},"vehicle_type_id":"4","last_reported":1702155937,"current_range_meters":0,"station_id":"ce4bgv12rcd13ifvqcp0","pricing_plan_id":"free"},{"bike_id":"c60cbb7e-9382-450f-b819-5c2450f4f643","system_id":"levelo_inurba_marseille","lat":43.322872,"lon":5.382756,"is_reserved":false,"is_disabled":false,"rental_uris":{"android":"levelo://app?vid=c60cbb7e-9382-450f-b819-5c2450f4f643","ios":"levelo://app?vid=c60cbb7e-9382-450f-b819-5c2450f4f643"},"vehicle_type_id":"4","last_reported":1702155937,"current_range_meters":4000,"station_id":"ce4bhr12rcd13ifvqhqg","pricing_plan_id":"free"},{"bike_id":"0370f0dd-02e1-44c3-b626-7cdd11d7ffac","system_id":"levelo_inurba_marseille","lat":43.322872,"lon":5.382756,"is_reserved":false,"is_disabled":false,"rental_uris":{"android":"levelo://app?vid=0370f0dd-02e1-44c3-b626-7cdd11d7ffac","ios":"levelo://app?vid=0370f0dd-02e1-44c3-b626-7cdd11d7ffac"},"vehicle_type_id":"4","last_reported":1702155937,"current_range_meters":29600,"station_id":"ce4bhr12rcd13ifvqhqg","pricing_plan_id":"free"},{"bike_id":"6ac675f1-e0be-498c-ad2f-b742a949d4b0","system_id":"levelo_inurba_marseille","lat":43.298218,"lon":5.374416,"is_reserved":false,"is_disabled":false,"rental_uris":{"android":"levelo://app?vid=6ac675f1-e0be-498c-ad2f-b742a949d4b0","ios":"levelo://app?vid=6ac675f1-e0be-498c-ad2f-b742a949d4b0"},"vehicle_type_id":"4","last_reported":1702155937,"current_range_meters":800,"station_id":"","pricing_plan_id":"free"},{"bike_id":"c0277e83-5760-4711-a064-db968a075397","system_id":"levelo_inurba_marseille","lat":43.313571,"lon":5.384829,"is_reserved":false,"is_disabled":false,"rental_uris":{"android":"levelo://app?vid=c0277e83-5760-4711-a064-db968a075397","ios":"levelo://app?vid=c0277e83-5760-4711-a064-db968a075397"},"vehicle_type_id":"4","last_reported":1702155937,"current_range_meters":4000,"station_id":"ce4bgt92rcd13ifvqcf0","pricing_plan_id":"free"},{"bike_id":"53e048d2-45f0-4abe-9ece-897fe24bf1d7","system_id":"levelo_inurba_marseille","lat":43.2968,"lon":5.37291,"is_reserved":false,"is_disabled":false,"rental_uris":{"android":"levelo://app?vid=53e048d2-45f0-4abe-9ece-897fe24bf1d7","ios":"levelo://app?vid=53e048d2-45f0-4abe-9ece-897fe24bf1d7"},"vehicle_type_id":"4","last_reported":1702155937,"current_range_meters":19600,"station_id":"ce4bgk12rcd13ifvqbj0","pricing_plan_id":"free"},{"bike_id":"92dc65d6-6823-4de3-93d4-056f738f090c","system_id":"levelo_inurba_marseille","lat":43.316538,"lon":5.38954,"is_reserved":false,"is_disabled":false,"rental_uris":{"android":"levelo://app?vid=92dc65d6-6823-4de3-93d4-056f738f090c","ios":"levelo://app?vid=92dc65d6-6823-4de3-93d4-056f738f090c"},"vehicle_type_id":"4","last_reported":1702155937,"current_range_meters":0,"station_id":"","pricing_plan_id":"free"},{"bike_id":"ea2d4f7c-c131-4f14-a7bc-f5c2879d4424","system_id":"levelo_inurba_marseille","lat":43.29624,"lon":5.37216,"is_reserved":false,"is_disabled":false,"rental_uris":{"android":"levelo://app?vid=ea2d4f7c-c131-4f14-a7bc-f5c2879d4424","ios":"levelo://app?vid=ea2d4f7c-c131-4f14-a7bc-f5c2879d4424"},"vehicle_type_id":"4","last_reported":1702155937,"current_range_meters":0,"station_id":"","pricing_plan_id":"free"},{"bike_id":"1391f894-b835-4388-a938-963d2b7904b8","system_id":"levelo_inurba_marseille","lat":43.317557,"lon":5.390173,"is_reserved":false,"is_disabled":false,"rental_uris":{"android":"levelo://app?vid=1391f894-b835-4388-a938-963d2b7904b8","ios":"levelo://app?vid=1391f894-b835-4388-a938-963d2b7904b8"},"vehicle_type_id":"4","last_reported":1702155937,"current_range_meters":24000,"station_id":"ce4bhqp2rcd13ifvqhng","pricing_plan_id":"free"},{"bike_id":"d69f04d9-84df-4f26-bc64-9f532752e790","system_id":"levelo_inurba_marseille","lat":43.31758,"lon":5.39022,"is_reserved":false,"is_disabled":false,"rental_uris":{"android":"levelo://app?vid=d69f04d9-84df-4f26-bc64-9f532752e790","ios":"levelo://app?vid=d69f04d9-84df-4f26-bc64-9f532752e790"},"vehicle_type_id":"4","last_reported":1702155937,"current_range_meters":3200,"station_id":"ce4bhqp2rcd13ifvqhng","pricing_plan_id":"free"},{"bike_id":"f3574965-10f7-4b52-99ad-81a41ecd5015","system_id":"levelo_inurba_marseille","lat":43.304274,"lon":5.388873,"is_reserved":false,"is_disabled":false,"rental_uris":{"android":"levelo://app?vid=f3574965-10f7-4b52-99ad-81a41ecd5015","ios":"levelo://app?vid=f3574965-10f7-4b52-99ad-81a41ecd5015"},"vehicle_type_id":"4","last_reported":1702155937,"current_range_meters":19200,"station_id":"ce4bgk12rcd13ifvqbi0","pricing_plan_id":"free"},{"bike_id":"da755e55-9a8f-4d60-9f5e-5e3b12a7477b","system_id":"levelo_inurba_marseille","lat":43.303002,"lon":5.392142,"is_reserved":false,"is_disabled":false,"rental_uris":{"android":"levelo://app?vid=da755e55-9a8f-4d60-9f5e-5e3b12a7477b","ios":"levelo://app?vid=da755e55-9a8f-4d60-9f5e-5e3b12a7477b"},"vehicle_type_id":"4","last_reported":1702155937,"current_range_meters":0,"station_id":"ce4bgkh2rcd13ifvqbk0","pricing_plan_id":"free"},{"bike_id":"a18c4184-9b15-4058-9e32-f24cce16ef34","system_id":"levelo_inurba_marseille","lat":43.30085,"lon":5.390856,"is_reserved":false,"is_disabled":false,"rental_uris":{"android":"levelo://app?vid=a18c4184-9b15-4058-9e32-f24cce16ef34","ios":"levelo://app?vid=a18c4184-9b15-4058-9e32-f24cce16ef34"},"vehicle_type_id":"4","last_reported":1702155937,"current_range_meters":400,"station_id":"ce4bh192rcd13ifvqdb0","pricing_plan_id":"free"},{"bike_id":"ffe8e861-9583-46be-9da3-462d5c1037ee","system_id":"levelo_inurba_marseille","lat":43.29255,"lon":5.37607,"is_reserved":false,"is_disabled":false,"rental_uris":{"android":"levelo://app?vid=ffe8e861-9583-46be-9da3-462d5c1037ee","ios":"levelo://app?vid=ffe8e861-9583-46be-9da3-462d5c1037ee"},"vehicle_type_id":"4","last_reported":1702155937,"current_range_meters":10000,"station_id":"ce4bgi12rcd13ifvqb80","pricing_plan_id":"free"},{"bike_id":"761046af-7192-4f63-84e8-f6c7a00563ab","system_id":"levelo_inurba_marseille","lat":43.29252,"lon":5.37612,"is_reserved":false,"is_disabled":false,"rental_uris":{"android":"levelo://app?vid=761046af-7192-4f63-84e8-f6c7a00563ab","ios":"levelo://app?vid=761046af-7192-4f63-84e8-f6c7a00563ab"},"vehicle_type_id":"4","last_reported":1702155937,"current_range_meters":0,"station_id":"ce4bgi12rcd13ifvqb80","pricing_plan_id":"free"},{"bike_id":"5c79bc93-8f13-4c40-8a8c-8f35d3902245","system_id":"levelo_inurba_marseille","lat":43.332449,"lon":5.379434,"is_reserved":false,"is_disabled":false,"rental_uris":{"android":"levelo://app?vid=5c79bc93-8f13-4c40-8a8c-8f35d3902245","ios":"levelo://app?vid=5c79bc93-8f13-4c40-8a8c-8f35d3902245"},"vehicle_type_id":"4","last_reported":1702155937,"current_range_meters":12000,"station_id":"","pricing_plan_id":"free"},{"bike_id":"5ed66215-e812-4934-8bd8-05fa06e2778c","system_id":"levelo_inurba_marseille","lat":43.332479,"lon":5.379405,"is_reserved":false,"is_disabled":false,"rental_uris":{"android":"levelo://app?vid=5ed66215-e812-4934-8bd8-05fa06e2778c","ios":"levelo://app?vid=5ed66215-e812-4934-8bd8-05fa06e2778c"},"vehicle_type_id":"4","last_reported":1702155937,"current_range_meters":27200,"station_id":"","pricing_plan_id":"free"},{"bike_id":"98c13d56-8373-4f88-931e-35ce2bc6c9a8","system_id":"levelo_inurba_marseille","lat":43.31324,"lon":5.39691,"is_reserved":false,"is_disabled":false,"rental_uris":{"android":"levelo://app?vid=98c13d56-8373-4f88-931e-35ce2bc6c9a8","ios":"levelo://app?vid=98c13d56-8373-4f88-931e-35ce2bc6c9a8"},"vehicle_type_id":"4","last_reported":1702155937,"current_range_meters":13600,"station_id":"ce4bgvp2rcd13ifvqcu0","pricing_plan_id":"free"},{"bike_id":"33629a0f-077c-45b7-8bb1-997a7d232724","system_id":"levelo_inurba_marseille","lat":43.29187,"lon":5.35797,"is_reserved":false,"is_disabled":false,"rental_uris":{"android":"levelo://app?vid=33629a0f-077c-45b7-8bb1-997a7d232724","ios":"levelo://app?vid=33629a0f-077c-45b7-8bb1-997a7d232724"},"vehicle_type_id":"4","last_reported":1702155937,"current_range_meters":15600,"station_id":"ce4bhb12rcd13ifvqel0","pricing_plan_id":"free"},{"bike_id":"e5e1556d-54f6-4de3-a906-092c27b81b2d","system_id":"levelo_inurba_marseille","lat":43.309038,"lon":5.396546,"is_reserved":false,"is_disabled":false,"rental_uris":{"android":"levelo://app?vid=e5e1556d-54f6-4de3-a906-092c27b81b2d","ios":"levelo://app?vid=e5e1556d-54f6-4de3-a906-092c27b81b2d"},"vehicle_type_id":"4","last_reported":1702155937,"current_range_meters":17600,"station_id":"ce4bh012rcd13ifvqcv0","pricing_plan_id":"free"},{"bike_id":"2de0a06f-e84b-4499-acfe-1b4dcfa05272","system_id":"levelo_inurba_marseille","lat":43.309038,"lon":5.396546,"is_reserved":false,"is_disabled":false,"rental_uris":{"android":"levelo://app?vid=2de0a06f-e84b-4499-acfe-1b4dcfa05272","ios":"levelo://app?vid=2de0a06f-e84b-4499-acfe-1b4dcfa05272"},"vehicle_type_id":"4","last_reported":1702155937,"current_range_meters":4400,"station_id":"ce4bh012rcd13ifvqcv0","pricing_plan_id":"free"},{"bike_id":"f6b5b0e0-97d3-451e-b058-8fd0595ffcf1","system_id":"levelo_inurba_marseille","lat":43.29529,"lon":5.385581,"is_reserved":false,"is_disabled":false,"rental_uris":{"android":"levelo://app?vid=f6b5b0e0-97d3-451e-b058-8fd0595ffcf1","ios":"levelo://app?vid=f6b5b0e0-97d3-451e-b058-8fd0595ffcf1"},"vehicle_type_id":"4","last_reported":1702155937,"current_range_meters":1200,"station_id":"ce4bgih2rcd13ifvqba0","pricing_plan_id":"free"},{"bike_id":"d3ad9a90-92be-48ca-8956-d0f57167a73d","system_id":"levelo_inurba_marseille","lat":43.290631,"lon":5.359244,"is_reserved":false,"is_disabled":false,"rental_uris":{"android":"levelo://app?vid=d3ad9a90-92be-48ca-8956-d0f57167a73d","ios":"levelo://app?vid=d3ad9a90-92be-48ca-8956-d0f57167a73d"},"vehicle_type_id":"4","last_reported":1702155937,"current_range_meters":15600,"station_id":"ce4bha92rcd13ifvqeg0","pricing_plan_id":"free"},{"bike_id":"ea39043c-001b-44d9-9aaa-7d2cf0e3185d","system_id":"levelo_inurba_marseille","lat":43.2894,"lon":5.3664,"is_reserved":false,"is_disabled":false,"rental_uris":{"android":"levelo://app?vid=ea39043c-001b-44d9-9aaa-7d2cf0e3185d","ios":"levelo://app?vid=ea39043c-001b-44d9-9aaa-7d2cf0e3185d"},"vehicle_type_id":"4","last_reported":1702155937,"current_range_meters":0,"station_id":"ce4bhap2rcd13ifvqek0","pricing_plan_id":"free"},{"bike_id":"a02a1b20-1fb1-4951-988a-77389649024d","system_id":"levelo_inurba_marseille","lat":43.289259,"lon":5.366364,"is_reserved":false,"is_disabled":false,"rental_uris":{"android":"levelo://app?vid=a02a1b20-1fb1-4951-988a-77389649024d","ios":"levelo://app?vid=a02a1b20-1fb1-4951-988a-77389649024d"},"vehicle_type_id":"4","last_reported":1702155937,"current_range_meters":10800,"station_id":"","pricing_plan_id":"free"},{"bike_id":"da5526f3-eb3d-4df2-8013-352ca5b67cf4","system_id":"levelo_inurba_marseille","lat":43.292642,"lon":5.384254,"is_reserved":false,"is_disabled":false,"rental_uris":{"android":"levelo://app?vid=da5526f3-eb3d-4df2-8013-352ca5b67cf4","ios":"levelo://app?vid=da5526f3-eb3d-4df2-8013-352ca5b67cf4"},"vehicle_type_id":"4","last_reported":1702155937,"current_range_meters":1600,"station_id":"ce4bh692rcd13ifvqea0","pricing_plan_id":"free"},{"bike_id":"adbceab4-9518-4c9b-ac51-08c315062622","system_id":"levelo_inurba_marseille","lat":43.304274,"lon":5.397513,"is_reserved":false,"is_disabled":false,"rental_uris":{"android":"levelo://app?vid=adbceab4-9518-4c9b-ac51-08c315062622","ios":"levelo://app?vid=adbceab4-9518-4c9b-ac51-08c315062622"},"vehicle_type_id":"4","last_reported":1702155937,"current_range_meters":19600,"station_id":"ce4bh092rcd13ifvqd20","pricing_plan_id":"free"},{"bike_id":"4545afc4-979c-48ee-8b80-68655296d4ba","system_id":"levelo_inurba_marseille","lat":43.289963,"lon":5.356092,"is_reserved":false,"is_disabled":false,"rental_uris":{"android":"levelo://app?vid=4545afc4-979c-48ee-8b80-68655296d4ba","ios":"levelo://app?vid=4545afc4-979c-48ee-8b80-68655296d4ba"},"vehicle_type_id":"4","last_reported":1702155937,"current_range_meters":24800,"station_id":"ce4bhb92rcd13ifvqen0","pricing_plan_id":"free"},{"bike_id":"bd6b62ef-e0eb-479a-9095-bdb0b4896b90","system_id":"levelo_inurba_marseille","lat":43.297815,"lon":5.393548,"is_reserved":false,"is_disabled":false,"rental_uris":{"android":"levelo://app?vid=bd6b62ef-e0eb-479a-9095-bdb0b4896b90","ios":"levelo://app?vid=bd6b62ef-e0eb-479a-9095-bdb0b4896b90"},"vehicle_type_id":"4","last_reported":1702155937,"current_range_meters":25200,"station_id":"chh1huq6cuj3fo74tm60","pricing_plan_id":"free"},{"bike_id":"2347bb4f-fcdb-4b75-8498-d96f1ba2e890","system_id":"levelo_inurba_marseille","lat":43.289741,"lon":5.378306,"is_reserved":false,"is_disabled":false,"rental_uris":{"android":"levelo://app?vid=2347bb4f-fcdb-4b75-8498-d96f1ba2e890","ios":"levelo://app?vid=2347bb4f-fcdb-4b75-8498-d96f1ba2e890"},"vehicle_type_id":"4","last_reported":1702155937,"current_range_meters":30000,"station_id":"ce4bh9p2rcd13ifvqed0","pricing_plan_id":"free"},{"bike_id":"93798e4c-f42d-4295-ad4c-1190e61a6d05","system_id":"levelo_inurba_marseille","lat":43.289741,"lon":5.378306,"is_reserved":false,"is_disabled":false,"rental_uris":{"android":"levelo://app?vid=93798e4c-f42d-4295-ad4c-1190e61a6d05","ios":"levelo://app?vid=93798e4c-f42d-4295-ad4c-1190e61a6d05"},"vehicle_type_id":"4","last_reported":1702155937,"current_range_meters":24400,"station_id":"ce4bh9p2rcd13ifvqed0","pricing_plan_id":"free"},{"bike_id":"3e208945-d1f9-45f0-ba44-db3168ede099","system_id":"levelo_inurba_marseille","lat":43.290094,"lon":5.381264,"is_reserved":false,"is_disabled":false,"rental_uris":{"android":"levelo://app?vid=3e208945-d1f9-45f0-ba44-db3168ede099","ios":"levelo://app?vid=3e208945-d1f9-45f0-ba44-db3168ede099"},"vehicle_type_id":"4","last_reported":1702155937,"current_range_meters":28000,"station_id":"ce4bh4p2rcd13ifvqe1g","pricing_plan_id":"free"},{"bike_id":"7b5f023e-77dd-475b-97a7-f9b28e278ded","system_id":"levelo_inurba_marseille","lat":43.28856,"lon":5.358371,"is_reserved":false,"is_disabled":false,"rental_uris":{"android":"levelo://app?vid=7b5f023e-77dd-475b-97a7-f9b28e278ded","ios":"levelo://app?vid=7b5f023e-77dd-475b-97a7-f9b28e278ded"},"vehicle_type_id":"4","last_reported":1702155937,"current_range_meters":0,"station_id":"ce4bhb12rcd13ifvqem0","pricing_plan_id":"free"},{"bike_id":"d704fbb5-a62e-41e0-b672-417a9fb48975","system_id":"levelo_inurba_marseille","lat":43.30642,"lon":5.401031,"is_reserved":false,"is_disabled":false,"rental_uris":{"android":"levelo://app?vid=d704fbb5-a62e-41e0-b672-417a9fb48975","ios":"levelo://app?vid=d704fbb5-a62e-41e0-b672-417a9fb48975"},"vehicle_type_id":"4","last_reported":1702155937,"current_range_meters":0,"station_id":"ce4bh112rcd13ifvqda0","pricing_plan_id":"free"},{"bike_id":"c147ebb3-141d-4c1a-9cd7-cd494fa1ade2","system_id":"levelo_inurba_marseille","lat":43.3128,"lon":5.40171,"is_reserved":false,"is_disabled":false,"rental_uris":{"android":"levelo://app?vid=c147ebb3-141d-4c1a-9cd7-cd494fa1ade2","ios":"levelo://app?vid=c147ebb3-141d-4c1a-9cd7-cd494fa1ade2"},"vehicle_type_id":"4","last_reported":1702155937,"current_range_meters":2400,"station_id":"ce4bh092rcd13ifvqd30","pricing_plan_id":"free"},{"bike_id":"710b1091-385d-4534-b301-8e17eba81a71","system_id":"levelo_inurba_marseille","lat":43.312609,"lon":5.401662,"is_reserved":false,"is_disabled":false,"rental_uris":{"android":"levelo://app?vid=710b1091-385d-4534-b301-8e17eba81a71","ios":"levelo://app?vid=710b1091-385d-4534-b301-8e17eba81a71"},"vehicle_type_id":"4","last_reported":1702155937,"current_range_meters":13600,"station_id":"ce4bh092rcd13ifvqd30","pricing_plan_id":"free"},{"bike_id":"92839ff4-fa6c-401e-970c-94666ce0ce73","system_id":"levelo_inurba_marseille","lat":43.306412,"lon":5.401035,"is_reserved":false,"is_disabled":false,"rental_uris":{"android":"levelo://app?vid=92839ff4-fa6c-401e-970c-94666ce0ce73","ios":"levelo://app?vid=92839ff4-fa6c-401e-970c-94666ce0ce73"},"vehicle_type_id":"4","last_reported":1702155937,"current_range_meters":21200,"station_id":"ce4bh112rcd13ifvqda0","pricing_plan_id":"free"},{"bike_id":"05c7bcdb-4d6b-4e07-ac1a-125b441f90ed","system_id":"levelo_inurba_marseille","lat":43.286591,"lon":5.363346,"is_reserved":false,"is_disabled":false,"rental_uris":{"android":"levelo://app?vid=05c7bcdb-4d6b-4e07-ac1a-125b441f90ed","ios":"levelo://app?vid=05c7bcdb-4d6b-4e07-ac1a-125b441f90ed"},"vehicle_type_id":"4","last_reported":1702155937,"current_range_meters":4800,"station_id":"ce4bhah2rcd13ifvqej0","pricing_plan_id":"free"},{"bike_id":"6cc8acc9-ea00-49db-8491-b66c14b208e6","system_id":"levelo_inurba_marseille","lat":43.286961,"lon":5.373785,"is_reserved":false,"is_disabled":false,"rental_uris":{"android":"levelo://app?vid=6cc8acc9-ea00-49db-8491-b66c14b208e6","ios":"levelo://app?vid=6cc8acc9-ea00-49db-8491-b66c14b208e6"},"vehicle_type_id":"4","last_reported":1702155937,"current_range_meters":9200,"station_id":"ce4bh3p2rcd13ifvqdq0","pricing_plan_id":"free"},{"bike_id":"f5a1c063-232c-4525-8d98-f82ca30270d2","system_id":"levelo_inurba_marseille","lat":43.295196,"lon":5.39397,"is_reserved":false,"is_disabled":false,"rental_uris":{"android":"levelo://app?vid=f5a1c063-232c-4525-8d98-f82ca30270d2","ios":"levelo://app?vid=f5a1c063-232c-4525-8d98-f82ca30270d2"},"vehicle_type_id":"4","last_reported":1702155937,"current_range_meters":27600,"station_id":"ce4bh292rcd13ifvqdf0","pricing_plan_id":"free"},{"bike_id":"307cedd6-a45a-4e46-8659-c56b3cd50ddd","system_id":"levelo_inurba_marseille","lat":43.295194,"lon":5.39397,"is_reserved":false,"is_disabled":false,"rental_uris":{"android":"levelo://app?vid=307cedd6-a45a-4e46-8659-c56b3cd50ddd","ios":"levelo://app?vid=307cedd6-a45a-4e46-8659-c56b3cd50ddd"},"vehicle_type_id":"4","last_reported":1702155937,"current_range_meters":6400,"station_id":"ce4bh292rcd13ifvqdf0","pricing_plan_id":"free"},{"bike_id":"b8003a8b-5a7e-4ddd-b4a1-f5e579f20011","system_id":"levelo_inurba_marseille","lat":43.302759,"lon":5.400793,"is_reserved":false,"is_disabled":false,"rental_uris":{"android":"levelo://app?vid=b8003a8b-5a7e-4ddd-b4a1-f5e579f20011","ios":"levelo://app?vid=b8003a8b-5a7e-4ddd-b4a1-f5e579f20011"},"vehicle_type_id":"4","last_reported":1702155937,"current_range_meters":9600,"station_id":"ce4bgvh2rcd13ifvqcs0","pricing_plan_id":"free"},{"bike_id":"fcf2dbcd-68ce-4c82-9686-675a1b1f2d97","system_id":"levelo_inurba_marseille","lat":43.290345,"lon":5.38646,"is_reserved":false,"is_disabled":false,"rental_uris":{"android":"levelo://app?vid=fcf2dbcd-68ce-4c82-9686-675a1b1f2d97","ios":"levelo://app?vid=fcf2dbcd-68ce-4c82-9686-675a1b1f2d97"},"vehicle_type_id":"4","last_reported":1702155937,"current_range_meters":10800,"station_id":"ce4bh4p2rcd13ifvqe0g","pricing_plan_id":"free"},{"bike_id":"740fd591-aa7b-4a15-b923-a58f94337df7","system_id":"levelo_inurba_marseille","lat":43.302759,"lon":5.400793,"is_reserved":false,"is_disabled":false,"rental_uris":{"android":"levelo://app?vid=740fd591-aa7b-4a15-b923-a58f94337df7","ios":"levelo://app?vid=740fd591-aa7b-4a15-b923-a58f94337df7"},"vehicle_type_id":"4","last_reported":1702155937,"current_range_meters":7200,"station_id":"ce4bgvh2rcd13ifvqcs0","pricing_plan_id":"free"},{"bike_id":"d07e798b-cdae-485c-aa14-d6167615f567","system_id":"levelo_inurba_marseille","lat":43.29027,"lon":5.38651,"is_reserved":false,"is_disabled":false,"rental_uris":{"android":"levelo://app?vid=d07e798b-cdae-485c-aa14-d6167615f567","ios":"levelo://app?vid=d07e798b-cdae-485c-aa14-d6167615f567"},"vehicle_type_id":"4","last_reported":1702155937,"current_range_meters":22800,"station_id":"ce4bh4p2rcd13ifvqe0g","pricing_plan_id":"free"},{"bike_id":"7dad8f41-5cd6-4532-ac78-4f34e73f31e6","system_id":"levelo_inurba_marseille","lat":43.28919,"lon":5.38397,"is_reserved":false,"is_disabled":false,"rental_uris":{"android":"levelo://app?vid=7dad8f41-5cd6-4532-ac78-4f34e73f31e6","ios":"levelo://app?vid=7dad8f41-5cd6-4532-ac78-4f34e73f31e6"},"vehicle_type_id":"4","last_reported":1702155937,"current_range_meters":8800,"station_id":"ce4bh612rcd13ifvqe6g","pricing_plan_id":"free"},{"bike_id":"d3b94379-b2aa-4cd5-aebc-857639d65bbc","system_id":"levelo_inurba_marseille","lat":43.28601,"lon":5.3703,"is_reserved":false,"is_disabled":false,"rental_uris":{"android":"levelo://app?vid=d3b94379-b2aa-4cd5-aebc-857639d65bbc","ios":"levelo://app?vid=d3b94379-b2aa-4cd5-aebc-857639d65bbc"},"vehicle_type_id":"4","last_reported":1702155937,"current_range_meters":14800,"station_id":"","pricing_plan_id":"free"},{"bike_id":"d6c26cae-6555-405b-92c4-9a8dc6608eff","system_id":"levelo_inurba_marseille","lat":43.287185,"lon":5.379373,"is_reserved":false,"is_disabled":false,"rental_uris":{"android":"levelo://app?vid=d6c26cae-6555-405b-92c4-9a8dc6608eff","ios":"levelo://app?vid=d6c26cae-6555-405b-92c4-9a8dc6608eff"},"vehicle_type_id":"4","last_reported":1702155937,"current_range_meters":30000,"station_id":"ce4bh9p2rcd13ifvqec0","pricing_plan_id":"free"},{"bike_id":"e6934f1b-49a3-4020-888a-87666a8d5adc","system_id":"levelo_inurba_marseille","lat":43.316828,"lon":5.404723,"is_reserved":false,"is_disabled":false,"rental_uris":{"android":"levelo://app?vid=e6934f1b-49a3-4020-888a-87666a8d5adc","ios":"levelo://app?vid=e6934f1b-49a3-4020-888a-87666a8d5adc"},"vehicle_type_id":"4","last_reported":1702155937,"current_range_meters":24000,"station_id":"ce4bh012rcd13ifvqd00","pricing_plan_id":"free"},{"bike_id":"13a8d491-0d2d-4b79-aba0-944d2a4f313d","system_id":"levelo_inurba_marseille","lat":43.316941,"lon":5.404661,"is_reserved":false,"is_disabled":false,"rental_uris":{"android":"levelo://app?vid=13a8d491-0d2d-4b79-aba0-944d2a4f313d","ios":"levelo://app?vid=13a8d491-0d2d-4b79-aba0-944d2a4f313d"},"vehicle_type_id":"4","last_reported":1702155937,"current_range_meters":0,"station_id":"ce4bh012rcd13ifvqd00","pricing_plan_id":"free"},{"bike_id":"fce00258-e2d6-404d-812b-c908d68c0541","system_id":"levelo_inurba_marseille","lat":43.291994,"lon":5.392907,"is_reserved":false,"is_disabled":false,"rental_uris":{"android":"levelo://app?vid=fce00258-e2d6-404d-812b-c908d68c0541","ios":"levelo://app?vid=fce00258-e2d6-404d-812b-c908d68c0541"},"vehicle_type_id":"4","last_reported":1702155937,"current_range_meters":23200,"station_id":"ce4bh192rcd13ifvqdd0","pricing_plan_id":"free"},{"bike_id":"b41b72a3-ebf2-433e-bfc1-76363a02e361","system_id":"levelo_inurba_marseille","lat":43.291994,"lon":5.392907,"is_reserved":false,"is_disabled":false,"rental_uris":{"android":"levelo://app?vid=b41b72a3-ebf2-433e-bfc1-76363a02e361","ios":"levelo://app?vid=b41b72a3-ebf2-433e-bfc1-76363a02e361"},"vehicle_type_id":"4","last_reported":1702155937,"current_range_meters":21600,"station_id":"ce4bh192rcd13ifvqdd0","pricing_plan_id":"free"},{"bike_id":"b1bd4a11-45ff-4de1-957b-004e5c559b95","system_id":"levelo_inurba_marseille","lat":43.285856,"lon":5.350771,"is_reserved":false,"is_disabled":false,"rental_uris":{"android":"levelo://app?vid=b1bd4a11-45ff-4de1-957b-004e5c559b95","ios":"levelo://app?vid=b1bd4a11-45ff-4de1-957b-004e5c559b95"},"vehicle_type_id":"4","last_reported":1702155937,"current_range_meters":0,"station_id":"ce4bhch2rcd13ifvqeug","pricing_plan_id":"free"},{"bike_id":"4da08b6c-4267-4a08-a5f9-24cdff1687c3","system_id":"levelo_inurba_marseille","lat":43.295713,"lon":5.399639,"is_reserved":false,"is_disabled":false,"rental_uris":{"android":"levelo://app?vid=4da08b6c-4267-4a08-a5f9-24cdff1687c3","ios":"levelo://app?vid=4da08b6c-4267-4a08-a5f9-24cdff1687c3"},"vehicle_type_id":"4","last_reported":1702155937,"current_range_meters":24800,"station_id":"ce4bh312rcd13ifvqdj0","pricing_plan_id":"free"},{"bike_id":"f8d9dcce-6854-4192-8003-68977a807492","system_id":"levelo_inurba_marseille","lat":43.295713,"lon":5.399639,"is_reserved":false,"is_disabled":false,"rental_uris":{"android":"levelo://app?vid=f8d9dcce-6854-4192-8003-68977a807492","ios":"levelo://app?vid=f8d9dcce-6854-4192-8003-68977a807492"},"vehicle_type_id":"4","last_reported":1702155937,"current_range_meters":8400,"station_id":"ce4bh312rcd13ifvqdj0","pricing_plan_id":"free"},{"bike_id":"6b879eb9-ae97-45eb-ab4b-5438c0a5584c","system_id":"levelo_inurba_marseille","lat":43.283498,"lon":5.380948,"is_reserved":false,"is_disabled":false,"rental_uris":{"android":"levelo://app?vid=6b879eb9-ae97-45eb-ab4b-5438c0a5584c","ios":"levelo://app?vid=6b879eb9-ae97-45eb-ab4b-5438c0a5584c"},"vehicle_type_id":"4","last_reported":1702155937,"current_range_meters":15600,"station_id":"ce4bh412rcd13ifvqdr0","pricing_plan_id":"free"},{"bike_id":"e2e924d7-26df-4736-8ede-4441bcaacb10","system_id":"levelo_inurba_marseille","lat":43.28652,"lon":5.3862,"is_reserved":false,"is_disabled":false,"rental_uris":{"android":"levelo://app?vid=e2e924d7-26df-4736-8ede-4441bcaacb10","ios":"levelo://app?vid=e2e924d7-26df-4736-8ede-4441bcaacb10"},"vehicle_type_id":"4","last_reported":1702155937,"current_range_meters":17600,"station_id":"ce4bh492rcd13ifvqdug","pricing_plan_id":"free"},{"bike_id":"a0fe42ef-f5cf-4f28-aa3a-b8bad3c0fffb","system_id":"levelo_inurba_marseille","lat":43.319179,"lon":5.407725,"is_reserved":false,"is_disabled":false,"rental_uris":{"android":"levelo://app?vid=a0fe42ef-f5cf-4f28-aa3a-b8bad3c0fffb","ios":"levelo://app?vid=a0fe42ef-f5cf-4f28-aa3a-b8bad3c0fffb"},"vehicle_type_id":"4","last_reported":1702155937,"current_range_meters":23600,"station_id":"ce4bhq12rcd13ifvqhig","pricing_plan_id":"free"},{"bike_id":"2e3f5d1b-7227-4fd1-a3be-fcff682e2738","system_id":"levelo_inurba_marseille","lat":43.323464,"lon":5.406297,"is_reserved":false,"is_disabled":false,"rental_uris":{"android":"levelo://app?vid=2e3f5d1b-7227-4fd1-a3be-fcff682e2738","ios":"levelo://app?vid=2e3f5d1b-7227-4fd1-a3be-fcff682e2738"},"vehicle_type_id":"4","last_reported":1702155937,"current_range_meters":18000,"station_id":"ce4bhq92rcd13ifvqhjg","pricing_plan_id":"free"},{"bike_id":"33d78b75-41af-4f7b-ad4a-0b93d22b7176","system_id":"levelo_inurba_marseille","lat":43.323464,"lon":5.406297,"is_reserved":false,"is_disabled":false,"rental_uris":{"android":"levelo://app?vid=33d78b75-41af-4f7b-ad4a-0b93d22b7176","ios":"levelo://app?vid=33d78b75-41af-4f7b-ad4a-0b93d22b7176"},"vehicle_type_id":"4","last_reported":1702155937,"current_range_meters":800,"station_id":"ce4bhq92rcd13ifvqhjg","pricing_plan_id":"free"},{"bike_id":"4da7061c-0a7d-407c-8ed7-5b8d45e64490","system_id":"levelo_inurba_marseille","lat":43.323464,"lon":5.406297,"is_reserved":false,"is_disabled":false,"rental_uris":{"android":"levelo://app?vid=4da7061c-0a7d-407c-8ed7-5b8d45e64490","ios":"levelo://app?vid=4da7061c-0a7d-407c-8ed7-5b8d45e64490"},"vehicle_type_id":"4","last_reported":1702155937,"current_range_meters":23200,"station_id":"ce4bhq92rcd13ifvqhjg","pricing_plan_id":"free"},{"bike_id":"06b3aba6-9d1c-4e37-9a84-95de7cc08875","system_id":"levelo_inurba_marseille","lat":43.323464,"lon":5.406297,"is_reserved":false,"is_disabled":false,"rental_uris":{"android":"levelo://app?vid=06b3aba6-9d1c-4e37-9a84-95de7cc08875","ios":"levelo://app?vid=06b3aba6-9d1c-4e37-9a84-95de7cc08875"},"vehicle_type_id":"4","last_reported":1702155937,"current_range_meters":24800,"station_id":"ce4bhq92rcd13ifvqhjg","pricing_plan_id":"free"},{"bike_id":"963d64c2-1872-4679-b54c-a3eb5c74d6e0","system_id":"levelo_inurba_marseille","lat":43.283494,"lon":5.380945,"is_reserved":false,"is_disabled":false,"rental_uris":{"android":"levelo://app?vid=963d64c2-1872-4679-b54c-a3eb5c74d6e0","ios":"levelo://app?vid=963d64c2-1872-4679-b54c-a3eb5c74d6e0"},"vehicle_type_id":"4","last_reported":1702155937,"current_range_meters":1600,"station_id":"ce4bh412rcd13ifvqdr0","pricing_plan_id":"free"},{"bike_id":"3dd02665-ac1f-4740-853c-66406c9d5031","system_id":"levelo_inurba_marseille","lat":43.283494,"lon":5.380945,"is_reserved":false,"is_disabled":false,"rental_uris":{"android":"levelo://app?vid=3dd02665-ac1f-4740-853c-66406c9d5031","ios":"levelo://app?vid=3dd02665-ac1f-4740-853c-66406c9d5031"},"vehicle_type_id":"4","last_reported":1702155937,"current_range_meters":3200,"station_id":"ce4bh412rcd13ifvqdr0","pricing_plan_id":"free"},{"bike_id":"00642d91-72bd-48e1-b129-5dcf36d33f89","system_id":"levelo_inurba_marseille","lat":43.292724,"lon":5.401131,"is_reserved":false,"is_disabled":false,"rental_uris":{"android":"levelo://app?vid=00642d91-72bd-48e1-b129-5dcf36d33f89","ios":"levelo://app?vid=00642d91-72bd-48e1-b129-5dcf36d33f89"},"vehicle_type_id":"4","last_reported":1702155937,"current_range_meters":28400,"station_id":"ce4bh312rcd13ifvqdk0","pricing_plan_id":"free"},{"bike_id":"9fd8e679-b93e-4949-884e-2f39fba186b9","system_id":"levelo_inurba_marseille","lat":43.290427,"lon":5.3996,"is_reserved":false,"is_disabled":false,"rental_uris":{"android":"levelo://app?vid=9fd8e679-b93e-4949-884e-2f39fba186b9","ios":"levelo://app?vid=9fd8e679-b93e-4949-884e-2f39fba186b9"},"vehicle_type_id":"4","last_reported":1702155937,"current_range_meters":0,"station_id":"ce4bh392rcd13ifvqdm0","pricing_plan_id":"free"},{"bike_id":"f3463030-1327-48af-b3b9-431da8cb7304","system_id":"levelo_inurba_marseille","lat":43.29041,"lon":5.399634,"is_reserved":false,"is_disabled":false,"rental_uris":{"android":"levelo://app?vid=f3463030-1327-48af-b3b9-431da8cb7304","ios":"levelo://app?vid=f3463030-1327-48af-b3b9-431da8cb7304"},"vehicle_type_id":"4","last_reported":1702155937,"current_range_meters":3200,"station_id":"ce4bh392rcd13ifvqdm0","pricing_plan_id":"free"},{"bike_id":"a961a454-7660-4a47-93d4-1e2fc20dd0a1","system_id":"levelo_inurba_marseille","lat":43.290412,"lon":5.399633,"is_reserved":false,"is_disabled":false,"rental_uris":{"android":"levelo://app?vid=a961a454-7660-4a47-93d4-1e2fc20dd0a1","ios":"levelo://app?vid=a961a454-7660-4a47-93d4-1e2fc20dd0a1"},"vehicle_type_id":"4","last_reported":1702155937,"current_range_meters":9600,"station_id":"ce4bh392rcd13ifvqdm0","pricing_plan_id":"free"},{"bike_id":"bbbb4a29-4dac-4a28-bc20-f74ceb75c186","system_id":"levelo_inurba_marseille","lat":43.28112,"lon":5.37837,"is_reserved":false,"is_disabled":false,"rental_uris":{"android":"levelo://app?vid=bbbb4a29-4dac-4a28-bc20-f74ceb75c186","ios":"levelo://app?vid=bbbb4a29-4dac-4a28-bc20-f74ceb75c186"},"vehicle_type_id":"4","last_reported":1702155937,"current_range_meters":0,"station_id":"ce4bha12rcd13ifvqee0","pricing_plan_id":"free"},{"bike_id":"a4ccdd84-0f82-4839-aa97-1ce9daa65d6b","system_id":"levelo_inurba_marseille","lat":43.284462,"lon":5.392121,"is_reserved":false,"is_disabled":false,"rental_uris":{"android":"levelo://app?vid=a4ccdd84-0f82-4839-aa97-1ce9daa65d6b","ios":"levelo://app?vid=a4ccdd84-0f82-4839-aa97-1ce9daa65d6b"},"vehicle_type_id":"4","last_reported":1702155937,"current_range_meters":24800,"station_id":"ce4bhoh2rcd13ifvqh5g","pricing_plan_id":"free"},{"bike_id":"d75295b0-f7f1-43b3-9501-54b8716e603b","system_id":"levelo_inurba_marseille","lat":43.287154,"lon":5.399979,"is_reserved":false,"is_disabled":false,"rental_uris":{"android":"levelo://app?vid=d75295b0-f7f1-43b3-9501-54b8716e603b","ios":"levelo://app?vid=d75295b0-f7f1-43b3-9501-54b8716e603b"},"vehicle_type_id":"4","last_reported":1702155937,"current_range_meters":12800,"station_id":"ce4bho92rcd13ifvqh3g","pricing_plan_id":"free"},{"bike_id":"58f52f1b-f682-43f9-888f-474549184cf8","system_id":"levelo_inurba_marseille","lat":43.32215,"lon":5.41467,"is_reserved":false,"is_disabled":false,"rental_uris":{"android":"levelo://app?vid=58f52f1b-f682-43f9-888f-474549184cf8","ios":"levelo://app?vid=58f52f1b-f682-43f9-888f-474549184cf8"},"vehicle_type_id":"4","last_reported":1702155937,"current_range_meters":16400,"station_id":"","pricing_plan_id":"free"},{"bike_id":"bfd7b56c-a3a1-480e-81cf-a010edc11b83","system_id":"levelo_inurba_marseille","lat":43.279581,"lon":5.387033,"is_reserved":false,"is_disabled":false,"rental_uris":{"android":"levelo://app?vid=bfd7b56c-a3a1-480e-81cf-a010edc11b83","ios":"levelo://app?vid=bfd7b56c-a3a1-480e-81cf-a010edc11b83"},"vehicle_type_id":"4","last_reported":1702155937,"current_range_meters":0,"station_id":"ce4bhg12rcd13ifvqf80","pricing_plan_id":"free"},{"bike_id":"d612b249-7393-4081-8d17-9d961552d660","system_id":"levelo_inurba_marseille","lat":43.320045,"lon":5.415048,"is_reserved":false,"is_disabled":false,"rental_uris":{"android":"levelo://app?vid=d612b249-7393-4081-8d17-9d961552d660","ios":"levelo://app?vid=d612b249-7393-4081-8d17-9d961552d660"},"vehicle_type_id":"4","last_reported":1702155937,"current_range_meters":10400,"station_id":"ce4bhq92rcd13ifvqhkg","pricing_plan_id":"free"},{"bike_id":"a148b3ad-4229-40c7-b578-15b32d72e96b","system_id":"levelo_inurba_marseille","lat":43.32541,"lon":5.41437,"is_reserved":false,"is_disabled":false,"rental_uris":{"android":"levelo://app?vid=a148b3ad-4229-40c7-b578-15b32d72e96b","ios":"levelo://app?vid=a148b3ad-4229-40c7-b578-15b32d72e96b"},"vehicle_type_id":"4","last_reported":1702155937,"current_range_meters":30000,"station_id":"ce4bhq12rcd13ifvqhhg","pricing_plan_id":"free"},{"bike_id":"571f8fa8-4180-43c0-80d0-67446cefd1a6","system_id":"levelo_inurba_marseille","lat":43.280784,"lon":5.396622,"is_reserved":false,"is_disabled":false,"rental_uris":{"android":"levelo://app?vid=571f8fa8-4180-43c0-80d0-67446cefd1a6","ios":"levelo://app?vid=571f8fa8-4180-43c0-80d0-67446cefd1a6"},"vehicle_type_id":"4","last_reported":1702155937,"current_range_meters":10400,"station_id":"ce4bho12rcd13ifvqh2g","pricing_plan_id":"free"},{"bike_id":"4796beb2-3a14-49b4-bf74-72347a2a8caf","system_id":"levelo_inurba_marseille","lat":43.27569,"lon":5.38417,"is_reserved":false,"is_disabled":false,"rental_uris":{"android":"levelo://app?vid=4796beb2-3a14-49b4-bf74-72347a2a8caf","ios":"levelo://app?vid=4796beb2-3a14-49b4-bf74-72347a2a8caf"},"vehicle_type_id":"4","last_reported":1702155937,"current_range_meters":400,"station_id":"ce4bhh92rcd13ifvqfi0","pricing_plan_id":"free"},{"bike_id":"dec087dc-2f88-4bd2-9da7-57b7b745d402","system_id":"levelo_inurba_marseille","lat":43.273613,"lon":5.362705,"is_reserved":false,"is_disabled":false,"rental_uris":{"android":"levelo://app?vid=dec087dc-2f88-4bd2-9da7-57b7b745d402","ios":"levelo://app?vid=dec087dc-2f88-4bd2-9da7-57b7b745d402"},"vehicle_type_id":"4","last_reported":1702155937,"current_range_meters":26400,"station_id":"ce4bhbh2rcd13ifvqeo0","pricing_plan_id":"free"},{"bike_id":"c8edc926-9e8c-400e-a14f-8ed5ab02b110","system_id":"levelo_inurba_marseille","lat":43.336148,"lon":5.410349,"is_reserved":false,"is_disabled":false,"rental_uris":{"android":"levelo://app?vid=c8edc926-9e8c-400e-a14f-8ed5ab02b110","ios":"levelo://app?vid=c8edc926-9e8c-400e-a14f-8ed5ab02b110"},"vehicle_type_id":"4","last_reported":1702155937,"current_range_meters":16800,"station_id":"ce4bhqh2rcd13ifvqhmg","pricing_plan_id":"free"},{"bike_id":"9562edf9-b6f3-422f-a232-155e4d56d083","system_id":"levelo_inurba_marseille","lat":43.279952,"lon":5.400085,"is_reserved":false,"is_disabled":false,"rental_uris":{"android":"levelo://app?vid=9562edf9-b6f3-422f-a232-155e4d56d083","ios":"levelo://app?vid=9562edf9-b6f3-422f-a232-155e4d56d083"},"vehicle_type_id":"4","last_reported":1702155937,"current_range_meters":25200,"station_id":"ce4bho92rcd13ifvqh4g","pricing_plan_id":"free"},{"bike_id":"5dcea534-78fe-476d-9642-e65eac60e17d","system_id":"levelo_inurba_marseille","lat":43.28,"lon":5.40008,"is_reserved":false,"is_disabled":false,"rental_uris":{"android":"levelo://app?vid=5dcea534-78fe-476d-9642-e65eac60e17d","ios":"levelo://app?vid=5dcea534-78fe-476d-9642-e65eac60e17d"},"vehicle_type_id":"4","last_reported":1702155937,"current_range_meters":12800,"station_id":"ce4bho92rcd13ifvqh4g","pricing_plan_id":"free"},{"bike_id":"88e59060-d458-48a8-8abe-8a1913097d92","system_id":"levelo_inurba_marseille","lat":43.31716,"lon":5.42402,"is_reserved":false,"is_disabled":false,"rental_uris":{"android":"levelo://app?vid=88e59060-d458-48a8-8abe-8a1913097d92","ios":"levelo://app?vid=88e59060-d458-48a8-8abe-8a1913097d92"},"vehicle_type_id":"4","last_reported":1702155937,"current_range_meters":23600,"station_id":"ce4bhp92rcd13ifvqhbg","pricing_plan_id":"free"},{"bike_id":"80038031-3601-4c51-b66a-c6c9131d41d1","system_id":"levelo_inurba_marseille","lat":43.310785,"lon":5.424305,"is_reserved":false,"is_disabled":false,"rental_uris":{"android":"levelo://app?vid=80038031-3601-4c51-b66a-c6c9131d41d1","ios":"levelo://app?vid=80038031-3601-4c51-b66a-c6c9131d41d1"},"vehicle_type_id":"4","last_reported":1702155937,"current_range_meters":30400,"station_id":"ce4bhp92rcd13ifvqhag","pricing_plan_id":"free"},{"bike_id":"02791883-a925-42a0-9dd3-b7193f6a574b","system_id":"levelo_inurba_marseille","lat":43.31716,"lon":5.42403,"is_reserved":false,"is_disabled":false,"rental_uris":{"android":"levelo://app?vid=02791883-a925-42a0-9dd3-b7193f6a574b","ios":"levelo://app?vid=02791883-a925-42a0-9dd3-b7193f6a574b"},"vehicle_type_id":"4","last_reported":1702155937,"current_range_meters":29200,"station_id":"ce4bhp92rcd13ifvqhbg","pricing_plan_id":"free"},{"bike_id":"e7bd1e73-4f86-473d-905c-a7b0f3d6ad8a","system_id":"levelo_inurba_marseille","lat":43.31723,"lon":5.42405,"is_reserved":false,"is_disabled":false,"rental_uris":{"android":"levelo://app?vid=e7bd1e73-4f86-473d-905c-a7b0f3d6ad8a","ios":"levelo://app?vid=e7bd1e73-4f86-473d-905c-a7b0f3d6ad8a"},"vehicle_type_id":"4","last_reported":1702155937,"current_range_meters":16000,"station_id":"ce4bhp92rcd13ifvqhbg","pricing_plan_id":"free"},{"bike_id":"48e3df08-57dc-434d-a06c-f6f751cd351f","system_id":"levelo_inurba_marseille","lat":43.310785,"lon":5.424305,"is_reserved":false,"is_disabled":false,"rental_uris":{"android":"levelo://app?vid=48e3df08-57dc-434d-a06c-f6f751cd351f","ios":"levelo://app?vid=48e3df08-57dc-434d-a06c-f6f751cd351f"},"vehicle_type_id":"4","last_reported":1702155937,"current_range_meters":18400,"station_id":"ce4bhp92rcd13ifvqhag","pricing_plan_id":"free"},{"bike_id":"63133364-316e-458e-b234-bbd4926c63fc","system_id":"levelo_inurba_marseille","lat":43.27583,"lon":5.39474,"is_reserved":false,"is_disabled":false,"rental_uris":{"android":"levelo://app?vid=63133364-316e-458e-b234-bbd4926c63fc","ios":"levelo://app?vid=63133364-316e-458e-b234-bbd4926c63fc"},"vehicle_type_id":"4","last_reported":1702155937,"current_range_meters":6000,"station_id":"","pricing_plan_id":"free"},{"bike_id":"93807ea1-c862-4894-a5aa-7cf490505cae","system_id":"levelo_inurba_marseille","lat":43.30418,"lon":5.42541,"is_reserved":false,"is_disabled":false,"rental_uris":{"android":"levelo://app?vid=93807ea1-c862-4894-a5aa-7cf490505cae","ios":"levelo://app?vid=93807ea1-c862-4894-a5aa-7cf490505cae"},"vehicle_type_id":"4","last_reported":1702155937,"current_range_meters":4000,"station_id":"ce4bhoh2rcd13ifvqh6g","pricing_plan_id":"free"},{"bike_id":"8f021145-48f8-459b-aef0-f8921e18b0a0","system_id":"levelo_inurba_marseille","lat":43.27214,"lon":5.3925,"is_reserved":false,"is_disabled":false,"rental_uris":{"android":"levelo://app?vid=8f021145-48f8-459b-aef0-f8921e18b0a0","ios":"levelo://app?vid=8f021145-48f8-459b-aef0-f8921e18b0a0"},"vehicle_type_id":"4","last_reported":1702155937,"current_range_meters":400,"station_id":"","pricing_plan_id":"free"},{"bike_id":"f0ebddec-d6cc-4cea-9205-f0ce292b2962","system_id":"levelo_inurba_marseille","lat":43.278128,"lon":5.407195,"is_reserved":false,"is_disabled":false,"rental_uris":{"android":"levelo://app?vid=f0ebddec-d6cc-4cea-9205-f0ce292b2962","ios":"levelo://app?vid=f0ebddec-d6cc-4cea-9205-f0ce292b2962"},"vehicle_type_id":"4","last_reported":1702155937,"current_range_meters":15200,"station_id":"ce4bhnh2rcd13ifvqgtg","pricing_plan_id":"free"},{"bike_id":"2c0ffe61-5c8b-42fc-9b3d-3c16301ffac5","system_id":"levelo_inurba_marseille","lat":43.278128,"lon":5.407195,"is_reserved":false,"is_disabled":false,"rental_uris":{"android":"levelo://app?vid=2c0ffe61-5c8b-42fc-9b3d-3c16301ffac5","ios":"levelo://app?vid=2c0ffe61-5c8b-42fc-9b3d-3c16301ffac5"},"vehicle_type_id":"4","last_reported":1702155937,"current_range_meters":8000,"station_id":"ce4bhnh2rcd13ifvqgtg","pricing_plan_id":"free"},{"bike_id":"12879171-48c9-42be-9387-e4a8c98ab283","system_id":"levelo_inurba_marseille","lat":43.278128,"lon":5.407195,"is_reserved":false,"is_disabled":false,"rental_uris":{"android":"levelo://app?vid=12879171-48c9-42be-9387-e4a8c98ab283","ios":"levelo://app?vid=12879171-48c9-42be-9387-e4a8c98ab283"},"vehicle_type_id":"4","last_reported":1702155937,"current_range_meters":7200,"station_id":"ce4bhnh2rcd13ifvqgtg","pricing_plan_id":"free"},{"bike_id":"7349fdae-43a7-4d69-b164-2d1940a828f5","system_id":"levelo_inurba_marseille","lat":43.269467,"lon":5.386439,"is_reserved":false,"is_disabled":false,"rental_uris":{"android":"levelo://app?vid=7349fdae-43a7-4d69-b164-2d1940a828f5","ios":"levelo://app?vid=7349fdae-43a7-4d69-b164-2d1940a828f5"},"vehicle_type_id":"4","last_reported":1702155937,"current_range_meters":28800,"station_id":"ce4bhh92rcd13ifvqfh0","pricing_plan_id":"free"},{"bike_id":"78ca59f3-eeae-40f3-b122-c4dcf2f093be","system_id":"levelo_inurba_marseille","lat":43.28001,"lon":5.41662,"is_reserved":false,"is_disabled":false,"rental_uris":{"android":"levelo://app?vid=78ca59f3-eeae-40f3-b122-c4dcf2f093be","ios":"levelo://app?vid=78ca59f3-eeae-40f3-b122-c4dcf2f093be"},"vehicle_type_id":"4","last_reported":1702155937,"current_range_meters":15600,"station_id":"ce4bho12rcd13ifvqh1g","pricing_plan_id":"free"},{"bike_id":"db1ac7a5-7291-43cb-a37d-23d01d2ef62d","system_id":"levelo_inurba_marseille","lat":43.279963,"lon":5.416645,"is_reserved":false,"is_disabled":false,"rental_uris":{"android":"levelo://app?vid=db1ac7a5-7291-43cb-a37d-23d01d2ef62d","ios":"levelo://app?vid=db1ac7a5-7291-43cb-a37d-23d01d2ef62d"},"vehicle_type_id":"4","last_reported":1702155937,"current_range_meters":11600,"station_id":"ce4bho12rcd13ifvqh1g","pricing_plan_id":"free"},{"bike_id":"d67c54fa-e754-430e-95f9-5b6f7ee47777","system_id":"levelo_inurba_marseille","lat":43.27992,"lon":5.4166,"is_reserved":false,"is_disabled":false,"rental_uris":{"android":"levelo://app?vid=d67c54fa-e754-430e-95f9-5b6f7ee47777","ios":"levelo://app?vid=d67c54fa-e754-430e-95f9-5b6f7ee47777"},"vehicle_type_id":"4","last_reported":1702155937,"current_range_meters":11200,"station_id":"ce4bho12rcd13ifvqh1g","pricing_plan_id":"free"},{"bike_id":"19cc942f-ece9-40d3-8083-cccfba7fe5b1","system_id":"levelo_inurba_marseille","lat":43.279881,"lon":5.416579,"is_reserved":false,"is_disabled":false,"rental_uris":{"android":"levelo://app?vid=19cc942f-ece9-40d3-8083-cccfba7fe5b1","ios":"levelo://app?vid=19cc942f-ece9-40d3-8083-cccfba7fe5b1"},"vehicle_type_id":"4","last_reported":1702155937,"current_range_meters":2000,"station_id":"ce4bho12rcd13ifvqh1g","pricing_plan_id":"free"},{"bike_id":"efce3206-6d32-4826-b5d6-39f58e58c1ba","system_id":"levelo_inurba_marseille","lat":43.26937,"lon":5.40257,"is_reserved":false,"is_disabled":false,"rental_uris":{"android":"levelo://app?vid=efce3206-6d32-4826-b5d6-39f58e58c1ba","ios":"levelo://app?vid=efce3206-6d32-4826-b5d6-39f58e58c1ba"},"vehicle_type_id":"4","last_reported":1702155937,"current_range_meters":16000,"station_id":"cjm6bp8fraef2m0cb0m0","pricing_plan_id":"free"},{"bike_id":"4c31e607-69cd-4d90-9886-5068a0b6c89e","system_id":"levelo_inurba_marseille","lat":43.267959,"lon":5.402685,"is_reserved":false,"is_disabled":false,"rental_uris":{"android":"levelo://app?vid=4c31e607-69cd-4d90-9886-5068a0b6c89e","ios":"levelo://app?vid=4c31e607-69cd-4d90-9886-5068a0b6c89e"},"vehicle_type_id":"4","last_reported":1702155937,"current_range_meters":23200,"station_id":"ce501612rcd8frsf0b60","pricing_plan_id":"free"},{"bike_id":"d229f6b7-ab4e-4beb-bdb0-9f19879f8114","system_id":"levelo_inurba_marseille","lat":43.261782,"lon":5.374515,"is_reserved":false,"is_disabled":false,"rental_uris":{"android":"levelo://app?vid=d229f6b7-ab4e-4beb-bdb0-9f19879f8114","ios":"levelo://app?vid=d229f6b7-ab4e-4beb-bdb0-9f19879f8114"},"vehicle_type_id":"4","last_reported":1702155937,"current_range_meters":0,"station_id":"ce4bhgp2rcd13ifvqfc0","pricing_plan_id":"free"},{"bike_id":"dbacbb4a-9e99-4a7a-9713-43dac221ae4c","system_id":"levelo_inurba_marseille","lat":43.317104,"lon":5.436818,"is_reserved":false,"is_disabled":false,"rental_uris":{"android":"levelo://app?vid=dbacbb4a-9e99-4a7a-9713-43dac221ae4c","ios":"levelo://app?vid=dbacbb4a-9e99-4a7a-9713-43dac221ae4c"},"vehicle_type_id":"4","last_reported":1702155937,"current_range_meters":28800,"station_id":"ce4bhp92rcd13ifvqhcg","pricing_plan_id":"free"},{"bike_id":"e2a5fdfb-8206-4159-81d6-1ab96fe4d7e7","system_id":"levelo_inurba_marseille","lat":43.262012,"lon":5.379307,"is_reserved":false,"is_disabled":false,"rental_uris":{"android":"levelo://app?vid=e2a5fdfb-8206-4159-81d6-1ab96fe4d7e7","ios":"levelo://app?vid=e2a5fdfb-8206-4159-81d6-1ab96fe4d7e7"},"vehicle_type_id":"4","last_reported":1702155937,"current_range_meters":26000,"station_id":"ce4bhjp2rcd13ifvqg90","pricing_plan_id":"free"},{"bike_id":"d14fddf3-3638-41ff-a2e7-5c41cc7e7327","system_id":"levelo_inurba_marseille","lat":43.271368,"lon":5.40928,"is_reserved":false,"is_disabled":false,"rental_uris":{"android":"levelo://app?vid=d14fddf3-3638-41ff-a2e7-5c41cc7e7327","ios":"levelo://app?vid=d14fddf3-3638-41ff-a2e7-5c41cc7e7327"},"vehicle_type_id":"4","last_reported":1702155937,"current_range_meters":15600,"station_id":"ce4bhl12rcd13ifvqgf0","pricing_plan_id":"free"},{"bike_id":"fbe96d84-5f9d-4a41-91f0-499fd5a65183","system_id":"levelo_inurba_marseille","lat":43.267959,"lon":5.402687,"is_reserved":false,"is_disabled":false,"rental_uris":{"android":"levelo://app?vid=fbe96d84-5f9d-4a41-91f0-499fd5a65183","ios":"levelo://app?vid=fbe96d84-5f9d-4a41-91f0-499fd5a65183"},"vehicle_type_id":"4","last_reported":1702155937,"current_range_meters":22800,"station_id":"ce501612rcd8frsf0b60","pricing_plan_id":"free"},{"bike_id":"c4a32d8b-8a0b-4189-aa9f-2983a413dfe8","system_id":"levelo_inurba_marseille","lat":43.299,"lon":5.43662,"is_reserved":false,"is_disabled":false,"rental_uris":{"android":"levelo://app?vid=c4a32d8b-8a0b-4189-aa9f-2983a413dfe8","ios":"levelo://app?vid=c4a32d8b-8a0b-4189-aa9f-2983a413dfe8"},"vehicle_type_id":"4","last_reported":1702155937,"current_range_meters":29200,"station_id":"ce4bhpp2rcd13ifvqhfg","pricing_plan_id":"free"},{"bike_id":"83e2018e-7127-4415-8bbf-2e347a9c6750","system_id":"levelo_inurba_marseille","lat":43.29894,"lon":5.43662,"is_reserved":false,"is_disabled":false,"rental_uris":{"android":"levelo://app?vid=83e2018e-7127-4415-8bbf-2e347a9c6750","ios":"levelo://app?vid=83e2018e-7127-4415-8bbf-2e347a9c6750"},"vehicle_type_id":"4","last_reported":1702155937,"current_range_meters":28400,"station_id":"ce4bhpp2rcd13ifvqhfg","pricing_plan_id":"free"},{"bike_id":"4f68f183-a711-4386-a731-e8ea8e2f115e","system_id":"levelo_inurba_marseille","lat":43.298768,"lon":5.43643,"is_reserved":false,"is_disabled":false,"rental_uris":{"android":"levelo://app?vid=4f68f183-a711-4386-a731-e8ea8e2f115e","ios":"levelo://app?vid=4f68f183-a711-4386-a731-e8ea8e2f115e"},"vehicle_type_id":"4","last_reported":1702155937,"current_range_meters":25600,"station_id":"ce4bhpp2rcd13ifvqhfg","pricing_plan_id":"free"},{"bike_id":"70c52fa1-91be-4fbd-9217-7a0c668f9310","system_id":"levelo_inurba_marseille","lat":43.29899,"lon":5.43665,"is_reserved":false,"is_disabled":false,"rental_uris":{"android":"levelo://app?vid=70c52fa1-91be-4fbd-9217-7a0c668f9310","ios":"levelo://app?vid=70c52fa1-91be-4fbd-9217-7a0c668f9310"},"vehicle_type_id":"4","last_reported":1702155937,"current_range_meters":24000,"station_id":"ce4bhpp2rcd13ifvqhfg","pricing_plan_id":"free"},{"bike_id":"5f2d3882-2773-4d5c-828c-4c3c96bb97f7","system_id":"levelo_inurba_marseille","lat":43.298768,"lon":5.43643,"is_reserved":false,"is_disabled":false,"rental_uris":{"android":"levelo://app?vid=5f2d3882-2773-4d5c-828c-4c3c96bb97f7","ios":"levelo://app?vid=5f2d3882-2773-4d5c-828c-4c3c96bb97f7"},"vehicle_type_id":"4","last_reported":1702155937,"current_range_meters":30000,"station_id":"ce4bhpp2rcd13ifvqhfg","pricing_plan_id":"free"},{"bike_id":"6b17b896-99f2-456b-929e-df3811eeb274","system_id":"levelo_inurba_marseille","lat":43.298768,"lon":5.43643,"is_reserved":false,"is_disabled":false,"rental_uris":{"android":"levelo://app?vid=6b17b896-99f2-456b-929e-df3811eeb274","ios":"levelo://app?vid=6b17b896-99f2-456b-929e-df3811eeb274"},"vehicle_type_id":"4","last_reported":1702155937,"current_range_meters":28400,"station_id":"ce4bhpp2rcd13ifvqhfg","pricing_plan_id":"free"},{"bike_id":"526e7f56-0e21-4bd0-bc51-3dc5e827ee1d","system_id":"levelo_inurba_marseille","lat":43.299,"lon":5.43671,"is_reserved":false,"is_disabled":false,"rental_uris":{"android":"levelo://app?vid=526e7f56-0e21-4bd0-bc51-3dc5e827ee1d","ios":"levelo://app?vid=526e7f56-0e21-4bd0-bc51-3dc5e827ee1d"},"vehicle_type_id":"4","last_reported":1702155937,"current_range_meters":24800,"station_id":"ce4bhpp2rcd13ifvqhfg","pricing_plan_id":"free"},{"bike_id":"669c219c-f7ff-42be-b6ce-8c1294f12674","system_id":"levelo_inurba_marseille","lat":43.281548,"lon":5.42643,"is_reserved":false,"is_disabled":false,"rental_uris":{"android":"levelo://app?vid=669c219c-f7ff-42be-b6ce-8c1294f12674","ios":"levelo://app?vid=669c219c-f7ff-42be-b6ce-8c1294f12674"},"vehicle_type_id":"4","last_reported":1702155937,"current_range_meters":26400,"station_id":"ce4bhnh2rcd13ifvqgug","pricing_plan_id":"free"},{"bike_id":"ae2ee4ec-e0be-4650-a25d-ad306c6973d5","system_id":"levelo_inurba_marseille","lat":43.281548,"lon":5.42643,"is_reserved":false,"is_disabled":false,"rental_uris":{"android":"levelo://app?vid=ae2ee4ec-e0be-4650-a25d-ad306c6973d5","ios":"levelo://app?vid=ae2ee4ec-e0be-4650-a25d-ad306c6973d5"},"vehicle_type_id":"4","last_reported":1702155937,"current_range_meters":19600,"station_id":"ce4bhnh2rcd13ifvqgug","pricing_plan_id":"free"},{"bike_id":"ced98caa-8305-48e5-ae90-b812f3200f31","system_id":"levelo_inurba_marseille","lat":43.281548,"lon":5.42643,"is_reserved":false,"is_disabled":false,"rental_uris":{"android":"levelo://app?vid=ced98caa-8305-48e5-ae90-b812f3200f31","ios":"levelo://app?vid=ced98caa-8305-48e5-ae90-b812f3200f31"},"vehicle_type_id":"4","last_reported":1702155937,"current_range_meters":25200,"station_id":"ce4bhnh2rcd13ifvqgug","pricing_plan_id":"free"},{"bike_id":"b9063a33-13b5-4cca-826c-3f51be03f8ec","system_id":"levelo_inurba_marseille","lat":43.281548,"lon":5.42643,"is_reserved":false,"is_disabled":false,"rental_uris":{"android":"levelo://app?vid=b9063a33-13b5-4cca-826c-3f51be03f8ec","ios":"levelo://app?vid=b9063a33-13b5-4cca-826c-3f51be03f8ec"},"vehicle_type_id":"4","last_reported":1702155937,"current_range_meters":31200,"station_id":"ce4bhnh2rcd13ifvqgug","pricing_plan_id":"free"},{"bike_id":"c03e7c65-94ee-4f51-bb31-7322ab7baa32","system_id":"levelo_inurba_marseille","lat":43.281548,"lon":5.42643,"is_reserved":false,"is_disabled":false,"rental_uris":{"android":"levelo://app?vid=c03e7c65-94ee-4f51-bb31-7322ab7baa32","ios":"levelo://app?vid=c03e7c65-94ee-4f51-bb31-7322ab7baa32"},"vehicle_type_id":"4","last_reported":1702155937,"current_range_meters":0,"station_id":"ce4bhnh2rcd13ifvqgug","pricing_plan_id":"free"},{"bike_id":"5525a139-c8f9-4163-ad42-51992063b245","system_id":"levelo_inurba_marseille","lat":43.281548,"lon":5.42643,"is_reserved":false,"is_disabled":false,"rental_uris":{"android":"levelo://app?vid=5525a139-c8f9-4163-ad42-51992063b245","ios":"levelo://app?vid=5525a139-c8f9-4163-ad42-51992063b245"},"vehicle_type_id":"4","last_reported":1702155937,"current_range_meters":22800,"station_id":"ce4bhnh2rcd13ifvqgug","pricing_plan_id":"free"},{"bike_id":"971d63c2-83dd-41d1-be29-18106b6fda3e","system_id":"levelo_inurba_marseille","lat":43.281548,"lon":5.42643,"is_reserved":false,"is_disabled":false,"rental_uris":{"android":"levelo://app?vid=971d63c2-83dd-41d1-be29-18106b6fda3e","ios":"levelo://app?vid=971d63c2-83dd-41d1-be29-18106b6fda3e"},"vehicle_type_id":"4","last_reported":1702155937,"current_range_meters":5600,"station_id":"ce4bhnh2rcd13ifvqgug","pricing_plan_id":"free"},{"bike_id":"8381b6c0-a970-418d-b394-9f8eb4bf2cb5","system_id":"levelo_inurba_marseille","lat":43.281548,"lon":5.42643,"is_reserved":false,"is_disabled":false,"rental_uris":{"android":"levelo://app?vid=8381b6c0-a970-418d-b394-9f8eb4bf2cb5","ios":"levelo://app?vid=8381b6c0-a970-418d-b394-9f8eb4bf2cb5"},"vehicle_type_id":"4","last_reported":1702155937,"current_range_meters":14400,"station_id":"ce4bhnh2rcd13ifvqgug","pricing_plan_id":"free"},{"bike_id":"139a27c7-f3ae-47e4-b585-f0759b6ba5b6","system_id":"levelo_inurba_marseille","lat":43.281548,"lon":5.42643,"is_reserved":false,"is_disabled":false,"rental_uris":{"android":"levelo://app?vid=139a27c7-f3ae-47e4-b585-f0759b6ba5b6","ios":"levelo://app?vid=139a27c7-f3ae-47e4-b585-f0759b6ba5b6"},"vehicle_type_id":"4","last_reported":1702155937,"current_range_meters":22000,"station_id":"ce4bhnh2rcd13ifvqgug","pricing_plan_id":"free"},{"bike_id":"4b961cec-d7ea-47bd-8b69-193b02ff897c","system_id":"levelo_inurba_marseille","lat":43.2607,"lon":5.393983,"is_reserved":false,"is_disabled":false,"rental_uris":{"android":"levelo://app?vid=4b961cec-d7ea-47bd-8b69-193b02ff897c","ios":"levelo://app?vid=4b961cec-d7ea-47bd-8b69-193b02ff897c"},"vehicle_type_id":"4","last_reported":1702155937,"current_range_meters":24400,"station_id":"ce4bhh92rcd13ifvqfj0","pricing_plan_id":"free"},{"bike_id":"6a285a92-a82b-4ae9-b162-6bd6726e1bb9","system_id":"levelo_inurba_marseille","lat":43.258224,"lon":5.394369,"is_reserved":false,"is_disabled":false,"rental_uris":{"android":"levelo://app?vid=6a285a92-a82b-4ae9-b162-6bd6726e1bb9","ios":"levelo://app?vid=6a285a92-a82b-4ae9-b162-6bd6726e1bb9"},"vehicle_type_id":"4","last_reported":1702155937,"current_range_meters":18800,"station_id":"ce4bhip2rcd13ifvqft0","pricing_plan_id":"free"},{"bike_id":"528c2ac3-85f0-4e8d-a184-f9e30b0fad8c","system_id":"levelo_inurba_marseille","lat":43.270721,"lon":5.422764,"is_reserved":false,"is_disabled":false,"rental_uris":{"android":"levelo://app?vid=528c2ac3-85f0-4e8d-a184-f9e30b0fad8c","ios":"levelo://app?vid=528c2ac3-85f0-4e8d-a184-f9e30b0fad8c"},"vehicle_type_id":"4","last_reported":1702155937,"current_range_meters":15600,"station_id":"ce4bhk92rcd13ifvqgb0","pricing_plan_id":"free"},{"bike_id":"3fc78b79-4751-46a1-8cd1-dca3d861f0a9","system_id":"levelo_inurba_marseille","lat":43.258658,"lon":5.398935,"is_reserved":false,"is_disabled":false,"rental_uris":{"android":"levelo://app?vid=3fc78b79-4751-46a1-8cd1-dca3d861f0a9","ios":"levelo://app?vid=3fc78b79-4751-46a1-8cd1-dca3d861f0a9"},"vehicle_type_id":"4","last_reported":1702155937,"current_range_meters":13200,"station_id":"ce4bhl92rcd13ifvqghg","pricing_plan_id":"free"},{"bike_id":"d7389dfc-e0b8-468d-9cf6-2db040fd468b","system_id":"levelo_inurba_marseille","lat":43.258658,"lon":5.398935,"is_reserved":false,"is_disabled":false,"rental_uris":{"android":"levelo://app?vid=d7389dfc-e0b8-468d-9cf6-2db040fd468b","ios":"levelo://app?vid=d7389dfc-e0b8-468d-9cf6-2db040fd468b"},"vehicle_type_id":"4","last_reported":1702155937,"current_range_meters":24400,"station_id":"ce4bhl92rcd13ifvqghg","pricing_plan_id":"free"},{"bike_id":"20bea214-8338-4f2b-9d90-3f0ed328332e","system_id":"levelo_inurba_marseille","lat":43.2479,"lon":5.374457,"is_reserved":false,"is_disabled":false,"rental_uris":{"android":"levelo://app?vid=20bea214-8338-4f2b-9d90-3f0ed328332e","ios":"levelo://app?vid=20bea214-8338-4f2b-9d90-3f0ed328332e"},"vehicle_type_id":"4","last_reported":1702155937,"current_range_meters":26800,"station_id":"ce4bhgh2rcd13ifvqfb0","pricing_plan_id":"free"},{"bike_id":"d58975d0-08a4-4876-87b2-8eca361b8931","system_id":"levelo_inurba_marseille","lat":43.24693,"lon":5.382096,"is_reserved":false,"is_disabled":false,"rental_uris":{"android":"levelo://app?vid=d58975d0-08a4-4876-87b2-8eca361b8931","ios":"levelo://app?vid=d58975d0-08a4-4876-87b2-8eca361b8931"},"vehicle_type_id":"4","last_reported":1702155937,"current_range_meters":24400,"station_id":"ce4bhih2rcd13ifvqfr0","pricing_plan_id":"free"},{"bike_id":"cd9dcc01-2d69-4d9d-9a7f-86875f3c46c0","system_id":"levelo_inurba_marseille","lat":43.25117,"lon":5.40327,"is_reserved":false,"is_disabled":false,"rental_uris":{"android":"levelo://app?vid=cd9dcc01-2d69-4d9d-9a7f-86875f3c46c0","ios":"levelo://app?vid=cd9dcc01-2d69-4d9d-9a7f-86875f3c46c0"},"vehicle_type_id":"4","last_reported":1702155937,"current_range_meters":13600,"station_id":"ce4bhlh2rcd13ifvqgig","pricing_plan_id":"free"},{"bike_id":"6ffa404c-bd43-4ef5-aa2c-7350849e4cbf","system_id":"levelo_inurba_marseille","lat":43.246467,"lon":5.388984,"is_reserved":false,"is_disabled":false,"rental_uris":{"android":"levelo://app?vid=6ffa404c-bd43-4ef5-aa2c-7350849e4cbf","ios":"levelo://app?vid=6ffa404c-bd43-4ef5-aa2c-7350849e4cbf"},"vehicle_type_id":"4","last_reported":1702155937,"current_range_meters":28400,"station_id":"ce4bhg12rcd13ifvqf60","pricing_plan_id":"free"},{"bike_id":"f15d46ce-c216-47ff-8010-3264154873a5","system_id":"levelo_inurba_marseille","lat":43.243884,"lon":5.370736,"is_reserved":false,"is_disabled":false,"rental_uris":{"android":"levelo://app?vid=f15d46ce-c216-47ff-8010-3264154873a5","ios":"levelo://app?vid=f15d46ce-c216-47ff-8010-3264154873a5"},"vehicle_type_id":"4","last_reported":1702155937,"current_range_meters":26800,"station_id":"ce4bhhh2rcd13ifvqfk0","pricing_plan_id":"free"},{"bike_id":"296593d5-2bac-4253-9b78-8f93e90a4c1b","system_id":"levelo_inurba_marseille","lat":43.243884,"lon":5.370736,"is_reserved":false,"is_disabled":false,"rental_uris":{"android":"levelo://app?vid=296593d5-2bac-4253-9b78-8f93e90a4c1b","ios":"levelo://app?vid=296593d5-2bac-4253-9b78-8f93e90a4c1b"},"vehicle_type_id":"4","last_reported":1702155937,"current_range_meters":19600,"station_id":"ce4bhhh2rcd13ifvqfk0","pricing_plan_id":"free"},{"bike_id":"87a16ec5-7c7f-45a8-8338-8249e528ce08","system_id":"levelo_inurba_marseille","lat":43.245581,"lon":5.395069,"is_reserved":false,"is_disabled":false,"rental_uris":{"android":"levelo://app?vid=87a16ec5-7c7f-45a8-8338-8249e528ce08","ios":"levelo://app?vid=87a16ec5-7c7f-45a8-8338-8249e528ce08"},"vehicle_type_id":"4","last_reported":1702155937,"current_range_meters":17200,"station_id":"ce4bhlp2rcd13ifvqgjg","pricing_plan_id":"free"},{"bike_id":"ccc904d0-ec17-4c75-aba3-8acab7bda7c3","system_id":"levelo_inurba_marseille","lat":43.240623,"lon":5.377642,"is_reserved":false,"is_disabled":false,"rental_uris":{"android":"levelo://app?vid=ccc904d0-ec17-4c75-aba3-8acab7bda7c3","ios":"levelo://app?vid=ccc904d0-ec17-4c75-aba3-8acab7bda7c3"},"vehicle_type_id":"4","last_reported":1702155937,"current_range_meters":2400,"station_id":"ce4bhnp2rcd13ifvqgvg","pricing_plan_id":"free"},{"bike_id":"81b4e35a-2d12-4b93-80e8-d3f19ca86c64","system_id":"levelo_inurba_marseille","lat":43.240623,"lon":5.377642,"is_reserved":false,"is_disabled":false,"rental_uris":{"android":"levelo://app?vid=81b4e35a-2d12-4b93-80e8-d3f19ca86c64","ios":"levelo://app?vid=81b4e35a-2d12-4b93-80e8-d3f19ca86c64"},"vehicle_type_id":"4","last_reported":1702155937,"current_range_meters":0,"station_id":"ce4bhnp2rcd13ifvqgvg","pricing_plan_id":"free"},{"bike_id":"2580262e-1e7c-49c0-8d7a-29f401d9ac6f","system_id":"levelo_inurba_marseille","lat":43.240623,"lon":5.377642,"is_reserved":false,"is_disabled":false,"rental_uris":{"android":"levelo://app?vid=2580262e-1e7c-49c0-8d7a-29f401d9ac6f","ios":"levelo://app?vid=2580262e-1e7c-49c0-8d7a-29f401d9ac6f"},"vehicle_type_id":"4","last_reported":1702155937,"current_range_meters":26800,"station_id":"ce4bhnp2rcd13ifvqgvg","pricing_plan_id":"free"},{"bike_id":"bd83e60a-c0a9-42d0-9228-56613594b85e","system_id":"levelo_inurba_marseille","lat":43.240623,"lon":5.377642,"is_reserved":false,"is_disabled":false,"rental_uris":{"android":"levelo://app?vid=bd83e60a-c0a9-42d0-9228-56613594b85e","ios":"levelo://app?vid=bd83e60a-c0a9-42d0-9228-56613594b85e"},"vehicle_type_id":"4","last_reported":1702155937,"current_range_meters":26800,"station_id":"ce4bhnp2rcd13ifvqgvg","pricing_plan_id":"free"},{"bike_id":"6de0a663-b7a3-4deb-ae6b-36fda66a9ac4","system_id":"levelo_inurba_marseille","lat":43.240623,"lon":5.377642,"is_reserved":false,"is_disabled":false,"rental_uris":{"android":"levelo://app?vid=6de0a663-b7a3-4deb-ae6b-36fda66a9ac4","ios":"levelo://app?vid=6de0a663-b7a3-4deb-ae6b-36fda66a9ac4"},"vehicle_type_id":"4","last_reported":1702155937,"current_range_meters":18400,"station_id":"ce4bhnp2rcd13ifvqgvg","pricing_plan_id":"free"},{"bike_id":"dca6d162-e5a2-4d99-89a0-bf726dda2dbf","system_id":"levelo_inurba_marseille","lat":43.239721,"lon":5.366204,"is_reserved":false,"is_disabled":false,"rental_uris":{"android":"levelo://app?vid=dca6d162-e5a2-4d99-89a0-bf726dda2dbf","ios":"levelo://app?vid=dca6d162-e5a2-4d99-89a0-bf726dda2dbf"},"vehicle_type_id":"4","last_reported":1702155937,"current_range_meters":4800,"station_id":"ce4bhi12rcd13ifvqfp0","pricing_plan_id":"free"},{"bike_id":"acd7f746-1a4c-47d2-bf3f-9de41036d325","system_id":"levelo_inurba_marseille","lat":43.23972,"lon":5.36626,"is_reserved":false,"is_disabled":false,"rental_uris":{"android":"levelo://app?vid=acd7f746-1a4c-47d2-bf3f-9de41036d325","ios":"levelo://app?vid=acd7f746-1a4c-47d2-bf3f-9de41036d325"},"vehicle_type_id":"4","last_reported":1702155937,"current_range_meters":13600,"station_id":"ce4bhi12rcd13ifvqfp0","pricing_plan_id":"free"},{"bike_id":"6ee27b94-91ff-4319-8004-5372243ff166","system_id":"levelo_inurba_marseille","lat":43.23971,"lon":5.36627,"is_reserved":false,"is_disabled":false,"rental_uris":{"android":"levelo://app?vid=6ee27b94-91ff-4319-8004-5372243ff166","ios":"levelo://app?vid=6ee27b94-91ff-4319-8004-5372243ff166"},"vehicle_type_id":"4","last_reported":1702155937,"current_range_meters":4800,"station_id":"ce4bhi12rcd13ifvqfp0","pricing_plan_id":"free"},{"bike_id":"b17e00c2-bf59-4ac0-bf9d-4e8ada93c9ba","system_id":"levelo_inurba_marseille","lat":43.241782,"lon":5.397261,"is_reserved":false,"is_disabled":false,"rental_uris":{"android":"levelo://app?vid=b17e00c2-bf59-4ac0-bf9d-4e8ada93c9ba","ios":"levelo://app?vid=b17e00c2-bf59-4ac0-bf9d-4e8ada93c9ba"},"vehicle_type_id":"4","last_reported":1702155937,"current_range_meters":8800,"station_id":"ce4bhn12rcd13ifvqgpg","pricing_plan_id":"free"},{"bike_id":"a8c501f0-1f0c-4126-b8d3-0e787022ce6a","system_id":"levelo_inurba_marseille","lat":43.231919,"lon":5.355532,"is_reserved":false,"is_disabled":false,"rental_uris":{"android":"levelo://app?vid=a8c501f0-1f0c-4126-b8d3-0e787022ce6a","ios":"levelo://app?vid=a8c501f0-1f0c-4126-b8d3-0e787022ce6a"},"vehicle_type_id":"4","last_reported":1702155937,"current_range_meters":30000,"station_id":"ce4bhu92rcd13ifvqi70","pricing_plan_id":"free"},{"bike_id":"529449ae-9bd0-4a42-b2ad-b913b1c62c25","system_id":"levelo_inurba_marseille","lat":43.231919,"lon":5.355532,"is_reserved":false,"is_disabled":false,"rental_uris":{"android":"levelo://app?vid=529449ae-9bd0-4a42-b2ad-b913b1c62c25","ios":"levelo://app?vid=529449ae-9bd0-4a42-b2ad-b913b1c62c25"},"vehicle_type_id":"4","last_reported":1702155937,"current_range_meters":30400,"station_id":"ce4bhu92rcd13ifvqi70","pricing_plan_id":"free"},{"bike_id":"db837267-81e3-439e-98cb-2684c730942d","system_id":"levelo_inurba_marseille","lat":43.231929,"lon":5.355426,"is_reserved":false,"is_disabled":false,"rental_uris":{"android":"levelo://app?vid=db837267-81e3-439e-98cb-2684c730942d","ios":"levelo://app?vid=db837267-81e3-439e-98cb-2684c730942d"},"vehicle_type_id":"4","last_reported":1702155937,"current_range_meters":19200,"station_id":"ce4bhu92rcd13ifvqi70","pricing_plan_id":"free"}]}}