{"last_updated":1730502514,"ttl":60,"version":"2.2","data":{"bikes":[{"bike_id":"0c6602e3-5aca-43f3-be0a-a038da8eb8c2","system_id":"levelo_inurba_marseille","lat":43.241906,"lon":5.397527,"is_reserved":false,"is_disabled":false,"rental_uris":{"android":"levelo://app?vid=0c6602e3-5aca-43f3-be0a-a038da8eb8c2","ios":"levelo://app?vid=0c6602e3-5aca-43f3-be0a-a038da8eb8c2"},"vehicle_type_id":"4","last_reported":1730502514,"current_range_meters":8000,"station_id":"ce4bhn12rcd13ifvqgpg","pricing_plan_id":"cebpf4jnsgd1na2vs0mg"},{"bike_id":"1100e5a9-b924-4d01-8a4c-246bee3d586b","system_id":"levelo_inurba_marseille","lat":43.24695,"lon":5.41523,"is_reserved":false,"is_disabled":false,"rental_uris":{"android":"levelo://app?vid=1100e5a9-b924-4d01-8a4c-246bee3d586b","ios":"levelo://app?vid=1100e5a9-b924-4d01-8a4c-246bee3d586b"},"vehicle_type_id":"4","last_reported":1730502514,"current_range_meters":4400,"station_id":"","pricing_plan_id":"cebpf4jnsgd1na2vs0mg"},{"bike_id":"7f47fea8-3b5e-437a-a31e-f4194bf70b17","system_id":"levelo_inurba_marseille","lat":43.24662,"lon":5.38152,"is_reserved":false,"is_disabled":false,"rental_uris":{"android":"levelo://app?vid=7f47fea8-3b5e-437a-a31e-f4194bf70b17","ios":"levelo://app?vid=7f47fea8-3b5e-437a-a31e-f4194bf70b17"},"vehicle_type_id":"4","last_reported":1730502514,"current_range_meters":32400,"station_id":"ce4bhih2rcd13ifvqfr0","pricing_plan_id":"cebpf4jnsgd1na2vs0mg"},{"bike_id":"fb29093b-f2cf-4386-a4f0-84965008c68b","system_id":"levelo_inurba_marseille","lat":43.31126,"lon":5.37771,"is_reserved":false,"is_disabled":false,"rental_uris":{"android":"levelo://app?vid=fb29093b-f2cf-4386-a4f0-84965008c68b","ios":"levelo://app?vid=fb29093b-f2cf-4386-a4f0-84965008c68b"},"vehicle_type_id":"4","last_reported":1730502514,"current_range_meters":24400,"station_id":"ce4bgt92rcd13ifvqcg0","pricing_plan_id":"cebpf4jnsgd1na2vs0mg"},{"bike_id":"101b407e-4de3-4012-ac06-655c8dcb2097","system_id":"levelo_inurba_marseille","lat":43.27937,"lon":5.41051,"is_reserved":false,"is_disabled":false,"rental_uris":{"android":"levelo://app?vid=101b407e-4de3-4012-ac06-655c8dcb2097","ios":"levelo://app?vid=101b407e-4de3-4012-ac06-655c8dcb2097"},"vehicle_type_id":"4","last_reported":1730502514,"current_range_meters":35600,"station_id":"ce4bhnp2rcd13ifvqh0g","pricing_plan_id":"cebpf4jnsgd1na2vs0mg"},{"bike_id":"53361ed5-44e3-4331-b1db-d839ce43605d","system_id":"levelo_inurba_marseille","lat":43.32656,"lon":5.40989,"is_reserved":false,"is_disabled":false,"rental_uris":{"android":"levelo://app?vid=53361ed5-44e3-4331-b1db-d839ce43605d","ios":"levelo://app?vid=53361ed5-44e3-4331-b1db-d839ce43605d"},"vehicle_type_id":"4","last_reported":1730502514,"current_range_meters":9200,"station_id":"ce4bhpp2rcd13ifvqhgg","pricing_plan_id":"cebpf4jnsgd1na2vs0mg"},{"bike_id":"8682c02d-b75e-4986-bf40-c0b0cf6578e7","system_id":"levelo_inurba_marseille","lat":43.32102,"lon":5.36773,"is_reserved":false,"is_disabled":false,"rental_uris":{"android":"levelo://app?vid=8682c02d-b75e-4986-bf40-c0b0cf6578e7","ios":"levelo://app?vid=8682c02d-b75e-4986-bf40-c0b0cf6578e7"},"vehicle_type_id":"4","last_reported":1730502514,"current_range_meters":38800,"station_id":"ce4bhrh2rcd13ifvqhug","pricing_plan_id":"cebpf4jnsgd1na2vs0mg"},{"bike_id":"4060b50c-15a4-41ff-9d32-c5b655d62ee3","system_id":"levelo_inurba_marseille","lat":43.28768,"lon":5.39027,"is_reserved":false,"is_disabled":false,"rental_uris":{"android":"levelo://app?vid=4060b50c-15a4-41ff-9d32-c5b655d62ee3","ios":"levelo://app?vid=4060b50c-15a4-41ff-9d32-c5b655d62ee3"},"vehicle_type_id":"4","last_reported":1730502514,"current_range_meters":8400,"station_id":"","pricing_plan_id":"cebpf4jnsgd1na2vs0mg"},{"bike_id":"ae2ccb33-795f-44d2-a6c0-9c58090a88ce","system_id":"levelo_inurba_marseille","lat":43.243896,"lon":5.370644,"is_reserved":false,"is_disabled":false,"rental_uris":{"android":"levelo://app?vid=ae2ccb33-795f-44d2-a6c0-9c58090a88ce","ios":"levelo://app?vid=ae2ccb33-795f-44d2-a6c0-9c58090a88ce"},"vehicle_type_id":"4","last_reported":1730502514,"current_range_meters":32400,"station_id":"ce4bhhh2rcd13ifvqfk0","pricing_plan_id":"cebpf4jnsgd1na2vs0mg"},{"bike_id":"da4b1b9f-a552-4935-bde7-5d2e3f226f86","system_id":"levelo_inurba_marseille","lat":43.29555,"lon":5.42298,"is_reserved":false,"is_disabled":false,"rental_uris":{"android":"levelo://app?vid=da4b1b9f-a552-4935-bde7-5d2e3f226f86","ios":"levelo://app?vid=da4b1b9f-a552-4935-bde7-5d2e3f226f86"},"vehicle_type_id":"4","last_reported":1730502514,"current_range_meters":39200,"station_id":"ce4bhph2rcd13ifvqhdg","pricing_plan_id":"cebpf4jnsgd1na2vs0mg"},{"bike_id":"01247e72-d93d-44bb-a492-b9bb7634f5bf","system_id":"levelo_inurba_marseille","lat":43.3117,"lon":5.38715,"is_reserved":false,"is_disabled":false,"rental_uris":{"android":"levelo://app?vid=01247e72-d93d-44bb-a492-b9bb7634f5bf","ios":"levelo://app?vid=01247e72-d93d-44bb-a492-b9bb7634f5bf"},"vehicle_type_id":"4","last_reported":1730502514,"current_range_meters":27200,"station_id":"ce4bgv12rcd13ifvqcp0","pricing_plan_id":"cebpf4jnsgd1na2vs0mg"},{"bike_id":"f2db7198-4220-45ab-8f67-5c82af524f11","system_id":"levelo_inurba_marseille","lat":43.29522,"lon":5.39043,"is_reserved":false,"is_disabled":false,"rental_uris":{"android":"levelo://app?vid=f2db7198-4220-45ab-8f67-5c82af524f11","ios":"levelo://app?vid=f2db7198-4220-45ab-8f67-5c82af524f11"},"vehicle_type_id":"4","last_reported":1730502514,"current_range_meters":37600,"station_id":"ce4bh3p2rcd13ifvqdp0","pricing_plan_id":"cebpf4jnsgd1na2vs0mg"},{"bike_id":"62a01b41-421a-4dd3-8d6d-c5a21c22ce3e","system_id":"levelo_inurba_marseille","lat":43.275625,"lon":5.384305,"is_reserved":false,"is_disabled":false,"rental_uris":{"android":"levelo://app?vid=62a01b41-421a-4dd3-8d6d-c5a21c22ce3e","ios":"levelo://app?vid=62a01b41-421a-4dd3-8d6d-c5a21c22ce3e"},"vehicle_type_id":"4","last_reported":1730502514,"current_range_meters":30800,"station_id":"ce4bhh92rcd13ifvqfi0","pricing_plan_id":"cebpf4jnsgd1na2vs0mg"},{"bike_id":"512c4bd5-3edb-49b7-a54a-bbe327a08aa0","system_id":"levelo_inurba_marseille","lat":43.25732,"lon":5.41105,"is_reserved":false,"is_disabled":false,"rental_uris":{"android":"levelo://app?vid=512c4bd5-3edb-49b7-a54a-bbe327a08aa0","ios":"levelo://app?vid=512c4bd5-3edb-49b7-a54a-bbe327a08aa0"},"vehicle_type_id":"4","last_reported":1730502514,"current_range_meters":16000,"station_id":"ce4bhkp2rcd13ifvqgd0","pricing_plan_id":"cebpf4jnsgd1na2vs0mg"},{"bike_id":"a4627486-a087-47d1-bdea-e9476cd49986","system_id":"levelo_inurba_marseille","lat":43.23194,"lon":5.3555,"is_reserved":false,"is_disabled":false,"rental_uris":{"android":"levelo://app?vid=a4627486-a087-47d1-bdea-e9476cd49986","ios":"levelo://app?vid=a4627486-a087-47d1-bdea-e9476cd49986"},"vehicle_type_id":"4","last_reported":1730502514,"current_range_meters":30000,"station_id":"ce4bhu92rcd13ifvqi70","pricing_plan_id":"cebpf4jnsgd1na2vs0mg"},{"bike_id":"7a7dd070-28b4-4cff-8cab-ca640aaac140","system_id":"levelo_inurba_marseille","lat":43.30881,"lon":5.37194,"is_reserved":false,"is_disabled":false,"rental_uris":{"android":"levelo://app?vid=7a7dd070-28b4-4cff-8cab-ca640aaac140","ios":"levelo://app?vid=7a7dd070-28b4-4cff-8cab-ca640aaac140"},"vehicle_type_id":"4","last_reported":1730502514,"current_range_meters":30400,"station_id":"ce4bguh2rcd13ifvqckg","pricing_plan_id":"cebpf4jnsgd1na2vs0mg"},{"bike_id":"98606055-e59c-468c-9d5f-0ff0d6cc7798","system_id":"levelo_inurba_marseille","lat":43.29599,"lon":5.38109,"is_reserved":false,"is_disabled":false,"rental_uris":{"android":"levelo://app?vid=98606055-e59c-468c-9d5f-0ff0d6cc7798","ios":"levelo://app?vid=98606055-e59c-468c-9d5f-0ff0d6cc7798"},"vehicle_type_id":"4","last_reported":1730502514,"current_range_meters":31200,"station_id":"ce4bgl12rcd13ifvqbo0","pricing_plan_id":"cebpf4jnsgd1na2vs0mg"},{"bike_id":"509a9bdc-ca48-4855-8040-748bb9b3087b","system_id":"levelo_inurba_marseille","lat":43.25931,"lon":5.40902,"is_reserved":false,"is_disabled":false,"rental_uris":{"android":"levelo://app?vid=509a9bdc-ca48-4855-8040-748bb9b3087b","ios":"levelo://app?vid=509a9bdc-ca48-4855-8040-748bb9b3087b"},"vehicle_type_id":"4","last_reported":1730502514,"current_range_meters":24800,"station_id":"ce4bhm92rcd13ifvqglg","pricing_plan_id":"cebpf4jnsgd1na2vs0mg"},{"bike_id":"613a7d55-fbc6-427f-bf59-5c900b195db6","system_id":"levelo_inurba_marseille","lat":43.29025,"lon":5.38648,"is_reserved":false,"is_disabled":false,"rental_uris":{"android":"levelo://app?vid=613a7d55-fbc6-427f-bf59-5c900b195db6","ios":"levelo://app?vid=613a7d55-fbc6-427f-bf59-5c900b195db6"},"vehicle_type_id":"4","last_reported":1730502514,"current_range_meters":31200,"station_id":"ce4bh4p2rcd13ifvqe0g","pricing_plan_id":"cebpf4jnsgd1na2vs0mg"},{"bike_id":"87ed5b90-8e03-4a43-b258-8b0293b00409","system_id":"levelo_inurba_marseille","lat":43.28614,"lon":5.351,"is_reserved":false,"is_disabled":false,"rental_uris":{"android":"levelo://app?vid=87ed5b90-8e03-4a43-b258-8b0293b00409","ios":"levelo://app?vid=87ed5b90-8e03-4a43-b258-8b0293b00409"},"vehicle_type_id":"4","last_reported":1730502514,"current_range_meters":9200,"station_id":"ce4bhch2rcd13ifvqeug","pricing_plan_id":"cebpf4jnsgd1na2vs0mg"},{"bike_id":"bcce294a-2487-4e92-826e-0f50502ce058","system_id":"levelo_inurba_marseille","lat":43.2867,"lon":5.36354,"is_reserved":false,"is_disabled":false,"rental_uris":{"android":"levelo://app?vid=bcce294a-2487-4e92-826e-0f50502ce058","ios":"levelo://app?vid=bcce294a-2487-4e92-826e-0f50502ce058"},"vehicle_type_id":"4","last_reported":1730502514,"current_range_meters":36800,"station_id":"ce4bhah2rcd13ifvqej0","pricing_plan_id":"cebpf4jnsgd1na2vs0mg"},{"bike_id":"efbe383f-83c6-4df5-ac1f-ffa8f2e0197b","system_id":"levelo_inurba_marseille","lat":43.31335,"lon":5.39699,"is_reserved":false,"is_disabled":false,"rental_uris":{"android":"levelo://app?vid=efbe383f-83c6-4df5-ac1f-ffa8f2e0197b","ios":"levelo://app?vid=efbe383f-83c6-4df5-ac1f-ffa8f2e0197b"},"vehicle_type_id":"4","last_reported":1730502514,"current_range_meters":8000,"station_id":"ce4bgvp2rcd13ifvqcu0","pricing_plan_id":"cebpf4jnsgd1na2vs0mg"},{"bike_id":"d2896018-51ec-47f9-bd36-7737b82f546d","system_id":"levelo_inurba_marseille","lat":43.31496,"lon":5.373,"is_reserved":false,"is_disabled":false,"rental_uris":{"android":"levelo://app?vid=d2896018-51ec-47f9-bd36-7737b82f546d","ios":"levelo://app?vid=d2896018-51ec-47f9-bd36-7737b82f546d"},"vehicle_type_id":"4","last_reported":1730502514,"current_range_meters":38400,"station_id":"ce4bgt12rcd13ifvqcd0","pricing_plan_id":"cebpf4jnsgd1na2vs0mg"},{"bike_id":"727f9214-35e2-4693-a132-fcd8d713c122","system_id":"levelo_inurba_marseille","lat":43.30933,"lon":5.40147,"is_reserved":false,"is_disabled":false,"rental_uris":{"android":"levelo://app?vid=727f9214-35e2-4693-a132-fcd8d713c122","ios":"levelo://app?vid=727f9214-35e2-4693-a132-fcd8d713c122"},"vehicle_type_id":"4","last_reported":1730502514,"current_range_meters":39200,"station_id":"ce4bgvp2rcd13ifvqct0","pricing_plan_id":"cebpf4jnsgd1na2vs0mg"},{"bike_id":"8cba0623-9dce-4e04-a8e4-327b466e7d92","system_id":"levelo_inurba_marseille","lat":43.28662,"lon":5.36356,"is_reserved":false,"is_disabled":false,"rental_uris":{"android":"levelo://app?vid=8cba0623-9dce-4e04-a8e4-327b466e7d92","ios":"levelo://app?vid=8cba0623-9dce-4e04-a8e4-327b466e7d92"},"vehicle_type_id":"4","last_reported":1730502514,"current_range_meters":39200,"station_id":"ce4bhah2rcd13ifvqej0","pricing_plan_id":"cebpf4jnsgd1na2vs0mg"},{"bike_id":"9ef56561-c962-4b2e-a38c-7a4ffcbf90e1","system_id":"levelo_inurba_marseille","lat":43.281071,"lon":5.401587,"is_reserved":false,"is_disabled":false,"rental_uris":{"android":"levelo://app?vid=9ef56561-c962-4b2e-a38c-7a4ffcbf90e1","ios":"levelo://app?vid=9ef56561-c962-4b2e-a38c-7a4ffcbf90e1"},"vehicle_type_id":"4","last_reported":1730502514,"current_range_meters":23200,"station_id":"ce4bho92rcd13ifvqh4g","pricing_plan_id":"cebpf4jnsgd1na2vs0mg"},{"bike_id":"d09648be-c068-4b81-b180-48ec7461483f","system_id":"levelo_inurba_marseille","lat":43.29532,"lon":5.39396,"is_reserved":false,"is_disabled":false,"rental_uris":{"android":"levelo://app?vid=d09648be-c068-4b81-b180-48ec7461483f","ios":"levelo://app?vid=d09648be-c068-4b81-b180-48ec7461483f"},"vehicle_type_id":"4","last_reported":1730502514,"current_range_meters":16400,"station_id":"ce4bh292rcd13ifvqdf0","pricing_plan_id":"cebpf4jnsgd1na2vs0mg"},{"bike_id":"53666ca2-d243-4f5e-8466-56bcf2799a94","system_id":"levelo_inurba_marseille","lat":43.29415,"lon":5.38632,"is_reserved":false,"is_disabled":false,"rental_uris":{"android":"levelo://app?vid=53666ca2-d243-4f5e-8466-56bcf2799a94","ios":"levelo://app?vid=53666ca2-d243-4f5e-8466-56bcf2799a94"},"vehicle_type_id":"4","last_reported":1730502514,"current_range_meters":38800,"station_id":"ce4bh2h2rcd13ifvqdh0","pricing_plan_id":"cebpf4jnsgd1na2vs0mg"},{"bike_id":"ca7418d4-c49d-4525-bde7-bfd3a3b3b27d","system_id":"levelo_inurba_marseille","lat":43.29423,"lon":5.38613,"is_reserved":false,"is_disabled":false,"rental_uris":{"android":"levelo://app?vid=ca7418d4-c49d-4525-bde7-bfd3a3b3b27d","ios":"levelo://app?vid=ca7418d4-c49d-4525-bde7-bfd3a3b3b27d"},"vehicle_type_id":"4","last_reported":1730502514,"current_range_meters":37600,"station_id":"ce4bh2h2rcd13ifvqdh0","pricing_plan_id":"cebpf4jnsgd1na2vs0mg"},{"bike_id":"dda0e212-4309-4695-9f60-11cac500acd1","system_id":"levelo_inurba_marseille","lat":43.30436,"lon":5.38895,"is_reserved":false,"is_disabled":false,"rental_uris":{"android":"levelo://app?vid=dda0e212-4309-4695-9f60-11cac500acd1","ios":"levelo://app?vid=dda0e212-4309-4695-9f60-11cac500acd1"},"vehicle_type_id":"4","last_reported":1730502514,"current_range_meters":38800,"station_id":"ce4bgk12rcd13ifvqbi0","pricing_plan_id":"cebpf4jnsgd1na2vs0mg"},{"bike_id":"07a8603e-9415-4c0b-8be4-1b66f8b2c34f","system_id":"levelo_inurba_marseille","lat":43.31103,"lon":5.38367,"is_reserved":false,"is_disabled":false,"rental_uris":{"android":"levelo://app?vid=07a8603e-9415-4c0b-8be4-1b66f8b2c34f","ios":"levelo://app?vid=07a8603e-9415-4c0b-8be4-1b66f8b2c34f"},"vehicle_type_id":"4","last_reported":1730502514,"current_range_meters":28400,"station_id":"ce4bgv92rcd13ifvqcr0","pricing_plan_id":"cebpf4jnsgd1na2vs0mg"},{"bike_id":"0d4f48b5-8358-4d28-bb27-95b0b6589686","system_id":"levelo_inurba_marseille","lat":43.3149,"lon":5.37314,"is_reserved":false,"is_disabled":false,"rental_uris":{"android":"levelo://app?vid=0d4f48b5-8358-4d28-bb27-95b0b6589686","ios":"levelo://app?vid=0d4f48b5-8358-4d28-bb27-95b0b6589686"},"vehicle_type_id":"4","last_reported":1730502514,"current_range_meters":38400,"station_id":"ce4bgt12rcd13ifvqcd0","pricing_plan_id":"cebpf4jnsgd1na2vs0mg"},{"bike_id":"d15cc1b7-fa3a-4b1e-be62-96e6072b7bc5","system_id":"levelo_inurba_marseille","lat":43.27949,"lon":5.4105,"is_reserved":false,"is_disabled":false,"rental_uris":{"android":"levelo://app?vid=d15cc1b7-fa3a-4b1e-be62-96e6072b7bc5","ios":"levelo://app?vid=d15cc1b7-fa3a-4b1e-be62-96e6072b7bc5"},"vehicle_type_id":"4","last_reported":1730502514,"current_range_meters":14000,"station_id":"ce4bhnp2rcd13ifvqh0g","pricing_plan_id":"cebpf4jnsgd1na2vs0mg"},{"bike_id":"5d33c49a-89b9-4778-8ce0-40bafcfb7158","system_id":"levelo_inurba_marseille","lat":43.29266,"lon":5.38446,"is_reserved":false,"is_disabled":false,"rental_uris":{"android":"levelo://app?vid=5d33c49a-89b9-4778-8ce0-40bafcfb7158","ios":"levelo://app?vid=5d33c49a-89b9-4778-8ce0-40bafcfb7158"},"vehicle_type_id":"4","last_reported":1730502514,"current_range_meters":38800,"station_id":"ce4bh692rcd13ifvqea0","pricing_plan_id":"cebpf4jnsgd1na2vs0mg"},{"bike_id":"0101f80a-f8f4-44bc-955f-cd8a22de3709","system_id":"levelo_inurba_marseille","lat":43.30789,"lon":5.37652,"is_reserved":false,"is_disabled":false,"rental_uris":{"android":"levelo://app?vid=0101f80a-f8f4-44bc-955f-cd8a22de3709","ios":"levelo://app?vid=0101f80a-f8f4-44bc-955f-cd8a22de3709"},"vehicle_type_id":"4","last_reported":1730502514,"current_range_meters":38400,"station_id":"ce4bgv92rcd13ifvqcq0","pricing_plan_id":"cebpf4jnsgd1na2vs0mg"},{"bike_id":"8ac4f741-2911-42d6-a00a-51cf057a7d47","system_id":"levelo_inurba_marseille","lat":43.27498,"lon":5.42456,"is_reserved":false,"is_disabled":false,"rental_uris":{"android":"levelo://app?vid=8ac4f741-2911-42d6-a00a-51cf057a7d47","ios":"levelo://app?vid=8ac4f741-2911-42d6-a00a-51cf057a7d47"},"vehicle_type_id":"4","last_reported":1730502514,"current_range_meters":38800,"station_id":"ce4bhn92rcd13ifvqgrg","pricing_plan_id":"cebpf4jnsgd1na2vs0mg"},{"bike_id":"927cdf92-a252-437e-96d0-20884e5c00d0","system_id":"levelo_inurba_marseille","lat":43.31171,"lon":5.38717,"is_reserved":false,"is_disabled":false,"rental_uris":{"android":"levelo://app?vid=927cdf92-a252-437e-96d0-20884e5c00d0","ios":"levelo://app?vid=927cdf92-a252-437e-96d0-20884e5c00d0"},"vehicle_type_id":"4","last_reported":1730502514,"current_range_meters":20400,"station_id":"ce4bgv12rcd13ifvqcp0","pricing_plan_id":"cebpf4jnsgd1na2vs0mg"},{"bike_id":"a7125d65-74ce-495d-817a-4658be7b2ef8","system_id":"levelo_inurba_marseille","lat":43.28689,"lon":5.37397,"is_reserved":false,"is_disabled":false,"rental_uris":{"android":"levelo://app?vid=a7125d65-74ce-495d-817a-4658be7b2ef8","ios":"levelo://app?vid=a7125d65-74ce-495d-817a-4658be7b2ef8"},"vehicle_type_id":"4","last_reported":1730502514,"current_range_meters":19200,"station_id":"ce4bh3p2rcd13ifvqdq0","pricing_plan_id":"cebpf4jnsgd1na2vs0mg"},{"bike_id":"4fcbeb62-63ac-4a93-9f6e-2a929a16fb8e","system_id":"levelo_inurba_marseille","lat":43.28673,"lon":5.37477,"is_reserved":false,"is_disabled":false,"rental_uris":{"android":"levelo://app?vid=4fcbeb62-63ac-4a93-9f6e-2a929a16fb8e","ios":"levelo://app?vid=4fcbeb62-63ac-4a93-9f6e-2a929a16fb8e"},"vehicle_type_id":"4","last_reported":1730502514,"current_range_meters":38800,"station_id":"","pricing_plan_id":"cebpf4jnsgd1na2vs0mg"},{"bike_id":"dccc613c-7c9d-44fc-9625-47ccbc365073","system_id":"levelo_inurba_marseille","lat":43.27486,"lon":5.4246,"is_reserved":false,"is_disabled":false,"rental_uris":{"android":"levelo://app?vid=dccc613c-7c9d-44fc-9625-47ccbc365073","ios":"levelo://app?vid=dccc613c-7c9d-44fc-9625-47ccbc365073"},"vehicle_type_id":"4","last_reported":1730502514,"current_range_meters":38400,"station_id":"ce4bhn92rcd13ifvqgrg","pricing_plan_id":"cebpf4jnsgd1na2vs0mg"},{"bike_id":"5309da7f-98a1-42a2-9719-8e2350c57d02","system_id":"levelo_inurba_marseille","lat":43.26685,"lon":5.38273,"is_reserved":false,"is_disabled":false,"rental_uris":{"android":"levelo://app?vid=5309da7f-98a1-42a2-9719-8e2350c57d02","ios":"levelo://app?vid=5309da7f-98a1-42a2-9719-8e2350c57d02"},"vehicle_type_id":"4","last_reported":1730502514,"current_range_meters":22000,"station_id":"ce4bhg92rcd13ifvqf90","pricing_plan_id":"cebpf4jnsgd1na2vs0mg"},{"bike_id":"33c513c1-0c30-413c-9d3b-35dd29a13d6f","system_id":"levelo_inurba_marseille","lat":43.31697,"lon":5.40466,"is_reserved":false,"is_disabled":false,"rental_uris":{"android":"levelo://app?vid=33c513c1-0c30-413c-9d3b-35dd29a13d6f","ios":"levelo://app?vid=33c513c1-0c30-413c-9d3b-35dd29a13d6f"},"vehicle_type_id":"4","last_reported":1730502514,"current_range_meters":38400,"station_id":"ce4bh012rcd13ifvqd00","pricing_plan_id":"cebpf4jnsgd1na2vs0mg"},{"bike_id":"90f0cabd-ec2c-4869-a68e-3fa606f04d51","system_id":"levelo_inurba_marseille","lat":43.28844,"lon":5.3932,"is_reserved":false,"is_disabled":false,"rental_uris":{"android":"levelo://app?vid=90f0cabd-ec2c-4869-a68e-3fa606f04d51","ios":"levelo://app?vid=90f0cabd-ec2c-4869-a68e-3fa606f04d51"},"vehicle_type_id":"4","last_reported":1730502514,"current_range_meters":38800,"station_id":"ce4bh2p2rcd13ifvqdi0","pricing_plan_id":"cebpf4jnsgd1na2vs0mg"},{"bike_id":"76f07ef3-e9cd-424b-ac86-b71f6b3a60aa","system_id":"levelo_inurba_marseille","lat":43.2894,"lon":5.38395,"is_reserved":false,"is_disabled":false,"rental_uris":{"android":"levelo://app?vid=76f07ef3-e9cd-424b-ac86-b71f6b3a60aa","ios":"levelo://app?vid=76f07ef3-e9cd-424b-ac86-b71f6b3a60aa"},"vehicle_type_id":"4","last_reported":1730502514,"current_range_meters":39200,"station_id":"ce4bh612rcd13ifvqe6g","pricing_plan_id":"cebpf4jnsgd1na2vs0mg"},{"bike_id":"7aca20f8-1574-4b9d-bf15-a513db192236","system_id":"levelo_inurba_marseille","lat":43.29419,"lon":5.38626,"is_reserved":false,"is_disabled":false,"rental_uris":{"android":"levelo://app?vid=7aca20f8-1574-4b9d-bf15-a513db192236","ios":"levelo://app?vid=7aca20f8-1574-4b9d-bf15-a513db192236"},"vehicle_type_id":"4","last_reported":1730502514,"current_range_meters":39200,"station_id":"ce4bh2h2rcd13ifvqdh0","pricing_plan_id":"cebpf4jnsgd1na2vs0mg"},{"bike_id":"35e545fb-3a1f-4e54-86f8-ee6904599efe","system_id":"levelo_inurba_marseille","lat":43.29585,"lon":5.36746,"is_reserved":false,"is_disabled":false,"rental_uris":{"android":"levelo://app?vid=35e545fb-3a1f-4e54-86f8-ee6904599efe","ios":"levelo://app?vid=35e545fb-3a1f-4e54-86f8-ee6904599efe"},"vehicle_type_id":"4","last_reported":1730502514,"current_range_meters":35600,"station_id":"ce4bgph2rcd13ifvqc2g","pricing_plan_id":"cebpf4jnsgd1na2vs0mg"},{"bike_id":"86501ceb-c189-4af2-bac2-4f3b6c95b810","system_id":"levelo_inurba_marseille","lat":43.29412,"lon":5.38617,"is_reserved":false,"is_disabled":false,"rental_uris":{"android":"levelo://app?vid=86501ceb-c189-4af2-bac2-4f3b6c95b810","ios":"levelo://app?vid=86501ceb-c189-4af2-bac2-4f3b6c95b810"},"vehicle_type_id":"4","last_reported":1730502514,"current_range_meters":38000,"station_id":"ce4bh2h2rcd13ifvqdh0","pricing_plan_id":"cebpf4jnsgd1na2vs0mg"},{"bike_id":"95b0abe9-ea21-42b3-a093-96c7a8da01f6","system_id":"levelo_inurba_marseille","lat":43.28939,"lon":5.36404,"is_reserved":false,"is_disabled":false,"rental_uris":{"android":"levelo://app?vid=95b0abe9-ea21-42b3-a093-96c7a8da01f6","ios":"levelo://app?vid=95b0abe9-ea21-42b3-a093-96c7a8da01f6"},"vehicle_type_id":"4","last_reported":1730502514,"current_range_meters":18800,"station_id":"ce4bhc92rcd13ifvqetg","pricing_plan_id":"cebpf4jnsgd1na2vs0mg"},{"bike_id":"1994cd20-32ae-4177-8030-69c11b23a867","system_id":"levelo_inurba_marseille","lat":43.25112,"lon":5.40327,"is_reserved":false,"is_disabled":false,"rental_uris":{"android":"levelo://app?vid=1994cd20-32ae-4177-8030-69c11b23a867","ios":"levelo://app?vid=1994cd20-32ae-4177-8030-69c11b23a867"},"vehicle_type_id":"4","last_reported":1730502514,"current_range_meters":10800,"station_id":"ce4bhlh2rcd13ifvqgig","pricing_plan_id":"cebpf4jnsgd1na2vs0mg"},{"bike_id":"bd8735ce-4787-4ea7-948a-d7eb3faabfb1","system_id":"levelo_inurba_marseille","lat":43.28935,"lon":5.38411,"is_reserved":false,"is_disabled":false,"rental_uris":{"android":"levelo://app?vid=bd8735ce-4787-4ea7-948a-d7eb3faabfb1","ios":"levelo://app?vid=bd8735ce-4787-4ea7-948a-d7eb3faabfb1"},"vehicle_type_id":"4","last_reported":1730502514,"current_range_meters":20400,"station_id":"ce4bh612rcd13ifvqe6g","pricing_plan_id":"cebpf4jnsgd1na2vs0mg"},{"bike_id":"7dc1c1ed-2472-4dd8-84f9-9b00a0c2baff","system_id":"levelo_inurba_marseille","lat":43.29553,"lon":5.42291,"is_reserved":false,"is_disabled":false,"rental_uris":{"android":"levelo://app?vid=7dc1c1ed-2472-4dd8-84f9-9b00a0c2baff","ios":"levelo://app?vid=7dc1c1ed-2472-4dd8-84f9-9b00a0c2baff"},"vehicle_type_id":"4","last_reported":1730502514,"current_range_meters":38800,"station_id":"ce4bhph2rcd13ifvqhdg","pricing_plan_id":"cebpf4jnsgd1na2vs0mg"},{"bike_id":"cc2c6e9e-adec-4c59-b288-21ebbf8a6210","system_id":"levelo_inurba_marseille","lat":43.30807,"lon":5.38179,"is_reserved":false,"is_disabled":false,"rental_uris":{"android":"levelo://app?vid=cc2c6e9e-adec-4c59-b288-21ebbf8a6210","ios":"levelo://app?vid=cc2c6e9e-adec-4c59-b288-21ebbf8a6210"},"vehicle_type_id":"4","last_reported":1730502514,"current_range_meters":28000,"station_id":"ce4bgt12rcd13ifvqce0","pricing_plan_id":"cebpf4jnsgd1na2vs0mg"},{"bike_id":"471b4989-c077-4f57-bbe0-52b7ea1332e4","system_id":"levelo_inurba_marseille","lat":43.30434,"lon":5.39738,"is_reserved":false,"is_disabled":false,"rental_uris":{"android":"levelo://app?vid=471b4989-c077-4f57-bbe0-52b7ea1332e4","ios":"levelo://app?vid=471b4989-c077-4f57-bbe0-52b7ea1332e4"},"vehicle_type_id":"4","last_reported":1730502514,"current_range_meters":8800,"station_id":"ce4bh092rcd13ifvqd20","pricing_plan_id":"cebpf4jnsgd1na2vs0mg"},{"bike_id":"3e298234-f57f-4eba-8e7a-4b84891b1fba","system_id":"levelo_inurba_marseille","lat":43.30605,"lon":5.39369,"is_reserved":false,"is_disabled":false,"rental_uris":{"android":"levelo://app?vid=3e298234-f57f-4eba-8e7a-4b84891b1fba","ios":"levelo://app?vid=3e298234-f57f-4eba-8e7a-4b84891b1fba"},"vehicle_type_id":"4","last_reported":1730502514,"current_range_meters":27200,"station_id":"ce4bh0p2rcd13ifvqd80","pricing_plan_id":"cebpf4jnsgd1na2vs0mg"},{"bike_id":"4dd74b80-423d-4a82-8b5a-fef5ebd97f46","system_id":"levelo_inurba_marseille","lat":43.2439,"lon":5.37058,"is_reserved":false,"is_disabled":false,"rental_uris":{"android":"levelo://app?vid=4dd74b80-423d-4a82-8b5a-fef5ebd97f46","ios":"levelo://app?vid=4dd74b80-423d-4a82-8b5a-fef5ebd97f46"},"vehicle_type_id":"4","last_reported":1730502514,"current_range_meters":24800,"station_id":"ce4bhhh2rcd13ifvqfk0","pricing_plan_id":"cebpf4jnsgd1na2vs0mg"},{"bike_id":"afa39957-71be-4682-bdac-91a4c814290b","system_id":"levelo_inurba_marseille","lat":43.289309,"lon":5.383946,"is_reserved":false,"is_disabled":false,"rental_uris":{"android":"levelo://app?vid=afa39957-71be-4682-bdac-91a4c814290b","ios":"levelo://app?vid=afa39957-71be-4682-bdac-91a4c814290b"},"vehicle_type_id":"4","last_reported":1730502514,"current_range_meters":39200,"station_id":"ce4bh612rcd13ifvqe6g","pricing_plan_id":"cebpf4jnsgd1na2vs0mg"},{"bike_id":"9938ebcd-9900-4f33-ae62-087d07b91466","system_id":"levelo_inurba_marseille","lat":43.25726,"lon":5.41104,"is_reserved":false,"is_disabled":false,"rental_uris":{"android":"levelo://app?vid=9938ebcd-9900-4f33-ae62-087d07b91466","ios":"levelo://app?vid=9938ebcd-9900-4f33-ae62-087d07b91466"},"vehicle_type_id":"4","last_reported":1730502514,"current_range_meters":39200,"station_id":"ce4bhkp2rcd13ifvqgd0","pricing_plan_id":"cebpf4jnsgd1na2vs0mg"},{"bike_id":"fae1a391-50ff-47f9-a6d4-60e45fedaa51","system_id":"levelo_inurba_marseille","lat":43.274246,"lon":5.394151,"is_reserved":false,"is_disabled":false,"rental_uris":{"android":"levelo://app?vid=fae1a391-50ff-47f9-a6d4-60e45fedaa51","ios":"levelo://app?vid=fae1a391-50ff-47f9-a6d4-60e45fedaa51"},"vehicle_type_id":"4","last_reported":1730502514,"current_range_meters":8400,"station_id":"ce4bhdp2rcd13ifvqf20","pricing_plan_id":"cebpf4jnsgd1na2vs0mg"},{"bike_id":"f81c9dc1-d86c-4ae4-bbfb-f96586a0c69c","system_id":"levelo_inurba_marseille","lat":43.2925,"lon":5.38444,"is_reserved":false,"is_disabled":false,"rental_uris":{"android":"levelo://app?vid=f81c9dc1-d86c-4ae4-bbfb-f96586a0c69c","ios":"levelo://app?vid=f81c9dc1-d86c-4ae4-bbfb-f96586a0c69c"},"vehicle_type_id":"4","last_reported":1730502514,"current_range_meters":38800,"station_id":"ce4bh692rcd13ifvqea0","pricing_plan_id":"cebpf4jnsgd1na2vs0mg"},{"bike_id":"e960ac30-070e-494a-a9c1-effafcd9c6f4","system_id":"levelo_inurba_marseille","lat":43.29461,"lon":5.39589,"is_reserved":false,"is_disabled":false,"rental_uris":{"android":"levelo://app?vid=e960ac30-070e-494a-a9c1-effafcd9c6f4","ios":"levelo://app?vid=e960ac30-070e-494a-a9c1-effafcd9c6f4"},"vehicle_type_id":"4","last_reported":1730502514,"current_range_meters":10800,"station_id":"","pricing_plan_id":"cebpf4jnsgd1na2vs0mg"},{"bike_id":"7a25e0cc-ac86-47e0-9495-5b905a46ba81","system_id":"levelo_inurba_marseille","lat":43.3088,"lon":5.37199,"is_reserved":false,"is_disabled":false,"rental_uris":{"android":"levelo://app?vid=7a25e0cc-ac86-47e0-9495-5b905a46ba81","ios":"levelo://app?vid=7a25e0cc-ac86-47e0-9495-5b905a46ba81"},"vehicle_type_id":"4","last_reported":1730502514,"current_range_meters":39200,"station_id":"ce4bguh2rcd13ifvqckg","pricing_plan_id":"cebpf4jnsgd1na2vs0mg"},{"bike_id":"cb111d32-8ad4-4cfc-b16a-95fa38adbb99","system_id":"levelo_inurba_marseille","lat":43.29416,"lon":5.38619,"is_reserved":false,"is_disabled":false,"rental_uris":{"android":"levelo://app?vid=cb111d32-8ad4-4cfc-b16a-95fa38adbb99","ios":"levelo://app?vid=cb111d32-8ad4-4cfc-b16a-95fa38adbb99"},"vehicle_type_id":"4","last_reported":1730502514,"current_range_meters":22000,"station_id":"ce4bh2h2rcd13ifvqdh0","pricing_plan_id":"cebpf4jnsgd1na2vs0mg"},{"bike_id":"485210d6-6ba6-4e0c-a0d7-79d10bd8927d","system_id":"levelo_inurba_marseille","lat":43.27949,"lon":5.41055,"is_reserved":false,"is_disabled":false,"rental_uris":{"android":"levelo://app?vid=485210d6-6ba6-4e0c-a0d7-79d10bd8927d","ios":"levelo://app?vid=485210d6-6ba6-4e0c-a0d7-79d10bd8927d"},"vehicle_type_id":"4","last_reported":1730502514,"current_range_meters":13600,"station_id":"ce4bhnp2rcd13ifvqh0g","pricing_plan_id":"cebpf4jnsgd1na2vs0mg"},{"bike_id":"5a588df1-fc21-4202-a0ec-c725a0368f37","system_id":"levelo_inurba_marseille","lat":43.27944,"lon":5.41042,"is_reserved":false,"is_disabled":false,"rental_uris":{"android":"levelo://app?vid=5a588df1-fc21-4202-a0ec-c725a0368f37","ios":"levelo://app?vid=5a588df1-fc21-4202-a0ec-c725a0368f37"},"vehicle_type_id":"4","last_reported":1730502514,"current_range_meters":36400,"station_id":"ce4bhnp2rcd13ifvqh0g","pricing_plan_id":"cebpf4jnsgd1na2vs0mg"},{"bike_id":"42890dc6-02c7-4ea9-9f5a-99ce200c07cf","system_id":"levelo_inurba_marseille","lat":43.30209,"lon":5.39468,"is_reserved":false,"is_disabled":false,"rental_uris":{"android":"levelo://app?vid=42890dc6-02c7-4ea9-9f5a-99ce200c07cf","ios":"levelo://app?vid=42890dc6-02c7-4ea9-9f5a-99ce200c07cf"},"vehicle_type_id":"4","last_reported":1730502514,"current_range_meters":37600,"station_id":"ce4bh0p2rcd13ifvqd70","pricing_plan_id":"cebpf4jnsgd1na2vs0mg"},{"bike_id":"16c67319-6726-4a1a-8abc-26f8d9e9238d","system_id":"levelo_inurba_marseille","lat":43.30811,"lon":5.37523,"is_reserved":false,"is_disabled":false,"rental_uris":{"android":"levelo://app?vid=16c67319-6726-4a1a-8abc-26f8d9e9238d","ios":"levelo://app?vid=16c67319-6726-4a1a-8abc-26f8d9e9238d"},"vehicle_type_id":"4","last_reported":1730502514,"current_range_meters":24000,"station_id":"ce4bguh2rcd13ifvqckg","pricing_plan_id":"cebpf4jnsgd1na2vs0mg"},{"bike_id":"3fb97979-c40b-49b2-bf88-0336739e0874","system_id":"levelo_inurba_marseille","lat":43.29527,"lon":5.38538,"is_reserved":false,"is_disabled":false,"rental_uris":{"android":"levelo://app?vid=3fb97979-c40b-49b2-bf88-0336739e0874","ios":"levelo://app?vid=3fb97979-c40b-49b2-bf88-0336739e0874"},"vehicle_type_id":"4","last_reported":1730502514,"current_range_meters":27600,"station_id":"ce4bgih2rcd13ifvqba0","pricing_plan_id":"cebpf4jnsgd1na2vs0mg"},{"bike_id":"d69eef29-33f1-400b-9dbd-e583b4f600d8","system_id":"levelo_inurba_marseille","lat":43.246562,"lon":5.388918,"is_reserved":false,"is_disabled":false,"rental_uris":{"android":"levelo://app?vid=d69eef29-33f1-400b-9dbd-e583b4f600d8","ios":"levelo://app?vid=d69eef29-33f1-400b-9dbd-e583b4f600d8"},"vehicle_type_id":"4","last_reported":1730502514,"current_range_meters":39200,"station_id":"ce4bhg12rcd13ifvqf60","pricing_plan_id":"cebpf4jnsgd1na2vs0mg"},{"bike_id":"bd4e2b20-1aa1-479f-bd96-ad4e0572a62c","system_id":"levelo_inurba_marseille","lat":43.32482,"lon":5.36597,"is_reserved":false,"is_disabled":false,"rental_uris":{"android":"levelo://app?vid=bd4e2b20-1aa1-479f-bd96-ad4e0572a62c","ios":"levelo://app?vid=bd4e2b20-1aa1-479f-bd96-ad4e0572a62c"},"vehicle_type_id":"4","last_reported":1730502514,"current_range_meters":28000,"station_id":"ce4bhs12rcd13ifvqhvg","pricing_plan_id":"cebpf4jnsgd1na2vs0mg"},{"bike_id":"7ecf360b-c330-4319-b95c-5fe5e198de21","system_id":"levelo_inurba_marseille","lat":43.3078,"lon":5.37647,"is_reserved":false,"is_disabled":false,"rental_uris":{"android":"levelo://app?vid=7ecf360b-c330-4319-b95c-5fe5e198de21","ios":"levelo://app?vid=7ecf360b-c330-4319-b95c-5fe5e198de21"},"vehicle_type_id":"4","last_reported":1730502514,"current_range_meters":38400,"station_id":"ce4bgv92rcd13ifvqcq0","pricing_plan_id":"cebpf4jnsgd1na2vs0mg"},{"bike_id":"2749a0d0-f853-40f1-94a4-905f9c1a5e39","system_id":"levelo_inurba_marseille","lat":43.28716,"lon":5.37953,"is_reserved":false,"is_disabled":false,"rental_uris":{"android":"levelo://app?vid=2749a0d0-f853-40f1-94a4-905f9c1a5e39","ios":"levelo://app?vid=2749a0d0-f853-40f1-94a4-905f9c1a5e39"},"vehicle_type_id":"4","last_reported":1730502514,"current_range_meters":39200,"station_id":"ce4bh9p2rcd13ifvqec0","pricing_plan_id":"cebpf4jnsgd1na2vs0mg"},{"bike_id":"66047545-0fb8-424f-9043-6c30d457954a","system_id":"levelo_inurba_marseille","lat":43.30922,"lon":5.40146,"is_reserved":false,"is_disabled":false,"rental_uris":{"android":"levelo://app?vid=66047545-0fb8-424f-9043-6c30d457954a","ios":"levelo://app?vid=66047545-0fb8-424f-9043-6c30d457954a"},"vehicle_type_id":"4","last_reported":1730502514,"current_range_meters":12800,"station_id":"ce4bgvp2rcd13ifvqct0","pricing_plan_id":"cebpf4jnsgd1na2vs0mg"},{"bike_id":"e4169139-09e6-461b-a6a1-87cdd1c95ed6","system_id":"levelo_inurba_marseille","lat":43.27942,"lon":5.41054,"is_reserved":false,"is_disabled":false,"rental_uris":{"android":"levelo://app?vid=e4169139-09e6-461b-a6a1-87cdd1c95ed6","ios":"levelo://app?vid=e4169139-09e6-461b-a6a1-87cdd1c95ed6"},"vehicle_type_id":"4","last_reported":1730502514,"current_range_meters":28400,"station_id":"ce4bhnp2rcd13ifvqh0g","pricing_plan_id":"cebpf4jnsgd1na2vs0mg"},{"bike_id":"0366c1ec-762f-4a36-9d51-33f65502dd0f","system_id":"levelo_inurba_marseille","lat":43.289703,"lon":5.378447,"is_reserved":false,"is_disabled":false,"rental_uris":{"android":"levelo://app?vid=0366c1ec-762f-4a36-9d51-33f65502dd0f","ios":"levelo://app?vid=0366c1ec-762f-4a36-9d51-33f65502dd0f"},"vehicle_type_id":"4","last_reported":1730502514,"current_range_meters":38800,"station_id":"ce4bh9p2rcd13ifvqed0","pricing_plan_id":"cebpf4jnsgd1na2vs0mg"},{"bike_id":"39d704be-a181-410c-82cd-b39c4fe996be","system_id":"levelo_inurba_marseille","lat":43.28356,"lon":5.38091,"is_reserved":false,"is_disabled":false,"rental_uris":{"android":"levelo://app?vid=39d704be-a181-410c-82cd-b39c4fe996be","ios":"levelo://app?vid=39d704be-a181-410c-82cd-b39c4fe996be"},"vehicle_type_id":"4","last_reported":1730502514,"current_range_meters":17200,"station_id":"ce4bh412rcd13ifvqdr0","pricing_plan_id":"cebpf4jnsgd1na2vs0mg"},{"bike_id":"658dacf4-7ef3-4634-8126-9bbd88e5a6eb","system_id":"levelo_inurba_marseille","lat":43.23204,"lon":5.35547,"is_reserved":false,"is_disabled":false,"rental_uris":{"android":"levelo://app?vid=658dacf4-7ef3-4634-8126-9bbd88e5a6eb","ios":"levelo://app?vid=658dacf4-7ef3-4634-8126-9bbd88e5a6eb"},"vehicle_type_id":"4","last_reported":1730502514,"current_range_meters":23200,"station_id":"ce4bhu92rcd13ifvqi70","pricing_plan_id":"cebpf4jnsgd1na2vs0mg"},{"bike_id":"60e43d56-bbd7-49d9-b00f-8f0987dc2224","system_id":"levelo_inurba_marseille","lat":43.28863,"lon":5.39314,"is_reserved":false,"is_disabled":false,"rental_uris":{"android":"levelo://app?vid=60e43d56-bbd7-49d9-b00f-8f0987dc2224","ios":"levelo://app?vid=60e43d56-bbd7-49d9-b00f-8f0987dc2224"},"vehicle_type_id":"4","last_reported":1730502514,"current_range_meters":18800,"station_id":"ce4bh2p2rcd13ifvqdi0","pricing_plan_id":"cebpf4jnsgd1na2vs0mg"},{"bike_id":"b98cfd7f-acdf-400e-bf8f-9132b0f74693","system_id":"levelo_inurba_marseille","lat":43.28101,"lon":5.3786,"is_reserved":false,"is_disabled":false,"rental_uris":{"android":"levelo://app?vid=b98cfd7f-acdf-400e-bf8f-9132b0f74693","ios":"levelo://app?vid=b98cfd7f-acdf-400e-bf8f-9132b0f74693"},"vehicle_type_id":"4","last_reported":1730502514,"current_range_meters":28400,"station_id":"ce4bha12rcd13ifvqee0","pricing_plan_id":"cebpf4jnsgd1na2vs0mg"},{"bike_id":"e62e38a9-284c-4b15-bfe8-8b214b98f04b","system_id":"levelo_inurba_marseille","lat":43.23059,"lon":5.35492,"is_reserved":false,"is_disabled":false,"rental_uris":{"android":"levelo://app?vid=e62e38a9-284c-4b15-bfe8-8b214b98f04b","ios":"levelo://app?vid=e62e38a9-284c-4b15-bfe8-8b214b98f04b"},"vehicle_type_id":"4","last_reported":1730502514,"current_range_meters":24800,"station_id":"cpo3342slgdg3j2ifvpg","pricing_plan_id":"cebpf4jnsgd1na2vs0mg"},{"bike_id":"8467fedf-7c26-41e5-8c2d-54535cb434fe","system_id":"levelo_inurba_marseille","lat":43.29022,"lon":5.38639,"is_reserved":false,"is_disabled":false,"rental_uris":{"android":"levelo://app?vid=8467fedf-7c26-41e5-8c2d-54535cb434fe","ios":"levelo://app?vid=8467fedf-7c26-41e5-8c2d-54535cb434fe"},"vehicle_type_id":"4","last_reported":1730502514,"current_range_meters":20000,"station_id":"ce4bh4p2rcd13ifvqe0g","pricing_plan_id":"cebpf4jnsgd1na2vs0mg"},{"bike_id":"1ced4d08-43fd-46f8-ab9a-555d4f897397","system_id":"levelo_inurba_marseille","lat":43.32292,"lon":5.38275,"is_reserved":false,"is_disabled":false,"rental_uris":{"android":"levelo://app?vid=1ced4d08-43fd-46f8-ab9a-555d4f897397","ios":"levelo://app?vid=1ced4d08-43fd-46f8-ab9a-555d4f897397"},"vehicle_type_id":"4","last_reported":1730502514,"current_range_meters":39200,"station_id":"ce4bhr12rcd13ifvqhqg","pricing_plan_id":"cebpf4jnsgd1na2vs0mg"},{"bike_id":"3d34fe6a-5dad-4b84-904b-477b1bb93813","system_id":"levelo_inurba_marseille","lat":43.30604,"lon":5.37229,"is_reserved":false,"is_disabled":false,"rental_uris":{"android":"levelo://app?vid=3d34fe6a-5dad-4b84-904b-477b1bb93813","ios":"levelo://app?vid=3d34fe6a-5dad-4b84-904b-477b1bb93813"},"vehicle_type_id":"4","last_reported":1730502514,"current_range_meters":14800,"station_id":"ce4bgqh2rcd13ifvqc4g","pricing_plan_id":"cebpf4jnsgd1na2vs0mg"},{"bike_id":"aad83483-aaa8-43f3-b586-ce82558627fc","system_id":"levelo_inurba_marseille","lat":43.30316,"lon":5.39205,"is_reserved":false,"is_disabled":false,"rental_uris":{"android":"levelo://app?vid=aad83483-aaa8-43f3-b586-ce82558627fc","ios":"levelo://app?vid=aad83483-aaa8-43f3-b586-ce82558627fc"},"vehicle_type_id":"4","last_reported":1730502514,"current_range_meters":38000,"station_id":"ce4bgkh2rcd13ifvqbk0","pricing_plan_id":"cebpf4jnsgd1na2vs0mg"},{"bike_id":"284faaa3-21e1-4483-8e3c-8ce4eb4e219e","system_id":"levelo_inurba_marseille","lat":43.31764,"lon":5.39022,"is_reserved":false,"is_disabled":false,"rental_uris":{"android":"levelo://app?vid=284faaa3-21e1-4483-8e3c-8ce4eb4e219e","ios":"levelo://app?vid=284faaa3-21e1-4483-8e3c-8ce4eb4e219e"},"vehicle_type_id":"4","last_reported":1730502514,"current_range_meters":20800,"station_id":"ce4bhqp2rcd13ifvqhng","pricing_plan_id":"cebpf4jnsgd1na2vs0mg"},{"bike_id":"adc8ba1b-c357-451b-a141-fd28290c4f51","system_id":"levelo_inurba_marseille","lat":43.28942,"lon":5.36639,"is_reserved":false,"is_disabled":false,"rental_uris":{"android":"levelo://app?vid=adc8ba1b-c357-451b-a141-fd28290c4f51","ios":"levelo://app?vid=adc8ba1b-c357-451b-a141-fd28290c4f51"},"vehicle_type_id":"4","last_reported":1730502514,"current_range_meters":38400,"station_id":"ce4bhap2rcd13ifvqek0","pricing_plan_id":"cebpf4jnsgd1na2vs0mg"},{"bike_id":"8e33461d-dabc-46db-998b-7abf32b44ee0","system_id":"levelo_inurba_marseille","lat":43.30896,"lon":5.37194,"is_reserved":false,"is_disabled":false,"rental_uris":{"android":"levelo://app?vid=8e33461d-dabc-46db-998b-7abf32b44ee0","ios":"levelo://app?vid=8e33461d-dabc-46db-998b-7abf32b44ee0"},"vehicle_type_id":"4","last_reported":1730502514,"current_range_meters":36800,"station_id":"ce4bguh2rcd13ifvqckg","pricing_plan_id":"cebpf4jnsgd1na2vs0mg"},{"bike_id":"b0d0f0bb-42ff-4ebf-8686-64832137c359","system_id":"levelo_inurba_marseille","lat":43.29033,"lon":5.38136,"is_reserved":false,"is_disabled":false,"rental_uris":{"android":"levelo://app?vid=b0d0f0bb-42ff-4ebf-8686-64832137c359","ios":"levelo://app?vid=b0d0f0bb-42ff-4ebf-8686-64832137c359"},"vehicle_type_id":"4","last_reported":1730502514,"current_range_meters":36000,"station_id":"ce4bh4p2rcd13ifvqe1g","pricing_plan_id":"cebpf4jnsgd1na2vs0mg"},{"bike_id":"b890158d-4cc0-42ea-b1b1-cf934d08cc8a","system_id":"levelo_inurba_marseille","lat":43.32363,"lon":5.38882,"is_reserved":false,"is_disabled":false,"rental_uris":{"android":"levelo://app?vid=b890158d-4cc0-42ea-b1b1-cf934d08cc8a","ios":"levelo://app?vid=b890158d-4cc0-42ea-b1b1-cf934d08cc8a"},"vehicle_type_id":"4","last_reported":1730502514,"current_range_meters":30400,"station_id":"ce4bhqp2rcd13ifvqhog","pricing_plan_id":"cebpf4jnsgd1na2vs0mg"},{"bike_id":"fe9625bd-3854-4eec-a593-8fa0f2878c84","system_id":"levelo_inurba_marseille","lat":43.29533,"lon":5.38536,"is_reserved":false,"is_disabled":false,"rental_uris":{"android":"levelo://app?vid=fe9625bd-3854-4eec-a593-8fa0f2878c84","ios":"levelo://app?vid=fe9625bd-3854-4eec-a593-8fa0f2878c84"},"vehicle_type_id":"4","last_reported":1730502514,"current_range_meters":14800,"station_id":"ce4bgih2rcd13ifvqba0","pricing_plan_id":"cebpf4jnsgd1na2vs0mg"},{"bike_id":"569b0fbe-ed72-417d-9e56-1ca18cf64965","system_id":"levelo_inurba_marseille","lat":43.297026,"lon":5.361576,"is_reserved":false,"is_disabled":false,"rental_uris":{"android":"levelo://app?vid=569b0fbe-ed72-417d-9e56-1ca18cf64965","ios":"levelo://app?vid=569b0fbe-ed72-417d-9e56-1ca18cf64965"},"vehicle_type_id":"4","last_reported":1730502514,"current_range_meters":33600,"station_id":"","pricing_plan_id":"cebpf4jnsgd1na2vs0mg"},{"bike_id":"07039837-b8c2-46fc-82a9-b7f62cec4c36","system_id":"levelo_inurba_marseille","lat":43.29587,"lon":5.38099,"is_reserved":false,"is_disabled":false,"rental_uris":{"android":"levelo://app?vid=07039837-b8c2-46fc-82a9-b7f62cec4c36","ios":"levelo://app?vid=07039837-b8c2-46fc-82a9-b7f62cec4c36"},"vehicle_type_id":"4","last_reported":1730502514,"current_range_meters":28000,"station_id":"ce4bgl12rcd13ifvqbo0","pricing_plan_id":"cebpf4jnsgd1na2vs0mg"},{"bike_id":"5561c01c-cab3-4297-89ff-4a484400938d","system_id":"levelo_inurba_marseille","lat":43.23951,"lon":5.36646,"is_reserved":false,"is_disabled":false,"rental_uris":{"android":"levelo://app?vid=5561c01c-cab3-4297-89ff-4a484400938d","ios":"levelo://app?vid=5561c01c-cab3-4297-89ff-4a484400938d"},"vehicle_type_id":"4","last_reported":1730502514,"current_range_meters":32800,"station_id":"ce4bhi12rcd13ifvqfp0","pricing_plan_id":"cebpf4jnsgd1na2vs0mg"},{"bike_id":"ed4b265d-1d35-4b1e-a20f-83de00489890","system_id":"levelo_inurba_marseille","lat":43.29033,"lon":5.38134,"is_reserved":false,"is_disabled":false,"rental_uris":{"android":"levelo://app?vid=ed4b265d-1d35-4b1e-a20f-83de00489890","ios":"levelo://app?vid=ed4b265d-1d35-4b1e-a20f-83de00489890"},"vehicle_type_id":"4","last_reported":1730502514,"current_range_meters":38800,"station_id":"ce4bh4p2rcd13ifvqe1g","pricing_plan_id":"cebpf4jnsgd1na2vs0mg"},{"bike_id":"f32dcbd5-0d40-4533-90b3-5dbd43b2b38c","system_id":"levelo_inurba_marseille","lat":43.30786,"lon":5.37642,"is_reserved":false,"is_disabled":false,"rental_uris":{"android":"levelo://app?vid=f32dcbd5-0d40-4533-90b3-5dbd43b2b38c","ios":"levelo://app?vid=f32dcbd5-0d40-4533-90b3-5dbd43b2b38c"},"vehicle_type_id":"4","last_reported":1730502514,"current_range_meters":21600,"station_id":"ce4bgv92rcd13ifvqcq0","pricing_plan_id":"cebpf4jnsgd1na2vs0mg"},{"bike_id":"ae6438f8-57ee-43d4-8e49-35f050ba43cc","system_id":"levelo_inurba_marseille","lat":43.29245,"lon":5.38446,"is_reserved":false,"is_disabled":false,"rental_uris":{"android":"levelo://app?vid=ae6438f8-57ee-43d4-8e49-35f050ba43cc","ios":"levelo://app?vid=ae6438f8-57ee-43d4-8e49-35f050ba43cc"},"vehicle_type_id":"4","last_reported":1730502514,"current_range_meters":30400,"station_id":"ce4bh692rcd13ifvqea0","pricing_plan_id":"cebpf4jnsgd1na2vs0mg"},{"bike_id":"bfab254b-dda0-49c5-ae2e-902568de5a52","system_id":"levelo_inurba_marseille","lat":43.25115,"lon":5.40327,"is_reserved":false,"is_disabled":false,"rental_uris":{"android":"levelo://app?vid=bfab254b-dda0-49c5-ae2e-902568de5a52","ios":"levelo://app?vid=bfab254b-dda0-49c5-ae2e-902568de5a52"},"vehicle_type_id":"4","last_reported":1730502514,"current_range_meters":9200,"station_id":"ce4bhlh2rcd13ifvqgig","pricing_plan_id":"cebpf4jnsgd1na2vs0mg"},{"bike_id":"99c75985-eb4a-49d1-83f4-1dfd2721cdb2","system_id":"levelo_inurba_marseille","lat":43.30888,"lon":5.37193,"is_reserved":false,"is_disabled":false,"rental_uris":{"android":"levelo://app?vid=99c75985-eb4a-49d1-83f4-1dfd2721cdb2","ios":"levelo://app?vid=99c75985-eb4a-49d1-83f4-1dfd2721cdb2"},"vehicle_type_id":"4","last_reported":1730502514,"current_range_meters":34800,"station_id":"ce4bguh2rcd13ifvqckg","pricing_plan_id":"cebpf4jnsgd1na2vs0mg"},{"bike_id":"b66057d0-f126-4e75-8cd6-4510894fc0f1","system_id":"levelo_inurba_marseille","lat":43.28102,"lon":5.37834,"is_reserved":false,"is_disabled":false,"rental_uris":{"android":"levelo://app?vid=b66057d0-f126-4e75-8cd6-4510894fc0f1","ios":"levelo://app?vid=b66057d0-f126-4e75-8cd6-4510894fc0f1"},"vehicle_type_id":"4","last_reported":1730502514,"current_range_meters":38800,"station_id":"ce4bha12rcd13ifvqee0","pricing_plan_id":"cebpf4jnsgd1na2vs0mg"},{"bike_id":"9b3cdd1c-31e2-45e9-a347-f5de25356952","system_id":"levelo_inurba_marseille","lat":43.29417,"lon":5.38613,"is_reserved":false,"is_disabled":false,"rental_uris":{"android":"levelo://app?vid=9b3cdd1c-31e2-45e9-a347-f5de25356952","ios":"levelo://app?vid=9b3cdd1c-31e2-45e9-a347-f5de25356952"},"vehicle_type_id":"4","last_reported":1730502514,"current_range_meters":38800,"station_id":"ce4bh2h2rcd13ifvqdh0","pricing_plan_id":"cebpf4jnsgd1na2vs0mg"},{"bike_id":"b9dae35d-f9f9-4405-947e-479a57dd0f89","system_id":"levelo_inurba_marseille","lat":43.28858,"lon":5.35866,"is_reserved":false,"is_disabled":false,"rental_uris":{"android":"levelo://app?vid=b9dae35d-f9f9-4405-947e-479a57dd0f89","ios":"levelo://app?vid=b9dae35d-f9f9-4405-947e-479a57dd0f89"},"vehicle_type_id":"4","last_reported":1730502514,"current_range_meters":38400,"station_id":"ce4bhb12rcd13ifvqem0","pricing_plan_id":"cebpf4jnsgd1na2vs0mg"},{"bike_id":"379b04d9-20e2-4f2f-a080-e8290f8e87e1","system_id":"levelo_inurba_marseille","lat":43.31276,"lon":5.40164,"is_reserved":false,"is_disabled":false,"rental_uris":{"android":"levelo://app?vid=379b04d9-20e2-4f2f-a080-e8290f8e87e1","ios":"levelo://app?vid=379b04d9-20e2-4f2f-a080-e8290f8e87e1"},"vehicle_type_id":"4","last_reported":1730502514,"current_range_meters":35600,"station_id":"ce4bh092rcd13ifvqd30","pricing_plan_id":"cebpf4jnsgd1na2vs0mg"},{"bike_id":"56210318-d928-45e7-8cc3-95f6a0735d19","system_id":"levelo_inurba_marseille","lat":43.2953,"lon":5.3854,"is_reserved":false,"is_disabled":false,"rental_uris":{"android":"levelo://app?vid=56210318-d928-45e7-8cc3-95f6a0735d19","ios":"levelo://app?vid=56210318-d928-45e7-8cc3-95f6a0735d19"},"vehicle_type_id":"4","last_reported":1730502514,"current_range_meters":22000,"station_id":"ce4bgih2rcd13ifvqba0","pricing_plan_id":"cebpf4jnsgd1na2vs0mg"},{"bike_id":"016a4bf1-781c-43c3-9a9e-b42149c36362","system_id":"levelo_inurba_marseille","lat":43.28347,"lon":5.38102,"is_reserved":false,"is_disabled":false,"rental_uris":{"android":"levelo://app?vid=016a4bf1-781c-43c3-9a9e-b42149c36362","ios":"levelo://app?vid=016a4bf1-781c-43c3-9a9e-b42149c36362"},"vehicle_type_id":"4","last_reported":1730502514,"current_range_meters":38800,"station_id":"ce4bh412rcd13ifvqdr0","pricing_plan_id":"cebpf4jnsgd1na2vs0mg"},{"bike_id":"6862e9b8-afc9-43ff-8a41-65ec62d2cc08","system_id":"levelo_inurba_marseille","lat":43.293,"lon":5.37456,"is_reserved":false,"is_disabled":false,"rental_uris":{"android":"levelo://app?vid=6862e9b8-afc9-43ff-8a41-65ec62d2cc08","ios":"levelo://app?vid=6862e9b8-afc9-43ff-8a41-65ec62d2cc08"},"vehicle_type_id":"4","last_reported":1730502514,"current_range_meters":12400,"station_id":"ce4bgi12rcd13ifvqb70","pricing_plan_id":"cebpf4jnsgd1na2vs0mg"},{"bike_id":"91f7493f-832e-4490-ab02-f3bd3a59805d","system_id":"levelo_inurba_marseille","lat":43.28456,"lon":5.35895,"is_reserved":false,"is_disabled":false,"rental_uris":{"android":"levelo://app?vid=91f7493f-832e-4490-ab02-f3bd3a59805d","ios":"levelo://app?vid=91f7493f-832e-4490-ab02-f3bd3a59805d"},"vehicle_type_id":"4","last_reported":1730502514,"current_range_meters":39200,"station_id":"ce4bhah2rcd13ifvqei0","pricing_plan_id":"cebpf4jnsgd1na2vs0mg"},{"bike_id":"2d7de978-fe7a-4748-bce2-9b270b74d3a7","system_id":"levelo_inurba_marseille","lat":43.28107,"lon":5.37845,"is_reserved":false,"is_disabled":false,"rental_uris":{"android":"levelo://app?vid=2d7de978-fe7a-4748-bce2-9b270b74d3a7","ios":"levelo://app?vid=2d7de978-fe7a-4748-bce2-9b270b74d3a7"},"vehicle_type_id":"4","last_reported":1730502514,"current_range_meters":38000,"station_id":"ce4bha12rcd13ifvqee0","pricing_plan_id":"cebpf4jnsgd1na2vs0mg"},{"bike_id":"64f2c005-032c-4707-acd0-06377d52b98a","system_id":"levelo_inurba_marseille","lat":43.3171,"lon":5.37755,"is_reserved":false,"is_disabled":false,"rental_uris":{"android":"levelo://app?vid=64f2c005-032c-4707-acd0-06377d52b98a","ios":"levelo://app?vid=64f2c005-032c-4707-acd0-06377d52b98a"},"vehicle_type_id":"4","last_reported":1730502514,"current_range_meters":18000,"station_id":"ce4bgth2rcd13ifvqch0","pricing_plan_id":"cebpf4jnsgd1na2vs0mg"},{"bike_id":"3da09c89-7a5b-46c8-a421-ac317ff3e4fa","system_id":"levelo_inurba_marseille","lat":43.29253,"lon":5.38438,"is_reserved":false,"is_disabled":false,"rental_uris":{"android":"levelo://app?vid=3da09c89-7a5b-46c8-a421-ac317ff3e4fa","ios":"levelo://app?vid=3da09c89-7a5b-46c8-a421-ac317ff3e4fa"},"vehicle_type_id":"4","last_reported":1730502514,"current_range_meters":38800,"station_id":"ce4bh692rcd13ifvqea0","pricing_plan_id":"cebpf4jnsgd1na2vs0mg"},{"bike_id":"b0176a28-527c-42b9-b750-f1dad8510223","system_id":"levelo_inurba_marseille","lat":43.30145,"lon":5.37416,"is_reserved":false,"is_disabled":false,"rental_uris":{"android":"levelo://app?vid=b0176a28-527c-42b9-b750-f1dad8510223","ios":"levelo://app?vid=b0176a28-527c-42b9-b750-f1dad8510223"},"vehicle_type_id":"4","last_reported":1730502514,"current_range_meters":32000,"station_id":"ce4bgs92rcd13ifvqcc0","pricing_plan_id":"cebpf4jnsgd1na2vs0mg"},{"bike_id":"2784f811-1a9f-49ef-99e1-2906dc6dffb4","system_id":"levelo_inurba_marseille","lat":43.29417,"lon":5.38619,"is_reserved":false,"is_disabled":false,"rental_uris":{"android":"levelo://app?vid=2784f811-1a9f-49ef-99e1-2906dc6dffb4","ios":"levelo://app?vid=2784f811-1a9f-49ef-99e1-2906dc6dffb4"},"vehicle_type_id":"4","last_reported":1730502514,"current_range_meters":35600,"station_id":"ce4bh2h2rcd13ifvqdh0","pricing_plan_id":"cebpf4jnsgd1na2vs0mg"},{"bike_id":"15097f61-a1d7-4b0b-80aa-883f8eebec37","system_id":"levelo_inurba_marseille","lat":43.30593,"lon":5.39351,"is_reserved":false,"is_disabled":false,"rental_uris":{"android":"levelo://app?vid=15097f61-a1d7-4b0b-80aa-883f8eebec37","ios":"levelo://app?vid=15097f61-a1d7-4b0b-80aa-883f8eebec37"},"vehicle_type_id":"4","last_reported":1730502514,"current_range_meters":38800,"station_id":"ce4bh0p2rcd13ifvqd80","pricing_plan_id":"cebpf4jnsgd1na2vs0mg"},{"bike_id":"b2362997-f37b-4511-b744-2795bb584636","system_id":"levelo_inurba_marseille","lat":43.28107,"lon":5.37848,"is_reserved":false,"is_disabled":false,"rental_uris":{"android":"levelo://app?vid=b2362997-f37b-4511-b744-2795bb584636","ios":"levelo://app?vid=b2362997-f37b-4511-b744-2795bb584636"},"vehicle_type_id":"4","last_reported":1730502514,"current_range_meters":35200,"station_id":"ce4bha12rcd13ifvqee0","pricing_plan_id":"cebpf4jnsgd1na2vs0mg"},{"bike_id":"ced2c869-3acd-455a-b67a-a37d01c70d0b","system_id":"levelo_inurba_marseille","lat":43.32651,"lon":5.41268,"is_reserved":false,"is_disabled":false,"rental_uris":{"android":"levelo://app?vid=ced2c869-3acd-455a-b67a-a37d01c70d0b","ios":"levelo://app?vid=ced2c869-3acd-455a-b67a-a37d01c70d0b"},"vehicle_type_id":"4","last_reported":1730502514,"current_range_meters":36400,"station_id":"","pricing_plan_id":"cebpf4jnsgd1na2vs0mg"},{"bike_id":"a4de29bb-1d70-40a6-bd33-383183bead72","system_id":"levelo_inurba_marseille","lat":43.29413,"lon":5.38615,"is_reserved":false,"is_disabled":false,"rental_uris":{"android":"levelo://app?vid=a4de29bb-1d70-40a6-bd33-383183bead72","ios":"levelo://app?vid=a4de29bb-1d70-40a6-bd33-383183bead72"},"vehicle_type_id":"4","last_reported":1730502514,"current_range_meters":38400,"station_id":"ce4bh2h2rcd13ifvqdh0","pricing_plan_id":"cebpf4jnsgd1na2vs0mg"},{"bike_id":"25efdd14-e5a3-4f02-a8ea-e62e3c219fa3","system_id":"levelo_inurba_marseille","lat":43.281546,"lon":5.426494,"is_reserved":false,"is_disabled":false,"rental_uris":{"android":"levelo://app?vid=25efdd14-e5a3-4f02-a8ea-e62e3c219fa3","ios":"levelo://app?vid=25efdd14-e5a3-4f02-a8ea-e62e3c219fa3"},"vehicle_type_id":"4","last_reported":1730502514,"current_range_meters":39200,"station_id":"ce4bhnh2rcd13ifvqgug","pricing_plan_id":"cebpf4jnsgd1na2vs0mg"},{"bike_id":"e1610605-5756-4123-907e-88ebe2cdf2d8","system_id":"levelo_inurba_marseille","lat":43.29022,"lon":5.38655,"is_reserved":false,"is_disabled":false,"rental_uris":{"android":"levelo://app?vid=e1610605-5756-4123-907e-88ebe2cdf2d8","ios":"levelo://app?vid=e1610605-5756-4123-907e-88ebe2cdf2d8"},"vehicle_type_id":"4","last_reported":1730502514,"current_range_meters":33600,"station_id":"ce4bh4p2rcd13ifvqe0g","pricing_plan_id":"cebpf4jnsgd1na2vs0mg"},{"bike_id":"18402065-9e87-476b-95ad-30853de181a0","system_id":"levelo_inurba_marseille","lat":43.32456,"lon":5.45549,"is_reserved":false,"is_disabled":false,"rental_uris":{"android":"levelo://app?vid=18402065-9e87-476b-95ad-30853de181a0","ios":"levelo://app?vid=18402065-9e87-476b-95ad-30853de181a0"},"vehicle_type_id":"4","last_reported":1730502514,"current_range_meters":9600,"station_id":"","pricing_plan_id":"cebpf4jnsgd1na2vs0mg"},{"bike_id":"dc4f4ac9-cf8f-4e66-8a3f-44dca6d3cc43","system_id":"levelo_inurba_marseille","lat":43.27969,"lon":5.38735,"is_reserved":false,"is_disabled":false,"rental_uris":{"android":"levelo://app?vid=dc4f4ac9-cf8f-4e66-8a3f-44dca6d3cc43","ios":"levelo://app?vid=dc4f4ac9-cf8f-4e66-8a3f-44dca6d3cc43"},"vehicle_type_id":"4","last_reported":1730502514,"current_range_meters":33200,"station_id":"ce4bhg12rcd13ifvqf80","pricing_plan_id":"cebpf4jnsgd1na2vs0mg"},{"bike_id":"f6fac059-fe85-4d7a-8ea9-001b079724c7","system_id":"levelo_inurba_marseille","lat":43.29422,"lon":5.38602,"is_reserved":false,"is_disabled":false,"rental_uris":{"android":"levelo://app?vid=f6fac059-fe85-4d7a-8ea9-001b079724c7","ios":"levelo://app?vid=f6fac059-fe85-4d7a-8ea9-001b079724c7"},"vehicle_type_id":"4","last_reported":1730502514,"current_range_meters":38000,"station_id":"ce4bh2h2rcd13ifvqdh0","pricing_plan_id":"cebpf4jnsgd1na2vs0mg"},{"bike_id":"711fc037-1485-48d1-a756-6d4246ae9cd4","system_id":"levelo_inurba_marseille","lat":43.24655,"lon":5.38893,"is_reserved":false,"is_disabled":false,"rental_uris":{"android":"levelo://app?vid=711fc037-1485-48d1-a756-6d4246ae9cd4","ios":"levelo://app?vid=711fc037-1485-48d1-a756-6d4246ae9cd4"},"vehicle_type_id":"4","last_reported":1730502514,"current_range_meters":6800,"station_id":"ce4bhg12rcd13ifvqf60","pricing_plan_id":"cebpf4jnsgd1na2vs0mg"},{"bike_id":"7da91e36-1525-41e6-b54e-7660a2ef00cf","system_id":"levelo_inurba_marseille","lat":43.29882,"lon":5.39731,"is_reserved":false,"is_disabled":false,"rental_uris":{"android":"levelo://app?vid=7da91e36-1525-41e6-b54e-7660a2ef00cf","ios":"levelo://app?vid=7da91e36-1525-41e6-b54e-7660a2ef00cf"},"vehicle_type_id":"4","last_reported":1730502514,"current_range_meters":27600,"station_id":"ce4bh0h2rcd13ifvqd50","pricing_plan_id":"cebpf4jnsgd1na2vs0mg"},{"bike_id":"79522278-bab5-48ef-ae84-096ed9c7c598","system_id":"levelo_inurba_marseille","lat":43.2795,"lon":5.4105,"is_reserved":false,"is_disabled":false,"rental_uris":{"android":"levelo://app?vid=79522278-bab5-48ef-ae84-096ed9c7c598","ios":"levelo://app?vid=79522278-bab5-48ef-ae84-096ed9c7c598"},"vehicle_type_id":"4","last_reported":1730502514,"current_range_meters":9200,"station_id":"ce4bhnp2rcd13ifvqh0g","pricing_plan_id":"cebpf4jnsgd1na2vs0mg"},{"bike_id":"00977228-a078-40fc-9d67-f6027b15cd19","system_id":"levelo_inurba_marseille","lat":43.30888,"lon":5.37189,"is_reserved":false,"is_disabled":false,"rental_uris":{"android":"levelo://app?vid=00977228-a078-40fc-9d67-f6027b15cd19","ios":"levelo://app?vid=00977228-a078-40fc-9d67-f6027b15cd19"},"vehicle_type_id":"4","last_reported":1730502514,"current_range_meters":10000,"station_id":"ce4bguh2rcd13ifvqckg","pricing_plan_id":"cebpf4jnsgd1na2vs0mg"},{"bike_id":"10ba1237-0b94-41b7-894d-044c99e47881","system_id":"levelo_inurba_marseille","lat":43.296,"lon":5.38107,"is_reserved":false,"is_disabled":false,"rental_uris":{"android":"levelo://app?vid=10ba1237-0b94-41b7-894d-044c99e47881","ios":"levelo://app?vid=10ba1237-0b94-41b7-894d-044c99e47881"},"vehicle_type_id":"4","last_reported":1730502514,"current_range_meters":35600,"station_id":"ce4bgl12rcd13ifvqbo0","pricing_plan_id":"cebpf4jnsgd1na2vs0mg"},{"bike_id":"05289bf4-73c4-4b4e-830b-c6a22094e995","system_id":"levelo_inurba_marseille","lat":43.2737,"lon":5.36262,"is_reserved":false,"is_disabled":false,"rental_uris":{"android":"levelo://app?vid=05289bf4-73c4-4b4e-830b-c6a22094e995","ios":"levelo://app?vid=05289bf4-73c4-4b4e-830b-c6a22094e995"},"vehicle_type_id":"4","last_reported":1730502514,"current_range_meters":39200,"station_id":"ce4bhbh2rcd13ifvqeo0","pricing_plan_id":"cebpf4jnsgd1na2vs0mg"},{"bike_id":"460f8dbf-5c74-4538-b47c-2be4684064c4","system_id":"levelo_inurba_marseille","lat":43.24387,"lon":5.37058,"is_reserved":false,"is_disabled":false,"rental_uris":{"android":"levelo://app?vid=460f8dbf-5c74-4538-b47c-2be4684064c4","ios":"levelo://app?vid=460f8dbf-5c74-4538-b47c-2be4684064c4"},"vehicle_type_id":"4","last_reported":1730502514,"current_range_meters":10800,"station_id":"ce4bhhh2rcd13ifvqfk0","pricing_plan_id":"cebpf4jnsgd1na2vs0mg"},{"bike_id":"9e54130a-3084-46d5-a88d-7b44c836d8d6","system_id":"levelo_inurba_marseille","lat":43.26801,"lon":5.40268,"is_reserved":false,"is_disabled":false,"rental_uris":{"android":"levelo://app?vid=9e54130a-3084-46d5-a88d-7b44c836d8d6","ios":"levelo://app?vid=9e54130a-3084-46d5-a88d-7b44c836d8d6"},"vehicle_type_id":"4","last_reported":1730502514,"current_range_meters":6400,"station_id":"ce501612rcd8frsf0b60","pricing_plan_id":"cebpf4jnsgd1na2vs0mg"},{"bike_id":"003141cc-57ad-4350-872f-1e1448004c32","system_id":"levelo_inurba_marseille","lat":43.26788,"lon":5.41148,"is_reserved":false,"is_disabled":false,"rental_uris":{"android":"levelo://app?vid=003141cc-57ad-4350-872f-1e1448004c32","ios":"levelo://app?vid=003141cc-57ad-4350-872f-1e1448004c32"},"vehicle_type_id":"4","last_reported":1730502514,"current_range_meters":36800,"station_id":"","pricing_plan_id":"cebpf4jnsgd1na2vs0mg"},{"bike_id":"ef30c907-9b95-4f0a-99f1-0cbd098879ad","system_id":"levelo_inurba_marseille","lat":43.28568,"lon":5.39495,"is_reserved":false,"is_disabled":false,"rental_uris":{"android":"levelo://app?vid=ef30c907-9b95-4f0a-99f1-0cbd098879ad","ios":"levelo://app?vid=ef30c907-9b95-4f0a-99f1-0cbd098879ad"},"vehicle_type_id":"4","last_reported":1730502514,"current_range_meters":38800,"station_id":"ce4bh292rcd13ifvqdg0","pricing_plan_id":"cebpf4jnsgd1na2vs0mg"},{"bike_id":"2b1a597e-2c5b-48cb-9ef1-f40b2bfb2c3b","system_id":"levelo_inurba_marseille","lat":43.28721,"lon":5.36089,"is_reserved":false,"is_disabled":false,"rental_uris":{"android":"levelo://app?vid=2b1a597e-2c5b-48cb-9ef1-f40b2bfb2c3b","ios":"levelo://app?vid=2b1a597e-2c5b-48cb-9ef1-f40b2bfb2c3b"},"vehicle_type_id":"4","last_reported":1730502514,"current_range_meters":26800,"station_id":"cki0cbj6b192h4jlfktg","pricing_plan_id":"cebpf4jnsgd1na2vs0mg"},{"bike_id":"00abf3a2-1f98-4ad0-93de-b7ce5366ba35","system_id":"levelo_inurba_marseille","lat":43.2868,"lon":5.38659,"is_reserved":false,"is_disabled":false,"rental_uris":{"android":"levelo://app?vid=00abf3a2-1f98-4ad0-93de-b7ce5366ba35","ios":"levelo://app?vid=00abf3a2-1f98-4ad0-93de-b7ce5366ba35"},"vehicle_type_id":"4","last_reported":1730502514,"current_range_meters":38000,"station_id":"ce4bh492rcd13ifvqdug","pricing_plan_id":"cebpf4jnsgd1na2vs0mg"},{"bike_id":"f3a5be93-6207-4d7a-9e74-1b51b710d9da","system_id":"levelo_inurba_marseille","lat":43.28686,"lon":5.38649,"is_reserved":false,"is_disabled":false,"rental_uris":{"android":"levelo://app?vid=f3a5be93-6207-4d7a-9e74-1b51b710d9da","ios":"levelo://app?vid=f3a5be93-6207-4d7a-9e74-1b51b710d9da"},"vehicle_type_id":"4","last_reported":1730502514,"current_range_meters":30400,"station_id":"ce4bh492rcd13ifvqdug","pricing_plan_id":"cebpf4jnsgd1na2vs0mg"},{"bike_id":"c464d67e-1a73-40bd-b8bb-ad08b05c10b4","system_id":"levelo_inurba_marseille","lat":43.31276,"lon":5.40179,"is_reserved":false,"is_disabled":false,"rental_uris":{"android":"levelo://app?vid=c464d67e-1a73-40bd-b8bb-ad08b05c10b4","ios":"levelo://app?vid=c464d67e-1a73-40bd-b8bb-ad08b05c10b4"},"vehicle_type_id":"4","last_reported":1730502514,"current_range_meters":10000,"station_id":"ce4bh092rcd13ifvqd30","pricing_plan_id":"cebpf4jnsgd1na2vs0mg"},{"bike_id":"dd146168-981e-408f-b3fe-7656f2b9a9b9","system_id":"levelo_inurba_marseille","lat":43.3093,"lon":5.40143,"is_reserved":false,"is_disabled":false,"rental_uris":{"android":"levelo://app?vid=dd146168-981e-408f-b3fe-7656f2b9a9b9","ios":"levelo://app?vid=dd146168-981e-408f-b3fe-7656f2b9a9b9"},"vehicle_type_id":"4","last_reported":1730502514,"current_range_meters":28000,"station_id":"ce4bgvp2rcd13ifvqct0","pricing_plan_id":"cebpf4jnsgd1na2vs0mg"},{"bike_id":"039a64d6-5e87-4141-81e3-2e1ffc1e11a5","system_id":"levelo_inurba_marseille","lat":43.27996,"lon":5.40018,"is_reserved":false,"is_disabled":false,"rental_uris":{"android":"levelo://app?vid=039a64d6-5e87-4141-81e3-2e1ffc1e11a5","ios":"levelo://app?vid=039a64d6-5e87-4141-81e3-2e1ffc1e11a5"},"vehicle_type_id":"4","last_reported":1730502514,"current_range_meters":38800,"station_id":"ce4bho92rcd13ifvqh4g","pricing_plan_id":"cebpf4jnsgd1na2vs0mg"},{"bike_id":"a5058c7c-1905-4bd3-9d43-fefe64152d11","system_id":"levelo_inurba_marseille","lat":43.27813,"lon":5.40707,"is_reserved":false,"is_disabled":false,"rental_uris":{"android":"levelo://app?vid=a5058c7c-1905-4bd3-9d43-fefe64152d11","ios":"levelo://app?vid=a5058c7c-1905-4bd3-9d43-fefe64152d11"},"vehicle_type_id":"4","last_reported":1730502514,"current_range_meters":39200,"station_id":"ce4bhnh2rcd13ifvqgtg","pricing_plan_id":"cebpf4jnsgd1na2vs0mg"},{"bike_id":"feb33e77-985d-4d2f-b6f2-91b950c16319","system_id":"levelo_inurba_marseille","lat":43.3122,"lon":5.3686,"is_reserved":false,"is_disabled":false,"rental_uris":{"android":"levelo://app?vid=feb33e77-985d-4d2f-b6f2-91b950c16319","ios":"levelo://app?vid=feb33e77-985d-4d2f-b6f2-91b950c16319"},"vehicle_type_id":"4","last_reported":1730502514,"current_range_meters":39200,"station_id":"ce4bgl92rcd13ifvqbq0","pricing_plan_id":"cebpf4jnsgd1na2vs0mg"},{"bike_id":"54cc8e5d-62cf-4a96-9c8d-51004c9f0070","system_id":"levelo_inurba_marseille","lat":43.28619,"lon":5.35099,"is_reserved":false,"is_disabled":false,"rental_uris":{"android":"levelo://app?vid=54cc8e5d-62cf-4a96-9c8d-51004c9f0070","ios":"levelo://app?vid=54cc8e5d-62cf-4a96-9c8d-51004c9f0070"},"vehicle_type_id":"4","last_reported":1730502514,"current_range_meters":22000,"station_id":"ce4bhch2rcd13ifvqeug","pricing_plan_id":"cebpf4jnsgd1na2vs0mg"},{"bike_id":"05a1b52d-ed51-46c3-9c46-ad7ff8006470","system_id":"levelo_inurba_marseille","lat":43.24677,"lon":5.38167,"is_reserved":false,"is_disabled":false,"rental_uris":{"android":"levelo://app?vid=05a1b52d-ed51-46c3-9c46-ad7ff8006470","ios":"levelo://app?vid=05a1b52d-ed51-46c3-9c46-ad7ff8006470"},"vehicle_type_id":"4","last_reported":1730502514,"current_range_meters":5600,"station_id":"ce4bhih2rcd13ifvqfr0","pricing_plan_id":"cebpf4jnsgd1na2vs0mg"},{"bike_id":"627d220e-daa9-4a70-b12f-dfeb64a7a8be","system_id":"levelo_inurba_marseille","lat":43.28922,"lon":5.38405,"is_reserved":false,"is_disabled":false,"rental_uris":{"android":"levelo://app?vid=627d220e-daa9-4a70-b12f-dfeb64a7a8be","ios":"levelo://app?vid=627d220e-daa9-4a70-b12f-dfeb64a7a8be"},"vehicle_type_id":"4","last_reported":1730502514,"current_range_meters":14000,"station_id":"ce4bh612rcd13ifvqe6g","pricing_plan_id":"cebpf4jnsgd1na2vs0mg"},{"bike_id":"b18f9999-3088-4ef8-9376-9cfecad69475","system_id":"levelo_inurba_marseille","lat":43.30781,"lon":5.37656,"is_reserved":false,"is_disabled":false,"rental_uris":{"android":"levelo://app?vid=b18f9999-3088-4ef8-9376-9cfecad69475","ios":"levelo://app?vid=b18f9999-3088-4ef8-9376-9cfecad69475"},"vehicle_type_id":"4","last_reported":1730502514,"current_range_meters":23200,"station_id":"ce4bgv92rcd13ifvqcq0","pricing_plan_id":"cebpf4jnsgd1na2vs0mg"},{"bike_id":"6fe18682-cd8d-42dd-bfda-25ed8e767456","system_id":"levelo_inurba_marseille","lat":43.2942,"lon":5.38632,"is_reserved":false,"is_disabled":false,"rental_uris":{"android":"levelo://app?vid=6fe18682-cd8d-42dd-bfda-25ed8e767456","ios":"levelo://app?vid=6fe18682-cd8d-42dd-bfda-25ed8e767456"},"vehicle_type_id":"4","last_reported":1730502514,"current_range_meters":28800,"station_id":"ce4bh2h2rcd13ifvqdh0","pricing_plan_id":"cebpf4jnsgd1na2vs0mg"},{"bike_id":"181e392c-49ab-4006-ab89-c51519379775","system_id":"levelo_inurba_marseille","lat":43.28701,"lon":5.37394,"is_reserved":false,"is_disabled":false,"rental_uris":{"android":"levelo://app?vid=181e392c-49ab-4006-ab89-c51519379775","ios":"levelo://app?vid=181e392c-49ab-4006-ab89-c51519379775"},"vehicle_type_id":"4","last_reported":1730502514,"current_range_meters":38800,"station_id":"ce4bh3p2rcd13ifvqdq0","pricing_plan_id":"cebpf4jnsgd1na2vs0mg"},{"bike_id":"89f9b078-381e-4f1b-943b-461fcea88c01","system_id":"levelo_inurba_marseille","lat":43.28717,"lon":5.39999,"is_reserved":false,"is_disabled":false,"rental_uris":{"android":"levelo://app?vid=89f9b078-381e-4f1b-943b-461fcea88c01","ios":"levelo://app?vid=89f9b078-381e-4f1b-943b-461fcea88c01"},"vehicle_type_id":"4","last_reported":1730502514,"current_range_meters":38800,"station_id":"ce4bho92rcd13ifvqh3g","pricing_plan_id":"cebpf4jnsgd1na2vs0mg"},{"bike_id":"d8c8460e-88aa-4929-8b6f-75300411d6df","system_id":"levelo_inurba_marseille","lat":43.27434,"lon":5.39417,"is_reserved":false,"is_disabled":false,"rental_uris":{"android":"levelo://app?vid=d8c8460e-88aa-4929-8b6f-75300411d6df","ios":"levelo://app?vid=d8c8460e-88aa-4929-8b6f-75300411d6df"},"vehicle_type_id":"4","last_reported":1730502514,"current_range_meters":15200,"station_id":"ce4bhdp2rcd13ifvqf20","pricing_plan_id":"cebpf4jnsgd1na2vs0mg"},{"bike_id":"c7e7c0b0-5966-4107-8d4c-f58ccc4d9394","system_id":"levelo_inurba_marseille","lat":43.30799,"lon":5.38163,"is_reserved":false,"is_disabled":false,"rental_uris":{"android":"levelo://app?vid=c7e7c0b0-5966-4107-8d4c-f58ccc4d9394","ios":"levelo://app?vid=c7e7c0b0-5966-4107-8d4c-f58ccc4d9394"},"vehicle_type_id":"4","last_reported":1730502514,"current_range_meters":26800,"station_id":"ce4bgt12rcd13ifvqce0","pricing_plan_id":"cebpf4jnsgd1na2vs0mg"},{"bike_id":"ef10497a-439b-4c81-9e9b-6c7dcb7e5450","system_id":"levelo_inurba_marseille","lat":43.287107,"lon":5.399984,"is_reserved":false,"is_disabled":false,"rental_uris":{"android":"levelo://app?vid=ef10497a-439b-4c81-9e9b-6c7dcb7e5450","ios":"levelo://app?vid=ef10497a-439b-4c81-9e9b-6c7dcb7e5450"},"vehicle_type_id":"4","last_reported":1730502514,"current_range_meters":38400,"station_id":"ce4bho92rcd13ifvqh3g","pricing_plan_id":"cebpf4jnsgd1na2vs0mg"},{"bike_id":"bbdcb840-5f6c-4490-9fd4-391fed34b525","system_id":"levelo_inurba_marseille","lat":43.27374,"lon":5.36264,"is_reserved":false,"is_disabled":false,"rental_uris":{"android":"levelo://app?vid=bbdcb840-5f6c-4490-9fd4-391fed34b525","ios":"levelo://app?vid=bbdcb840-5f6c-4490-9fd4-391fed34b525"},"vehicle_type_id":"4","last_reported":1730502514,"current_range_meters":37600,"station_id":"ce4bhbh2rcd13ifvqeo0","pricing_plan_id":"cebpf4jnsgd1na2vs0mg"},{"bike_id":"bff4d2d5-c517-49af-84bd-b3ba7cffdb4c","system_id":"levelo_inurba_marseille","lat":43.25824,"lon":5.39432,"is_reserved":false,"is_disabled":false,"rental_uris":{"android":"levelo://app?vid=bff4d2d5-c517-49af-84bd-b3ba7cffdb4c","ios":"levelo://app?vid=bff4d2d5-c517-49af-84bd-b3ba7cffdb4c"},"vehicle_type_id":"4","last_reported":1730502514,"current_range_meters":39200,"station_id":"ce4bhip2rcd13ifvqft0","pricing_plan_id":"cebpf4jnsgd1na2vs0mg"},{"bike_id":"2f4a7e37-da0a-4dde-9156-866038c5d727","system_id":"levelo_inurba_marseille","lat":43.30807,"lon":5.38136,"is_reserved":false,"is_disabled":false,"rental_uris":{"android":"levelo://app?vid=2f4a7e37-da0a-4dde-9156-866038c5d727","ios":"levelo://app?vid=2f4a7e37-da0a-4dde-9156-866038c5d727"},"vehicle_type_id":"4","last_reported":1730502514,"current_range_meters":4000,"station_id":"ce4bgt12rcd13ifvqce0","pricing_plan_id":"cebpf4jnsgd1na2vs0mg"},{"bike_id":"57c9797f-e976-442f-8564-67b023f27179","system_id":"levelo_inurba_marseille","lat":43.28701,"lon":5.39982,"is_reserved":false,"is_disabled":false,"rental_uris":{"android":"levelo://app?vid=57c9797f-e976-442f-8564-67b023f27179","ios":"levelo://app?vid=57c9797f-e976-442f-8564-67b023f27179"},"vehicle_type_id":"4","last_reported":1730502514,"current_range_meters":22800,"station_id":"ce4bho92rcd13ifvqh3g","pricing_plan_id":"cebpf4jnsgd1na2vs0mg"},{"bike_id":"40093d02-6f7a-41b9-a540-1965db1c6825","system_id":"levelo_inurba_marseille","lat":43.29419,"lon":5.38633,"is_reserved":false,"is_disabled":false,"rental_uris":{"android":"levelo://app?vid=40093d02-6f7a-41b9-a540-1965db1c6825","ios":"levelo://app?vid=40093d02-6f7a-41b9-a540-1965db1c6825"},"vehicle_type_id":"4","last_reported":1730502514,"current_range_meters":38800,"station_id":"ce4bh2h2rcd13ifvqdh0","pricing_plan_id":"cebpf4jnsgd1na2vs0mg"},{"bike_id":"4aca9276-a75c-423e-b263-5d8176dc7d7b","system_id":"levelo_inurba_marseille","lat":43.30924,"lon":5.4015,"is_reserved":false,"is_disabled":false,"rental_uris":{"android":"levelo://app?vid=4aca9276-a75c-423e-b263-5d8176dc7d7b","ios":"levelo://app?vid=4aca9276-a75c-423e-b263-5d8176dc7d7b"},"vehicle_type_id":"4","last_reported":1730502514,"current_range_meters":16000,"station_id":"ce4bgvp2rcd13ifvqct0","pricing_plan_id":"cebpf4jnsgd1na2vs0mg"},{"bike_id":"8c67d340-801d-46e5-b910-2f8aff3ff078","system_id":"levelo_inurba_marseille","lat":43.33358,"lon":5.37035,"is_reserved":false,"is_disabled":false,"rental_uris":{"android":"levelo://app?vid=8c67d340-801d-46e5-b910-2f8aff3ff078","ios":"levelo://app?vid=8c67d340-801d-46e5-b910-2f8aff3ff078"},"vehicle_type_id":"4","last_reported":1730502514,"current_range_meters":13600,"station_id":"","pricing_plan_id":"cebpf4jnsgd1na2vs0mg"},{"bike_id":"83356032-baeb-401a-bdff-8adddb83ed12","system_id":"levelo_inurba_marseille","lat":43.23198,"lon":5.35552,"is_reserved":false,"is_disabled":false,"rental_uris":{"android":"levelo://app?vid=83356032-baeb-401a-bdff-8adddb83ed12","ios":"levelo://app?vid=83356032-baeb-401a-bdff-8adddb83ed12"},"vehicle_type_id":"4","last_reported":1730502514,"current_range_meters":38400,"station_id":"ce4bhu92rcd13ifvqi70","pricing_plan_id":"cebpf4jnsgd1na2vs0mg"},{"bike_id":"af963c11-4218-4474-b8e9-bbb749cadb90","system_id":"levelo_inurba_marseille","lat":43.30205,"lon":5.39462,"is_reserved":false,"is_disabled":false,"rental_uris":{"android":"levelo://app?vid=af963c11-4218-4474-b8e9-bbb749cadb90","ios":"levelo://app?vid=af963c11-4218-4474-b8e9-bbb749cadb90"},"vehicle_type_id":"4","last_reported":1730502514,"current_range_meters":22800,"station_id":"ce4bh0p2rcd13ifvqd70","pricing_plan_id":"cebpf4jnsgd1na2vs0mg"},{"bike_id":"c51bdb8d-15a4-4391-9581-03faab0332bb","system_id":"levelo_inurba_marseille","lat":43.28461,"lon":5.35884,"is_reserved":false,"is_disabled":false,"rental_uris":{"android":"levelo://app?vid=c51bdb8d-15a4-4391-9581-03faab0332bb","ios":"levelo://app?vid=c51bdb8d-15a4-4391-9581-03faab0332bb"},"vehicle_type_id":"4","last_reported":1730502514,"current_range_meters":22400,"station_id":"ce4bhah2rcd13ifvqei0","pricing_plan_id":"cebpf4jnsgd1na2vs0mg"},{"bike_id":"8cfa2329-f7e9-4c51-a668-99c0a6d5a317","system_id":"levelo_inurba_marseille","lat":43.29183,"lon":5.35819,"is_reserved":false,"is_disabled":false,"rental_uris":{"android":"levelo://app?vid=8cfa2329-f7e9-4c51-a668-99c0a6d5a317","ios":"levelo://app?vid=8cfa2329-f7e9-4c51-a668-99c0a6d5a317"},"vehicle_type_id":"4","last_reported":1730502514,"current_range_meters":30400,"station_id":"ce4bhb12rcd13ifvqel0","pricing_plan_id":"cebpf4jnsgd1na2vs0mg"},{"bike_id":"df63b9c4-e15c-4263-a5c8-6ddf8c81a210","system_id":"levelo_inurba_marseille","lat":43.26055,"lon":5.39397,"is_reserved":false,"is_disabled":false,"rental_uris":{"android":"levelo://app?vid=df63b9c4-e15c-4263-a5c8-6ddf8c81a210","ios":"levelo://app?vid=df63b9c4-e15c-4263-a5c8-6ddf8c81a210"},"vehicle_type_id":"4","last_reported":1730502514,"current_range_meters":28400,"station_id":"ce4bhh92rcd13ifvqfj0","pricing_plan_id":"cebpf4jnsgd1na2vs0mg"},{"bike_id":"69a0d18e-0381-4102-9fad-3f8c57fc1228","system_id":"levelo_inurba_marseille","lat":43.23068,"lon":5.35493,"is_reserved":false,"is_disabled":false,"rental_uris":{"android":"levelo://app?vid=69a0d18e-0381-4102-9fad-3f8c57fc1228","ios":"levelo://app?vid=69a0d18e-0381-4102-9fad-3f8c57fc1228"},"vehicle_type_id":"4","last_reported":1730502514,"current_range_meters":38800,"station_id":"cpo3342slgdg3j2ifvpg","pricing_plan_id":"cebpf4jnsgd1na2vs0mg"},{"bike_id":"07d0df56-f8bc-46e6-871c-8e071fb175e5","system_id":"levelo_inurba_marseille","lat":43.23191,"lon":5.35561,"is_reserved":false,"is_disabled":false,"rental_uris":{"android":"levelo://app?vid=07d0df56-f8bc-46e6-871c-8e071fb175e5","ios":"levelo://app?vid=07d0df56-f8bc-46e6-871c-8e071fb175e5"},"vehicle_type_id":"4","last_reported":1730502514,"current_range_meters":38800,"station_id":"ce4bhu92rcd13ifvqi70","pricing_plan_id":"cebpf4jnsgd1na2vs0mg"},{"bike_id":"d067261d-1f65-4dda-b2ae-d6541cf03bfa","system_id":"levelo_inurba_marseille","lat":43.28681,"lon":5.38661,"is_reserved":false,"is_disabled":false,"rental_uris":{"android":"levelo://app?vid=d067261d-1f65-4dda-b2ae-d6541cf03bfa","ios":"levelo://app?vid=d067261d-1f65-4dda-b2ae-d6541cf03bfa"},"vehicle_type_id":"4","last_reported":1730502514,"current_range_meters":36400,"station_id":"ce4bh492rcd13ifvqdug","pricing_plan_id":"cebpf4jnsgd1na2vs0mg"},{"bike_id":"19e6008c-0743-45ac-b4bf-fc683ef0e14c","system_id":"levelo_inurba_marseille","lat":43.2572,"lon":5.4111,"is_reserved":false,"is_disabled":false,"rental_uris":{"android":"levelo://app?vid=19e6008c-0743-45ac-b4bf-fc683ef0e14c","ios":"levelo://app?vid=19e6008c-0743-45ac-b4bf-fc683ef0e14c"},"vehicle_type_id":"4","last_reported":1730502514,"current_range_meters":28400,"station_id":"ce4bhkp2rcd13ifvqgd0","pricing_plan_id":"cebpf4jnsgd1na2vs0mg"},{"bike_id":"ab8829f0-c8a7-44a4-9d60-322dda417b22","system_id":"levelo_inurba_marseille","lat":43.304178,"lon":5.398482,"is_reserved":false,"is_disabled":false,"rental_uris":{"android":"levelo://app?vid=ab8829f0-c8a7-44a4-9d60-322dda417b22","ios":"levelo://app?vid=ab8829f0-c8a7-44a4-9d60-322dda417b22"},"vehicle_type_id":"4","last_reported":1730502514,"current_range_meters":38400,"station_id":"ce4bh092rcd13ifvqd20","pricing_plan_id":"cebpf4jnsgd1na2vs0mg"},{"bike_id":"55b4d402-cd88-41c4-94f3-0c54ee939bb0","system_id":"levelo_inurba_marseille","lat":43.2587,"lon":5.39901,"is_reserved":false,"is_disabled":false,"rental_uris":{"android":"levelo://app?vid=55b4d402-cd88-41c4-94f3-0c54ee939bb0","ios":"levelo://app?vid=55b4d402-cd88-41c4-94f3-0c54ee939bb0"},"vehicle_type_id":"4","last_reported":1730502514,"current_range_meters":22000,"station_id":"ce4bhl92rcd13ifvqghg","pricing_plan_id":"cebpf4jnsgd1na2vs0mg"},{"bike_id":"c121262e-e64f-4c57-ad81-84bc1a1971e7","system_id":"levelo_inurba_marseille","lat":43.29417,"lon":5.38613,"is_reserved":false,"is_disabled":false,"rental_uris":{"android":"levelo://app?vid=c121262e-e64f-4c57-ad81-84bc1a1971e7","ios":"levelo://app?vid=c121262e-e64f-4c57-ad81-84bc1a1971e7"},"vehicle_type_id":"4","last_reported":1730502514,"current_range_meters":25600,"station_id":"ce4bh2h2rcd13ifvqdh0","pricing_plan_id":"cebpf4jnsgd1na2vs0mg"},{"bike_id":"4db90c49-e526-41b2-bbf5-27743922bab9","system_id":"levelo_inurba_marseille","lat":43.29785,"lon":5.3812,"is_reserved":false,"is_disabled":false,"rental_uris":{"android":"levelo://app?vid=4db90c49-e526-41b2-bbf5-27743922bab9","ios":"levelo://app?vid=4db90c49-e526-41b2-bbf5-27743922bab9"},"vehicle_type_id":"4","last_reported":1730502514,"current_range_meters":36800,"station_id":"ce4bgip2rcd13ifvqbb0","pricing_plan_id":"cebpf4jnsgd1na2vs0mg"},{"bike_id":"c14abbb4-4d06-46c3-8367-d2701001bce7","system_id":"levelo_inurba_marseille","lat":43.30012,"lon":5.40044,"is_reserved":false,"is_disabled":false,"rental_uris":{"android":"levelo://app?vid=c14abbb4-4d06-46c3-8367-d2701001bce7","ios":"levelo://app?vid=c14abbb4-4d06-46c3-8367-d2701001bce7"},"vehicle_type_id":"4","last_reported":1730502514,"current_range_meters":34000,"station_id":"","pricing_plan_id":"cebpf4jnsgd1na2vs0mg"},{"bike_id":"e46bb17b-2752-4677-bb19-57747f80054d","system_id":"levelo_inurba_marseille","lat":43.30352,"lon":5.41876,"is_reserved":false,"is_disabled":false,"rental_uris":{"android":"levelo://app?vid=e46bb17b-2752-4677-bb19-57747f80054d","ios":"levelo://app?vid=e46bb17b-2752-4677-bb19-57747f80054d"},"vehicle_type_id":"4","last_reported":1730502514,"current_range_meters":38800,"station_id":"ce4bhop2rcd13ifvqh7g","pricing_plan_id":"cebpf4jnsgd1na2vs0mg"},{"bike_id":"b35737c6-49ec-46a6-98b7-a66d9ca0bf72","system_id":"levelo_inurba_marseille","lat":43.2953,"lon":5.39047,"is_reserved":false,"is_disabled":false,"rental_uris":{"android":"levelo://app?vid=b35737c6-49ec-46a6-98b7-a66d9ca0bf72","ios":"levelo://app?vid=b35737c6-49ec-46a6-98b7-a66d9ca0bf72"},"vehicle_type_id":"4","last_reported":1730502514,"current_range_meters":38800,"station_id":"ce4bh3p2rcd13ifvqdp0","pricing_plan_id":"cebpf4jnsgd1na2vs0mg"},{"bike_id":"223427b6-a667-4fba-bfd1-d25670cecee0","system_id":"levelo_inurba_marseille","lat":43.29034,"lon":5.37562,"is_reserved":false,"is_disabled":false,"rental_uris":{"android":"levelo://app?vid=223427b6-a667-4fba-bfd1-d25670cecee0","ios":"levelo://app?vid=223427b6-a667-4fba-bfd1-d25670cecee0"},"vehicle_type_id":"4","last_reported":1730502514,"current_range_meters":38800,"station_id":"ce4bh692rcd13ifvqe90","pricing_plan_id":"cebpf4jnsgd1na2vs0mg"},{"bike_id":"c512dfa3-9aad-4a81-a8ab-c1d000bfa4c9","system_id":"levelo_inurba_marseille","lat":43.27912,"lon":5.38021,"is_reserved":false,"is_disabled":false,"rental_uris":{"android":"levelo://app?vid=c512dfa3-9aad-4a81-a8ab-c1d000bfa4c9","ios":"levelo://app?vid=c512dfa3-9aad-4a81-a8ab-c1d000bfa4c9"},"vehicle_type_id":"4","last_reported":1730502514,"current_range_meters":14400,"station_id":"ce4bhf92rcd13ifvqf50","pricing_plan_id":"cebpf4jnsgd1na2vs0mg"},{"bike_id":"fec36ca1-9bdc-4fa7-b5d7-3ab6e50fb600","system_id":"levelo_inurba_marseille","lat":43.30308,"lon":5.39218,"is_reserved":false,"is_disabled":false,"rental_uris":{"android":"levelo://app?vid=fec36ca1-9bdc-4fa7-b5d7-3ab6e50fb600","ios":"levelo://app?vid=fec36ca1-9bdc-4fa7-b5d7-3ab6e50fb600"},"vehicle_type_id":"4","last_reported":1730502514,"current_range_meters":32000,"station_id":"ce4bgkh2rcd13ifvqbk0","pricing_plan_id":"cebpf4jnsgd1na2vs0mg"},{"bike_id":"19e7670d-de13-4e92-a7da-d61dfb597826","system_id":"levelo_inurba_marseille","lat":43.29418,"lon":5.38625,"is_reserved":false,"is_disabled":false,"rental_uris":{"android":"levelo://app?vid=19e7670d-de13-4e92-a7da-d61dfb597826","ios":"levelo://app?vid=19e7670d-de13-4e92-a7da-d61dfb597826"},"vehicle_type_id":"4","last_reported":1730502514,"current_range_meters":38800,"station_id":"ce4bh2h2rcd13ifvqdh0","pricing_plan_id":"cebpf4jnsgd1na2vs0mg"},{"bike_id":"091c7630-b7ea-4456-92d9-a249130c8880","system_id":"levelo_inurba_marseille","lat":43.28468,"lon":5.40077,"is_reserved":false,"is_disabled":false,"rental_uris":{"android":"levelo://app?vid=091c7630-b7ea-4456-92d9-a249130c8880","ios":"levelo://app?vid=091c7630-b7ea-4456-92d9-a249130c8880"},"vehicle_type_id":"4","last_reported":1730502514,"current_range_meters":5600,"station_id":"","pricing_plan_id":"cebpf4jnsgd1na2vs0mg"},{"bike_id":"367151e3-d9d1-496e-afc3-1d3ad14f98c6","system_id":"levelo_inurba_marseille","lat":43.32372,"lon":5.38881,"is_reserved":false,"is_disabled":false,"rental_uris":{"android":"levelo://app?vid=367151e3-d9d1-496e-afc3-1d3ad14f98c6","ios":"levelo://app?vid=367151e3-d9d1-496e-afc3-1d3ad14f98c6"},"vehicle_type_id":"4","last_reported":1730502514,"current_range_meters":35600,"station_id":"ce4bhqp2rcd13ifvqhog","pricing_plan_id":"cebpf4jnsgd1na2vs0mg"},{"bike_id":"70f4385c-6b37-4d0d-8049-f1a6bce30f9f","system_id":"levelo_inurba_marseille","lat":43.28464,"lon":5.358956,"is_reserved":false,"is_disabled":false,"rental_uris":{"android":"levelo://app?vid=70f4385c-6b37-4d0d-8049-f1a6bce30f9f","ios":"levelo://app?vid=70f4385c-6b37-4d0d-8049-f1a6bce30f9f"},"vehicle_type_id":"4","last_reported":1730502514,"current_range_meters":6800,"station_id":"ce4bhah2rcd13ifvqei0","pricing_plan_id":"cebpf4jnsgd1na2vs0mg"},{"bike_id":"63ccde5a-d15c-43ed-b4dc-589fa356b4a8","system_id":"levelo_inurba_marseille","lat":43.27435,"lon":5.39418,"is_reserved":false,"is_disabled":false,"rental_uris":{"android":"levelo://app?vid=63ccde5a-d15c-43ed-b4dc-589fa356b4a8","ios":"levelo://app?vid=63ccde5a-d15c-43ed-b4dc-589fa356b4a8"},"vehicle_type_id":"4","last_reported":1730502514,"current_range_meters":38800,"station_id":"ce4bhdp2rcd13ifvqf20","pricing_plan_id":"cebpf4jnsgd1na2vs0mg"},{"bike_id":"b5e84ef1-8f59-4f57-b772-208123e96f1c","system_id":"levelo_inurba_marseille","lat":43.30592,"lon":5.39358,"is_reserved":false,"is_disabled":false,"rental_uris":{"android":"levelo://app?vid=b5e84ef1-8f59-4f57-b772-208123e96f1c","ios":"levelo://app?vid=b5e84ef1-8f59-4f57-b772-208123e96f1c"},"vehicle_type_id":"4","last_reported":1730502514,"current_range_meters":27600,"station_id":"ce4bh0p2rcd13ifvqd80","pricing_plan_id":"cebpf4jnsgd1na2vs0mg"},{"bike_id":"d8b30d62-8fb7-4930-b190-e85b44e5d382","system_id":"levelo_inurba_marseille","lat":43.29798,"lon":5.38085,"is_reserved":false,"is_disabled":false,"rental_uris":{"android":"levelo://app?vid=d8b30d62-8fb7-4930-b190-e85b44e5d382","ios":"levelo://app?vid=d8b30d62-8fb7-4930-b190-e85b44e5d382"},"vehicle_type_id":"4","last_reported":1730502514,"current_range_meters":23200,"station_id":"ce4bgip2rcd13ifvqbb0","pricing_plan_id":"cebpf4jnsgd1na2vs0mg"},{"bike_id":"55cd44cd-9948-46d9-9ae5-43f477fa9a58","system_id":"levelo_inurba_marseille","lat":43.26061,"lon":5.39394,"is_reserved":false,"is_disabled":false,"rental_uris":{"android":"levelo://app?vid=55cd44cd-9948-46d9-9ae5-43f477fa9a58","ios":"levelo://app?vid=55cd44cd-9948-46d9-9ae5-43f477fa9a58"},"vehicle_type_id":"4","last_reported":1730502514,"current_range_meters":8800,"station_id":"ce4bhh92rcd13ifvqfj0","pricing_plan_id":"cebpf4jnsgd1na2vs0mg"},{"bike_id":"86e62526-dee0-4e88-826e-80d480b9c99d","system_id":"levelo_inurba_marseille","lat":43.28575,"lon":5.39501,"is_reserved":false,"is_disabled":false,"rental_uris":{"android":"levelo://app?vid=86e62526-dee0-4e88-826e-80d480b9c99d","ios":"levelo://app?vid=86e62526-dee0-4e88-826e-80d480b9c99d"},"vehicle_type_id":"4","last_reported":1730502514,"current_range_meters":26800,"station_id":"ce4bh292rcd13ifvqdg0","pricing_plan_id":"cebpf4jnsgd1na2vs0mg"},{"bike_id":"5e6c307e-0dc5-41d4-98ef-803bc9febf1e","system_id":"levelo_inurba_marseille","lat":43.29097,"lon":5.38155,"is_reserved":false,"is_disabled":false,"rental_uris":{"android":"levelo://app?vid=5e6c307e-0dc5-41d4-98ef-803bc9febf1e","ios":"levelo://app?vid=5e6c307e-0dc5-41d4-98ef-803bc9febf1e"},"vehicle_type_id":"4","last_reported":1730502514,"current_range_meters":8000,"station_id":"ce4bh512rcd13ifvqe2g","pricing_plan_id":"cebpf4jnsgd1na2vs0mg"},{"bike_id":"b308451d-42cb-41d1-b5a5-a3a56d0b89d4","system_id":"levelo_inurba_marseille","lat":43.29027,"lon":5.38635,"is_reserved":false,"is_disabled":false,"rental_uris":{"android":"levelo://app?vid=b308451d-42cb-41d1-b5a5-a3a56d0b89d4","ios":"levelo://app?vid=b308451d-42cb-41d1-b5a5-a3a56d0b89d4"},"vehicle_type_id":"4","last_reported":1730502514,"current_range_meters":38800,"station_id":"ce4bh4p2rcd13ifvqe0g","pricing_plan_id":"cebpf4jnsgd1na2vs0mg"},{"bike_id":"a666d207-ba0b-4da4-ab30-e5fee93d146b","system_id":"levelo_inurba_marseille","lat":43.29419,"lon":5.38628,"is_reserved":false,"is_disabled":false,"rental_uris":{"android":"levelo://app?vid=a666d207-ba0b-4da4-ab30-e5fee93d146b","ios":"levelo://app?vid=a666d207-ba0b-4da4-ab30-e5fee93d146b"},"vehicle_type_id":"4","last_reported":1730502514,"current_range_meters":15200,"station_id":"ce4bh2h2rcd13ifvqdh0","pricing_plan_id":"cebpf4jnsgd1na2vs0mg"},{"bike_id":"1253142a-3431-44fc-88d3-dafaa2237fdb","system_id":"levelo_inurba_marseille","lat":43.27992,"lon":5.41666,"is_reserved":false,"is_disabled":false,"rental_uris":{"android":"levelo://app?vid=1253142a-3431-44fc-88d3-dafaa2237fdb","ios":"levelo://app?vid=1253142a-3431-44fc-88d3-dafaa2237fdb"},"vehicle_type_id":"4","last_reported":1730502514,"current_range_meters":19200,"station_id":"ce4bho12rcd13ifvqh1g","pricing_plan_id":"cebpf4jnsgd1na2vs0mg"},{"bike_id":"57d18951-2001-4003-92d2-aa5cb684af8c","system_id":"levelo_inurba_marseille","lat":43.27105,"lon":5.39454,"is_reserved":false,"is_disabled":false,"rental_uris":{"android":"levelo://app?vid=57d18951-2001-4003-92d2-aa5cb684af8c","ios":"levelo://app?vid=57d18951-2001-4003-92d2-aa5cb684af8c"},"vehicle_type_id":"4","last_reported":1730502514,"current_range_meters":20000,"station_id":"","pricing_plan_id":"cebpf4jnsgd1na2vs0mg"},{"bike_id":"5c27b960-6461-4f9d-887b-b61a1549abaa","system_id":"levelo_inurba_marseille","lat":43.25114,"lon":5.40323,"is_reserved":false,"is_disabled":false,"rental_uris":{"android":"levelo://app?vid=5c27b960-6461-4f9d-887b-b61a1549abaa","ios":"levelo://app?vid=5c27b960-6461-4f9d-887b-b61a1549abaa"},"vehicle_type_id":"4","last_reported":1730502514,"current_range_meters":6800,"station_id":"ce4bhlh2rcd13ifvqgig","pricing_plan_id":"cebpf4jnsgd1na2vs0mg"},{"bike_id":"3730747f-62e1-4de2-8b52-5c433fdc4dd3","system_id":"levelo_inurba_marseille","lat":43.23182,"lon":5.39987,"is_reserved":false,"is_disabled":false,"rental_uris":{"android":"levelo://app?vid=3730747f-62e1-4de2-8b52-5c433fdc4dd3","ios":"levelo://app?vid=3730747f-62e1-4de2-8b52-5c433fdc4dd3"},"vehicle_type_id":"4","last_reported":1730502514,"current_range_meters":6800,"station_id":"ce4bhn12rcd13ifvqgqg","pricing_plan_id":"cebpf4jnsgd1na2vs0mg"},{"bike_id":"9cdfc93b-dcb7-45d6-aeb9-eb803fff2648","system_id":"levelo_inurba_marseille","lat":43.27945,"lon":5.41048,"is_reserved":false,"is_disabled":false,"rental_uris":{"android":"levelo://app?vid=9cdfc93b-dcb7-45d6-aeb9-eb803fff2648","ios":"levelo://app?vid=9cdfc93b-dcb7-45d6-aeb9-eb803fff2648"},"vehicle_type_id":"4","last_reported":1730502514,"current_range_meters":38800,"station_id":"ce4bhnp2rcd13ifvqh0g","pricing_plan_id":"cebpf4jnsgd1na2vs0mg"},{"bike_id":"544d28f2-6e81-4325-87db-887ad451bef8","system_id":"levelo_inurba_marseille","lat":43.31692,"lon":5.40473,"is_reserved":false,"is_disabled":false,"rental_uris":{"android":"levelo://app?vid=544d28f2-6e81-4325-87db-887ad451bef8","ios":"levelo://app?vid=544d28f2-6e81-4325-87db-887ad451bef8"},"vehicle_type_id":"4","last_reported":1730502514,"current_range_meters":40000,"station_id":"ce4bh012rcd13ifvqd00","pricing_plan_id":"cebpf4jnsgd1na2vs0mg"},{"bike_id":"aaabf968-1eae-48b6-9148-f892f0e89936","system_id":"levelo_inurba_marseille","lat":43.27443,"lon":5.39408,"is_reserved":false,"is_disabled":false,"rental_uris":{"android":"levelo://app?vid=aaabf968-1eae-48b6-9148-f892f0e89936","ios":"levelo://app?vid=aaabf968-1eae-48b6-9148-f892f0e89936"},"vehicle_type_id":"4","last_reported":1730502514,"current_range_meters":24400,"station_id":"ce4bhjp2rcd13ifvqga0","pricing_plan_id":"cebpf4jnsgd1na2vs0mg"},{"bike_id":"f82cfb4f-c90d-4c29-b56c-0e4ee19bcf61","system_id":"levelo_inurba_marseille","lat":43.25116,"lon":5.40321,"is_reserved":false,"is_disabled":false,"rental_uris":{"android":"levelo://app?vid=f82cfb4f-c90d-4c29-b56c-0e4ee19bcf61","ios":"levelo://app?vid=f82cfb4f-c90d-4c29-b56c-0e4ee19bcf61"},"vehicle_type_id":"4","last_reported":1730502514,"current_range_meters":36000,"station_id":"ce4bhlh2rcd13ifvqgig","pricing_plan_id":"cebpf4jnsgd1na2vs0mg"},{"bike_id":"9dc03996-e494-461d-a2e6-0cceab572c73","system_id":"levelo_inurba_marseille","lat":43.3042,"lon":5.39758,"is_reserved":false,"is_disabled":false,"rental_uris":{"android":"levelo://app?vid=9dc03996-e494-461d-a2e6-0cceab572c73","ios":"levelo://app?vid=9dc03996-e494-461d-a2e6-0cceab572c73"},"vehicle_type_id":"4","last_reported":1730502514,"current_range_meters":39200,"station_id":"ce4bh092rcd13ifvqd20","pricing_plan_id":"cebpf4jnsgd1na2vs0mg"},{"bike_id":"639bb546-5a14-42d0-a97f-a7a60c11c0e2","system_id":"levelo_inurba_marseille","lat":43.30806,"lon":5.38143,"is_reserved":false,"is_disabled":false,"rental_uris":{"android":"levelo://app?vid=639bb546-5a14-42d0-a97f-a7a60c11c0e2","ios":"levelo://app?vid=639bb546-5a14-42d0-a97f-a7a60c11c0e2"},"vehicle_type_id":"4","last_reported":1730502514,"current_range_meters":30800,"station_id":"ce4bgt12rcd13ifvqce0","pricing_plan_id":"cebpf4jnsgd1na2vs0mg"},{"bike_id":"94279a57-03c0-47b7-abe3-7226e86fd3b0","system_id":"levelo_inurba_marseille","lat":43.27606,"lon":5.3611,"is_reserved":false,"is_disabled":false,"rental_uris":{"android":"levelo://app?vid=94279a57-03c0-47b7-abe3-7226e86fd3b0","ios":"levelo://app?vid=94279a57-03c0-47b7-abe3-7226e86fd3b0"},"vehicle_type_id":"4","last_reported":1730502514,"current_range_meters":24000,"station_id":"ce4bgj92rcd13ifvqbe0","pricing_plan_id":"cebpf4jnsgd1na2vs0mg"},{"bike_id":"0aef02cc-f185-45c5-bb2a-fe0e30b3a8fa","system_id":"levelo_inurba_marseille","lat":43.30929,"lon":5.40144,"is_reserved":false,"is_disabled":false,"rental_uris":{"android":"levelo://app?vid=0aef02cc-f185-45c5-bb2a-fe0e30b3a8fa","ios":"levelo://app?vid=0aef02cc-f185-45c5-bb2a-fe0e30b3a8fa"},"vehicle_type_id":"4","last_reported":1730502514,"current_range_meters":38400,"station_id":"ce4bgvp2rcd13ifvqct0","pricing_plan_id":"cebpf4jnsgd1na2vs0mg"},{"bike_id":"1bd5b08a-eda8-4406-8254-7f9d0b12de51","system_id":"levelo_inurba_marseille","lat":43.31326,"lon":5.39695,"is_reserved":false,"is_disabled":false,"rental_uris":{"android":"levelo://app?vid=1bd5b08a-eda8-4406-8254-7f9d0b12de51","ios":"levelo://app?vid=1bd5b08a-eda8-4406-8254-7f9d0b12de51"},"vehicle_type_id":"4","last_reported":1730502514,"current_range_meters":39200,"station_id":"ce4bgvp2rcd13ifvqcu0","pricing_plan_id":"cebpf4jnsgd1na2vs0mg"},{"bike_id":"0eff1061-a616-49c0-ab33-6fb0dddf5e95","system_id":"levelo_inurba_marseille","lat":43.31487,"lon":5.3731,"is_reserved":false,"is_disabled":false,"rental_uris":{"android":"levelo://app?vid=0eff1061-a616-49c0-ab33-6fb0dddf5e95","ios":"levelo://app?vid=0eff1061-a616-49c0-ab33-6fb0dddf5e95"},"vehicle_type_id":"4","last_reported":1730502514,"current_range_meters":38800,"station_id":"ce4bgt12rcd13ifvqcd0","pricing_plan_id":"cebpf4jnsgd1na2vs0mg"},{"bike_id":"a83605b0-6e9a-440d-9dfb-b4aa16ed34b5","system_id":"levelo_inurba_marseille","lat":43.29602,"lon":5.37717,"is_reserved":false,"is_disabled":false,"rental_uris":{"android":"levelo://app?vid=a83605b0-6e9a-440d-9dfb-b4aa16ed34b5","ios":"levelo://app?vid=a83605b0-6e9a-440d-9dfb-b4aa16ed34b5"},"vehicle_type_id":"4","last_reported":1730502514,"current_range_meters":37600,"station_id":"ce4bgi92rcd13ifvqb90","pricing_plan_id":"cebpf4jnsgd1na2vs0mg"},{"bike_id":"6c2c3cb0-1feb-40b9-ab27-36ab3e40beed","system_id":"levelo_inurba_marseille","lat":43.27431,"lon":5.3942,"is_reserved":false,"is_disabled":false,"rental_uris":{"android":"levelo://app?vid=6c2c3cb0-1feb-40b9-ab27-36ab3e40beed","ios":"levelo://app?vid=6c2c3cb0-1feb-40b9-ab27-36ab3e40beed"},"vehicle_type_id":"4","last_reported":1730502514,"current_range_meters":38800,"station_id":"ce4bhdp2rcd13ifvqf20","pricing_plan_id":"cebpf4jnsgd1na2vs0mg"},{"bike_id":"811f91a7-b491-4bd2-b61b-6549a4b39843","system_id":"levelo_inurba_marseille","lat":43.29415,"lon":5.38609,"is_reserved":false,"is_disabled":false,"rental_uris":{"android":"levelo://app?vid=811f91a7-b491-4bd2-b61b-6549a4b39843","ios":"levelo://app?vid=811f91a7-b491-4bd2-b61b-6549a4b39843"},"vehicle_type_id":"4","last_reported":1730502514,"current_range_meters":31200,"station_id":"ce4bh2h2rcd13ifvqdh0","pricing_plan_id":"cebpf4jnsgd1na2vs0mg"},{"bike_id":"1f35312e-f2aa-4f2a-9e88-8e78d750b7f1","system_id":"levelo_inurba_marseille","lat":43.28488,"lon":5.384236,"is_reserved":false,"is_disabled":false,"rental_uris":{"android":"levelo://app?vid=1f35312e-f2aa-4f2a-9e88-8e78d750b7f1","ios":"levelo://app?vid=1f35312e-f2aa-4f2a-9e88-8e78d750b7f1"},"vehicle_type_id":"4","last_reported":1730502514,"current_range_meters":38800,"station_id":"ce4bh512rcd13ifvqe3g","pricing_plan_id":"cebpf4jnsgd1na2vs0mg"},{"bike_id":"5b73a046-200a-4613-bc00-174f03afc937","system_id":"levelo_inurba_marseille","lat":43.31708,"lon":5.37741,"is_reserved":false,"is_disabled":false,"rental_uris":{"android":"levelo://app?vid=5b73a046-200a-4613-bc00-174f03afc937","ios":"levelo://app?vid=5b73a046-200a-4613-bc00-174f03afc937"},"vehicle_type_id":"4","last_reported":1730502514,"current_range_meters":7200,"station_id":"ce4bgth2rcd13ifvqch0","pricing_plan_id":"cebpf4jnsgd1na2vs0mg"},{"bike_id":"52f0c5b6-2144-4256-b635-e3fab3eb8238","system_id":"levelo_inurba_marseille","lat":43.27574,"lon":5.38411,"is_reserved":false,"is_disabled":false,"rental_uris":{"android":"levelo://app?vid=52f0c5b6-2144-4256-b635-e3fab3eb8238","ios":"levelo://app?vid=52f0c5b6-2144-4256-b635-e3fab3eb8238"},"vehicle_type_id":"4","last_reported":1730502514,"current_range_meters":36800,"station_id":"ce4bhh92rcd13ifvqfi0","pricing_plan_id":"cebpf4jnsgd1na2vs0mg"},{"bike_id":"9deaa801-318d-48e3-b229-c67cf5a76c3b","system_id":"levelo_inurba_marseille","lat":43.3024,"lon":5.40074,"is_reserved":false,"is_disabled":false,"rental_uris":{"android":"levelo://app?vid=9deaa801-318d-48e3-b229-c67cf5a76c3b","ios":"levelo://app?vid=9deaa801-318d-48e3-b229-c67cf5a76c3b"},"vehicle_type_id":"4","last_reported":1730502514,"current_range_meters":22400,"station_id":"ce4bgvh2rcd13ifvqcs0","pricing_plan_id":"cebpf4jnsgd1na2vs0mg"},{"bike_id":"ce7a9679-1309-4337-a277-05901a838b7d","system_id":"levelo_inurba_marseille","lat":43.29352,"lon":5.4343,"is_reserved":false,"is_disabled":false,"rental_uris":{"android":"levelo://app?vid=ce7a9679-1309-4337-a277-05901a838b7d","ios":"levelo://app?vid=ce7a9679-1309-4337-a277-05901a838b7d"},"vehicle_type_id":"4","last_reported":1730502514,"current_range_meters":14400,"station_id":"","pricing_plan_id":"cebpf4jnsgd1na2vs0mg"},{"bike_id":"08a23c16-2dcc-448a-817d-77b916708791","system_id":"levelo_inurba_marseille","lat":43.3206,"lon":5.41529,"is_reserved":false,"is_disabled":false,"rental_uris":{"android":"levelo://app?vid=08a23c16-2dcc-448a-817d-77b916708791","ios":"levelo://app?vid=08a23c16-2dcc-448a-817d-77b916708791"},"vehicle_type_id":"4","last_reported":1730502514,"current_range_meters":28000,"station_id":"ce4bhq92rcd13ifvqhkg","pricing_plan_id":"cebpf4jnsgd1na2vs0mg"},{"bike_id":"5a0d6e70-4bf5-47da-89b9-94aaa8a6f1ad","system_id":"levelo_inurba_marseille","lat":43.28693,"lon":5.39995,"is_reserved":false,"is_disabled":false,"rental_uris":{"android":"levelo://app?vid=5a0d6e70-4bf5-47da-89b9-94aaa8a6f1ad","ios":"levelo://app?vid=5a0d6e70-4bf5-47da-89b9-94aaa8a6f1ad"},"vehicle_type_id":"4","last_reported":1730502514,"current_range_meters":30400,"station_id":"ce4bho92rcd13ifvqh3g","pricing_plan_id":"cebpf4jnsgd1na2vs0mg"},{"bike_id":"e134859c-2a61-4bca-97b8-71a097ecbcd5","system_id":"levelo_inurba_marseille","lat":43.3133,"lon":5.39691,"is_reserved":false,"is_disabled":false,"rental_uris":{"android":"levelo://app?vid=e134859c-2a61-4bca-97b8-71a097ecbcd5","ios":"levelo://app?vid=e134859c-2a61-4bca-97b8-71a097ecbcd5"},"vehicle_type_id":"4","last_reported":1730502514,"current_range_meters":39200,"station_id":"ce4bgvp2rcd13ifvqcu0","pricing_plan_id":"cebpf4jnsgd1na2vs0mg"},{"bike_id":"5129d0cd-e743-43bd-8f1f-5c58113c15bd","system_id":"levelo_inurba_marseille","lat":43.30893,"lon":5.37204,"is_reserved":false,"is_disabled":false,"rental_uris":{"android":"levelo://app?vid=5129d0cd-e743-43bd-8f1f-5c58113c15bd","ios":"levelo://app?vid=5129d0cd-e743-43bd-8f1f-5c58113c15bd"},"vehicle_type_id":"4","last_reported":1730502514,"current_range_meters":38400,"station_id":"ce4bguh2rcd13ifvqckg","pricing_plan_id":"cebpf4jnsgd1na2vs0mg"},{"bike_id":"25b8a6cd-9406-45b3-a610-9ff6eec6b3a1","system_id":"levelo_inurba_marseille","lat":43.28721,"lon":5.36095,"is_reserved":false,"is_disabled":false,"rental_uris":{"android":"levelo://app?vid=25b8a6cd-9406-45b3-a610-9ff6eec6b3a1","ios":"levelo://app?vid=25b8a6cd-9406-45b3-a610-9ff6eec6b3a1"},"vehicle_type_id":"4","last_reported":1730502514,"current_range_meters":6400,"station_id":"cki0cbj6b192h4jlfktg","pricing_plan_id":"cebpf4jnsgd1na2vs0mg"},{"bike_id":"479e1a48-f75b-4ead-b965-b0def1569200","system_id":"levelo_inurba_marseille","lat":43.30597,"lon":5.39369,"is_reserved":false,"is_disabled":false,"rental_uris":{"android":"levelo://app?vid=479e1a48-f75b-4ead-b965-b0def1569200","ios":"levelo://app?vid=479e1a48-f75b-4ead-b965-b0def1569200"},"vehicle_type_id":"4","last_reported":1730502514,"current_range_meters":25600,"station_id":"ce4bh0p2rcd13ifvqd80","pricing_plan_id":"cebpf4jnsgd1na2vs0mg"},{"bike_id":"00e70a20-c568-4fa0-a424-a40454a7bfa5","system_id":"levelo_inurba_marseille","lat":43.32363,"lon":5.38885,"is_reserved":false,"is_disabled":false,"rental_uris":{"android":"levelo://app?vid=00e70a20-c568-4fa0-a424-a40454a7bfa5","ios":"levelo://app?vid=00e70a20-c568-4fa0-a424-a40454a7bfa5"},"vehicle_type_id":"4","last_reported":1730502514,"current_range_meters":10800,"station_id":"ce4bhqp2rcd13ifvqhog","pricing_plan_id":"cebpf4jnsgd1na2vs0mg"},{"bike_id":"50209d81-e90e-4cb6-a502-74878d89100a","system_id":"levelo_inurba_marseille","lat":43.30148,"lon":5.37416,"is_reserved":false,"is_disabled":false,"rental_uris":{"android":"levelo://app?vid=50209d81-e90e-4cb6-a502-74878d89100a","ios":"levelo://app?vid=50209d81-e90e-4cb6-a502-74878d89100a"},"vehicle_type_id":"4","last_reported":1730502514,"current_range_meters":30400,"station_id":"ce4bgs92rcd13ifvqcc0","pricing_plan_id":"cebpf4jnsgd1na2vs0mg"},{"bike_id":"fc16d0bc-8194-4d30-ad99-3126117ade95","system_id":"levelo_inurba_marseille","lat":43.28726,"lon":5.3609,"is_reserved":false,"is_disabled":false,"rental_uris":{"android":"levelo://app?vid=fc16d0bc-8194-4d30-ad99-3126117ade95","ios":"levelo://app?vid=fc16d0bc-8194-4d30-ad99-3126117ade95"},"vehicle_type_id":"4","last_reported":1730502514,"current_range_meters":31200,"station_id":"cki0cbj6b192h4jlfktg","pricing_plan_id":"cebpf4jnsgd1na2vs0mg"},{"bike_id":"6993734d-fdc9-423f-861e-5a2e6f7b420b","system_id":"levelo_inurba_marseille","lat":43.35695,"lon":5.414,"is_reserved":false,"is_disabled":false,"rental_uris":{"android":"levelo://app?vid=6993734d-fdc9-423f-861e-5a2e6f7b420b","ios":"levelo://app?vid=6993734d-fdc9-423f-861e-5a2e6f7b420b"},"vehicle_type_id":"4","last_reported":1730502514,"current_range_meters":23200,"station_id":"","pricing_plan_id":"cebpf4jnsgd1na2vs0mg"},{"bike_id":"b0c56942-3d9e-4aaa-a6a2-74e268fbd84d","system_id":"levelo_inurba_marseille","lat":43.28436,"lon":5.39193,"is_reserved":false,"is_disabled":false,"rental_uris":{"android":"levelo://app?vid=b0c56942-3d9e-4aaa-a6a2-74e268fbd84d","ios":"levelo://app?vid=b0c56942-3d9e-4aaa-a6a2-74e268fbd84d"},"vehicle_type_id":"4","last_reported":1730502514,"current_range_meters":38000,"station_id":"ce4bhoh2rcd13ifvqh5g","pricing_plan_id":"cebpf4jnsgd1na2vs0mg"},{"bike_id":"d50f606e-f4bc-464a-a19d-df1ef05eabaa","system_id":"levelo_inurba_marseille","lat":43.28924,"lon":5.38408,"is_reserved":false,"is_disabled":false,"rental_uris":{"android":"levelo://app?vid=d50f606e-f4bc-464a-a19d-df1ef05eabaa","ios":"levelo://app?vid=d50f606e-f4bc-464a-a19d-df1ef05eabaa"},"vehicle_type_id":"4","last_reported":1730502514,"current_range_meters":36000,"station_id":"ce4bh612rcd13ifvqe6g","pricing_plan_id":"cebpf4jnsgd1na2vs0mg"},