{"last_updated":1726171810,"ttl":30,"version":"2.2","data":{"bikes":[{"bike_id":"5bf687b2-d448-4537-a802-6ca69f538405","system_id":"levelo_inurba_marseille","lat":43.26946,"lon":5.38641,"is_reserved":false,"is_disabled":false,"rental_uris":{"android":"levelo://app?vid=5bf687b2-d448-4537-a802-6ca69f538405","ios":"levelo://app?vid=5bf687b2-d448-4537-a802-6ca69f538405"},"vehicle_type_id":"4","last_reported":1726171810,"current_range_meters":28800,"station_id":"ce4bhh92rcd13ifvqfh0","pricing_plan_id":"cebpf4jnsgd1na2vs0mg"},{"bike_id":"2ca2fd52-6283-4397-ac7e-8db28b0c8f78","system_id":"levelo_inurba_marseille","lat":43.23206,"lon":5.35549,"is_reserved":false,"is_disabled":false,"rental_uris":{"android":"levelo://app?vid=2ca2fd52-6283-4397-ac7e-8db28b0c8f78","ios":"levelo://app?vid=2ca2fd52-6283-4397-ac7e-8db28b0c8f78"},"vehicle_type_id":"4","last_reported":1726171810,"current_range_meters":16400,"station_id":"ce4bhu92rcd13ifvqi70","pricing_plan_id":"cebpf4jnsgd1na2vs0mg"},{"bike_id":"9b633d55-16bf-493b-aaf9-bf563c4bdace","system_id":"levelo_inurba_marseille","lat":43.28457,"lon":5.35894,"is_reserved":false,"is_disabled":false,"rental_uris":{"android":"levelo://app?vid=9b633d55-16bf-493b-aaf9-bf563c4bdace","ios":"levelo://app?vid=9b633d55-16bf-493b-aaf9-bf563c4bdace"},"vehicle_type_id":"4","last_reported":1726171810,"current_range_meters":39200,"station_id":"ce4bhah2rcd13ifvqei0","pricing_plan_id":"cebpf4jnsgd1na2vs0mg"},{"bike_id":"f88a018b-ad33-45da-9f69-40b516a58ee7","system_id":"levelo_inurba_marseille","lat":43.24075,"lon":5.37764,"is_reserved":false,"is_disabled":false,"rental_uris":{"android":"levelo://app?vid=f88a018b-ad33-45da-9f69-40b516a58ee7","ios":"levelo://app?vid=f88a018b-ad33-45da-9f69-40b516a58ee7"},"vehicle_type_id":"4","last_reported":1726171810,"current_range_meters":26000,"station_id":"ce4bhnp2rcd13ifvqgvg","pricing_plan_id":"cebpf4jnsgd1na2vs0mg"},{"bike_id":"a0f1c08c-5556-4f01-8611-b1c4e72fa96a","system_id":"levelo_inurba_marseille","lat":43.2894,"lon":5.39628,"is_reserved":false,"is_disabled":false,"rental_uris":{"android":"levelo://app?vid=a0f1c08c-5556-4f01-8611-b1c4e72fa96a","ios":"levelo://app?vid=a0f1c08c-5556-4f01-8611-b1c4e72fa96a"},"vehicle_type_id":"4","last_reported":1726171810,"current_range_meters":14800,"station_id":"ce4bh3h2rcd13ifvqdn0","pricing_plan_id":"cebpf4jnsgd1na2vs0mg"},{"bike_id":"ae8c7bd4-e320-4650-aaec-5acdea38c512","system_id":"levelo_inurba_marseille","lat":43.28092,"lon":5.38661,"is_reserved":false,"is_disabled":false,"rental_uris":{"android":"levelo://app?vid=ae8c7bd4-e320-4650-aaec-5acdea38c512","ios":"levelo://app?vid=ae8c7bd4-e320-4650-aaec-5acdea38c512"},"vehicle_type_id":"4","last_reported":1726171810,"current_range_meters":24800,"station_id":"","pricing_plan_id":"cebpf4jnsgd1na2vs0mg"},{"bike_id":"4559dba1-b0cb-4c88-804d-ea24100e4a9a","system_id":"levelo_inurba_marseille","lat":43.292,"lon":5.39321,"is_reserved":false,"is_disabled":false,"rental_uris":{"android":"levelo://app?vid=4559dba1-b0cb-4c88-804d-ea24100e4a9a","ios":"levelo://app?vid=4559dba1-b0cb-4c88-804d-ea24100e4a9a"},"vehicle_type_id":"4","last_reported":1726171810,"current_range_meters":38800,"station_id":"ce4bh192rcd13ifvqdd0","pricing_plan_id":"cebpf4jnsgd1na2vs0mg"},{"bike_id":"0ac293a5-409b-4c77-9d1b-336bd09deec1","system_id":"levelo_inurba_marseille","lat":43.31512,"lon":5.37288,"is_reserved":false,"is_disabled":false,"rental_uris":{"android":"levelo://app?vid=0ac293a5-409b-4c77-9d1b-336bd09deec1","ios":"levelo://app?vid=0ac293a5-409b-4c77-9d1b-336bd09deec1"},"vehicle_type_id":"4","last_reported":1726171810,"current_range_meters":38800,"station_id":"ce4bgt12rcd13ifvqcd0","pricing_plan_id":"cebpf4jnsgd1na2vs0mg"},{"bike_id":"6857c5d1-5581-450d-a969-e54e4e134161","system_id":"levelo_inurba_marseille","lat":43.27572,"lon":5.38425,"is_reserved":false,"is_disabled":false,"rental_uris":{"android":"levelo://app?vid=6857c5d1-5581-450d-a969-e54e4e134161","ios":"levelo://app?vid=6857c5d1-5581-450d-a969-e54e4e134161"},"vehicle_type_id":"4","last_reported":1726171810,"current_range_meters":32800,"station_id":"ce4bhh92rcd13ifvqfi0","pricing_plan_id":"cebpf4jnsgd1na2vs0mg"},{"bike_id":"9d4efc16-5364-4647-b094-23661087b1a5","system_id":"levelo_inurba_marseille","lat":43.29873,"lon":5.38919,"is_reserved":false,"is_disabled":false,"rental_uris":{"android":"levelo://app?vid=9d4efc16-5364-4647-b094-23661087b1a5","ios":"levelo://app?vid=9d4efc16-5364-4647-b094-23661087b1a5"},"vehicle_type_id":"4","last_reported":1726171810,"current_range_meters":38800,"station_id":"ce4bh392rcd13ifvqdl0","pricing_plan_id":"cebpf4jnsgd1na2vs0mg"},{"bike_id":"5fd28eeb-a17f-4521-95fc-452850faa45e","system_id":"levelo_inurba_marseille","lat":43.2953,"lon":5.39027,"is_reserved":false,"is_disabled":false,"rental_uris":{"android":"levelo://app?vid=5fd28eeb-a17f-4521-95fc-452850faa45e","ios":"levelo://app?vid=5fd28eeb-a17f-4521-95fc-452850faa45e"},"vehicle_type_id":"4","last_reported":1726171810,"current_range_meters":31200,"station_id":"ce4bh3p2rcd13ifvqdp0","pricing_plan_id":"cebpf4jnsgd1na2vs0mg"},{"bike_id":"d965a696-db9d-4364-84dc-dd64b965c8ce","system_id":"levelo_inurba_marseille","lat":43.29194,"lon":5.39313,"is_reserved":false,"is_disabled":false,"rental_uris":{"android":"levelo://app?vid=d965a696-db9d-4364-84dc-dd64b965c8ce","ios":"levelo://app?vid=d965a696-db9d-4364-84dc-dd64b965c8ce"},"vehicle_type_id":"4","last_reported":1726171810,"current_range_meters":38800,"station_id":"ce4bh192rcd13ifvqdd0","pricing_plan_id":"cebpf4jnsgd1na2vs0mg"},{"bike_id":"b7989343-5246-407a-b930-d10e6ab1df20","system_id":"levelo_inurba_marseille","lat":43.29038,"lon":5.35928,"is_reserved":false,"is_disabled":false,"rental_uris":{"android":"levelo://app?vid=b7989343-5246-407a-b930-d10e6ab1df20","ios":"levelo://app?vid=b7989343-5246-407a-b930-d10e6ab1df20"},"vehicle_type_id":"4","last_reported":1726171810,"current_range_meters":38800,"station_id":"ce4bha92rcd13ifvqeg0","pricing_plan_id":"cebpf4jnsgd1na2vs0mg"},{"bike_id":"e3b4b558-6ded-451a-8131-0ebd2d30174d","system_id":"levelo_inurba_marseille","lat":43.30426,"lon":5.41278,"is_reserved":false,"is_disabled":false,"rental_uris":{"android":"levelo://app?vid=e3b4b558-6ded-451a-8131-0ebd2d30174d","ios":"levelo://app?vid=e3b4b558-6ded-451a-8131-0ebd2d30174d"},"vehicle_type_id":"4","last_reported":1726171810,"current_range_meters":38400,"station_id":"ce4bhop2rcd13ifvqh8g","pricing_plan_id":"cebpf4jnsgd1na2vs0mg"},{"bike_id":"e47b7ac8-925d-4859-9d8d-e98952a0499a","system_id":"levelo_inurba_marseille","lat":43.24806,"lon":5.37458,"is_reserved":false,"is_disabled":false,"rental_uris":{"android":"levelo://app?vid=e47b7ac8-925d-4859-9d8d-e98952a0499a","ios":"levelo://app?vid=e47b7ac8-925d-4859-9d8d-e98952a0499a"},"vehicle_type_id":"4","last_reported":1726171810,"current_range_meters":12800,"station_id":"ce4bhgh2rcd13ifvqfb0","pricing_plan_id":"cebpf4jnsgd1na2vs0mg"},{"bike_id":"f8d0fba0-b375-496d-9fb6-aac6b8a7715f","system_id":"levelo_inurba_marseille","lat":43.31693,"lon":5.37728,"is_reserved":false,"is_disabled":false,"rental_uris":{"android":"levelo://app?vid=f8d0fba0-b375-496d-9fb6-aac6b8a7715f","ios":"levelo://app?vid=f8d0fba0-b375-496d-9fb6-aac6b8a7715f"},"vehicle_type_id":"4","last_reported":1726171810,"current_range_meters":13600,"station_id":"ce4bgth2rcd13ifvqch0","pricing_plan_id":"cebpf4jnsgd1na2vs0mg"},{"bike_id":"5153a7af-9d3d-4a28-aa5e-32bc2777baff","system_id":"levelo_inurba_marseille","lat":43.2512,"lon":5.4032,"is_reserved":false,"is_disabled":false,"rental_uris":{"android":"levelo://app?vid=5153a7af-9d3d-4a28-aa5e-32bc2777baff","ios":"levelo://app?vid=5153a7af-9d3d-4a28-aa5e-32bc2777baff"},"vehicle_type_id":"4","last_reported":1726171810,"current_range_meters":33200,"station_id":"ce4bhlh2rcd13ifvqgig","pricing_plan_id":"cebpf4jnsgd1na2vs0mg"},{"bike_id":"13ec4916-f0ea-4897-8afc-596425b42c42","system_id":"levelo_inurba_marseille","lat":43.23195,"lon":5.35551,"is_reserved":false,"is_disabled":false,"rental_uris":{"android":"levelo://app?vid=13ec4916-f0ea-4897-8afc-596425b42c42","ios":"levelo://app?vid=13ec4916-f0ea-4897-8afc-596425b42c42"},"vehicle_type_id":"4","last_reported":1726171810,"current_range_meters":36400,"station_id":"ce4bhu92rcd13ifvqi70","pricing_plan_id":"cebpf4jnsgd1na2vs0mg"},{"bike_id":"b620d509-8da0-4979-9d23-fef6c70ac3cc","system_id":"levelo_inurba_marseille","lat":43.28412,"lon":5.37526,"is_reserved":false,"is_disabled":false,"rental_uris":{"android":"levelo://app?vid=b620d509-8da0-4979-9d23-fef6c70ac3cc","ios":"levelo://app?vid=b620d509-8da0-4979-9d23-fef6c70ac3cc"},"vehicle_type_id":"4","last_reported":1726171810,"current_range_meters":38400,"station_id":"ce4bh412rcd13ifvqds0","pricing_plan_id":"cebpf4jnsgd1na2vs0mg"},{"bike_id":"d6317b62-4510-4ed3-aefd-feea6e1502be","system_id":"levelo_inurba_marseille","lat":43.302515,"lon":5.40069,"is_reserved":false,"is_disabled":false,"rental_uris":{"android":"levelo://app?vid=d6317b62-4510-4ed3-aefd-feea6e1502be","ios":"levelo://app?vid=d6317b62-4510-4ed3-aefd-feea6e1502be"},"vehicle_type_id":"4","last_reported":1726171810,"current_range_meters":30400,"station_id":"ce4bgvh2rcd13ifvqcs0","pricing_plan_id":"cebpf4jnsgd1na2vs0mg"},{"bike_id":"ec1f5d0a-7ce4-4f9d-be0d-d26b0b843dd3","system_id":"levelo_inurba_marseille","lat":43.29255,"lon":5.38446,"is_reserved":false,"is_disabled":false,"rental_uris":{"android":"levelo://app?vid=ec1f5d0a-7ce4-4f9d-be0d-d26b0b843dd3","ios":"levelo://app?vid=ec1f5d0a-7ce4-4f9d-be0d-d26b0b843dd3"},"vehicle_type_id":"4","last_reported":1726171810,"current_range_meters":9200,"station_id":"ce4bh692rcd13ifvqea0","pricing_plan_id":"cebpf4jnsgd1na2vs0mg"},{"bike_id":"d13844ac-d8d5-4630-a735-d14a8cd8cfc2","system_id":"levelo_inurba_marseille","lat":43.24671,"lon":5.38159,"is_reserved":false,"is_disabled":false,"rental_uris":{"android":"levelo://app?vid=d13844ac-d8d5-4630-a735-d14a8cd8cfc2","ios":"levelo://app?vid=d13844ac-d8d5-4630-a735-d14a8cd8cfc2"},"vehicle_type_id":"4","last_reported":1726171810,"current_range_meters":37600,"station_id":"ce4bhih2rcd13ifvqfr0","pricing_plan_id":"cebpf4jnsgd1na2vs0mg"},{"bike_id":"a59d64a6-0c90-478e-8726-6eda2f84c2f7","system_id":"levelo_inurba_marseille","lat":43.26032,"lon":5.37548,"is_reserved":false,"is_disabled":false,"rental_uris":{"android":"levelo://app?vid=a59d64a6-0c90-478e-8726-6eda2f84c2f7","ios":"levelo://app?vid=a59d64a6-0c90-478e-8726-6eda2f84c2f7"},"vehicle_type_id":"4","last_reported":1726171810,"current_range_meters":8000,"station_id":"ce4bhgh2rcd13ifvqfa0","pricing_plan_id":"cebpf4jnsgd1na2vs0mg"},{"bike_id":"d035d579-2e69-4a79-8e97-e3875f643f43","system_id":"levelo_inurba_marseille","lat":43.25821,"lon":5.39436,"is_reserved":false,"is_disabled":false,"rental_uris":{"android":"levelo://app?vid=d035d579-2e69-4a79-8e97-e3875f643f43","ios":"levelo://app?vid=d035d579-2e69-4a79-8e97-e3875f643f43"},"vehicle_type_id":"4","last_reported":1726171810,"current_range_meters":22800,"station_id":"ce4bhip2rcd13ifvqft0","pricing_plan_id":"cebpf4jnsgd1na2vs0mg"},{"bike_id":"acd8a3d5-a9db-4ea3-b234-2a790cfd605a","system_id":"levelo_inurba_marseille","lat":43.23957,"lon":5.36633,"is_reserved":false,"is_disabled":false,"rental_uris":{"android":"levelo://app?vid=acd8a3d5-a9db-4ea3-b234-2a790cfd605a","ios":"levelo://app?vid=acd8a3d5-a9db-4ea3-b234-2a790cfd605a"},"vehicle_type_id":"4","last_reported":1726171810,"current_range_meters":19600,"station_id":"ce4bhi12rcd13ifvqfp0","pricing_plan_id":"cebpf4jnsgd1na2vs0mg"},{"bike_id":"ace0ecad-0c66-4c3c-adfb-8d60c244cb6d","system_id":"levelo_inurba_marseille","lat":43.32002,"lon":5.38162,"is_reserved":false,"is_disabled":false,"rental_uris":{"android":"levelo://app?vid=ace0ecad-0c66-4c3c-adfb-8d60c244cb6d","ios":"levelo://app?vid=ace0ecad-0c66-4c3c-adfb-8d60c244cb6d"},"vehicle_type_id":"4","last_reported":1726171810,"current_range_meters":28400,"station_id":"ce4bhr12rcd13ifvqhpg","pricing_plan_id":"cebpf4jnsgd1na2vs0mg"},{"bike_id":"ee5bd0a5-1257-48de-9343-ea8521c36cdd","system_id":"levelo_inurba_marseille","lat":43.23194,"lon":5.35552,"is_reserved":false,"is_disabled":false,"rental_uris":{"android":"levelo://app?vid=ee5bd0a5-1257-48de-9343-ea8521c36cdd","ios":"levelo://app?vid=ee5bd0a5-1257-48de-9343-ea8521c36cdd"},"vehicle_type_id":"4","last_reported":1726171810,"current_range_meters":7200,"station_id":"ce4bhu92rcd13ifvqi70","pricing_plan_id":"cebpf4jnsgd1na2vs0mg"},{"bike_id":"995d3a7e-289e-4ebd-b785-9d2da426ad57","system_id":"levelo_inurba_marseille","lat":43.23211,"lon":5.35552,"is_reserved":false,"is_disabled":false,"rental_uris":{"android":"levelo://app?vid=995d3a7e-289e-4ebd-b785-9d2da426ad57","ios":"levelo://app?vid=995d3a7e-289e-4ebd-b785-9d2da426ad57"},"vehicle_type_id":"4","last_reported":1726171810,"current_range_meters":28000,"station_id":"ce4bhu92rcd13ifvqi70","pricing_plan_id":"cebpf4jnsgd1na2vs0mg"},{"bike_id":"74c67d55-8a5f-40c9-8066-d68354718f8c","system_id":"levelo_inurba_marseille","lat":43.23198,"lon":5.35551,"is_reserved":false,"is_disabled":false,"rental_uris":{"android":"levelo://app?vid=74c67d55-8a5f-40c9-8066-d68354718f8c","ios":"levelo://app?vid=74c67d55-8a5f-40c9-8066-d68354718f8c"},"vehicle_type_id":"4","last_reported":1726171810,"current_range_meters":30400,"station_id":"ce4bhu92rcd13ifvqi70","pricing_plan_id":"cebpf4jnsgd1na2vs0mg"},{"bike_id":"86a397a5-5a46-427a-884b-f528ef77038a","system_id":"levelo_inurba_marseille","lat":43.28616,"lon":5.351,"is_reserved":false,"is_disabled":false,"rental_uris":{"android":"levelo://app?vid=86a397a5-5a46-427a-884b-f528ef77038a","ios":"levelo://app?vid=86a397a5-5a46-427a-884b-f528ef77038a"},"vehicle_type_id":"4","last_reported":1726171810,"current_range_meters":16800,"station_id":"ce4bhch2rcd13ifvqeug","pricing_plan_id":"cebpf4jnsgd1na2vs0mg"},{"bike_id":"f49285f2-c96a-4629-9c9e-8992440fa281","system_id":"levelo_inurba_marseille","lat":43.30649,"lon":5.4009,"is_reserved":false,"is_disabled":false,"rental_uris":{"android":"levelo://app?vid=f49285f2-c96a-4629-9c9e-8992440fa281","ios":"levelo://app?vid=f49285f2-c96a-4629-9c9e-8992440fa281"},"vehicle_type_id":"4","last_reported":1726171810,"current_range_meters":32000,"station_id":"ce4bh112rcd13ifvqda0","pricing_plan_id":"cebpf4jnsgd1na2vs0mg"},{"bike_id":"03700b80-744f-470e-981c-03002de9fd01","system_id":"levelo_inurba_marseille","lat":43.24084,"lon":5.3775,"is_reserved":false,"is_disabled":false,"rental_uris":{"android":"levelo://app?vid=03700b80-744f-470e-981c-03002de9fd01","ios":"levelo://app?vid=03700b80-744f-470e-981c-03002de9fd01"},"vehicle_type_id":"4","last_reported":1726171810,"current_range_meters":38000,"station_id":"ce4bhnp2rcd13ifvqgvg","pricing_plan_id":"cebpf4jnsgd1na2vs0mg"},{"bike_id":"c7a72c95-d3e6-46b3-8c83-3114a189ce35","system_id":"levelo_inurba_marseille","lat":43.2558,"lon":5.38242,"is_reserved":false,"is_disabled":false,"rental_uris":{"android":"levelo://app?vid=c7a72c95-d3e6-46b3-8c83-3114a189ce35","ios":"levelo://app?vid=c7a72c95-d3e6-46b3-8c83-3114a189ce35"},"vehicle_type_id":"4","last_reported":1726171810,"current_range_meters":12000,"station_id":"ce4bhih2rcd13ifvqfs0","pricing_plan_id":"cebpf4jnsgd1na2vs0mg"},{"bike_id":"2518b103-2087-4e9f-ada3-03685009aa2b","system_id":"levelo_inurba_marseille","lat":43.32003,"lon":5.3816,"is_reserved":false,"is_disabled":false,"rental_uris":{"android":"levelo://app?vid=2518b103-2087-4e9f-ada3-03685009aa2b","ios":"levelo://app?vid=2518b103-2087-4e9f-ada3-03685009aa2b"},"vehicle_type_id":"4","last_reported":1726171810,"current_range_meters":17600,"station_id":"ce4bhr12rcd13ifvqhpg","pricing_plan_id":"cebpf4jnsgd1na2vs0mg"},{"bike_id":"d9b303c4-fd56-4489-85ec-c69600721fd5","system_id":"levelo_inurba_marseille","lat":43.289236,"lon":5.383926,"is_reserved":false,"is_disabled":false,"rental_uris":{"android":"levelo://app?vid=d9b303c4-fd56-4489-85ec-c69600721fd5","ios":"levelo://app?vid=d9b303c4-fd56-4489-85ec-c69600721fd5"},"vehicle_type_id":"4","last_reported":1726171810,"current_range_meters":39200,"station_id":"ce4bgj92rcd13ifvqbd0","pricing_plan_id":"cebpf4jnsgd1na2vs0mg"},{"bike_id":"e029fa64-13df-47a8-8fcd-7db083b2ce5c","system_id":"levelo_inurba_marseille","lat":43.29531,"lon":5.38544,"is_reserved":false,"is_disabled":false,"rental_uris":{"android":"levelo://app?vid=e029fa64-13df-47a8-8fcd-7db083b2ce5c","ios":"levelo://app?vid=e029fa64-13df-47a8-8fcd-7db083b2ce5c"},"vehicle_type_id":"4","last_reported":1726171810,"current_range_meters":38800,"station_id":"ce4bgih2rcd13ifvqba0","pricing_plan_id":"cebpf4jnsgd1na2vs0mg"},{"bike_id":"9c7bff6c-eb29-48f1-b10a-b06944a2a3c7","system_id":"levelo_inurba_marseille","lat":43.28702,"lon":5.37398,"is_reserved":false,"is_disabled":false,"rental_uris":{"android":"levelo://app?vid=9c7bff6c-eb29-48f1-b10a-b06944a2a3c7","ios":"levelo://app?vid=9c7bff6c-eb29-48f1-b10a-b06944a2a3c7"},"vehicle_type_id":"4","last_reported":1726171810,"current_range_meters":24000,"station_id":"ce4bh3p2rcd13ifvqdq0","pricing_plan_id":"cebpf4jnsgd1na2vs0mg"},{"bike_id":"9e1990ee-f9cd-4f72-942d-e0669ce7ac13","system_id":"levelo_inurba_marseille","lat":43.31122,"lon":5.37768,"is_reserved":false,"is_disabled":false,"rental_uris":{"android":"levelo://app?vid=9e1990ee-f9cd-4f72-942d-e0669ce7ac13","ios":"levelo://app?vid=9e1990ee-f9cd-4f72-942d-e0669ce7ac13"},"vehicle_type_id":"4","last_reported":1726171810,"current_range_meters":38800,"station_id":"ce4bgt92rcd13ifvqcg0","pricing_plan_id":"cebpf4jnsgd1na2vs0mg"},{"bike_id":"802637c3-4bd8-4272-b511-a0980900f887","system_id":"levelo_inurba_marseille","lat":43.29204,"lon":5.39331,"is_reserved":false,"is_disabled":false,"rental_uris":{"android":"levelo://app?vid=802637c3-4bd8-4272-b511-a0980900f887","ios":"levelo://app?vid=802637c3-4bd8-4272-b511-a0980900f887"},"vehicle_type_id":"4","last_reported":1726171810,"current_range_meters":4800,"station_id":"ce4bh192rcd13ifvqdd0","pricing_plan_id":"cebpf4jnsgd1na2vs0mg"},{"bike_id":"10a91319-b90e-4912-be8e-1cffd731bab1","system_id":"levelo_inurba_marseille","lat":43.2808,"lon":5.39656,"is_reserved":false,"is_disabled":false,"rental_uris":{"android":"levelo://app?vid=10a91319-b90e-4912-be8e-1cffd731bab1","ios":"levelo://app?vid=10a91319-b90e-4912-be8e-1cffd731bab1"},"vehicle_type_id":"4","last_reported":1726171810,"current_range_meters":28000,"station_id":"ce4bho12rcd13ifvqh2g","pricing_plan_id":"cebpf4jnsgd1na2vs0mg"},{"bike_id":"281115a1-44c2-45f0-84b6-2e74cc57714a","system_id":"levelo_inurba_marseille","lat":43.32472,"lon":5.40731,"is_reserved":false,"is_disabled":false,"rental_uris":{"android":"levelo://app?vid=281115a1-44c2-45f0-84b6-2e74cc57714a","ios":"levelo://app?vid=281115a1-44c2-45f0-84b6-2e74cc57714a"},"vehicle_type_id":"4","last_reported":1726171810,"current_range_meters":25200,"station_id":"","pricing_plan_id":"cebpf4jnsgd1na2vs0mg"},{"bike_id":"d54209f6-3398-4e00-8b3a-a3ed0a88f3b6","system_id":"levelo_inurba_marseille","lat":43.24564,"lon":5.3732,"is_reserved":false,"is_disabled":false,"rental_uris":{"android":"levelo://app?vid=d54209f6-3398-4e00-8b3a-a3ed0a88f3b6","ios":"levelo://app?vid=d54209f6-3398-4e00-8b3a-a3ed0a88f3b6"},"vehicle_type_id":"4","last_reported":1726171810,"current_range_meters":32000,"station_id":"","pricing_plan_id":"cebpf4jnsgd1na2vs0mg"},{"bike_id":"8f8acd34-b5ec-42d7-8eff-8a3155e32c59","system_id":"levelo_inurba_marseille","lat":43.28617,"lon":5.35105,"is_reserved":false,"is_disabled":false,"rental_uris":{"android":"levelo://app?vid=8f8acd34-b5ec-42d7-8eff-8a3155e32c59","ios":"levelo://app?vid=8f8acd34-b5ec-42d7-8eff-8a3155e32c59"},"vehicle_type_id":"4","last_reported":1726171810,"current_range_meters":28000,"station_id":"ce4bhch2rcd13ifvqeug","pricing_plan_id":"cebpf4jnsgd1na2vs0mg"},{"bike_id":"acc55cc6-c330-4ac3-b0fc-697042724301","system_id":"levelo_inurba_marseille","lat":43.2795,"lon":5.41052,"is_reserved":false,"is_disabled":false,"rental_uris":{"android":"levelo://app?vid=acc55cc6-c330-4ac3-b0fc-697042724301","ios":"levelo://app?vid=acc55cc6-c330-4ac3-b0fc-697042724301"},"vehicle_type_id":"4","last_reported":1726171810,"current_range_meters":24800,"station_id":"ce4bhnp2rcd13ifvqh0g","pricing_plan_id":"cebpf4jnsgd1na2vs0mg"},{"bike_id":"38984b32-3aa1-48fc-8bd2-b2ee070c5b75","system_id":"levelo_inurba_marseille","lat":43.29264,"lon":5.38438,"is_reserved":false,"is_disabled":false,"rental_uris":{"android":"levelo://app?vid=38984b32-3aa1-48fc-8bd2-b2ee070c5b75","ios":"levelo://app?vid=38984b32-3aa1-48fc-8bd2-b2ee070c5b75"},"vehicle_type_id":"4","last_reported":1726171810,"current_range_meters":28800,"station_id":"ce4bh692rcd13ifvqea0","pricing_plan_id":"cebpf4jnsgd1na2vs0mg"},{"bike_id":"9d302fd2-cf2d-4d06-b7d7-4f621dedcd6a","system_id":"levelo_inurba_marseille","lat":43.32368,"lon":5.38894,"is_reserved":false,"is_disabled":false,"rental_uris":{"android":"levelo://app?vid=9d302fd2-cf2d-4d06-b7d7-4f621dedcd6a","ios":"levelo://app?vid=9d302fd2-cf2d-4d06-b7d7-4f621dedcd6a"},"vehicle_type_id":"4","last_reported":1726171810,"current_range_meters":24400,"station_id":"ce4bhqp2rcd13ifvqhog","pricing_plan_id":"cebpf4jnsgd1na2vs0mg"},{"bike_id":"1bec1774-45dc-4105-ad48-41fdb6084b9b","system_id":"levelo_inurba_marseille","lat":43.30649,"lon":5.40092,"is_reserved":false,"is_disabled":false,"rental_uris":{"android":"levelo://app?vid=1bec1774-45dc-4105-ad48-41fdb6084b9b","ios":"levelo://app?vid=1bec1774-45dc-4105-ad48-41fdb6084b9b"},"vehicle_type_id":"4","last_reported":1726171810,"current_range_meters":12800,"station_id":"ce4bh112rcd13ifvqda0","pricing_plan_id":"cebpf4jnsgd1na2vs0mg"},{"bike_id":"8263ea4a-64d0-4c72-9510-874ccbb3b8e8","system_id":"levelo_inurba_marseille","lat":43.28666,"lon":5.36364,"is_reserved":false,"is_disabled":false,"rental_uris":{"android":"levelo://app?vid=8263ea4a-64d0-4c72-9510-874ccbb3b8e8","ios":"levelo://app?vid=8263ea4a-64d0-4c72-9510-874ccbb3b8e8"},"vehicle_type_id":"4","last_reported":1726171810,"current_range_meters":4400,"station_id":"ce4bhah2rcd13ifvqej0","pricing_plan_id":"cebpf4jnsgd1na2vs0mg"},{"bike_id":"d80f338e-c7b9-4843-a0cc-56dcfe3a81de","system_id":"levelo_inurba_marseille","lat":43.26216,"lon":5.37439,"is_reserved":false,"is_disabled":false,"rental_uris":{"android":"levelo://app?vid=d80f338e-c7b9-4843-a0cc-56dcfe3a81de","ios":"levelo://app?vid=d80f338e-c7b9-4843-a0cc-56dcfe3a81de"},"vehicle_type_id":"4","last_reported":1726171810,"current_range_meters":38800,"station_id":"ce4bhgp2rcd13ifvqfc0","pricing_plan_id":"cebpf4jnsgd1na2vs0mg"},{"bike_id":"3fd95b83-0fdb-4146-a785-5a14738680ad","system_id":"levelo_inurba_marseille","lat":43.25724,"lon":5.41118,"is_reserved":false,"is_disabled":false,"rental_uris":{"android":"levelo://app?vid=3fd95b83-0fdb-4146-a785-5a14738680ad","ios":"levelo://app?vid=3fd95b83-0fdb-4146-a785-5a14738680ad"},"vehicle_type_id":"4","last_reported":1726171810,"current_range_meters":24000,"station_id":"ce4bhkp2rcd13ifvqgd0","pricing_plan_id":"cebpf4jnsgd1na2vs0mg"},{"bike_id":"9ced008f-ae08-4331-b6bc-4d140a97a4b2","system_id":"levelo_inurba_marseille","lat":43.3153,"lon":5.38037,"is_reserved":false,"is_disabled":false,"rental_uris":{"android":"levelo://app?vid=9ced008f-ae08-4331-b6bc-4d140a97a4b2","ios":"levelo://app?vid=9ced008f-ae08-4331-b6bc-4d140a97a4b2"},"vehicle_type_id":"4","last_reported":1726171810,"current_range_meters":38800,"station_id":"ce4bhsp2rcd13ifvqi50","pricing_plan_id":"cebpf4jnsgd1na2vs0mg"},{"bike_id":"d4ca384e-a23d-4802-be23-f450736c27cb","system_id":"levelo_inurba_marseille","lat":43.27902,"lon":5.38005,"is_reserved":false,"is_disabled":false,"rental_uris":{"android":"levelo://app?vid=d4ca384e-a23d-4802-be23-f450736c27cb","ios":"levelo://app?vid=d4ca384e-a23d-4802-be23-f450736c27cb"},"vehicle_type_id":"4","last_reported":1726171810,"current_range_meters":26000,"station_id":"ce4bhf92rcd13ifvqf50","pricing_plan_id":"cebpf4jnsgd1na2vs0mg"},{"bike_id":"eac98325-51b1-4c0a-9392-a6b4527491d5","system_id":"levelo_inurba_marseille","lat":43.26687,"lon":5.38279,"is_reserved":false,"is_disabled":false,"rental_uris":{"android":"levelo://app?vid=eac98325-51b1-4c0a-9392-a6b4527491d5","ios":"levelo://app?vid=eac98325-51b1-4c0a-9392-a6b4527491d5"},"vehicle_type_id":"4","last_reported":1726171810,"current_range_meters":12800,"station_id":"ce4bhg92rcd13ifvqf90","pricing_plan_id":"cebpf4jnsgd1na2vs0mg"},{"bike_id":"8e9823dd-16c1-48df-8d5e-5e8757dcdf2a","system_id":"levelo_inurba_marseille","lat":43.29014,"lon":5.35606,"is_reserved":false,"is_disabled":false,"rental_uris":{"android":"levelo://app?vid=8e9823dd-16c1-48df-8d5e-5e8757dcdf2a","ios":"levelo://app?vid=8e9823dd-16c1-48df-8d5e-5e8757dcdf2a"},"vehicle_type_id":"4","last_reported":1726171810,"current_range_meters":6400,"station_id":"ce4bhb92rcd13ifvqen0","pricing_plan_id":"cebpf4jnsgd1na2vs0mg"},{"bike_id":"0a1f63c4-8197-4edd-9c0f-886e05340093","system_id":"levelo_inurba_marseille","lat":43.26216,"lon":5.37446,"is_reserved":false,"is_disabled":false,"rental_uris":{"android":"levelo://app?vid=0a1f63c4-8197-4edd-9c0f-886e05340093","ios":"levelo://app?vid=0a1f63c4-8197-4edd-9c0f-886e05340093"},"vehicle_type_id":"4","last_reported":1726171810,"current_range_meters":37600,"station_id":"ce4bhgp2rcd13ifvqfc0","pricing_plan_id":"cebpf4jnsgd1na2vs0mg"},{"bike_id":"e2c75e26-8a68-4be1-8d63-0dc5b41ce78b","system_id":"levelo_inurba_marseille","lat":43.30329,"lon":5.40429,"is_reserved":false,"is_disabled":false,"rental_uris":{"android":"levelo://app?vid=e2c75e26-8a68-4be1-8d63-0dc5b41ce78b","ios":"levelo://app?vid=e2c75e26-8a68-4be1-8d63-0dc5b41ce78b"},"vehicle_type_id":"4","last_reported":1726171810,"current_range_meters":16800,"station_id":"ce4bhb12rcd13ifvqem0","pricing_plan_id":"cebpf4jnsgd1na2vs0mg"},{"bike_id":"c5cba1c4-5d62-494b-9dbe-75faa51bf8d0","system_id":"levelo_inurba_marseille","lat":43.28032,"lon":5.36952,"is_reserved":false,"is_disabled":false,"rental_uris":{"android":"levelo://app?vid=c5cba1c4-5d62-494b-9dbe-75faa51bf8d0","ios":"levelo://app?vid=c5cba1c4-5d62-494b-9dbe-75faa51bf8d0"},"vehicle_type_id":"4","last_reported":1726171810,"current_range_meters":10000,"station_id":"ce4bha12rcd13ifvqef0","pricing_plan_id":"cebpf4jnsgd1na2vs0mg"},{"bike_id":"335d1eaa-695e-4659-9432-afd1d6cb4f48","system_id":"levelo_inurba_marseille","lat":43.29258,"lon":5.38453,"is_reserved":false,"is_disabled":false,"rental_uris":{"android":"levelo://app?vid=335d1eaa-695e-4659-9432-afd1d6cb4f48","ios":"levelo://app?vid=335d1eaa-695e-4659-9432-afd1d6cb4f48"},"vehicle_type_id":"4","last_reported":1726171810,"current_range_meters":33600,"station_id":"ce4bh692rcd13ifvqea0","pricing_plan_id":"cebpf4jnsgd1na2vs0mg"},{"bike_id":"ed13e5fc-1f73-4d37-85f0-688a6556d0e3","system_id":"levelo_inurba_marseille","lat":43.29053,"lon":5.35912,"is_reserved":false,"is_disabled":false,"rental_uris":{"android":"levelo://app?vid=ed13e5fc-1f73-4d37-85f0-688a6556d0e3","ios":"levelo://app?vid=ed13e5fc-1f73-4d37-85f0-688a6556d0e3"},"vehicle_type_id":"4","last_reported":1726171810,"current_range_meters":24000,"station_id":"ce4bha92rcd13ifvqeg0","pricing_plan_id":"cebpf4jnsgd1na2vs0mg"},{"bike_id":"86b6a2b1-86a4-46ee-8c7e-90cb86d3d820","system_id":"levelo_inurba_marseille","lat":43.31306,"lon":5.39813,"is_reserved":false,"is_disabled":false,"rental_uris":{"android":"levelo://app?vid=86b6a2b1-86a4-46ee-8c7e-90cb86d3d820","ios":"levelo://app?vid=86b6a2b1-86a4-46ee-8c7e-90cb86d3d820"},"vehicle_type_id":"4","last_reported":1726171810,"current_range_meters":38800,"station_id":"","pricing_plan_id":"cebpf4jnsgd1na2vs0mg"},{"bike_id":"9e94db27-a410-41c2-87a8-0eec7ef9394e","system_id":"levelo_inurba_marseille","lat":43.2954,"lon":5.39223,"is_reserved":false,"is_disabled":false,"rental_uris":{"android":"levelo://app?vid=9e94db27-a410-41c2-87a8-0eec7ef9394e","ios":"levelo://app?vid=9e94db27-a410-41c2-87a8-0eec7ef9394e"},"vehicle_type_id":"4","last_reported":1726171810,"current_range_meters":28000,"station_id":"","pricing_plan_id":"cebpf4jnsgd1na2vs0mg"},{"bike_id":"6a81ada9-c4f5-4d4c-acd0-9aa1a1ab1123","system_id":"levelo_inurba_marseille","lat":43.28022,"lon":5.40609,"is_reserved":false,"is_disabled":false,"rental_uris":{"android":"levelo://app?vid=6a81ada9-c4f5-4d4c-acd0-9aa1a1ab1123","ios":"levelo://app?vid=6a81ada9-c4f5-4d4c-acd0-9aa1a1ab1123"},"vehicle_type_id":"4","last_reported":1726171810,"current_range_meters":29600,"station_id":"","pricing_plan_id":"cebpf4jnsgd1na2vs0mg"},{"bike_id":"cffac1ce-760c-4460-abda-4bb54b5ef0ab","system_id":"levelo_inurba_marseille","lat":43.28943,"lon":5.3664,"is_reserved":false,"is_disabled":false,"rental_uris":{"android":"levelo://app?vid=cffac1ce-760c-4460-abda-4bb54b5ef0ab","ios":"levelo://app?vid=cffac1ce-760c-4460-abda-4bb54b5ef0ab"},"vehicle_type_id":"4","last_reported":1726171810,"current_range_meters":24400,"station_id":"ce4bhap2rcd13ifvqek0","pricing_plan_id":"cebpf4jnsgd1na2vs0mg"},{"bike_id":"de557007-225d-4fbd-a059-fce96b31d7dc","system_id":"levelo_inurba_marseille","lat":43.28492,"lon":5.38418,"is_reserved":false,"is_disabled":false,"rental_uris":{"android":"levelo://app?vid=de557007-225d-4fbd-a059-fce96b31d7dc","ios":"levelo://app?vid=de557007-225d-4fbd-a059-fce96b31d7dc"},"vehicle_type_id":"4","last_reported":1726171810,"current_range_meters":11600,"station_id":"ce4bh512rcd13ifvqe3g","pricing_plan_id":"cebpf4jnsgd1na2vs0mg"},{"bike_id":"af86506f-f8fe-4c34-9939-464ebed8523b","system_id":"levelo_inurba_marseille","lat":43.31755,"lon":5.39029,"is_reserved":false,"is_disabled":false,"rental_uris":{"android":"levelo://app?vid=af86506f-f8fe-4c34-9939-464ebed8523b","ios":"levelo://app?vid=af86506f-f8fe-4c34-9939-464ebed8523b"},"vehicle_type_id":"4","last_reported":1726171810,"current_range_meters":39200,"station_id":"ce4bhqp2rcd13ifvqhng","pricing_plan_id":"cebpf4jnsgd1na2vs0mg"},{"bike_id":"4067cf6c-6e3d-4ac9-99bf-c1b92b69f736","system_id":"levelo_inurba_marseille","lat":43.32479,"lon":5.36563,"is_reserved":false,"is_disabled":false,"rental_uris":{"android":"levelo://app?vid=4067cf6c-6e3d-4ac9-99bf-c1b92b69f736","ios":"levelo://app?vid=4067cf6c-6e3d-4ac9-99bf-c1b92b69f736"},"vehicle_type_id":"4","last_reported":1726171810,"current_range_meters":27600,"station_id":"ce4bhs12rcd13ifvqhvg","pricing_plan_id":"cebpf4jnsgd1na2vs0mg"},{"bike_id":"790bd815-cb1d-4d38-9b83-3c4bf066e581","system_id":"levelo_inurba_marseille","lat":43.29208,"lon":5.39325,"is_reserved":false,"is_disabled":false,"rental_uris":{"android":"levelo://app?vid=790bd815-cb1d-4d38-9b83-3c4bf066e581","ios":"levelo://app?vid=790bd815-cb1d-4d38-9b83-3c4bf066e581"},"vehicle_type_id":"4","last_reported":1726171810,"current_range_meters":39200,"station_id":"ce4bh192rcd13ifvqdd0","pricing_plan_id":"cebpf4jnsgd1na2vs0mg"},{"bike_id":"a6c05804-8cc8-4fd0-8d6e-10b5748dbc51","system_id":"levelo_inurba_marseille","lat":43.30091,"lon":5.39095,"is_reserved":false,"is_disabled":false,"rental_uris":{"android":"levelo://app?vid=a6c05804-8cc8-4fd0-8d6e-10b5748dbc51","ios":"levelo://app?vid=a6c05804-8cc8-4fd0-8d6e-10b5748dbc51"},"vehicle_type_id":"4","last_reported":1726171810,"current_range_meters":30000,"station_id":"ce4bh192rcd13ifvqdb0","pricing_plan_id":"cebpf4jnsgd1na2vs0mg"},{"bike_id":"99a03595-507c-4a47-ac8c-6f46cac06fa9","system_id":"levelo_inurba_marseille","lat":43.290504,"lon":5.399904,"is_reserved":false,"is_disabled":false,"rental_uris":{"android":"levelo://app?vid=99a03595-507c-4a47-ac8c-6f46cac06fa9","ios":"levelo://app?vid=99a03595-507c-4a47-ac8c-6f46cac06fa9"},"vehicle_type_id":"4","last_reported":1726171810,"current_range_meters":36000,"station_id":"ce4bh392rcd13ifvqdm0","pricing_plan_id":"cebpf4jnsgd1na2vs0mg"},{"bike_id":"8e77a24e-f4d4-4b4b-8126-63fc1c1ae33c","system_id":"levelo_inurba_marseille","lat":43.294139,"lon":5.386402,"is_reserved":false,"is_disabled":false,"rental_uris":{"android":"levelo://app?vid=8e77a24e-f4d4-4b4b-8126-63fc1c1ae33c","ios":"levelo://app?vid=8e77a24e-f4d4-4b4b-8126-63fc1c1ae33c"},"vehicle_type_id":"4","last_reported":1726171810,"current_range_meters":9600,"station_id":"ce4bgup2rcd13ifvqcn0","pricing_plan_id":"cebpf4jnsgd1na2vs0mg"},{"bike_id":"a98c4df3-5811-4bec-a27f-c553445db26b","system_id":"levelo_inurba_marseille","lat":43.29079,"lon":5.37184,"is_reserved":false,"is_disabled":false,"rental_uris":{"android":"levelo://app?vid=a98c4df3-5811-4bec-a27f-c553445db26b","ios":"levelo://app?vid=a98c4df3-5811-4bec-a27f-c553445db26b"},"vehicle_type_id":"4","last_reported":1726171810,"current_range_meters":36800,"station_id":"ce4bh5p2rcd13ifvqe4g","pricing_plan_id":"cebpf4jnsgd1na2vs0mg"},{"bike_id":"d8bb124d-3e68-4351-8c30-7608c89f5296","system_id":"levelo_inurba_marseille","lat":43.29526,"lon":5.39045,"is_reserved":false,"is_disabled":false,"rental_uris":{"android":"levelo://app?vid=d8bb124d-3e68-4351-8c30-7608c89f5296","ios":"levelo://app?vid=d8bb124d-3e68-4351-8c30-7608c89f5296"},"vehicle_type_id":"4","last_reported":1726171810,"current_range_meters":29600,"station_id":"ce4bh3p2rcd13ifvqdp0","pricing_plan_id":"cebpf4jnsgd1na2vs0mg"},{"bike_id":"12ce886c-0bc4-4891-9e19-a92c964222b7","system_id":"levelo_inurba_marseille","lat":43.27431,"lon":5.39417,"is_reserved":false,"is_disabled":false,"rental_uris":{"android":"levelo://app?vid=12ce886c-0bc4-4891-9e19-a92c964222b7","ios":"levelo://app?vid=12ce886c-0bc4-4891-9e19-a92c964222b7"},"vehicle_type_id":"4","last_reported":1726171810,"current_range_meters":3200,"station_id":"ce4bhdp2rcd13ifvqf20","pricing_plan_id":"cebpf4jnsgd1na2vs0mg"},{"bike_id":"7b6cabea-53b7-4fac-bdd6-e6d3dbefd721","system_id":"levelo_inurba_marseille","lat":43.29267,"lon":5.38436,"is_reserved":false,"is_disabled":false,"rental_uris":{"android":"levelo://app?vid=7b6cabea-53b7-4fac-bdd6-e6d3dbefd721","ios":"levelo://app?vid=7b6cabea-53b7-4fac-bdd6-e6d3dbefd721"},"vehicle_type_id":"4","last_reported":1726171810,"current_range_meters":30400,"station_id":"ce4bh692rcd13ifvqea0","pricing_plan_id":"cebpf4jnsgd1na2vs0mg"},{"bike_id":"b413d41f-7993-42f5-a3cc-daaaeaf22886","system_id":"levelo_inurba_marseille","lat":43.32479,"lon":5.36559,"is_reserved":false,"is_disabled":false,"rental_uris":{"android":"levelo://app?vid=b413d41f-7993-42f5-a3cc-daaaeaf22886","ios":"levelo://app?vid=b413d41f-7993-42f5-a3cc-daaaeaf22886"},"vehicle_type_id":"4","last_reported":1726171810,"current_range_meters":26800,"station_id":"ce4bhs12rcd13ifvqhvg","pricing_plan_id":"cebpf4jnsgd1na2vs0mg"},{"bike_id":"2d268ce5-dbf0-407b-a13d-a0a8eb5d7803","system_id":"levelo_inurba_marseille","lat":43.30134,"lon":5.39857,"is_reserved":false,"is_disabled":false,"rental_uris":{"android":"levelo://app?vid=2d268ce5-dbf0-407b-a13d-a0a8eb5d7803","ios":"levelo://app?vid=2d268ce5-dbf0-407b-a13d-a0a8eb5d7803"},"vehicle_type_id":"4","last_reported":1726171810,"current_range_meters":8800,"station_id":"ce4bh0h2rcd13ifvqd40","pricing_plan_id":"cebpf4jnsgd1na2vs0mg"},{"bike_id":"8764129a-9b8d-4490-a1c9-f9fa60b4a560","system_id":"levelo_inurba_marseille","lat":43.33609,"lon":5.41034,"is_reserved":false,"is_disabled":false,"rental_uris":{"android":"levelo://app?vid=8764129a-9b8d-4490-a1c9-f9fa60b4a560","ios":"levelo://app?vid=8764129a-9b8d-4490-a1c9-f9fa60b4a560"},"vehicle_type_id":"4","last_reported":1726171810,"current_range_meters":21600,"station_id":"ce4bhqh2rcd13ifvqhmg","pricing_plan_id":"cebpf4jnsgd1na2vs0mg"},{"bike_id":"cdb7f7b4-ad89-4f18-9858-49d0e878e14f","system_id":"levelo_inurba_marseille","lat":43.3255,"lon":5.41443,"is_reserved":false,"is_disabled":false,"rental_uris":{"android":"levelo://app?vid=cdb7f7b4-ad89-4f18-9858-49d0e878e14f","ios":"levelo://app?vid=cdb7f7b4-ad89-4f18-9858-49d0e878e14f"},"vehicle_type_id":"4","last_reported":1726171810,"current_range_meters":5600,"station_id":"ce4bhq12rcd13ifvqhhg","pricing_plan_id":"cebpf4jnsgd1na2vs0mg"},{"bike_id":"6516f0c6-d4ca-4768-a850-967ced0d59bb","system_id":"levelo_inurba_marseille","lat":43.2979,"lon":5.3935,"is_reserved":false,"is_disabled":false,"rental_uris":{"android":"levelo://app?vid=6516f0c6-d4ca-4768-a850-967ced0d59bb","ios":"levelo://app?vid=6516f0c6-d4ca-4768-a850-967ced0d59bb"},"vehicle_type_id":"4","last_reported":1726171810,"current_range_meters":18800,"station_id":"chh1huq6cuj3fo74tm60","pricing_plan_id":"cebpf4jnsgd1na2vs0mg"},{"bike_id":"96cb29cb-8da1-4dd6-bd35-ee190827a973","system_id":"levelo_inurba_marseille","lat":43.26563,"lon":5.37283,"is_reserved":false,"is_disabled":false,"rental_uris":{"android":"levelo://app?vid=96cb29cb-8da1-4dd6-bd35-ee190827a973","ios":"levelo://app?vid=96cb29cb-8da1-4dd6-bd35-ee190827a973"},"vehicle_type_id":"4","last_reported":1726171810,"current_range_meters":9200,"station_id":"ce4bhg12rcd13ifvqf70","pricing_plan_id":"cebpf4jnsgd1na2vs0mg"},{"bike_id":"a61c9e04-bce5-4e44-99ea-7dd65bcde295","system_id":"levelo_inurba_marseille","lat":43.29002,"lon":5.35622,"is_reserved":false,"is_disabled":false,"rental_uris":{"android":"levelo://app?vid=a61c9e04-bce5-4e44-99ea-7dd65bcde295","ios":"levelo://app?vid=a61c9e04-bce5-4e44-99ea-7dd65bcde295"},"vehicle_type_id":"4","last_reported":1726171810,"current_range_meters":28400,"station_id":"ce4bhb92rcd13ifvqen0","pricing_plan_id":"cebpf4jnsgd1na2vs0mg"},{"bike_id":"cd75701b-d41a-41fb-929e-c69d8fbf02a7","system_id":"levelo_inurba_marseille","lat":43.23961,"lon":5.36637,"is_reserved":false,"is_disabled":false,"rental_uris":{"android":"levelo://app?vid=cd75701b-d41a-41fb-929e-c69d8fbf02a7","ios":"levelo://app?vid=cd75701b-d41a-41fb-929e-c69d8fbf02a7"},"vehicle_type_id":"4","last_reported":1726171810,"current_range_meters":30400,"station_id":"ce4bhi12rcd13ifvqfp0","pricing_plan_id":"cebpf4jnsgd1na2vs0mg"},{"bike_id":"2d92ef63-3216-43e8-9e28-08f9909478e3","system_id":"levelo_inurba_marseille","lat":43.266059,"lon":5.389916,"is_reserved":false,"is_disabled":false,"rental_uris":{"android":"levelo://app?vid=2d92ef63-3216-43e8-9e28-08f9909478e3","ios":"levelo://app?vid=2d92ef63-3216-43e8-9e28-08f9909478e3"},"vehicle_type_id":"4","last_reported":1726171810,"current_range_meters":16000,"station_id":"ce4bhe12rcd13ifvqf30","pricing_plan_id":"cebpf4jnsgd1na2vs0mg"},{"bike_id":"2a5b8669-a39c-418c-95de-04ed7a3b697d","system_id":"levelo_inurba_marseille","lat":43.28102,"lon":5.37848,"is_reserved":false,"is_disabled":false,"rental_uris":{"android":"levelo://app?vid=2a5b8669-a39c-418c-95de-04ed7a3b697d","ios":"levelo://app?vid=2a5b8669-a39c-418c-95de-04ed7a3b697d"},"vehicle_type_id":"4","last_reported":1726171810,"current_range_meters":32400,"station_id":"ce4bha12rcd13ifvqee0","pricing_plan_id":"cebpf4jnsgd1na2vs0mg"},{"bike_id":"34ede407-fce7-4386-8202-618277aaeb81","system_id":"levelo_inurba_marseille","lat":43.27825,"lon":5.40714,"is_reserved":false,"is_disabled":false,"rental_uris":{"android":"levelo://app?vid=34ede407-fce7-4386-8202-618277aaeb81","ios":"levelo://app?vid=34ede407-fce7-4386-8202-618277aaeb81"},"vehicle_type_id":"4","last_reported":1726171810,"current_range_meters":6800,"station_id":"ce4bhnh2rcd13ifvqgtg","pricing_plan_id":"cebpf4jnsgd1na2vs0mg"},{"bike_id":"98c41a42-a764-442b-bc30-ebd49030c355","system_id":"levelo_inurba_marseille","lat":43.2846,"lon":5.35896,"is_reserved":false,"is_disabled":false,"rental_uris":{"android":"levelo://app?vid=98c41a42-a764-442b-bc30-ebd49030c355","ios":"levelo://app?vid=98c41a42-a764-442b-bc30-ebd49030c355"},"vehicle_type_id":"4","last_reported":1726171810,"current_range_meters":36400,"station_id":"ce4bhah2rcd13ifvqei0","pricing_plan_id":"cebpf4jnsgd1na2vs0mg"},{"bike_id":"226e0a85-18b1-486b-bf74-1b56430bd1bf","system_id":"levelo_inurba_marseille","lat":43.26495,"lon":5.39524,"is_reserved":false,"is_disabled":false,"rental_uris":{"android":"levelo://app?vid=226e0a85-18b1-486b-bf74-1b56430bd1bf","ios":"levelo://app?vid=226e0a85-18b1-486b-bf74-1b56430bd1bf"},"vehicle_type_id":"4","last_reported":1726171810,"current_range_meters":38800,"station_id":"ce4bhi12rcd13ifvqfq0","pricing_plan_id":"cebpf4jnsgd1na2vs0mg"},{"bike_id":"4d128cdd-31dd-4351-924e-8767472eb71e","system_id":"levelo_inurba_marseille","lat":43.30318,"lon":5.40447,"is_reserved":false,"is_disabled":false,"rental_uris":{"android":"levelo://app?vid=4d128cdd-31dd-4351-924e-8767472eb71e","ios":"levelo://app?vid=4d128cdd-31dd-4351-924e-8767472eb71e"},"vehicle_type_id":"4","last_reported":1726171810,"current_range_meters":38800,"station_id":"ce4bh012rcd13ifvqd10","pricing_plan_id":"cebpf4jnsgd1na2vs0mg"},{"bike_id":"185f5d18-e661-44f4-bcb6-2d0b90541f29","system_id":"levelo_inurba_marseille","lat":43.28562,"lon":5.38955,"is_reserved":false,"is_disabled":false,"rental_uris":{"android":"levelo://app?vid=185f5d18-e661-44f4-bcb6-2d0b90541f29","ios":"levelo://app?vid=185f5d18-e661-44f4-bcb6-2d0b90541f29"},"vehicle_type_id":"4","last_reported":1726171810,"current_range_meters":38400,"station_id":"","pricing_plan_id":"cebpf4jnsgd1na2vs0mg"},{"bike_id":"eb01f971-c89c-4dfc-9a31-66ce9efd20ca","system_id":"levelo_inurba_marseille","lat":43.27178,"lon":5.41,"is_reserved":false,"is_disabled":false,"rental_uris":{"android":"levelo://app?vid=eb01f971-c89c-4dfc-9a31-66ce9efd20ca","ios":"levelo://app?vid=eb01f971-c89c-4dfc-9a31-66ce9efd20ca"},"vehicle_type_id":"4","last_reported":1726171810,"current_range_meters":33200,"station_id":"ce4bhl12rcd13ifvqgf0","pricing_plan_id":"cebpf4jnsgd1na2vs0mg"},{"bike_id":"cac78a6e-a1e0-4f97-9b48-10fba0a2004d","system_id":"levelo_inurba_marseille","lat":43.23207,"lon":5.35559,"is_reserved":false,"is_disabled":false,"rental_uris":{"android":"levelo://app?vid=cac78a6e-a1e0-4f97-9b48-10fba0a2004d","ios":"levelo://app?vid=cac78a6e-a1e0-4f97-9b48-10fba0a2004d"},"vehicle_type_id":"4","last_reported":1726171810,"current_range_meters":6000,"station_id":"ce4bhu92rcd13ifvqi70","pricing_plan_id":"cebpf4jnsgd1na2vs0mg"},{"bike_id":"87106bbb-5858-42a8-85c6-232aa030bbd4","system_id":"levelo_inurba_marseille","lat":43.25721,"lon":5.41114,"is_reserved":false,"is_disabled":false,"rental_uris":{"android":"levelo://app?vid=87106bbb-5858-42a8-85c6-232aa030bbd4","ios":"levelo://app?vid=87106bbb-5858-42a8-85c6-232aa030bbd4"},"vehicle_type_id":"4","last_reported":1726171810,"current_range_meters":21600,"station_id":"ce4bhkp2rcd13ifvqgd0","pricing_plan_id":"cebpf4jnsgd1na2vs0mg"},{"bike_id":"5969c9fb-1a4e-44e7-9a7a-83c73b1c5d8d","system_id":"levelo_inurba_marseille","lat":43.28674,"lon":5.38673,"is_reserved":false,"is_disabled":false,"rental_uris":{"android":"levelo://app?vid=5969c9fb-1a4e-44e7-9a7a-83c73b1c5d8d","ios":"levelo://app?vid=5969c9fb-1a4e-44e7-9a7a-83c73b1c5d8d"},"vehicle_type_id":"4","last_reported":1726171810,"current_range_meters":36800,"station_id":"ce4bh492rcd13ifvqdug","pricing_plan_id":"cebpf4jnsgd1na2vs0mg"},{"bike_id":"72b517d2-6987-46d8-857e-779bc7604f01","system_id":"levelo_inurba_marseille","lat":43.26027,"lon":5.37554,"is_reserved":false,"is_disabled":false,"rental_uris":{"android":"levelo://app?vid=72b517d2-6987-46d8-857e-779bc7604f01","ios":"levelo://app?vid=72b517d2-6987-46d8-857e-779bc7604f01"},"vehicle_type_id":"4","last_reported":1726171810,"current_range_meters":24000,"station_id":"ce4bhgh2rcd13ifvqfa0","pricing_plan_id":"cebpf4jnsgd1na2vs0mg"},{"bike_id":"53d2bf3d-4905-49f9-89c4-324506aca78e","system_id":"levelo_inurba_marseille","lat":43.31851,"lon":5.40925,"is_reserved":false,"is_disabled":false,"rental_uris":{"android":"levelo://app?vid=53d2bf3d-4905-49f9-89c4-324506aca78e","ios":"levelo://app?vid=53d2bf3d-4905-49f9-89c4-324506aca78e"},"vehicle_type_id":"4","last_reported":1726171810,"current_range_meters":21600,"station_id":"","pricing_plan_id":"cebpf4jnsgd1na2vs0mg"},{"bike_id":"3c45bb66-9bd6-4c96-9d9d-e8c60e79da33","system_id":"levelo_inurba_marseille","lat":43.29261,"lon":5.3844,"is_reserved":false,"is_disabled":false,"rental_uris":{"android":"levelo://app?vid=3c45bb66-9bd6-4c96-9d9d-e8c60e79da33","ios":"levelo://app?vid=3c45bb66-9bd6-4c96-9d9d-e8c60e79da33"},"vehicle_type_id":"4","last_reported":1726171810,"current_range_meters":30800,"station_id":"ce4bh692rcd13ifvqea0","pricing_plan_id":"cebpf4jnsgd1na2vs0mg"},{"bike_id":"a2cd8b1a-5149-423f-b006-3a9bf1a7a464","system_id":"levelo_inurba_marseille","lat":43.27495,"lon":5.42452,"is_reserved":false,"is_disabled":false,"rental_uris":{"android":"levelo://app?vid=a2cd8b1a-5149-423f-b006-3a9bf1a7a464","ios":"levelo://app?vid=a2cd8b1a-5149-423f-b006-3a9bf1a7a464"},"vehicle_type_id":"4","last_reported":1726171810,"current_range_meters":18800,"station_id":"ce4bhn92rcd13ifvqgrg","pricing_plan_id":"cebpf4jnsgd1na2vs0mg"},{"bike_id":"34657d35-d936-4f69-90d2-9138dbc7b9fc","system_id":"levelo_inurba_marseille","lat":43.31175,"lon":5.38734,"is_reserved":false,"is_disabled":false,"rental_uris":{"android":"levelo://app?vid=34657d35-d936-4f69-90d2-9138dbc7b9fc","ios":"levelo://app?vid=34657d35-d936-4f69-90d2-9138dbc7b9fc"},"vehicle_type_id":"4","last_reported":1726171810,"current_range_meters":36400,"station_id":"ce4bgv12rcd13ifvqcp0","pricing_plan_id":"cebpf4jnsgd1na2vs0mg"},{"bike_id":"2c4577b3-3689-495e-a3c3-a78eafd4dc43","system_id":"levelo_inurba_marseille","lat":43.26555,"lon":5.37285,"is_reserved":false,"is_disabled":false,"rental_uris":{"android":"levelo://app?vid=2c4577b3-3689-495e-a3c3-a78eafd4dc43","ios":"levelo://app?vid=2c4577b3-3689-495e-a3c3-a78eafd4dc43"},"vehicle_type_id":"4","last_reported":1726171810,"current_range_meters":25600,"station_id":"ce4bhg12rcd13ifvqf70","pricing_plan_id":"cebpf4jnsgd1na2vs0mg"},{"bike_id":"6c9ac6be-0029-4a2d-bb72-5c51035bba42","system_id":"levelo_inurba_marseille","lat":43.33613,"lon":5.41031,"is_reserved":false,"is_disabled":false,"rental_uris":{"android":"levelo://app?vid=6c9ac6be-0029-4a2d-bb72-5c51035bba42","ios":"levelo://app?vid=6c9ac6be-0029-4a2d-bb72-5c51035bba42"},"vehicle_type_id":"4","last_reported":1726171810,"current_range_meters":38000,"station_id":"ce4bhqh2rcd13ifvqhmg","pricing_plan_id":"cebpf4jnsgd1na2vs0mg"},{"bike_id":"a5f7f5e4-b979-4b26-85be-224ef2ad84cd","system_id":"levelo_inurba_marseille","lat":43.295898,"lon":5.400126,"is_reserved":false,"is_disabled":false,"rental_uris":{"android":"levelo://app?vid=a5f7f5e4-b979-4b26-85be-224ef2ad84cd","ios":"levelo://app?vid=a5f7f5e4-b979-4b26-85be-224ef2ad84cd"},"vehicle_type_id":"4","last_reported":1726171810,"current_range_meters":34000,"station_id":"ce4bh312rcd13ifvqdj0","pricing_plan_id":"cebpf4jnsgd1na2vs0mg"},{"bike_id":"7dea9175-0fb5-4d49-ac6e-d13b7c47ac00","system_id":"levelo_inurba_marseille","lat":43.25715,"lon":5.41114,"is_reserved":false,"is_disabled":false,"rental_uris":{"android":"levelo://app?vid=7dea9175-0fb5-4d49-ac6e-d13b7c47ac00","ios":"levelo://app?vid=7dea9175-0fb5-4d49-ac6e-d13b7c47ac00"},"vehicle_type_id":"4","last_reported":1726171810,"current_range_meters":36800,"station_id":"ce4bhkp2rcd13ifvqgd0","pricing_plan_id":"cebpf4jnsgd1na2vs0mg"},{"bike_id":"60d5bda9-f640-405a-935d-62d1314e50fa","system_id":"levelo_inurba_marseille","lat":43.23966,"lon":5.36638,"is_reserved":false,"is_disabled":false,"rental_uris":{"android":"levelo://app?vid=60d5bda9-f640-405a-935d-62d1314e50fa","ios":"levelo://app?vid=60d5bda9-f640-405a-935d-62d1314e50fa"},"vehicle_type_id":"4","last_reported":1726171810,"current_range_meters":28400,"station_id":"ce4bhi12rcd13ifvqfp0","pricing_plan_id":"cebpf4jnsgd1na2vs0mg"},{"bike_id":"33f03670-cf2a-43f9-bafe-26c48df8fd80","system_id":"levelo_inurba_marseille","lat":43.31082,"lon":5.42428,"is_reserved":false,"is_disabled":false,"rental_uris":{"android":"levelo://app?vid=33f03670-cf2a-43f9-bafe-26c48df8fd80","ios":"levelo://app?vid=33f03670-cf2a-43f9-bafe-26c48df8fd80"},"vehicle_type_id":"4","last_reported":1726171810,"current_range_meters":32000,"station_id":"ce4bhp92rcd13ifvqhag","pricing_plan_id":"cebpf4jnsgd1na2vs0mg"},{"bike_id":"45ec3212-b7c5-4fe1-b791-07efed3eba6d","system_id":"levelo_inurba_marseille","lat":43.28943,"lon":5.39093,"is_reserved":false,"is_disabled":false,"rental_uris":{"android":"levelo://app?vid=45ec3212-b7c5-4fe1-b791-07efed3eba6d","ios":"levelo://app?vid=45ec3212-b7c5-4fe1-b791-07efed3eba6d"},"vehicle_type_id":"4","last_reported":1726171810,"current_range_meters":25200,"station_id":"ce4bh192rcd13ifvqdd0","pricing_plan_id":"cebpf4jnsgd1na2vs0mg"},{"bike_id":"423a4cab-8a31-4718-8b7a-239bcdca67af","system_id":"levelo_inurba_marseille","lat":43.2418,"lon":5.39718,"is_reserved":false,"is_disabled":false,"rental_uris":{"android":"levelo://app?vid=423a4cab-8a31-4718-8b7a-239bcdca67af","ios":"levelo://app?vid=423a4cab-8a31-4718-8b7a-239bcdca67af"},"vehicle_type_id":"4","last_reported":1726171810,"current_range_meters":38800,"station_id":"ce4bhn12rcd13ifvqgpg","pricing_plan_id":"cebpf4jnsgd1na2vs0mg"},{"bike_id":"9163cc20-d457-4a59-bb69-e012a5ecf5a9","system_id":"levelo_inurba_marseille","lat":43.28459,"lon":5.35891,"is_reserved":false,"is_disabled":false,"rental_uris":{"android":"levelo://app?vid=9163cc20-d457-4a59-bb69-e012a5ecf5a9","ios":"levelo://app?vid=9163cc20-d457-4a59-bb69-e012a5ecf5a9"},"vehicle_type_id":"4","last_reported":1726171810,"current_range_meters":38800,"station_id":"ce4bhah2rcd13ifvqei0","pricing_plan_id":"cebpf4jnsgd1na2vs0mg"},{"bike_id":"94b2f2f0-87d9-4cf2-aa73-7810818c44f8","system_id":"levelo_inurba_marseille","lat":43.282135,"lon":5.379026,"is_reserved":false,"is_disabled":false,"rental_uris":{"android":"levelo://app?vid=94b2f2f0-87d9-4cf2-aa73-7810818c44f8","ios":"levelo://app?vid=94b2f2f0-87d9-4cf2-aa73-7810818c44f8"},"vehicle_type_id":"4","last_reported":1726171810,"current_range_meters":32400,"station_id":"ce4bha12rcd13ifvqee0","pricing_plan_id":"cebpf4jnsgd1na2vs0mg"},{"bike_id":"96296b06-953b-4a27-8f25-5de1930132b9","system_id":"levelo_inurba_marseille","lat":43.29533,"lon":5.38544,"is_reserved":false,"is_disabled":false,"rental_uris":{"android":"levelo://app?vid=96296b06-953b-4a27-8f25-5de1930132b9","ios":"levelo://app?vid=96296b06-953b-4a27-8f25-5de1930132b9"},"vehicle_type_id":"4","last_reported":1726171810,"current_range_meters":39200,"station_id":"ce4bgih2rcd13ifvqba0","pricing_plan_id":"cebpf4jnsgd1na2vs0mg"},{"bike_id":"2d9f6a36-1e8d-46ce-8819-b2bb04006d43","system_id":"levelo_inurba_marseille","lat":43.25583,"lon":5.3824,"is_reserved":false,"is_disabled":false,"rental_uris":{"android":"levelo://app?vid=2d9f6a36-1e8d-46ce-8819-b2bb04006d43","ios":"levelo://app?vid=2d9f6a36-1e8d-46ce-8819-b2bb04006d43"},"vehicle_type_id":"4","last_reported":1726171810,"current_range_meters":35600,"station_id":"ce4bhih2rcd13ifvqfs0","pricing_plan_id":"cebpf4jnsgd1na2vs0mg"},{"bike_id":"a23e80f1-de4d-445e-8443-cf95d257caa5","system_id":"levelo_inurba_marseille","lat":43.28458,"lon":5.35894,"is_reserved":false,"is_disabled":false,"rental_uris":{"android":"levelo://app?vid=a23e80f1-de4d-445e-8443-cf95d257caa5","ios":"levelo://app?vid=a23e80f1-de4d-445e-8443-cf95d257caa5"},"vehicle_type_id":"4","last_reported":1726171810,"current_range_meters":38000,"station_id":"ce4bhah2rcd13ifvqei0","pricing_plan_id":"cebpf4jnsgd1na2vs0mg"},{"bike_id":"fe46afdd-b76d-4626-b7c3-b5185d9c2f63","system_id":"levelo_inurba_marseille","lat":43.28871,"lon":5.35843,"is_reserved":false,"is_disabled":false,"rental_uris":{"android":"levelo://app?vid=fe46afdd-b76d-4626-b7c3-b5185d9c2f63","ios":"levelo://app?vid=fe46afdd-b76d-4626-b7c3-b5185d9c2f63"},"vehicle_type_id":"4","last_reported":1726171810,"current_range_meters":17200,"station_id":"ce4bhb12rcd13ifvqem0","pricing_plan_id":"cebpf4jnsgd1na2vs0mg"},{"bike_id":"21b94c3b-bde2-4090-9fb1-7ecb487648d7","system_id":"levelo_inurba_marseille","lat":43.31126,"lon":5.37766,"is_reserved":false,"is_disabled":false,"rental_uris":{"android":"levelo://app?vid=21b94c3b-bde2-4090-9fb1-7ecb487648d7","ios":"levelo://app?vid=21b94c3b-bde2-4090-9fb1-7ecb487648d7"},"vehicle_type_id":"4","last_reported":1726171810,"current_range_meters":38800,"station_id":"ce4bgt92rcd13ifvqcg0","pricing_plan_id":"cebpf4jnsgd1na2vs0mg"},{"bike_id":"1e0df5ba-fa4d-4573-807a-e855b81fe691","system_id":"levelo_inurba_marseille","lat":43.23963,"lon":5.36639,"is_reserved":false,"is_disabled":false,"rental_uris":{"android":"levelo://app?vid=1e0df5ba-fa4d-4573-807a-e855b81fe691","ios":"levelo://app?vid=1e0df5ba-fa4d-4573-807a-e855b81fe691"},"vehicle_type_id":"4","last_reported":1726171810,"current_range_meters":33200,"station_id":"ce4bhi12rcd13ifvqfp0","pricing_plan_id":"cebpf4jnsgd1na2vs0mg"},{"bike_id":"e62c8c71-b14f-4c94-8aa4-e0afcaaf93b6","system_id":"levelo_inurba_marseille","lat":43.24812,"lon":5.37473,"is_reserved":false,"is_disabled":false,"rental_uris":{"android":"levelo://app?vid=e62c8c71-b14f-4c94-8aa4-e0afcaaf93b6","ios":"levelo://app?vid=e62c8c71-b14f-4c94-8aa4-e0afcaaf93b6"},"vehicle_type_id":"4","last_reported":1726171810,"current_range_meters":36400,"station_id":"ce4bhgh2rcd13ifvqfb0","pricing_plan_id":"cebpf4jnsgd1na2vs0mg"},{"bike_id":"ab30bc76-43de-41d5-aef3-767a6c146219","system_id":"levelo_inurba_marseille","lat":43.27214,"lon":5.39176,"is_reserved":false,"is_disabled":false,"rental_uris":{"android":"levelo://app?vid=ab30bc76-43de-41d5-aef3-767a6c146219","ios":"levelo://app?vid=ab30bc76-43de-41d5-aef3-767a6c146219"},"vehicle_type_id":"4","last_reported":1726171810,"current_range_meters":3600,"station_id":"ce4bhhp2rcd13ifvqfm0","pricing_plan_id":"cebpf4jnsgd1na2vs0mg"},{"bike_id":"2d93f995-060e-401b-affd-9b2062ea63fb","system_id":"levelo_inurba_marseille","lat":43.2837,"lon":5.38637,"is_reserved":false,"is_disabled":false,"rental_uris":{"android":"levelo://app?vid=2d93f995-060e-401b-affd-9b2062ea63fb","ios":"levelo://app?vid=2d93f995-060e-401b-affd-9b2062ea63fb"},"vehicle_type_id":"4","last_reported":1726171810,"current_range_meters":20000,"station_id":"ce4bh492rcd13ifvqdvg","pricing_plan_id":"cebpf4jnsgd1na2vs0mg"},{"bike_id":"968014fd-9b9b-44f3-81dd-dd788f375218","system_id":"levelo_inurba_marseille","lat":43.29256,"lon":5.38446,"is_reserved":false,"is_disabled":false,"rental_uris":{"android":"levelo://app?vid=968014fd-9b9b-44f3-81dd-dd788f375218","ios":"levelo://app?vid=968014fd-9b9b-44f3-81dd-dd788f375218"},"vehicle_type_id":"4","last_reported":1726171810,"current_range_meters":4800,"station_id":"ce4bh692rcd13ifvqea0","pricing_plan_id":"cebpf4jnsgd1na2vs0mg"},{"bike_id":"768174ed-8e87-4dfb-8f24-a534a0005560","system_id":"levelo_inurba_marseille","lat":43.29002,"lon":5.35616,"is_reserved":false,"is_disabled":false,"rental_uris":{"android":"levelo://app?vid=768174ed-8e87-4dfb-8f24-a534a0005560","ios":"levelo://app?vid=768174ed-8e87-4dfb-8f24-a534a0005560"},"vehicle_type_id":"4","last_reported":1726171810,"current_range_meters":38800,"station_id":"ce4bhb92rcd13ifvqen0","pricing_plan_id":"cebpf4jnsgd1na2vs0mg"},{"bike_id":"17dad1d8-abe9-44f0-8207-d93883646bce","system_id":"levelo_inurba_marseille","lat":43.30893,"lon":5.37193,"is_reserved":false,"is_disabled":false,"rental_uris":{"android":"levelo://app?vid=17dad1d8-abe9-44f0-8207-d93883646bce","ios":"levelo://app?vid=17dad1d8-abe9-44f0-8207-d93883646bce"},"vehicle_type_id":"4","last_reported":1726171810,"current_range_meters":28000,"station_id":"ce4bguh2rcd13ifvqckg","pricing_plan_id":"cebpf4jnsgd1na2vs0mg"},{"bike_id":"ce4a604d-a352-49f5-afc1-7d68085db427","system_id":"levelo_inurba_marseille","lat":43.29518,"lon":5.39048,"is_reserved":false,"is_disabled":false,"rental_uris":{"android":"levelo://app?vid=ce4a604d-a352-49f5-afc1-7d68085db427","ios":"levelo://app?vid=ce4a604d-a352-49f5-afc1-7d68085db427"},"vehicle_type_id":"4","last_reported":1726171810,"current_range_meters":18000,"station_id":"ce4bh3p2rcd13ifvqdp0","pricing_plan_id":"cebpf4jnsgd1na2vs0mg"},{"bike_id":"59a2b5a9-0f56-40d5-a59c-cb2592419b75","system_id":"levelo_inurba_marseille","lat":43.25615,"lon":5.38247,"is_reserved":false,"is_disabled":false,"rental_uris":{"android":"levelo://app?vid=59a2b5a9-0f56-40d5-a59c-cb2592419b75","ios":"levelo://app?vid=59a2b5a9-0f56-40d5-a59c-cb2592419b75"},"vehicle_type_id":"4","last_reported":1726171810,"current_range_meters":38800,"station_id":"ce4bhih2rcd13ifvqfs0","pricing_plan_id":"cebpf4jnsgd1na2vs0mg"},{"bike_id":"7dc55c88-404a-433c-90d5-05daf2e2d002","system_id":"levelo_inurba_marseille","lat":43.28268,"lon":5.35078,"is_reserved":false,"is_disabled":false,"rental_uris":{"android":"levelo://app?vid=7dc55c88-404a-433c-90d5-05daf2e2d002","ios":"levelo://app?vid=7dc55c88-404a-433c-90d5-05daf2e2d002"},"vehicle_type_id":"4","last_reported":1726171810,"current_range_meters":36000,"station_id":"ce4bhbp2rcd13ifvqerg","pricing_plan_id":"cebpf4jnsgd1na2vs0mg"},{"bike_id":"91ce77ce-18ef-47d8-9533-f401393ecd0b","system_id":"levelo_inurba_marseille","lat":43.28618,"lon":5.35113,"is_reserved":false,"is_disabled":false,"rental_uris":{"android":"levelo://app?vid=91ce77ce-18ef-47d8-9533-f401393ecd0b","ios":"levelo://app?vid=91ce77ce-18ef-47d8-9533-f401393ecd0b"},"vehicle_type_id":"4","last_reported":1726171810,"current_range_meters":20000,"station_id":"ce4bhch2rcd13ifvqeug","pricing_plan_id":"cebpf4jnsgd1na2vs0mg"},{"bike_id":"40d214a7-3f5c-47db-a6ce-57c2b9914a32","system_id":"levelo_inurba_marseille","lat":43.31336,"lon":5.3969,"is_reserved":false,"is_disabled":false,"rental_uris":{"android":"levelo://app?vid=40d214a7-3f5c-47db-a6ce-57c2b9914a32","ios":"levelo://app?vid=40d214a7-3f5c-47db-a6ce-57c2b9914a32"},"vehicle_type_id":"4","last_reported":1726171810,"current_range_meters":22000,"station_id":"ce4bgvp2rcd13ifvqcu0","pricing_plan_id":"cebpf4jnsgd1na2vs0mg"},{"bike_id":"6f94ccb4-e5b0-4f7a-90a2-94c6f5d54a44","system_id":"levelo_inurba_marseille","lat":43.28378,"lon":5.38635,"is_reserved":false,"is_disabled":false,"rental_uris":{"android":"levelo://app?vid=6f94ccb4-e5b0-4f7a-90a2-94c6f5d54a44","ios":"levelo://app?vid=6f94ccb4-e5b0-4f7a-90a2-94c6f5d54a44"},"vehicle_type_id":"4","last_reported":1726171810,"current_range_meters":28800,"station_id":"ce4bh492rcd13ifvqdvg","pricing_plan_id":"cebpf4jnsgd1na2vs0mg"},{"bike_id":"a7225787-a1fe-4f9c-8189-093e4e1002aa","system_id":"levelo_inurba_marseille","lat":43.28998,"lon":5.35613,"is_reserved":false,"is_disabled":false,"rental_uris":{"android":"levelo://app?vid=a7225787-a1fe-4f9c-8189-093e4e1002aa","ios":"levelo://app?vid=a7225787-a1fe-4f9c-8189-093e4e1002aa"},"vehicle_type_id":"4","last_reported":1726171810,"current_range_meters":40000,"station_id":"ce4bhb92rcd13ifvqen0","pricing_plan_id":"cebpf4jnsgd1na2vs0mg"},{"bike_id":"383d2392-a0e2-409f-a9b7-7f6af8c905cb","system_id":"levelo_inurba_marseille","lat":43.2512,"lon":5.40314,"is_reserved":false,"is_disabled":false,"rental_uris":{"android":"levelo://app?vid=383d2392-a0e2-409f-a9b7-7f6af8c905cb","ios":"levelo://app?vid=383d2392-a0e2-409f-a9b7-7f6af8c905cb"},"vehicle_type_id":"4","last_reported":1726171810,"current_range_meters":32000,"station_id":"ce4bhlh2rcd13ifvqgig","pricing_plan_id":"cebpf4jnsgd1na2vs0mg"},{"bike_id":"dc5dca54-8ebf-43b2-acf8-9ae498c9992e","system_id":"levelo_inurba_marseille","lat":43.29534,"lon":5.3855,"is_reserved":false,"is_disabled":false,"rental_uris":{"android":"levelo://app?vid=dc5dca54-8ebf-43b2-acf8-9ae498c9992e","ios":"levelo://app?vid=dc5dca54-8ebf-43b2-acf8-9ae498c9992e"},"vehicle_type_id":"4","last_reported":1726171810,"current_range_meters":33600,"station_id":"ce4bgih2rcd13ifvqba0","pricing_plan_id":"cebpf4jnsgd1na2vs0mg"},{"bike_id":"bfd2a3d6-ad57-4d1a-86b2-4eeb3c6695bb","system_id":"levelo_inurba_marseille","lat":43.31074,"lon":5.38362,"is_reserved":false,"is_disabled":false,"rental_uris":{"android":"levelo://app?vid=bfd2a3d6-ad57-4d1a-86b2-4eeb3c6695bb","ios":"levelo://app?vid=bfd2a3d6-ad57-4d1a-86b2-4eeb3c6695bb"},"vehicle_type_id":"4","last_reported":1726171810,"current_range_meters":38800,"station_id":"ce4bgv92rcd13ifvqcr0","pricing_plan_id":"cebpf4jnsgd1na2vs0mg"},{"bike_id":"deaeb920-23ab-4b51-a90a-3a4d369b9959","system_id":"levelo_inurba_marseille","lat":43.26561,"lon":5.37285,"is_reserved":false,"is_disabled":false,"rental_uris":{"android":"levelo://app?vid=deaeb920-23ab-4b51-a90a-3a4d369b9959","ios":"levelo://app?vid=deaeb920-23ab-4b51-a90a-3a4d369b9959"},"vehicle_type_id":"4","last_reported":1726171810,"current_range_meters":11200,"station_id":"ce4bhg12rcd13ifvqf70","pricing_plan_id":"cebpf4jnsgd1na2vs0mg"},{"bike_id":"2978c8ef-7735-4057-b33e-747fe355072e","system_id":"levelo_inurba_marseille","lat":43.25909,"lon":5.37601,"is_reserved":false,"is_disabled":false,"rental_uris":{"android":"levelo://app?vid=2978c8ef-7735-4057-b33e-747fe355072e","ios":"levelo://app?vid=2978c8ef-7735-4057-b33e-747fe355072e"},"vehicle_type_id":"4","last_reported":1726171810,"current_range_meters":4400,"station_id":"","pricing_plan_id":"cebpf4jnsgd1na2vs0mg"},{"bike_id":"a1059e3e-1f13-4c6e-b9aa-ae2ce9790d5c","system_id":"levelo_inurba_marseille","lat":43.23183,"lon":5.39996,"is_reserved":false,"is_disabled":false,"rental_uris":{"android":"levelo://app?vid=a1059e3e-1f13-4c6e-b9aa-ae2ce9790d5c","ios":"levelo://app?vid=a1059e3e-1f13-4c6e-b9aa-ae2ce9790d5c"},"vehicle_type_id":"4","last_reported":1726171810,"current_range_meters":9600,"station_id":"ce4bhn12rcd13ifvqgqg","pricing_plan_id":"cebpf4jnsgd1na2vs0mg"},{"bike_id":"a6776ff0-a78f-43e4-9609-fec2671800a7","system_id":"levelo_inurba_marseille","lat":43.29198,"lon":5.35809,"is_reserved":false,"is_disabled":false,"rental_uris":{"android":"levelo://app?vid=a6776ff0-a78f-43e4-9609-fec2671800a7","ios":"levelo://app?vid=a6776ff0-a78f-43e4-9609-fec2671800a7"},"vehicle_type_id":"4","last_reported":1726171810,"current_range_meters":38800,"station_id":"ce4bhb12rcd13ifvqel0","pricing_plan_id":"cebpf4jnsgd1na2vs0mg"},{"bike_id":"c518c07a-db83-4e42-bf4a-4155219bc1c1","system_id":"levelo_inurba_marseille","lat":43.31085,"lon":5.42432,"is_reserved":false,"is_disabled":false,"rental_uris":{"android":"levelo://app?vid=c518c07a-db83-4e42-bf4a-4155219bc1c1","ios":"levelo://app?vid=c518c07a-db83-4e42-bf4a-4155219bc1c1"},"vehicle_type_id":"4","last_reported":1726171810,"current_range_meters":11600,"station_id":"ce4bhp92rcd13ifvqhag","pricing_plan_id":"cebpf4jnsgd1na2vs0mg"},{"bike_id":"0a5c7982-28f1-44b8-a901-7e32bdbe3e0d","system_id":"levelo_inurba_marseille","lat":43.25491,"lon":5.37656,"is_reserved":false,"is_disabled":false,"rental_uris":{"android":"levelo://app?vid=0a5c7982-28f1-44b8-a901-7e32bdbe3e0d","ios":"levelo://app?vid=0a5c7982-28f1-44b8-a901-7e32bdbe3e0d"},"vehicle_type_id":"4","last_reported":1726171810,"current_range_meters":33600,"station_id":"ce4bhh12rcd13ifvqff0","pricing_plan_id":"cebpf4jnsgd1na2vs0mg"},{"bike_id":"4803fd1e-7b74-4c02-8e24-055c99930fd0","system_id":"levelo_inurba_marseille","lat":43.29008,"lon":5.35606,"is_reserved":false,"is_disabled":false,"rental_uris":{"android":"levelo://app?vid=4803fd1e-7b74-4c02-8e24-055c99930fd0","ios":"levelo://app?vid=4803fd1e-7b74-4c02-8e24-055c99930fd0"},"vehicle_type_id":"4","last_reported":1726171810,"current_range_meters":34800,"station_id":"ce4bhb92rcd13ifvqen0","pricing_plan_id":"cebpf4jnsgd1na2vs0mg"},{"bike_id":"819826e9-9ed2-47d7-9c3f-7b5d1ce2de7d","system_id":"levelo_inurba_marseille","lat":43.25868,"lon":5.399,"is_reserved":false,"is_disabled":false,"rental_uris":{"android":"levelo://app?vid=819826e9-9ed2-47d7-9c3f-7b5d1ce2de7d","ios":"levelo://app?vid=819826e9-9ed2-47d7-9c3f-7b5d1ce2de7d"},"vehicle_type_id":"4","last_reported":1726171810,"current_range_meters":38800,"station_id":"ce4bhl92rcd13ifvqghg","pricing_plan_id":"cebpf4jnsgd1na2vs0mg"},{"bike_id":"0ae65eb7-8ffd-4c1a-b2b5-7df4abb3257d","system_id":"levelo_inurba_marseille","lat":43.28926,"lon":5.38408,"is_reserved":false,"is_disabled":false,"rental_uris":{"android":"levelo://app?vid=0ae65eb7-8ffd-4c1a-b2b5-7df4abb3257d","ios":"levelo://app?vid=0ae65eb7-8ffd-4c1a-b2b5-7df4abb3257d"},"vehicle_type_id":"4","last_reported":1726171810,"current_range_meters":30800,"station_id":"ce4bh612rcd13ifvqe6g","pricing_plan_id":"cebpf4jnsgd1na2vs0mg"},{"bike_id":"b4dc56c2-df76-4f42-99e5-048e950006ec","system_id":"levelo_inurba_marseille","lat":43.27963,"lon":5.38694,"is_reserved":false,"is_disabled":false,"rental_uris":{"android":"levelo://app?vid=b4dc56c2-df76-4f42-99e5-048e950006ec","ios":"levelo://app?vid=b4dc56c2-df76-4f42-99e5-048e950006ec"},"vehicle_type_id":"4","last_reported":1726171810,"current_range_meters":38800,"station_id":"ce4bhg12rcd13ifvqf80","pricing_plan_id":"cebpf4jnsgd1na2vs0mg"},{"bike_id":"c5e96473-727a-418c-919e-8d3acae62332","system_id":"levelo_inurba_marseille","lat":43.29225,"lon":5.36047,"is_reserved":false,"is_disabled":false,"rental_uris":{"android":"levelo://app?vid=c5e96473-727a-418c-919e-8d3acae62332","ios":"levelo://app?vid=c5e96473-727a-418c-919e-8d3acae62332"},"vehicle_type_id":"4","last_reported":1726171810,"current_range_meters":38800,"station_id":"ce4bhbh2rcd13ifvqeqg","pricing_plan_id":"cebpf4jnsgd1na2vs0mg"},{"bike_id":"586a8a04-2bc4-442a-9e9b-fc6e8ce7cc89","system_id":"levelo_inurba_marseille","lat":43.29212,"lon":5.39323,"is_reserved":false,"is_disabled":false,"rental_uris":{"android":"levelo://app?vid=586a8a04-2bc4-442a-9e9b-fc6e8ce7cc89","ios":"levelo://app?vid=586a8a04-2bc4-442a-9e9b-fc6e8ce7cc89"},"vehicle_type_id":"4","last_reported":1726171810,"current_range_meters":38800,"station_id":"ce4bh192rcd13ifvqdd0","pricing_plan_id":"cebpf4jnsgd1na2vs0mg"},{"bike_id":"1b6b4677-9c6b-4e29-9bf6-abb793cfb377","system_id":"levelo_inurba_marseille","lat":43.29221,"lon":5.36057,"is_reserved":false,"is_disabled":false,"rental_uris":{"android":"levelo://app?vid=1b6b4677-9c6b-4e29-9bf6-abb793cfb377","ios":"levelo://app?vid=1b6b4677-9c6b-4e29-9bf6-abb793cfb377"},"vehicle_type_id":"4","last_reported":1726171810,"current_range_meters":38800,"station_id":"ce4bhbh2rcd13ifvqeqg","pricing_plan_id":"cebpf4jnsgd1na2vs0mg"},{"bike_id":"42730b64-4326-485c-ac36-4ff31138a499","system_id":"levelo_inurba_marseille","lat":43.31334,"lon":5.39698,"is_reserved":false,"is_disabled":false,"rental_uris":{"android":"levelo://app?vid=42730b64-4326-485c-ac36-4ff31138a499","ios":"levelo://app?vid=42730b64-4326-485c-ac36-4ff31138a499"},"vehicle_type_id":"4","last_reported":1726171810,"current_range_meters":9600,"station_id":"ce4bgvp2rcd13ifvqcu0","pricing_plan_id":"cebpf4jnsgd1na2vs0mg"},{"bike_id":"9cb9ab69-3148-4b2f-a970-03143086caba","system_id":"levelo_inurba_marseille","lat":43.29004,"lon":5.35614,"is_reserved":false,"is_disabled":false,"rental_uris":{"android":"levelo://app?vid=9cb9ab69-3148-4b2f-a970-03143086caba","ios":"levelo://app?vid=9cb9ab69-3148-4b2f-a970-03143086caba"},"vehicle_type_id":"4","last_reported":1726171810,"current_range_meters":40000,"station_id":"ce4bhb92rcd13ifvqen0","pricing_plan_id":"cebpf4jnsgd1na2vs0mg"},{"bike_id":"4afb8b00-be3a-4d15-9b8b-47916e625762","system_id":"levelo_inurba_marseille","lat":43.28541,"lon":5.44227,"is_reserved":false,"is_disabled":false,"rental_uris":{"android":"levelo://app?vid=4afb8b00-be3a-4d15-9b8b-47916e625762","ios":"levelo://app?vid=4afb8b00-be3a-4d15-9b8b-47916e625762"},"vehicle_type_id":"4","last_reported":1726171810,"current_range_meters":30400,"station_id":"","pricing_plan_id":"cebpf4jnsgd1na2vs0mg"},{"bike_id":"bb7acf50-b6bc-4b2d-adf4-833abc23b24c","system_id":"levelo_inurba_marseille","lat":43.23198,"lon":5.35548,"is_reserved":false,"is_disabled":false,"rental_uris":{"android":"levelo://app?vid=bb7acf50-b6bc-4b2d-adf4-833abc23b24c","ios":"levelo://app?vid=bb7acf50-b6bc-4b2d-adf4-833abc23b24c"},"vehicle_type_id":"4","last_reported":1726171810,"current_range_meters":33600,"station_id":"ce4bhu92rcd13ifvqi70","pricing_plan_id":"cebpf4jnsgd1na2vs0mg"},{"bike_id":"22c1f3ca-b246-420a-b79c-20122efda69e","system_id":"levelo_inurba_marseille","lat":43.30811,"lon":5.38143,"is_reserved":false,"is_disabled":false,"rental_uris":{"android":"levelo://app?vid=22c1f3ca-b246-420a-b79c-20122efda69e","ios":"levelo://app?vid=22c1f3ca-b246-420a-b79c-20122efda69e"},"vehicle_type_id":"4","last_reported":1726171810,"current_range_meters":20400,"station_id":"ce4bgt12rcd13ifvqce0","pricing_plan_id":"cebpf4jnsgd1na2vs0mg"},{"bike_id":"8eff384a-46bc-44b5-a7c3-c23a94eadd4c","system_id":"levelo_inurba_marseille","lat":43.24391,"lon":5.37056,"is_reserved":false,"is_disabled":false,"rental_uris":{"android":"levelo://app?vid=8eff384a-46bc-44b5-a7c3-c23a94eadd4c","ios":"levelo://app?vid=8eff384a-46bc-44b5-a7c3-c23a94eadd4c"},"vehicle_type_id":"4","last_reported":1726171810,"current_range_meters":30400,"station_id":"ce4bhhh2rcd13ifvqfk0","pricing_plan_id":"cebpf4jnsgd1na2vs0mg"},{"bike_id":"f0688d67-cf24-485f-b6eb-5709935e8360","system_id":"levelo_inurba_marseille","lat":43.31334,"lon":5.39701,"is_reserved":false,"is_disabled":false,"rental_uris":{"android":"levelo://app?vid=f0688d67-cf24-485f-b6eb-5709935e8360","ios":"levelo://app?vid=f0688d67-cf24-485f-b6eb-5709935e8360"},"vehicle_type_id":"4","last_reported":1726171810,"current_range_meters":38800,"station_id":"ce4bgvp2rcd13ifvqcu0","pricing_plan_id":"cebpf4jnsgd1na2vs0mg"},{"bike_id":"41993f12-3afc-41ac-8872-59a2fc31890f","system_id":"levelo_inurba_marseille","lat":43.29587,"lon":5.3811,"is_reserved":false,"is_disabled":false,"rental_uris":{"android":"levelo://app?vid=41993f12-3afc-41ac-8872-59a2fc31890f","ios":"levelo://app?vid=41993f12-3afc-41ac-8872-59a2fc31890f"},"vehicle_type_id":"4","last_reported":1726171810,"current_range_meters":28800,"station_id":"ce4bgl12rcd13ifvqbo0","pricing_plan_id":"cebpf4jnsgd1na2vs0mg"},{"bike_id":"86f19a36-bb1a-4269-88e8-5864eaf9f751","system_id":"levelo_inurba_marseille","lat":43.25084,"lon":5.39515,"is_reserved":false,"is_disabled":false,"rental_uris":{"android":"levelo://app?vid=86f19a36-bb1a-4269-88e8-5864eaf9f751","ios":"levelo://app?vid=86f19a36-bb1a-4269-88e8-5864eaf9f751"},"vehicle_type_id":"4","last_reported":1726171810,"current_range_meters":39200,"station_id":"ce4bhm12rcd13ifvqgkg","pricing_plan_id":"cebpf4jnsgd1na2vs0mg"},{"bike_id":"d5954809-ca2d-4528-a01d-e23be78340b0","system_id":"levelo_inurba_marseille","lat":43.28947,"lon":5.39641,"is_reserved":false,"is_disabled":false,"rental_uris":{"android":"levelo://app?vid=d5954809-ca2d-4528-a01d-e23be78340b0","ios":"levelo://app?vid=d5954809-ca2d-4528-a01d-e23be78340b0"},"vehicle_type_id":"4","last_reported":1726171810,"current_range_meters":20400,"station_id":"ce4bh3h2rcd13ifvqdn0","pricing_plan_id":"cebpf4jnsgd1na2vs0mg"},{"bike_id":"122a7256-bb08-44be-a52d-61d7798a2fb3","system_id":"levelo_inurba_marseille","lat":43.29028,"lon":5.38635,"is_reserved":false,"is_disabled":false,"rental_uris":{"android":"levelo://app?vid=122a7256-bb08-44be-a52d-61d7798a2fb3","ios":"levelo://app?vid=122a7256-bb08-44be-a52d-61d7798a2fb3"},"vehicle_type_id":"4","last_reported":1726171810,"current_range_meters":38800,"station_id":"ce4bh4p2rcd13ifvqe0g","pricing_plan_id":"cebpf4jnsgd1na2vs0mg"},{"bike_id":"96e5fa71-72f8-4fee-b693-67ac33f6098f","system_id":"levelo_inurba_marseille","lat":43.23182,"lon":5.39991,"is_reserved":false,"is_disabled":false,"rental_uris":{"android":"levelo://app?vid=96e5fa71-72f8-4fee-b693-67ac33f6098f","ios":"levelo://app?vid=96e5fa71-72f8-4fee-b693-67ac33f6098f"},"vehicle_type_id":"4","last_reported":1726171810,"current_range_meters":4000,"station_id":"ce4bhn12rcd13ifvqgqg","pricing_plan_id":"cebpf4jnsgd1na2vs0mg"},{"bike_id":"dd2d66a6-976d-43e6-83be-d6211ff78acc","system_id":"levelo_inurba_marseille","lat":43.33729,"lon":5.39183,"is_reserved":false,"is_disabled":false,"rental_uris":{"android":"levelo://app?vid=dd2d66a6-976d-43e6-83be-d6211ff78acc","ios":"levelo://app?vid=dd2d66a6-976d-43e6-83be-d6211ff78acc"},"vehicle_type_id":"4","last_reported":1726171810,"current_range_meters":10000,"station_id":"ce4bhr92rcd13ifvqhsg","pricing_plan_id":"cebpf4jnsgd1na2vs0mg"},{"bike_id":"5ef7b96a-1cb8-4f42-af16-3a0d049b19cc","system_id":"levelo_inurba_marseille","lat":43.29558,"lon":5.42288,"is_reserved":false,"is_disabled":false,"rental_uris":{"android":"levelo://app?vid=5ef7b96a-1cb8-4f42-af16-3a0d049b19cc","ios":"levelo://app?vid=5ef7b96a-1cb8-4f42-af16-3a0d049b19cc"},"vehicle_type_id":"4","last_reported":1726171810,"current_range_meters":14000,"station_id":"ce4bhph2rcd13ifvqhdg","pricing_plan_id":"cebpf4jnsgd1na2vs0mg"},{"bike_id":"200d1151-465e-4703-b028-ddf270223516","system_id":"levelo_inurba_marseille","lat":43.30358,"lon":5.41883,"is_reserved":false,"is_disabled":false,"rental_uris":{"android":"levelo://app?vid=200d1151-465e-4703-b028-ddf270223516","ios":"levelo://app?vid=200d1151-465e-4703-b028-ddf270223516"},"vehicle_type_id":"4","last_reported":1726171810,"current_range_meters":17600,"station_id":"ce4bhop2rcd13ifvqh7g","pricing_plan_id":"cebpf4jnsgd1na2vs0mg"},{"bike_id":"a4134a87-ba6c-4a20-99b8-e34d44318498","system_id":"levelo_inurba_marseille","lat":43.25111,"lon":5.40324,"is_reserved":false,"is_disabled":false,"rental_uris":{"android":"levelo://app?vid=a4134a87-ba6c-4a20-99b8-e34d44318498","ios":"levelo://app?vid=a4134a87-ba6c-4a20-99b8-e34d44318498"},"vehicle_type_id":"4","last_reported":1726171810,"current_range_meters":32000,"station_id":"ce4bhlh2rcd13ifvqgig","pricing_plan_id":"cebpf4jnsgd1na2vs0mg"},{"bike_id":"70d01362-c996-4b67-a938-62813ca3d0c5","system_id":"levelo_inurba_marseille","lat":43.32318,"lon":5.41222,"is_reserved":false,"is_disabled":false,"rental_uris":{"android":"levelo://app?vid=70d01362-c996-4b67-a938-62813ca3d0c5","ios":"levelo://app?vid=70d01362-c996-4b67-a938-62813ca3d0c5"},"vehicle_type_id":"4","last_reported":1726171810,"current_range_meters":17200,"station_id":"","pricing_plan_id":"cebpf4jnsgd1na2vs0mg"},{"bike_id":"8e19fff8-1be8-4961-882f-4a24d631ba21","system_id":"levelo_inurba_marseille","lat":43.28692,"lon":5.38652,"is_reserved":false,"is_disabled":false,"rental_uris":{"android":"levelo://app?vid=8e19fff8-1be8-4961-882f-4a24d631ba21","ios":"levelo://app?vid=8e19fff8-1be8-4961-882f-4a24d631ba21"},"vehicle_type_id":"4","last_reported":1726171810,"current_range_meters":19600,"station_id":"ce4bh492rcd13ifvqdug","pricing_plan_id":"cebpf4jnsgd1na2vs0mg"},{"bike_id":"c28ff0f1-1713-431a-bccf-4e7a21e8e39b","system_id":"levelo_inurba_marseille","lat":43.25504,"lon":5.37656,"is_reserved":false,"is_disabled":false,"rental_uris":{"android":"levelo://app?vid=c28ff0f1-1713-431a-bccf-4e7a21e8e39b","ios":"levelo://app?vid=c28ff0f1-1713-431a-bccf-4e7a21e8e39b"},"vehicle_type_id":"4","last_reported":1726171810,"current_range_meters":27200,"station_id":"ce4bhh12rcd13ifvqff0","pricing_plan_id":"cebpf4jnsgd1na2vs0mg"},{"bike_id":"e112e9ad-937d-49bd-8e58-93da345ae45d","system_id":"levelo_inurba_marseille","lat":43.30801,"lon":5.38157,"is_reserved":false,"is_disabled":false,"rental_uris":{"android":"levelo://app?vid=e112e9ad-937d-49bd-8e58-93da345ae45d","ios":"levelo://app?vid=e112e9ad-937d-49bd-8e58-93da345ae45d"},"vehicle_type_id":"4","last_reported":1726171810,"current_range_meters":36800,"station_id":"ce4bgt12rcd13ifvqce0","pricing_plan_id":"cebpf4jnsgd1na2vs0mg"},{"bike_id":"9cf18e02-8b94-4e24-8189-214854e5562b","system_id":"levelo_inurba_marseille","lat":43.268191,"lon":5.402658,"is_reserved":false,"is_disabled":false,"rental_uris":{"android":"levelo://app?vid=9cf18e02-8b94-4e24-8189-214854e5562b","ios":"levelo://app?vid=9cf18e02-8b94-4e24-8189-214854e5562b"},"vehicle_type_id":"4","last_reported":1726171810,"current_range_meters":22400,"station_id":"ce501612rcd8frsf0b60","pricing_plan_id":"cebpf4jnsgd1na2vs0mg"},{"bike_id":"d63b08fd-7716-422a-94e4-8f1dfff5bb11","system_id":"levelo_inurba_marseille","lat":43.28616,"lon":5.35102,"is_reserved":false,"is_disabled":false,"rental_uris":{"android":"levelo://app?vid=d63b08fd-7716-422a-94e4-8f1dfff5bb11","ios":"levelo://app?vid=d63b08fd-7716-422a-94e4-8f1dfff5bb11"},"vehicle_type_id":"4","last_reported":1726171810,"current_range_meters":16800,"station_id":"ce4bhch2rcd13ifvqeug","pricing_plan_id":"cebpf4jnsgd1na2vs0mg"},{"bike_id":"3d169d38-3a09-4043-a099-481866f61cf2","system_id":"levelo_inurba_marseille","lat":43.28941,"lon":5.36642,"is_reserved":false,"is_disabled":false,"rental_uris":{"android":"levelo://app?vid=3d169d38-3a09-4043-a099-481866f61cf2","ios":"levelo://app?vid=3d169d38-3a09-4043-a099-481866f61cf2"},"vehicle_type_id":"4","last_reported":1726171810,"current_range_meters":37600,"station_id":"ce4bhap2rcd13ifvqek0","pricing_plan_id":"cebpf4jnsgd1na2vs0mg"},{"bike_id":"599eaaf8-a1b9-4b78-8074-8ec83fd4d3da","system_id":"levelo_inurba_marseille","lat":43.23203,"lon":5.35551,"is_reserved":false,"is_disabled":false,"rental_uris":{"android":"levelo://app?vid=599eaaf8-a1b9-4b78-8074-8ec83fd4d3da","ios":"levelo://app?vid=599eaaf8-a1b9-4b78-8074-8ec83fd4d3da"},"vehicle_type_id":"4","last_reported":1726171810,"current_range_meters":6800,"station_id":"ce4bhu92rcd13ifvqi70","pricing_plan_id":"cebpf4jnsgd1na2vs0mg"},{"bike_id":"0a42628a-10d3-400f-a202-8c2cade85cd3","system_id":"levelo_inurba_marseille","lat":43.28496,"lon":5.38578,"is_reserved":false,"is_disabled":false,"rental_uris":{"android":"levelo://app?vid=0a42628a-10d3-400f-a202-8c2cade85cd3","ios":"levelo://app?vid=0a42628a-10d3-400f-a202-8c2cade85cd3"},"vehicle_type_id":"4","last_reported":1726171810,"current_range_meters":38800,"station_id":"ce4bh8p2rcd13ifvqeb0","pricing_plan_id":"cebpf4jnsgd1na2vs0mg"},{"bike_id":"1bef224a-28b9-4736-9b40-49f953e05b81","system_id":"levelo_inurba_marseille","lat":43.29587,"lon":5.36742,"is_reserved":false,"is_disabled":false,"rental_uris":{"android":"levelo://app?vid=1bef224a-28b9-4736-9b40-49f953e05b81","ios":"levelo://app?vid=1bef224a-28b9-4736-9b40-49f953e05b81"},"vehicle_type_id":"4","last_reported":1726171810,"current_range_meters":28400,"station_id":"ce4bgph2rcd13ifvqc2g","pricing_plan_id":"cebpf4jnsgd1na2vs0mg"},{"bike_id":"de08438d-31dc-40ef-9e7c-cfcbba2ce204","system_id":"levelo_inurba_marseille","lat":43.29516,"lon":5.39036,"is_reserved":false,"is_disabled":false,"rental_uris":{"android":"levelo://app?vid=de08438d-31dc-40ef-9e7c-cfcbba2ce204","ios":"levelo://app?vid=de08438d-31dc-40ef-9e7c-cfcbba2ce204"},"vehicle_type_id":"4","last_reported":1726171810,"current_range_meters":38800,"station_id":"ce4bh3p2rcd13ifvqdp0","pricing_plan_id":"cebpf4jnsgd1na2vs0mg"},{"bike_id":"9e9d3121-a34d-48bb-879c-a0acd50533fd","system_id":"levelo_inurba_marseille","lat":43.29417,"lon":5.38627,"is_reserved":false,"is_disabled":false,"rental_uris":{"android":"levelo://app?vid=9e9d3121-a34d-48bb-879c-a0acd50533fd","ios":"levelo://app?vid=9e9d3121-a34d-48bb-879c-a0acd50533fd"},"vehicle_type_id":"4","last_reported":1726171810,"current_range_meters":30800,"station_id":"ce4bh2h2rcd13ifvqdh0","pricing_plan_id":"cebpf4jnsgd1na2vs0mg"},{"bike_id":"ec83ece0-f6b8-417e-b90b-210d2964a1fe","system_id":"levelo_inurba_marseille","lat":43.28133,"lon":5.37846,"is_reserved":false,"is_disabled":false,"rental_uris":{"android":"levelo://app?vid=ec83ece0-f6b8-417e-b90b-210d2964a1fe","ios":"levelo://app?vid=ec83ece0-f6b8-417e-b90b-210d2964a1fe"},"vehicle_type_id":"4","last_reported":1726171810,"current_range_meters":24400,"station_id":"ce4bha12rcd13ifvqee0","pricing_plan_id":"cebpf4jnsgd1na2vs0mg"},{"bike_id":"680dc768-0acb-456e-8ccd-04aa53eb4c6d","system_id":"levelo_inurba_marseille","lat":43.3133,"lon":5.39699,"is_reserved":false,"is_disabled":false,"rental_uris":{"android":"levelo://app?vid=680dc768-0acb-456e-8ccd-04aa53eb4c6d","ios":"levelo://app?vid=680dc768-0acb-456e-8ccd-04aa53eb4c6d"},"vehicle_type_id":"4","last_reported":1726171810,"current_range_meters":18800,"station_id":"ce4bgvp2rcd13ifvqcu0","pricing_plan_id":"cebpf4jnsgd1na2vs0mg"},{"bike_id":"71e5bd5f-9941-45ed-83eb-1729c01b5303","system_id":"levelo_inurba_marseille","lat":43.22925,"lon":5.35386,"is_reserved":false,"is_disabled":false,"rental_uris":{"android":"levelo://app?vid=71e5bd5f-9941-45ed-83eb-1729c01b5303","ios":"levelo://app?vid=71e5bd5f-9941-45ed-83eb-1729c01b5303"},"vehicle_type_id":"4","last_reported":1726171810,"current_range_meters":38000,"station_id":"cpo3532slgdg3j2ikp40","pricing_plan_id":"cebpf4jnsgd1na2vs0mg"},{"bike_id":"f40d933f-001d-480a-9c32-a9179a899c6d","system_id":"levelo_inurba_marseille","lat":43.31755,"lon":5.3903,"is_reserved":false,"is_disabled":false,"rental_uris":{"android":"levelo://app?vid=f40d933f-001d-480a-9c32-a9179a899c6d","ios":"levelo://app?vid=f40d933f-001d-480a-9c32-a9179a899c6d"},"vehicle_type_id":"4","last_reported":1726171810,"current_range_meters":9200,"station_id":"ce4bhqp2rcd13ifvqhng","pricing_plan_id":"cebpf4jnsgd1na2vs0mg"},{"bike_id":"b2bb3a51-0fc8-4984-9467-20789ed8fb4c","system_id":"levelo_inurba_marseille","lat":43.30286,"lon":5.377,"is_reserved":false,"is_disabled":false,"rental_uris":{"android":"levelo://app?vid=b2bb3a51-0fc8-4984-9467-20789ed8fb4c","ios":"levelo://app?vid=b2bb3a51-0fc8-4984-9467-20789ed8fb4c"},"vehicle_type_id":"4","last_reported":1726171810,"current_range_meters":14000,"station_id":"ce4bguh2rcd13ifvqcj0","pricing_plan_id":"cebpf4jnsgd1na2vs0mg"},{"bike_id":"e338fa51-8016-4c55-ab8d-ca674b9118dc","system_id":"levelo_inurba_marseille","lat":43.27215,"lon":5.39181,"is_reserved":false,"is_disabled":false,"rental_uris":{"android":"levelo://app?vid=e338fa51-8016-4c55-ab8d-ca674b9118dc","ios":"levelo://app?vid=e338fa51-8016-4c55-ab8d-ca674b9118dc"},"vehicle_type_id":"4","last_reported":1726171810,"current_range_meters":28800,"station_id":"ce4bhhp2rcd13ifvqfm0","pricing_plan_id":"cebpf4jnsgd1na2vs0mg"},{"bike_id":"9ea8aca6-f5ec-4ff6-beaf-942b44fef44f","system_id":"levelo_inurba_marseille","lat":43.30888,"lon":5.37199,"is_reserved":false,"is_disabled":false,"rental_uris":{"android":"levelo://app?vid=9ea8aca6-f5ec-4ff6-beaf-942b44fef44f","ios":"levelo://app?vid=9ea8aca6-f5ec-4ff6-beaf-942b44fef44f"},"vehicle_type_id":"4","last_reported":1726171810,"current_range_meters":38800,"station_id":"ce4bguh2rcd13ifvqckg","pricing_plan_id":"cebpf4jnsgd1na2vs0mg"},{"bike_id":"e307b25e-5f61-43a7-a3cc-d604c4b40b20","system_id":"levelo_inurba_marseille","lat":43.28936,"lon":5.36395,"is_reserved":false,"is_disabled":false,"rental_uris":{"android":"levelo://app?vid=e307b25e-5f61-43a7-a3cc-d604c4b40b20","ios":"levelo://app?vid=e307b25e-5f61-43a7-a3cc-d604c4b40b20"},"vehicle_type_id":"4","last_reported":1726171810,"current_range_meters":38800,"station_id":"ce4bhc92rcd13ifvqetg","pricing_plan_id":"cebpf4jnsgd1na2vs0mg"},{"bike_id":"3b0c53d2-9201-42e3-b67f-16f9629ce883","system_id":"levelo_inurba_marseille","lat":43.2862,"lon":5.35104,"is_reserved":false,"is_disabled":false,"rental_uris":{"android":"levelo://app?vid=3b0c53d2-9201-42e3-b67f-16f9629ce883","ios":"levelo://app?vid=3b0c53d2-9201-42e3-b67f-16f9629ce883"},"vehicle_type_id":"4","last_reported":1726171810,"current_range_meters":38800,"station_id":"ce4bhch2rcd13ifvqeug","pricing_plan_id":"cebpf4jnsgd1na2vs0mg"},{"bike_id":"e248b26e-33bc-4275-95f1-25ad4258b257","system_id":"levelo_inurba_marseille","lat":43.29266,"lon":5.38435,"is_reserved":false,"is_disabled":false,"rental_uris":{"android":"levelo://app?vid=e248b26e-33bc-4275-95f1-25ad4258b257","ios":"levelo://app?vid=e248b26e-33bc-4275-95f1-25ad4258b257"},"vehicle_type_id":"4","last_reported":1726171810,"current_range_meters":38800,"station_id":"ce4bh692rcd13ifvqea0","pricing_plan_id":"cebpf4jnsgd1na2vs0mg"},{"bike_id":"68f3c772-195e-47ac-9420-78c3bcef9d5f","system_id":"levelo_inurba_marseille","lat":43.29622,"lon":5.37719,"is_reserved":false,"is_disabled":false,"rental_uris":{"android":"levelo://app?vid=68f3c772-195e-47ac-9420-78c3bcef9d5f","ios":"levelo://app?vid=68f3c772-195e-47ac-9420-78c3bcef9d5f"},"vehicle_type_id":"4","last_reported":1726171810,"current_range_meters":35200,"station_id":"ce4bgi92rcd13ifvqb90","pricing_plan_id":"cebpf4jnsgd1na2vs0mg"},{"bike_id":"fa02e1ab-12a4-42d7-99e9-040959fdad4f","system_id":"levelo_inurba_marseille","lat":43.22931,"lon":5.35374,"is_reserved":false,"is_disabled":false,"rental_uris":{"android":"levelo://app?vid=fa02e1ab-12a4-42d7-99e9-040959fdad4f","ios":"levelo://app?vid=fa02e1ab-12a4-42d7-99e9-040959fdad4f"},"vehicle_type_id":"4","last_reported":1726171810,"current_range_meters":34000,"station_id":"cpo3532slgdg3j2ikp40","pricing_plan_id":"cebpf4jnsgd1na2vs0mg"},{"bike_id":"a0759d5c-b2dd-4c6d-a3fa-33fc37f5f9bb","system_id":"levelo_inurba_marseille","lat":43.25498,"lon":5.37648,"is_reserved":false,"is_disabled":false,"rental_uris":{"android":"levelo://app?vid=a0759d5c-b2dd-4c6d-a3fa-33fc37f5f9bb","ios":"levelo://app?vid=a0759d5c-b2dd-4c6d-a3fa-33fc37f5f9bb"},"vehicle_type_id":"4","last_reported":1726171810,"current_range_meters":31200,"station_id":"ce4bhh12rcd13ifvqff0","pricing_plan_id":"cebpf4jnsgd1na2vs0mg"},{"bike_id":"f7fc7b32-14c1-45b7-b6e6-abe689206316","system_id":"levelo_inurba_marseille","lat":43.31378,"lon":5.38483,"is_reserved":false,"is_disabled":false,"rental_uris":{"android":"levelo://app?vid=f7fc7b32-14c1-45b7-b6e6-abe689206316","ios":"levelo://app?vid=f7fc7b32-14c1-45b7-b6e6-abe689206316"},"vehicle_type_id":"4","last_reported":1726171810,"current_range_meters":38800,"station_id":"ce4bgt92rcd13ifvqcf0","pricing_plan_id":"cebpf4jnsgd1na2vs0mg"},{"bike_id":"33627f34-12b9-4cac-9171-9c6f8641e380","system_id":"levelo_inurba_marseille","lat":43.29882,"lon":5.38913,"is_reserved":false,"is_disabled":false,"rental_uris":{"android":"levelo://app?vid=33627f34-12b9-4cac-9171-9c6f8641e380","ios":"levelo://app?vid=33627f34-12b9-4cac-9171-9c6f8641e380"},"vehicle_type_id":"4","last_reported":1726171810,"current_range_meters":19200,"station_id":"ce4bh392rcd13ifvqdl0","pricing_plan_id":"cebpf4jnsgd1na2vs0mg"},{"bike_id":"dc686f47-01f5-4a98-ac1c-77d1cebffb8c","system_id":"levelo_inurba_marseille","lat":43.23964,"lon":5.36647,"is_reserved":false,"is_disabled":false,"rental_uris":{"android":"levelo://app?vid=dc686f47-01f5-4a98-ac1c-77d1cebffb8c","ios":"levelo://app?vid=dc686f47-01f5-4a98-ac1c-77d1cebffb8c"},"vehicle_type_id":"4","last_reported":1726171810,"current_range_meters":25200,"station_id":"ce4bhi12rcd13ifvqfp0","pricing_plan_id":"cebpf4jnsgd1na2vs0mg"},{"bike_id":"6beb15ed-2c8d-4076-af9f-d4d302e6aee1","system_id":"levelo_inurba_marseille","lat":43.24083,"lon":5.37751,"is_reserved":false,"is_disabled":false,"rental_uris":{"android":"levelo://app?vid=6beb15ed-2c8d-4076-af9f-d4d302e6aee1","ios":"levelo://app?vid=6beb15ed-2c8d-4076-af9f-d4d302e6aee1"},"vehicle_type_id":"4","last_reported":1726171810,"current_range_meters":37600,"station_id":"ce4bhnp2rcd13ifvqgvg","pricing_plan_id":"cebpf4jnsgd1na2vs0mg"},{"bike_id":"8499aa7d-3df7-4854-8a3b-728308216b5a","system_id":"levelo_inurba_marseille","lat":43.25495,"lon":5.37657,"is_reserved":false,"is_disabled":false,"rental_uris":{"android":"levelo://app?vid=8499aa7d-3df7-4854-8a3b-728308216b5a","ios":"levelo://app?vid=8499aa7d-3df7-4854-8a3b-728308216b5a"},"vehicle_type_id":"4","last_reported":1726171810,"current_range_meters":39200,"station_id":"ce4bhh12rcd13ifvqff0","pricing_plan_id":"cebpf4jnsgd1na2vs0mg"},{"bike_id":"61374e87-d3a5-4240-95eb-9cad321a82d2","system_id":"levelo_inurba_marseille","lat":43.26795,"lon":5.39409,"is_reserved":false,"is_disabled":false,"rental_uris":{"android":"levelo://app?vid=61374e87-d3a5-4240-95eb-9cad321a82d2","ios":"levelo://app?vid=61374e87-d3a5-4240-95eb-9cad321a82d2"},"vehicle_type_id":"4","last_reported":1726171810,"current_range_meters":36400,"station_id":"ce4bhh12rcd13ifvqfg0","pricing_plan_id":"cebpf4jnsgd1na2vs0mg"},{"bike_id":"2d8cb670-bf24-4704-bf01-55da6ccdd101","system_id":"levelo_inurba_marseille","lat":43.29527,"lon":5.39044,"is_reserved":false,"is_disabled":false,"rental_uris":{"android":"levelo://app?vid=2d8cb670-bf24-4704-bf01-55da6ccdd101","ios":"levelo://app?vid=2d8cb670-bf24-4704-bf01-55da6ccdd101"},"vehicle_type_id":"4","last_reported":1726171810,"current_range_meters":39200,"station_id":"ce4bh3p2rcd13ifvqdp0","pricing_plan_id":"cebpf4jnsgd1na2vs0mg"},{"bike_id":"bbcc54fc-803a-43e7-9db7-c5e574a48727","system_id":"levelo_inurba_marseille","lat":43.27427,"lon":5.39419,"is_reserved":false,"is_disabled":false,"rental_uris":{"android":"levelo://app?vid=bbcc54fc-803a-43e7-9db7-c5e574a48727","ios":"levelo://app?vid=bbcc54fc-803a-43e7-9db7-c5e574a48727"},"vehicle_type_id":"4","last_reported":1726171810,"current_range_meters":6000,"station_id":"ce4bhdp2rcd13ifvqf20","pricing_plan_id":"cebpf4jnsgd1na2vs0mg"},{"bike_id":"779b71c2-951f-404c-a646-27ac10427914","system_id":"levelo_inurba_marseille","lat":43.28381,"lon":5.38625,"is_reserved":false,"is_disabled":false,"rental_uris":{"android":"levelo://app?vid=779b71c2-951f-404c-a646-27ac10427914","ios":"levelo://app?vid=779b71c2-951f-404c-a646-27ac10427914"},"vehicle_type_id":"4","last_reported":1726171810,"current_range_meters":36000,"station_id":"ce4bh492rcd13ifvqdvg","pricing_plan_id":"cebpf4jnsgd1na2vs0mg"},{"bike_id":"f6ede3ad-1831-43e5-bbb3-2527288aa19a","system_id":"levelo_inurba_marseille","lat":43.29937,"lon":5.36544,"is_reserved":false,"is_disabled":false,"rental_uris":{"android":"levelo://app?vid=f6ede3ad-1831-43e5-bbb3-2527288aa19a","ios":"levelo://app?vid=f6ede3ad-1831-43e5-bbb3-2527288aa19a"},"vehicle_type_id":"4","last_reported":1726171810,"current_range_meters":32800,"station_id":"ce4bgm92rcd13ifvqbr0","pricing_plan_id":"cebpf4jnsgd1na2vs0mg"},{"bike_id":"a1091efe-c138-41d2-96bf-7a1d952b7a7b","system_id":"levelo_inurba_marseille","lat":43.29016,"lon":5.35619,"is_reserved":false,"is_disabled":false,"rental_uris":{"android":"levelo://app?vid=a1091efe-c138-41d2-96bf-7a1d952b7a7b","ios":"levelo://app?vid=a1091efe-c138-41d2-96bf-7a1d952b7a7b"},"vehicle_type_id":"4","last_reported":1726171810,"current_range_meters":24400,"station_id":"ce4bhb92rcd13ifvqen0","pricing_plan_id":"cebpf4jnsgd1na2vs0mg"},{"bike_id":"f8692fc4-9846-40c6-a7a8-2e5335b325f4","system_id":"levelo_inurba_marseille","lat":43.29582,"lon":5.3751,"is_reserved":false,"is_disabled":false,"rental_uris":{"android":"levelo://app?vid=f8692fc4-9846-40c6-a7a8-2e5335b325f4","ios":"levelo://app?vid=f8692fc4-9846-40c6-a7a8-2e5335b325f4"},"vehicle_type_id":"4","last_reported":1726171810,"current_range_meters":36800,"station_id":"ce4bgh92rcd13ifvqb50","pricing_plan_id":"cebpf4jnsgd1na2vs0mg"},{"bike_id":"613e5b8c-6f81-4bac-8c0e-dfa93efd9e99","system_id":"levelo_inurba_marseille","lat":43.29422,"lon":5.38621,"is_reserved":false,"is_disabled":false,"rental_uris":{"android":"levelo://app?vid=613e5b8c-6f81-4bac-8c0e-dfa93efd9e99","ios":"levelo://app?vid=613e5b8c-6f81-4bac-8c0e-dfa93efd9e99"},"vehicle_type_id":"4","last_reported":1726171810,"current_range_meters":32000,"station_id":"ce4bh2h2rcd13ifvqdh0","pricing_plan_id":"cebpf4jnsgd1na2vs0mg"},{"bike_id":"e4ef17a8-5e6b-490c-bbf6-eaa6d85cb181","system_id":"levelo_inurba_marseille","lat":43.2862,"lon":5.35114,"is_reserved":false,"is_disabled":false,"rental_uris":{"android":"levelo://app?vid=e4ef17a8-5e6b-490c-bbf6-eaa6d85cb181","ios":"levelo://app?vid=e4ef17a8-5e6b-490c-bbf6-eaa6d85cb181"},"vehicle_type_id":"4","last_reported":1726171810,"current_range_meters":38800,"station_id":"ce4bhch2rcd13ifvqeug","pricing_plan_id":"cebpf4jnsgd1na2vs0mg"},{"bike_id":"b99b60ed-e9da-40e0-8a7c-83f99dcfb1b6","system_id":"levelo_inurba_marseille","lat":43.31333,"lon":5.39703,"is_reserved":false,"is_disabled":false,"rental_uris":{"android":"levelo://app?vid=b99b60ed-e9da-40e0-8a7c-83f99dcfb1b6","ios":"levelo://app?vid=b99b60ed-e9da-40e0-8a7c-83f99dcfb1b6"},"vehicle_type_id":"4","last_reported":1726171810,"current_range_meters":31200,"station_id":"ce4bgvp2rcd13ifvqcu0","pricing_plan_id":"cebpf4jnsgd1na2vs0mg"},{"bike_id":"5596ce60-9839-4211-8445-311576022290","system_id":"levelo_inurba_marseille","lat":43.2558,"lon":5.38231,"is_reserved":false,"is_disabled":false,"rental_uris":{"android":"levelo://app?vid=5596ce60-9839-4211-8445-311576022290","ios":"levelo://app?vid=5596ce60-9839-4211-8445-311576022290"},"vehicle_type_id":"4","last_reported":1726171810,"current_range_meters":38000,"station_id":"ce4bhih2rcd13ifvqfs0","pricing_plan_id":"cebpf4jnsgd1na2vs0mg"},{"bike_id":"7bf380ab-9c65-4527-b0eb-68fe9b41a2e9","system_id":"levelo_inurba_marseille","lat":43.2998,"lon":5.37185,"is_reserved":false,"is_disabled":false,"rental_uris":{"android":"levelo://app?vid=7bf380ab-9c65-4527-b0eb-68fe9b41a2e9","ios":"levelo://app?vid=7bf380ab-9c65-4527-b0eb-68fe9b41a2e9"},"vehicle_type_id":"4","last_reported":1726171810,"current_range_meters":31200,"station_id":"ce4bgr92rcd13ifvqc7g","pricing_plan_id":"cebpf4jnsgd1na2vs0mg"},{"bike_id":"e70fe8ef-9013-42ac-9b3d-bd2073599fa7","system_id":"levelo_inurba_marseille","lat":43.29266,"lon":5.40905,"is_reserved":false,"is_disabled":false,"rental_uris":{"android":"levelo://app?vid=e70fe8ef-9013-42ac-9b3d-bd2073599fa7","ios":"levelo://app?vid=e70fe8ef-9013-42ac-9b3d-bd2073599fa7"},"vehicle_type_id":"4","last_reported":1726171810,"current_range_meters":16000,"station_id":"ce4bh192rcd13ifvqdc0","pricing_plan_id":"cebpf4jnsgd1na2vs0mg"},{"bike_id":"24ba1302-69bc-411b-bbe4-cea01791a8f7","system_id":"levelo_inurba_marseille","lat":43.29534,"lon":5.38551,"is_reserved":false,"is_disabled":false,"rental_uris":{"android":"levelo://app?vid=24ba1302-69bc-411b-bbe4-cea01791a8f7","ios":"levelo://app?vid=24ba1302-69bc-411b-bbe4-cea01791a8f7"},"vehicle_type_id":"4","last_reported":1726171810,"current_range_meters":9600,"station_id":"ce4bgih2rcd13ifvqba0","pricing_plan_id":"cebpf4jnsgd1na2vs0mg"},{"bike_id":"0e7a2a12-7489-46fe-8319-6b8c6fb975b4","system_id":"levelo_inurba_marseille","lat":43.24388,"lon":5.37058,"is_reserved":false,"is_disabled":false,"rental_uris":{"android":"levelo://app?vid=0e7a2a12-7489-46fe-8319-6b8c6fb975b4","ios":"levelo://app?vid=0e7a2a12-7489-46fe-8319-6b8c6fb975b4"},"vehicle_type_id":"4","last_reported":1726171810,"current_range_meters":10800,"station_id":"ce4bhhh2rcd13ifvqfk0","pricing_plan_id":"cebpf4jnsgd1na2vs0mg"},{"bike_id":"9b6b2bc1-44b3-4819-8bbf-90006648404b","system_id":"levelo_inurba_marseille","lat":43.31345,"lon":5.36721,"is_reserved":false,"is_disabled":false,"rental_uris":{"android":"levelo://app?vid=9b6b2bc1-44b3-4819-8bbf-90006648404b","ios":"levelo://app?vid=9b6b2bc1-44b3-4819-8bbf-90006648404b"},"vehicle_type_id":"4","last_reported":1726171810,"current_range_meters":38800,"station_id":"ce4bgr92rcd13ifvqc6g","pricing_plan_id":"cebpf4jnsgd1na2vs0mg"},{"bike_id":"75584d60-3f5a-4bb8-9e05-7ed3f2089120","system_id":"levelo_inurba_marseille","lat":43.28473,"lon":5.38573,"is_reserved":false,"is_disabled":false,"rental_uris":{"android":"levelo://app?vid=75584d60-3f5a-4bb8-9e05-7ed3f2089120","ios":"levelo://app?vid=75584d60-3f5a-4bb8-9e05-7ed3f2089120"},"vehicle_type_id":"4","last_reported":1726171810,"current_range_meters":37600,"station_id":"ce4bh8p2rcd13ifvqeb0","pricing_plan_id":"cebpf4jnsgd1na2vs0mg"},{"bike_id":"7e30533e-4494-4f63-98a5-7809aac44858","system_id":"levelo_inurba_marseille","lat":43.29561,"lon":5.42301,"is_reserved":false,"is_disabled":false,"rental_uris":{"android":"levelo://app?vid=7e30533e-4494-4f63-98a5-7809aac44858","ios":"levelo://app?vid=7e30533e-4494-4f63-98a5-7809aac44858"},"vehicle_type_id":"4","last_reported":1726171810,"current_range_meters":20800,"station_id":"ce4bhph2rcd13ifvqhdg","pricing_plan_id":"cebpf4jnsgd1na2vs0mg"},{"bike_id":"d1fa7054-10fc-4d2e-81a7-664942ef33d9","system_id":"levelo_inurba_marseille","lat":43.29207,"lon":5.39314,"is_reserved":false,"is_disabled":false,"rental_uris":{"android":"levelo://app?vid=d1fa7054-10fc-4d2e-81a7-664942ef33d9","ios":"levelo://app?vid=d1fa7054-10fc-4d2e-81a7-664942ef33d9"},"vehicle_type_id":"4","last_reported":1726171810,"current_range_meters":27600,"station_id":"ce4bh192rcd13ifvqdd0","pricing_plan_id":"cebpf4jnsgd1na2vs0mg"},{"bike_id":"a1e6be1b-611e-4941-ac78-d62bc4ab01ca","system_id":"levelo_inurba_marseille","lat":43.28379,"lon":5.38634,"is_reserved":false,"is_disabled":false,"rental_uris":{"android":"levelo://app?vid=a1e6be1b-611e-4941-ac78-d62bc4ab01ca","ios":"levelo://app?vid=a1e6be1b-611e-4941-ac78-d62bc4ab01ca"},"vehicle_type_id":"4","last_reported":1726171810,"current_range_meters":10000,"station_id":"ce4bh492rcd13ifvqdvg","pricing_plan_id":"cebpf4jnsgd1na2vs0mg"},{"bike_id":"36db3206-212e-4f5b-857a-92f06b8eec80","system_id":"levelo_inurba_marseille","lat":43.28617,"lon":5.35106,"is_reserved":false,"is_disabled":false,"rental_uris":{"android":"levelo://app?vid=36db3206-212e-4f5b-857a-92f06b8eec80","ios":"levelo://app?vid=36db3206-212e-4f5b-857a-92f06b8eec80"},"vehicle_type_id":"4","last_reported":1726171810,"current_range_meters":38800,"station_id":"ce4bhch2rcd13ifvqeug","pricing_plan_id":"cebpf4jnsgd1na2vs0mg"},{"bike_id":"ee2b411d-ec98-4fdc-850e-f566ac76a326","system_id":"levelo_inurba_marseille","lat":43.25827,"lon":5.39443,"is_reserved":false,"is_disabled":false,"rental_uris":{"android":"levelo://app?vid=ee2b411d-ec98-4fdc-850e-f566ac76a326","ios":"levelo://app?vid=ee2b411d-ec98-4fdc-850e-f566ac76a326"},"vehicle_type_id":"4","last_reported":1726171810,"current_range_meters":25600,"station_id":"ce4bhip2rcd13ifvqft0","pricing_plan_id":"cebpf4jnsgd1na2vs0mg"},{"bike_id":"40460302-338d-49f3-bed1-a91ee5c68a33","system_id":"levelo_inurba_marseille","lat":43.29034,"lon":5.35921,"is_reserved":false,"is_disabled":false,"rental_uris":{"android":"levelo://app?vid=40460302-338d-49f3-bed1-a91ee5c68a33","ios":"levelo://app?vid=40460302-338d-49f3-bed1-a91ee5c68a33"},"vehicle_type_id":"4","last_reported":1726171810,"current_range_meters":30800,"station_id":"ce4bha92rcd13ifvqeg0","pricing_plan_id":"cebpf4jnsgd1na2vs0mg"},{"bike_id":"23d5c119-7027-478d-9cc6-069e27023580","system_id":"levelo_inurba_marseille","lat":43.28104,"lon":5.37847,"is_reserved":false,"is_disabled":false,"rental_uris":{"android":"levelo://app?vid=23d5c119-7027-478d-9cc6-069e27023580","ios":"levelo://app?vid=23d5c119-7027-478d-9cc6-069e27023580"},"vehicle_type_id":"4","last_reported":1726171810,"current_range_meters":38800,"station_id":"ce4bha12rcd13ifvqee0","pricing_plan_id":"cebpf4jnsgd1na2vs0mg"},{"bike_id":"d20b0a13-70b5-4637-85ce-6a000cdd5b04","system_id":"levelo_inurba_marseille","lat":43.28456,"lon":5.35895,"is_reserved":false,"is_disabled":false,"rental_uris":{"android":"levelo://app?vid=d20b0a13-70b5-4637-85ce-6a000cdd5b04","ios":"levelo://app?vid=d20b0a13-70b5-4637-85ce-6a000cdd5b04"},"vehicle_type_id":"4","last_reported":1726171810,"current_range_meters":24000,"station_id":"ce4bhah2rcd13ifvqei0","pricing_plan_id":"cebpf4jnsgd1na2vs0mg"},{"bike_id":"889e6577-a478-4524-95f3-3e8bbd995b80","system_id":"levelo_inurba_marseille","lat":43.29265,"lon":5.38445,"is_reserved":false,"is_disabled":false,"rental_uris":{"android":"levelo://app?vid=889e6577-a478-4524-95f3-3e8bbd995b80","ios":"levelo://app?vid=889e6577-a478-4524-95f3-3e8bbd995b80"},"vehicle_type_id":"4","last_reported":1726171810,"current_range_meters":27600,"station_id":"ce4bh692rcd13ifvqea0","pricing_plan_id":"cebpf4jnsgd1na2vs0mg"},{"bike_id":"f20f613d-77b3-4abc-847d-4abd98073b48","system_id":"levelo_inurba_marseille","lat":43.2862,"lon":5.35108,"is_reserved":false,"is_disabled":false,"rental_uris":{"android":"levelo://app?vid=f20f613d-77b3-4abc-847d-4abd98073b48","ios":"levelo://app?vid=f20f613d-77b3-4abc-847d-4abd98073b48"},"vehicle_type_id":"4","last_reported":1726171810,"current_range_meters":36400,"station_id":"ce4bhch2rcd13ifvqeug","pricing_plan_id":"cebpf4jnsgd1na2vs0mg"},{"bike_id":"37391d25-87c0-4505-bac8-a768bab779a6","system_id":"levelo_inurba_marseille","lat":43.32485,"lon":5.36574,"is_reserved":false,"is_disabled":false,"rental_uris":{"android":"levelo://app?vid=37391d25-87c0-4505-bac8-a768bab779a6","ios":"levelo://app?vid=37391d25-87c0-4505-bac8-a768bab779a6"},"vehicle_type_id":"4","last_reported":1726171810,"current_range_meters":17600,"station_id":"ce4bhs12rcd13ifvqhvg","pricing_plan_id":"cebpf4jnsgd1na2vs0mg"},{"bike_id":"f84bf702-190b-4254-b7f4-6fffa95282d4","system_id":"levelo_inurba_marseille","lat":43.29895,"lon":5.38894,"is_reserved":false,"is_disabled":false,"rental_uris":{"android":"levelo://app?vid=f84bf702-190b-4254-b7f4-6fffa95282d4","ios":"levelo://app?vid=f84bf702-190b-4254-b7f4-6fffa95282d4"},"vehicle_type_id":"4","last_reported":1726171810,"current_range_meters":38800,"station_id":"ce4bh392rcd13ifvqdl0","pricing_plan_id":"cebpf4jnsgd1na2vs0mg"},{"bike_id":"20d7dd8a-9f51-4b4f-baf8-e6bee8c4fde0","system_id":"levelo_inurba_marseille","lat":43.30781,"lon":5.3766,"is_reserved":false,"is_disabled":false,"rental_uris":{"android":"levelo://app?vid=20d7dd8a-9f51-4b4f-baf8-e6bee8c4fde0","ios":"levelo://app?vid=20d7dd8a-9f51-4b4f-baf8-e6bee8c4fde0"},"vehicle_type_id":"4","last_reported":1726171810,"current_range_meters":19200,"station_id":"ce4bgv92rcd13ifvqcq0","pricing_plan_id":"cebpf4jnsgd1na2vs0mg"},