{"last_updated":1778941163,"ttl":60,"version":"2.2","data":{"bikes":[{"bike_id":"9b0d300e-df14-4113-9c71-af15c744e30b","system_id":"levelo_inurba_marseille","lat":43.31719,"lon":5.42407,"is_reserved":false,"is_disabled":false,"rental_uris":{"android":"levelo://app?vid=9b0d300e-df14-4113-9c71-af15c744e30b","ios":"levelo://app?vid=9b0d300e-df14-4113-9c71-af15c744e30b"},"vehicle_type_id":"4","last_reported":1778941164,"current_range_meters":2800,"station_id":"ce4bhp92rcd13ifvqhbg","pricing_plan_id":"cebpf4jnsgd1na2vs0mg"},{"bike_id":"245aa39e-2b37-4a17-ab9d-0953929c8d80","system_id":"levelo_inurba_marseille","lat":43.25875,"lon":5.39889,"is_reserved":false,"is_disabled":false,"rental_uris":{"android":"levelo://app?vid=245aa39e-2b37-4a17-ab9d-0953929c8d80","ios":"levelo://app?vid=245aa39e-2b37-4a17-ab9d-0953929c8d80"},"vehicle_type_id":"4","last_reported":1778941164,"current_range_meters":2800,"station_id":"ce4bhl92rcd13ifvqghg","pricing_plan_id":"cebpf4jnsgd1na2vs0mg"},{"bike_id":"9252b726-18da-497f-b3e2-87f8cb1e6939","system_id":"levelo_inurba_marseille","lat":43.2903,"lon":5.37562,"is_reserved":false,"is_disabled":false,"rental_uris":{"android":"levelo://app?vid=9252b726-18da-497f-b3e2-87f8cb1e6939","ios":"levelo://app?vid=9252b726-18da-497f-b3e2-87f8cb1e6939"},"vehicle_type_id":"4","last_reported":1778941164,"current_range_meters":2800,"station_id":"ce4bh692rcd13ifvqe90","pricing_plan_id":"cebpf4jnsgd1na2vs0mg"},{"bike_id":"4871e020-2fa3-4c76-85d3-33f464b3c3d8","system_id":"levelo_inurba_marseille","lat":43.27207,"lon":5.39201,"is_reserved":false,"is_disabled":false,"rental_uris":{"android":"levelo://app?vid=4871e020-2fa3-4c76-85d3-33f464b3c3d8","ios":"levelo://app?vid=4871e020-2fa3-4c76-85d3-33f464b3c3d8"},"vehicle_type_id":"4","last_reported":1778941164,"current_range_meters":2800,"station_id":"ce4bhhp2rcd13ifvqfm0","pricing_plan_id":"cebpf4jnsgd1na2vs0mg"},{"bike_id":"b39e2bfa-7bff-4091-a3b3-f33ffe9ac260","system_id":"levelo_inurba_marseille","lat":43.293653,"lon":5.378335,"is_reserved":false,"is_disabled":false,"rental_uris":{"android":"levelo://app?vid=b39e2bfa-7bff-4091-a3b3-f33ffe9ac260","ios":"levelo://app?vid=b39e2bfa-7bff-4091-a3b3-f33ffe9ac260"},"vehicle_type_id":"4","last_reported":1778941164,"current_range_meters":2800,"station_id":"ce4bgjh2rcd13ifvqbf0","pricing_plan_id":"cebpf4jnsgd1na2vs0mg"},{"bike_id":"f3f93110-2609-43e7-b926-831e016af668","system_id":"levelo_inurba_marseille","lat":43.29536,"lon":5.37505,"is_reserved":false,"is_disabled":false,"rental_uris":{"android":"levelo://app?vid=f3f93110-2609-43e7-b926-831e016af668","ios":"levelo://app?vid=f3f93110-2609-43e7-b926-831e016af668"},"vehicle_type_id":"4","last_reported":1778941164,"current_range_meters":2800,"station_id":"ce4bgkp2rcd13ifvqbmg","pricing_plan_id":"cebpf4jnsgd1na2vs0mg"},{"bike_id":"d9cb51be-dc92-4741-bab8-3bf4a98d9659","system_id":"levelo_inurba_marseille","lat":43.3079,"lon":5.37655,"is_reserved":false,"is_disabled":false,"rental_uris":{"android":"levelo://app?vid=d9cb51be-dc92-4741-bab8-3bf4a98d9659","ios":"levelo://app?vid=d9cb51be-dc92-4741-bab8-3bf4a98d9659"},"vehicle_type_id":"4","last_reported":1778941164,"current_range_meters":2800,"station_id":"ce4bgv92rcd13ifvqcq0","pricing_plan_id":"cebpf4jnsgd1na2vs0mg"},{"bike_id":"0851ef02-abf8-47b5-8d41-445bb5757760","system_id":"levelo_inurba_marseille","lat":43.26934,"lon":5.40243,"is_reserved":false,"is_disabled":false,"rental_uris":{"android":"levelo://app?vid=0851ef02-abf8-47b5-8d41-445bb5757760","ios":"levelo://app?vid=0851ef02-abf8-47b5-8d41-445bb5757760"},"vehicle_type_id":"4","last_reported":1778941164,"current_range_meters":2800,"station_id":"cjm6bp8fraef2m0cb0m0","pricing_plan_id":"cebpf4jnsgd1na2vs0mg"},{"bike_id":"c9b3a173-7ab6-4c36-8fac-9f402d85e478","system_id":"levelo_inurba_marseille","lat":43.32484,"lon":5.36565,"is_reserved":false,"is_disabled":false,"rental_uris":{"android":"levelo://app?vid=c9b3a173-7ab6-4c36-8fac-9f402d85e478","ios":"levelo://app?vid=c9b3a173-7ab6-4c36-8fac-9f402d85e478"},"vehicle_type_id":"4","last_reported":1778941164,"current_range_meters":2800,"station_id":"ce4bhs12rcd13ifvqhvg","pricing_plan_id":"cebpf4jnsgd1na2vs0mg"},{"bike_id":"328fb38e-0ea1-48ab-a4e7-38a2a89c803b","system_id":"levelo_inurba_marseille","lat":43.28282,"lon":5.35076,"is_reserved":false,"is_disabled":false,"rental_uris":{"android":"levelo://app?vid=328fb38e-0ea1-48ab-a4e7-38a2a89c803b","ios":"levelo://app?vid=328fb38e-0ea1-48ab-a4e7-38a2a89c803b"},"vehicle_type_id":"4","last_reported":1778941164,"current_range_meters":2800,"station_id":"ce4bhbp2rcd13ifvqerg","pricing_plan_id":"cebpf4jnsgd1na2vs0mg"},{"bike_id":"6fc4c621-0fbc-44e5-a055-4f69e50b2139","system_id":"levelo_inurba_marseille","lat":43.30094,"lon":5.39076,"is_reserved":false,"is_disabled":false,"rental_uris":{"android":"levelo://app?vid=6fc4c621-0fbc-44e5-a055-4f69e50b2139","ios":"levelo://app?vid=6fc4c621-0fbc-44e5-a055-4f69e50b2139"},"vehicle_type_id":"4","last_reported":1778941164,"current_range_meters":3200,"station_id":"ce4bh192rcd13ifvqdb0","pricing_plan_id":"cebpf4jnsgd1na2vs0mg"},{"bike_id":"a0c684e0-983f-40e4-9d22-4af7d4273625","system_id":"levelo_inurba_marseille","lat":43.29604,"lon":5.37723,"is_reserved":false,"is_disabled":false,"rental_uris":{"android":"levelo://app?vid=a0c684e0-983f-40e4-9d22-4af7d4273625","ios":"levelo://app?vid=a0c684e0-983f-40e4-9d22-4af7d4273625"},"vehicle_type_id":"4","last_reported":1778941164,"current_range_meters":3200,"station_id":"ce4bgi92rcd13ifvqb90","pricing_plan_id":"cebpf4jnsgd1na2vs0mg"},{"bike_id":"ff5af636-5e8f-4fe0-a7d9-70a25d86e069","system_id":"levelo_inurba_marseille","lat":43.219628,"lon":5.345533,"is_reserved":false,"is_disabled":false,"rental_uris":{"android":"levelo://app?vid=ff5af636-5e8f-4fe0-a7d9-70a25d86e069","ios":"levelo://app?vid=ff5af636-5e8f-4fe0-a7d9-70a25d86e069"},"vehicle_type_id":"4","last_reported":1778941164,"current_range_meters":3200,"station_id":"st_cvj6sg6p6f1abm77japg","pricing_plan_id":"cebpf4jnsgd1na2vs0mg"},{"bike_id":"e62dbe6d-7da3-4f98-8124-7b4ff406eb10","system_id":"levelo_inurba_marseille","lat":43.26216,"lon":5.37443,"is_reserved":false,"is_disabled":false,"rental_uris":{"android":"levelo://app?vid=e62dbe6d-7da3-4f98-8124-7b4ff406eb10","ios":"levelo://app?vid=e62dbe6d-7da3-4f98-8124-7b4ff406eb10"},"vehicle_type_id":"4","last_reported":1778941164,"current_range_meters":3200,"station_id":"ce4bhgp2rcd13ifvqfc0","pricing_plan_id":"cebpf4jnsgd1na2vs0mg"},{"bike_id":"4723189f-b524-4dac-a841-7e0b86e78286","system_id":"levelo_inurba_marseille","lat":43.30296,"lon":5.36886,"is_reserved":false,"is_disabled":false,"rental_uris":{"android":"levelo://app?vid=4723189f-b524-4dac-a841-7e0b86e78286","ios":"levelo://app?vid=4723189f-b524-4dac-a841-7e0b86e78286"},"vehicle_type_id":"4","last_reported":1778941164,"current_range_meters":3200,"station_id":"ce4bgqh2rcd13ifvqc5g","pricing_plan_id":"cebpf4jnsgd1na2vs0mg"},{"bike_id":"2a01f0d7-8080-47d7-9ca5-40364fc7ed22","system_id":"levelo_inurba_marseille","lat":43.27626,"lon":5.36117,"is_reserved":false,"is_disabled":false,"rental_uris":{"android":"levelo://app?vid=2a01f0d7-8080-47d7-9ca5-40364fc7ed22","ios":"levelo://app?vid=2a01f0d7-8080-47d7-9ca5-40364fc7ed22"},"vehicle_type_id":"4","last_reported":1778941164,"current_range_meters":3200,"station_id":"ce4bgj92rcd13ifvqbe0","pricing_plan_id":"cebpf4jnsgd1na2vs0mg"},{"bike_id":"18eb90ac-eec2-4913-9241-dd8d26049a6e","system_id":"levelo_inurba_marseille","lat":43.28699,"lon":5.46684,"is_reserved":false,"is_disabled":false,"rental_uris":{"android":"levelo://app?vid=18eb90ac-eec2-4913-9241-dd8d26049a6e","ios":"levelo://app?vid=18eb90ac-eec2-4913-9241-dd8d26049a6e"},"vehicle_type_id":"4","last_reported":1778941164,"current_range_meters":3200,"station_id":"st_d6tc3vkotcvc738tfjhg","pricing_plan_id":"cebpf4jnsgd1na2vs0mg"},{"bike_id":"eb69ded8-3844-4366-a6c0-c2401c6cc839","system_id":"levelo_inurba_marseille","lat":43.28701,"lon":5.46677,"is_reserved":false,"is_disabled":false,"rental_uris":{"android":"levelo://app?vid=eb69ded8-3844-4366-a6c0-c2401c6cc839","ios":"levelo://app?vid=eb69ded8-3844-4366-a6c0-c2401c6cc839"},"vehicle_type_id":"4","last_reported":1778941164,"current_range_meters":3200,"station_id":"st_d6tc3vkotcvc738tfjhg","pricing_plan_id":"cebpf4jnsgd1na2vs0mg"},{"bike_id":"9ff7c90f-7005-4979-8ab7-d37050bb7d41","system_id":"levelo_inurba_marseille","lat":43.21193,"lon":5.3507,"is_reserved":false,"is_disabled":false,"rental_uris":{"android":"levelo://app?vid=9ff7c90f-7005-4979-8ab7-d37050bb7d41","ios":"levelo://app?vid=9ff7c90f-7005-4979-8ab7-d37050bb7d41"},"vehicle_type_id":"4","last_reported":1778941164,"current_range_meters":3600,"station_id":"st_cvj6sg6p6f1abm77japg","pricing_plan_id":"cebpf4jnsgd1na2vs0mg"},{"bike_id":"df06f853-df8b-44c5-8abd-63dd254e997c","system_id":"levelo_inurba_marseille","lat":43.29821,"lon":5.38652,"is_reserved":false,"is_disabled":false,"rental_uris":{"android":"levelo://app?vid=df06f853-df8b-44c5-8abd-63dd254e997c","ios":"levelo://app?vid=df06f853-df8b-44c5-8abd-63dd254e997c"},"vehicle_type_id":"4","last_reported":1778941164,"current_range_meters":3600,"station_id":"","pricing_plan_id":"cebpf4jnsgd1na2vs0mg"},{"bike_id":"197f8590-4140-4e11-8b87-67ad98bb4bca","system_id":"levelo_inurba_marseille","lat":43.28608,"lon":5.37069,"is_reserved":false,"is_disabled":true,"rental_uris":{"android":"levelo://app?vid=197f8590-4140-4e11-8b87-67ad98bb4bca","ios":"levelo://app?vid=197f8590-4140-4e11-8b87-67ad98bb4bca"},"vehicle_type_id":"4","last_reported":1778941164,"current_range_meters":3600,"station_id":"ce4bht12rcd13ifvqi60","pricing_plan_id":"cebpf4jnsgd1na2vs0mg"},{"bike_id":"9ef56940-bbcb-4a2d-a999-581a0db0fb3a","system_id":"levelo_inurba_marseille","lat":43.23154,"lon":5.43719,"is_reserved":false,"is_disabled":false,"rental_uris":{"android":"levelo://app?vid=9ef56940-bbcb-4a2d-a999-581a0db0fb3a","ios":"levelo://app?vid=9ef56940-bbcb-4a2d-a999-581a0db0fb3a"},"vehicle_type_id":"4","last_reported":1778941164,"current_range_meters":3600,"station_id":"ce4bhmp2rcd13ifvqgog","pricing_plan_id":"cebpf4jnsgd1na2vs0mg"},{"bike_id":"e0da8364-460d-4f6a-afe8-09ef339ab7cf","system_id":"levelo_inurba_marseille","lat":43.29278,"lon":5.37618,"is_reserved":false,"is_disabled":false,"rental_uris":{"android":"levelo://app?vid=e0da8364-460d-4f6a-afe8-09ef339ab7cf","ios":"levelo://app?vid=e0da8364-460d-4f6a-afe8-09ef339ab7cf"},"vehicle_type_id":"4","last_reported":1778941164,"current_range_meters":3600,"station_id":"ce4bgi12rcd13ifvqb80","pricing_plan_id":"cebpf4jnsgd1na2vs0mg"},{"bike_id":"bdca863a-84ea-4c64-8d32-ada141940d46","system_id":"levelo_inurba_marseille","lat":43.21188,"lon":5.35069,"is_reserved":false,"is_disabled":false,"rental_uris":{"android":"levelo://app?vid=bdca863a-84ea-4c64-8d32-ada141940d46","ios":"levelo://app?vid=bdca863a-84ea-4c64-8d32-ada141940d46"},"vehicle_type_id":"4","last_reported":1778941164,"current_range_meters":3600,"station_id":"st_cvj6sg6p6f1abm77japg","pricing_plan_id":"cebpf4jnsgd1na2vs0mg"},{"bike_id":"69a4de94-ae1f-4385-aa61-58a2336f8cb8","system_id":"levelo_inurba_marseille","lat":43.30004,"lon":5.43059,"is_reserved":false,"is_disabled":false,"rental_uris":{"android":"levelo://app?vid=69a4de94-ae1f-4385-aa61-58a2336f8cb8","ios":"levelo://app?vid=69a4de94-ae1f-4385-aa61-58a2336f8cb8"},"vehicle_type_id":"4","last_reported":1778941164,"current_range_meters":3600,"station_id":"","pricing_plan_id":"cebpf4jnsgd1na2vs0mg"},{"bike_id":"417bd26b-1701-485b-b896-bb7adc98bac9","system_id":"levelo_inurba_marseille","lat":43.23962,"lon":5.36625,"is_reserved":false,"is_disabled":true,"rental_uris":{"android":"levelo://app?vid=417bd26b-1701-485b-b896-bb7adc98bac9","ios":"levelo://app?vid=417bd26b-1701-485b-b896-bb7adc98bac9"},"vehicle_type_id":"4","last_reported":1778941164,"current_range_meters":3600,"station_id":"ce4bhi12rcd13ifvqfp0","pricing_plan_id":"cebpf4jnsgd1na2vs0mg"},{"bike_id":"44d71ae5-a5e6-42a3-99db-4175ddd046fa","system_id":"levelo_inurba_marseille","lat":43.31056,"lon":5.37168,"is_reserved":false,"is_disabled":false,"rental_uris":{"android":"levelo://app?vid=44d71ae5-a5e6-42a3-99db-4175ddd046fa","ios":"levelo://app?vid=44d71ae5-a5e6-42a3-99db-4175ddd046fa"},"vehicle_type_id":"4","last_reported":1778941164,"current_range_meters":3600,"station_id":"st_d4kl2rp97mjs73e7tdfg","pricing_plan_id":"cebpf4jnsgd1na2vs0mg"},{"bike_id":"4c1456b4-c5f4-49ed-bd33-6f63525d7c4f","system_id":"levelo_inurba_marseille","lat":43.27988,"lon":5.38754,"is_reserved":false,"is_disabled":true,"rental_uris":{"android":"levelo://app?vid=4c1456b4-c5f4-49ed-bd33-6f63525d7c4f","ios":"levelo://app?vid=4c1456b4-c5f4-49ed-bd33-6f63525d7c4f"},"vehicle_type_id":"4","last_reported":1778941164,"current_range_meters":3600,"station_id":"ce4bhg12rcd13ifvqf80","pricing_plan_id":"cebpf4jnsgd1na2vs0mg"},{"bike_id":"664a66cf-32f5-4d4e-b164-e0c7e3c4db03","system_id":"levelo_inurba_marseille","lat":43.250845,"lon":5.395246,"is_reserved":false,"is_disabled":false,"rental_uris":{"android":"levelo://app?vid=664a66cf-32f5-4d4e-b164-e0c7e3c4db03","ios":"levelo://app?vid=664a66cf-32f5-4d4e-b164-e0c7e3c4db03"},"vehicle_type_id":"4","last_reported":1778941164,"current_range_meters":3600,"station_id":"ce4bhm12rcd13ifvqgkg","pricing_plan_id":"cebpf4jnsgd1na2vs0mg"},{"bike_id":"44bcc781-138f-430d-a016-dca618322dac","system_id":"levelo_inurba_marseille","lat":43.301073,"lon":5.398613,"is_reserved":false,"is_disabled":false,"rental_uris":{"android":"levelo://app?vid=44bcc781-138f-430d-a016-dca618322dac","ios":"levelo://app?vid=44bcc781-138f-430d-a016-dca618322dac"},"vehicle_type_id":"4","last_reported":1778941164,"current_range_meters":3600,"station_id":"ce4bh0h2rcd13ifvqd40","pricing_plan_id":"cebpf4jnsgd1na2vs0mg"},{"bike_id":"46b2eed5-a486-41ca-bd12-ae0d3e6f1871","system_id":"levelo_inurba_marseille","lat":43.26684,"lon":5.38273,"is_reserved":false,"is_disabled":false,"rental_uris":{"android":"levelo://app?vid=46b2eed5-a486-41ca-bd12-ae0d3e6f1871","ios":"levelo://app?vid=46b2eed5-a486-41ca-bd12-ae0d3e6f1871"},"vehicle_type_id":"4","last_reported":1778941164,"current_range_meters":3600,"station_id":"ce4bhg92rcd13ifvqf90","pricing_plan_id":"cebpf4jnsgd1na2vs0mg"},{"bike_id":"c15b7d9d-4d2e-4558-9fe7-1ee3f2efc7ae","system_id":"levelo_inurba_marseille","lat":43.29491,"lon":5.43305,"is_reserved":false,"is_disabled":false,"rental_uris":{"android":"levelo://app?vid=c15b7d9d-4d2e-4558-9fe7-1ee3f2efc7ae","ios":"levelo://app?vid=c15b7d9d-4d2e-4558-9fe7-1ee3f2efc7ae"},"vehicle_type_id":"4","last_reported":1778941164,"current_range_meters":3600,"station_id":"st_d3j5ugp08ojc73fj9d10","pricing_plan_id":"cebpf4jnsgd1na2vs0mg"},{"bike_id":"4a2c3714-352c-4346-85dd-db30f79950fd","system_id":"levelo_inurba_marseille","lat":43.2485,"lon":5.37467,"is_reserved":false,"is_disabled":false,"rental_uris":{"android":"levelo://app?vid=4a2c3714-352c-4346-85dd-db30f79950fd","ios":"levelo://app?vid=4a2c3714-352c-4346-85dd-db30f79950fd"},"vehicle_type_id":"4","last_reported":1778941164,"current_range_meters":3600,"station_id":"","pricing_plan_id":"cebpf4jnsgd1na2vs0mg"},{"bike_id":"d0a7aa3b-245c-4f99-a3f3-d160f3b406ac","system_id":"levelo_inurba_marseille","lat":43.297668,"lon":5.371149,"is_reserved":false,"is_disabled":false,"rental_uris":{"android":"levelo://app?vid=d0a7aa3b-245c-4f99-a3f3-d160f3b406ac","ios":"levelo://app?vid=d0a7aa3b-245c-4f99-a3f3-d160f3b406ac"},"vehicle_type_id":"4","last_reported":1778941164,"current_range_meters":4000,"station_id":"ce4bgop2rcd13ifvqc1g","pricing_plan_id":"cebpf4jnsgd1na2vs0mg"},{"bike_id":"07290ecf-4fdf-4279-bcb6-3d0d7b0d154d","system_id":"levelo_inurba_marseille","lat":43.31244,"lon":5.36873,"is_reserved":false,"is_disabled":false,"rental_uris":{"android":"levelo://app?vid=07290ecf-4fdf-4279-bcb6-3d0d7b0d154d","ios":"levelo://app?vid=07290ecf-4fdf-4279-bcb6-3d0d7b0d154d"},"vehicle_type_id":"4","last_reported":1778941164,"current_range_meters":4000,"station_id":"ce4bgl92rcd13ifvqbq0","pricing_plan_id":"cebpf4jnsgd1na2vs0mg"},{"bike_id":"f35538c5-f923-479b-ac74-73e10ca6c589","system_id":"levelo_inurba_marseille","lat":43.25571,"lon":5.38189,"is_reserved":false,"is_disabled":false,"rental_uris":{"android":"levelo://app?vid=f35538c5-f923-479b-ac74-73e10ca6c589","ios":"levelo://app?vid=f35538c5-f923-479b-ac74-73e10ca6c589"},"vehicle_type_id":"4","last_reported":1778941164,"current_range_meters":4000,"station_id":"ce4bhih2rcd13ifvqfs0","pricing_plan_id":"cebpf4jnsgd1na2vs0mg"},{"bike_id":"bac15306-3ac7-418f-9ca9-9f60568ab30e","system_id":"levelo_inurba_marseille","lat":43.31688,"lon":5.4047,"is_reserved":false,"is_disabled":false,"rental_uris":{"android":"levelo://app?vid=bac15306-3ac7-418f-9ca9-9f60568ab30e","ios":"levelo://app?vid=bac15306-3ac7-418f-9ca9-9f60568ab30e"},"vehicle_type_id":"4","last_reported":1778941164,"current_range_meters":4000,"station_id":"ce4bh012rcd13ifvqd00","pricing_plan_id":"cebpf4jnsgd1na2vs0mg"},{"bike_id":"0946403e-cf13-4d54-aa45-efaa9e00ec00","system_id":"levelo_inurba_marseille","lat":43.2481,"lon":5.3747,"is_reserved":false,"is_disabled":false,"rental_uris":{"android":"levelo://app?vid=0946403e-cf13-4d54-aa45-efaa9e00ec00","ios":"levelo://app?vid=0946403e-cf13-4d54-aa45-efaa9e00ec00"},"vehicle_type_id":"4","last_reported":1778941164,"current_range_meters":4000,"station_id":"ce4bhgh2rcd13ifvqfb0","pricing_plan_id":"cebpf4jnsgd1na2vs0mg"},{"bike_id":"49801a4c-4c9c-44de-b4a8-62d82788e994","system_id":"levelo_inurba_marseille","lat":43.21744,"lon":5.34623,"is_reserved":false,"is_disabled":false,"rental_uris":{"android":"levelo://app?vid=49801a4c-4c9c-44de-b4a8-62d82788e994","ios":"levelo://app?vid=49801a4c-4c9c-44de-b4a8-62d82788e994"},"vehicle_type_id":"4","last_reported":1778941164,"current_range_meters":4000,"station_id":"st_cvj6r9ubvosntc0bgbag","pricing_plan_id":"cebpf4jnsgd1na2vs0mg"},{"bike_id":"82774dac-aa77-4e1b-b028-e44cb662e348","system_id":"levelo_inurba_marseille","lat":43.29284,"lon":5.3746,"is_reserved":false,"is_disabled":false,"rental_uris":{"android":"levelo://app?vid=82774dac-aa77-4e1b-b028-e44cb662e348","ios":"levelo://app?vid=82774dac-aa77-4e1b-b028-e44cb662e348"},"vehicle_type_id":"4","last_reported":1778941164,"current_range_meters":4400,"station_id":"ce4bgi12rcd13ifvqb70","pricing_plan_id":"cebpf4jnsgd1na2vs0mg"},{"bike_id":"305f8012-853c-4e5c-b4a3-badea1215a44","system_id":"levelo_inurba_marseille","lat":43.33754,"lon":5.37506,"is_reserved":false,"is_disabled":false,"rental_uris":{"android":"levelo://app?vid=305f8012-853c-4e5c-b4a3-badea1215a44","ios":"levelo://app?vid=305f8012-853c-4e5c-b4a3-badea1215a44"},"vehicle_type_id":"4","last_reported":1778941164,"current_range_meters":4400,"station_id":"","pricing_plan_id":"cebpf4jnsgd1na2vs0mg"},{"bike_id":"4bd391a9-8cb0-4b29-848c-b5678895b31c","system_id":"levelo_inurba_marseille","lat":43.26064,"lon":5.39397,"is_reserved":false,"is_disabled":false,"rental_uris":{"android":"levelo://app?vid=4bd391a9-8cb0-4b29-848c-b5678895b31c","ios":"levelo://app?vid=4bd391a9-8cb0-4b29-848c-b5678895b31c"},"vehicle_type_id":"4","last_reported":1778941164,"current_range_meters":4400,"station_id":"ce4bhh92rcd13ifvqfj0","pricing_plan_id":"cebpf4jnsgd1na2vs0mg"},{"bike_id":"1f27b9c7-f593-4ee3-b394-7ce199ed2756","system_id":"levelo_inurba_marseille","lat":43.309018,"lon":5.37188,"is_reserved":false,"is_disabled":false,"rental_uris":{"android":"levelo://app?vid=1f27b9c7-f593-4ee3-b394-7ce199ed2756","ios":"levelo://app?vid=1f27b9c7-f593-4ee3-b394-7ce199ed2756"},"vehicle_type_id":"4","last_reported":1778941164,"current_range_meters":4400,"station_id":"","pricing_plan_id":"cebpf4jnsgd1na2vs0mg"},{"bike_id":"76e33348-6a4a-4160-8477-e9650ddfdc10","system_id":"levelo_inurba_marseille","lat":43.29556,"lon":5.42293,"is_reserved":false,"is_disabled":false,"rental_uris":{"android":"levelo://app?vid=76e33348-6a4a-4160-8477-e9650ddfdc10","ios":"levelo://app?vid=76e33348-6a4a-4160-8477-e9650ddfdc10"},"vehicle_type_id":"4","last_reported":1778941164,"current_range_meters":4400,"station_id":"ce4bhph2rcd13ifvqhdg","pricing_plan_id":"cebpf4jnsgd1na2vs0mg"},{"bike_id":"ca01c33c-99c8-4ff8-a274-d065c7262a1a","system_id":"levelo_inurba_marseille","lat":43.26407,"lon":5.38816,"is_reserved":false,"is_disabled":false,"rental_uris":{"android":"levelo://app?vid=ca01c33c-99c8-4ff8-a274-d065c7262a1a","ios":"levelo://app?vid=ca01c33c-99c8-4ff8-a274-d065c7262a1a"},"vehicle_type_id":"4","last_reported":1778941164,"current_range_meters":4400,"station_id":"","pricing_plan_id":"cebpf4jnsgd1na2vs0mg"},{"bike_id":"5a15be6c-1502-448f-b4d1-7dd2af502a9e","system_id":"levelo_inurba_marseille","lat":43.31131,"lon":5.36814,"is_reserved":false,"is_disabled":false,"rental_uris":{"android":"levelo://app?vid=5a15be6c-1502-448f-b4d1-7dd2af502a9e","ios":"levelo://app?vid=5a15be6c-1502-448f-b4d1-7dd2af502a9e"},"vehicle_type_id":"4","last_reported":1778941164,"current_range_meters":4400,"station_id":"ce4bgl92rcd13ifvqbq0","pricing_plan_id":"cebpf4jnsgd1na2vs0mg"},{"bike_id":"52fb7434-896e-4c97-817e-ac9657918ab4","system_id":"levelo_inurba_marseille","lat":43.33556,"lon":5.37479,"is_reserved":false,"is_disabled":false,"rental_uris":{"android":"levelo://app?vid=52fb7434-896e-4c97-817e-ac9657918ab4","ios":"levelo://app?vid=52fb7434-896e-4c97-817e-ac9657918ab4"},"vehicle_type_id":"4","last_reported":1778941164,"current_range_meters":4400,"station_id":"st_d46tts09ee8s73dlu43g","pricing_plan_id":"cebpf4jnsgd1na2vs0mg"},{"bike_id":"04ea3f89-d526-46df-8866-3a77acf0c254","system_id":"levelo_inurba_marseille","lat":43.28266,"lon":5.35048,"is_reserved":false,"is_disabled":true,"rental_uris":{"android":"levelo://app?vid=04ea3f89-d526-46df-8866-3a77acf0c254","ios":"levelo://app?vid=04ea3f89-d526-46df-8866-3a77acf0c254"},"vehicle_type_id":"4","last_reported":1778941164,"current_range_meters":4400,"station_id":"ce4bhbp2rcd13ifvqerg","pricing_plan_id":"cebpf4jnsgd1na2vs0mg"},{"bike_id":"58f3d901-9670-4ad8-b645-26ada17295e2","system_id":"levelo_inurba_marseille","lat":43.3014,"lon":5.37421,"is_reserved":false,"is_disabled":false,"rental_uris":{"android":"levelo://app?vid=58f3d901-9670-4ad8-b645-26ada17295e2","ios":"levelo://app?vid=58f3d901-9670-4ad8-b645-26ada17295e2"},"vehicle_type_id":"4","last_reported":1778941164,"current_range_meters":4400,"station_id":"ce4bgs92rcd13ifvqcc0","pricing_plan_id":"cebpf4jnsgd1na2vs0mg"},{"bike_id":"9eb50ef0-d222-4848-9f4f-b79a03731b4c","system_id":"levelo_inurba_marseille","lat":43.21194,"lon":5.3507,"is_reserved":false,"is_disabled":false,"rental_uris":{"android":"levelo://app?vid=9eb50ef0-d222-4848-9f4f-b79a03731b4c","ios":"levelo://app?vid=9eb50ef0-d222-4848-9f4f-b79a03731b4c"},"vehicle_type_id":"4","last_reported":1778941164,"current_range_meters":4800,"station_id":"st_cvj6sg6p6f1abm77japg","pricing_plan_id":"cebpf4jnsgd1na2vs0mg"},{"bike_id":"92aa287c-1ffd-4e0d-a777-d680461d889a","system_id":"levelo_inurba_marseille","lat":43.22551,"lon":5.41649,"is_reserved":false,"is_disabled":false,"rental_uris":{"android":"levelo://app?vid=92aa287c-1ffd-4e0d-a777-d680461d889a","ios":"levelo://app?vid=92aa287c-1ffd-4e0d-a777-d680461d889a"},"vehicle_type_id":"4","last_reported":1778941164,"current_range_meters":4800,"station_id":"st_d2o4gvlbi1j2169b742g","pricing_plan_id":"cebpf4jnsgd1na2vs0mg"},{"bike_id":"c522deca-789e-49b3-982f-1f0402a24572","system_id":"levelo_inurba_marseille","lat":43.24668,"lon":5.38831,"is_reserved":false,"is_disabled":false,"rental_uris":{"android":"levelo://app?vid=c522deca-789e-49b3-982f-1f0402a24572","ios":"levelo://app?vid=c522deca-789e-49b3-982f-1f0402a24572"},"vehicle_type_id":"4","last_reported":1778941164,"current_range_meters":4800,"station_id":"","pricing_plan_id":"cebpf4jnsgd1na2vs0mg"},{"bike_id":"fe97a1fe-7017-47ac-b355-f752d215e2e2","system_id":"levelo_inurba_marseille","lat":43.27996,"lon":5.40008,"is_reserved":false,"is_disabled":false,"rental_uris":{"android":"levelo://app?vid=fe97a1fe-7017-47ac-b355-f752d215e2e2","ios":"levelo://app?vid=fe97a1fe-7017-47ac-b355-f752d215e2e2"},"vehicle_type_id":"4","last_reported":1778941164,"current_range_meters":4800,"station_id":"ce4bho92rcd13ifvqh4g","pricing_plan_id":"cebpf4jnsgd1na2vs0mg"},{"bike_id":"c0c29511-8416-448c-89d4-cd7673d31c70","system_id":"levelo_inurba_marseille","lat":43.2119,"lon":5.35068,"is_reserved":false,"is_disabled":false,"rental_uris":{"android":"levelo://app?vid=c0c29511-8416-448c-89d4-cd7673d31c70","ios":"levelo://app?vid=c0c29511-8416-448c-89d4-cd7673d31c70"},"vehicle_type_id":"4","last_reported":1778941164,"current_range_meters":4800,"station_id":"st_cvj6sg6p6f1abm77japg","pricing_plan_id":"cebpf4jnsgd1na2vs0mg"},{"bike_id":"33833229-ef28-4f91-b3a0-0a9a37bc4c8f","system_id":"levelo_inurba_marseille","lat":43.27493,"lon":5.42457,"is_reserved":false,"is_disabled":false,"rental_uris":{"android":"levelo://app?vid=33833229-ef28-4f91-b3a0-0a9a37bc4c8f","ios":"levelo://app?vid=33833229-ef28-4f91-b3a0-0a9a37bc4c8f"},"vehicle_type_id":"4","last_reported":1778941164,"current_range_meters":4800,"station_id":"ce4bhn92rcd13ifvqgrg","pricing_plan_id":"cebpf4jnsgd1na2vs0mg"},{"bike_id":"223a607d-5bf5-4652-a7ef-358ebbd0ac8b","system_id":"levelo_inurba_marseille","lat":43.29522,"lon":5.38533,"is_reserved":false,"is_disabled":false,"rental_uris":{"android":"levelo://app?vid=223a607d-5bf5-4652-a7ef-358ebbd0ac8b","ios":"levelo://app?vid=223a607d-5bf5-4652-a7ef-358ebbd0ac8b"},"vehicle_type_id":"4","last_reported":1778941164,"current_range_meters":4800,"station_id":"ce4bgih2rcd13ifvqba0","pricing_plan_id":"cebpf4jnsgd1na2vs0mg"},{"bike_id":"59c8b2a9-d5b8-4b0d-8fb0-f7b1bccda6e2","system_id":"levelo_inurba_marseille","lat":43.21202,"lon":5.35048,"is_reserved":false,"is_disabled":false,"rental_uris":{"android":"levelo://app?vid=59c8b2a9-d5b8-4b0d-8fb0-f7b1bccda6e2","ios":"levelo://app?vid=59c8b2a9-d5b8-4b0d-8fb0-f7b1bccda6e2"},"vehicle_type_id":"4","last_reported":1778941164,"current_range_meters":4800,"station_id":"st_cvj6sg6p6f1abm77japg","pricing_plan_id":"cebpf4jnsgd1na2vs0mg"},{"bike_id":"21cecad3-765a-47c0-90fc-8a034c158adc","system_id":"levelo_inurba_marseille","lat":43.24388,"lon":5.37054,"is_reserved":false,"is_disabled":false,"rental_uris":{"android":"levelo://app?vid=21cecad3-765a-47c0-90fc-8a034c158adc","ios":"levelo://app?vid=21cecad3-765a-47c0-90fc-8a034c158adc"},"vehicle_type_id":"4","last_reported":1778941164,"current_range_meters":4800,"station_id":"ce4bhhh2rcd13ifvqfk0","pricing_plan_id":"cebpf4jnsgd1na2vs0mg"},{"bike_id":"fc3434ec-3f12-4fe2-a883-c7406c4652f9","system_id":"levelo_inurba_marseille","lat":43.29483,"lon":5.43312,"is_reserved":false,"is_disabled":false,"rental_uris":{"android":"levelo://app?vid=fc3434ec-3f12-4fe2-a883-c7406c4652f9","ios":"levelo://app?vid=fc3434ec-3f12-4fe2-a883-c7406c4652f9"},"vehicle_type_id":"4","last_reported":1778941164,"current_range_meters":5600,"station_id":"st_d3j5ugp08ojc73fj9d10","pricing_plan_id":"cebpf4jnsgd1na2vs0mg"},{"bike_id":"27b984f8-7b7a-43de-962e-34c98fc0e1e8","system_id":"levelo_inurba_marseille","lat":43.300958,"lon":5.400177,"is_reserved":false,"is_disabled":false,"rental_uris":{"android":"levelo://app?vid=27b984f8-7b7a-43de-962e-34c98fc0e1e8","ios":"levelo://app?vid=27b984f8-7b7a-43de-962e-34c98fc0e1e8"},"vehicle_type_id":"4","last_reported":1778941164,"current_range_meters":5600,"station_id":"ce4bgvh2rcd13ifvqcs0","pricing_plan_id":"cebpf4jnsgd1na2vs0mg"},{"bike_id":"310313f9-4c8b-458d-834b-81e71f22dc3f","system_id":"levelo_inurba_marseille","lat":43.2794,"lon":5.39596,"is_reserved":false,"is_disabled":true,"rental_uris":{"android":"levelo://app?vid=310313f9-4c8b-458d-834b-81e71f22dc3f","ios":"levelo://app?vid=310313f9-4c8b-458d-834b-81e71f22dc3f"},"vehicle_type_id":"4","last_reported":1778941164,"current_range_meters":5600,"station_id":"ce4bhf92rcd13ifvqf40","pricing_plan_id":"cebpf4jnsgd1na2vs0mg"},{"bike_id":"c9886ab2-93c4-42fd-901d-a974f2b79eee","system_id":"levelo_inurba_marseille","lat":43.3058,"lon":5.36592,"is_reserved":false,"is_disabled":false,"rental_uris":{"android":"levelo://app?vid=c9886ab2-93c4-42fd-901d-a974f2b79eee","ios":"levelo://app?vid=c9886ab2-93c4-42fd-901d-a974f2b79eee"},"vehicle_type_id":"4","last_reported":1778941164,"current_range_meters":5600,"station_id":"ce4bgs12rcd13ifvqcag","pricing_plan_id":"cebpf4jnsgd1na2vs0mg"},{"bike_id":"da25d015-d7dd-4fbf-997f-9acf97aa246b","system_id":"levelo_inurba_marseille","lat":43.28612,"lon":5.35101,"is_reserved":false,"is_disabled":false,"rental_uris":{"android":"levelo://app?vid=da25d015-d7dd-4fbf-997f-9acf97aa246b","ios":"levelo://app?vid=da25d015-d7dd-4fbf-997f-9acf97aa246b"},"vehicle_type_id":"4","last_reported":1778941164,"current_range_meters":5600,"station_id":"ce4bhch2rcd13ifvqeug","pricing_plan_id":"cebpf4jnsgd1na2vs0mg"},{"bike_id":"f7ee334b-5bbc-457f-9f23-f269af0b5b43","system_id":"levelo_inurba_marseille","lat":43.29786,"lon":5.37106,"is_reserved":false,"is_disabled":false,"rental_uris":{"android":"levelo://app?vid=f7ee334b-5bbc-457f-9f23-f269af0b5b43","ios":"levelo://app?vid=f7ee334b-5bbc-457f-9f23-f269af0b5b43"},"vehicle_type_id":"4","last_reported":1778941164,"current_range_meters":5600,"station_id":"ce4bgop2rcd13ifvqc1g","pricing_plan_id":"cebpf4jnsgd1na2vs0mg"},{"bike_id":"bd037199-ba3a-4e3b-a68e-3f654e6d6cd2","system_id":"levelo_inurba_marseille","lat":43.292273,"lon":5.360514,"is_reserved":false,"is_disabled":false,"rental_uris":{"android":"levelo://app?vid=bd037199-ba3a-4e3b-a68e-3f654e6d6cd2","ios":"levelo://app?vid=bd037199-ba3a-4e3b-a68e-3f654e6d6cd2"},"vehicle_type_id":"4","last_reported":1778941164,"current_range_meters":5600,"station_id":"ce4bhbh2rcd13ifvqeqg","pricing_plan_id":"cebpf4jnsgd1na2vs0mg"},{"bike_id":"993f70e9-7cd1-42ae-a03b-aa4c937cb74b","system_id":"levelo_inurba_marseille","lat":43.29579,"lon":5.37515,"is_reserved":false,"is_disabled":false,"rental_uris":{"android":"levelo://app?vid=993f70e9-7cd1-42ae-a03b-aa4c937cb74b","ios":"levelo://app?vid=993f70e9-7cd1-42ae-a03b-aa4c937cb74b"},"vehicle_type_id":"4","last_reported":1778941164,"current_range_meters":5600,"station_id":"ce4bgh92rcd13ifvqb50","pricing_plan_id":"cebpf4jnsgd1na2vs0mg"},{"bike_id":"1466b7ae-2359-4d90-ab96-165b69381d7c","system_id":"levelo_inurba_marseille","lat":43.31258,"lon":5.36845,"is_reserved":false,"is_disabled":false,"rental_uris":{"android":"levelo://app?vid=1466b7ae-2359-4d90-ab96-165b69381d7c","ios":"levelo://app?vid=1466b7ae-2359-4d90-ab96-165b69381d7c"},"vehicle_type_id":"4","last_reported":1778941164,"current_range_meters":5600,"station_id":"ce4bgl92rcd13ifvqbq0","pricing_plan_id":"cebpf4jnsgd1na2vs0mg"},{"bike_id":"d3ea9369-ad84-4e61-bbb2-cd82b8d4d236","system_id":"levelo_inurba_marseille","lat":43.31113,"lon":5.37772,"is_reserved":false,"is_disabled":false,"rental_uris":{"android":"levelo://app?vid=d3ea9369-ad84-4e61-bbb2-cd82b8d4d236","ios":"levelo://app?vid=d3ea9369-ad84-4e61-bbb2-cd82b8d4d236"},"vehicle_type_id":"4","last_reported":1778941164,"current_range_meters":5600,"station_id":"ce4bgt92rcd13ifvqcg0","pricing_plan_id":"cebpf4jnsgd1na2vs0mg"},{"bike_id":"236c5423-3de2-4984-a104-160edb8897a0","system_id":"levelo_inurba_marseille","lat":43.307291,"lon":5.40954,"is_reserved":false,"is_disabled":false,"rental_uris":{"android":"levelo://app?vid=236c5423-3de2-4984-a104-160edb8897a0","ios":"levelo://app?vid=236c5423-3de2-4984-a104-160edb8897a0"},"vehicle_type_id":"4","last_reported":1778941164,"current_range_meters":5600,"station_id":"","pricing_plan_id":"cebpf4jnsgd1na2vs0mg"},{"bike_id":"d6d19617-7dd8-4d1b-a542-39bf98efdc73","system_id":"levelo_inurba_marseille","lat":43.29576,"lon":5.37517,"is_reserved":false,"is_disabled":false,"rental_uris":{"android":"levelo://app?vid=d6d19617-7dd8-4d1b-a542-39bf98efdc73","ios":"levelo://app?vid=d6d19617-7dd8-4d1b-a542-39bf98efdc73"},"vehicle_type_id":"4","last_reported":1778941164,"current_range_meters":5600,"station_id":"ce4bgh92rcd13ifvqb50","pricing_plan_id":"cebpf4jnsgd1na2vs0mg"},{"bike_id":"1c155cb8-50aa-4ad8-95d4-a32cca5f7a07","system_id":"levelo_inurba_marseille","lat":43.24464,"lon":5.4254,"is_reserved":false,"is_disabled":false,"rental_uris":{"android":"levelo://app?vid=1c155cb8-50aa-4ad8-95d4-a32cca5f7a07","ios":"levelo://app?vid=1c155cb8-50aa-4ad8-95d4-a32cca5f7a07"},"vehicle_type_id":"4","last_reported":1778941164,"current_range_meters":5600,"station_id":"st_d4a3vfp97mjs738cd8kg","pricing_plan_id":"cebpf4jnsgd1na2vs0mg"},{"bike_id":"bf4140c2-b60d-49c9-a4a2-8e589e154982","system_id":"levelo_inurba_marseille","lat":43.33531,"lon":5.37403,"is_reserved":false,"is_disabled":false,"rental_uris":{"android":"levelo://app?vid=bf4140c2-b60d-49c9-a4a2-8e589e154982","ios":"levelo://app?vid=bf4140c2-b60d-49c9-a4a2-8e589e154982"},"vehicle_type_id":"4","last_reported":1778941164,"current_range_meters":5600,"station_id":"","pricing_plan_id":"cebpf4jnsgd1na2vs0mg"},{"bike_id":"59dc179a-f593-455e-b9b4-7f65f7660186","system_id":"levelo_inurba_marseille","lat":43.325,"lon":5.38311,"is_reserved":false,"is_disabled":false,"rental_uris":{"android":"levelo://app?vid=59dc179a-f593-455e-b9b4-7f65f7660186","ios":"levelo://app?vid=59dc179a-f593-455e-b9b4-7f65f7660186"},"vehicle_type_id":"4","last_reported":1778941164,"current_range_meters":5600,"station_id":"st_d4asgbiv49dc73anf9m0","pricing_plan_id":"cebpf4jnsgd1na2vs0mg"},{"bike_id":"bc1ceef2-7ab6-4b29-97cf-e699caf1898f","system_id":"levelo_inurba_marseille","lat":43.24633,"lon":5.38967,"is_reserved":false,"is_disabled":false,"rental_uris":{"android":"levelo://app?vid=bc1ceef2-7ab6-4b29-97cf-e699caf1898f","ios":"levelo://app?vid=bc1ceef2-7ab6-4b29-97cf-e699caf1898f"},"vehicle_type_id":"4","last_reported":1778941164,"current_range_meters":5600,"station_id":"","pricing_plan_id":"cebpf4jnsgd1na2vs0mg"},{"bike_id":"ecb43cf3-4571-441f-b7de-470cf95dfc38","system_id":"levelo_inurba_marseille","lat":43.21749,"lon":5.34617,"is_reserved":false,"is_disabled":false,"rental_uris":{"android":"levelo://app?vid=ecb43cf3-4571-441f-b7de-470cf95dfc38","ios":"levelo://app?vid=ecb43cf3-4571-441f-b7de-470cf95dfc38"},"vehicle_type_id":"4","last_reported":1778941164,"current_range_meters":5600,"station_id":"st_cvj6r9ubvosntc0bgbag","pricing_plan_id":"cebpf4jnsgd1na2vs0mg"},{"bike_id":"c3bdd8c8-28c7-4b14-974a-5c3603741e95","system_id":"levelo_inurba_marseille","lat":43.29278,"lon":5.36851,"is_reserved":false,"is_disabled":false,"rental_uris":{"android":"levelo://app?vid=c3bdd8c8-28c7-4b14-974a-5c3603741e95","ios":"levelo://app?vid=c3bdd8c8-28c7-4b14-974a-5c3603741e95"},"vehicle_type_id":"4","last_reported":1778941164,"current_range_meters":5600,"station_id":"ce4bhbp2rcd13ifvqesg","pricing_plan_id":"cebpf4jnsgd1na2vs0mg"},{"bike_id":"b279d425-b605-4dce-aa38-d74dc6161e68","system_id":"levelo_inurba_marseille","lat":43.22561,"lon":5.41638,"is_reserved":false,"is_disabled":false,"rental_uris":{"android":"levelo://app?vid=b279d425-b605-4dce-aa38-d74dc6161e68","ios":"levelo://app?vid=b279d425-b605-4dce-aa38-d74dc6161e68"},"vehicle_type_id":"4","last_reported":1778941164,"current_range_meters":5600,"station_id":"st_d2o4gvlbi1j2169b742g","pricing_plan_id":"cebpf4jnsgd1na2vs0mg"},{"bike_id":"75634358-7352-4f64-afbb-dc1aa7908801","system_id":"levelo_inurba_marseille","lat":43.29271,"lon":5.36849,"is_reserved":false,"is_disabled":false,"rental_uris":{"android":"levelo://app?vid=75634358-7352-4f64-afbb-dc1aa7908801","ios":"levelo://app?vid=75634358-7352-4f64-afbb-dc1aa7908801"},"vehicle_type_id":"4","last_reported":1778941164,"current_range_meters":6000,"station_id":"ce4bhbp2rcd13ifvqesg","pricing_plan_id":"cebpf4jnsgd1na2vs0mg"},{"bike_id":"2c4e2c80-7a7f-49e7-8a11-230c3e37ee87","system_id":"levelo_inurba_marseille","lat":43.22563,"lon":5.41611,"is_reserved":false,"is_disabled":false,"rental_uris":{"android":"levelo://app?vid=2c4e2c80-7a7f-49e7-8a11-230c3e37ee87","ios":"levelo://app?vid=2c4e2c80-7a7f-49e7-8a11-230c3e37ee87"},"vehicle_type_id":"4","last_reported":1778941164,"current_range_meters":6000,"station_id":"st_d2o4gvlbi1j2169b742g","pricing_plan_id":"cebpf4jnsgd1na2vs0mg"},{"bike_id":"67891da8-af6f-493b-bd51-dbd5c7cd033f","system_id":"levelo_inurba_marseille","lat":43.29284,"lon":5.36883,"is_reserved":false,"is_disabled":false,"rental_uris":{"android":"levelo://app?vid=67891da8-af6f-493b-bd51-dbd5c7cd033f","ios":"levelo://app?vid=67891da8-af6f-493b-bd51-dbd5c7cd033f"},"vehicle_type_id":"4","last_reported":1778941164,"current_range_meters":6000,"station_id":"ce4bhbp2rcd13ifvqesg","pricing_plan_id":"cebpf4jnsgd1na2vs0mg"},{"bike_id":"476b4d39-db74-4754-bd4c-d910c2c11705","system_id":"levelo_inurba_marseille","lat":43.292958,"lon":5.374598,"is_reserved":false,"is_disabled":false,"rental_uris":{"android":"levelo://app?vid=476b4d39-db74-4754-bd4c-d910c2c11705","ios":"levelo://app?vid=476b4d39-db74-4754-bd4c-d910c2c11705"},"vehicle_type_id":"4","last_reported":1778941164,"current_range_meters":6000,"station_id":"ce4bgi12rcd13ifvqb70","pricing_plan_id":"cebpf4jnsgd1na2vs0mg"},{"bike_id":"6ed28fa0-f20b-450d-a789-f0b565e64f1b","system_id":"levelo_inurba_marseille","lat":43.2986,"lon":5.38279,"is_reserved":false,"is_disabled":false,"rental_uris":{"android":"levelo://app?vid=6ed28fa0-f20b-450d-a789-f0b565e64f1b","ios":"levelo://app?vid=6ed28fa0-f20b-450d-a789-f0b565e64f1b"},"vehicle_type_id":"4","last_reported":1778941164,"current_range_meters":6000,"station_id":"","pricing_plan_id":"cebpf4jnsgd1na2vs0mg"},{"bike_id":"d4095c64-fb3c-435f-9928-a524cf86e555","system_id":"levelo_inurba_marseille","lat":43.2417,"lon":5.36404,"is_reserved":false,"is_disabled":false,"rental_uris":{"android":"levelo://app?vid=d4095c64-fb3c-435f-9928-a524cf86e555","ios":"levelo://app?vid=d4095c64-fb3c-435f-9928-a524cf86e555"},"vehicle_type_id":"4","last_reported":1778941164,"current_range_meters":6000,"station_id":"cpo36qri1sfpv3e86is0","pricing_plan_id":"cebpf4jnsgd1na2vs0mg"},{"bike_id":"17932c9b-a2d3-45b1-a019-c5fa80030368","system_id":"levelo_inurba_marseille","lat":43.27425,"lon":5.3942,"is_reserved":false,"is_disabled":false,"rental_uris":{"android":"levelo://app?vid=17932c9b-a2d3-45b1-a019-c5fa80030368","ios":"levelo://app?vid=17932c9b-a2d3-45b1-a019-c5fa80030368"},"vehicle_type_id":"4","last_reported":1778941164,"current_range_meters":6000,"station_id":"ce4bhdp2rcd13ifvqf20","pricing_plan_id":"cebpf4jnsgd1na2vs0mg"},{"bike_id":"a925d029-af9d-439e-b7ff-1c5bb1c3c5db","system_id":"levelo_inurba_marseille","lat":43.26512,"lon":5.39488,"is_reserved":false,"is_disabled":false,"rental_uris":{"android":"levelo://app?vid=a925d029-af9d-439e-b7ff-1c5bb1c3c5db","ios":"levelo://app?vid=a925d029-af9d-439e-b7ff-1c5bb1c3c5db"},"vehicle_type_id":"4","last_reported":1778941164,"current_range_meters":6000,"station_id":"ce4bhi12rcd13ifvqfq0","pricing_plan_id":"cebpf4jnsgd1na2vs0mg"},{"bike_id":"a2647aa1-f01d-4da6-93ee-57a490b72134","system_id":"levelo_inurba_marseille","lat":43.2958,"lon":5.37516,"is_reserved":false,"is_disabled":false,"rental_uris":{"android":"levelo://app?vid=a2647aa1-f01d-4da6-93ee-57a490b72134","ios":"levelo://app?vid=a2647aa1-f01d-4da6-93ee-57a490b72134"},"vehicle_type_id":"4","last_reported":1778941164,"current_range_meters":6000,"station_id":"ce4bgh92rcd13ifvqb50","pricing_plan_id":"cebpf4jnsgd1na2vs0mg"},{"bike_id":"01e33b80-149f-4135-ae09-3bd92711cdf8","system_id":"levelo_inurba_marseille","lat":43.29625,"lon":5.37742,"is_reserved":false,"is_disabled":false,"rental_uris":{"android":"levelo://app?vid=01e33b80-149f-4135-ae09-3bd92711cdf8","ios":"levelo://app?vid=01e33b80-149f-4135-ae09-3bd92711cdf8"},"vehicle_type_id":"4","last_reported":1778941164,"current_range_meters":6000,"station_id":"ce4bgi92rcd13ifvqb90","pricing_plan_id":"cebpf4jnsgd1na2vs0mg"},{"bike_id":"5f1b41c1-e1f9-49d8-a062-521ae68d1f75","system_id":"levelo_inurba_marseille","lat":43.286896,"lon":5.379092,"is_reserved":false,"is_disabled":false,"rental_uris":{"android":"levelo://app?vid=5f1b41c1-e1f9-49d8-a062-521ae68d1f75","ios":"levelo://app?vid=5f1b41c1-e1f9-49d8-a062-521ae68d1f75"},"vehicle_type_id":"4","last_reported":1778941164,"current_range_meters":6000,"station_id":"ce4bh9p2rcd13ifvqec0","pricing_plan_id":"cebpf4jnsgd1na2vs0mg"},{"bike_id":"381f618b-1154-486d-b846-8d597099ccb8","system_id":"levelo_inurba_marseille","lat":43.23786,"lon":5.41427,"is_reserved":false,"is_disabled":false,"rental_uris":{"android":"levelo://app?vid=381f618b-1154-486d-b846-8d597099ccb8","ios":"levelo://app?vid=381f618b-1154-486d-b846-8d597099ccb8"},"vehicle_type_id":"4","last_reported":1778941164,"current_range_meters":6000,"station_id":"","pricing_plan_id":"cebpf4jnsgd1na2vs0mg"},{"bike_id":"c0afe38e-1b1f-4737-9474-5d6681e1c046","system_id":"levelo_inurba_marseille","lat":43.29889,"lon":5.42076,"is_reserved":false,"is_disabled":false,"rental_uris":{"android":"levelo://app?vid=c0afe38e-1b1f-4737-9474-5d6681e1c046","ios":"levelo://app?vid=c0afe38e-1b1f-4737-9474-5d6681e1c046"},"vehicle_type_id":"4","last_reported":1778941164,"current_range_meters":6400,"station_id":"st_d6tc004otcvc738tfe70","pricing_plan_id":"cebpf4jnsgd1na2vs0mg"},{"bike_id":"6f4d3db9-f834-453c-9572-19cafd10e808","system_id":"levelo_inurba_marseille","lat":43.28405,"lon":5.37516,"is_reserved":false,"is_disabled":false,"rental_uris":{"android":"levelo://app?vid=6f4d3db9-f834-453c-9572-19cafd10e808","ios":"levelo://app?vid=6f4d3db9-f834-453c-9572-19cafd10e808"},"vehicle_type_id":"4","last_reported":1778941164,"current_range_meters":6400,"station_id":"ce4bh412rcd13ifvqds0","pricing_plan_id":"cebpf4jnsgd1na2vs0mg"},{"bike_id":"a56a8a0c-3ab9-465a-bdae-f5897ec1f98a","system_id":"levelo_inurba_marseille","lat":43.24162,"lon":5.36405,"is_reserved":false,"is_disabled":false,"rental_uris":{"android":"levelo://app?vid=a56a8a0c-3ab9-465a-bdae-f5897ec1f98a","ios":"levelo://app?vid=a56a8a0c-3ab9-465a-bdae-f5897ec1f98a"},"vehicle_type_id":"4","last_reported":1778941164,"current_range_meters":6400,"station_id":"cpo36qri1sfpv3e86is0","pricing_plan_id":"cebpf4jnsgd1na2vs0mg"},{"bike_id":"b0efa997-e607-4be4-8208-6610f49f7de9","system_id":"levelo_inurba_marseille","lat":43.30547,"lon":5.36541,"is_reserved":false,"is_disabled":false,"rental_uris":{"android":"levelo://app?vid=b0efa997-e607-4be4-8208-6610f49f7de9","ios":"levelo://app?vid=b0efa997-e607-4be4-8208-6610f49f7de9"},"vehicle_type_id":"4","last_reported":1778941164,"current_range_meters":6400,"station_id":"ce4bgs12rcd13ifvqcag","pricing_plan_id":"cebpf4jnsgd1na2vs0mg"},{"bike_id":"e4cfd5b4-219b-4089-9b7a-10e256a7827d","system_id":"levelo_inurba_marseille","lat":43.2418,"lon":5.39729,"is_reserved":false,"is_disabled":false,"rental_uris":{"android":"levelo://app?vid=e4cfd5b4-219b-4089-9b7a-10e256a7827d","ios":"levelo://app?vid=e4cfd5b4-219b-4089-9b7a-10e256a7827d"},"vehicle_type_id":"4","last_reported":1778941164,"current_range_meters":6400,"station_id":"ce4bhn12rcd13ifvqgpg","pricing_plan_id":"cebpf4jnsgd1na2vs0mg"},{"bike_id":"a0142b08-1bf4-4410-a6f2-9d205f4e669f","system_id":"levelo_inurba_marseille","lat":43.286124,"lon":5.351029,"is_reserved":false,"is_disabled":false,"rental_uris":{"android":"levelo://app?vid=a0142b08-1bf4-4410-a6f2-9d205f4e669f","ios":"levelo://app?vid=a0142b08-1bf4-4410-a6f2-9d205f4e669f"},"vehicle_type_id":"4","last_reported":1778941164,"current_range_meters":6400,"station_id":"ce4bhch2rcd13ifvqeug","pricing_plan_id":"cebpf4jnsgd1na2vs0mg"},{"bike_id":"5c984670-181d-43d7-92ae-aef46feba2ea","system_id":"levelo_inurba_marseille","lat":43.28252,"lon":5.35065,"is_reserved":false,"is_disabled":false,"rental_uris":{"android":"levelo://app?vid=5c984670-181d-43d7-92ae-aef46feba2ea","ios":"levelo://app?vid=5c984670-181d-43d7-92ae-aef46feba2ea"},"vehicle_type_id":"4","last_reported":1778941164,"current_range_meters":6400,"station_id":"ce4bhbp2rcd13ifvqerg","pricing_plan_id":"cebpf4jnsgd1na2vs0mg"},{"bike_id":"2d2c7674-d2ca-402f-b8b0-47c4cc0178f0","system_id":"levelo_inurba_marseille","lat":43.23147,"lon":5.43718,"is_reserved":false,"is_disabled":false,"rental_uris":{"android":"levelo://app?vid=2d2c7674-d2ca-402f-b8b0-47c4cc0178f0","ios":"levelo://app?vid=2d2c7674-d2ca-402f-b8b0-47c4cc0178f0"},"vehicle_type_id":"4","last_reported":1778941164,"current_range_meters":6400,"station_id":"ce4bhmp2rcd13ifvqgog","pricing_plan_id":"cebpf4jnsgd1na2vs0mg"},{"bike_id":"c6c3ffa5-2514-4dce-9955-6dea3b87213e","system_id":"levelo_inurba_marseille","lat":43.33542,"lon":5.37472,"is_reserved":false,"is_disabled":false,"rental_uris":{"android":"levelo://app?vid=c6c3ffa5-2514-4dce-9955-6dea3b87213e","ios":"levelo://app?vid=c6c3ffa5-2514-4dce-9955-6dea3b87213e"},"vehicle_type_id":"4","last_reported":1778941164,"current_range_meters":6400,"station_id":"st_d46tts09ee8s73dlu43g","pricing_plan_id":"cebpf4jnsgd1na2vs0mg"},{"bike_id":"28e805cd-2614-43b9-a170-c5b15d14198c","system_id":"levelo_inurba_marseille","lat":43.27207,"lon":5.39185,"is_reserved":false,"is_disabled":false,"rental_uris":{"android":"levelo://app?vid=28e805cd-2614-43b9-a170-c5b15d14198c","ios":"levelo://app?vid=28e805cd-2614-43b9-a170-c5b15d14198c"},"vehicle_type_id":"4","last_reported":1778941164,"current_range_meters":6400,"station_id":"ce4bhhp2rcd13ifvqfm0","pricing_plan_id":"cebpf4jnsgd1na2vs0mg"},{"bike_id":"0e3d6e71-530b-42ba-b746-b55fa318e7af","system_id":"levelo_inurba_marseille","lat":43.28147,"lon":5.42639,"is_reserved":false,"is_disabled":false,"rental_uris":{"android":"levelo://app?vid=0e3d6e71-530b-42ba-b746-b55fa318e7af","ios":"levelo://app?vid=0e3d6e71-530b-42ba-b746-b55fa318e7af"},"vehicle_type_id":"4","last_reported":1778941164,"current_range_meters":6400,"station_id":"ce4bhnh2rcd13ifvqgug","pricing_plan_id":"cebpf4jnsgd1na2vs0mg"},{"bike_id":"e36e9ae6-760f-4d6b-b27b-2683e1da6b8e","system_id":"levelo_inurba_marseille","lat":43.31755,"lon":5.39014,"is_reserved":false,"is_disabled":false,"rental_uris":{"android":"levelo://app?vid=e36e9ae6-760f-4d6b-b27b-2683e1da6b8e","ios":"levelo://app?vid=e36e9ae6-760f-4d6b-b27b-2683e1da6b8e"},"vehicle_type_id":"4","last_reported":1778941164,"current_range_meters":6400,"station_id":"ce4bhqp2rcd13ifvqhng","pricing_plan_id":"cebpf4jnsgd1na2vs0mg"},{"bike_id":"49369e58-4684-498f-83a9-373f01b9a170","system_id":"levelo_inurba_marseille","lat":43.214165,"lon":5.349381,"is_reserved":false,"is_disabled":false,"rental_uris":{"android":"levelo://app?vid=49369e58-4684-498f-83a9-373f01b9a170","ios":"levelo://app?vid=49369e58-4684-498f-83a9-373f01b9a170"},"vehicle_type_id":"4","last_reported":1778941164,"current_range_meters":6400,"station_id":"st_cvj6sg6p6f1abm77japg","pricing_plan_id":"cebpf4jnsgd1na2vs0mg"},{"bike_id":"255a8db9-6ac5-445d-8da2-584280160595","system_id":"levelo_inurba_marseille","lat":43.2998,"lon":5.36751,"is_reserved":false,"is_disabled":false,"rental_uris":{"android":"levelo://app?vid=255a8db9-6ac5-445d-8da2-584280160595","ios":"levelo://app?vid=255a8db9-6ac5-445d-8da2-584280160595"},"vehicle_type_id":"4","last_reported":1778941164,"current_range_meters":6400,"station_id":"","pricing_plan_id":"cebpf4jnsgd1na2vs0mg"},{"bike_id":"2e88d833-d7ee-4b77-96db-bdeb868927a4","system_id":"levelo_inurba_marseille","lat":43.26034,"lon":5.37529,"is_reserved":false,"is_disabled":false,"rental_uris":{"android":"levelo://app?vid=2e88d833-d7ee-4b77-96db-bdeb868927a4","ios":"levelo://app?vid=2e88d833-d7ee-4b77-96db-bdeb868927a4"},"vehicle_type_id":"4","last_reported":1778941164,"current_range_meters":6400,"station_id":"ce4bhgh2rcd13ifvqfa0","pricing_plan_id":"cebpf4jnsgd1na2vs0mg"},{"bike_id":"11cfcfb7-7cef-4ca3-94fd-d649299b0219","system_id":"levelo_inurba_marseille","lat":43.31714,"lon":5.42416,"is_reserved":false,"is_disabled":false,"rental_uris":{"android":"levelo://app?vid=11cfcfb7-7cef-4ca3-94fd-d649299b0219","ios":"levelo://app?vid=11cfcfb7-7cef-4ca3-94fd-d649299b0219"},"vehicle_type_id":"4","last_reported":1778941164,"current_range_meters":6400,"station_id":"ce4bhp92rcd13ifvqhbg","pricing_plan_id":"cebpf4jnsgd1na2vs0mg"},{"bike_id":"e0ce2f37-052e-484f-8e3c-c297b98b6f87","system_id":"levelo_inurba_marseille","lat":43.30162,"lon":5.38078,"is_reserved":false,"is_disabled":false,"rental_uris":{"android":"levelo://app?vid=e0ce2f37-052e-484f-8e3c-c297b98b6f87","ios":"levelo://app?vid=e0ce2f37-052e-484f-8e3c-c297b98b6f87"},"vehicle_type_id":"4","last_reported":1778941164,"current_range_meters":6400,"station_id":"ce4bgjp2rcd13ifvqbh0","pricing_plan_id":"cebpf4jnsgd1na2vs0mg"},{"bike_id":"886d0d03-5995-4785-9e96-e63eaeddaf0b","system_id":"levelo_inurba_marseille","lat":43.3009,"lon":5.39084,"is_reserved":false,"is_disabled":false,"rental_uris":{"android":"levelo://app?vid=886d0d03-5995-4785-9e96-e63eaeddaf0b","ios":"levelo://app?vid=886d0d03-5995-4785-9e96-e63eaeddaf0b"},"vehicle_type_id":"4","last_reported":1778941164,"current_range_meters":6800,"station_id":"ce4bh192rcd13ifvqdb0","pricing_plan_id":"cebpf4jnsgd1na2vs0mg"},{"bike_id":"dbf94776-63a1-426f-85ae-41abd5903310","system_id":"levelo_inurba_marseille","lat":43.30956,"lon":5.37653,"is_reserved":false,"is_disabled":false,"rental_uris":{"android":"levelo://app?vid=dbf94776-63a1-426f-85ae-41abd5903310","ios":"levelo://app?vid=dbf94776-63a1-426f-85ae-41abd5903310"},"vehicle_type_id":"4","last_reported":1778941164,"current_range_meters":6800,"station_id":"","pricing_plan_id":"cebpf4jnsgd1na2vs0mg"},{"bike_id":"74f12a6d-7a94-4ce3-8725-e3fbbe23ae70","system_id":"levelo_inurba_marseille","lat":43.33574,"lon":5.37481,"is_reserved":false,"is_disabled":false,"rental_uris":{"android":"levelo://app?vid=74f12a6d-7a94-4ce3-8725-e3fbbe23ae70","ios":"levelo://app?vid=74f12a6d-7a94-4ce3-8725-e3fbbe23ae70"},"vehicle_type_id":"4","last_reported":1778941164,"current_range_meters":6800,"station_id":"st_d46tts09ee8s73dlu43g","pricing_plan_id":"cebpf4jnsgd1na2vs0mg"},{"bike_id":"da1ef0d8-3b04-4991-a315-f649267bb65d","system_id":"levelo_inurba_marseille","lat":43.25817,"lon":5.39435,"is_reserved":false,"is_disabled":false,"rental_uris":{"android":"levelo://app?vid=da1ef0d8-3b04-4991-a315-f649267bb65d","ios":"levelo://app?vid=da1ef0d8-3b04-4991-a315-f649267bb65d"},"vehicle_type_id":"4","last_reported":1778941164,"current_range_meters":6800,"station_id":"ce4bhip2rcd13ifvqft0","pricing_plan_id":"cebpf4jnsgd1na2vs0mg"},{"bike_id":"9d9da9b1-62c5-4232-8888-7d36c96bb153","system_id":"levelo_inurba_marseille","lat":43.27486,"lon":5.4157,"is_reserved":false,"is_disabled":false,"rental_uris":{"android":"levelo://app?vid=9d9da9b1-62c5-4232-8888-7d36c96bb153","ios":"levelo://app?vid=9d9da9b1-62c5-4232-8888-7d36c96bb153"},"vehicle_type_id":"4","last_reported":1778941164,"current_range_meters":6800,"station_id":"st_d6im8g6chgec73a5pndg","pricing_plan_id":"cebpf4jnsgd1na2vs0mg"},{"bike_id":"9328df09-7c77-4ef9-a326-cd1cda9dd29d","system_id":"levelo_inurba_marseille","lat":43.30806,"lon":5.38534,"is_reserved":false,"is_disabled":false,"rental_uris":{"android":"levelo://app?vid=9328df09-7c77-4ef9-a326-cd1cda9dd29d","ios":"levelo://app?vid=9328df09-7c77-4ef9-a326-cd1cda9dd29d"},"vehicle_type_id":"4","last_reported":1778941164,"current_range_meters":6800,"station_id":"","pricing_plan_id":"cebpf4jnsgd1na2vs0mg"},{"bike_id":"015aad6e-f7c0-4598-9ad7-38c4d3fee62c","system_id":"levelo_inurba_marseille","lat":43.28618,"lon":5.35108,"is_reserved":false,"is_disabled":false,"rental_uris":{"android":"levelo://app?vid=015aad6e-f7c0-4598-9ad7-38c4d3fee62c","ios":"levelo://app?vid=015aad6e-f7c0-4598-9ad7-38c4d3fee62c"},"vehicle_type_id":"4","last_reported":1778941164,"current_range_meters":6800,"station_id":"ce4bhch2rcd13ifvqeug","pricing_plan_id":"cebpf4jnsgd1na2vs0mg"},{"bike_id":"4d31ed6e-13e0-4959-aa6c-cce6ffc3f7ff","system_id":"levelo_inurba_marseille","lat":43.2746,"lon":5.41606,"is_reserved":false,"is_disabled":false,"rental_uris":{"android":"levelo://app?vid=4d31ed6e-13e0-4959-aa6c-cce6ffc3f7ff","ios":"levelo://app?vid=4d31ed6e-13e0-4959-aa6c-cce6ffc3f7ff"},"vehicle_type_id":"4","last_reported":1778941164,"current_range_meters":6800,"station_id":"","pricing_plan_id":"cebpf4jnsgd1na2vs0mg"},{"bike_id":"b9fc383d-7675-4ac1-96a8-b14863e064c9","system_id":"levelo_inurba_marseille","lat":43.31312,"lon":5.37269,"is_reserved":false,"is_disabled":false,"rental_uris":{"android":"levelo://app?vid=b9fc383d-7675-4ac1-96a8-b14863e064c9","ios":"levelo://app?vid=b9fc383d-7675-4ac1-96a8-b14863e064c9"},"vehicle_type_id":"4","last_reported":1778941164,"current_range_meters":6800,"station_id":"","pricing_plan_id":"cebpf4jnsgd1na2vs0mg"},{"bike_id":"e191454c-916c-4e6d-bb9a-b71fe6d913bf","system_id":"levelo_inurba_marseille","lat":43.23197,"lon":5.35564,"is_reserved":false,"is_disabled":false,"rental_uris":{"android":"levelo://app?vid=e191454c-916c-4e6d-bb9a-b71fe6d913bf","ios":"levelo://app?vid=e191454c-916c-4e6d-bb9a-b71fe6d913bf"},"vehicle_type_id":"4","last_reported":1778941164,"current_range_meters":6800,"station_id":"ce4bhu92rcd13ifvqi70","pricing_plan_id":"cebpf4jnsgd1na2vs0mg"},{"bike_id":"b307ebcf-a623-4ce8-bd6b-ce1a3ee616ac","system_id":"levelo_inurba_marseille","lat":43.25068,"lon":5.39485,"is_reserved":false,"is_disabled":false,"rental_uris":{"android":"levelo://app?vid=b307ebcf-a623-4ce8-bd6b-ce1a3ee616ac","ios":"levelo://app?vid=b307ebcf-a623-4ce8-bd6b-ce1a3ee616ac"},"vehicle_type_id":"4","last_reported":1778941164,"current_range_meters":6800,"station_id":"ce4bhm12rcd13ifvqgkg","pricing_plan_id":"cebpf4jnsgd1na2vs0mg"},{"bike_id":"810ef53a-5aff-49f3-99db-34213da1b1cf","system_id":"levelo_inurba_marseille","lat":43.28711,"lon":5.46786,"is_reserved":false,"is_disabled":false,"rental_uris":{"android":"levelo://app?vid=810ef53a-5aff-49f3-99db-34213da1b1cf","ios":"levelo://app?vid=810ef53a-5aff-49f3-99db-34213da1b1cf"},"vehicle_type_id":"4","last_reported":1778941164,"current_range_meters":6800,"station_id":"st_d6tc3vkotcvc738tfjhg","pricing_plan_id":"cebpf4jnsgd1na2vs0mg"},{"bike_id":"5b61ad3d-c4b3-4bf0-9170-da55ed29dbbb","system_id":"levelo_inurba_marseille","lat":43.30788,"lon":5.39331,"is_reserved":false,"is_disabled":false,"rental_uris":{"android":"levelo://app?vid=5b61ad3d-c4b3-4bf0-9170-da55ed29dbbb","ios":"levelo://app?vid=5b61ad3d-c4b3-4bf0-9170-da55ed29dbbb"},"vehicle_type_id":"4","last_reported":1778941164,"current_range_meters":6800,"station_id":"","pricing_plan_id":"cebpf4jnsgd1na2vs0mg"},{"bike_id":"61e5287a-43e9-4282-a973-bcefe063a8e6","system_id":"levelo_inurba_marseille","lat":43.21758,"lon":5.34659,"is_reserved":false,"is_disabled":false,"rental_uris":{"android":"levelo://app?vid=61e5287a-43e9-4282-a973-bcefe063a8e6","ios":"levelo://app?vid=61e5287a-43e9-4282-a973-bcefe063a8e6"},"vehicle_type_id":"4","last_reported":1778941164,"current_range_meters":6800,"station_id":"","pricing_plan_id":"cebpf4jnsgd1na2vs0mg"},{"bike_id":"b645593d-f67c-4f1b-b9f9-f8e1b08f24ee","system_id":"levelo_inurba_marseille","lat":43.25078,"lon":5.41357,"is_reserved":false,"is_disabled":false,"rental_uris":{"android":"levelo://app?vid=b645593d-f67c-4f1b-b9f9-f8e1b08f24ee","ios":"levelo://app?vid=b645593d-f67c-4f1b-b9f9-f8e1b08f24ee"},"vehicle_type_id":"4","last_reported":1778941164,"current_range_meters":6800,"station_id":"","pricing_plan_id":"cebpf4jnsgd1na2vs0mg"},{"bike_id":"dc437964-578c-4f7a-be1e-9a5b7abec9f5","system_id":"levelo_inurba_marseille","lat":43.24506,"lon":5.37584,"is_reserved":false,"is_disabled":false,"rental_uris":{"android":"levelo://app?vid=dc437964-578c-4f7a-be1e-9a5b7abec9f5","ios":"levelo://app?vid=dc437964-578c-4f7a-be1e-9a5b7abec9f5"},"vehicle_type_id":"4","last_reported":1778941164,"current_range_meters":6800,"station_id":"","pricing_plan_id":"cebpf4jnsgd1na2vs0mg"},{"bike_id":"559d1e2a-3378-464a-bb49-bac80a61d607","system_id":"levelo_inurba_marseille","lat":43.24471,"lon":5.42539,"is_reserved":false,"is_disabled":false,"rental_uris":{"android":"levelo://app?vid=559d1e2a-3378-464a-bb49-bac80a61d607","ios":"levelo://app?vid=559d1e2a-3378-464a-bb49-bac80a61d607"},"vehicle_type_id":"4","last_reported":1778941164,"current_range_meters":6800,"station_id":"st_d4a3vfp97mjs738cd8kg","pricing_plan_id":"cebpf4jnsgd1na2vs0mg"},{"bike_id":"489a1706-c3ea-4b0e-8e98-c2ee70717ba8","system_id":"levelo_inurba_marseille","lat":43.22558,"lon":5.41641,"is_reserved":false,"is_disabled":false,"rental_uris":{"android":"levelo://app?vid=489a1706-c3ea-4b0e-8e98-c2ee70717ba8","ios":"levelo://app?vid=489a1706-c3ea-4b0e-8e98-c2ee70717ba8"},"vehicle_type_id":"4","last_reported":1778941164,"current_range_meters":6800,"station_id":"st_d2o4gvlbi1j2169b742g","pricing_plan_id":"cebpf4jnsgd1na2vs0mg"},{"bike_id":"4ec959dd-1de1-448f-b442-aa2685dcb0b4","system_id":"levelo_inurba_marseille","lat":43.31264,"lon":5.36839,"is_reserved":false,"is_disabled":false,"rental_uris":{"android":"levelo://app?vid=4ec959dd-1de1-448f-b442-aa2685dcb0b4","ios":"levelo://app?vid=4ec959dd-1de1-448f-b442-aa2685dcb0b4"},"vehicle_type_id":"4","last_reported":1778941164,"current_range_meters":6800,"station_id":"ce4bgl92rcd13ifvqbq0","pricing_plan_id":"cebpf4jnsgd1na2vs0mg"},{"bike_id":"6b791691-fed6-4d51-ac63-7e452c035ada","system_id":"levelo_inurba_marseille","lat":43.24164,"lon":5.36403,"is_reserved":false,"is_disabled":false,"rental_uris":{"android":"levelo://app?vid=6b791691-fed6-4d51-ac63-7e452c035ada","ios":"levelo://app?vid=6b791691-fed6-4d51-ac63-7e452c035ada"},"vehicle_type_id":"4","last_reported":1778941164,"current_range_meters":6800,"station_id":"cpo36qri1sfpv3e86is0","pricing_plan_id":"cebpf4jnsgd1na2vs0mg"},{"bike_id":"6eb70678-e4de-48b2-9bcf-c2743dfd747c","system_id":"levelo_inurba_marseille","lat":43.23148,"lon":5.43717,"is_reserved":false,"is_disabled":false,"rental_uris":{"android":"levelo://app?vid=6eb70678-e4de-48b2-9bcf-c2743dfd747c","ios":"levelo://app?vid=6eb70678-e4de-48b2-9bcf-c2743dfd747c"},"vehicle_type_id":"4","last_reported":1778941164,"current_range_meters":6800,"station_id":"ce4bhmp2rcd13ifvqgog","pricing_plan_id":"cebpf4jnsgd1na2vs0mg"},{"bike_id":"659fb7a5-acda-4bf0-b4d5-df0d7201ad7c","system_id":"levelo_inurba_marseille","lat":43.28702,"lon":5.46679,"is_reserved":false,"is_disabled":false,"rental_uris":{"android":"levelo://app?vid=659fb7a5-acda-4bf0-b4d5-df0d7201ad7c","ios":"levelo://app?vid=659fb7a5-acda-4bf0-b4d5-df0d7201ad7c"},"vehicle_type_id":"4","last_reported":1778941164,"current_range_meters":6800,"station_id":"st_d6tc3vkotcvc738tfjhg","pricing_plan_id":"cebpf4jnsgd1na2vs0mg"},{"bike_id":"b6f3cf60-f34d-4b8c-904e-641c3ed8726a","system_id":"levelo_inurba_marseille","lat":43.29716,"lon":5.36623,"is_reserved":false,"is_disabled":false,"rental_uris":{"android":"levelo://app?vid=b6f3cf60-f34d-4b8c-904e-641c3ed8726a","ios":"levelo://app?vid=b6f3cf60-f34d-4b8c-904e-641c3ed8726a"},"vehicle_type_id":"4","last_reported":1778941164,"current_range_meters":6800,"station_id":"ce4bgn12rcd13ifvqbt0","pricing_plan_id":"cebpf4jnsgd1na2vs0mg"},{"bike_id":"3a4f4877-6366-4cf4-82d1-f835cd4c4b50","system_id":"levelo_inurba_marseille","lat":43.23151,"lon":5.43715,"is_reserved":false,"is_disabled":false,"rental_uris":{"android":"levelo://app?vid=3a4f4877-6366-4cf4-82d1-f835cd4c4b50","ios":"levelo://app?vid=3a4f4877-6366-4cf4-82d1-f835cd4c4b50"},"vehicle_type_id":"4","last_reported":1778941164,"current_range_meters":6800,"station_id":"ce4bhmp2rcd13ifvqgog","pricing_plan_id":"cebpf4jnsgd1na2vs0mg"},{"bike_id":"6e0cfe3a-6c46-40d1-9229-65e1f188fd3b","system_id":"levelo_inurba_marseille","lat":43.23148,"lon":5.43729,"is_reserved":false,"is_disabled":false,"rental_uris":{"android":"levelo://app?vid=6e0cfe3a-6c46-40d1-9229-65e1f188fd3b","ios":"levelo://app?vid=6e0cfe3a-6c46-40d1-9229-65e1f188fd3b"},"vehicle_type_id":"4","last_reported":1778941164,"current_range_meters":6800,"station_id":"ce4bhmp2rcd13ifvqgog","pricing_plan_id":"cebpf4jnsgd1na2vs0mg"},{"bike_id":"efcd717d-80fb-432a-9ab0-ee838faf2206","system_id":"levelo_inurba_marseille","lat":43.29246,"lon":5.3685,"is_reserved":false,"is_disabled":false,"rental_uris":{"android":"levelo://app?vid=efcd717d-80fb-432a-9ab0-ee838faf2206","ios":"levelo://app?vid=efcd717d-80fb-432a-9ab0-ee838faf2206"},"vehicle_type_id":"4","last_reported":1778941164,"current_range_meters":6800,"station_id":"ce4bhbp2rcd13ifvqesg","pricing_plan_id":"cebpf4jnsgd1na2vs0mg"},{"bike_id":"25d874e2-4fb0-465d-875a-02b69a82441a","system_id":"levelo_inurba_marseille","lat":43.24834,"lon":5.37471,"is_reserved":false,"is_disabled":false,"rental_uris":{"android":"levelo://app?vid=25d874e2-4fb0-465d-875a-02b69a82441a","ios":"levelo://app?vid=25d874e2-4fb0-465d-875a-02b69a82441a"},"vehicle_type_id":"4","last_reported":1778941164,"current_range_meters":6800,"station_id":"","pricing_plan_id":"cebpf4jnsgd1na2vs0mg"},{"bike_id":"b467cf52-e84d-42b9-ad71-bed97235ec79","system_id":"levelo_inurba_marseille","lat":43.29745,"lon":5.37713,"is_reserved":false,"is_disabled":false,"rental_uris":{"android":"levelo://app?vid=b467cf52-e84d-42b9-ad71-bed97235ec79","ios":"levelo://app?vid=b467cf52-e84d-42b9-ad71-bed97235ec79"},"vehicle_type_id":"4","last_reported":1778941164,"current_range_meters":7200,"station_id":"ce4bgkh2rcd13ifvqbl0","pricing_plan_id":"cebpf4jnsgd1na2vs0mg"},{"bike_id":"04b6c5da-c634-4391-aa45-903d01a6e76e","system_id":"levelo_inurba_marseille","lat":43.29968,"lon":5.38477,"is_reserved":false,"is_disabled":false,"rental_uris":{"android":"levelo://app?vid=04b6c5da-c634-4391-aa45-903d01a6e76e","ios":"levelo://app?vid=04b6c5da-c634-4391-aa45-903d01a6e76e"},"vehicle_type_id":"4","last_reported":1778941164,"current_range_meters":7200,"station_id":"ce4bgj92rcd13ifvqbd0","pricing_plan_id":"cebpf4jnsgd1na2vs0mg"},{"bike_id":"b3d3f46d-8b61-4048-a49d-46db42a99359","system_id":"levelo_inurba_marseille","lat":43.2481,"lon":5.37461,"is_reserved":false,"is_disabled":false,"rental_uris":{"android":"levelo://app?vid=b3d3f46d-8b61-4048-a49d-46db42a99359","ios":"levelo://app?vid=b3d3f46d-8b61-4048-a49d-46db42a99359"},"vehicle_type_id":"4","last_reported":1778941164,"current_range_meters":7200,"station_id":"ce4bhgh2rcd13ifvqfb0","pricing_plan_id":"cebpf4jnsgd1na2vs0mg"},{"bike_id":"2c41d442-fdf6-469c-86b1-a7c33314878f","system_id":"levelo_inurba_marseille","lat":43.30409,"lon":5.41033,"is_reserved":false,"is_disabled":false,"rental_uris":{"android":"levelo://app?vid=2c41d442-fdf6-469c-86b1-a7c33314878f","ios":"levelo://app?vid=2c41d442-fdf6-469c-86b1-a7c33314878f"},"vehicle_type_id":"4","last_reported":1778941164,"current_range_meters":7200,"station_id":"","pricing_plan_id":"cebpf4jnsgd1na2vs0mg"},{"bike_id":"1124e8ed-181a-445d-9220-36e963831e6c","system_id":"levelo_inurba_marseille","lat":43.23895,"lon":5.37473,"is_reserved":false,"is_disabled":true,"rental_uris":{"android":"levelo://app?vid=1124e8ed-181a-445d-9220-36e963831e6c","ios":"levelo://app?vid=1124e8ed-181a-445d-9220-36e963831e6c"},"vehicle_type_id":"4","last_reported":1778941164,"current_range_meters":7200,"station_id":"st_d6sm7csbq4hs73f8fpjg","pricing_plan_id":"cebpf4jnsgd1na2vs0mg"},{"bike_id":"b578d826-2ed5-4201-8189-ed92923ab8b1","system_id":"levelo_inurba_marseille","lat":43.305999,"lon":5.372266,"is_reserved":false,"is_disabled":false,"rental_uris":{"android":"levelo://app?vid=b578d826-2ed5-4201-8189-ed92923ab8b1","ios":"levelo://app?vid=b578d826-2ed5-4201-8189-ed92923ab8b1"},"vehicle_type_id":"4","last_reported":1778941164,"current_range_meters":7200,"station_id":"ce4bgqh2rcd13ifvqc4g","pricing_plan_id":"cebpf4jnsgd1na2vs0mg"},{"bike_id":"dca08c5c-65aa-4be5-b882-b94870c8a90e","system_id":"levelo_inurba_marseille","lat":43.3042,"lon":5.41286,"is_reserved":false,"is_disabled":true,"rental_uris":{"android":"levelo://app?vid=dca08c5c-65aa-4be5-b882-b94870c8a90e","ios":"levelo://app?vid=dca08c5c-65aa-4be5-b882-b94870c8a90e"},"vehicle_type_id":"4","last_reported":1778941164,"current_range_meters":7200,"station_id":"ce4bhop2rcd13ifvqh8g","pricing_plan_id":"cebpf4jnsgd1na2vs0mg"},{"bike_id":"d7af0655-5d55-4863-a9c3-6b377ace8cac","system_id":"levelo_inurba_marseille","lat":43.23962,"lon":5.36637,"is_reserved":false,"is_disabled":false,"rental_uris":{"android":"levelo://app?vid=d7af0655-5d55-4863-a9c3-6b377ace8cac","ios":"levelo://app?vid=d7af0655-5d55-4863-a9c3-6b377ace8cac"},"vehicle_type_id":"4","last_reported":1778941164,"current_range_meters":7200,"station_id":"ce4bhi12rcd13ifvqfp0","pricing_plan_id":"cebpf4jnsgd1na2vs0mg"},{"bike_id":"73ca1c11-10fa-4ed7-901a-81da484f15b3","system_id":"levelo_inurba_marseille","lat":43.28275,"lon":5.35077,"is_reserved":false,"is_disabled":false,"rental_uris":{"android":"levelo://app?vid=73ca1c11-10fa-4ed7-901a-81da484f15b3","ios":"levelo://app?vid=73ca1c11-10fa-4ed7-901a-81da484f15b3"},"vehicle_type_id":"4","last_reported":1778941164,"current_range_meters":7200,"station_id":"ce4bhbp2rcd13ifvqerg","pricing_plan_id":"cebpf4jnsgd1na2vs0mg"},{"bike_id":"275452fa-49c7-4ee3-b3e6-44621052e7fd","system_id":"levelo_inurba_marseille","lat":43.28405,"lon":5.35026,"is_reserved":false,"is_disabled":false,"rental_uris":{"android":"levelo://app?vid=275452fa-49c7-4ee3-b3e6-44621052e7fd","ios":"levelo://app?vid=275452fa-49c7-4ee3-b3e6-44621052e7fd"},"vehicle_type_id":"4","last_reported":1778941164,"current_range_meters":7200,"station_id":"ce4bhbh2rcd13ifvqepg","pricing_plan_id":"cebpf4jnsgd1na2vs0mg"},{"bike_id":"b5700011-a486-4e56-b8fb-207aaf85d4db","system_id":"levelo_inurba_marseille","lat":43.31911,"lon":5.36824,"is_reserved":false,"is_disabled":false,"rental_uris":{"android":"levelo://app?vid=b5700011-a486-4e56-b8fb-207aaf85d4db","ios":"levelo://app?vid=b5700011-a486-4e56-b8fb-207aaf85d4db"},"vehicle_type_id":"4","last_reported":1778941164,"current_range_meters":7200,"station_id":"st_d6o2h0d0559c73evc1b0","pricing_plan_id":"cebpf4jnsgd1na2vs0mg"},{"bike_id":"d1f3b13b-a61c-41fc-b986-79acc9b16fe8","system_id":"levelo_inurba_marseille","lat":43.28534,"lon":5.44096,"is_reserved":false,"is_disabled":false,"rental_uris":{"android":"levelo://app?vid=d1f3b13b-a61c-41fc-b986-79acc9b16fe8","ios":"levelo://app?vid=d1f3b13b-a61c-41fc-b986-79acc9b16fe8"},"vehicle_type_id":"4","last_reported":1778941164,"current_range_meters":7200,"station_id":"st_d3j3df2ikq2c7380ej80","pricing_plan_id":"cebpf4jnsgd1na2vs0mg"},{"bike_id":"ee15264c-c5fd-4c69-a06f-329fd6fb9d0d","system_id":"levelo_inurba_marseille","lat":43.30127,"lon":5.43118,"is_reserved":false,"is_disabled":false,"rental_uris":{"android":"levelo://app?vid=ee15264c-c5fd-4c69-a06f-329fd6fb9d0d","ios":"levelo://app?vid=ee15264c-c5fd-4c69-a06f-329fd6fb9d0d"},"vehicle_type_id":"4","last_reported":1778941164,"current_range_meters":7200,"station_id":"st_d3js3co5814s73ftftug","pricing_plan_id":"cebpf4jnsgd1na2vs0mg"},{"bike_id":"698b85c5-bf11-437e-913f-7d2243a0f74a","system_id":"levelo_inurba_marseille","lat":43.26226,"lon":5.3755,"is_reserved":false,"is_disabled":false,"rental_uris":{"android":"levelo://app?vid=698b85c5-bf11-437e-913f-7d2243a0f74a","ios":"levelo://app?vid=698b85c5-bf11-437e-913f-7d2243a0f74a"},"vehicle_type_id":"4","last_reported":1778941164,"current_range_meters":7200,"station_id":"","pricing_plan_id":"cebpf4jnsgd1na2vs0mg"},{"bike_id":"ed98d167-3849-4c68-bef9-bd5eb7c8a84f","system_id":"levelo_inurba_marseille","lat":43.30913,"lon":5.40105,"is_reserved":false,"is_disabled":false,"rental_uris":{"android":"levelo://app?vid=ed98d167-3849-4c68-bef9-bd5eb7c8a84f","ios":"levelo://app?vid=ed98d167-3849-4c68-bef9-bd5eb7c8a84f"},"vehicle_type_id":"4","last_reported":1778941164,"current_range_meters":7200,"station_id":"ce4bgvp2rcd13ifvqct0","pricing_plan_id":"cebpf4jnsgd1na2vs0mg"},{"bike_id":"34a502da-3e43-4d01-b52f-6a9c9dba0878","system_id":"levelo_inurba_marseille","lat":43.29525,"lon":5.38532,"is_reserved":false,"is_disabled":false,"rental_uris":{"android":"levelo://app?vid=34a502da-3e43-4d01-b52f-6a9c9dba0878","ios":"levelo://app?vid=34a502da-3e43-4d01-b52f-6a9c9dba0878"},"vehicle_type_id":"4","last_reported":1778941164,"current_range_meters":7200,"station_id":"ce4bgih2rcd13ifvqba0","pricing_plan_id":"cebpf4jnsgd1na2vs0mg"},{"bike_id":"b609bd99-0408-43a0-9a9d-8206ba067457","system_id":"levelo_inurba_marseille","lat":43.29936,"lon":5.36515,"is_reserved":false,"is_disabled":false,"rental_uris":{"android":"levelo://app?vid=b609bd99-0408-43a0-9a9d-8206ba067457","ios":"levelo://app?vid=b609bd99-0408-43a0-9a9d-8206ba067457"},"vehicle_type_id":"4","last_reported":1778941164,"current_range_meters":8000,"station_id":"ce4bgm92rcd13ifvqbr0","pricing_plan_id":"cebpf4jnsgd1na2vs0mg"},{"bike_id":"7adb61f1-94d1-417c-bc4b-134075ae5ae6","system_id":"levelo_inurba_marseille","lat":43.32481,"lon":5.36581,"is_reserved":false,"is_disabled":false,"rental_uris":{"android":"levelo://app?vid=7adb61f1-94d1-417c-bc4b-134075ae5ae6","ios":"levelo://app?vid=7adb61f1-94d1-417c-bc4b-134075ae5ae6"},"vehicle_type_id":"4","last_reported":1778941164,"current_range_meters":8000,"station_id":"ce4bhs12rcd13ifvqhvg","pricing_plan_id":"cebpf4jnsgd1na2vs0mg"},{"bike_id":"2afb1c43-c4ae-4dbf-a94b-bbd6e75c31b0","system_id":"levelo_inurba_marseille","lat":43.29697,"lon":5.3761,"is_reserved":false,"is_disabled":false,"rental_uris":{"android":"levelo://app?vid=2afb1c43-c4ae-4dbf-a94b-bbd6e75c31b0","ios":"levelo://app?vid=2afb1c43-c4ae-4dbf-a94b-bbd6e75c31b0"},"vehicle_type_id":"4","last_reported":1778941164,"current_range_meters":8000,"station_id":"","pricing_plan_id":"cebpf4jnsgd1na2vs0mg"},{"bike_id":"4098dc24-1687-4bf4-bf34-a5a5cfed27be","system_id":"levelo_inurba_marseille","lat":43.2501,"lon":5.3892,"is_reserved":false,"is_disabled":false,"rental_uris":{"android":"levelo://app?vid=4098dc24-1687-4bf4-bf34-a5a5cfed27be","ios":"levelo://app?vid=4098dc24-1687-4bf4-bf34-a5a5cfed27be"},"vehicle_type_id":"4","last_reported":1778941164,"current_range_meters":8000,"station_id":"ce4bhgp2rcd13ifvqfd0","pricing_plan_id":"cebpf4jnsgd1na2vs0mg"},{"bike_id":"9bd7592d-d34d-48b9-961a-b7d604deb399","system_id":"levelo_inurba_marseille","lat":43.29749,"lon":5.37691,"is_reserved":false,"is_disabled":false,"rental_uris":{"android":"levelo://app?vid=9bd7592d-d34d-48b9-961a-b7d604deb399","ios":"levelo://app?vid=9bd7592d-d34d-48b9-961a-b7d604deb399"},"vehicle_type_id":"4","last_reported":1778941164,"current_range_meters":8000,"station_id":"ce4bgkh2rcd13ifvqbl0","pricing_plan_id":"cebpf4jnsgd1na2vs0mg"},{"bike_id":"616353f1-4754-4f57-9465-e46d49d24354","system_id":"levelo_inurba_marseille","lat":43.33628,"lon":5.36295,"is_reserved":false,"is_disabled":false,"rental_uris":{"android":"levelo://app?vid=616353f1-4754-4f57-9465-e46d49d24354","ios":"levelo://app?vid=616353f1-4754-4f57-9465-e46d49d24354"},"vehicle_type_id":"4","last_reported":1778941164,"current_range_meters":8000,"station_id":"","pricing_plan_id":"cebpf4jnsgd1na2vs0mg"},{"bike_id":"6d719681-556e-401a-b44a-d8e8d38e7b46","system_id":"levelo_inurba_marseille","lat":43.26208,"lon":5.37443,"is_reserved":false,"is_disabled":false,"rental_uris":{"android":"levelo://app?vid=6d719681-556e-401a-b44a-d8e8d38e7b46","ios":"levelo://app?vid=6d719681-556e-401a-b44a-d8e8d38e7b46"},"vehicle_type_id":"4","last_reported":1778941164,"current_range_meters":8000,"station_id":"ce4bhgp2rcd13ifvqfc0","pricing_plan_id":"cebpf4jnsgd1na2vs0mg"},{"bike_id":"95d4bd31-b89c-4cb2-afa3-9e6e4ba15e30","system_id":"levelo_inurba_marseille","lat":43.25498,"lon":5.37657,"is_reserved":false,"is_disabled":false,"rental_uris":{"android":"levelo://app?vid=95d4bd31-b89c-4cb2-afa3-9e6e4ba15e30","ios":"levelo://app?vid=95d4bd31-b89c-4cb2-afa3-9e6e4ba15e30"},"vehicle_type_id":"4","last_reported":1778941164,"current_range_meters":8000,"station_id":"ce4bhh12rcd13ifvqff0","pricing_plan_id":"cebpf4jnsgd1na2vs0mg"},{"bike_id":"ef20a65f-19f4-4491-8360-61efaea0f2fe","system_id":"levelo_inurba_marseille","lat":43.27672,"lon":5.41392,"is_reserved":false,"is_disabled":false,"rental_uris":{"android":"levelo://app?vid=ef20a65f-19f4-4491-8360-61efaea0f2fe","ios":"levelo://app?vid=ef20a65f-19f4-4491-8360-61efaea0f2fe"},"vehicle_type_id":"4","last_reported":1778941164,"current_range_meters":8000,"station_id":"","pricing_plan_id":"cebpf4jnsgd1na2vs0mg"},{"bike_id":"7b1dec29-4a90-4c62-a15c-7321693f7cdf","system_id":"levelo_inurba_marseille","lat":43.21748,"lon":5.34605,"is_reserved":false,"is_disabled":false,"rental_uris":{"android":"levelo://app?vid=7b1dec29-4a90-4c62-a15c-7321693f7cdf","ios":"levelo://app?vid=7b1dec29-4a90-4c62-a15c-7321693f7cdf"},"vehicle_type_id":"4","last_reported":1778941164,"current_range_meters":8000,"station_id":"st_cvj6r9ubvosntc0bgbag","pricing_plan_id":"cebpf4jnsgd1na2vs0mg"},{"bike_id":"ae6a3907-35bb-4fcb-9e72-0c51dd7d59b3","system_id":"levelo_inurba_marseille","lat":43.272057,"lon":5.391841,"is_reserved":false,"is_disabled":false,"rental_uris":{"android":"levelo://app?vid=ae6a3907-35bb-4fcb-9e72-0c51dd7d59b3","ios":"levelo://app?vid=ae6a3907-35bb-4fcb-9e72-0c51dd7d59b3"},"vehicle_type_id":"4","last_reported":1778941164,"current_range_meters":8000,"station_id":"ce4bhhp2rcd13ifvqfm0","pricing_plan_id":"cebpf4jnsgd1na2vs0mg"},{"bike_id":"d6fdd6bb-ceee-4844-8d90-3e692ab759a5","system_id":"levelo_inurba_marseille","lat":43.2757,"lon":5.38422,"is_reserved":false,"is_disabled":false,"rental_uris":{"android":"levelo://app?vid=d6fdd6bb-ceee-4844-8d90-3e692ab759a5","ios":"levelo://app?vid=d6fdd6bb-ceee-4844-8d90-3e692ab759a5"},"vehicle_type_id":"4","last_reported":1778941164,"current_range_meters":8000,"station_id":"ce4bhh92rcd13ifvqfi0","pricing_plan_id":"cebpf4jnsgd1na2vs0mg"},{"bike_id":"4ee69d41-30d6-469e-829a-74d2ce79aff4","system_id":"levelo_inurba_marseille","lat":43.33574,"lon":5.37501,"is_reserved":false,"is_disabled":false,"rental_uris":{"android":"levelo://app?vid=4ee69d41-30d6-469e-829a-74d2ce79aff4","ios":"levelo://app?vid=4ee69d41-30d6-469e-829a-74d2ce79aff4"},"vehicle_type_id":"4","last_reported":1778941164,"current_range_meters":8000,"station_id":"st_d46tts09ee8s73dlu43g","pricing_plan_id":"cebpf4jnsgd1na2vs0mg"},{"bike_id":"934f1e1a-454b-4248-a848-802a9ff33fb2","system_id":"levelo_inurba_marseille","lat":43.21198,"lon":5.35073,"is_reserved":false,"is_disabled":false,"rental_uris":{"android":"levelo://app?vid=934f1e1a-454b-4248-a848-802a9ff33fb2","ios":"levelo://app?vid=934f1e1a-454b-4248-a848-802a9ff33fb2"},"vehicle_type_id":"4","last_reported":1778941164,"current_range_meters":8000,"station_id":"st_cvj6sg6p6f1abm77japg","pricing_plan_id":"cebpf4jnsgd1na2vs0mg"},{"bike_id":"9a293556-a470-4ba2-9f0d-b6e0856faf50","system_id":"levelo_inurba_marseille","lat":43.23199,"lon":5.35548,"is_reserved":false,"is_disabled":false,"rental_uris":{"android":"levelo://app?vid=9a293556-a470-4ba2-9f0d-b6e0856faf50","ios":"levelo://app?vid=9a293556-a470-4ba2-9f0d-b6e0856faf50"},"vehicle_type_id":"4","last_reported":1778941164,"current_range_meters":8000,"station_id":"ce4bhu92rcd13ifvqi70","pricing_plan_id":"cebpf4jnsgd1na2vs0mg"},{"bike_id":"edd5c786-8d24-46bc-bdcd-f0f00a11c1c1","system_id":"levelo_inurba_marseille","lat":43.25513,"lon":5.37654,"is_reserved":false,"is_disabled":true,"rental_uris":{"android":"levelo://app?vid=edd5c786-8d24-46bc-bdcd-f0f00a11c1c1","ios":"levelo://app?vid=edd5c786-8d24-46bc-bdcd-f0f00a11c1c1"},"vehicle_type_id":"4","last_reported":1778941164,"current_range_meters":8000,"station_id":"ce4bhh12rcd13ifvqff0","pricing_plan_id":"cebpf4jnsgd1na2vs0mg"},{"bike_id":"38757811-9396-456f-8ca1-8b123a29a887","system_id":"levelo_inurba_marseille","lat":43.27204,"lon":5.391844,"is_reserved":false,"is_disabled":false,"rental_uris":{"android":"levelo://app?vid=38757811-9396-456f-8ca1-8b123a29a887","ios":"levelo://app?vid=38757811-9396-456f-8ca1-8b123a29a887"},"vehicle_type_id":"4","last_reported":1778941164,"current_range_meters":8000,"station_id":"ce4bhhp2rcd13ifvqfm0","pricing_plan_id":"cebpf4jnsgd1na2vs0mg"},{"bike_id":"66b746a5-8b6b-47d3-abe1-2d16a7507530","system_id":"levelo_inurba_marseille","lat":43.280006,"lon":5.400116,"is_reserved":false,"is_disabled":false,"rental_uris":{"android":"levelo://app?vid=66b746a5-8b6b-47d3-abe1-2d16a7507530","ios":"levelo://app?vid=66b746a5-8b6b-47d3-abe1-2d16a7507530"},"vehicle_type_id":"4","last_reported":1778941164,"current_range_meters":8000,"station_id":"ce4bho92rcd13ifvqh4g","pricing_plan_id":"cebpf4jnsgd1na2vs0mg"},{"bike_id":"80b26f32-3b64-4de6-a97b-918c008994df","system_id":"levelo_inurba_marseille","lat":43.28415,"lon":5.34985,"is_reserved":false,"is_disabled":false,"rental_uris":{"android":"levelo://app?vid=80b26f32-3b64-4de6-a97b-918c008994df","ios":"levelo://app?vid=80b26f32-3b64-4de6-a97b-918c008994df"},"vehicle_type_id":"4","last_reported":1778941164,"current_range_meters":8000,"station_id":"ce4bhbh2rcd13ifvqepg","pricing_plan_id":"cebpf4jnsgd1na2vs0mg"},{"bike_id":"426deb5c-edb5-45e0-9420-7803b3916a70","system_id":"levelo_inurba_marseille","lat":43.2256,"lon":5.41632,"is_reserved":false,"is_disabled":false,"rental_uris":{"android":"levelo://app?vid=426deb5c-edb5-45e0-9420-7803b3916a70","ios":"levelo://app?vid=426deb5c-edb5-45e0-9420-7803b3916a70"},"vehicle_type_id":"4","last_reported":1778941164,"current_range_meters":8000,"station_id":"st_d2o4gvlbi1j2169b742g","pricing_plan_id":"cebpf4jnsgd1na2vs0mg"},{"bike_id":"380b5b02-7761-49fd-a03f-39d0fb476707","system_id":"levelo_inurba_marseille","lat":43.2447,"lon":5.42537,"is_reserved":false,"is_disabled":false,"rental_uris":{"android":"levelo://app?vid=380b5b02-7761-49fd-a03f-39d0fb476707","ios":"levelo://app?vid=380b5b02-7761-49fd-a03f-39d0fb476707"},"vehicle_type_id":"4","last_reported":1778941164,"current_range_meters":8000,"station_id":"st_d4a3vfp97mjs738cd8kg","pricing_plan_id":"cebpf4jnsgd1na2vs0mg"},{"bike_id":"2f701455-9a88-4bab-99f0-da0dade42e53","system_id":"levelo_inurba_marseille","lat":43.2949,"lon":5.43294,"is_reserved":false,"is_disabled":false,"rental_uris":{"android":"levelo://app?vid=2f701455-9a88-4bab-99f0-da0dade42e53","ios":"levelo://app?vid=2f701455-9a88-4bab-99f0-da0dade42e53"},"vehicle_type_id":"4","last_reported":1778941164,"current_range_meters":8000,"station_id":"st_d3j5ugp08ojc73fj9d10","pricing_plan_id":"cebpf4jnsgd1na2vs0mg"},{"bike_id":"fea54104-bb98-4d6d-b765-f71a537f5666","system_id":"levelo_inurba_marseille","lat":43.23545,"lon":5.40709,"is_reserved":false,"is_disabled":false,"rental_uris":{"android":"levelo://app?vid=fea54104-bb98-4d6d-b765-f71a537f5666","ios":"levelo://app?vid=fea54104-bb98-4d6d-b765-f71a537f5666"},"vehicle_type_id":"4","last_reported":1778941164,"current_range_meters":8000,"station_id":"","pricing_plan_id":"cebpf4jnsgd1na2vs0mg"},{"bike_id":"29923a85-e750-4827-aacf-b41c11e48bd1","system_id":"levelo_inurba_marseille","lat":43.26215,"lon":5.3744,"is_reserved":false,"is_disabled":false,"rental_uris":{"android":"levelo://app?vid=29923a85-e750-4827-aacf-b41c11e48bd1","ios":"levelo://app?vid=29923a85-e750-4827-aacf-b41c11e48bd1"},"vehicle_type_id":"4","last_reported":1778941164,"current_range_meters":8000,"station_id":"ce4bhgp2rcd13ifvqfc0","pricing_plan_id":"cebpf4jnsgd1na2vs0mg"},{"bike_id":"bd4f91e4-bf32-4145-85a9-14601067af53","system_id":"levelo_inurba_marseille","lat":43.30148,"lon":5.37422,"is_reserved":false,"is_disabled":false,"rental_uris":{"android":"levelo://app?vid=bd4f91e4-bf32-4145-85a9-14601067af53","ios":"levelo://app?vid=bd4f91e4-bf32-4145-85a9-14601067af53"},"vehicle_type_id":"4","last_reported":1778941164,"current_range_meters":8000,"station_id":"ce4bgs92rcd13ifvqcc0","pricing_plan_id":"cebpf4jnsgd1na2vs0mg"},{"bike_id":"61f678cc-f661-460d-b6fb-f03d8bbf8100","system_id":"levelo_inurba_marseille","lat":43.28844,"lon":5.35861,"is_reserved":false,"is_disabled":false,"rental_uris":{"android":"levelo://app?vid=61f678cc-f661-460d-b6fb-f03d8bbf8100","ios":"levelo://app?vid=61f678cc-f661-460d-b6fb-f03d8bbf8100"},"vehicle_type_id":"4","last_reported":1778941164,"current_range_meters":8400,"station_id":"","pricing_plan_id":"cebpf4jnsgd1na2vs0mg"},{"bike_id":"c091a819-21d8-46ac-8161-23f60b78cf02","system_id":"levelo_inurba_marseille","lat":43.27611,"lon":5.36107,"is_reserved":false,"is_disabled":true,"rental_uris":{"android":"levelo://app?vid=c091a819-21d8-46ac-8161-23f60b78cf02","ios":"levelo://app?vid=c091a819-21d8-46ac-8161-23f60b78cf02"},"vehicle_type_id":"4","last_reported":1778941164,"current_range_meters":8400,"station_id":"ce4bgj92rcd13ifvqbe0","pricing_plan_id":"cebpf4jnsgd1na2vs0mg"},{"bike_id":"df3b4c65-b594-43d2-9619-bf34b1560986","system_id":"levelo_inurba_marseille","lat":43.33551,"lon":5.37468,"is_reserved":false,"is_disabled":false,"rental_uris":{"android":"levelo://app?vid=df3b4c65-b594-43d2-9619-bf34b1560986","ios":"levelo://app?vid=df3b4c65-b594-43d2-9619-bf34b1560986"},"vehicle_type_id":"4","last_reported":1778941164,"current_range_meters":8400,"station_id":"st_d46tts09ee8s73dlu43g","pricing_plan_id":"cebpf4jnsgd1na2vs0mg"},{"bike_id":"bdd97cee-8dba-4811-8009-cab947f65ba4","system_id":"levelo_inurba_marseille","lat":43.30463,"lon":5.37894,"is_reserved":false,"is_disabled":false,"rental_uris":{"android":"levelo://app?vid=bdd97cee-8dba-4811-8009-cab947f65ba4","ios":"levelo://app?vid=bdd97cee-8dba-4811-8009-cab947f65ba4"},"vehicle_type_id":"4","last_reported":1778941164,"current_range_meters":8400,"station_id":"ce4bgup2rcd13ifvqcn0","pricing_plan_id":"cebpf4jnsgd1na2vs0mg"},{"bike_id":"7c9517e3-38cb-4a87-948b-926583eebece","system_id":"levelo_inurba_marseille","lat":43.21194,"lon":5.35074,"is_reserved":false,"is_disabled":false,"rental_uris":{"android":"levelo://app?vid=7c9517e3-38cb-4a87-948b-926583eebece","ios":"levelo://app?vid=7c9517e3-38cb-4a87-948b-926583eebece"},"vehicle_type_id":"4","last_reported":1778941164,"current_range_meters":8400,"station_id":"st_cvj6sg6p6f1abm77japg","pricing_plan_id":"cebpf4jnsgd1na2vs0mg"},{"bike_id":"928b6013-8b07-4c87-9fe9-e81615773bf1","system_id":"levelo_inurba_marseille","lat":43.25122,"lon":5.40315,"is_reserved":false,"is_disabled":false,"rental_uris":{"android":"levelo://app?vid=928b6013-8b07-4c87-9fe9-e81615773bf1","ios":"levelo://app?vid=928b6013-8b07-4c87-9fe9-e81615773bf1"},"vehicle_type_id":"4","last_reported":1778941164,"current_range_meters":8400,"station_id":"ce4bhlh2rcd13ifvqgig","pricing_plan_id":"cebpf4jnsgd1na2vs0mg"},{"bike_id":"0aabf782-ccac-4c6e-b424-2952407b7d7c","system_id":"levelo_inurba_marseille","lat":43.23181,"lon":5.43733,"is_reserved":false,"is_disabled":false,"rental_uris":{"android":"levelo://app?vid=0aabf782-ccac-4c6e-b424-2952407b7d7c","ios":"levelo://app?vid=0aabf782-ccac-4c6e-b424-2952407b7d7c"},"vehicle_type_id":"4","last_reported":1778941164,"current_range_meters":8400,"station_id":"ce4bhmp2rcd13ifvqgog","pricing_plan_id":"cebpf4jnsgd1na2vs0mg"},{"bike_id":"1daf5e63-0dce-4bbc-92e7-391b45253f6d","system_id":"levelo_inurba_marseille","lat":43.28622,"lon":5.35099,"is_reserved":false,"is_disabled":false,"rental_uris":{"android":"levelo://app?vid=1daf5e63-0dce-4bbc-92e7-391b45253f6d","ios":"levelo://app?vid=1daf5e63-0dce-4bbc-92e7-391b45253f6d"},"vehicle_type_id":"4","last_reported":1778941164,"current_range_meters":8400,"station_id":"ce4bhch2rcd13ifvqeug","pricing_plan_id":"cebpf4jnsgd1na2vs0mg"},{"bike_id":"838dedee-4cbd-4997-9d32-b652b1084416","system_id":"levelo_inurba_marseille","lat":43.286126,"lon":5.350988,"is_reserved":false,"is_disabled":false,"rental_uris":{"android":"levelo://app?vid=838dedee-4cbd-4997-9d32-b652b1084416","ios":"levelo://app?vid=838dedee-4cbd-4997-9d32-b652b1084416"},"vehicle_type_id":"4","last_reported":1778941164,"current_range_meters":8400,"station_id":"","pricing_plan_id":"cebpf4jnsgd1na2vs0mg"},{"bike_id":"6318188d-a7e6-43b4-b011-3b8ec9dda8d9","system_id":"levelo_inurba_marseille","lat":43.21806,"lon":5.34543,"is_reserved":false,"is_disabled":false,"rental_uris":{"android":"levelo://app?vid=6318188d-a7e6-43b4-b011-3b8ec9dda8d9","ios":"levelo://app?vid=6318188d-a7e6-43b4-b011-3b8ec9dda8d9"},"vehicle_type_id":"4","last_reported":1778941164,"current_range_meters":8400,"station_id":"","pricing_plan_id":"cebpf4jnsgd1na2vs0mg"},{"bike_id":"5ce80697-225a-4775-9620-63268fa34f78","system_id":"levelo_inurba_marseille","lat":43.30171,"lon":5.38109,"is_reserved":false,"is_disabled":false,"rental_uris":{"android":"levelo://app?vid=5ce80697-225a-4775-9620-63268fa34f78","ios":"levelo://app?vid=5ce80697-225a-4775-9620-63268fa34f78"},"vehicle_type_id":"4","last_reported":1778941164,"current_range_meters":8400,"station_id":"ce4bgjp2rcd13ifvqbh0","pricing_plan_id":"cebpf4jnsgd1na2vs0mg"},{"bike_id":"ae292c7b-0f60-4dc1-9e06-163aacb9f71d","system_id":"levelo_inurba_marseille","lat":43.21196,"lon":5.3506,"is_reserved":false,"is_disabled":false,"rental_uris":{"android":"levelo://app?vid=ae292c7b-0f60-4dc1-9e06-163aacb9f71d","ios":"levelo://app?vid=ae292c7b-0f60-4dc1-9e06-163aacb9f71d"},"vehicle_type_id":"4","last_reported":1778941164,"current_range_meters":8400,"station_id":"st_cvj6sg6p6f1abm77japg","pricing_plan_id":"cebpf4jnsgd1na2vs0mg"},{"bike_id":"346771a6-adcb-4fef-8135-505b911284e9","system_id":"levelo_inurba_marseille","lat":43.243879,"lon":5.370608,"is_reserved":false,"is_disabled":false,"rental_uris":{"android":"levelo://app?vid=346771a6-adcb-4fef-8135-505b911284e9","ios":"levelo://app?vid=346771a6-adcb-4fef-8135-505b911284e9"},"vehicle_type_id":"4","last_reported":1778941164,"current_range_meters":8400,"station_id":"ce4bhhh2rcd13ifvqfk0","pricing_plan_id":"cebpf4jnsgd1na2vs0mg"},{"bike_id":"88676436-b644-4b39-91d3-cc5d29c9ef88","system_id":"levelo_inurba_marseille","lat":43.2988,"lon":5.38324,"is_reserved":false,"is_disabled":false,"rental_uris":{"android":"levelo://app?vid=88676436-b644-4b39-91d3-cc5d29c9ef88","ios":"levelo://app?vid=88676436-b644-4b39-91d3-cc5d29c9ef88"},"vehicle_type_id":"4","last_reported":1778941164,"current_range_meters":8400,"station_id":"","pricing_plan_id":"cebpf4jnsgd1na2vs0mg"},{"bike_id":"73bc391b-daa4-457b-a20c-6fb8ee218527","system_id":"levelo_inurba_marseille","lat":43.27812,"lon":5.40716,"is_reserved":false,"is_disabled":false,"rental_uris":{"android":"levelo://app?vid=73bc391b-daa4-457b-a20c-6fb8ee218527","ios":"levelo://app?vid=73bc391b-daa4-457b-a20c-6fb8ee218527"},"vehicle_type_id":"4","last_reported":1778941164,"current_range_meters":8400,"station_id":"ce4bhnh2rcd13ifvqgtg","pricing_plan_id":"cebpf4jnsgd1na2vs0mg"},{"bike_id":"c5f8b7fe-e0d3-407a-a460-9c15d812c20f","system_id":"levelo_inurba_marseille","lat":43.32496,"lon":5.383,"is_reserved":false,"is_disabled":false,"rental_uris":{"android":"levelo://app?vid=c5f8b7fe-e0d3-407a-a460-9c15d812c20f","ios":"levelo://app?vid=c5f8b7fe-e0d3-407a-a460-9c15d812c20f"},"vehicle_type_id":"4","last_reported":1778941164,"current_range_meters":8400,"station_id":"st_d4asgbiv49dc73anf9m0","pricing_plan_id":"cebpf4jnsgd1na2vs0mg"},{"bike_id":"5777b242-d980-4abe-980a-715bb7d2be51","system_id":"levelo_inurba_marseille","lat":43.23964,"lon":5.36636,"is_reserved":false,"is_disabled":false,"rental_uris":{"android":"levelo://app?vid=5777b242-d980-4abe-980a-715bb7d2be51","ios":"levelo://app?vid=5777b242-d980-4abe-980a-715bb7d2be51"},"vehicle_type_id":"4","last_reported":1778941164,"current_range_meters":8400,"station_id":"ce4bhi12rcd13ifvqfp0","pricing_plan_id":"cebpf4jnsgd1na2vs0mg"},{"bike_id":"980bb7df-ea8c-4793-b8f9-0d885510178c","system_id":"levelo_inurba_marseille","lat":43.279659,"lon":5.387277,"is_reserved":false,"is_disabled":false,"rental_uris":{"android":"levelo://app?vid=980bb7df-ea8c-4793-b8f9-0d885510178c","ios":"levelo://app?vid=980bb7df-ea8c-4793-b8f9-0d885510178c"},"vehicle_type_id":"4","last_reported":1778941164,"current_range_meters":8400,"station_id":"ce4bhg12rcd13ifvqf80","pricing_plan_id":"cebpf4jnsgd1na2vs0mg"},{"bike_id":"183ecbf2-1487-4e31-a0b0-97fce68bdb3c","system_id":"levelo_inurba_marseille","lat":43.31357,"lon":5.38497,"is_reserved":false,"is_disabled":false,"rental_uris":{"android":"levelo://app?vid=183ecbf2-1487-4e31-a0b0-97fce68bdb3c","ios":"levelo://app?vid=183ecbf2-1487-4e31-a0b0-97fce68bdb3c"},"vehicle_type_id":"4","last_reported":1778941164,"current_range_meters":8400,"station_id":"ce4bgt92rcd13ifvqcf0","pricing_plan_id":"cebpf4jnsgd1na2vs0mg"},{"bike_id":"1179850d-688e-45e2-a7de-bb7ce5d30bb5","system_id":"levelo_inurba_marseille","lat":43.31391,"lon":5.38507,"is_reserved":false,"is_disabled":false,"rental_uris":{"android":"levelo://app?vid=1179850d-688e-45e2-a7de-bb7ce5d30bb5","ios":"levelo://app?vid=1179850d-688e-45e2-a7de-bb7ce5d30bb5"},"vehicle_type_id":"4","last_reported":1778941164,"current_range_meters":8400,"station_id":"ce4bgt92rcd13ifvqcf0","pricing_plan_id":"cebpf4jnsgd1na2vs0mg"},{"bike_id":"dace259d-e3eb-491e-95dc-863daa176674","system_id":"levelo_inurba_marseille","lat":43.24167,"lon":5.36393,"is_reserved":false,"is_disabled":false,"rental_uris":{"android":"levelo://app?vid=dace259d-e3eb-491e-95dc-863daa176674","ios":"levelo://app?vid=dace259d-e3eb-491e-95dc-863daa176674"},"vehicle_type_id":"4","last_reported":1778941164,"current_range_meters":8400,"station_id":"cpo36qri1sfpv3e86is0","pricing_plan_id":"cebpf4jnsgd1na2vs0mg"},{"bike_id":"cc421a39-fb72-4a11-ba11-b6c7fd9e1c12","system_id":"levelo_inurba_marseille","lat":43.30159,"lon":5.38077,"is_reserved":false,"is_disabled":false,"rental_uris":{"android":"levelo://app?vid=cc421a39-fb72-4a11-ba11-b6c7fd9e1c12","ios":"levelo://app?vid=cc421a39-fb72-4a11-ba11-b6c7fd9e1c12"},"vehicle_type_id":"4","last_reported":1778941164,"current_range_meters":8400,"station_id":"ce4bgjp2rcd13ifvqbh0","pricing_plan_id":"cebpf4jnsgd1na2vs0mg"},{"bike_id":"470ea25e-7fd9-4141-8ab7-89f5e202b013","system_id":"levelo_inurba_marseille","lat":43.27994,"lon":5.40016,"is_reserved":false,"is_disabled":false,"rental_uris":{"android":"levelo://app?vid=470ea25e-7fd9-4141-8ab7-89f5e202b013","ios":"levelo://app?vid=470ea25e-7fd9-4141-8ab7-89f5e202b013"},"vehicle_type_id":"4","last_reported":1778941164,"current_range_meters":8400,"station_id":"ce4bho92rcd13ifvqh4g","pricing_plan_id":"cebpf4jnsgd1na2vs0mg"},{"bike_id":"9260c9db-b157-4ea5-895d-7863985f586a","system_id":"levelo_inurba_marseille","lat":43.21752,"lon":5.3461,"is_reserved":false,"is_disabled":false,"rental_uris":{"android":"levelo://app?vid=9260c9db-b157-4ea5-895d-7863985f586a","ios":"levelo://app?vid=9260c9db-b157-4ea5-895d-7863985f586a"},"vehicle_type_id":"4","last_reported":1778941164,"current_range_meters":8400,"station_id":"st_cvj6r9ubvosntc0bgbag","pricing_plan_id":"cebpf4jnsgd1na2vs0mg"},{"bike_id":"a9c4cf58-eff3-46f4-8aa3-83491b171b4a","system_id":"levelo_inurba_marseille","lat":43.27377,"lon":5.36259,"is_reserved":false,"is_disabled":false,"rental_uris":{"android":"levelo://app?vid=a9c4cf58-eff3-46f4-8aa3-83491b171b4a","ios":"levelo://app?vid=a9c4cf58-eff3-46f4-8aa3-83491b171b4a"},"vehicle_type_id":"4","last_reported":1778941164,"current_range_meters":8400,"station_id":"ce4bhbh2rcd13ifvqeo0","pricing_plan_id":"cebpf4jnsgd1na2vs0mg"},{"bike_id":"0d51e5ef-ab9b-491a-8c9e-45cfe2cd3256","system_id":"levelo_inurba_marseille","lat":43.29587,"lon":5.36746,"is_reserved":false,"is_disabled":false,"rental_uris":{"android":"levelo://app?vid=0d51e5ef-ab9b-491a-8c9e-45cfe2cd3256","ios":"levelo://app?vid=0d51e5ef-ab9b-491a-8c9e-45cfe2cd3256"},"vehicle_type_id":"4","last_reported":1778941164,"current_range_meters":8800,"station_id":"ce4bgph2rcd13ifvqc2g","pricing_plan_id":"cebpf4jnsgd1na2vs0mg"},{"bike_id":"ed8b9caf-da29-4c6c-b8b8-2bb3a2494930","system_id":"levelo_inurba_marseille","lat":43.22556,"lon":5.41635,"is_reserved":false,"is_disabled":false,"rental_uris":{"android":"levelo://app?vid=ed8b9caf-da29-4c6c-b8b8-2bb3a2494930","ios":"levelo://app?vid=ed8b9caf-da29-4c6c-b8b8-2bb3a2494930"},"vehicle_type_id":"4","last_reported":1778941164,"current_range_meters":8800,"station_id":"st_d2o4gvlbi1j2169b742g","pricing_plan_id":"cebpf4jnsgd1na2vs0mg"},{"bike_id":"a1475d99-48d4-492a-9346-7b6c84ba6610","system_id":"levelo_inurba_marseille","lat":43.25087,"lon":5.39523,"is_reserved":false,"is_disabled":false,"rental_uris":{"android":"levelo://app?vid=a1475d99-48d4-492a-9346-7b6c84ba6610","ios":"levelo://app?vid=a1475d99-48d4-492a-9346-7b6c84ba6610"},"vehicle_type_id":"4","last_reported":1778941164,"current_range_meters":8800,"station_id":"ce4bhm12rcd13ifvqgkg","pricing_plan_id":"cebpf4jnsgd1na2vs0mg"},{"bike_id":"8a47db1f-15d7-4626-8e78-8aa33941a942","system_id":"levelo_inurba_marseille","lat":43.291992,"lon":5.358074,"is_reserved":false,"is_disabled":false,"rental_uris":{"android":"levelo://app?vid=8a47db1f-15d7-4626-8e78-8aa33941a942","ios":"levelo://app?vid=8a47db1f-15d7-4626-8e78-8aa33941a942"},"vehicle_type_id":"4","last_reported":1778941164,"current_range_meters":8800,"station_id":"ce4bhb12rcd13ifvqel0","pricing_plan_id":"cebpf4jnsgd1na2vs0mg"},{"bike_id":"813d27aa-24d7-4600-b8e2-7ee95192926c","system_id":"levelo_inurba_marseille","lat":43.29548,"lon":5.37535,"is_reserved":false,"is_disabled":false,"rental_uris":{"android":"levelo://app?vid=813d27aa-24d7-4600-b8e2-7ee95192926c","ios":"levelo://app?vid=813d27aa-24d7-4600-b8e2-7ee95192926c"},"vehicle_type_id":"4","last_reported":1778941164,"current_range_meters":8800,"station_id":"ce4bgh92rcd13ifvqb50","pricing_plan_id":"cebpf4jnsgd1na2vs0mg"},{"bike_id":"128425b0-278b-4138-a1af-2c4f97e30578","system_id":"levelo_inurba_marseille","lat":43.23068,"lon":5.35507,"is_reserved":false,"is_disabled":false,"rental_uris":{"android":"levelo://app?vid=128425b0-278b-4138-a1af-2c4f97e30578","ios":"levelo://app?vid=128425b0-278b-4138-a1af-2c4f97e30578"},"vehicle_type_id":"4","last_reported":1778941164,"current_range_meters":8800,"station_id":"cpo3342slgdg3j2ifvpg","pricing_plan_id":"cebpf4jnsgd1na2vs0mg"},{"bike_id":"62cff18e-480f-43bf-b2a4-0481b21e8bfc","system_id":"levelo_inurba_marseille","lat":43.27703,"lon":5.38899,"is_reserved":false,"is_disabled":false,"rental_uris":{"android":"levelo://app?vid=62cff18e-480f-43bf-b2a4-0481b21e8bfc","ios":"levelo://app?vid=62cff18e-480f-43bf-b2a4-0481b21e8bfc"},"vehicle_type_id":"4","last_reported":1778941164,"current_range_meters":8800,"station_id":"ce4bhi12rcd13ifvqfo0","pricing_plan_id":"cebpf4jnsgd1na2vs0mg"},{"bike_id":"37ca5b86-b3d0-4bc0-80e9-3ce47d4dd8d3","system_id":"levelo_inurba_marseille","lat":43.23894,"lon":5.37462,"is_reserved":false,"is_disabled":false,"rental_uris":{"android":"levelo://app?vid=37ca5b86-b3d0-4bc0-80e9-3ce47d4dd8d3","ios":"levelo://app?vid=37ca5b86-b3d0-4bc0-80e9-3ce47d4dd8d3"},"vehicle_type_id":"4","last_reported":1778941164,"current_range_meters":8800,"station_id":"st_d6sm7csbq4hs73f8fpjg","pricing_plan_id":"cebpf4jnsgd1na2vs0mg"},{"bike_id":"6ea257e9-ce11-4d49-a2f8-fd99dac0cf24","system_id":"levelo_inurba_marseille","lat":43.24666,"lon":5.38162,"is_reserved":false,"is_disabled":false,"rental_uris":{"android":"levelo://app?vid=6ea257e9-ce11-4d49-a2f8-fd99dac0cf24","ios":"levelo://app?vid=6ea257e9-ce11-4d49-a2f8-fd99dac0cf24"},"vehicle_type_id":"4","last_reported":1778941164,"current_range_meters":8800,"station_id":"ce4bhih2rcd13ifvqfr0","pricing_plan_id":"cebpf4jnsgd1na2vs0mg"},{"bike_id":"67ccb857-92da-48d4-97af-9df5ebe29c07","system_id":"levelo_inurba_marseille","lat":43.32484,"lon":5.38273,"is_reserved":false,"is_disabled":false,"rental_uris":{"android":"levelo://app?vid=67ccb857-92da-48d4-97af-9df5ebe29c07","ios":"levelo://app?vid=67ccb857-92da-48d4-97af-9df5ebe29c07"},"vehicle_type_id":"4","last_reported":1778941164,"current_range_meters":8800,"station_id":"st_d4asgbiv49dc73anf9m0","pricing_plan_id":"cebpf4jnsgd1na2vs0mg"},{"bike_id":"39f5e5e3-bdaa-431e-ab82-46a06c8cb2ae","system_id":"levelo_inurba_marseille","lat":43.24473,"lon":5.42531,"is_reserved":false,"is_disabled":false,"rental_uris":{"android":"levelo://app?vid=39f5e5e3-bdaa-431e-ab82-46a06c8cb2ae","ios":"levelo://app?vid=39f5e5e3-bdaa-431e-ab82-46a06c8cb2ae"},"vehicle_type_id":"4","last_reported":1778941164,"current_range_meters":8800,"station_id":"st_d4a3vfp97mjs738cd8kg","pricing_plan_id":"cebpf4jnsgd1na2vs0mg"},{"bike_id":"db434070-fbc8-463e-8a86-acaf6a506c56","system_id":"levelo_inurba_marseille","lat":43.28405,"lon":5.34985,"is_reserved":false,"is_disabled":false,"rental_uris":{"android":"levelo://app?vid=db434070-fbc8-463e-8a86-acaf6a506c56","ios":"levelo://app?vid=db434070-fbc8-463e-8a86-acaf6a506c56"},"vehicle_type_id":"4","last_reported":1778941164,"current_range_meters":8800,"station_id":"ce4bhbh2rcd13ifvqepg","pricing_plan_id":"cebpf4jnsgd1na2vs0mg"},{"bike_id":"b658e2e6-7f0d-4ad9-a856-e181b6fea62a","system_id":"levelo_inurba_marseille","lat":43.24672,"lon":5.38158,"is_reserved":false,"is_disabled":false,"rental_uris":{"android":"levelo://app?vid=b658e2e6-7f0d-4ad9-a856-e181b6fea62a","ios":"levelo://app?vid=b658e2e6-7f0d-4ad9-a856-e181b6fea62a"},"vehicle_type_id":"4","last_reported":1778941164,"current_range_meters":8800,"station_id":"ce4bhih2rcd13ifvqfr0","pricing_plan_id":"cebpf4jnsgd1na2vs0mg"},{"bike_id":"41ed03a9-ce21-4903-a810-ca307a88c332","system_id":"levelo_inurba_marseille","lat":43.26231,"lon":5.40446,"is_reserved":false,"is_disabled":false,"rental_uris":{"android":"levelo://app?vid=41ed03a9-ce21-4903-a810-ca307a88c332","ios":"levelo://app?vid=41ed03a9-ce21-4903-a810-ca307a88c332"},"vehicle_type_id":"4","last_reported":1778941164,"current_range_meters":8800,"station_id":"ce4bhmh2rcd13ifvqgmg","pricing_plan_id":"cebpf4jnsgd1na2vs0mg"},{"bike_id":"97e78c04-7413-46b2-8a52-5cb62c4bde1e","system_id":"levelo_inurba_marseille","lat":43.29615,"lon":5.37716,"is_reserved":false,"is_disabled":false,"rental_uris":{"android":"levelo://app?vid=97e78c04-7413-46b2-8a52-5cb62c4bde1e","ios":"levelo://app?vid=97e78c04-7413-46b2-8a52-5cb62c4bde1e"},"vehicle_type_id":"4","last_reported":1778941164,"current_range_meters":8800,"station_id":"ce4bgi92rcd13ifvqb90","pricing_plan_id":"cebpf4jnsgd1na2vs0mg"},{"bike_id":"ea931ebd-1bf3-4e19-9335-f087cbfbab1c","system_id":"levelo_inurba_marseille","lat":43.24463,"lon":5.42536,"is_reserved":false,"is_disabled":false,"rental_uris":{"android":"levelo://app?vid=ea931ebd-1bf3-4e19-9335-f087cbfbab1c","ios":"levelo://app?vid=ea931ebd-1bf3-4e19-9335-f087cbfbab1c"},"vehicle_type_id":"4","last_reported":1778941164,"current_range_meters":8800,"station_id":"st_d4a3vfp97mjs738cd8kg","pricing_plan_id":"cebpf4jnsgd1na2vs0mg"},{"bike_id":"87c47071-2266-4083-aeb0-499530d55bf7","system_id":"levelo_inurba_marseille","lat":43.2862,"lon":5.35112,"is_reserved":false,"is_disabled":false,"rental_uris":{"android":"levelo://app?vid=87c47071-2266-4083-aeb0-499530d55bf7","ios":"levelo://app?vid=87c47071-2266-4083-aeb0-499530d55bf7"},"vehicle_type_id":"4","last_reported":1778941164,"current_range_meters":8800,"station_id":"ce4bhch2rcd13ifvqeug","pricing_plan_id":"cebpf4jnsgd1na2vs0mg"},{"bike_id":"54dd9412-d37c-46c6-ae93-b2f73dab96ab","system_id":"levelo_inurba_marseille","lat":43.30882,"lon":5.37192,"is_reserved":false,"is_disabled":false,"rental_uris":{"android":"levelo://app?vid=54dd9412-d37c-46c6-ae93-b2f73dab96ab","ios":"levelo://app?vid=54dd9412-d37c-46c6-ae93-b2f73dab96ab"},"vehicle_type_id":"4","last_reported":1778941164,"current_range_meters":8800,"station_id":"ce4bguh2rcd13ifvqckg","pricing_plan_id":"cebpf4jnsgd1na2vs0mg"},{"bike_id":"577f4409-ee6b-43c3-9307-e01c3b155c8c","system_id":"levelo_inurba_marseille","lat":43.30151,"lon":5.38091,"is_reserved":false,"is_disabled":false,"rental_uris":{"android":"levelo://app?vid=577f4409-ee6b-43c3-9307-e01c3b155c8c","ios":"levelo://app?vid=577f4409-ee6b-43c3-9307-e01c3b155c8c"},"vehicle_type_id":"4","last_reported":1778941164,"current_range_meters":8800,"station_id":"ce4bgjp2rcd13ifvqbh0","pricing_plan_id":"cebpf4jnsgd1na2vs0mg"},{"bike_id":"1001ba9d-f328-4321-b117-6d07dbdff0ea","system_id":"levelo_inurba_marseille","lat":43.30933,"lon":5.4015,"is_reserved":false,"is_disabled":false,"rental_uris":{"android":"levelo://app?vid=1001ba9d-f328-4321-b117-6d07dbdff0ea","ios":"levelo://app?vid=1001ba9d-f328-4321-b117-6d07dbdff0ea"},"vehicle_type_id":"4","last_reported":1778941164,"current_range_meters":8800,"station_id":"ce4bgvp2rcd13ifvqct0","pricing_plan_id":"cebpf4jnsgd1na2vs0mg"},{"bike_id":"2cb7da91-a2db-48e2-a91a-13665ba1dc0d","system_id":"levelo_inurba_marseille","lat":43.28705,"lon":5.46682,"is_reserved":false,"is_disabled":false,"rental_uris":{"android":"levelo://app?vid=2cb7da91-a2db-48e2-a91a-13665ba1dc0d","ios":"levelo://app?vid=2cb7da91-a2db-48e2-a91a-13665ba1dc0d"},"vehicle_type_id":"4","last_reported":1778941164,"current_range_meters":8800,"station_id":"st_d6tc3vkotcvc738tfjhg","pricing_plan_id":"cebpf4jnsgd1na2vs0mg"},