{"last_updated":1753211463,"ttl":60,"version":"2.2","data":{"bikes":[{"bike_id":"496cac02-0e91-4f64-97b9-cb34cf0ab931","system_id":"levelo_inurba_marseille","lat":43.225006,"lon":5.347806,"is_reserved":false,"is_disabled":false,"rental_uris":{"android":"levelo://app?vid=496cac02-0e91-4f64-97b9-cb34cf0ab931","ios":"levelo://app?vid=496cac02-0e91-4f64-97b9-cb34cf0ab931"},"vehicle_type_id":"4","last_reported":1753211463,"current_range_meters":2800,"station_id":"","pricing_plan_id":"cebpf4jnsgd1na2vs0mg"},{"bike_id":"9d4073b9-49e7-4873-9103-f8b99908db80","system_id":"levelo_inurba_marseille","lat":43.30245,"lon":5.40042,"is_reserved":false,"is_disabled":false,"rental_uris":{"android":"levelo://app?vid=9d4073b9-49e7-4873-9103-f8b99908db80","ios":"levelo://app?vid=9d4073b9-49e7-4873-9103-f8b99908db80"},"vehicle_type_id":"4","last_reported":1753211463,"current_range_meters":2800,"station_id":"ce4bgvh2rcd13ifvqcs0","pricing_plan_id":"cebpf4jnsgd1na2vs0mg"},{"bike_id":"23acaef8-cf92-484a-9aa1-f1dbf770632a","system_id":"levelo_inurba_marseille","lat":43.292625,"lon":5.384435,"is_reserved":false,"is_disabled":false,"rental_uris":{"android":"levelo://app?vid=23acaef8-cf92-484a-9aa1-f1dbf770632a","ios":"levelo://app?vid=23acaef8-cf92-484a-9aa1-f1dbf770632a"},"vehicle_type_id":"4","last_reported":1753211463,"current_range_meters":2800,"station_id":"ce4bh692rcd13ifvqea0","pricing_plan_id":"cebpf4jnsgd1na2vs0mg"},{"bike_id":"f5e2151f-a4f6-4f7d-8a09-fcd1f75fb335","system_id":"levelo_inurba_marseille","lat":43.27405,"lon":5.39407,"is_reserved":false,"is_disabled":false,"rental_uris":{"android":"levelo://app?vid=f5e2151f-a4f6-4f7d-8a09-fcd1f75fb335","ios":"levelo://app?vid=f5e2151f-a4f6-4f7d-8a09-fcd1f75fb335"},"vehicle_type_id":"4","last_reported":1753211463,"current_range_meters":2800,"station_id":"ce4bhdp2rcd13ifvqf20","pricing_plan_id":"cebpf4jnsgd1na2vs0mg"},{"bike_id":"e7c7ce32-08bf-4db0-9ae6-4eeb9c24d9ad","system_id":"levelo_inurba_marseille","lat":43.30313,"lon":5.36905,"is_reserved":false,"is_disabled":false,"rental_uris":{"android":"levelo://app?vid=e7c7ce32-08bf-4db0-9ae6-4eeb9c24d9ad","ios":"levelo://app?vid=e7c7ce32-08bf-4db0-9ae6-4eeb9c24d9ad"},"vehicle_type_id":"4","last_reported":1753211463,"current_range_meters":3200,"station_id":"ce4bgqh2rcd13ifvqc5g","pricing_plan_id":"cebpf4jnsgd1na2vs0mg"},{"bike_id":"2570fccc-bc83-4857-aceb-da270b9d0cad","system_id":"levelo_inurba_marseille","lat":43.2952,"lon":5.38192,"is_reserved":false,"is_disabled":false,"rental_uris":{"android":"levelo://app?vid=2570fccc-bc83-4857-aceb-da270b9d0cad","ios":"levelo://app?vid=2570fccc-bc83-4857-aceb-da270b9d0cad"},"vehicle_type_id":"4","last_reported":1753211463,"current_range_meters":3200,"station_id":"","pricing_plan_id":"cebpf4jnsgd1na2vs0mg"},{"bike_id":"3059ca0a-39ab-4ee1-8355-ecc114a4c20b","system_id":"levelo_inurba_marseille","lat":43.26573,"lon":5.39007,"is_reserved":false,"is_disabled":true,"rental_uris":{"android":"levelo://app?vid=3059ca0a-39ab-4ee1-8355-ecc114a4c20b","ios":"levelo://app?vid=3059ca0a-39ab-4ee1-8355-ecc114a4c20b"},"vehicle_type_id":"4","last_reported":1753211463,"current_range_meters":3200,"station_id":"ce4bhe12rcd13ifvqf30","pricing_plan_id":"cebpf4jnsgd1na2vs0mg"},{"bike_id":"e73aef60-22f1-45ff-8cce-dc96dab65577","system_id":"levelo_inurba_marseille","lat":43.27969,"lon":5.40996,"is_reserved":false,"is_disabled":false,"rental_uris":{"android":"levelo://app?vid=e73aef60-22f1-45ff-8cce-dc96dab65577","ios":"levelo://app?vid=e73aef60-22f1-45ff-8cce-dc96dab65577"},"vehicle_type_id":"4","last_reported":1753211463,"current_range_meters":3200,"station_id":"","pricing_plan_id":"cebpf4jnsgd1na2vs0mg"},{"bike_id":"20bab09b-981d-4511-83af-05d3395e11cb","system_id":"levelo_inurba_marseille","lat":43.28852,"lon":5.39309,"is_reserved":false,"is_disabled":true,"rental_uris":{"android":"levelo://app?vid=20bab09b-981d-4511-83af-05d3395e11cb","ios":"levelo://app?vid=20bab09b-981d-4511-83af-05d3395e11cb"},"vehicle_type_id":"4","last_reported":1753211463,"current_range_meters":3200,"station_id":"ce4bh2p2rcd13ifvqdi0","pricing_plan_id":"cebpf4jnsgd1na2vs0mg"},{"bike_id":"c50422c2-bc74-489f-8ff7-f4b6283db74a","system_id":"levelo_inurba_marseille","lat":43.2927,"lon":5.36845,"is_reserved":false,"is_disabled":false,"rental_uris":{"android":"levelo://app?vid=c50422c2-bc74-489f-8ff7-f4b6283db74a","ios":"levelo://app?vid=c50422c2-bc74-489f-8ff7-f4b6283db74a"},"vehicle_type_id":"4","last_reported":1753211463,"current_range_meters":3600,"station_id":"ce4bhbp2rcd13ifvqesg","pricing_plan_id":"cebpf4jnsgd1na2vs0mg"},{"bike_id":"f61fb48c-1780-454b-aa29-47d7de4318da","system_id":"levelo_inurba_marseille","lat":43.30304,"lon":5.392042,"is_reserved":false,"is_disabled":false,"rental_uris":{"android":"levelo://app?vid=f61fb48c-1780-454b-aa29-47d7de4318da","ios":"levelo://app?vid=f61fb48c-1780-454b-aa29-47d7de4318da"},"vehicle_type_id":"4","last_reported":1753211463,"current_range_meters":4000,"station_id":"ce4bgkh2rcd13ifvqbk0","pricing_plan_id":"cebpf4jnsgd1na2vs0mg"},{"bike_id":"621c725d-57ff-47e7-a448-c300c6ce12fd","system_id":"levelo_inurba_marseille","lat":43.29533,"lon":5.38546,"is_reserved":false,"is_disabled":false,"rental_uris":{"android":"levelo://app?vid=621c725d-57ff-47e7-a448-c300c6ce12fd","ios":"levelo://app?vid=621c725d-57ff-47e7-a448-c300c6ce12fd"},"vehicle_type_id":"4","last_reported":1753211463,"current_range_meters":4000,"station_id":"ce4bgih2rcd13ifvqba0","pricing_plan_id":"cebpf4jnsgd1na2vs0mg"},{"bike_id":"0abd43e6-2d39-42cc-8540-e2b00ad4b5d0","system_id":"levelo_inurba_marseille","lat":43.2927,"lon":5.40115,"is_reserved":false,"is_disabled":false,"rental_uris":{"android":"levelo://app?vid=0abd43e6-2d39-42cc-8540-e2b00ad4b5d0","ios":"levelo://app?vid=0abd43e6-2d39-42cc-8540-e2b00ad4b5d0"},"vehicle_type_id":"4","last_reported":1753211463,"current_range_meters":4000,"station_id":"ce4bh312rcd13ifvqdk0","pricing_plan_id":"cebpf4jnsgd1na2vs0mg"},{"bike_id":"94167b1f-7a31-40c5-b70c-21370574c544","system_id":"levelo_inurba_marseille","lat":43.26568,"lon":5.39011,"is_reserved":false,"is_disabled":false,"rental_uris":{"android":"levelo://app?vid=94167b1f-7a31-40c5-b70c-21370574c544","ios":"levelo://app?vid=94167b1f-7a31-40c5-b70c-21370574c544"},"vehicle_type_id":"4","last_reported":1753211463,"current_range_meters":4000,"station_id":"ce4bhe12rcd13ifvqf30","pricing_plan_id":"cebpf4jnsgd1na2vs0mg"},{"bike_id":"6eb26715-3ace-4e42-b5e5-7f5508270f90","system_id":"levelo_inurba_marseille","lat":43.302188,"lon":5.394834,"is_reserved":false,"is_disabled":false,"rental_uris":{"android":"levelo://app?vid=6eb26715-3ace-4e42-b5e5-7f5508270f90","ios":"levelo://app?vid=6eb26715-3ace-4e42-b5e5-7f5508270f90"},"vehicle_type_id":"4","last_reported":1753211463,"current_range_meters":4400,"station_id":"ce4bh0p2rcd13ifvqd70","pricing_plan_id":"cebpf4jnsgd1na2vs0mg"},{"bike_id":"1c004705-b634-460e-9b4d-e45f555d69f9","system_id":"levelo_inurba_marseille","lat":43.29272,"lon":5.38449,"is_reserved":false,"is_disabled":false,"rental_uris":{"android":"levelo://app?vid=1c004705-b634-460e-9b4d-e45f555d69f9","ios":"levelo://app?vid=1c004705-b634-460e-9b4d-e45f555d69f9"},"vehicle_type_id":"4","last_reported":1753211463,"current_range_meters":4400,"station_id":"ce4bh692rcd13ifvqea0","pricing_plan_id":"cebpf4jnsgd1na2vs0mg"},{"bike_id":"803c98f7-1e7a-4c8c-9228-9950bfff1ea6","system_id":"levelo_inurba_marseille","lat":43.30634,"lon":5.40073,"is_reserved":false,"is_disabled":false,"rental_uris":{"android":"levelo://app?vid=803c98f7-1e7a-4c8c-9228-9950bfff1ea6","ios":"levelo://app?vid=803c98f7-1e7a-4c8c-9228-9950bfff1ea6"},"vehicle_type_id":"4","last_reported":1753211463,"current_range_meters":4400,"station_id":"ce4bh112rcd13ifvqda0","pricing_plan_id":"cebpf4jnsgd1na2vs0mg"},{"bike_id":"a24ae949-4f3b-4f1c-97d3-085c3bdaedcc","system_id":"levelo_inurba_marseille","lat":43.30928,"lon":5.40138,"is_reserved":false,"is_disabled":false,"rental_uris":{"android":"levelo://app?vid=a24ae949-4f3b-4f1c-97d3-085c3bdaedcc","ios":"levelo://app?vid=a24ae949-4f3b-4f1c-97d3-085c3bdaedcc"},"vehicle_type_id":"4","last_reported":1753211463,"current_range_meters":4400,"station_id":"ce4bgvp2rcd13ifvqct0","pricing_plan_id":"cebpf4jnsgd1na2vs0mg"},{"bike_id":"1696f3ac-3e19-4cd4-9bf7-116d1b67cecd","system_id":"levelo_inurba_marseille","lat":43.30535,"lon":5.36563,"is_reserved":false,"is_disabled":false,"rental_uris":{"android":"levelo://app?vid=1696f3ac-3e19-4cd4-9bf7-116d1b67cecd","ios":"levelo://app?vid=1696f3ac-3e19-4cd4-9bf7-116d1b67cecd"},"vehicle_type_id":"4","last_reported":1753211463,"current_range_meters":4800,"station_id":"ce4bgs12rcd13ifvqcag","pricing_plan_id":"cebpf4jnsgd1na2vs0mg"},{"bike_id":"3808bbbc-bf71-4de1-97ee-2481d526b56a","system_id":"levelo_inurba_marseille","lat":43.2707,"lon":5.4228,"is_reserved":false,"is_disabled":true,"rental_uris":{"android":"levelo://app?vid=3808bbbc-bf71-4de1-97ee-2481d526b56a","ios":"levelo://app?vid=3808bbbc-bf71-4de1-97ee-2481d526b56a"},"vehicle_type_id":"4","last_reported":1753211463,"current_range_meters":4800,"station_id":"ce4bhk92rcd13ifvqgb0","pricing_plan_id":"cebpf4jnsgd1na2vs0mg"},{"bike_id":"85a5c837-2ce7-40d8-af0b-883362dd3119","system_id":"levelo_inurba_marseille","lat":43.27803,"lon":5.35505,"is_reserved":false,"is_disabled":false,"rental_uris":{"android":"levelo://app?vid=85a5c837-2ce7-40d8-af0b-883362dd3119","ios":"levelo://app?vid=85a5c837-2ce7-40d8-af0b-883362dd3119"},"vehicle_type_id":"4","last_reported":1753211463,"current_range_meters":5600,"station_id":"","pricing_plan_id":"cebpf4jnsgd1na2vs0mg"},{"bike_id":"1396449c-3e15-4c09-bfcd-019a4f797ef6","system_id":"levelo_inurba_marseille","lat":43.29536,"lon":5.38529,"is_reserved":false,"is_disabled":false,"rental_uris":{"android":"levelo://app?vid=1396449c-3e15-4c09-bfcd-019a4f797ef6","ios":"levelo://app?vid=1396449c-3e15-4c09-bfcd-019a4f797ef6"},"vehicle_type_id":"4","last_reported":1753211463,"current_range_meters":5600,"station_id":"ce4bgih2rcd13ifvqba0","pricing_plan_id":"cebpf4jnsgd1na2vs0mg"},{"bike_id":"6fd40ea9-50c2-4ff0-bf7e-c2546420fd71","system_id":"levelo_inurba_marseille","lat":43.283338,"lon":5.381051,"is_reserved":false,"is_disabled":false,"rental_uris":{"android":"levelo://app?vid=6fd40ea9-50c2-4ff0-bf7e-c2546420fd71","ios":"levelo://app?vid=6fd40ea9-50c2-4ff0-bf7e-c2546420fd71"},"vehicle_type_id":"4","last_reported":1753211463,"current_range_meters":5600,"station_id":"ce4bh412rcd13ifvqdr0","pricing_plan_id":"cebpf4jnsgd1na2vs0mg"},{"bike_id":"669ec8f4-52df-4209-9297-dfab0d64db45","system_id":"levelo_inurba_marseille","lat":43.25087,"lon":5.39523,"is_reserved":false,"is_disabled":false,"rental_uris":{"android":"levelo://app?vid=669ec8f4-52df-4209-9297-dfab0d64db45","ios":"levelo://app?vid=669ec8f4-52df-4209-9297-dfab0d64db45"},"vehicle_type_id":"4","last_reported":1753211463,"current_range_meters":5600,"station_id":"ce4bhm12rcd13ifvqgkg","pricing_plan_id":"cebpf4jnsgd1na2vs0mg"},{"bike_id":"ce138cfd-dad4-4527-b361-ae89b19bc6aa","system_id":"levelo_inurba_marseille","lat":43.284137,"lon":5.349812,"is_reserved":false,"is_disabled":false,"rental_uris":{"android":"levelo://app?vid=ce138cfd-dad4-4527-b361-ae89b19bc6aa","ios":"levelo://app?vid=ce138cfd-dad4-4527-b361-ae89b19bc6aa"},"vehicle_type_id":"4","last_reported":1753211463,"current_range_meters":6000,"station_id":"ce4bhbh2rcd13ifvqepg","pricing_plan_id":"cebpf4jnsgd1na2vs0mg"},{"bike_id":"468a2652-6d94-42b5-a1a6-d68158dce3a5","system_id":"levelo_inurba_marseille","lat":43.28428,"lon":5.37503,"is_reserved":false,"is_disabled":false,"rental_uris":{"android":"levelo://app?vid=468a2652-6d94-42b5-a1a6-d68158dce3a5","ios":"levelo://app?vid=468a2652-6d94-42b5-a1a6-d68158dce3a5"},"vehicle_type_id":"4","last_reported":1753211463,"current_range_meters":6000,"station_id":"ce4bh412rcd13ifvqds0","pricing_plan_id":"cebpf4jnsgd1na2vs0mg"},{"bike_id":"6423f8eb-fcf4-4445-9382-656da515f04e","system_id":"levelo_inurba_marseille","lat":43.24805,"lon":5.37449,"is_reserved":false,"is_disabled":false,"rental_uris":{"android":"levelo://app?vid=6423f8eb-fcf4-4445-9382-656da515f04e","ios":"levelo://app?vid=6423f8eb-fcf4-4445-9382-656da515f04e"},"vehicle_type_id":"4","last_reported":1753211463,"current_range_meters":6800,"station_id":"ce4bhgh2rcd13ifvqfb0","pricing_plan_id":"cebpf4jnsgd1na2vs0mg"},{"bike_id":"275afb00-a0bf-416a-82e5-7127bb5c5e0b","system_id":"levelo_inurba_marseille","lat":43.28934,"lon":5.38397,"is_reserved":false,"is_disabled":false,"rental_uris":{"android":"levelo://app?vid=275afb00-a0bf-416a-82e5-7127bb5c5e0b","ios":"levelo://app?vid=275afb00-a0bf-416a-82e5-7127bb5c5e0b"},"vehicle_type_id":"4","last_reported":1753211463,"current_range_meters":6400,"station_id":"ce4bh612rcd13ifvqe6g","pricing_plan_id":"cebpf4jnsgd1na2vs0mg"},{"bike_id":"31512d5f-0dec-4a62-8079-5461fa609dc1","system_id":"levelo_inurba_marseille","lat":43.29282,"lon":5.4011,"is_reserved":false,"is_disabled":false,"rental_uris":{"android":"levelo://app?vid=31512d5f-0dec-4a62-8079-5461fa609dc1","ios":"levelo://app?vid=31512d5f-0dec-4a62-8079-5461fa609dc1"},"vehicle_type_id":"4","last_reported":1753211463,"current_range_meters":6800,"station_id":"ce4bh312rcd13ifvqdk0","pricing_plan_id":"cebpf4jnsgd1na2vs0mg"},{"bike_id":"4d397d03-ff66-4fd2-a226-578efe029f28","system_id":"levelo_inurba_marseille","lat":43.29042,"lon":5.39949,"is_reserved":false,"is_disabled":false,"rental_uris":{"android":"levelo://app?vid=4d397d03-ff66-4fd2-a226-578efe029f28","ios":"levelo://app?vid=4d397d03-ff66-4fd2-a226-578efe029f28"},"vehicle_type_id":"4","last_reported":1753211463,"current_range_meters":7200,"station_id":"ce4bh392rcd13ifvqdm0","pricing_plan_id":"cebpf4jnsgd1na2vs0mg"},{"bike_id":"288e40f1-8fbf-4748-a95b-1be5b48bdbe8","system_id":"levelo_inurba_marseille","lat":43.28945,"lon":5.36608,"is_reserved":false,"is_disabled":true,"rental_uris":{"android":"levelo://app?vid=288e40f1-8fbf-4748-a95b-1be5b48bdbe8","ios":"levelo://app?vid=288e40f1-8fbf-4748-a95b-1be5b48bdbe8"},"vehicle_type_id":"4","last_reported":1753211463,"current_range_meters":7200,"station_id":"ce4bhap2rcd13ifvqek0","pricing_plan_id":"cebpf4jnsgd1na2vs0mg"},{"bike_id":"374764e9-1483-4c39-a939-2017d46b717a","system_id":"levelo_inurba_marseille","lat":43.280398,"lon":5.350112,"is_reserved":false,"is_disabled":false,"rental_uris":{"android":"levelo://app?vid=374764e9-1483-4c39-a939-2017d46b717a","ios":"levelo://app?vid=374764e9-1483-4c39-a939-2017d46b717a"},"vehicle_type_id":"4","last_reported":1753211463,"current_range_meters":7200,"station_id":"","pricing_plan_id":"cebpf4jnsgd1na2vs0mg"},{"bike_id":"5b8ca5ce-478b-4c09-9015-0ad65f30dc0d","system_id":"levelo_inurba_marseille","lat":43.217525,"lon":5.346016,"is_reserved":false,"is_disabled":false,"rental_uris":{"android":"levelo://app?vid=5b8ca5ce-478b-4c09-9015-0ad65f30dc0d","ios":"levelo://app?vid=5b8ca5ce-478b-4c09-9015-0ad65f30dc0d"},"vehicle_type_id":"4","last_reported":1753211463,"current_range_meters":8000,"station_id":"st_cvj6r9ubvosntc0bgbag","pricing_plan_id":"cebpf4jnsgd1na2vs0mg"},{"bike_id":"d03e1250-1657-4ed6-a34b-74ca30e6ab75","system_id":"levelo_inurba_marseille","lat":43.231959,"lon":5.355473,"is_reserved":false,"is_disabled":false,"rental_uris":{"android":"levelo://app?vid=d03e1250-1657-4ed6-a34b-74ca30e6ab75","ios":"levelo://app?vid=d03e1250-1657-4ed6-a34b-74ca30e6ab75"},"vehicle_type_id":"4","last_reported":1753211463,"current_range_meters":8000,"station_id":"ce4bhu92rcd13ifvqi70","pricing_plan_id":"cebpf4jnsgd1na2vs0mg"},{"bike_id":"c52bb095-deef-4af6-84ed-64e93d5b6ac7","system_id":"levelo_inurba_marseille","lat":43.29522,"lon":5.39044,"is_reserved":false,"is_disabled":false,"rental_uris":{"android":"levelo://app?vid=c52bb095-deef-4af6-84ed-64e93d5b6ac7","ios":"levelo://app?vid=c52bb095-deef-4af6-84ed-64e93d5b6ac7"},"vehicle_type_id":"4","last_reported":1753211463,"current_range_meters":7200,"station_id":"ce4bh3p2rcd13ifvqdp0","pricing_plan_id":"cebpf4jnsgd1na2vs0mg"},{"bike_id":"dcc1cb39-a144-4326-9550-92a9f32a54b8","system_id":"levelo_inurba_marseille","lat":43.25867,"lon":5.398921,"is_reserved":false,"is_disabled":false,"rental_uris":{"android":"levelo://app?vid=dcc1cb39-a144-4326-9550-92a9f32a54b8","ios":"levelo://app?vid=dcc1cb39-a144-4326-9550-92a9f32a54b8"},"vehicle_type_id":"4","last_reported":1753211463,"current_range_meters":7200,"station_id":"ce4bhl92rcd13ifvqghg","pricing_plan_id":"cebpf4jnsgd1na2vs0mg"},{"bike_id":"05850f15-50e5-428a-8449-b0b491670868","system_id":"levelo_inurba_marseille","lat":43.29881,"lon":5.38896,"is_reserved":false,"is_disabled":false,"rental_uris":{"android":"levelo://app?vid=05850f15-50e5-428a-8449-b0b491670868","ios":"levelo://app?vid=05850f15-50e5-428a-8449-b0b491670868"},"vehicle_type_id":"4","last_reported":1753211463,"current_range_meters":8000,"station_id":"ce4bh392rcd13ifvqdl0","pricing_plan_id":"cebpf4jnsgd1na2vs0mg"},{"bike_id":"42413a25-16d1-4419-b44a-45580e0c6ac6","system_id":"levelo_inurba_marseille","lat":43.33767,"lon":5.37472,"is_reserved":false,"is_disabled":false,"rental_uris":{"android":"levelo://app?vid=42413a25-16d1-4419-b44a-45580e0c6ac6","ios":"levelo://app?vid=42413a25-16d1-4419-b44a-45580e0c6ac6"},"vehicle_type_id":"4","last_reported":1753211463,"current_range_meters":8400,"station_id":"","pricing_plan_id":"cebpf4jnsgd1na2vs0mg"},{"bike_id":"e290fa22-1d26-4fa6-bca0-96d6e2e330dc","system_id":"levelo_inurba_marseille","lat":43.28002,"lon":5.41664,"is_reserved":false,"is_disabled":false,"rental_uris":{"android":"levelo://app?vid=e290fa22-1d26-4fa6-bca0-96d6e2e330dc","ios":"levelo://app?vid=e290fa22-1d26-4fa6-bca0-96d6e2e330dc"},"vehicle_type_id":"4","last_reported":1753211463,"current_range_meters":8400,"station_id":"ce4bho12rcd13ifvqh1g","pricing_plan_id":"cebpf4jnsgd1na2vs0mg"},{"bike_id":"f9c1b244-54be-421e-92c9-fae75450724a","system_id":"levelo_inurba_marseille","lat":43.2938,"lon":5.37841,"is_reserved":false,"is_disabled":false,"rental_uris":{"android":"levelo://app?vid=f9c1b244-54be-421e-92c9-fae75450724a","ios":"levelo://app?vid=f9c1b244-54be-421e-92c9-fae75450724a"},"vehicle_type_id":"4","last_reported":1753211463,"current_range_meters":8400,"station_id":"ce4bgjh2rcd13ifvqbf0","pricing_plan_id":"cebpf4jnsgd1na2vs0mg"},{"bike_id":"36c804c1-e116-432f-b883-355821b3c55d","system_id":"levelo_inurba_marseille","lat":43.29784,"lon":5.39344,"is_reserved":false,"is_disabled":false,"rental_uris":{"android":"levelo://app?vid=36c804c1-e116-432f-b883-355821b3c55d","ios":"levelo://app?vid=36c804c1-e116-432f-b883-355821b3c55d"},"vehicle_type_id":"4","last_reported":1753211463,"current_range_meters":8400,"station_id":"chh1huq6cuj3fo74tm60","pricing_plan_id":"cebpf4jnsgd1na2vs0mg"},{"bike_id":"274edca9-b562-4cb0-8e1a-0bddf66bc358","system_id":"levelo_inurba_marseille","lat":43.29198,"lon":5.39339,"is_reserved":false,"is_disabled":false,"rental_uris":{"android":"levelo://app?vid=274edca9-b562-4cb0-8e1a-0bddf66bc358","ios":"levelo://app?vid=274edca9-b562-4cb0-8e1a-0bddf66bc358"},"vehicle_type_id":"4","last_reported":1753211463,"current_range_meters":8400,"station_id":"ce4bh192rcd13ifvqdd0","pricing_plan_id":"cebpf4jnsgd1na2vs0mg"},{"bike_id":"ca9a33a1-e72f-4c6f-a042-ead6fb9015a6","system_id":"levelo_inurba_marseille","lat":43.3026,"lon":5.40074,"is_reserved":false,"is_disabled":false,"rental_uris":{"android":"levelo://app?vid=ca9a33a1-e72f-4c6f-a042-ead6fb9015a6","ios":"levelo://app?vid=ca9a33a1-e72f-4c6f-a042-ead6fb9015a6"},"vehicle_type_id":"4","last_reported":1753211463,"current_range_meters":8400,"station_id":"ce4bgvh2rcd13ifvqcs0","pricing_plan_id":"cebpf4jnsgd1na2vs0mg"},{"bike_id":"ee2475e2-14aa-476d-9b2b-2499ae541461","system_id":"levelo_inurba_marseille","lat":43.28865,"lon":5.3585,"is_reserved":false,"is_disabled":false,"rental_uris":{"android":"levelo://app?vid=ee2475e2-14aa-476d-9b2b-2499ae541461","ios":"levelo://app?vid=ee2475e2-14aa-476d-9b2b-2499ae541461"},"vehicle_type_id":"4","last_reported":1753211463,"current_range_meters":8400,"station_id":"ce4bhb12rcd13ifvqem0","pricing_plan_id":"cebpf4jnsgd1na2vs0mg"},{"bike_id":"07beef1a-ab0d-4c6d-8335-99337ef8730b","system_id":"levelo_inurba_marseille","lat":43.29579,"lon":5.36737,"is_reserved":false,"is_disabled":false,"rental_uris":{"android":"levelo://app?vid=07beef1a-ab0d-4c6d-8335-99337ef8730b","ios":"levelo://app?vid=07beef1a-ab0d-4c6d-8335-99337ef8730b"},"vehicle_type_id":"4","last_reported":1753211463,"current_range_meters":8400,"station_id":"ce4bgph2rcd13ifvqc2g","pricing_plan_id":"cebpf4jnsgd1na2vs0mg"},{"bike_id":"511d8482-091d-4e03-8ccb-4d39847ad964","system_id":"levelo_inurba_marseille","lat":43.29538,"lon":5.38548,"is_reserved":false,"is_disabled":false,"rental_uris":{"android":"levelo://app?vid=511d8482-091d-4e03-8ccb-4d39847ad964","ios":"levelo://app?vid=511d8482-091d-4e03-8ccb-4d39847ad964"},"vehicle_type_id":"4","last_reported":1753211463,"current_range_meters":8800,"station_id":"ce4bgih2rcd13ifvqba0","pricing_plan_id":"cebpf4jnsgd1na2vs0mg"},{"bike_id":"5f87fc7e-8372-43fc-b878-28f71b0eb033","system_id":"levelo_inurba_marseille","lat":43.2956,"lon":5.39948,"is_reserved":false,"is_disabled":false,"rental_uris":{"android":"levelo://app?vid=5f87fc7e-8372-43fc-b878-28f71b0eb033","ios":"levelo://app?vid=5f87fc7e-8372-43fc-b878-28f71b0eb033"},"vehicle_type_id":"4","last_reported":1753211463,"current_range_meters":8400,"station_id":"ce4bh312rcd13ifvqdj0","pricing_plan_id":"cebpf4jnsgd1na2vs0mg"},{"bike_id":"bc8e8184-a6af-4eda-9557-7e503f0c793c","system_id":"levelo_inurba_marseille","lat":43.24167,"lon":5.39685,"is_reserved":false,"is_disabled":true,"rental_uris":{"android":"levelo://app?vid=bc8e8184-a6af-4eda-9557-7e503f0c793c","ios":"levelo://app?vid=bc8e8184-a6af-4eda-9557-7e503f0c793c"},"vehicle_type_id":"4","last_reported":1753211463,"current_range_meters":8800,"station_id":"ce4bhn12rcd13ifvqgpg","pricing_plan_id":"cebpf4jnsgd1na2vs0mg"},{"bike_id":"e3dcc7bf-4d63-451f-a978-dfaabec3bc1c","system_id":"levelo_inurba_marseille","lat":43.29532,"lon":5.38541,"is_reserved":false,"is_disabled":false,"rental_uris":{"android":"levelo://app?vid=e3dcc7bf-4d63-451f-a978-dfaabec3bc1c","ios":"levelo://app?vid=e3dcc7bf-4d63-451f-a978-dfaabec3bc1c"},"vehicle_type_id":"4","last_reported":1753211463,"current_range_meters":8800,"station_id":"ce4bgih2rcd13ifvqba0","pricing_plan_id":"cebpf4jnsgd1na2vs0mg"},{"bike_id":"646cb9ab-a96a-4c2c-bbb1-889a97452ef6","system_id":"levelo_inurba_marseille","lat":43.27564,"lon":5.38418,"is_reserved":false,"is_disabled":false,"rental_uris":{"android":"levelo://app?vid=646cb9ab-a96a-4c2c-bbb1-889a97452ef6","ios":"levelo://app?vid=646cb9ab-a96a-4c2c-bbb1-889a97452ef6"},"vehicle_type_id":"4","last_reported":1753211463,"current_range_meters":9200,"station_id":"ce4bhh92rcd13ifvqfi0","pricing_plan_id":"cebpf4jnsgd1na2vs0mg"},{"bike_id":"7d674754-f190-4554-b8dd-5a1184f6049d","system_id":"levelo_inurba_marseille","lat":43.27439,"lon":5.39419,"is_reserved":false,"is_disabled":false,"rental_uris":{"android":"levelo://app?vid=7d674754-f190-4554-b8dd-5a1184f6049d","ios":"levelo://app?vid=7d674754-f190-4554-b8dd-5a1184f6049d"},"vehicle_type_id":"4","last_reported":1753211463,"current_range_meters":9200,"station_id":"ce4bhdp2rcd13ifvqf20","pricing_plan_id":"cebpf4jnsgd1na2vs0mg"},{"bike_id":"5ba376a7-610d-4ec7-a308-3ab155019e9e","system_id":"levelo_inurba_marseille","lat":43.28239,"lon":5.35051,"is_reserved":false,"is_disabled":false,"rental_uris":{"android":"levelo://app?vid=5ba376a7-610d-4ec7-a308-3ab155019e9e","ios":"levelo://app?vid=5ba376a7-610d-4ec7-a308-3ab155019e9e"},"vehicle_type_id":"4","last_reported":1753211463,"current_range_meters":9200,"station_id":"ce4bhbp2rcd13ifvqerg","pricing_plan_id":"cebpf4jnsgd1na2vs0mg"},{"bike_id":"6a7a080f-d658-4be6-a93b-3fe9dbe91bc2","system_id":"levelo_inurba_marseille","lat":43.29441,"lon":5.39751,"is_reserved":false,"is_disabled":false,"rental_uris":{"android":"levelo://app?vid=6a7a080f-d658-4be6-a93b-3fe9dbe91bc2","ios":"levelo://app?vid=6a7a080f-d658-4be6-a93b-3fe9dbe91bc2"},"vehicle_type_id":"4","last_reported":1753211463,"current_range_meters":9200,"station_id":"ce4bh3h2rcd13ifvqdo0","pricing_plan_id":"cebpf4jnsgd1na2vs0mg"},{"bike_id":"9648161b-df0b-4226-8ca5-cf58fb6560a8","system_id":"levelo_inurba_marseille","lat":43.286674,"lon":5.386639,"is_reserved":false,"is_disabled":false,"rental_uris":{"android":"levelo://app?vid=9648161b-df0b-4226-8ca5-cf58fb6560a8","ios":"levelo://app?vid=9648161b-df0b-4226-8ca5-cf58fb6560a8"},"vehicle_type_id":"4","last_reported":1753211463,"current_range_meters":9200,"station_id":"ce4bh492rcd13ifvqdug","pricing_plan_id":"cebpf4jnsgd1na2vs0mg"},{"bike_id":"2791a1cf-f8f1-4674-9084-f245d5cf3114","system_id":"levelo_inurba_marseille","lat":43.28417,"lon":5.34986,"is_reserved":false,"is_disabled":false,"rental_uris":{"android":"levelo://app?vid=2791a1cf-f8f1-4674-9084-f245d5cf3114","ios":"levelo://app?vid=2791a1cf-f8f1-4674-9084-f245d5cf3114"},"vehicle_type_id":"4","last_reported":1753211463,"current_range_meters":9200,"station_id":"ce4bhbh2rcd13ifvqepg","pricing_plan_id":"cebpf4jnsgd1na2vs0mg"},{"bike_id":"dfbe0f31-d21b-455b-9d33-63955b6877e6","system_id":"levelo_inurba_marseille","lat":43.28722,"lon":5.37934,"is_reserved":false,"is_disabled":false,"rental_uris":{"android":"levelo://app?vid=dfbe0f31-d21b-455b-9d33-63955b6877e6","ios":"levelo://app?vid=dfbe0f31-d21b-455b-9d33-63955b6877e6"},"vehicle_type_id":"4","last_reported":1753211463,"current_range_meters":9200,"station_id":"ce4bh9p2rcd13ifvqec0","pricing_plan_id":"cebpf4jnsgd1na2vs0mg"},{"bike_id":"e4761578-ae86-4dfa-b146-0428e5d8cca7","system_id":"levelo_inurba_marseille","lat":43.24166,"lon":5.36414,"is_reserved":false,"is_disabled":true,"rental_uris":{"android":"levelo://app?vid=e4761578-ae86-4dfa-b146-0428e5d8cca7","ios":"levelo://app?vid=e4761578-ae86-4dfa-b146-0428e5d8cca7"},"vehicle_type_id":"4","last_reported":1753211463,"current_range_meters":9600,"station_id":"cpo36qri1sfpv3e86is0","pricing_plan_id":"cebpf4jnsgd1na2vs0mg"},{"bike_id":"8c1d0819-f991-43c1-a0ae-15c2c54fdbcd","system_id":"levelo_inurba_marseille","lat":43.27368,"lon":5.36247,"is_reserved":false,"is_disabled":true,"rental_uris":{"android":"levelo://app?vid=8c1d0819-f991-43c1-a0ae-15c2c54fdbcd","ios":"levelo://app?vid=8c1d0819-f991-43c1-a0ae-15c2c54fdbcd"},"vehicle_type_id":"4","last_reported":1753211463,"current_range_meters":9600,"station_id":"ce4bhbh2rcd13ifvqeo0","pricing_plan_id":"cebpf4jnsgd1na2vs0mg"},{"bike_id":"d71c42a6-0dfd-4881-a04e-1f364172eeb3","system_id":"levelo_inurba_marseille","lat":43.29036,"lon":5.3755,"is_reserved":false,"is_disabled":false,"rental_uris":{"android":"levelo://app?vid=d71c42a6-0dfd-4881-a04e-1f364172eeb3","ios":"levelo://app?vid=d71c42a6-0dfd-4881-a04e-1f364172eeb3"},"vehicle_type_id":"4","last_reported":1753211463,"current_range_meters":9600,"station_id":"ce4bh692rcd13ifvqe90","pricing_plan_id":"cebpf4jnsgd1na2vs0mg"},{"bike_id":"cd4bb998-9957-41c4-8982-b3a0146a67c8","system_id":"levelo_inurba_marseille","lat":43.28425,"lon":5.34989,"is_reserved":false,"is_disabled":false,"rental_uris":{"android":"levelo://app?vid=cd4bb998-9957-41c4-8982-b3a0146a67c8","ios":"levelo://app?vid=cd4bb998-9957-41c4-8982-b3a0146a67c8"},"vehicle_type_id":"4","last_reported":1753211463,"current_range_meters":9600,"station_id":"ce4bhbh2rcd13ifvqepg","pricing_plan_id":"cebpf4jnsgd1na2vs0mg"},{"bike_id":"ec65914b-7834-44ec-ba4b-576e8da7b871","system_id":"levelo_inurba_marseille","lat":43.29712,"lon":5.36614,"is_reserved":false,"is_disabled":false,"rental_uris":{"android":"levelo://app?vid=ec65914b-7834-44ec-ba4b-576e8da7b871","ios":"levelo://app?vid=ec65914b-7834-44ec-ba4b-576e8da7b871"},"vehicle_type_id":"4","last_reported":1753211463,"current_range_meters":9600,"station_id":"ce4bgn12rcd13ifvqbt0","pricing_plan_id":"cebpf4jnsgd1na2vs0mg"},{"bike_id":"a5e85370-061d-47e7-b8e1-1e6014ac8d14","system_id":"levelo_inurba_marseille","lat":43.28412,"lon":5.34994,"is_reserved":false,"is_disabled":false,"rental_uris":{"android":"levelo://app?vid=a5e85370-061d-47e7-b8e1-1e6014ac8d14","ios":"levelo://app?vid=a5e85370-061d-47e7-b8e1-1e6014ac8d14"},"vehicle_type_id":"4","last_reported":1753211463,"current_range_meters":10000,"station_id":"ce4bhbh2rcd13ifvqepg","pricing_plan_id":"cebpf4jnsgd1na2vs0mg"},{"bike_id":"f81d648c-1981-4daf-be99-4792234208b2","system_id":"levelo_inurba_marseille","lat":43.26265,"lon":5.37166,"is_reserved":false,"is_disabled":false,"rental_uris":{"android":"levelo://app?vid=f81d648c-1981-4daf-be99-4792234208b2","ios":"levelo://app?vid=f81d648c-1981-4daf-be99-4792234208b2"},"vehicle_type_id":"4","last_reported":1753211463,"current_range_meters":10000,"station_id":"","pricing_plan_id":"cebpf4jnsgd1na2vs0mg"},{"bike_id":"2243ffc3-cb35-47d2-a083-e15141e3df3b","system_id":"levelo_inurba_marseille","lat":43.24547,"lon":5.39521,"is_reserved":false,"is_disabled":false,"rental_uris":{"android":"levelo://app?vid=2243ffc3-cb35-47d2-a083-e15141e3df3b","ios":"levelo://app?vid=2243ffc3-cb35-47d2-a083-e15141e3df3b"},"vehicle_type_id":"4","last_reported":1753211463,"current_range_meters":10000,"station_id":"ce4bhlp2rcd13ifvqgjg","pricing_plan_id":"cebpf4jnsgd1na2vs0mg"},{"bike_id":"78159e1a-6821-42ef-9758-6eaf3cf013af","system_id":"levelo_inurba_marseille","lat":43.29631,"lon":5.40591,"is_reserved":false,"is_disabled":false,"rental_uris":{"android":"levelo://app?vid=78159e1a-6821-42ef-9758-6eaf3cf013af","ios":"levelo://app?vid=78159e1a-6821-42ef-9758-6eaf3cf013af"},"vehicle_type_id":"4","last_reported":1753211463,"current_range_meters":10000,"station_id":"ce4bh0h2rcd13ifvqd60","pricing_plan_id":"cebpf4jnsgd1na2vs0mg"},{"bike_id":"23be8af4-bfce-4060-b1a7-b3f8a2b84461","system_id":"levelo_inurba_marseille","lat":43.28482,"lon":5.38416,"is_reserved":false,"is_disabled":false,"rental_uris":{"android":"levelo://app?vid=23be8af4-bfce-4060-b1a7-b3f8a2b84461","ios":"levelo://app?vid=23be8af4-bfce-4060-b1a7-b3f8a2b84461"},"vehicle_type_id":"4","last_reported":1753211463,"current_range_meters":10000,"station_id":"ce4bh512rcd13ifvqe3g","pricing_plan_id":"cebpf4jnsgd1na2vs0mg"},{"bike_id":"89f85920-ba9d-49bb-9ba5-63c0624aa999","system_id":"levelo_inurba_marseille","lat":43.27844,"lon":5.39206,"is_reserved":false,"is_disabled":false,"rental_uris":{"android":"levelo://app?vid=89f85920-ba9d-49bb-9ba5-63c0624aa999","ios":"levelo://app?vid=89f85920-ba9d-49bb-9ba5-63c0624aa999"},"vehicle_type_id":"4","last_reported":1753211463,"current_range_meters":10000,"station_id":"ce4bhjp2rcd13ifvqga0","pricing_plan_id":"cebpf4jnsgd1na2vs0mg"},{"bike_id":"53ec794d-aad6-42e1-8884-4414f429259b","system_id":"levelo_inurba_marseille","lat":43.25496,"lon":5.37645,"is_reserved":false,"is_disabled":false,"rental_uris":{"android":"levelo://app?vid=53ec794d-aad6-42e1-8884-4414f429259b","ios":"levelo://app?vid=53ec794d-aad6-42e1-8884-4414f429259b"},"vehicle_type_id":"4","last_reported":1753211463,"current_range_meters":10800,"station_id":"ce4bhh12rcd13ifvqff0","pricing_plan_id":"cebpf4jnsgd1na2vs0mg"},{"bike_id":"82c8233f-aee5-442c-9e9a-7411a4a6a37b","system_id":"levelo_inurba_marseille","lat":43.30434,"lon":5.39747,"is_reserved":false,"is_disabled":false,"rental_uris":{"android":"levelo://app?vid=82c8233f-aee5-442c-9e9a-7411a4a6a37b","ios":"levelo://app?vid=82c8233f-aee5-442c-9e9a-7411a4a6a37b"},"vehicle_type_id":"4","last_reported":1753211463,"current_range_meters":10800,"station_id":"ce4bh092rcd13ifvqd20","pricing_plan_id":"cebpf4jnsgd1na2vs0mg"},{"bike_id":"830e0d94-a1b1-48f5-853d-bee55a8a4bcb","system_id":"levelo_inurba_marseille","lat":43.27942,"lon":5.41042,"is_reserved":false,"is_disabled":false,"rental_uris":{"android":"levelo://app?vid=830e0d94-a1b1-48f5-853d-bee55a8a4bcb","ios":"levelo://app?vid=830e0d94-a1b1-48f5-853d-bee55a8a4bcb"},"vehicle_type_id":"4","last_reported":1753211463,"current_range_meters":10800,"station_id":"ce4bhnp2rcd13ifvqh0g","pricing_plan_id":"cebpf4jnsgd1na2vs0mg"},{"bike_id":"882548d4-bec4-49ce-bf11-5f0c04740c02","system_id":"levelo_inurba_marseille","lat":43.29716,"lon":5.37703,"is_reserved":false,"is_disabled":false,"rental_uris":{"android":"levelo://app?vid=882548d4-bec4-49ce-bf11-5f0c04740c02","ios":"levelo://app?vid=882548d4-bec4-49ce-bf11-5f0c04740c02"},"vehicle_type_id":"4","last_reported":1753211463,"current_range_meters":10800,"station_id":"ce4bgkh2rcd13ifvqbl0","pricing_plan_id":"cebpf4jnsgd1na2vs0mg"},{"bike_id":"b2d21212-8091-45c6-817c-8d09c1cdf95d","system_id":"levelo_inurba_marseille","lat":43.28995,"lon":5.35634,"is_reserved":false,"is_disabled":false,"rental_uris":{"android":"levelo://app?vid=b2d21212-8091-45c6-817c-8d09c1cdf95d","ios":"levelo://app?vid=b2d21212-8091-45c6-817c-8d09c1cdf95d"},"vehicle_type_id":"4","last_reported":1753211463,"current_range_meters":10800,"station_id":"ce4bhb92rcd13ifvqen0","pricing_plan_id":"cebpf4jnsgd1na2vs0mg"},{"bike_id":"eea93a68-581d-47ae-ab85-496f844ffbff","system_id":"levelo_inurba_marseille","lat":43.21757,"lon":5.34602,"is_reserved":false,"is_disabled":false,"rental_uris":{"android":"levelo://app?vid=eea93a68-581d-47ae-ab85-496f844ffbff","ios":"levelo://app?vid=eea93a68-581d-47ae-ab85-496f844ffbff"},"vehicle_type_id":"4","last_reported":1753211463,"current_range_meters":11200,"station_id":"st_cvj6r9ubvosntc0bgbag","pricing_plan_id":"cebpf4jnsgd1na2vs0mg"},{"bike_id":"aed47e46-a072-4e8e-8266-c7af20f03ed8","system_id":"levelo_inurba_marseille","lat":43.284641,"lon":5.34978,"is_reserved":false,"is_disabled":false,"rental_uris":{"android":"levelo://app?vid=aed47e46-a072-4e8e-8266-c7af20f03ed8","ios":"levelo://app?vid=aed47e46-a072-4e8e-8266-c7af20f03ed8"},"vehicle_type_id":"4","last_reported":1753211463,"current_range_meters":11200,"station_id":"","pricing_plan_id":"cebpf4jnsgd1na2vs0mg"},{"bike_id":"b389142a-ed80-42ae-b0ee-80f3f38502ac","system_id":"levelo_inurba_marseille","lat":43.29623,"lon":5.37164,"is_reserved":false,"is_disabled":false,"rental_uris":{"android":"levelo://app?vid=b389142a-ed80-42ae-b0ee-80f3f38502ac","ios":"levelo://app?vid=b389142a-ed80-42ae-b0ee-80f3f38502ac"},"vehicle_type_id":"4","last_reported":1753211463,"current_range_meters":11200,"station_id":"ce4bgnh2rcd13ifvqc0g","pricing_plan_id":"cebpf4jnsgd1na2vs0mg"},{"bike_id":"44a45772-723a-4648-a74e-08f333288fdd","system_id":"levelo_inurba_marseille","lat":43.25812,"lon":5.39436,"is_reserved":false,"is_disabled":false,"rental_uris":{"android":"levelo://app?vid=44a45772-723a-4648-a74e-08f333288fdd","ios":"levelo://app?vid=44a45772-723a-4648-a74e-08f333288fdd"},"vehicle_type_id":"4","last_reported":1753211463,"current_range_meters":11200,"station_id":"ce4bhip2rcd13ifvqft0","pricing_plan_id":"cebpf4jnsgd1na2vs0mg"},{"bike_id":"1c9ede40-2dd2-4e45-aa1e-9a326f5967a7","system_id":"levelo_inurba_marseille","lat":43.29517,"lon":5.39399,"is_reserved":false,"is_disabled":false,"rental_uris":{"android":"levelo://app?vid=1c9ede40-2dd2-4e45-aa1e-9a326f5967a7","ios":"levelo://app?vid=1c9ede40-2dd2-4e45-aa1e-9a326f5967a7"},"vehicle_type_id":"4","last_reported":1753211463,"current_range_meters":11200,"station_id":"ce4bh292rcd13ifvqdf0","pricing_plan_id":"cebpf4jnsgd1na2vs0mg"},{"bike_id":"93a8b295-0442-42cd-9a09-5ad251943cf6","system_id":"levelo_inurba_marseille","lat":43.28415,"lon":5.34975,"is_reserved":false,"is_disabled":false,"rental_uris":{"android":"levelo://app?vid=93a8b295-0442-42cd-9a09-5ad251943cf6","ios":"levelo://app?vid=93a8b295-0442-42cd-9a09-5ad251943cf6"},"vehicle_type_id":"4","last_reported":1753211463,"current_range_meters":11200,"station_id":"ce4bhbh2rcd13ifvqepg","pricing_plan_id":"cebpf4jnsgd1na2vs0mg"},{"bike_id":"0444b4d1-d636-48af-b6de-c5977797376e","system_id":"levelo_inurba_marseille","lat":43.29185,"lon":5.35793,"is_reserved":false,"is_disabled":false,"rental_uris":{"android":"levelo://app?vid=0444b4d1-d636-48af-b6de-c5977797376e","ios":"levelo://app?vid=0444b4d1-d636-48af-b6de-c5977797376e"},"vehicle_type_id":"4","last_reported":1753211463,"current_range_meters":11200,"station_id":"ce4bhb12rcd13ifvqel0","pricing_plan_id":"cebpf4jnsgd1na2vs0mg"},{"bike_id":"abe46024-7482-41ec-9f14-97341c5ae28b","system_id":"levelo_inurba_marseille","lat":43.26945,"lon":5.40252,"is_reserved":false,"is_disabled":false,"rental_uris":{"android":"levelo://app?vid=abe46024-7482-41ec-9f14-97341c5ae28b","ios":"levelo://app?vid=abe46024-7482-41ec-9f14-97341c5ae28b"},"vehicle_type_id":"4","last_reported":1753211463,"current_range_meters":11200,"station_id":"cjm6bp8fraef2m0cb0m0","pricing_plan_id":"cebpf4jnsgd1na2vs0mg"},{"bike_id":"b41900bf-a806-4927-874c-51b21facd1d4","system_id":"levelo_inurba_marseille","lat":43.24172,"lon":5.36393,"is_reserved":false,"is_disabled":false,"rental_uris":{"android":"levelo://app?vid=b41900bf-a806-4927-874c-51b21facd1d4","ios":"levelo://app?vid=b41900bf-a806-4927-874c-51b21facd1d4"},"vehicle_type_id":"4","last_reported":1753211463,"current_range_meters":11200,"station_id":"cpo36qri1sfpv3e86is0","pricing_plan_id":"cebpf4jnsgd1na2vs0mg"},{"bike_id":"8683ce90-f074-4b78-8033-8d3c6f735b73","system_id":"levelo_inurba_marseille","lat":43.3237,"lon":5.36764,"is_reserved":false,"is_disabled":true,"rental_uris":{"android":"levelo://app?vid=8683ce90-f074-4b78-8033-8d3c6f735b73","ios":"levelo://app?vid=8683ce90-f074-4b78-8033-8d3c6f735b73"},"vehicle_type_id":"4","last_reported":1753211463,"current_range_meters":11600,"station_id":"ce4bhsh2rcd13ifvqi2g","pricing_plan_id":"cebpf4jnsgd1na2vs0mg"},{"bike_id":"06410ab7-646b-4a92-8c67-9be9379422d4","system_id":"levelo_inurba_marseille","lat":43.330405,"lon":5.412818,"is_reserved":false,"is_disabled":false,"rental_uris":{"android":"levelo://app?vid=06410ab7-646b-4a92-8c67-9be9379422d4","ios":"levelo://app?vid=06410ab7-646b-4a92-8c67-9be9379422d4"},"vehicle_type_id":"4","last_reported":1753211463,"current_range_meters":11600,"station_id":"","pricing_plan_id":"cebpf4jnsgd1na2vs0mg"},{"bike_id":"684865e1-b99d-434e-b0c2-2eb4cadc36a5","system_id":"levelo_inurba_marseille","lat":43.29718,"lon":5.3658,"is_reserved":false,"is_disabled":false,"rental_uris":{"android":"levelo://app?vid=684865e1-b99d-434e-b0c2-2eb4cadc36a5","ios":"levelo://app?vid=684865e1-b99d-434e-b0c2-2eb4cadc36a5"},"vehicle_type_id":"4","last_reported":1753211463,"current_range_meters":11600,"station_id":"ce4bgn12rcd13ifvqbt0","pricing_plan_id":"cebpf4jnsgd1na2vs0mg"},{"bike_id":"20339b56-7045-4e78-bed7-095676f985c7","system_id":"levelo_inurba_marseille","lat":43.32474,"lon":5.36565,"is_reserved":false,"is_disabled":false,"rental_uris":{"android":"levelo://app?vid=20339b56-7045-4e78-bed7-095676f985c7","ios":"levelo://app?vid=20339b56-7045-4e78-bed7-095676f985c7"},"vehicle_type_id":"4","last_reported":1753211463,"current_range_meters":11200,"station_id":"ce4bhs12rcd13ifvqhvg","pricing_plan_id":"cebpf4jnsgd1na2vs0mg"},{"bike_id":"a11d093c-4602-402e-9085-6aff7f1a8370","system_id":"levelo_inurba_marseille","lat":43.29538,"lon":5.38546,"is_reserved":false,"is_disabled":true,"rental_uris":{"android":"levelo://app?vid=a11d093c-4602-402e-9085-6aff7f1a8370","ios":"levelo://app?vid=a11d093c-4602-402e-9085-6aff7f1a8370"},"vehicle_type_id":"4","last_reported":1753211463,"current_range_meters":11600,"station_id":"ce4bgih2rcd13ifvqba0","pricing_plan_id":"cebpf4jnsgd1na2vs0mg"},{"bike_id":"33c027a6-7bbc-4a95-9d40-2fcaba41c6dd","system_id":"levelo_inurba_marseille","lat":43.24394,"lon":5.37052,"is_reserved":false,"is_disabled":false,"rental_uris":{"android":"levelo://app?vid=33c027a6-7bbc-4a95-9d40-2fcaba41c6dd","ios":"levelo://app?vid=33c027a6-7bbc-4a95-9d40-2fcaba41c6dd"},"vehicle_type_id":"4","last_reported":1753211463,"current_range_meters":11600,"station_id":"ce4bhhh2rcd13ifvqfk0","pricing_plan_id":"cebpf4jnsgd1na2vs0mg"},{"bike_id":"85a1a74c-f97d-47df-9758-b84695af128b","system_id":"levelo_inurba_marseille","lat":43.27972,"lon":5.38738,"is_reserved":false,"is_disabled":false,"rental_uris":{"android":"levelo://app?vid=85a1a74c-f97d-47df-9758-b84695af128b","ios":"levelo://app?vid=85a1a74c-f97d-47df-9758-b84695af128b"},"vehicle_type_id":"4","last_reported":1753211463,"current_range_meters":11600,"station_id":"ce4bhg12rcd13ifvqf80","pricing_plan_id":"cebpf4jnsgd1na2vs0mg"},{"bike_id":"9d133190-a7ca-4414-a685-23ce4eec6bf1","system_id":"levelo_inurba_marseille","lat":43.2668,"lon":5.38262,"is_reserved":false,"is_disabled":false,"rental_uris":{"android":"levelo://app?vid=9d133190-a7ca-4414-a685-23ce4eec6bf1","ios":"levelo://app?vid=9d133190-a7ca-4414-a685-23ce4eec6bf1"},"vehicle_type_id":"4","last_reported":1753211463,"current_range_meters":11600,"station_id":"ce4bhg92rcd13ifvqf90","pricing_plan_id":"cebpf4jnsgd1na2vs0mg"},{"bike_id":"14bfe123-f8e8-44fc-bbe3-440808c69a8b","system_id":"levelo_inurba_marseille","lat":43.28436,"lon":5.35014,"is_reserved":false,"is_disabled":false,"rental_uris":{"android":"levelo://app?vid=14bfe123-f8e8-44fc-bbe3-440808c69a8b","ios":"levelo://app?vid=14bfe123-f8e8-44fc-bbe3-440808c69a8b"},"vehicle_type_id":"4","last_reported":1753211463,"current_range_meters":11600,"station_id":"ce4bhbh2rcd13ifvqepg","pricing_plan_id":"cebpf4jnsgd1na2vs0mg"},{"bike_id":"5b4b0158-f86f-4e96-a4a3-2fb3a6eed526","system_id":"levelo_inurba_marseille","lat":43.28663,"lon":5.36349,"is_reserved":false,"is_disabled":false,"rental_uris":{"android":"levelo://app?vid=5b4b0158-f86f-4e96-a4a3-2fb3a6eed526","ios":"levelo://app?vid=5b4b0158-f86f-4e96-a4a3-2fb3a6eed526"},"vehicle_type_id":"4","last_reported":1753211463,"current_range_meters":11600,"station_id":"ce4bhah2rcd13ifvqej0","pricing_plan_id":"cebpf4jnsgd1na2vs0mg"},{"bike_id":"437c5dab-fd70-43e1-a27c-969dad11c6e3","system_id":"levelo_inurba_marseille","lat":43.28946,"lon":5.3664,"is_reserved":false,"is_disabled":false,"rental_uris":{"android":"levelo://app?vid=437c5dab-fd70-43e1-a27c-969dad11c6e3","ios":"levelo://app?vid=437c5dab-fd70-43e1-a27c-969dad11c6e3"},"vehicle_type_id":"4","last_reported":1753211463,"current_range_meters":11600,"station_id":"ce4bhap2rcd13ifvqek0","pricing_plan_id":"cebpf4jnsgd1na2vs0mg"},{"bike_id":"a5f1f0d6-c678-45f4-9b29-96eaa29a3e36","system_id":"levelo_inurba_marseille","lat":43.25132,"lon":5.37347,"is_reserved":false,"is_disabled":false,"rental_uris":{"android":"levelo://app?vid=a5f1f0d6-c678-45f4-9b29-96eaa29a3e36","ios":"levelo://app?vid=a5f1f0d6-c678-45f4-9b29-96eaa29a3e36"},"vehicle_type_id":"4","last_reported":1753211463,"current_range_meters":11600,"station_id":"","pricing_plan_id":"cebpf4jnsgd1na2vs0mg"},{"bike_id":"365bc9b2-68bd-4764-ad7a-4ff9aa780715","system_id":"levelo_inurba_marseille","lat":43.29895,"lon":5.43671,"is_reserved":false,"is_disabled":false,"rental_uris":{"android":"levelo://app?vid=365bc9b2-68bd-4764-ad7a-4ff9aa780715","ios":"levelo://app?vid=365bc9b2-68bd-4764-ad7a-4ff9aa780715"},"vehicle_type_id":"4","last_reported":1753211463,"current_range_meters":12000,"station_id":"ce4bhpp2rcd13ifvqhfg","pricing_plan_id":"cebpf4jnsgd1na2vs0mg"},{"bike_id":"556ebe47-8298-4d93-93a6-d2e6e5588882","system_id":"levelo_inurba_marseille","lat":43.30428,"lon":5.39747,"is_reserved":false,"is_disabled":false,"rental_uris":{"android":"levelo://app?vid=556ebe47-8298-4d93-93a6-d2e6e5588882","ios":"levelo://app?vid=556ebe47-8298-4d93-93a6-d2e6e5588882"},"vehicle_type_id":"4","last_reported":1753211463,"current_range_meters":12000,"station_id":"ce4bh092rcd13ifvqd20","pricing_plan_id":"cebpf4jnsgd1na2vs0mg"},{"bike_id":"d725914d-dade-4fde-9287-ec243d3883fc","system_id":"levelo_inurba_marseille","lat":43.30289,"lon":5.39212,"is_reserved":false,"is_disabled":false,"rental_uris":{"android":"levelo://app?vid=d725914d-dade-4fde-9287-ec243d3883fc","ios":"levelo://app?vid=d725914d-dade-4fde-9287-ec243d3883fc"},"vehicle_type_id":"4","last_reported":1753211463,"current_range_meters":12000,"station_id":"ce4bgkh2rcd13ifvqbk0","pricing_plan_id":"cebpf4jnsgd1na2vs0mg"},{"bike_id":"393dc4c5-4a0b-464b-9888-c85b63865b84","system_id":"levelo_inurba_marseille","lat":43.21746,"lon":5.34648,"is_reserved":false,"is_disabled":false,"rental_uris":{"android":"levelo://app?vid=393dc4c5-4a0b-464b-9888-c85b63865b84","ios":"levelo://app?vid=393dc4c5-4a0b-464b-9888-c85b63865b84"},"vehicle_type_id":"4","last_reported":1753211463,"current_range_meters":12000,"station_id":"st_cvj6r9ubvosntc0bgbag","pricing_plan_id":"cebpf4jnsgd1na2vs0mg"},{"bike_id":"4dc0a81d-0a86-4457-9622-ae6809761b62","system_id":"levelo_inurba_marseille","lat":43.3044,"lon":5.3968,"is_reserved":false,"is_disabled":false,"rental_uris":{"android":"levelo://app?vid=4dc0a81d-0a86-4457-9622-ae6809761b62","ios":"levelo://app?vid=4dc0a81d-0a86-4457-9622-ae6809761b62"},"vehicle_type_id":"4","last_reported":1753211463,"current_range_meters":12000,"station_id":"","pricing_plan_id":"cebpf4jnsgd1na2vs0mg"},{"bike_id":"7dbbb529-7a14-4c15-91b2-36294d397550","system_id":"levelo_inurba_marseille","lat":43.23195,"lon":5.35548,"is_reserved":false,"is_disabled":false,"rental_uris":{"android":"levelo://app?vid=7dbbb529-7a14-4c15-91b2-36294d397550","ios":"levelo://app?vid=7dbbb529-7a14-4c15-91b2-36294d397550"},"vehicle_type_id":"4","last_reported":1753211463,"current_range_meters":12000,"station_id":"ce4bhu92rcd13ifvqi70","pricing_plan_id":"cebpf4jnsgd1na2vs0mg"},{"bike_id":"4433bd94-c5b0-4a48-96c6-dd6c81bebbf0","system_id":"levelo_inurba_marseille","lat":43.32663,"lon":5.40991,"is_reserved":false,"is_disabled":false,"rental_uris":{"android":"levelo://app?vid=4433bd94-c5b0-4a48-96c6-dd6c81bebbf0","ios":"levelo://app?vid=4433bd94-c5b0-4a48-96c6-dd6c81bebbf0"},"vehicle_type_id":"4","last_reported":1753211463,"current_range_meters":12000,"station_id":"ce4bhpp2rcd13ifvqhgg","pricing_plan_id":"cebpf4jnsgd1na2vs0mg"},{"bike_id":"b757a52e-6afd-4882-bd73-2bc988436cd1","system_id":"levelo_inurba_marseille","lat":43.29034,"lon":5.3863,"is_reserved":false,"is_disabled":false,"rental_uris":{"android":"levelo://app?vid=b757a52e-6afd-4882-bd73-2bc988436cd1","ios":"levelo://app?vid=b757a52e-6afd-4882-bd73-2bc988436cd1"},"vehicle_type_id":"4","last_reported":1753211463,"current_range_meters":11600,"station_id":"ce4bh4p2rcd13ifvqe0g","pricing_plan_id":"cebpf4jnsgd1na2vs0mg"},{"bike_id":"a117cc0c-935a-4448-b084-b8317cde246a","system_id":"levelo_inurba_marseille","lat":43.29257,"lon":5.40896,"is_reserved":false,"is_disabled":false,"rental_uris":{"android":"levelo://app?vid=a117cc0c-935a-4448-b084-b8317cde246a","ios":"levelo://app?vid=a117cc0c-935a-4448-b084-b8317cde246a"},"vehicle_type_id":"4","last_reported":1753211463,"current_range_meters":12000,"station_id":"ce4bh192rcd13ifvqdc0","pricing_plan_id":"cebpf4jnsgd1na2vs0mg"},{"bike_id":"d87e8ea8-7412-4013-a064-7b414015a035","system_id":"levelo_inurba_marseille","lat":43.262471,"lon":5.405407,"is_reserved":false,"is_disabled":false,"rental_uris":{"android":"levelo://app?vid=d87e8ea8-7412-4013-a064-7b414015a035","ios":"levelo://app?vid=d87e8ea8-7412-4013-a064-7b414015a035"},"vehicle_type_id":"4","last_reported":1753211463,"current_range_meters":12000,"station_id":"ce4bhn92rcd13ifvqgrg","pricing_plan_id":"cebpf4jnsgd1na2vs0mg"},{"bike_id":"c05f8a9b-b11a-421b-bf54-758864ba593c","system_id":"levelo_inurba_marseille","lat":43.25936,"lon":5.40917,"is_reserved":false,"is_disabled":true,"rental_uris":{"android":"levelo://app?vid=c05f8a9b-b11a-421b-bf54-758864ba593c","ios":"levelo://app?vid=c05f8a9b-b11a-421b-bf54-758864ba593c"},"vehicle_type_id":"4","last_reported":1753211463,"current_range_meters":12400,"station_id":"ce4bhm92rcd13ifvqglg","pricing_plan_id":"cebpf4jnsgd1na2vs0mg"},{"bike_id":"27d356a8-a524-44ee-999c-cdee9783dcf1","system_id":"levelo_inurba_marseille","lat":43.30364,"lon":5.42461,"is_reserved":false,"is_disabled":false,"rental_uris":{"android":"levelo://app?vid=27d356a8-a524-44ee-999c-cdee9783dcf1","ios":"levelo://app?vid=27d356a8-a524-44ee-999c-cdee9783dcf1"},"vehicle_type_id":"4","last_reported":1753211463,"current_range_meters":12800,"station_id":"ce4bhoh2rcd13ifvqh6g","pricing_plan_id":"cebpf4jnsgd1na2vs0mg"},{"bike_id":"89e5300e-f524-48d1-8669-762241baab60","system_id":"levelo_inurba_marseille","lat":43.22927,"lon":5.35387,"is_reserved":false,"is_disabled":false,"rental_uris":{"android":"levelo://app?vid=89e5300e-f524-48d1-8669-762241baab60","ios":"levelo://app?vid=89e5300e-f524-48d1-8669-762241baab60"},"vehicle_type_id":"4","last_reported":1753211463,"current_range_meters":12800,"station_id":"cpo3532slgdg3j2ikp40","pricing_plan_id":"cebpf4jnsgd1na2vs0mg"},{"bike_id":"f801204e-2d2a-46f8-9cf7-d6672aabba69","system_id":"levelo_inurba_marseille","lat":43.28939,"lon":5.36645,"is_reserved":false,"is_disabled":false,"rental_uris":{"android":"levelo://app?vid=f801204e-2d2a-46f8-9cf7-d6672aabba69","ios":"levelo://app?vid=f801204e-2d2a-46f8-9cf7-d6672aabba69"},"vehicle_type_id":"4","last_reported":1753211463,"current_range_meters":12800,"station_id":"ce4bhap2rcd13ifvqek0","pricing_plan_id":"cebpf4jnsgd1na2vs0mg"},{"bike_id":"7be012ec-5173-47e7-ba3c-eebf114a92cb","system_id":"levelo_inurba_marseille","lat":43.29194,"lon":5.35779,"is_reserved":false,"is_disabled":false,"rental_uris":{"android":"levelo://app?vid=7be012ec-5173-47e7-ba3c-eebf114a92cb","ios":"levelo://app?vid=7be012ec-5173-47e7-ba3c-eebf114a92cb"},"vehicle_type_id":"4","last_reported":1753211463,"current_range_meters":12800,"station_id":"ce4bhb12rcd13ifvqel0","pricing_plan_id":"cebpf4jnsgd1na2vs0mg"},{"bike_id":"b5b9dcc8-7af6-41a4-9eca-500bcfdfcf48","system_id":"levelo_inurba_marseille","lat":43.29261,"lon":5.40898,"is_reserved":false,"is_disabled":false,"rental_uris":{"android":"levelo://app?vid=b5b9dcc8-7af6-41a4-9eca-500bcfdfcf48","ios":"levelo://app?vid=b5b9dcc8-7af6-41a4-9eca-500bcfdfcf48"},"vehicle_type_id":"4","last_reported":1753211463,"current_range_meters":12800,"station_id":"ce4bh192rcd13ifvqdc0","pricing_plan_id":"cebpf4jnsgd1na2vs0mg"},{"bike_id":"75cd56a6-0d47-4b23-a62e-a2435d6b726c","system_id":"levelo_inurba_marseille","lat":43.27361,"lon":5.36243,"is_reserved":false,"is_disabled":false,"rental_uris":{"android":"levelo://app?vid=75cd56a6-0d47-4b23-a62e-a2435d6b726c","ios":"levelo://app?vid=75cd56a6-0d47-4b23-a62e-a2435d6b726c"},"vehicle_type_id":"4","last_reported":1753211463,"current_range_meters":12800,"station_id":"ce4bhbh2rcd13ifvqeo0","pricing_plan_id":"cebpf4jnsgd1na2vs0mg"},{"bike_id":"157458e2-9676-4586-8d16-e98da32675b3","system_id":"levelo_inurba_marseille","lat":43.30586,"lon":5.39347,"is_reserved":false,"is_disabled":false,"rental_uris":{"android":"levelo://app?vid=157458e2-9676-4586-8d16-e98da32675b3","ios":"levelo://app?vid=157458e2-9676-4586-8d16-e98da32675b3"},"vehicle_type_id":"4","last_reported":1753211463,"current_range_meters":12800,"station_id":"ce4bh0p2rcd13ifvqd80","pricing_plan_id":"cebpf4jnsgd1na2vs0mg"},{"bike_id":"f0c1c567-3404-405c-9e98-69849925e354","system_id":"levelo_inurba_marseille","lat":43.24383,"lon":5.37052,"is_reserved":false,"is_disabled":false,"rental_uris":{"android":"levelo://app?vid=f0c1c567-3404-405c-9e98-69849925e354","ios":"levelo://app?vid=f0c1c567-3404-405c-9e98-69849925e354"},"vehicle_type_id":"4","last_reported":1753211463,"current_range_meters":13600,"station_id":"ce4bhhh2rcd13ifvqfk0","pricing_plan_id":"cebpf4jnsgd1na2vs0mg"},{"bike_id":"93587c98-33ad-44f8-b584-e603c9c9a207","system_id":"levelo_inurba_marseille","lat":43.30315,"lon":5.392117,"is_reserved":false,"is_disabled":false,"rental_uris":{"android":"levelo://app?vid=93587c98-33ad-44f8-b584-e603c9c9a207","ios":"levelo://app?vid=93587c98-33ad-44f8-b584-e603c9c9a207"},"vehicle_type_id":"4","last_reported":1753211463,"current_range_meters":13600,"station_id":"ce4bgkh2rcd13ifvqbk0","pricing_plan_id":"cebpf4jnsgd1na2vs0mg"},{"bike_id":"b21e35a8-4211-4f16-974c-92f85876f3f5","system_id":"levelo_inurba_marseille","lat":43.2952,"lon":5.38543,"is_reserved":false,"is_disabled":false,"rental_uris":{"android":"levelo://app?vid=b21e35a8-4211-4f16-974c-92f85876f3f5","ios":"levelo://app?vid=b21e35a8-4211-4f16-974c-92f85876f3f5"},"vehicle_type_id":"4","last_reported":1753211463,"current_range_meters":13600,"station_id":"ce4bgih2rcd13ifvqba0","pricing_plan_id":"cebpf4jnsgd1na2vs0mg"},{"bike_id":"ed8707e2-7928-4f01-9b56-08b32031f951","system_id":"levelo_inurba_marseille","lat":43.29032,"lon":5.37567,"is_reserved":false,"is_disabled":false,"rental_uris":{"android":"levelo://app?vid=ed8707e2-7928-4f01-9b56-08b32031f951","ios":"levelo://app?vid=ed8707e2-7928-4f01-9b56-08b32031f951"},"vehicle_type_id":"4","last_reported":1753211463,"current_range_meters":13600,"station_id":"ce4bh692rcd13ifvqe90","pricing_plan_id":"cebpf4jnsgd1na2vs0mg"},{"bike_id":"4a35db4e-5a3f-4d45-b760-465bfb68f087","system_id":"levelo_inurba_marseille","lat":43.29261,"lon":5.36857,"is_reserved":false,"is_disabled":false,"rental_uris":{"android":"levelo://app?vid=4a35db4e-5a3f-4d45-b760-465bfb68f087","ios":"levelo://app?vid=4a35db4e-5a3f-4d45-b760-465bfb68f087"},"vehicle_type_id":"4","last_reported":1753211463,"current_range_meters":13600,"station_id":"ce4bhbp2rcd13ifvqesg","pricing_plan_id":"cebpf4jnsgd1na2vs0mg"},{"bike_id":"0f4fbe6a-4962-47ec-9598-5fce1f20721e","system_id":"levelo_inurba_marseille","lat":43.24175,"lon":5.36393,"is_reserved":false,"is_disabled":false,"rental_uris":{"android":"levelo://app?vid=0f4fbe6a-4962-47ec-9598-5fce1f20721e","ios":"levelo://app?vid=0f4fbe6a-4962-47ec-9598-5fce1f20721e"},"vehicle_type_id":"4","last_reported":1753211463,"current_range_meters":13600,"station_id":"cpo36qri1sfpv3e86is0","pricing_plan_id":"cebpf4jnsgd1na2vs0mg"},{"bike_id":"a1f037e5-86f5-4523-92ba-fbc5e0417629","system_id":"levelo_inurba_marseille","lat":43.29032,"lon":5.38134,"is_reserved":false,"is_disabled":false,"rental_uris":{"android":"levelo://app?vid=a1f037e5-86f5-4523-92ba-fbc5e0417629","ios":"levelo://app?vid=a1f037e5-86f5-4523-92ba-fbc5e0417629"},"vehicle_type_id":"4","last_reported":1753211463,"current_range_meters":13600,"station_id":"ce4bh4p2rcd13ifvqe1g","pricing_plan_id":"cebpf4jnsgd1na2vs0mg"},{"bike_id":"77de9928-4e4e-41e9-9dcf-94ef3236205d","system_id":"levelo_inurba_marseille","lat":43.29233,"lon":5.36055,"is_reserved":false,"is_disabled":false,"rental_uris":{"android":"levelo://app?vid=77de9928-4e4e-41e9-9dcf-94ef3236205d","ios":"levelo://app?vid=77de9928-4e4e-41e9-9dcf-94ef3236205d"},"vehicle_type_id":"4","last_reported":1753211463,"current_range_meters":13600,"station_id":"ce4bhbh2rcd13ifvqeqg","pricing_plan_id":"cebpf4jnsgd1na2vs0mg"},{"bike_id":"05d42747-d0a7-485b-804a-c208d042127e","system_id":"levelo_inurba_marseille","lat":43.24181,"lon":5.36384,"is_reserved":false,"is_disabled":false,"rental_uris":{"android":"levelo://app?vid=05d42747-d0a7-485b-804a-c208d042127e","ios":"levelo://app?vid=05d42747-d0a7-485b-804a-c208d042127e"},"vehicle_type_id":"4","last_reported":1753211463,"current_range_meters":13600,"station_id":"cpo36qri1sfpv3e86is0","pricing_plan_id":"cebpf4jnsgd1na2vs0mg"},{"bike_id":"843cdb0c-84e8-4994-b72c-e821d7fead15","system_id":"levelo_inurba_marseille","lat":43.27366,"lon":5.36247,"is_reserved":false,"is_disabled":false,"rental_uris":{"android":"levelo://app?vid=843cdb0c-84e8-4994-b72c-e821d7fead15","ios":"levelo://app?vid=843cdb0c-84e8-4994-b72c-e821d7fead15"},"vehicle_type_id":"4","last_reported":1753211463,"current_range_meters":13600,"station_id":"ce4bhbh2rcd13ifvqeo0","pricing_plan_id":"cebpf4jnsgd1na2vs0mg"},{"bike_id":"5aec4b59-63a1-44c7-b772-a2d2d7b1ec02","system_id":"levelo_inurba_marseille","lat":43.30425,"lon":5.39744,"is_reserved":false,"is_disabled":false,"rental_uris":{"android":"levelo://app?vid=5aec4b59-63a1-44c7-b772-a2d2d7b1ec02","ios":"levelo://app?vid=5aec4b59-63a1-44c7-b772-a2d2d7b1ec02"},"vehicle_type_id":"4","last_reported":1753211463,"current_range_meters":13600,"station_id":"ce4bh092rcd13ifvqd20","pricing_plan_id":"cebpf4jnsgd1na2vs0mg"},{"bike_id":"aa5097b6-6968-4aec-b711-e7780938924b","system_id":"levelo_inurba_marseille","lat":43.32948,"lon":5.35919,"is_reserved":false,"is_disabled":false,"rental_uris":{"android":"levelo://app?vid=aa5097b6-6968-4aec-b711-e7780938924b","ios":"levelo://app?vid=aa5097b6-6968-4aec-b711-e7780938924b"},"vehicle_type_id":"4","last_reported":1753211463,"current_range_meters":13600,"station_id":"","pricing_plan_id":"cebpf4jnsgd1na2vs0mg"},{"bike_id":"f80ee3da-f2fe-4907-8e65-d6e2b6183eca","system_id":"levelo_inurba_marseille","lat":43.273224,"lon":5.362498,"is_reserved":false,"is_disabled":false,"rental_uris":{"android":"levelo://app?vid=f80ee3da-f2fe-4907-8e65-d6e2b6183eca","ios":"levelo://app?vid=f80ee3da-f2fe-4907-8e65-d6e2b6183eca"},"vehicle_type_id":"4","last_reported":1753211463,"current_range_meters":14000,"station_id":"ce4bhbh2rcd13ifvqeo0","pricing_plan_id":"cebpf4jnsgd1na2vs0mg"},{"bike_id":"78e302e9-3c56-495f-8ed6-dac877c5c00a","system_id":"levelo_inurba_marseille","lat":43.29603,"lon":5.38102,"is_reserved":false,"is_disabled":false,"rental_uris":{"android":"levelo://app?vid=78e302e9-3c56-495f-8ed6-dac877c5c00a","ios":"levelo://app?vid=78e302e9-3c56-495f-8ed6-dac877c5c00a"},"vehicle_type_id":"4","last_reported":1753211463,"current_range_meters":14000,"station_id":"ce4bgl12rcd13ifvqbo0","pricing_plan_id":"cebpf4jnsgd1na2vs0mg"},{"bike_id":"cc083976-3250-4866-9ce2-fabd26b79e13","system_id":"levelo_inurba_marseille","lat":43.25497,"lon":5.37646,"is_reserved":false,"is_disabled":false,"rental_uris":{"android":"levelo://app?vid=cc083976-3250-4866-9ce2-fabd26b79e13","ios":"levelo://app?vid=cc083976-3250-4866-9ce2-fabd26b79e13"},"vehicle_type_id":"4","last_reported":1753211463,"current_range_meters":13600,"station_id":"ce4bhh12rcd13ifvqff0","pricing_plan_id":"cebpf4jnsgd1na2vs0mg"},{"bike_id":"aaa7d864-e0be-4f79-946d-ce56fcbf38e6","system_id":"levelo_inurba_marseille","lat":43.29187,"lon":5.39316,"is_reserved":false,"is_disabled":false,"rental_uris":{"android":"levelo://app?vid=aaa7d864-e0be-4f79-946d-ce56fcbf38e6","ios":"levelo://app?vid=aaa7d864-e0be-4f79-946d-ce56fcbf38e6"},"vehicle_type_id":"4","last_reported":1753211463,"current_range_meters":13600,"station_id":"ce4bh192rcd13ifvqdd0","pricing_plan_id":"cebpf4jnsgd1na2vs0mg"},{"bike_id":"277da7d7-42cc-40fb-aa8b-90f784272533","system_id":"levelo_inurba_marseille","lat":43.23963,"lon":5.36626,"is_reserved":false,"is_disabled":false,"rental_uris":{"android":"levelo://app?vid=277da7d7-42cc-40fb-aa8b-90f784272533","ios":"levelo://app?vid=277da7d7-42cc-40fb-aa8b-90f784272533"},"vehicle_type_id":"4","last_reported":1753211463,"current_range_meters":14000,"station_id":"ce4bhi12rcd13ifvqfp0","pricing_plan_id":"cebpf4jnsgd1na2vs0mg"},{"bike_id":"c9dbd36b-479c-4a5c-b200-3aa7673340d9","system_id":"levelo_inurba_marseille","lat":43.241448,"lon":5.363743,"is_reserved":false,"is_disabled":false,"rental_uris":{"android":"levelo://app?vid=c9dbd36b-479c-4a5c-b200-3aa7673340d9","ios":"levelo://app?vid=c9dbd36b-479c-4a5c-b200-3aa7673340d9"},"vehicle_type_id":"4","last_reported":1753211463,"current_range_meters":14000,"station_id":"","pricing_plan_id":"cebpf4jnsgd1na2vs0mg"},{"bike_id":"b8157e49-d09e-4d5e-90fd-5d667c09b9a5","system_id":"levelo_inurba_marseille","lat":43.29058,"lon":5.3717,"is_reserved":false,"is_disabled":true,"rental_uris":{"android":"levelo://app?vid=b8157e49-d09e-4d5e-90fd-5d667c09b9a5","ios":"levelo://app?vid=b8157e49-d09e-4d5e-90fd-5d667c09b9a5"},"vehicle_type_id":"4","last_reported":1753211463,"current_range_meters":14000,"station_id":"ce4bgh92rcd13ifvqb40","pricing_plan_id":"cebpf4jnsgd1na2vs0mg"},{"bike_id":"85b65ca0-7365-40fb-8905-5a0638bc8593","system_id":"levelo_inurba_marseille","lat":43.22931,"lon":5.35372,"is_reserved":false,"is_disabled":false,"rental_uris":{"android":"levelo://app?vid=85b65ca0-7365-40fb-8905-5a0638bc8593","ios":"levelo://app?vid=85b65ca0-7365-40fb-8905-5a0638bc8593"},"vehicle_type_id":"4","last_reported":1753211463,"current_range_meters":14000,"station_id":"cpo3532slgdg3j2ikp40","pricing_plan_id":"cebpf4jnsgd1na2vs0mg"},{"bike_id":"1814aead-c7f1-4b20-8570-698d90166305","system_id":"levelo_inurba_marseille","lat":43.2582,"lon":5.39438,"is_reserved":false,"is_disabled":false,"rental_uris":{"android":"levelo://app?vid=1814aead-c7f1-4b20-8570-698d90166305","ios":"levelo://app?vid=1814aead-c7f1-4b20-8570-698d90166305"},"vehicle_type_id":"4","last_reported":1753211463,"current_range_meters":14000,"station_id":"ce4bhih2rcd13ifvqfr0","pricing_plan_id":"cebpf4jnsgd1na2vs0mg"},{"bike_id":"0f2a2ec1-0612-4170-86a7-c51171ec3498","system_id":"levelo_inurba_marseille","lat":43.28666,"lon":5.36342,"is_reserved":false,"is_disabled":false,"rental_uris":{"android":"levelo://app?vid=0f2a2ec1-0612-4170-86a7-c51171ec3498","ios":"levelo://app?vid=0f2a2ec1-0612-4170-86a7-c51171ec3498"},"vehicle_type_id":"4","last_reported":1753211463,"current_range_meters":14000,"station_id":"ce4bhah2rcd13ifvqej0","pricing_plan_id":"cebpf4jnsgd1na2vs0mg"},{"bike_id":"bc5a821c-c236-48a4-bbdb-0cd112aed1ec","system_id":"levelo_inurba_marseille","lat":43.27623,"lon":5.36112,"is_reserved":false,"is_disabled":false,"rental_uris":{"android":"levelo://app?vid=bc5a821c-c236-48a4-bbdb-0cd112aed1ec","ios":"levelo://app?vid=bc5a821c-c236-48a4-bbdb-0cd112aed1ec"},"vehicle_type_id":"4","last_reported":1753211463,"current_range_meters":14000,"station_id":"ce4bgj92rcd13ifvqbe0","pricing_plan_id":"cebpf4jnsgd1na2vs0mg"},{"bike_id":"e49fc937-ab62-44a5-bfc7-aa7ea72af8d0","system_id":"levelo_inurba_marseille","lat":43.25778,"lon":5.38718,"is_reserved":false,"is_disabled":false,"rental_uris":{"android":"levelo://app?vid=e49fc937-ab62-44a5-bfc7-aa7ea72af8d0","ios":"levelo://app?vid=e49fc937-ab62-44a5-bfc7-aa7ea72af8d0"},"vehicle_type_id":"4","last_reported":1753211463,"current_range_meters":14400,"station_id":"","pricing_plan_id":"cebpf4jnsgd1na2vs0mg"},{"bike_id":"8e6b8fb4-b52b-417c-af31-79aa8bf4509c","system_id":"levelo_inurba_marseille","lat":43.305572,"lon":5.400961,"is_reserved":false,"is_disabled":false,"rental_uris":{"android":"levelo://app?vid=8e6b8fb4-b52b-417c-af31-79aa8bf4509c","ios":"levelo://app?vid=8e6b8fb4-b52b-417c-af31-79aa8bf4509c"},"vehicle_type_id":"4","last_reported":1753211463,"current_range_meters":14400,"station_id":"","pricing_plan_id":"cebpf4jnsgd1na2vs0mg"},{"bike_id":"dfb70569-575b-4627-ace4-b72c9d7227f9","system_id":"levelo_inurba_marseille","lat":43.24075,"lon":5.37739,"is_reserved":false,"is_disabled":false,"rental_uris":{"android":"levelo://app?vid=dfb70569-575b-4627-ace4-b72c9d7227f9","ios":"levelo://app?vid=dfb70569-575b-4627-ace4-b72c9d7227f9"},"vehicle_type_id":"4","last_reported":1753211463,"current_range_meters":14400,"station_id":"ce4bhnp2rcd13ifvqgvg","pricing_plan_id":"cebpf4jnsgd1na2vs0mg"},{"bike_id":"f7d24d79-fb73-44fe-a579-eccbe39a5e1e","system_id":"levelo_inurba_marseille","lat":43.24171,"lon":5.36397,"is_reserved":false,"is_disabled":false,"rental_uris":{"android":"levelo://app?vid=f7d24d79-fb73-44fe-a579-eccbe39a5e1e","ios":"levelo://app?vid=f7d24d79-fb73-44fe-a579-eccbe39a5e1e"},"vehicle_type_id":"4","last_reported":1753211463,"current_range_meters":14400,"station_id":"cpo36qri1sfpv3e86is0","pricing_plan_id":"cebpf4jnsgd1na2vs0mg"},{"bike_id":"6cdf20a1-7674-445f-b94d-1be79448f7dc","system_id":"levelo_inurba_marseille","lat":43.3042,"lon":5.41276,"is_reserved":false,"is_disabled":false,"rental_uris":{"android":"levelo://app?vid=6cdf20a1-7674-445f-b94d-1be79448f7dc","ios":"levelo://app?vid=6cdf20a1-7674-445f-b94d-1be79448f7dc"},"vehicle_type_id":"4","last_reported":1753211463,"current_range_meters":14000,"station_id":"ce4bhop2rcd13ifvqh8g","pricing_plan_id":"cebpf4jnsgd1na2vs0mg"},{"bike_id":"6f88f401-5ad8-4fcf-b5ff-fa60f8fdad81","system_id":"levelo_inurba_marseille","lat":43.2894,"lon":5.36634,"is_reserved":false,"is_disabled":false,"rental_uris":{"android":"levelo://app?vid=6f88f401-5ad8-4fcf-b5ff-fa60f8fdad81","ios":"levelo://app?vid=6f88f401-5ad8-4fcf-b5ff-fa60f8fdad81"},"vehicle_type_id":"4","last_reported":1753211463,"current_range_meters":14400,"station_id":"ce4bhap2rcd13ifvqek0","pricing_plan_id":"cebpf4jnsgd1na2vs0mg"},{"bike_id":"2149dcdb-2049-4c6d-b5ed-9b8b6d401be8","system_id":"levelo_inurba_marseille","lat":43.29027,"lon":5.38136,"is_reserved":false,"is_disabled":false,"rental_uris":{"android":"levelo://app?vid=2149dcdb-2049-4c6d-b5ed-9b8b6d401be8","ios":"levelo://app?vid=2149dcdb-2049-4c6d-b5ed-9b8b6d401be8"},"vehicle_type_id":"4","last_reported":1753211463,"current_range_meters":14400,"station_id":"ce4bh4p2rcd13ifvqe1g","pricing_plan_id":"cebpf4jnsgd1na2vs0mg"},{"bike_id":"3c21b9e1-b296-4844-a6d5-b8d19c7f36c9","system_id":"levelo_inurba_marseille","lat":43.29189,"lon":5.38452,"is_reserved":false,"is_disabled":false,"rental_uris":{"android":"levelo://app?vid=3c21b9e1-b296-4844-a6d5-b8d19c7f36c9","ios":"levelo://app?vid=3c21b9e1-b296-4844-a6d5-b8d19c7f36c9"},"vehicle_type_id":"4","last_reported":1753211463,"current_range_meters":14400,"station_id":"","pricing_plan_id":"cebpf4jnsgd1na2vs0mg"},{"bike_id":"cba62cfa-8f57-49a1-85db-f9c30d956fe2","system_id":"levelo_inurba_marseille","lat":43.27376,"lon":5.36257,"is_reserved":false,"is_disabled":false,"rental_uris":{"android":"levelo://app?vid=cba62cfa-8f57-49a1-85db-f9c30d956fe2","ios":"levelo://app?vid=cba62cfa-8f57-49a1-85db-f9c30d956fe2"},"vehicle_type_id":"4","last_reported":1753211463,"current_range_meters":14400,"station_id":"ce4bhbh2rcd13ifvqeo0","pricing_plan_id":"cebpf4jnsgd1na2vs0mg"},{"bike_id":"72576955-e119-40d4-89ab-e52fbaca2af9","system_id":"levelo_inurba_marseille","lat":43.26402,"lon":5.40808,"is_reserved":false,"is_disabled":false,"rental_uris":{"android":"levelo://app?vid=72576955-e119-40d4-89ab-e52fbaca2af9","ios":"levelo://app?vid=72576955-e119-40d4-89ab-e52fbaca2af9"},"vehicle_type_id":"4","last_reported":1753211463,"current_range_meters":14400,"station_id":"","pricing_plan_id":"cebpf4jnsgd1na2vs0mg"},{"bike_id":"2354a578-b732-43f4-ac7f-14badb5b4c61","system_id":"levelo_inurba_marseille","lat":43.22506,"lon":5.34784,"is_reserved":false,"is_disabled":false,"rental_uris":{"android":"levelo://app?vid=2354a578-b732-43f4-ac7f-14badb5b4c61","ios":"levelo://app?vid=2354a578-b732-43f4-ac7f-14badb5b4c61"},"vehicle_type_id":"4","last_reported":1753211463,"current_range_meters":14800,"station_id":"st_cvj5dfep6f1abm77gieg","pricing_plan_id":"cebpf4jnsgd1na2vs0mg"},{"bike_id":"41f176a4-38f6-4bd5-bce6-cc9641e4a67a","system_id":"levelo_inurba_marseille","lat":43.29771,"lon":5.37114,"is_reserved":false,"is_disabled":false,"rental_uris":{"android":"levelo://app?vid=41f176a4-38f6-4bd5-bce6-cc9641e4a67a","ios":"levelo://app?vid=41f176a4-38f6-4bd5-bce6-cc9641e4a67a"},"vehicle_type_id":"4","last_reported":1753211463,"current_range_meters":14800,"station_id":"ce4bgop2rcd13ifvqc1g","pricing_plan_id":"cebpf4jnsgd1na2vs0mg"},{"bike_id":"c148d198-fe6b-4b77-b7bd-01f531ba8267","system_id":"levelo_inurba_marseille","lat":43.30088,"lon":5.3908,"is_reserved":false,"is_disabled":false,"rental_uris":{"android":"levelo://app?vid=c148d198-fe6b-4b77-b7bd-01f531ba8267","ios":"levelo://app?vid=c148d198-fe6b-4b77-b7bd-01f531ba8267"},"vehicle_type_id":"4","last_reported":1753211463,"current_range_meters":14400,"station_id":"ce4bh192rcd13ifvqdb0","pricing_plan_id":"cebpf4jnsgd1na2vs0mg"},{"bike_id":"fa14a5c9-752b-4ec9-8e2c-a22d9a7d5bc7","system_id":"levelo_inurba_marseille","lat":43.30301,"lon":5.39206,"is_reserved":false,"is_disabled":false,"rental_uris":{"android":"levelo://app?vid=fa14a5c9-752b-4ec9-8e2c-a22d9a7d5bc7","ios":"levelo://app?vid=fa14a5c9-752b-4ec9-8e2c-a22d9a7d5bc7"},"vehicle_type_id":"4","last_reported":1753211463,"current_range_meters":14800,"station_id":"ce4bgkh2rcd13ifvqbk0","pricing_plan_id":"cebpf4jnsgd1na2vs0mg"},{"bike_id":"5e7f45bd-ee89-449c-b562-b8db42ad05f2","system_id":"levelo_inurba_marseille","lat":43.28406,"lon":5.34968,"is_reserved":false,"is_disabled":false,"rental_uris":{"android":"levelo://app?vid=5e7f45bd-ee89-449c-b562-b8db42ad05f2","ios":"levelo://app?vid=5e7f45bd-ee89-449c-b562-b8db42ad05f2"},"vehicle_type_id":"4","last_reported":1753211463,"current_range_meters":14800,"station_id":"ce4bhbh2rcd13ifvqepg","pricing_plan_id":"cebpf4jnsgd1na2vs0mg"},{"bike_id":"e6cda94a-dc1e-40a0-b619-3b8e9e863311","system_id":"levelo_inurba_marseille","lat":43.29251,"lon":5.37612,"is_reserved":false,"is_disabled":false,"rental_uris":{"android":"levelo://app?vid=e6cda94a-dc1e-40a0-b619-3b8e9e863311","ios":"levelo://app?vid=e6cda94a-dc1e-40a0-b619-3b8e9e863311"},"vehicle_type_id":"4","last_reported":1753211463,"current_range_meters":14800,"station_id":"ce4bgi12rcd13ifvqb80","pricing_plan_id":"cebpf4jnsgd1na2vs0mg"},{"bike_id":"1e6792f6-e23b-4a70-9f0d-cfc180638578","system_id":"levelo_inurba_marseille","lat":43.27413,"lon":5.39416,"is_reserved":false,"is_disabled":false,"rental_uris":{"android":"levelo://app?vid=1e6792f6-e23b-4a70-9f0d-cfc180638578","ios":"levelo://app?vid=1e6792f6-e23b-4a70-9f0d-cfc180638578"},"vehicle_type_id":"4","last_reported":1753211463,"current_range_meters":14800,"station_id":"ce4bhgp2rcd13ifvqfe0","pricing_plan_id":"cebpf4jnsgd1na2vs0mg"},{"bike_id":"c774f4c2-bc5f-4cf6-9563-a432097878f3","system_id":"levelo_inurba_marseille","lat":43.29198,"lon":5.35796,"is_reserved":false,"is_disabled":false,"rental_uris":{"android":"levelo://app?vid=c774f4c2-bc5f-4cf6-9563-a432097878f3","ios":"levelo://app?vid=c774f4c2-bc5f-4cf6-9563-a432097878f3"},"vehicle_type_id":"4","last_reported":1753211463,"current_range_meters":14800,"station_id":"ce4bhb12rcd13ifvqel0","pricing_plan_id":"cebpf4jnsgd1na2vs0mg"},{"bike_id":"356040ad-1162-4af2-a60b-9e46effaf81e","system_id":"levelo_inurba_marseille","lat":43.29538,"lon":5.39399,"is_reserved":false,"is_disabled":false,"rental_uris":{"android":"levelo://app?vid=356040ad-1162-4af2-a60b-9e46effaf81e","ios":"levelo://app?vid=356040ad-1162-4af2-a60b-9e46effaf81e"},"vehicle_type_id":"4","last_reported":1753211463,"current_range_meters":15200,"station_id":"ce4bh292rcd13ifvqdf0","pricing_plan_id":"cebpf4jnsgd1na2vs0mg"},{"bike_id":"a8f172c3-22fb-491c-98cf-17bd4cd87a83","system_id":"levelo_inurba_marseille","lat":43.3064,"lon":5.40096,"is_reserved":false,"is_disabled":false,"rental_uris":{"android":"levelo://app?vid=a8f172c3-22fb-491c-98cf-17bd4cd87a83","ios":"levelo://app?vid=a8f172c3-22fb-491c-98cf-17bd4cd87a83"},"vehicle_type_id":"4","last_reported":1753211463,"current_range_meters":15200,"station_id":"ce4bh112rcd13ifvqda0","pricing_plan_id":"cebpf4jnsgd1na2vs0mg"},{"bike_id":"48af5488-6afa-46d8-b781-df5aa91844e8","system_id":"levelo_inurba_marseille","lat":43.313559,"lon":5.384875,"is_reserved":false,"is_disabled":false,"rental_uris":{"android":"levelo://app?vid=48af5488-6afa-46d8-b781-df5aa91844e8","ios":"levelo://app?vid=48af5488-6afa-46d8-b781-df5aa91844e8"},"vehicle_type_id":"4","last_reported":1753211463,"current_range_meters":15200,"station_id":"ce4bgt92rcd13ifvqcf0","pricing_plan_id":"cebpf4jnsgd1na2vs0mg"},{"bike_id":"4e41d943-ebc9-4f63-9913-bc764424a3d5","system_id":"levelo_inurba_marseille","lat":43.320421,"lon":5.415346,"is_reserved":false,"is_disabled":false,"rental_uris":{"android":"levelo://app?vid=4e41d943-ebc9-4f63-9913-bc764424a3d5","ios":"levelo://app?vid=4e41d943-ebc9-4f63-9913-bc764424a3d5"},"vehicle_type_id":"4","last_reported":1753211463,"current_range_meters":15200,"station_id":"ce4bhq92rcd13ifvqhkg","pricing_plan_id":"cebpf4jnsgd1na2vs0mg"},{"bike_id":"535ecc09-6590-40fa-a131-69903ee7e903","system_id":"levelo_inurba_marseille","lat":43.29805,"lon":5.3932,"is_reserved":false,"is_disabled":false,"rental_uris":{"android":"levelo://app?vid=535ecc09-6590-40fa-a131-69903ee7e903","ios":"levelo://app?vid=535ecc09-6590-40fa-a131-69903ee7e903"},"vehicle_type_id":"4","last_reported":1753211463,"current_range_meters":15200,"station_id":"chh1huq6cuj3fo74tm60","pricing_plan_id":"cebpf4jnsgd1na2vs0mg"},{"bike_id":"97ac9999-e273-49a9-a6da-7a63c1b8fefa","system_id":"levelo_inurba_marseille","lat":43.27372,"lon":5.36258,"is_reserved":false,"is_disabled":false,"rental_uris":{"android":"levelo://app?vid=97ac9999-e273-49a9-a6da-7a63c1b8fefa","ios":"levelo://app?vid=97ac9999-e273-49a9-a6da-7a63c1b8fefa"},"vehicle_type_id":"4","last_reported":1753211463,"current_range_meters":15200,"station_id":"ce4bhbh2rcd13ifvqeo0","pricing_plan_id":"cebpf4jnsgd1na2vs0mg"},{"bike_id":"e44893bb-5cdf-4921-b4e8-39ee578180a1","system_id":"levelo_inurba_marseille","lat":43.24076,"lon":5.37755,"is_reserved":false,"is_disabled":false,"rental_uris":{"android":"levelo://app?vid=e44893bb-5cdf-4921-b4e8-39ee578180a1","ios":"levelo://app?vid=e44893bb-5cdf-4921-b4e8-39ee578180a1"},"vehicle_type_id":"4","last_reported":1753211463,"current_range_meters":15200,"station_id":"ce4bhnp2rcd13ifvqgvg","pricing_plan_id":"cebpf4jnsgd1na2vs0mg"},{"bike_id":"062a38f3-99de-4726-9c91-dbd8039fadf2","system_id":"levelo_inurba_marseille","lat":43.31757,"lon":5.39008,"is_reserved":false,"is_disabled":false,"rental_uris":{"android":"levelo://app?vid=062a38f3-99de-4726-9c91-dbd8039fadf2","ios":"levelo://app?vid=062a38f3-99de-4726-9c91-dbd8039fadf2"},"vehicle_type_id":"4","last_reported":1753211463,"current_range_meters":15200,"station_id":"ce4bhqp2rcd13ifvqhng","pricing_plan_id":"cebpf4jnsgd1na2vs0mg"},{"bike_id":"d3eea4a0-76ba-4059-ba6b-c1ecd6270925","system_id":"levelo_inurba_marseille","lat":43.21186,"lon":5.35066,"is_reserved":false,"is_disabled":false,"rental_uris":{"android":"levelo://app?vid=d3eea4a0-76ba-4059-ba6b-c1ecd6270925","ios":"levelo://app?vid=d3eea4a0-76ba-4059-ba6b-c1ecd6270925"},"vehicle_type_id":"4","last_reported":1753211463,"current_range_meters":16000,"station_id":"st_cvj6sg6p6f1abm77japg","pricing_plan_id":"cebpf4jnsgd1na2vs0mg"},{"bike_id":"548a8ddb-9bd1-40e4-9ad1-1cf193ec65be","system_id":"levelo_inurba_marseille","lat":43.27184,"lon":5.41001,"is_reserved":false,"is_disabled":false,"rental_uris":{"android":"levelo://app?vid=548a8ddb-9bd1-40e4-9ad1-1cf193ec65be","ios":"levelo://app?vid=548a8ddb-9bd1-40e4-9ad1-1cf193ec65be"},"vehicle_type_id":"4","last_reported":1753211463,"current_range_meters":16000,"station_id":"ce4bhl12rcd13ifvqgf0","pricing_plan_id":"cebpf4jnsgd1na2vs0mg"},{"bike_id":"153ce597-664e-4dca-97e6-09a4750f1a38","system_id":"levelo_inurba_marseille","lat":43.29177,"lon":5.36042,"is_reserved":false,"is_disabled":false,"rental_uris":{"android":"levelo://app?vid=153ce597-664e-4dca-97e6-09a4750f1a38","ios":"levelo://app?vid=153ce597-664e-4dca-97e6-09a4750f1a38"},"vehicle_type_id":"4","last_reported":1753211463,"current_range_meters":16000,"station_id":"","pricing_plan_id":"cebpf4jnsgd1na2vs0mg"},{"bike_id":"8d8f3933-50f6-4d78-8d6f-f146f32e4300","system_id":"levelo_inurba_marseille","lat":43.30187,"lon":5.3662,"is_reserved":false,"is_disabled":false,"rental_uris":{"android":"levelo://app?vid=8d8f3933-50f6-4d78-8d6f-f146f32e4300","ios":"levelo://app?vid=8d8f3933-50f6-4d78-8d6f-f146f32e4300"},"vehicle_type_id":"4","last_reported":1753211463,"current_range_meters":16000,"station_id":"ce4bgrh2rcd13ifvqc8g","pricing_plan_id":"cebpf4jnsgd1na2vs0mg"},{"bike_id":"1e63eca2-c58f-4745-bb6b-0d50ee98d3f0","system_id":"levelo_inurba_marseille","lat":43.29007,"lon":5.356148,"is_reserved":false,"is_disabled":false,"rental_uris":{"android":"levelo://app?vid=1e63eca2-c58f-4745-bb6b-0d50ee98d3f0","ios":"levelo://app?vid=1e63eca2-c58f-4745-bb6b-0d50ee98d3f0"},"vehicle_type_id":"4","last_reported":1753211463,"current_range_meters":16000,"station_id":"ce4bhb92rcd13ifvqen0","pricing_plan_id":"cebpf4jnsgd1na2vs0mg"},{"bike_id":"fe50cf1d-fc61-4e48-98f2-ea42037cc2b3","system_id":"levelo_inurba_marseille","lat":43.22936,"lon":5.35345,"is_reserved":false,"is_disabled":false,"rental_uris":{"android":"levelo://app?vid=fe50cf1d-fc61-4e48-98f2-ea42037cc2b3","ios":"levelo://app?vid=fe50cf1d-fc61-4e48-98f2-ea42037cc2b3"},"vehicle_type_id":"4","last_reported":1753211463,"current_range_meters":16000,"station_id":"cpo3532slgdg3j2ikp40","pricing_plan_id":"cebpf4jnsgd1na2vs0mg"},{"bike_id":"eb928dce-21d1-4598-ade6-ac399aec7dde","system_id":"levelo_inurba_marseille","lat":43.231797,"lon":5.399957,"is_reserved":false,"is_disabled":false,"rental_uris":{"android":"levelo://app?vid=eb928dce-21d1-4598-ade6-ac399aec7dde","ios":"levelo://app?vid=eb928dce-21d1-4598-ade6-ac399aec7dde"},"vehicle_type_id":"4","last_reported":1753211463,"current_range_meters":15200,"station_id":"ce4bhn12rcd13ifvqgqg","pricing_plan_id":"cebpf4jnsgd1na2vs0mg"},{"bike_id":"6912b39d-9a51-46c2-9a88-bea38d6a7e23","system_id":"levelo_inurba_marseille","lat":43.29887,"lon":5.38901,"is_reserved":false,"is_disabled":false,"rental_uris":{"android":"levelo://app?vid=6912b39d-9a51-46c2-9a88-bea38d6a7e23","ios":"levelo://app?vid=6912b39d-9a51-46c2-9a88-bea38d6a7e23"},"vehicle_type_id":"4","last_reported":1753211463,"current_range_meters":16400,"station_id":"ce4bh392rcd13ifvqdl0","pricing_plan_id":"cebpf4jnsgd1na2vs0mg"},{"bike_id":"db4f7d16-4447-4752-b9fa-314b60a317e8","system_id":"levelo_inurba_marseille","lat":43.29911,"lon":5.37933,"is_reserved":false,"is_disabled":false,"rental_uris":{"android":"levelo://app?vid=db4f7d16-4447-4752-b9fa-314b60a317e8","ios":"levelo://app?vid=db4f7d16-4447-4752-b9fa-314b60a317e8"},"vehicle_type_id":"4","last_reported":1753211463,"current_range_meters":16400,"station_id":"","pricing_plan_id":"cebpf4jnsgd1na2vs0mg"},{"bike_id":"048b5c0b-4b17-4102-a7f2-43ab78143948","system_id":"levelo_inurba_marseille","lat":43.303009,"lon":5.392085,"is_reserved":false,"is_disabled":false,"rental_uris":{"android":"levelo://app?vid=048b5c0b-4b17-4102-a7f2-43ab78143948","ios":"levelo://app?vid=048b5c0b-4b17-4102-a7f2-43ab78143948"},"vehicle_type_id":"4","last_reported":1753211463,"current_range_meters":16400,"station_id":"ce4bgkh2rcd13ifvqbk0","pricing_plan_id":"cebpf4jnsgd1na2vs0mg"},{"bike_id":"05485ec3-07c9-44ad-868d-ca1321acf4f4","system_id":"levelo_inurba_marseille","lat":43.3268,"lon":5.40967,"is_reserved":false,"is_disabled":false,"rental_uris":{"android":"levelo://app?vid=05485ec3-07c9-44ad-868d-ca1321acf4f4","ios":"levelo://app?vid=05485ec3-07c9-44ad-868d-ca1321acf4f4"},"vehicle_type_id":"4","last_reported":1753211463,"current_range_meters":16400,"station_id":"ce4bhpp2rcd13ifvqhgg","pricing_plan_id":"cebpf4jnsgd1na2vs0mg"},{"bike_id":"b0464675-97ba-4e63-b315-d6ee7e3ace83","system_id":"levelo_inurba_marseille","lat":43.279907,"lon":5.416567,"is_reserved":false,"is_disabled":false,"rental_uris":{"android":"levelo://app?vid=b0464675-97ba-4e63-b315-d6ee7e3ace83","ios":"levelo://app?vid=b0464675-97ba-4e63-b315-d6ee7e3ace83"},"vehicle_type_id":"4","last_reported":1753211463,"current_range_meters":16400,"station_id":"ce4bho12rcd13ifvqh1g","pricing_plan_id":"cebpf4jnsgd1na2vs0mg"},{"bike_id":"4be8ab13-53fe-4991-84b7-8c8e15d8b8c8","system_id":"levelo_inurba_marseille","lat":43.28421,"lon":5.34993,"is_reserved":false,"is_disabled":false,"rental_uris":{"android":"levelo://app?vid=4be8ab13-53fe-4991-84b7-8c8e15d8b8c8","ios":"levelo://app?vid=4be8ab13-53fe-4991-84b7-8c8e15d8b8c8"},"vehicle_type_id":"4","last_reported":1753211463,"current_range_meters":16400,"station_id":"ce4bhbh2rcd13ifvqepg","pricing_plan_id":"cebpf4jnsgd1na2vs0mg"},{"bike_id":"dde37093-03db-4d6b-9c3f-16315c4244c0","system_id":"levelo_inurba_marseille","lat":43.21752,"lon":5.34599,"is_reserved":false,"is_disabled":false,"rental_uris":{"android":"levelo://app?vid=dde37093-03db-4d6b-9c3f-16315c4244c0","ios":"levelo://app?vid=dde37093-03db-4d6b-9c3f-16315c4244c0"},"vehicle_type_id":"4","last_reported":1753211463,"current_range_meters":16400,"station_id":"st_cvj6r9ubvosntc0bgbag","pricing_plan_id":"cebpf4jnsgd1na2vs0mg"},{"bike_id":"cc926983-7496-48df-9677-b8723ddc96b9","system_id":"levelo_inurba_marseille","lat":43.22926,"lon":5.35361,"is_reserved":false,"is_disabled":false,"rental_uris":{"android":"levelo://app?vid=cc926983-7496-48df-9677-b8723ddc96b9","ios":"levelo://app?vid=cc926983-7496-48df-9677-b8723ddc96b9"},"vehicle_type_id":"4","last_reported":1753211463,"current_range_meters":16800,"station_id":"cpo3532slgdg3j2ikp40","pricing_plan_id":"cebpf4jnsgd1na2vs0mg"},{"bike_id":"7af7ce7c-ac7c-425e-8db1-fc0b305d3b85","system_id":"levelo_inurba_marseille","lat":43.25487,"lon":5.37658,"is_reserved":false,"is_disabled":false,"rental_uris":{"android":"levelo://app?vid=7af7ce7c-ac7c-425e-8db1-fc0b305d3b85","ios":"levelo://app?vid=7af7ce7c-ac7c-425e-8db1-fc0b305d3b85"},"vehicle_type_id":"4","last_reported":1753211463,"current_range_meters":16800,"station_id":"ce4bhh12rcd13ifvqff0","pricing_plan_id":"cebpf4jnsgd1na2vs0mg"},{"bike_id":"9a143ed1-a3c7-421c-a22c-84e79d27e230","system_id":"levelo_inurba_marseille","lat":43.284195,"lon":5.349887,"is_reserved":false,"is_disabled":true,"rental_uris":{"android":"levelo://app?vid=9a143ed1-a3c7-421c-a22c-84e79d27e230","ios":"levelo://app?vid=9a143ed1-a3c7-421c-a22c-84e79d27e230"},"vehicle_type_id":"4","last_reported":1753211463,"current_range_meters":16800,"station_id":"ce4bhbh2rcd13ifvqepg","pricing_plan_id":"cebpf4jnsgd1na2vs0mg"},{"bike_id":"fb81ee79-6688-4d05-be53-1ac881d0c7b8","system_id":"levelo_inurba_marseille","lat":43.23192,"lon":5.35544,"is_reserved":false,"is_disabled":false,"rental_uris":{"android":"levelo://app?vid=fb81ee79-6688-4d05-be53-1ac881d0c7b8","ios":"levelo://app?vid=fb81ee79-6688-4d05-be53-1ac881d0c7b8"},"vehicle_type_id":"4","last_reported":1753211463,"current_range_meters":16800,"station_id":"ce4bhu92rcd13ifvqi70","pricing_plan_id":"cebpf4jnsgd1na2vs0mg"},{"bike_id":"093c2cb0-1994-4bd3-a77d-f6c63ce5413a","system_id":"levelo_inurba_marseille","lat":43.22495,"lon":5.34804,"is_reserved":false,"is_disabled":true,"rental_uris":{"android":"levelo://app?vid=093c2cb0-1994-4bd3-a77d-f6c63ce5413a","ios":"levelo://app?vid=093c2cb0-1994-4bd3-a77d-f6c63ce5413a"},"vehicle_type_id":"4","last_reported":1753211463,"current_range_meters":16800,"station_id":"st_cvj5dfep6f1abm77gieg","pricing_plan_id":"cebpf4jnsgd1na2vs0mg"},{"bike_id":"fe07410f-2ac3-4d42-a644-c798c7a25a84","system_id":"levelo_inurba_marseille","lat":43.26571,"lon":5.372879,"is_reserved":false,"is_disabled":false,"rental_uris":{"android":"levelo://app?vid=fe07410f-2ac3-4d42-a644-c798c7a25a84","ios":"levelo://app?vid=fe07410f-2ac3-4d42-a644-c798c7a25a84"},"vehicle_type_id":"4","last_reported":1753211463,"current_range_meters":16800,"station_id":"","pricing_plan_id":"cebpf4jnsgd1na2vs0mg"},{"bike_id":"2dfd4d0f-b46b-4289-b303-a8f170004784","system_id":"levelo_inurba_marseille","lat":43.29281,"lon":5.40127,"is_reserved":false,"is_disabled":false,"rental_uris":{"android":"levelo://app?vid=2dfd4d0f-b46b-4289-b303-a8f170004784","ios":"levelo://app?vid=2dfd4d0f-b46b-4289-b303-a8f170004784"},"vehicle_type_id":"4","last_reported":1753211463,"current_range_meters":16800,"station_id":"ce4bh312rcd13ifvqdk0","pricing_plan_id":"cebpf4jnsgd1na2vs0mg"},{"bike_id":"b5dfd7c3-b5e2-4eec-b901-bc875a62f98f","system_id":"levelo_inurba_marseille","lat":43.30307,"lon":5.39209,"is_reserved":false,"is_disabled":false,"rental_uris":{"android":"levelo://app?vid=b5dfd7c3-b5e2-4eec-b901-bc875a62f98f","ios":"levelo://app?vid=b5dfd7c3-b5e2-4eec-b901-bc875a62f98f"},"vehicle_type_id":"4","last_reported":1753211463,"current_range_meters":16800,"station_id":"ce4bgkh2rcd13ifvqbk0","pricing_plan_id":"cebpf4jnsgd1na2vs0mg"},{"bike_id":"86e36c1b-b1dc-43b1-98e6-39f7d19e8519","system_id":"levelo_inurba_marseille","lat":43.2903,"lon":5.38638,"is_reserved":false,"is_disabled":false,"rental_uris":{"android":"levelo://app?vid=86e36c1b-b1dc-43b1-98e6-39f7d19e8519","ios":"levelo://app?vid=86e36c1b-b1dc-43b1-98e6-39f7d19e8519"},"vehicle_type_id":"4","last_reported":1753211463,"current_range_meters":16800,"station_id":"ce4bh4p2rcd13ifvqe0g","pricing_plan_id":"cebpf4jnsgd1na2vs0mg"},{"bike_id":"fb0f45ea-8473-47f0-a76e-d1f6bf1d24f0","system_id":"levelo_inurba_marseille","lat":43.29531,"lon":5.38545,"is_reserved":false,"is_disabled":false,"rental_uris":{"android":"levelo://app?vid=fb0f45ea-8473-47f0-a76e-d1f6bf1d24f0","ios":"levelo://app?vid=fb0f45ea-8473-47f0-a76e-d1f6bf1d24f0"},"vehicle_type_id":"4","last_reported":1753211463,"current_range_meters":16800,"station_id":"ce4bgih2rcd13ifvqba0","pricing_plan_id":"cebpf4jnsgd1na2vs0mg"},{"bike_id":"703b2d5a-3385-4fc9-b823-9353ed68089b","system_id":"levelo_inurba_marseille","lat":43.29912,"lon":5.38865,"is_reserved":false,"is_disabled":false,"rental_uris":{"android":"levelo://app?vid=703b2d5a-3385-4fc9-b823-9353ed68089b","ios":"levelo://app?vid=703b2d5a-3385-4fc9-b823-9353ed68089b"},"vehicle_type_id":"4","last_reported":1753211463,"current_range_meters":16800,"station_id":"ce4bh392rcd13ifvqdl0","pricing_plan_id":"cebpf4jnsgd1na2vs0mg"},{"bike_id":"f957ed87-0211-4dae-8630-d57bd2c40376","system_id":"levelo_inurba_marseille","lat":43.30315,"lon":5.3919,"is_reserved":false,"is_disabled":false,"rental_uris":{"android":"levelo://app?vid=f957ed87-0211-4dae-8630-d57bd2c40376","ios":"levelo://app?vid=f957ed87-0211-4dae-8630-d57bd2c40376"},"vehicle_type_id":"4","last_reported":1753211463,"current_range_meters":16800,"station_id":"ce4bgkh2rcd13ifvqbk0","pricing_plan_id":"cebpf4jnsgd1na2vs0mg"},{"bike_id":"6093672b-1e9a-4299-b920-36e4f293a348","system_id":"levelo_inurba_marseille","lat":43.22917,"lon":5.35386,"is_reserved":false,"is_disabled":false,"rental_uris":{"android":"levelo://app?vid=6093672b-1e9a-4299-b920-36e4f293a348","ios":"levelo://app?vid=6093672b-1e9a-4299-b920-36e4f293a348"},"vehicle_type_id":"4","last_reported":1753211463,"current_range_meters":17200,"station_id":"cpo3532slgdg3j2ikp40","pricing_plan_id":"cebpf4jnsgd1na2vs0mg"},{"bike_id":"09bd6cac-8bfa-4f8e-8e97-c1a028009795","system_id":"levelo_inurba_marseille","lat":43.27885,"lon":5.38013,"is_reserved":false,"is_disabled":false,"rental_uris":{"android":"levelo://app?vid=09bd6cac-8bfa-4f8e-8e97-c1a028009795","ios":"levelo://app?vid=09bd6cac-8bfa-4f8e-8e97-c1a028009795"},"vehicle_type_id":"4","last_reported":1753211463,"current_range_meters":17200,"station_id":"ce4bhf92rcd13ifvqf50","pricing_plan_id":"cebpf4jnsgd1na2vs0mg"},{"bike_id":"1a2751da-031a-4246-8d2c-dd848ee0e802","system_id":"levelo_inurba_marseille","lat":43.29532,"lon":5.38547,"is_reserved":false,"is_disabled":true,"rental_uris":{"android":"levelo://app?vid=1a2751da-031a-4246-8d2c-dd848ee0e802","ios":"levelo://app?vid=1a2751da-031a-4246-8d2c-dd848ee0e802"},"vehicle_type_id":"4","last_reported":1753211463,"current_range_meters":17200,"station_id":"ce4bgih2rcd13ifvqba0","pricing_plan_id":"cebpf4jnsgd1na2vs0mg"},{"bike_id":"df371594-92fd-4a1b-b0db-c4529d58e216","system_id":"levelo_inurba_marseille","lat":43.24171,"lon":5.36388,"is_reserved":false,"is_disabled":false,"rental_uris":{"android":"levelo://app?vid=df371594-92fd-4a1b-b0db-c4529d58e216","ios":"levelo://app?vid=df371594-92fd-4a1b-b0db-c4529d58e216"},"vehicle_type_id":"4","last_reported":1753211463,"current_range_meters":17200,"station_id":"cpo36qri1sfpv3e86is0","pricing_plan_id":"cebpf4jnsgd1na2vs0mg"},{"bike_id":"a7775e00-51cb-4d9e-bea7-82c27941623b","system_id":"levelo_inurba_marseille","lat":43.2971,"lon":5.37705,"is_reserved":false,"is_disabled":false,"rental_uris":{"android":"levelo://app?vid=a7775e00-51cb-4d9e-bea7-82c27941623b","ios":"levelo://app?vid=a7775e00-51cb-4d9e-bea7-82c27941623b"},"vehicle_type_id":"4","last_reported":1753211463,"current_range_meters":17200,"station_id":"ce4bgkh2rcd13ifvqbl0","pricing_plan_id":"cebpf4jnsgd1na2vs0mg"},{"bike_id":"a1b0b122-6e21-4460-9358-18ef2a002ce1","system_id":"levelo_inurba_marseille","lat":43.284,"lon":5.34973,"is_reserved":false,"is_disabled":false,"rental_uris":{"android":"levelo://app?vid=a1b0b122-6e21-4460-9358-18ef2a002ce1","ios":"levelo://app?vid=a1b0b122-6e21-4460-9358-18ef2a002ce1"},"vehicle_type_id":"4","last_reported":1753211463,"current_range_meters":17200,"station_id":"ce4bhbh2rcd13ifvqepg","pricing_plan_id":"cebpf4jnsgd1na2vs0mg"},{"bike_id":"5b47a81d-ead0-4c4b-8864-c63aeb4bcd3d","system_id":"levelo_inurba_marseille","lat":43.2118,"lon":5.35062,"is_reserved":false,"is_disabled":false,"rental_uris":{"android":"levelo://app?vid=5b47a81d-ead0-4c4b-8864-c63aeb4bcd3d","ios":"levelo://app?vid=5b47a81d-ead0-4c4b-8864-c63aeb4bcd3d"},"vehicle_type_id":"4","last_reported":1753211463,"current_range_meters":17200,"station_id":"st_cvj6sg6p6f1abm77japg","pricing_plan_id":"cebpf4jnsgd1na2vs0mg"},{"bike_id":"a50ddb69-9f3f-42f2-bb18-603552bd30e1","system_id":"levelo_inurba_marseille","lat":43.29711,"lon":5.36615,"is_reserved":false,"is_disabled":false,"rental_uris":{"android":"levelo://app?vid=a50ddb69-9f3f-42f2-bb18-603552bd30e1","ios":"levelo://app?vid=a50ddb69-9f3f-42f2-bb18-603552bd30e1"},"vehicle_type_id":"4","last_reported":1753211463,"current_range_meters":17200,"station_id":"ce4bgn12rcd13ifvqbt0","pricing_plan_id":"cebpf4jnsgd1na2vs0mg"},{"bike_id":"f8ee5861-fd79-459d-86dd-bc072e3ff219","system_id":"levelo_inurba_marseille","lat":43.28104,"lon":5.37834,"is_reserved":false,"is_disabled":false,"rental_uris":{"android":"levelo://app?vid=f8ee5861-fd79-459d-86dd-bc072e3ff219","ios":"levelo://app?vid=f8ee5861-fd79-459d-86dd-bc072e3ff219"},"vehicle_type_id":"4","last_reported":1753211463,"current_range_meters":17200,"station_id":"ce4bha12rcd13ifvqee0","pricing_plan_id":"cebpf4jnsgd1na2vs0mg"},{"bike_id":"d3766562-f7eb-41e6-ae18-a11e4512f4e9","system_id":"levelo_inurba_marseille","lat":43.290061,"lon":5.356134,"is_reserved":false,"is_disabled":false,"rental_uris":{"android":"levelo://app?vid=d3766562-f7eb-41e6-ae18-a11e4512f4e9","ios":"levelo://app?vid=d3766562-f7eb-41e6-ae18-a11e4512f4e9"},"vehicle_type_id":"4","last_reported":1753211463,"current_range_meters":18000,"station_id":"ce4bhb92rcd13ifvqen0","pricing_plan_id":"cebpf4jnsgd1na2vs0mg"},{"bike_id":"e3a9e6d1-788b-4774-babe-289560a0bee7","system_id":"levelo_inurba_marseille","lat":43.29969,"lon":5.37411,"is_reserved":false,"is_disabled":false,"rental_uris":{"android":"levelo://app?vid=e3a9e6d1-788b-4774-babe-289560a0bee7","ios":"levelo://app?vid=e3a9e6d1-788b-4774-babe-289560a0bee7"},"vehicle_type_id":"4","last_reported":1753211463,"current_range_meters":17600,"station_id":"","pricing_plan_id":"cebpf4jnsgd1na2vs0mg"},{"bike_id":"087e18e7-e4cb-4784-87aa-e8f46a5d8694","system_id":"levelo_inurba_marseille","lat":43.26574,"lon":5.39007,"is_reserved":false,"is_disabled":false,"rental_uris":{"android":"levelo://app?vid=087e18e7-e4cb-4784-87aa-e8f46a5d8694","ios":"levelo://app?vid=087e18e7-e4cb-4784-87aa-e8f46a5d8694"},"vehicle_type_id":"4","last_reported":1753211463,"current_range_meters":17600,"station_id":"ce4bhe12rcd13ifvqf30","pricing_plan_id":"cebpf4jnsgd1na2vs0mg"},{"bike_id":"d509b331-e799-4503-90e7-40b1e687c26f","system_id":"levelo_inurba_marseille","lat":43.28587,"lon":5.37066,"is_reserved":false,"is_disabled":true,"rental_uris":{"android":"levelo://app?vid=d509b331-e799-4503-90e7-40b1e687c26f","ios":"levelo://app?vid=d509b331-e799-4503-90e7-40b1e687c26f"},"vehicle_type_id":"4","last_reported":1753211463,"current_range_meters":17600,"station_id":"ce4bht12rcd13ifvqi60","pricing_plan_id":"cebpf4jnsgd1na2vs0mg"},{"bike_id":"4355f60b-bb67-4c5e-a729-7d6782d7e997","system_id":"levelo_inurba_marseille","lat":43.27937,"lon":5.40982,"is_reserved":false,"is_disabled":false,"rental_uris":{"android":"levelo://app?vid=4355f60b-bb67-4c5e-a729-7d6782d7e997","ios":"levelo://app?vid=4355f60b-bb67-4c5e-a729-7d6782d7e997"},"vehicle_type_id":"4","last_reported":1753211463,"current_range_meters":17600,"station_id":"","pricing_plan_id":"cebpf4jnsgd1na2vs0mg"},{"bike_id":"0328809f-87e4-43d4-9881-2db7d232e7fc","system_id":"levelo_inurba_marseille","lat":43.2894,"lon":5.36622,"is_reserved":false,"is_disabled":false,"rental_uris":{"android":"levelo://app?vid=0328809f-87e4-43d4-9881-2db7d232e7fc","ios":"levelo://app?vid=0328809f-87e4-43d4-9881-2db7d232e7fc"},"vehicle_type_id":"4","last_reported":1753211463,"current_range_meters":17600,"station_id":"ce4bhap2rcd13ifvqek0","pricing_plan_id":"cebpf4jnsgd1na2vs0mg"},{"bike_id":"5984b2a9-df08-472f-9972-51a1ce9935d3","system_id":"levelo_inurba_marseille","lat":43.21756,"lon":5.34578,"is_reserved":false,"is_disabled":false,"rental_uris":{"android":"levelo://app?vid=5984b2a9-df08-472f-9972-51a1ce9935d3","ios":"levelo://app?vid=5984b2a9-df08-472f-9972-51a1ce9935d3"},"vehicle_type_id":"4","last_reported":1753211463,"current_range_meters":17600,"station_id":"st_cvj6r9ubvosntc0bgbag","pricing_plan_id":"cebpf4jnsgd1na2vs0mg"},{"bike_id":"975c7ac7-ca95-41a0-9cef-be768d6024c6","system_id":"levelo_inurba_marseille","lat":43.29809,"lon":5.3933,"is_reserved":false,"is_disabled":false,"rental_uris":{"android":"levelo://app?vid=975c7ac7-ca95-41a0-9cef-be768d6024c6","ios":"levelo://app?vid=975c7ac7-ca95-41a0-9cef-be768d6024c6"},"vehicle_type_id":"4","last_reported":1753211463,"current_range_meters":18000,"station_id":"chh1huq6cuj3fo74tm60","pricing_plan_id":"cebpf4jnsgd1na2vs0mg"},{"bike_id":"4f1dd806-4cc0-4731-a103-d84b6076bb8f","system_id":"levelo_inurba_marseille","lat":43.2561,"lon":5.382,"is_reserved":false,"is_disabled":true,"rental_uris":{"android":"levelo://app?vid=4f1dd806-4cc0-4731-a103-d84b6076bb8f","ios":"levelo://app?vid=4f1dd806-4cc0-4731-a103-d84b6076bb8f"},"vehicle_type_id":"4","last_reported":1753211463,"current_range_meters":18000,"station_id":"ce4bhih2rcd13ifvqfs0","pricing_plan_id":"cebpf4jnsgd1na2vs0mg"},{"bike_id":"27e6d74c-8b5a-4262-a09b-1f2e1086758c","system_id":"levelo_inurba_marseille","lat":43.28989,"lon":5.37829,"is_reserved":false,"is_disabled":false,"rental_uris":{"android":"levelo://app?vid=27e6d74c-8b5a-4262-a09b-1f2e1086758c","ios":"levelo://app?vid=27e6d74c-8b5a-4262-a09b-1f2e1086758c"},"vehicle_type_id":"4","last_reported":1753211463,"current_range_meters":18000,"station_id":"ce4bh9p2rcd13ifvqed0","pricing_plan_id":"cebpf4jnsgd1na2vs0mg"},{"bike_id":"f16f93eb-3e41-40c6-8f1a-628ef608e3db","system_id":"levelo_inurba_marseille","lat":43.25819,"lon":5.39421,"is_reserved":false,"is_disabled":false,"rental_uris":{"android":"levelo://app?vid=f16f93eb-3e41-40c6-8f1a-628ef608e3db","ios":"levelo://app?vid=f16f93eb-3e41-40c6-8f1a-628ef608e3db"},"vehicle_type_id":"4","last_reported":1753211463,"current_range_meters":18000,"station_id":"ce4bhip2rcd13ifvqft0","pricing_plan_id":"cebpf4jnsgd1na2vs0mg"},{"bike_id":"6e609a8e-a24c-4763-a552-bc09931144e6","system_id":"levelo_inurba_marseille","lat":43.28624,"lon":5.3507,"is_reserved":false,"is_disabled":false,"rental_uris":{"android":"levelo://app?vid=6e609a8e-a24c-4763-a552-bc09931144e6","ios":"levelo://app?vid=6e609a8e-a24c-4763-a552-bc09931144e6"},"vehicle_type_id":"4","last_reported":1753211463,"current_range_meters":18000,"station_id":"ce4bhch2rcd13ifvqeug","pricing_plan_id":"cebpf4jnsgd1na2vs0mg"},{"bike_id":"292ae8ab-0dc3-4841-a61e-d755e224ac6f","system_id":"levelo_inurba_marseille","lat":43.29521,"lon":5.39037,"is_reserved":false,"is_disabled":false,"rental_uris":{"android":"levelo://app?vid=292ae8ab-0dc3-4841-a61e-d755e224ac6f","ios":"levelo://app?vid=292ae8ab-0dc3-4841-a61e-d755e224ac6f"},"vehicle_type_id":"4","last_reported":1753211463,"current_range_meters":18000,"station_id":"ce4bh3p2rcd13ifvqdp0","pricing_plan_id":"cebpf4jnsgd1na2vs0mg"},{"bike_id":"674330ff-21c4-4c60-8bc8-0849090bcaf1","system_id":"levelo_inurba_marseille","lat":43.30306,"lon":5.39211,"is_reserved":false,"is_disabled":false,"rental_uris":{"android":"levelo://app?vid=674330ff-21c4-4c60-8bc8-0849090bcaf1","ios":"levelo://app?vid=674330ff-21c4-4c60-8bc8-0849090bcaf1"},"vehicle_type_id":"4","last_reported":1753211463,"current_range_meters":18000,"station_id":"ce4bgkh2rcd13ifvqbk0","pricing_plan_id":"cebpf4jnsgd1na2vs0mg"},{"bike_id":"5bde50bd-e5a4-4668-a8a1-fb89aac7a25d","system_id":"levelo_inurba_marseille","lat":43.29876,"lon":5.38895,"is_reserved":false,"is_disabled":false,"rental_uris":{"android":"levelo://app?vid=5bde50bd-e5a4-4668-a8a1-fb89aac7a25d","ios":"levelo://app?vid=5bde50bd-e5a4-4668-a8a1-fb89aac7a25d"},"vehicle_type_id":"4","last_reported":1753211463,"current_range_meters":18000,"station_id":"ce4bh392rcd13ifvqdl0","pricing_plan_id":"cebpf4jnsgd1na2vs0mg"},{"bike_id":"3a41e442-1812-4e9c-9a4b-c952397c9da2","system_id":"levelo_inurba_marseille","lat":43.28423,"lon":5.34947,"is_reserved":false,"is_disabled":false,"rental_uris":{"android":"levelo://app?vid=3a41e442-1812-4e9c-9a4b-c952397c9da2","ios":"levelo://app?vid=3a41e442-1812-4e9c-9a4b-c952397c9da2"},"vehicle_type_id":"4","last_reported":1753211463,"current_range_meters":18000,"station_id":"ce4bhbh2rcd13ifvqepg","pricing_plan_id":"cebpf4jnsgd1na2vs0mg"},{"bike_id":"3c5ec4da-c7fb-4377-8a25-fa299fc765b1","system_id":"levelo_inurba_marseille","lat":43.22924,"lon":5.35376,"is_reserved":false,"is_disabled":false,"rental_uris":{"android":"levelo://app?vid=3c5ec4da-c7fb-4377-8a25-fa299fc765b1","ios":"levelo://app?vid=3c5ec4da-c7fb-4377-8a25-fa299fc765b1"},"vehicle_type_id":"4","last_reported":1753211463,"current_range_meters":18000,"station_id":"cpo3532slgdg3j2ikp40","pricing_plan_id":"cebpf4jnsgd1na2vs0mg"},{"bike_id":"b8bfa5de-b4d6-4d38-8e40-510ea441fe00","system_id":"levelo_inurba_marseille","lat":43.28415,"lon":5.34973,"is_reserved":false,"is_disabled":false,"rental_uris":{"android":"levelo://app?vid=b8bfa5de-b4d6-4d38-8e40-510ea441fe00","ios":"levelo://app?vid=b8bfa5de-b4d6-4d38-8e40-510ea441fe00"},"vehicle_type_id":"4","last_reported":1753211463,"current_range_meters":18000,"station_id":"ce4bhbh2rcd13ifvqepg","pricing_plan_id":"cebpf4jnsgd1na2vs0mg"},{"bike_id":"ddee8931-81fd-4275-b13b-a486f6b9cf68","system_id":"levelo_inurba_marseille","lat":43.284088,"lon":5.349778,"is_reserved":false,"is_disabled":false,"rental_uris":{"android":"levelo://app?vid=ddee8931-81fd-4275-b13b-a486f6b9cf68","ios":"levelo://app?vid=ddee8931-81fd-4275-b13b-a486f6b9cf68"},"vehicle_type_id":"4","last_reported":1753211463,"current_range_meters":18000,"station_id":"ce4bhbh2rcd13ifvqepg","pricing_plan_id":"cebpf4jnsgd1na2vs0mg"},{"bike_id":"553dee5b-ce95-4773-a9eb-3aa2a2eb13e6","system_id":"levelo_inurba_marseille","lat":43.28935,"lon":5.36639,"is_reserved":false,"is_disabled":false,"rental_uris":{"android":"levelo://app?vid=553dee5b-ce95-4773-a9eb-3aa2a2eb13e6","ios":"levelo://app?vid=553dee5b-ce95-4773-a9eb-3aa2a2eb13e6"},"vehicle_type_id":"4","last_reported":1753211463,"current_range_meters":18800,"station_id":"ce4bhap2rcd13ifvqek0","pricing_plan_id":"cebpf4jnsgd1na2vs0mg"},{"bike_id":"869b3531-b500-41ef-9b48-7d699d16ba5f","system_id":"levelo_inurba_marseille","lat":43.243908,"lon":5.370551,"is_reserved":false,"is_disabled":false,"rental_uris":{"android":"levelo://app?vid=869b3531-b500-41ef-9b48-7d699d16ba5f","ios":"levelo://app?vid=869b3531-b500-41ef-9b48-7d699d16ba5f"},"vehicle_type_id":"4","last_reported":1753211463,"current_range_meters":18800,"station_id":"ce4bhhh2rcd13ifvqfk0","pricing_plan_id":"cebpf4jnsgd1na2vs0mg"},{"bike_id":"1d55ed1a-2b52-4796-8dca-c7d3633b1679","system_id":"levelo_inurba_marseille","lat":43.25002,"lon":5.38933,"is_reserved":false,"is_disabled":false,"rental_uris":{"android":"levelo://app?vid=1d55ed1a-2b52-4796-8dca-c7d3633b1679","ios":"levelo://app?vid=1d55ed1a-2b52-4796-8dca-c7d3633b1679"},"vehicle_type_id":"4","last_reported":1753211463,"current_range_meters":18800,"station_id":"ce4bhgp2rcd13ifvqfd0","pricing_plan_id":"cebpf4jnsgd1na2vs0mg"},{"bike_id":"44393112-ae51-4274-9413-32d48a2fbcf1","system_id":"levelo_inurba_marseille","lat":43.29269,"lon":5.38446,"is_reserved":false,"is_disabled":false,"rental_uris":{"android":"levelo://app?vid=44393112-ae51-4274-9413-32d48a2fbcf1","ios":"levelo://app?vid=44393112-ae51-4274-9413-32d48a2fbcf1"},"vehicle_type_id":"4","last_reported":1753211463,"current_range_meters":18800,"station_id":"ce4bh692rcd13ifvqea0","pricing_plan_id":"cebpf4jnsgd1na2vs0mg"},{"bike_id":"87efb87e-9c1b-48bc-9816-65bf93d44e2c","system_id":"levelo_inurba_marseille","lat":43.276176,"lon":5.361005,"is_reserved":false,"is_disabled":false,"rental_uris":{"android":"levelo://app?vid=87efb87e-9c1b-48bc-9816-65bf93d44e2c","ios":"levelo://app?vid=87efb87e-9c1b-48bc-9816-65bf93d44e2c"},"vehicle_type_id":"4","last_reported":1753211463,"current_range_meters":18800,"station_id":"","pricing_plan_id":"cebpf4jnsgd1na2vs0mg"},{"bike_id":"23c29e00-ece7-4cf5-8159-4b8848728223","system_id":"levelo_inurba_marseille","lat":43.2841,"lon":5.34995,"is_reserved":false,"is_disabled":false,"rental_uris":{"android":"levelo://app?vid=23c29e00-ece7-4cf5-8159-4b8848728223","ios":"levelo://app?vid=23c29e00-ece7-4cf5-8159-4b8848728223"},