{"last_updated":1727086274,"ttl":30,"version":"2.2","data":{"bikes":[{"bike_id":"f5c238ac-7405-44c2-9675-f88338a58a7a","system_id":"levelo_inurba_marseille","lat":43.30469,"lon":5.37907,"is_reserved":false,"is_disabled":false,"rental_uris":{"android":"levelo://app?vid=f5c238ac-7405-44c2-9675-f88338a58a7a","ios":"levelo://app?vid=f5c238ac-7405-44c2-9675-f88338a58a7a"},"vehicle_type_id":"4","last_reported":1727086274,"current_range_meters":39200,"station_id":"ce4bgup2rcd13ifvqcn0","pricing_plan_id":"cebpf4jnsgd1na2vs0mg"},{"bike_id":"2d0bd563-4a27-4932-8e36-1f09b3de23c4","system_id":"levelo_inurba_marseille","lat":43.27501,"lon":5.42452,"is_reserved":false,"is_disabled":false,"rental_uris":{"android":"levelo://app?vid=2d0bd563-4a27-4932-8e36-1f09b3de23c4","ios":"levelo://app?vid=2d0bd563-4a27-4932-8e36-1f09b3de23c4"},"vehicle_type_id":"4","last_reported":1727086274,"current_range_meters":9200,"station_id":"ce4bhn92rcd13ifvqgrg","pricing_plan_id":"cebpf4jnsgd1na2vs0mg"},{"bike_id":"c3092ca8-ae64-4d17-8b92-19e1ce991720","system_id":"levelo_inurba_marseille","lat":43.26063,"lon":5.39393,"is_reserved":false,"is_disabled":false,"rental_uris":{"android":"levelo://app?vid=c3092ca8-ae64-4d17-8b92-19e1ce991720","ios":"levelo://app?vid=c3092ca8-ae64-4d17-8b92-19e1ce991720"},"vehicle_type_id":"4","last_reported":1727086274,"current_range_meters":28800,"station_id":"ce4bhh92rcd13ifvqfj0","pricing_plan_id":"cebpf4jnsgd1na2vs0mg"},{"bike_id":"2b4e9e8e-e7fa-4b3e-a314-0d1f4bf6b13a","system_id":"levelo_inurba_marseille","lat":43.33759,"lon":5.3744,"is_reserved":false,"is_disabled":false,"rental_uris":{"android":"levelo://app?vid=2b4e9e8e-e7fa-4b3e-a314-0d1f4bf6b13a","ios":"levelo://app?vid=2b4e9e8e-e7fa-4b3e-a314-0d1f4bf6b13a"},"vehicle_type_id":"4","last_reported":1727086274,"current_range_meters":22400,"station_id":"","pricing_plan_id":"cebpf4jnsgd1na2vs0mg"},{"bike_id":"41943479-b0a0-4887-9ba9-a78455b211da","system_id":"levelo_inurba_marseille","lat":43.3266,"lon":5.40994,"is_reserved":false,"is_disabled":false,"rental_uris":{"android":"levelo://app?vid=41943479-b0a0-4887-9ba9-a78455b211da","ios":"levelo://app?vid=41943479-b0a0-4887-9ba9-a78455b211da"},"vehicle_type_id":"4","last_reported":1727086274,"current_range_meters":32400,"station_id":"ce4bhpp2rcd13ifvqhgg","pricing_plan_id":"cebpf4jnsgd1na2vs0mg"},{"bike_id":"433b0daf-7543-4186-817f-8e74dac7e53f","system_id":"levelo_inurba_marseille","lat":43.31358,"lon":5.36704,"is_reserved":false,"is_disabled":false,"rental_uris":{"android":"levelo://app?vid=433b0daf-7543-4186-817f-8e74dac7e53f","ios":"levelo://app?vid=433b0daf-7543-4186-817f-8e74dac7e53f"},"vehicle_type_id":"4","last_reported":1727086274,"current_range_meters":30000,"station_id":"ce4bgr92rcd13ifvqc6g","pricing_plan_id":"cebpf4jnsgd1na2vs0mg"},{"bike_id":"31c2b0cd-911a-459e-b164-8533322b6e41","system_id":"levelo_inurba_marseille","lat":43.295234,"lon":5.390508,"is_reserved":false,"is_disabled":false,"rental_uris":{"android":"levelo://app?vid=31c2b0cd-911a-459e-b164-8533322b6e41","ios":"levelo://app?vid=31c2b0cd-911a-459e-b164-8533322b6e41"},"vehicle_type_id":"4","last_reported":1727086274,"current_range_meters":22800,"station_id":"ce4bh3p2rcd13ifvqdp0","pricing_plan_id":"cebpf4jnsgd1na2vs0mg"},{"bike_id":"9220116b-666c-4ff9-aae2-550d8cf946c5","system_id":"levelo_inurba_marseille","lat":43.31366,"lon":5.3849,"is_reserved":false,"is_disabled":false,"rental_uris":{"android":"levelo://app?vid=9220116b-666c-4ff9-aae2-550d8cf946c5","ios":"levelo://app?vid=9220116b-666c-4ff9-aae2-550d8cf946c5"},"vehicle_type_id":"4","last_reported":1727086274,"current_range_meters":24000,"station_id":"ce4bgt92rcd13ifvqcf0","pricing_plan_id":"cebpf4jnsgd1na2vs0mg"},{"bike_id":"f56110b2-fa0c-4a89-a30e-78140f32ee11","system_id":"levelo_inurba_marseille","lat":43.2993,"lon":5.3654,"is_reserved":false,"is_disabled":false,"rental_uris":{"android":"levelo://app?vid=f56110b2-fa0c-4a89-a30e-78140f32ee11","ios":"levelo://app?vid=f56110b2-fa0c-4a89-a30e-78140f32ee11"},"vehicle_type_id":"4","last_reported":1727086274,"current_range_meters":38800,"station_id":"ce4bgm92rcd13ifvqbr0","pricing_plan_id":"cebpf4jnsgd1na2vs0mg"},{"bike_id":"f93783c1-483b-4be3-a13d-638761853638","system_id":"levelo_inurba_marseille","lat":43.31711,"lon":5.43707,"is_reserved":false,"is_disabled":false,"rental_uris":{"android":"levelo://app?vid=f93783c1-483b-4be3-a13d-638761853638","ios":"levelo://app?vid=f93783c1-483b-4be3-a13d-638761853638"},"vehicle_type_id":"4","last_reported":1727086274,"current_range_meters":16000,"station_id":"ce4bhp92rcd13ifvqhcg","pricing_plan_id":"cebpf4jnsgd1na2vs0mg"},{"bike_id":"526b20eb-a75f-40c5-bb76-a03dedac1a2d","system_id":"levelo_inurba_marseille","lat":43.29519,"lon":5.37513,"is_reserved":false,"is_disabled":false,"rental_uris":{"android":"levelo://app?vid=526b20eb-a75f-40c5-bb76-a03dedac1a2d","ios":"levelo://app?vid=526b20eb-a75f-40c5-bb76-a03dedac1a2d"},"vehicle_type_id":"4","last_reported":1727086274,"current_range_meters":24000,"station_id":"ce4bgkp2rcd13ifvqbmg","pricing_plan_id":"cebpf4jnsgd1na2vs0mg"},{"bike_id":"fb5853f5-d946-47c7-ad09-13c5c8a7243a","system_id":"levelo_inurba_marseille","lat":43.3028,"lon":5.37698,"is_reserved":false,"is_disabled":false,"rental_uris":{"android":"levelo://app?vid=fb5853f5-d946-47c7-ad09-13c5c8a7243a","ios":"levelo://app?vid=fb5853f5-d946-47c7-ad09-13c5c8a7243a"},"vehicle_type_id":"4","last_reported":1727086274,"current_range_meters":33200,"station_id":"ce4bguh2rcd13ifvqcj0","pricing_plan_id":"cebpf4jnsgd1na2vs0mg"},{"bike_id":"7d0ac1e9-3b42-4d8c-8aee-61de2dad8e3b","system_id":"levelo_inurba_marseille","lat":43.33761,"lon":5.37422,"is_reserved":false,"is_disabled":false,"rental_uris":{"android":"levelo://app?vid=7d0ac1e9-3b42-4d8c-8aee-61de2dad8e3b","ios":"levelo://app?vid=7d0ac1e9-3b42-4d8c-8aee-61de2dad8e3b"},"vehicle_type_id":"4","last_reported":1727086274,"current_range_meters":38400,"station_id":"","pricing_plan_id":"cebpf4jnsgd1na2vs0mg"},{"bike_id":"dfecea0a-0422-4bc0-a57a-bf86bc071c86","system_id":"levelo_inurba_marseille","lat":43.25933,"lon":5.40908,"is_reserved":false,"is_disabled":false,"rental_uris":{"android":"levelo://app?vid=dfecea0a-0422-4bc0-a57a-bf86bc071c86","ios":"levelo://app?vid=dfecea0a-0422-4bc0-a57a-bf86bc071c86"},"vehicle_type_id":"4","last_reported":1727086274,"current_range_meters":24800,"station_id":"ce4bhm92rcd13ifvqglg","pricing_plan_id":"cebpf4jnsgd1na2vs0mg"},{"bike_id":"f3e1b1ff-1082-4a8a-ae3b-df52be5c988a","system_id":"levelo_inurba_marseille","lat":43.28154,"lon":5.42646,"is_reserved":false,"is_disabled":false,"rental_uris":{"android":"levelo://app?vid=f3e1b1ff-1082-4a8a-ae3b-df52be5c988a","ios":"levelo://app?vid=f3e1b1ff-1082-4a8a-ae3b-df52be5c988a"},"vehicle_type_id":"4","last_reported":1727086274,"current_range_meters":38400,"station_id":"ce4bhnh2rcd13ifvqgug","pricing_plan_id":"cebpf4jnsgd1na2vs0mg"},{"bike_id":"9e491187-6eae-4713-bd6c-e99251300247","system_id":"levelo_inurba_marseille","lat":43.2594,"lon":5.40901,"is_reserved":false,"is_disabled":false,"rental_uris":{"android":"levelo://app?vid=9e491187-6eae-4713-bd6c-e99251300247","ios":"levelo://app?vid=9e491187-6eae-4713-bd6c-e99251300247"},"vehicle_type_id":"4","last_reported":1727086274,"current_range_meters":28800,"station_id":"ce4bhm92rcd13ifvqglg","pricing_plan_id":"cebpf4jnsgd1na2vs0mg"},{"bike_id":"884e9c62-53e7-4909-8917-e1fe053d38de","system_id":"levelo_inurba_marseille","lat":43.24077,"lon":5.37741,"is_reserved":false,"is_disabled":false,"rental_uris":{"android":"levelo://app?vid=884e9c62-53e7-4909-8917-e1fe053d38de","ios":"levelo://app?vid=884e9c62-53e7-4909-8917-e1fe053d38de"},"vehicle_type_id":"4","last_reported":1727086274,"current_range_meters":38800,"station_id":"ce4bhnp2rcd13ifvqgvg","pricing_plan_id":"cebpf4jnsgd1na2vs0mg"},{"bike_id":"20a042f1-81aa-4cde-8548-4f002e395336","system_id":"levelo_inurba_marseille","lat":43.30194,"lon":5.39825,"is_reserved":false,"is_disabled":false,"rental_uris":{"android":"levelo://app?vid=20a042f1-81aa-4cde-8548-4f002e395336","ios":"levelo://app?vid=20a042f1-81aa-4cde-8548-4f002e395336"},"vehicle_type_id":"4","last_reported":1727086274,"current_range_meters":30800,"station_id":"ce4bgvp2rcd13ifvqct0","pricing_plan_id":"cebpf4jnsgd1na2vs0mg"},{"bike_id":"d50713dc-a63f-4b72-9699-b87f071005a8","system_id":"levelo_inurba_marseille","lat":43.26558,"lon":5.37283,"is_reserved":false,"is_disabled":false,"rental_uris":{"android":"levelo://app?vid=d50713dc-a63f-4b72-9699-b87f071005a8","ios":"levelo://app?vid=d50713dc-a63f-4b72-9699-b87f071005a8"},"vehicle_type_id":"4","last_reported":1727086274,"current_range_meters":27600,"station_id":"ce4bhg12rcd13ifvqf70","pricing_plan_id":"cebpf4jnsgd1na2vs0mg"},{"bike_id":"f490f488-1f0e-45bf-b06b-2a8cc8f44dbb","system_id":"levelo_inurba_marseille","lat":43.27489,"lon":5.42462,"is_reserved":false,"is_disabled":false,"rental_uris":{"android":"levelo://app?vid=f490f488-1f0e-45bf-b06b-2a8cc8f44dbb","ios":"levelo://app?vid=f490f488-1f0e-45bf-b06b-2a8cc8f44dbb"},"vehicle_type_id":"4","last_reported":1727086274,"current_range_meters":14400,"station_id":"ce4bhn92rcd13ifvqgrg","pricing_plan_id":"cebpf4jnsgd1na2vs0mg"},{"bike_id":"294515d0-9789-48d8-be7e-14c4a5ca9341","system_id":"levelo_inurba_marseille","lat":43.30541,"lon":5.36546,"is_reserved":false,"is_disabled":false,"rental_uris":{"android":"levelo://app?vid=294515d0-9789-48d8-be7e-14c4a5ca9341","ios":"levelo://app?vid=294515d0-9789-48d8-be7e-14c4a5ca9341"},"vehicle_type_id":"4","last_reported":1727086274,"current_range_meters":38800,"station_id":"ce4bgs12rcd13ifvqcag","pricing_plan_id":"cebpf4jnsgd1na2vs0mg"},{"bike_id":"12eef59f-e9d4-435a-94ad-abce81dbebcc","system_id":"levelo_inurba_marseille","lat":43.28259,"lon":5.35078,"is_reserved":false,"is_disabled":false,"rental_uris":{"android":"levelo://app?vid=12eef59f-e9d4-435a-94ad-abce81dbebcc","ios":"levelo://app?vid=12eef59f-e9d4-435a-94ad-abce81dbebcc"},"vehicle_type_id":"4","last_reported":1727086274,"current_range_meters":29600,"station_id":"ce4bhbp2rcd13ifvqerg","pricing_plan_id":"cebpf4jnsgd1na2vs0mg"},{"bike_id":"f7adb0ea-e195-40b9-9d71-9b4f032c7ddb","system_id":"levelo_inurba_marseille","lat":43.23151,"lon":5.43707,"is_reserved":false,"is_disabled":false,"rental_uris":{"android":"levelo://app?vid=f7adb0ea-e195-40b9-9d71-9b4f032c7ddb","ios":"levelo://app?vid=f7adb0ea-e195-40b9-9d71-9b4f032c7ddb"},"vehicle_type_id":"4","last_reported":1727086274,"current_range_meters":38400,"station_id":"ce4bhmp2rcd13ifvqgog","pricing_plan_id":"cebpf4jnsgd1na2vs0mg"},{"bike_id":"80eca223-4a73-4a65-a903-bcf7afbbc7bd","system_id":"levelo_inurba_marseille","lat":43.23152,"lon":5.43705,"is_reserved":false,"is_disabled":false,"rental_uris":{"android":"levelo://app?vid=80eca223-4a73-4a65-a903-bcf7afbbc7bd","ios":"levelo://app?vid=80eca223-4a73-4a65-a903-bcf7afbbc7bd"},"vehicle_type_id":"4","last_reported":1727086274,"current_range_meters":38800,"station_id":"ce4bhmp2rcd13ifvqgog","pricing_plan_id":"cebpf4jnsgd1na2vs0mg"},{"bike_id":"1f1f13cc-72ab-45bc-92d5-7872d5d302ee","system_id":"levelo_inurba_marseille","lat":43.337583,"lon":5.374568,"is_reserved":false,"is_disabled":false,"rental_uris":{"android":"levelo://app?vid=1f1f13cc-72ab-45bc-92d5-7872d5d302ee","ios":"levelo://app?vid=1f1f13cc-72ab-45bc-92d5-7872d5d302ee"},"vehicle_type_id":"4","last_reported":1727086274,"current_range_meters":37600,"station_id":"","pricing_plan_id":"cebpf4jnsgd1na2vs0mg"},{"bike_id":"1d1e6a18-7f23-4f77-9f2e-dca333ca5c49","system_id":"levelo_inurba_marseille","lat":43.30457,"lon":5.37915,"is_reserved":false,"is_disabled":false,"rental_uris":{"android":"levelo://app?vid=1d1e6a18-7f23-4f77-9f2e-dca333ca5c49","ios":"levelo://app?vid=1d1e6a18-7f23-4f77-9f2e-dca333ca5c49"},"vehicle_type_id":"4","last_reported":1727086274,"current_range_meters":19200,"station_id":"ce4bgup2rcd13ifvqcn0","pricing_plan_id":"cebpf4jnsgd1na2vs0mg"},{"bike_id":"52553e47-2c41-4fae-b028-2d1e8c5c6c51","system_id":"levelo_inurba_marseille","lat":43.29894,"lon":5.43671,"is_reserved":false,"is_disabled":false,"rental_uris":{"android":"levelo://app?vid=52553e47-2c41-4fae-b028-2d1e8c5c6c51","ios":"levelo://app?vid=52553e47-2c41-4fae-b028-2d1e8c5c6c51"},"vehicle_type_id":"4","last_reported":1727086274,"current_range_meters":22000,"station_id":"ce4bhpp2rcd13ifvqhfg","pricing_plan_id":"cebpf4jnsgd1na2vs0mg"},{"bike_id":"e8b5c465-adb0-49ae-8546-1ac07ba9303d","system_id":"levelo_inurba_marseille","lat":43.27056,"lon":5.40262,"is_reserved":false,"is_disabled":false,"rental_uris":{"android":"levelo://app?vid=e8b5c465-adb0-49ae-8546-1ac07ba9303d","ios":"levelo://app?vid=e8b5c465-adb0-49ae-8546-1ac07ba9303d"},"vehicle_type_id":"4","last_reported":1727086274,"current_range_meters":6800,"station_id":"ce4bhk92rcd13ifvqgc0","pricing_plan_id":"cebpf4jnsgd1na2vs0mg"},{"bike_id":"4117225d-fbf7-489f-a9f9-a7903758f15d","system_id":"levelo_inurba_marseille","lat":43.337444,"lon":5.374475,"is_reserved":false,"is_disabled":false,"rental_uris":{"android":"levelo://app?vid=4117225d-fbf7-489f-a9f9-a7903758f15d","ios":"levelo://app?vid=4117225d-fbf7-489f-a9f9-a7903758f15d"},"vehicle_type_id":"4","last_reported":1727086274,"current_range_meters":26800,"station_id":"","pricing_plan_id":"cebpf4jnsgd1na2vs0mg"},{"bike_id":"03a4c3c6-8245-4aea-bffb-e5a159133019","system_id":"levelo_inurba_marseille","lat":43.31328,"lon":5.39694,"is_reserved":false,"is_disabled":false,"rental_uris":{"android":"levelo://app?vid=03a4c3c6-8245-4aea-bffb-e5a159133019","ios":"levelo://app?vid=03a4c3c6-8245-4aea-bffb-e5a159133019"},"vehicle_type_id":"4","last_reported":1727086274,"current_range_meters":14800,"station_id":"ce4bgvp2rcd13ifvqcu0","pricing_plan_id":"cebpf4jnsgd1na2vs0mg"},{"bike_id":"a1a955d3-8d4c-481c-92bb-999e5dd9af4c","system_id":"levelo_inurba_marseille","lat":43.309509,"lon":5.390125,"is_reserved":false,"is_disabled":false,"rental_uris":{"android":"levelo://app?vid=a1a955d3-8d4c-481c-92bb-999e5dd9af4c","ios":"levelo://app?vid=a1a955d3-8d4c-481c-92bb-999e5dd9af4c"},"vehicle_type_id":"4","last_reported":1727086274,"current_range_meters":26000,"station_id":"ce4bgph2rcd13ifvqc2g","pricing_plan_id":"cebpf4jnsgd1na2vs0mg"},{"bike_id":"2fc34bba-a2b4-4632-bf54-64bcff937e6e","system_id":"levelo_inurba_marseille","lat":43.32478,"lon":5.36564,"is_reserved":false,"is_disabled":false,"rental_uris":{"android":"levelo://app?vid=2fc34bba-a2b4-4632-bf54-64bcff937e6e","ios":"levelo://app?vid=2fc34bba-a2b4-4632-bf54-64bcff937e6e"},"vehicle_type_id":"4","last_reported":1727086274,"current_range_meters":17600,"station_id":"ce4bhs12rcd13ifvqhvg","pricing_plan_id":"cebpf4jnsgd1na2vs0mg"},{"bike_id":"23ca7a8f-e35c-4afc-8c57-aaf8717d5c66","system_id":"levelo_inurba_marseille","lat":43.33771,"lon":5.37414,"is_reserved":false,"is_disabled":false,"rental_uris":{"android":"levelo://app?vid=23ca7a8f-e35c-4afc-8c57-aaf8717d5c66","ios":"levelo://app?vid=23ca7a8f-e35c-4afc-8c57-aaf8717d5c66"},"vehicle_type_id":"4","last_reported":1727086274,"current_range_meters":36000,"station_id":"","pricing_plan_id":"cebpf4jnsgd1na2vs0mg"},{"bike_id":"7d9fe6e2-e499-4477-92c1-5c7acd2cf763","system_id":"levelo_inurba_marseille","lat":43.282623,"lon":5.350804,"is_reserved":false,"is_disabled":false,"rental_uris":{"android":"levelo://app?vid=7d9fe6e2-e499-4477-92c1-5c7acd2cf763","ios":"levelo://app?vid=7d9fe6e2-e499-4477-92c1-5c7acd2cf763"},"vehicle_type_id":"4","last_reported":1727086274,"current_range_meters":12000,"station_id":"ce4bhbp2rcd13ifvqerg","pricing_plan_id":"cebpf4jnsgd1na2vs0mg"},{"bike_id":"a0edd235-9112-4738-ae17-f58c690ab2f4","system_id":"levelo_inurba_marseille","lat":43.32483,"lon":5.36559,"is_reserved":false,"is_disabled":false,"rental_uris":{"android":"levelo://app?vid=a0edd235-9112-4738-ae17-f58c690ab2f4","ios":"levelo://app?vid=a0edd235-9112-4738-ae17-f58c690ab2f4"},"vehicle_type_id":"4","last_reported":1727086274,"current_range_meters":39200,"station_id":"ce4bhs12rcd13ifvqhvg","pricing_plan_id":"cebpf4jnsgd1na2vs0mg"},{"bike_id":"19047348-2f1e-4da0-b3cd-31c96efae218","system_id":"levelo_inurba_marseille","lat":43.29716,"lon":5.36601,"is_reserved":false,"is_disabled":false,"rental_uris":{"android":"levelo://app?vid=19047348-2f1e-4da0-b3cd-31c96efae218","ios":"levelo://app?vid=19047348-2f1e-4da0-b3cd-31c96efae218"},"vehicle_type_id":"4","last_reported":1727086274,"current_range_meters":37600,"station_id":"ce4bgn12rcd13ifvqbt0","pricing_plan_id":"cebpf4jnsgd1na2vs0mg"},{"bike_id":"dd54c675-3f9f-4f90-a73b-6455f71d9076","system_id":"levelo_inurba_marseille","lat":43.30818,"lon":5.38145,"is_reserved":false,"is_disabled":false,"rental_uris":{"android":"levelo://app?vid=dd54c675-3f9f-4f90-a73b-6455f71d9076","ios":"levelo://app?vid=dd54c675-3f9f-4f90-a73b-6455f71d9076"},"vehicle_type_id":"4","last_reported":1727086274,"current_range_meters":30400,"station_id":"ce4bgt12rcd13ifvqce0","pricing_plan_id":"cebpf4jnsgd1na2vs0mg"},{"bike_id":"3c079497-4f0f-4dd3-8bef-c3f7cdf08ea0","system_id":"levelo_inurba_marseille","lat":43.2407,"lon":5.37763,"is_reserved":false,"is_disabled":false,"rental_uris":{"android":"levelo://app?vid=3c079497-4f0f-4dd3-8bef-c3f7cdf08ea0","ios":"levelo://app?vid=3c079497-4f0f-4dd3-8bef-c3f7cdf08ea0"},"vehicle_type_id":"4","last_reported":1727086274,"current_range_meters":36800,"station_id":"ce4bhnp2rcd13ifvqgvg","pricing_plan_id":"cebpf4jnsgd1na2vs0mg"},{"bike_id":"5156bfd9-5b06-45e8-9a61-373dc2e7191a","system_id":"levelo_inurba_marseille","lat":43.24177,"lon":5.39729,"is_reserved":false,"is_disabled":false,"rental_uris":{"android":"levelo://app?vid=5156bfd9-5b06-45e8-9a61-373dc2e7191a","ios":"levelo://app?vid=5156bfd9-5b06-45e8-9a61-373dc2e7191a"},"vehicle_type_id":"4","last_reported":1727086274,"current_range_meters":12400,"station_id":"ce4bhn12rcd13ifvqgpg","pricing_plan_id":"cebpf4jnsgd1na2vs0mg"},{"bike_id":"860c8e9d-4001-4aaa-b1f1-ab02b2cccfa4","system_id":"levelo_inurba_marseille","lat":43.32476,"lon":5.36565,"is_reserved":false,"is_disabled":false,"rental_uris":{"android":"levelo://app?vid=860c8e9d-4001-4aaa-b1f1-ab02b2cccfa4","ios":"levelo://app?vid=860c8e9d-4001-4aaa-b1f1-ab02b2cccfa4"},"vehicle_type_id":"4","last_reported":1727086274,"current_range_meters":25600,"station_id":"ce4bhs12rcd13ifvqhvg","pricing_plan_id":"cebpf4jnsgd1na2vs0mg"},{"bike_id":"11658d4c-2567-4b0f-8e71-8ec83d6896ed","system_id":"levelo_inurba_marseille","lat":43.30541,"lon":5.3655,"is_reserved":false,"is_disabled":false,"rental_uris":{"android":"levelo://app?vid=11658d4c-2567-4b0f-8e71-8ec83d6896ed","ios":"levelo://app?vid=11658d4c-2567-4b0f-8e71-8ec83d6896ed"},"vehicle_type_id":"4","last_reported":1727086274,"current_range_meters":38800,"station_id":"ce4bgs12rcd13ifvqcag","pricing_plan_id":"cebpf4jnsgd1na2vs0mg"},{"bike_id":"20599fda-93e8-4f0a-8767-2870330651f5","system_id":"levelo_inurba_marseille","lat":43.28153,"lon":5.42636,"is_reserved":false,"is_disabled":false,"rental_uris":{"android":"levelo://app?vid=20599fda-93e8-4f0a-8767-2870330651f5","ios":"levelo://app?vid=20599fda-93e8-4f0a-8767-2870330651f5"},"vehicle_type_id":"4","last_reported":1727086274,"current_range_meters":10000,"station_id":"ce4bhnh2rcd13ifvqgug","pricing_plan_id":"cebpf4jnsgd1na2vs0mg"},{"bike_id":"c4c39e66-9ed5-447d-9a70-518b2971b8fd","system_id":"levelo_inurba_marseille","lat":43.30559,"lon":5.3655,"is_reserved":false,"is_disabled":false,"rental_uris":{"android":"levelo://app?vid=c4c39e66-9ed5-447d-9a70-518b2971b8fd","ios":"levelo://app?vid=c4c39e66-9ed5-447d-9a70-518b2971b8fd"},"vehicle_type_id":"4","last_reported":1727086274,"current_range_meters":25600,"station_id":"ce4bgs12rcd13ifvqcag","pricing_plan_id":"cebpf4jnsgd1na2vs0mg"},{"bike_id":"3ebaaaec-15d2-494c-ab9e-13e8bcbe1874","system_id":"levelo_inurba_marseille","lat":43.29276,"lon":5.3686,"is_reserved":false,"is_disabled":false,"rental_uris":{"android":"levelo://app?vid=3ebaaaec-15d2-494c-ab9e-13e8bcbe1874","ios":"levelo://app?vid=3ebaaaec-15d2-494c-ab9e-13e8bcbe1874"},"vehicle_type_id":"4","last_reported":1727086274,"current_range_meters":30800,"station_id":"ce4bhbp2rcd13ifvqesg","pricing_plan_id":"cebpf4jnsgd1na2vs0mg"},{"bike_id":"85199d38-3d1e-4e2f-8a4b-e778d084c3e4","system_id":"levelo_inurba_marseille","lat":43.31363,"lon":5.38499,"is_reserved":false,"is_disabled":false,"rental_uris":{"android":"levelo://app?vid=85199d38-3d1e-4e2f-8a4b-e778d084c3e4","ios":"levelo://app?vid=85199d38-3d1e-4e2f-8a4b-e778d084c3e4"},"vehicle_type_id":"4","last_reported":1727086274,"current_range_meters":19200,"station_id":"ce4bgt92rcd13ifvqcf0","pricing_plan_id":"cebpf4jnsgd1na2vs0mg"},{"bike_id":"de29b561-59b2-44dc-ae00-0f630a9bf7cb","system_id":"levelo_inurba_marseille","lat":43.337625,"lon":5.374797,"is_reserved":false,"is_disabled":false,"rental_uris":{"android":"levelo://app?vid=de29b561-59b2-44dc-ae00-0f630a9bf7cb","ios":"levelo://app?vid=de29b561-59b2-44dc-ae00-0f630a9bf7cb"},"vehicle_type_id":"4","last_reported":1727086274,"current_range_meters":16400,"station_id":"","pricing_plan_id":"cebpf4jnsgd1na2vs0mg"},{"bike_id":"2b26ac36-e341-4854-a9d6-915450d3500a","system_id":"levelo_inurba_marseille","lat":43.2707,"lon":5.42275,"is_reserved":false,"is_disabled":false,"rental_uris":{"android":"levelo://app?vid=2b26ac36-e341-4854-a9d6-915450d3500a","ios":"levelo://app?vid=2b26ac36-e341-4854-a9d6-915450d3500a"},"vehicle_type_id":"4","last_reported":1727086274,"current_range_meters":38000,"station_id":"ce4bhk92rcd13ifvqgb0","pricing_plan_id":"cebpf4jnsgd1na2vs0mg"},{"bike_id":"3c1d0bfd-38dd-4eed-9871-eed72377db72","system_id":"levelo_inurba_marseille","lat":43.29023,"lon":5.38133,"is_reserved":false,"is_disabled":false,"rental_uris":{"android":"levelo://app?vid=3c1d0bfd-38dd-4eed-9871-eed72377db72","ios":"levelo://app?vid=3c1d0bfd-38dd-4eed-9871-eed72377db72"},"vehicle_type_id":"4","last_reported":1727086274,"current_range_meters":20000,"station_id":"ce4bh4p2rcd13ifvqe1g","pricing_plan_id":"cebpf4jnsgd1na2vs0mg"},{"bike_id":"c58899bf-0fa3-4eea-b6c6-96b07b2adcfe","system_id":"levelo_inurba_marseille","lat":43.3361,"lon":5.41021,"is_reserved":false,"is_disabled":false,"rental_uris":{"android":"levelo://app?vid=c58899bf-0fa3-4eea-b6c6-96b07b2adcfe","ios":"levelo://app?vid=c58899bf-0fa3-4eea-b6c6-96b07b2adcfe"},"vehicle_type_id":"4","last_reported":1727086274,"current_range_meters":27600,"station_id":"ce4bhqh2rcd13ifvqhmg","pricing_plan_id":"cebpf4jnsgd1na2vs0mg"},{"bike_id":"5ac02ac5-91f4-4bb5-a9b4-f7275115ed59","system_id":"levelo_inurba_marseille","lat":43.23153,"lon":5.43711,"is_reserved":false,"is_disabled":false,"rental_uris":{"android":"levelo://app?vid=5ac02ac5-91f4-4bb5-a9b4-f7275115ed59","ios":"levelo://app?vid=5ac02ac5-91f4-4bb5-a9b4-f7275115ed59"},"vehicle_type_id":"4","last_reported":1727086274,"current_range_meters":24000,"station_id":"ce4bhmp2rcd13ifvqgog","pricing_plan_id":"cebpf4jnsgd1na2vs0mg"},{"bike_id":"3a7df687-87d8-4d4e-bd15-5646e65fd8b7","system_id":"levelo_inurba_marseille","lat":43.23962,"lon":5.36623,"is_reserved":false,"is_disabled":false,"rental_uris":{"android":"levelo://app?vid=3a7df687-87d8-4d4e-bd15-5646e65fd8b7","ios":"levelo://app?vid=3a7df687-87d8-4d4e-bd15-5646e65fd8b7"},"vehicle_type_id":"4","last_reported":1727086274,"current_range_meters":18800,"station_id":"ce4bhi12rcd13ifvqfp0","pricing_plan_id":"cebpf4jnsgd1na2vs0mg"},{"bike_id":"b46a0750-bd07-4ba9-8b52-8abd2c69029e","system_id":"levelo_inurba_marseille","lat":43.24076,"lon":5.37756,"is_reserved":false,"is_disabled":false,"rental_uris":{"android":"levelo://app?vid=b46a0750-bd07-4ba9-8b52-8abd2c69029e","ios":"levelo://app?vid=b46a0750-bd07-4ba9-8b52-8abd2c69029e"},"vehicle_type_id":"4","last_reported":1727086274,"current_range_meters":32400,"station_id":"ce4bhnp2rcd13ifvqgvg","pricing_plan_id":"cebpf4jnsgd1na2vs0mg"},{"bike_id":"3edce45b-faf5-4fd3-850c-bf98d21f0c88","system_id":"levelo_inurba_marseille","lat":43.27186,"lon":5.40983,"is_reserved":false,"is_disabled":false,"rental_uris":{"android":"levelo://app?vid=3edce45b-faf5-4fd3-850c-bf98d21f0c88","ios":"levelo://app?vid=3edce45b-faf5-4fd3-850c-bf98d21f0c88"},"vehicle_type_id":"4","last_reported":1727086274,"current_range_meters":23200,"station_id":"ce4bhl12rcd13ifvqgf0","pricing_plan_id":"cebpf4jnsgd1na2vs0mg"},{"bike_id":"36c416da-9158-44af-aa3a-06b103bea7bf","system_id":"levelo_inurba_marseille","lat":43.337444,"lon":5.374475,"is_reserved":false,"is_disabled":false,"rental_uris":{"android":"levelo://app?vid=36c416da-9158-44af-aa3a-06b103bea7bf","ios":"levelo://app?vid=36c416da-9158-44af-aa3a-06b103bea7bf"},"vehicle_type_id":"4","last_reported":1727086274,"current_range_meters":24400,"station_id":"","pricing_plan_id":"cebpf4jnsgd1na2vs0mg"},{"bike_id":"ca9e9a5a-4fe4-4df2-a8db-f6bddd5a629d","system_id":"levelo_inurba_marseille","lat":43.24545,"lon":5.39521,"is_reserved":false,"is_disabled":false,"rental_uris":{"android":"levelo://app?vid=ca9e9a5a-4fe4-4df2-a8db-f6bddd5a629d","ios":"levelo://app?vid=ca9e9a5a-4fe4-4df2-a8db-f6bddd5a629d"},"vehicle_type_id":"4","last_reported":1727086274,"current_range_meters":32000,"station_id":"ce4bhlp2rcd13ifvqgjg","pricing_plan_id":"cebpf4jnsgd1na2vs0mg"},{"bike_id":"32e9b728-deff-4a3c-8d8d-2c902d83ed55","system_id":"levelo_inurba_marseille","lat":43.26065,"lon":5.39392,"is_reserved":false,"is_disabled":false,"rental_uris":{"android":"levelo://app?vid=32e9b728-deff-4a3c-8d8d-2c902d83ed55","ios":"levelo://app?vid=32e9b728-deff-4a3c-8d8d-2c902d83ed55"},"vehicle_type_id":"4","last_reported":1727086274,"current_range_meters":8000,"station_id":"ce4bhh92rcd13ifvqfj0","pricing_plan_id":"cebpf4jnsgd1na2vs0mg"},{"bike_id":"dca116e1-becc-4cc1-b63c-e024d941dc63","system_id":"levelo_inurba_marseille","lat":43.30595,"lon":5.37218,"is_reserved":false,"is_disabled":false,"rental_uris":{"android":"levelo://app?vid=dca116e1-becc-4cc1-b63c-e024d941dc63","ios":"levelo://app?vid=dca116e1-becc-4cc1-b63c-e024d941dc63"},"vehicle_type_id":"4","last_reported":1727086274,"current_range_meters":32400,"station_id":"ce4bgqh2rcd13ifvqc4g","pricing_plan_id":"cebpf4jnsgd1na2vs0mg"},{"bike_id":"dcf3d7bc-c35f-4647-a9ab-733122a04faf","system_id":"levelo_inurba_marseille","lat":43.25104,"lon":5.40322,"is_reserved":false,"is_disabled":false,"rental_uris":{"android":"levelo://app?vid=dcf3d7bc-c35f-4647-a9ab-733122a04faf","ios":"levelo://app?vid=dcf3d7bc-c35f-4647-a9ab-733122a04faf"},"vehicle_type_id":"4","last_reported":1727086274,"current_range_meters":37600,"station_id":"ce4bhlh2rcd13ifvqgig","pricing_plan_id":"cebpf4jnsgd1na2vs0mg"},{"bike_id":"8e975919-49f3-4c9f-8eda-6d98788fb7bc","system_id":"levelo_inurba_marseille","lat":43.337444,"lon":5.374475,"is_reserved":false,"is_disabled":false,"rental_uris":{"android":"levelo://app?vid=8e975919-49f3-4c9f-8eda-6d98788fb7bc","ios":"levelo://app?vid=8e975919-49f3-4c9f-8eda-6d98788fb7bc"},"vehicle_type_id":"4","last_reported":1727086274,"current_range_meters":15200,"station_id":"","pricing_plan_id":"cebpf4jnsgd1na2vs0mg"},{"bike_id":"fee847b2-684e-4f0f-b3c3-0910bdb1f06e","system_id":"levelo_inurba_marseille","lat":43.28153,"lon":5.42638,"is_reserved":false,"is_disabled":false,"rental_uris":{"android":"levelo://app?vid=fee847b2-684e-4f0f-b3c3-0910bdb1f06e","ios":"levelo://app?vid=fee847b2-684e-4f0f-b3c3-0910bdb1f06e"},"vehicle_type_id":"4","last_reported":1727086274,"current_range_meters":9200,"station_id":"ce4bhnh2rcd13ifvqgug","pricing_plan_id":"cebpf4jnsgd1na2vs0mg"},{"bike_id":"9535c4c1-db43-4da9-bd59-0e6bec13b4df","system_id":"levelo_inurba_marseille","lat":43.23149,"lon":5.43711,"is_reserved":false,"is_disabled":false,"rental_uris":{"android":"levelo://app?vid=9535c4c1-db43-4da9-bd59-0e6bec13b4df","ios":"levelo://app?vid=9535c4c1-db43-4da9-bd59-0e6bec13b4df"},"vehicle_type_id":"4","last_reported":1727086274,"current_range_meters":6000,"station_id":"ce4bhmp2rcd13ifvqgog","pricing_plan_id":"cebpf4jnsgd1na2vs0mg"},{"bike_id":"43043176-26c4-426a-b720-127ae8f9740f","system_id":"levelo_inurba_marseille","lat":43.23149,"lon":5.43716,"is_reserved":false,"is_disabled":false,"rental_uris":{"android":"levelo://app?vid=43043176-26c4-426a-b720-127ae8f9740f","ios":"levelo://app?vid=43043176-26c4-426a-b720-127ae8f9740f"},"vehicle_type_id":"4","last_reported":1727086274,"current_range_meters":38800,"station_id":"ce4bhmp2rcd13ifvqgog","pricing_plan_id":"cebpf4jnsgd1na2vs0mg"},{"bike_id":"22336d57-bf53-4167-a5f7-364d4c2048ae","system_id":"levelo_inurba_marseille","lat":43.30801,"lon":5.43528,"is_reserved":false,"is_disabled":false,"rental_uris":{"android":"levelo://app?vid=22336d57-bf53-4167-a5f7-364d4c2048ae","ios":"levelo://app?vid=22336d57-bf53-4167-a5f7-364d4c2048ae"},"vehicle_type_id":"4","last_reported":1727086274,"current_range_meters":27200,"station_id":"ce4bhph2rcd13ifvqheg","pricing_plan_id":"cebpf4jnsgd1na2vs0mg"},{"bike_id":"e3d2532e-31d6-42bf-aab1-460af77668ca","system_id":"levelo_inurba_marseille","lat":43.23062,"lon":5.35497,"is_reserved":false,"is_disabled":false,"rental_uris":{"android":"levelo://app?vid=e3d2532e-31d6-42bf-aab1-460af77668ca","ios":"levelo://app?vid=e3d2532e-31d6-42bf-aab1-460af77668ca"},"vehicle_type_id":"4","last_reported":1727086274,"current_range_meters":6400,"station_id":"cpo3342slgdg3j2ifvpg","pricing_plan_id":"cebpf4jnsgd1na2vs0mg"},{"bike_id":"690627a1-8e57-4b02-bc7a-dd9bcf49489f","system_id":"levelo_inurba_marseille","lat":43.29582,"lon":5.36735,"is_reserved":false,"is_disabled":false,"rental_uris":{"android":"levelo://app?vid=690627a1-8e57-4b02-bc7a-dd9bcf49489f","ios":"levelo://app?vid=690627a1-8e57-4b02-bc7a-dd9bcf49489f"},"vehicle_type_id":"4","last_reported":1727086274,"current_range_meters":39200,"station_id":"ce4bgph2rcd13ifvqc2g","pricing_plan_id":"cebpf4jnsgd1na2vs0mg"},{"bike_id":"149779fc-bc45-458a-857f-33707eedaf6a","system_id":"levelo_inurba_marseille","lat":43.23188,"lon":5.35556,"is_reserved":false,"is_disabled":false,"rental_uris":{"android":"levelo://app?vid=149779fc-bc45-458a-857f-33707eedaf6a","ios":"levelo://app?vid=149779fc-bc45-458a-857f-33707eedaf6a"},"vehicle_type_id":"4","last_reported":1727086274,"current_range_meters":9600,"station_id":"ce4bhu92rcd13ifvqi70","pricing_plan_id":"cebpf4jnsgd1na2vs0mg"},{"bike_id":"6ec8732e-87cf-46c9-aceb-5e0f45774ee5","system_id":"levelo_inurba_marseille","lat":43.29581,"lon":5.3674,"is_reserved":false,"is_disabled":false,"rental_uris":{"android":"levelo://app?vid=6ec8732e-87cf-46c9-aceb-5e0f45774ee5","ios":"levelo://app?vid=6ec8732e-87cf-46c9-aceb-5e0f45774ee5"},"vehicle_type_id":"4","last_reported":1727086274,"current_range_meters":22800,"station_id":"ce4bgph2rcd13ifvqc2g","pricing_plan_id":"cebpf4jnsgd1na2vs0mg"},{"bike_id":"dcd9b5d2-0de8-47f5-a370-a19a6ea66e01","system_id":"levelo_inurba_marseille","lat":43.28264,"lon":5.35084,"is_reserved":false,"is_disabled":false,"rental_uris":{"android":"levelo://app?vid=dcd9b5d2-0de8-47f5-a370-a19a6ea66e01","ios":"levelo://app?vid=dcd9b5d2-0de8-47f5-a370-a19a6ea66e01"},"vehicle_type_id":"4","last_reported":1727086274,"current_range_meters":32800,"station_id":"ce4bhbp2rcd13ifvqerg","pricing_plan_id":"cebpf4jnsgd1na2vs0mg"},{"bike_id":"a26009ca-19fd-40f1-9a97-33c2f9a91c0a","system_id":"levelo_inurba_marseille","lat":43.30939,"lon":5.39026,"is_reserved":false,"is_disabled":false,"rental_uris":{"android":"levelo://app?vid=a26009ca-19fd-40f1-9a97-33c2f9a91c0a","ios":"levelo://app?vid=a26009ca-19fd-40f1-9a97-33c2f9a91c0a"},"vehicle_type_id":"4","last_reported":1727086274,"current_range_meters":30800,"station_id":"ce4bgup2rcd13ifvqco0","pricing_plan_id":"cebpf4jnsgd1na2vs0mg"},{"bike_id":"02fa9452-9fc1-4abb-b317-caf3e864d656","system_id":"levelo_inurba_marseille","lat":43.2749,"lon":5.42461,"is_reserved":false,"is_disabled":false,"rental_uris":{"android":"levelo://app?vid=02fa9452-9fc1-4abb-b317-caf3e864d656","ios":"levelo://app?vid=02fa9452-9fc1-4abb-b317-caf3e864d656"},"vehicle_type_id":"4","last_reported":1727086274,"current_range_meters":30800,"station_id":"ce4bhn92rcd13ifvqgrg","pricing_plan_id":"cebpf4jnsgd1na2vs0mg"},{"bike_id":"c501f88e-9fbe-4981-8abd-1de6df1bf2b5","system_id":"levelo_inurba_marseille","lat":43.24078,"lon":5.37746,"is_reserved":false,"is_disabled":false,"rental_uris":{"android":"levelo://app?vid=c501f88e-9fbe-4981-8abd-1de6df1bf2b5","ios":"levelo://app?vid=c501f88e-9fbe-4981-8abd-1de6df1bf2b5"},"vehicle_type_id":"4","last_reported":1727086274,"current_range_meters":38800,"station_id":"ce4bhnp2rcd13ifvqgvg","pricing_plan_id":"cebpf4jnsgd1na2vs0mg"},{"bike_id":"cafc1892-d38a-400e-9753-0536b0eb5bd7","system_id":"levelo_inurba_marseille","lat":43.27493,"lon":5.42454,"is_reserved":false,"is_disabled":false,"rental_uris":{"android":"levelo://app?vid=cafc1892-d38a-400e-9753-0536b0eb5bd7","ios":"levelo://app?vid=cafc1892-d38a-400e-9753-0536b0eb5bd7"},"vehicle_type_id":"4","last_reported":1727086274,"current_range_meters":10800,"station_id":"ce4bhn92rcd13ifvqgrg","pricing_plan_id":"cebpf4jnsgd1na2vs0mg"},{"bike_id":"6d43d68f-1219-456d-beb3-64563aed831c","system_id":"levelo_inurba_marseille","lat":43.306,"lon":5.37228,"is_reserved":false,"is_disabled":false,"rental_uris":{"android":"levelo://app?vid=6d43d68f-1219-456d-beb3-64563aed831c","ios":"levelo://app?vid=6d43d68f-1219-456d-beb3-64563aed831c"},"vehicle_type_id":"4","last_reported":1727086274,"current_range_meters":8000,"station_id":"ce4bgqh2rcd13ifvqc4g","pricing_plan_id":"cebpf4jnsgd1na2vs0mg"},{"bike_id":"a1130285-14c1-471d-a411-fb2eed577eff","system_id":"levelo_inurba_marseille","lat":43.23153,"lon":5.43702,"is_reserved":false,"is_disabled":false,"rental_uris":{"android":"levelo://app?vid=a1130285-14c1-471d-a411-fb2eed577eff","ios":"levelo://app?vid=a1130285-14c1-471d-a411-fb2eed577eff"},"vehicle_type_id":"4","last_reported":1727086274,"current_range_meters":28400,"station_id":"ce4bhmp2rcd13ifvqgog","pricing_plan_id":"cebpf4jnsgd1na2vs0mg"},{"bike_id":"c62a5454-879e-460b-849b-00b1f677e136","system_id":"levelo_inurba_marseille","lat":43.26558,"lon":5.37281,"is_reserved":false,"is_disabled":false,"rental_uris":{"android":"levelo://app?vid=c62a5454-879e-460b-849b-00b1f677e136","ios":"levelo://app?vid=c62a5454-879e-460b-849b-00b1f677e136"},"vehicle_type_id":"4","last_reported":1727086274,"current_range_meters":28800,"station_id":"ce4bhg12rcd13ifvqf70","pricing_plan_id":"cebpf4jnsgd1na2vs0mg"},{"bike_id":"2a58cdfb-f240-4535-8c96-efa17ae0387f","system_id":"levelo_inurba_marseille","lat":43.28443,"lon":5.39209,"is_reserved":false,"is_disabled":false,"rental_uris":{"android":"levelo://app?vid=2a58cdfb-f240-4535-8c96-efa17ae0387f","ios":"levelo://app?vid=2a58cdfb-f240-4535-8c96-efa17ae0387f"},"vehicle_type_id":"4","last_reported":1727086274,"current_range_meters":29600,"station_id":"ce4bhoh2rcd13ifvqh5g","pricing_plan_id":"cebpf4jnsgd1na2vs0mg"},{"bike_id":"75c228dd-5d22-472e-8a3b-5da67fad73ae","system_id":"levelo_inurba_marseille","lat":43.30536,"lon":5.36703,"is_reserved":false,"is_disabled":false,"rental_uris":{"android":"levelo://app?vid=75c228dd-5d22-472e-8a3b-5da67fad73ae","ios":"levelo://app?vid=75c228dd-5d22-472e-8a3b-5da67fad73ae"},"vehicle_type_id":"4","last_reported":1727086274,"current_range_meters":17200,"station_id":"ce4bgrp2rcd13ifvqc9g","pricing_plan_id":"cebpf4jnsgd1na2vs0mg"},{"bike_id":"a478c4e2-b12d-45da-a8a8-14e5ecfa0723","system_id":"levelo_inurba_marseille","lat":43.30534,"lon":5.36712,"is_reserved":false,"is_disabled":false,"rental_uris":{"android":"levelo://app?vid=a478c4e2-b12d-45da-a8a8-14e5ecfa0723","ios":"levelo://app?vid=a478c4e2-b12d-45da-a8a8-14e5ecfa0723"},"vehicle_type_id":"4","last_reported":1727086274,"current_range_meters":10000,"station_id":"ce4bgrp2rcd13ifvqc9g","pricing_plan_id":"cebpf4jnsgd1na2vs0mg"},{"bike_id":"3788f45a-3be9-4c81-8b77-2cb3b52e22fe","system_id":"levelo_inurba_marseille","lat":43.28151,"lon":5.42637,"is_reserved":false,"is_disabled":false,"rental_uris":{"android":"levelo://app?vid=3788f45a-3be9-4c81-8b77-2cb3b52e22fe","ios":"levelo://app?vid=3788f45a-3be9-4c81-8b77-2cb3b52e22fe"},"vehicle_type_id":"4","last_reported":1727086274,"current_range_meters":30400,"station_id":"ce4bhnh2rcd13ifvqgug","pricing_plan_id":"cebpf4jnsgd1na2vs0mg"},{"bike_id":"88e4c0fa-72f1-440f-996a-774d6383e494","system_id":"levelo_inurba_marseille","lat":43.29844,"lon":5.36272,"is_reserved":false,"is_disabled":false,"rental_uris":{"android":"levelo://app?vid=88e4c0fa-72f1-440f-996a-774d6383e494","ios":"levelo://app?vid=88e4c0fa-72f1-440f-996a-774d6383e494"},"vehicle_type_id":"4","last_reported":1727086274,"current_range_meters":39200,"station_id":"ce4bgpp2rcd13ifvqc3g","pricing_plan_id":"cebpf4jnsgd1na2vs0mg"},{"bike_id":"44b50cd5-9fec-40b7-88e0-c89ccba3762c","system_id":"levelo_inurba_marseille","lat":43.2315,"lon":5.43707,"is_reserved":false,"is_disabled":false,"rental_uris":{"android":"levelo://app?vid=44b50cd5-9fec-40b7-88e0-c89ccba3762c","ios":"levelo://app?vid=44b50cd5-9fec-40b7-88e0-c89ccba3762c"},"vehicle_type_id":"4","last_reported":1727086274,"current_range_meters":39200,"station_id":"ce4bhmp2rcd13ifvqgog","pricing_plan_id":"cebpf4jnsgd1na2vs0mg"},{"bike_id":"cd4e2e72-c963-40bd-a174-7e445adb2a74","system_id":"levelo_inurba_marseille","lat":43.28272,"lon":5.35093,"is_reserved":false,"is_disabled":false,"rental_uris":{"android":"levelo://app?vid=cd4e2e72-c963-40bd-a174-7e445adb2a74","ios":"levelo://app?vid=cd4e2e72-c963-40bd-a174-7e445adb2a74"},"vehicle_type_id":"4","last_reported":1727086274,"current_range_meters":36800,"station_id":"ce4bhbp2rcd13ifvqerg","pricing_plan_id":"cebpf4jnsgd1na2vs0mg"},{"bike_id":"45b239bd-ddc1-4849-a223-afba4bdbdcbc","system_id":"levelo_inurba_marseille","lat":43.2318,"lon":5.39984,"is_reserved":false,"is_disabled":false,"rental_uris":{"android":"levelo://app?vid=45b239bd-ddc1-4849-a223-afba4bdbdcbc","ios":"levelo://app?vid=45b239bd-ddc1-4849-a223-afba4bdbdcbc"},"vehicle_type_id":"4","last_reported":1727086274,"current_range_meters":10800,"station_id":"ce4bhn12rcd13ifvqgqg","pricing_plan_id":"cebpf4jnsgd1na2vs0mg"},{"bike_id":"49651c6b-106a-4630-9e3a-edc809336fd2","system_id":"levelo_inurba_marseille","lat":43.2582,"lon":5.39438,"is_reserved":false,"is_disabled":false,"rental_uris":{"android":"levelo://app?vid=49651c6b-106a-4630-9e3a-edc809336fd2","ios":"levelo://app?vid=49651c6b-106a-4630-9e3a-edc809336fd2"},"vehicle_type_id":"4","last_reported":1727086274,"current_range_meters":40000,"station_id":"ce4bhip2rcd13ifvqft0","pricing_plan_id":"cebpf4jnsgd1na2vs0mg"},{"bike_id":"3c62f824-7506-4c44-a7ff-d78b1c251a88","system_id":"levelo_inurba_marseille","lat":43.23184,"lon":5.35552,"is_reserved":false,"is_disabled":false,"rental_uris":{"android":"levelo://app?vid=3c62f824-7506-4c44-a7ff-d78b1c251a88","ios":"levelo://app?vid=3c62f824-7506-4c44-a7ff-d78b1c251a88"},"vehicle_type_id":"4","last_reported":1727086274,"current_range_meters":26000,"station_id":"ce4bhu92rcd13ifvqi70","pricing_plan_id":"cebpf4jnsgd1na2vs0mg"},{"bike_id":"6cbc2fdc-96a1-4bca-b822-56394ecb85a1","system_id":"levelo_inurba_marseille","lat":43.29552,"lon":5.42276,"is_reserved":false,"is_disabled":false,"rental_uris":{"android":"levelo://app?vid=6cbc2fdc-96a1-4bca-b822-56394ecb85a1","ios":"levelo://app?vid=6cbc2fdc-96a1-4bca-b822-56394ecb85a1"},"vehicle_type_id":"4","last_reported":1727086274,"current_range_meters":38000,"station_id":"ce4bhph2rcd13ifvqhdg","pricing_plan_id":"cebpf4jnsgd1na2vs0mg"},{"bike_id":"a7a2630d-54d4-495a-8506-d0472b9b9a1a","system_id":"levelo_inurba_marseille","lat":43.29544,"lon":5.42291,"is_reserved":false,"is_disabled":false,"rental_uris":{"android":"levelo://app?vid=a7a2630d-54d4-495a-8506-d0472b9b9a1a","ios":"levelo://app?vid=a7a2630d-54d4-495a-8506-d0472b9b9a1a"},"vehicle_type_id":"4","last_reported":1727086274,"current_range_meters":36000,"station_id":"ce4bhph2rcd13ifvqhdg","pricing_plan_id":"cebpf4jnsgd1na2vs0mg"},{"bike_id":"47582e93-95c9-4fa0-b589-7df1e3f081a5","system_id":"levelo_inurba_marseille","lat":43.28267,"lon":5.35078,"is_reserved":false,"is_disabled":false,"rental_uris":{"android":"levelo://app?vid=47582e93-95c9-4fa0-b589-7df1e3f081a5","ios":"levelo://app?vid=47582e93-95c9-4fa0-b589-7df1e3f081a5"},"vehicle_type_id":"4","last_reported":1727086274,"current_range_meters":38800,"station_id":"ce4bhbp2rcd13ifvqerg","pricing_plan_id":"cebpf4jnsgd1na2vs0mg"},{"bike_id":"22c2433e-56a2-4e59-9d36-d34c2cf124b6","system_id":"levelo_inurba_marseille","lat":43.30087,"lon":5.39086,"is_reserved":false,"is_disabled":false,"rental_uris":{"android":"levelo://app?vid=22c2433e-56a2-4e59-9d36-d34c2cf124b6","ios":"levelo://app?vid=22c2433e-56a2-4e59-9d36-d34c2cf124b6"},"vehicle_type_id":"4","last_reported":1727086274,"current_range_meters":28800,"station_id":"ce4bh192rcd13ifvqdb0","pricing_plan_id":"cebpf4jnsgd1na2vs0mg"},{"bike_id":"5524e161-1116-48ae-a9c2-520fcecf51a9","system_id":"levelo_inurba_marseille","lat":43.24079,"lon":5.37755,"is_reserved":false,"is_disabled":false,"rental_uris":{"android":"levelo://app?vid=5524e161-1116-48ae-a9c2-520fcecf51a9","ios":"levelo://app?vid=5524e161-1116-48ae-a9c2-520fcecf51a9"},"vehicle_type_id":"4","last_reported":1727086274,"current_range_meters":28400,"station_id":"ce4bhnp2rcd13ifvqgvg","pricing_plan_id":"cebpf4jnsgd1na2vs0mg"},{"bike_id":"5e43abb1-7db1-435e-a343-e4d467dda962","system_id":"levelo_inurba_marseille","lat":43.30549,"lon":5.36708,"is_reserved":false,"is_disabled":false,"rental_uris":{"android":"levelo://app?vid=5e43abb1-7db1-435e-a343-e4d467dda962","ios":"levelo://app?vid=5e43abb1-7db1-435e-a343-e4d467dda962"},"vehicle_type_id":"4","last_reported":1727086274,"current_range_meters":39200,"station_id":"ce4bgrp2rcd13ifvqc9g","pricing_plan_id":"cebpf4jnsgd1na2vs0mg"},{"bike_id":"ed54be99-fc57-4d5a-a64d-283a09df8194","system_id":"levelo_inurba_marseille","lat":43.27396,"lon":5.3618,"is_reserved":false,"is_disabled":false,"rental_uris":{"android":"levelo://app?vid=ed54be99-fc57-4d5a-a64d-283a09df8194","ios":"levelo://app?vid=ed54be99-fc57-4d5a-a64d-283a09df8194"},"vehicle_type_id":"4","last_reported":1727086274,"current_range_meters":38000,"station_id":"","pricing_plan_id":"cebpf4jnsgd1na2vs0mg"},{"bike_id":"d845c4bc-2b50-4690-b149-d721067bfc07","system_id":"levelo_inurba_marseille","lat":43.28672,"lon":5.38662,"is_reserved":false,"is_disabled":false,"rental_uris":{"android":"levelo://app?vid=d845c4bc-2b50-4690-b149-d721067bfc07","ios":"levelo://app?vid=d845c4bc-2b50-4690-b149-d721067bfc07"},"vehicle_type_id":"4","last_reported":1727086274,"current_range_meters":8000,"station_id":"ce4bh0p2rcd13ifvqd80","pricing_plan_id":"cebpf4jnsgd1na2vs0mg"},{"bike_id":"b12d2f34-f97d-49cb-a7f7-4ed462dc25a9","system_id":"levelo_inurba_marseille","lat":43.3055,"lon":5.3671,"is_reserved":false,"is_disabled":false,"rental_uris":{"android":"levelo://app?vid=b12d2f34-f97d-49cb-a7f7-4ed462dc25a9","ios":"levelo://app?vid=b12d2f34-f97d-49cb-a7f7-4ed462dc25a9"},"vehicle_type_id":"4","last_reported":1727086274,"current_range_meters":21600,"station_id":"ce4bgrp2rcd13ifvqc9g","pricing_plan_id":"cebpf4jnsgd1na2vs0mg"},{"bike_id":"83ed1273-07bb-4801-b987-1ab517215fe0","system_id":"levelo_inurba_marseille","lat":43.27491,"lon":5.42453,"is_reserved":false,"is_disabled":false,"rental_uris":{"android":"levelo://app?vid=83ed1273-07bb-4801-b987-1ab517215fe0","ios":"levelo://app?vid=83ed1273-07bb-4801-b987-1ab517215fe0"},"vehicle_type_id":"4","last_reported":1727086274,"current_range_meters":20800,"station_id":"ce4bhn92rcd13ifvqgrg","pricing_plan_id":"cebpf4jnsgd1na2vs0mg"},{"bike_id":"3b2b32b1-081b-464a-b5e2-ce0b7792839b","system_id":"levelo_inurba_marseille","lat":43.26814,"lon":5.38031,"is_reserved":false,"is_disabled":false,"rental_uris":{"android":"levelo://app?vid=3b2b32b1-081b-464a-b5e2-ce0b7792839b","ios":"levelo://app?vid=3b2b32b1-081b-464a-b5e2-ce0b7792839b"},"vehicle_type_id":"4","last_reported":1727086274,"current_range_meters":24800,"station_id":"","pricing_plan_id":"cebpf4jnsgd1na2vs0mg"},{"bike_id":"71aa8592-ddf7-4343-aed4-c00d3433340f","system_id":"levelo_inurba_marseille","lat":43.337444,"lon":5.374475,"is_reserved":false,"is_disabled":false,"rental_uris":{"android":"levelo://app?vid=71aa8592-ddf7-4343-aed4-c00d3433340f","ios":"levelo://app?vid=71aa8592-ddf7-4343-aed4-c00d3433340f"},"vehicle_type_id":"4","last_reported":1727086274,"current_range_meters":27600,"station_id":"","pricing_plan_id":"cebpf4jnsgd1na2vs0mg"},{"bike_id":"3740c6df-06cd-419b-9ae6-b8d9e5eff548","system_id":"levelo_inurba_marseille","lat":43.2753,"lon":5.40935,"is_reserved":false,"is_disabled":false,"rental_uris":{"android":"levelo://app?vid=3740c6df-06cd-419b-9ae6-b8d9e5eff548","ios":"levelo://app?vid=3740c6df-06cd-419b-9ae6-b8d9e5eff548"},"vehicle_type_id":"4","last_reported":1727086274,"current_range_meters":9200,"station_id":"","pricing_plan_id":"cebpf4jnsgd1na2vs0mg"},{"bike_id":"08673cad-4afd-4a69-9910-de93c7447141","system_id":"levelo_inurba_marseille","lat":43.287811,"lon":5.399379,"is_reserved":false,"is_disabled":false,"rental_uris":{"android":"levelo://app?vid=08673cad-4afd-4a69-9910-de93c7447141","ios":"levelo://app?vid=08673cad-4afd-4a69-9910-de93c7447141"},"vehicle_type_id":"4","last_reported":1727086274,"current_range_meters":24800,"station_id":"ce4bho92rcd13ifvqh3g","pricing_plan_id":"cebpf4jnsgd1na2vs0mg"},{"bike_id":"9b6afe29-d4cd-49a6-a53d-d628a5961bc8","system_id":"levelo_inurba_marseille","lat":43.279515,"lon":5.410538,"is_reserved":false,"is_disabled":false,"rental_uris":{"android":"levelo://app?vid=9b6afe29-d4cd-49a6-a53d-d628a5961bc8","ios":"levelo://app?vid=9b6afe29-d4cd-49a6-a53d-d628a5961bc8"},"vehicle_type_id":"4","last_reported":1727086274,"current_range_meters":18800,"station_id":"ce4bhnp2rcd13ifvqh0g","pricing_plan_id":"cebpf4jnsgd1na2vs0mg"},{"bike_id":"37cfea08-a4a9-4194-96d9-f325f70d9e4d","system_id":"levelo_inurba_marseille","lat":43.25575,"lon":5.38244,"is_reserved":false,"is_disabled":false,"rental_uris":{"android":"levelo://app?vid=37cfea08-a4a9-4194-96d9-f325f70d9e4d","ios":"levelo://app?vid=37cfea08-a4a9-4194-96d9-f325f70d9e4d"},"vehicle_type_id":"4","last_reported":1727086274,"current_range_meters":8000,"station_id":"ce4bhih2rcd13ifvqfs0","pricing_plan_id":"cebpf4jnsgd1na2vs0mg"},{"bike_id":"1190a69f-3376-4c5c-8353-291b41658ea5","system_id":"levelo_inurba_marseille","lat":43.28712,"lon":5.37945,"is_reserved":false,"is_disabled":false,"rental_uris":{"android":"levelo://app?vid=1190a69f-3376-4c5c-8353-291b41658ea5","ios":"levelo://app?vid=1190a69f-3376-4c5c-8353-291b41658ea5"},"vehicle_type_id":"4","last_reported":1727086274,"current_range_meters":26000,"station_id":"ce4bh9p2rcd13ifvqec0","pricing_plan_id":"cebpf4jnsgd1na2vs0mg"},{"bike_id":"6b1bfc7c-4a19-4e40-a1e6-7bc55c265373","system_id":"levelo_inurba_marseille","lat":43.2781,"lon":5.42509,"is_reserved":false,"is_disabled":false,"rental_uris":{"android":"levelo://app?vid=6b1bfc7c-4a19-4e40-a1e6-7bc55c265373","ios":"levelo://app?vid=6b1bfc7c-4a19-4e40-a1e6-7bc55c265373"},"vehicle_type_id":"4","last_reported":1727086274,"current_range_meters":30800,"station_id":"","pricing_plan_id":"cebpf4jnsgd1na2vs0mg"},{"bike_id":"715c4804-6a86-4398-98ec-b57358573177","system_id":"levelo_inurba_marseille","lat":43.22931,"lon":5.35374,"is_reserved":false,"is_disabled":false,"rental_uris":{"android":"levelo://app?vid=715c4804-6a86-4398-98ec-b57358573177","ios":"levelo://app?vid=715c4804-6a86-4398-98ec-b57358573177"},"vehicle_type_id":"4","last_reported":1727086274,"current_range_meters":35600,"station_id":"cpo3532slgdg3j2ikp40","pricing_plan_id":"cebpf4jnsgd1na2vs0mg"},{"bike_id":"80ef7279-b375-4587-b39b-77c91fd7500b","system_id":"levelo_inurba_marseille","lat":43.33604,"lon":5.41027,"is_reserved":false,"is_disabled":false,"rental_uris":{"android":"levelo://app?vid=80ef7279-b375-4587-b39b-77c91fd7500b","ios":"levelo://app?vid=80ef7279-b375-4587-b39b-77c91fd7500b"},"vehicle_type_id":"4","last_reported":1727086274,"current_range_meters":38800,"station_id":"ce4bhqh2rcd13ifvqhmg","pricing_plan_id":"cebpf4jnsgd1na2vs0mg"},{"bike_id":"b484494a-6b24-41ec-8e19-aba88dc7da89","system_id":"levelo_inurba_marseille","lat":43.30556,"lon":5.36562,"is_reserved":false,"is_disabled":false,"rental_uris":{"android":"levelo://app?vid=b484494a-6b24-41ec-8e19-aba88dc7da89","ios":"levelo://app?vid=b484494a-6b24-41ec-8e19-aba88dc7da89"},"vehicle_type_id":"4","last_reported":1727086274,"current_range_meters":38800,"station_id":"ce4bgs12rcd13ifvqcag","pricing_plan_id":"cebpf4jnsgd1na2vs0mg"},{"bike_id":"692bef13-ff40-4470-b992-82c1c9b0063e","system_id":"levelo_inurba_marseille","lat":43.29581,"lon":5.36744,"is_reserved":false,"is_disabled":false,"rental_uris":{"android":"levelo://app?vid=692bef13-ff40-4470-b992-82c1c9b0063e","ios":"levelo://app?vid=692bef13-ff40-4470-b992-82c1c9b0063e"},"vehicle_type_id":"4","last_reported":1727086274,"current_range_meters":38400,"station_id":"ce4bgph2rcd13ifvqc2g","pricing_plan_id":"cebpf4jnsgd1na2vs0mg"},{"bike_id":"ba2542eb-4a30-47aa-b57a-68ac954d789a","system_id":"levelo_inurba_marseille","lat":43.23185,"lon":5.35564,"is_reserved":false,"is_disabled":false,"rental_uris":{"android":"levelo://app?vid=ba2542eb-4a30-47aa-b57a-68ac954d789a","ios":"levelo://app?vid=ba2542eb-4a30-47aa-b57a-68ac954d789a"},"vehicle_type_id":"4","last_reported":1727086274,"current_range_meters":18800,"station_id":"ce4bhu92rcd13ifvqi70","pricing_plan_id":"cebpf4jnsgd1na2vs0mg"},{"bike_id":"a2d3faf4-b282-4fa3-b4c8-567a9f539c1c","system_id":"levelo_inurba_marseille","lat":43.24083,"lon":5.37739,"is_reserved":false,"is_disabled":false,"rental_uris":{"android":"levelo://app?vid=a2d3faf4-b282-4fa3-b4c8-567a9f539c1c","ios":"levelo://app?vid=a2d3faf4-b282-4fa3-b4c8-567a9f539c1c"},"vehicle_type_id":"4","last_reported":1727086274,"current_range_meters":3200,"station_id":"ce4bhnp2rcd13ifvqgvg","pricing_plan_id":"cebpf4jnsgd1na2vs0mg"},{"bike_id":"2e311c6d-8409-450c-a807-e7f98b9fc279","system_id":"levelo_inurba_marseille","lat":43.30464,"lon":5.37899,"is_reserved":false,"is_disabled":false,"rental_uris":{"android":"levelo://app?vid=2e311c6d-8409-450c-a807-e7f98b9fc279","ios":"levelo://app?vid=2e311c6d-8409-450c-a807-e7f98b9fc279"},"vehicle_type_id":"4","last_reported":1727086274,"current_range_meters":30800,"station_id":"ce4bgup2rcd13ifvqcn0","pricing_plan_id":"cebpf4jnsgd1na2vs0mg"},{"bike_id":"9acd705f-50cc-49dd-82e9-a44effdf1cb1","system_id":"levelo_inurba_marseille","lat":43.30649,"lon":5.40089,"is_reserved":false,"is_disabled":false,"rental_uris":{"android":"levelo://app?vid=9acd705f-50cc-49dd-82e9-a44effdf1cb1","ios":"levelo://app?vid=9acd705f-50cc-49dd-82e9-a44effdf1cb1"},"vehicle_type_id":"4","last_reported":1727086274,"current_range_meters":38800,"station_id":"ce4bh112rcd13ifvqda0","pricing_plan_id":"cebpf4jnsgd1na2vs0mg"},{"bike_id":"6dd65d0e-8b7a-4b77-9bf9-ede98b693613","system_id":"levelo_inurba_marseille","lat":43.30307,"lon":5.36918,"is_reserved":false,"is_disabled":false,"rental_uris":{"android":"levelo://app?vid=6dd65d0e-8b7a-4b77-9bf9-ede98b693613","ios":"levelo://app?vid=6dd65d0e-8b7a-4b77-9bf9-ede98b693613"},"vehicle_type_id":"4","last_reported":1727086274,"current_range_meters":32800,"station_id":"ce4bgqh2rcd13ifvqc5g","pricing_plan_id":"cebpf4jnsgd1na2vs0mg"},{"bike_id":"95de4d13-3bc8-4171-9bae-71ad4d896484","system_id":"levelo_inurba_marseille","lat":43.28768,"lon":5.37811,"is_reserved":false,"is_disabled":false,"rental_uris":{"android":"levelo://app?vid=95de4d13-3bc8-4171-9bae-71ad4d896484","ios":"levelo://app?vid=95de4d13-3bc8-4171-9bae-71ad4d896484"},"vehicle_type_id":"4","last_reported":1727086274,"current_range_meters":24400,"station_id":"","pricing_plan_id":"cebpf4jnsgd1na2vs0mg"},{"bike_id":"89e6cdb6-3041-4533-a486-44298378e0ff","system_id":"levelo_inurba_marseille","lat":43.29067,"lon":5.37156,"is_reserved":false,"is_disabled":false,"rental_uris":{"android":"levelo://app?vid=89e6cdb6-3041-4533-a486-44298378e0ff","ios":"levelo://app?vid=89e6cdb6-3041-4533-a486-44298378e0ff"},"vehicle_type_id":"4","last_reported":1727086274,"current_range_meters":20400,"station_id":"ce4bh5p2rcd13ifvqe4g","pricing_plan_id":"cebpf4jnsgd1na2vs0mg"},{"bike_id":"662d9c23-f1ea-48ac-b9f2-624425643cc9","system_id":"levelo_inurba_marseille","lat":43.24546,"lon":5.39525,"is_reserved":false,"is_disabled":false,"rental_uris":{"android":"levelo://app?vid=662d9c23-f1ea-48ac-b9f2-624425643cc9","ios":"levelo://app?vid=662d9c23-f1ea-48ac-b9f2-624425643cc9"},"vehicle_type_id":"4","last_reported":1727086274,"current_range_meters":38800,"station_id":"ce4bhlp2rcd13ifvqgjg","pricing_plan_id":"cebpf4jnsgd1na2vs0mg"},{"bike_id":"3acbf452-d3c2-47e8-a4a6-5b2ae1102a94","system_id":"levelo_inurba_marseille","lat":43.27668,"lon":5.38881,"is_reserved":false,"is_disabled":false,"rental_uris":{"android":"levelo://app?vid=3acbf452-d3c2-47e8-a4a6-5b2ae1102a94","ios":"levelo://app?vid=3acbf452-d3c2-47e8-a4a6-5b2ae1102a94"},"vehicle_type_id":"4","last_reported":1727086274,"current_range_meters":25600,"station_id":"ce4bhi12rcd13ifvqfo0","pricing_plan_id":"cebpf4jnsgd1na2vs0mg"},{"bike_id":"88de7929-7efa-466d-9e2a-ea683c637482","system_id":"levelo_inurba_marseille","lat":43.25576,"lon":5.38241,"is_reserved":false,"is_disabled":false,"rental_uris":{"android":"levelo://app?vid=88de7929-7efa-466d-9e2a-ea683c637482","ios":"levelo://app?vid=88de7929-7efa-466d-9e2a-ea683c637482"},"vehicle_type_id":"4","last_reported":1727086274,"current_range_meters":32800,"station_id":"ce4bhih2rcd13ifvqfs0","pricing_plan_id":"cebpf4jnsgd1na2vs0mg"},{"bike_id":"1575e777-51f8-479e-bd95-714cef91a125","system_id":"levelo_inurba_marseille","lat":43.24176,"lon":5.39706,"is_reserved":false,"is_disabled":false,"rental_uris":{"android":"levelo://app?vid=1575e777-51f8-479e-bd95-714cef91a125","ios":"levelo://app?vid=1575e777-51f8-479e-bd95-714cef91a125"},"vehicle_type_id":"4","last_reported":1727086274,"current_range_meters":22800,"station_id":"ce4bhn12rcd13ifvqgpg","pricing_plan_id":"cebpf4jnsgd1na2vs0mg"},{"bike_id":"ee1f9b0f-dd8b-4d52-9818-385c51c4ad5f","system_id":"levelo_inurba_marseille","lat":43.26025,"lon":5.37553,"is_reserved":false,"is_disabled":false,"rental_uris":{"android":"levelo://app?vid=ee1f9b0f-dd8b-4d52-9818-385c51c4ad5f","ios":"levelo://app?vid=ee1f9b0f-dd8b-4d52-9818-385c51c4ad5f"},"vehicle_type_id":"4","last_reported":1727086274,"current_range_meters":11200,"station_id":"ce4bhgh2rcd13ifvqfa0","pricing_plan_id":"cebpf4jnsgd1na2vs0mg"},{"bike_id":"a453e980-a368-4894-97ab-18198a6ac1d6","system_id":"levelo_inurba_marseille","lat":43.33761,"lon":5.37446,"is_reserved":false,"is_disabled":false,"rental_uris":{"android":"levelo://app?vid=a453e980-a368-4894-97ab-18198a6ac1d6","ios":"levelo://app?vid=a453e980-a368-4894-97ab-18198a6ac1d6"},"vehicle_type_id":"4","last_reported":1727086274,"current_range_meters":22400,"station_id":"","pricing_plan_id":"cebpf4jnsgd1na2vs0mg"},{"bike_id":"bbe0dcbd-22cf-4269-95f3-0964ce366fcc","system_id":"levelo_inurba_marseille","lat":43.30272,"lon":5.37714,"is_reserved":false,"is_disabled":false,"rental_uris":{"android":"levelo://app?vid=bbe0dcbd-22cf-4269-95f3-0964ce366fcc","ios":"levelo://app?vid=bbe0dcbd-22cf-4269-95f3-0964ce366fcc"},"vehicle_type_id":"4","last_reported":1727086274,"current_range_meters":20800,"station_id":"ce4bguh2rcd13ifvqcj0","pricing_plan_id":"cebpf4jnsgd1na2vs0mg"},{"bike_id":"c263b988-9101-4fa4-b2fa-4160346d9044","system_id":"levelo_inurba_marseille","lat":43.281355,"lon":5.378642,"is_reserved":false,"is_disabled":false,"rental_uris":{"android":"levelo://app?vid=c263b988-9101-4fa4-b2fa-4160346d9044","ios":"levelo://app?vid=c263b988-9101-4fa4-b2fa-4160346d9044"},"vehicle_type_id":"4","last_reported":1727086274,"current_range_meters":10800,"station_id":"ce4bha12rcd13ifvqee0","pricing_plan_id":"cebpf4jnsgd1na2vs0mg"},{"bike_id":"2c3baefd-e174-4a0f-b3c0-c1acdaa422ad","system_id":"levelo_inurba_marseille","lat":43.25936,"lon":5.40912,"is_reserved":false,"is_disabled":false,"rental_uris":{"android":"levelo://app?vid=2c3baefd-e174-4a0f-b3c0-c1acdaa422ad","ios":"levelo://app?vid=2c3baefd-e174-4a0f-b3c0-c1acdaa422ad"},"vehicle_type_id":"4","last_reported":1727086274,"current_range_meters":33600,"station_id":"ce4bhm92rcd13ifvqglg","pricing_plan_id":"cebpf4jnsgd1na2vs0mg"},{"bike_id":"54db8160-556f-4838-beec-11d78ced79da","system_id":"levelo_inurba_marseille","lat":43.2815,"lon":5.42642,"is_reserved":false,"is_disabled":false,"rental_uris":{"android":"levelo://app?vid=54db8160-556f-4838-beec-11d78ced79da","ios":"levelo://app?vid=54db8160-556f-4838-beec-11d78ced79da"},"vehicle_type_id":"4","last_reported":1727086274,"current_range_meters":12000,"station_id":"ce4bhnh2rcd13ifvqgug","pricing_plan_id":"cebpf4jnsgd1na2vs0mg"},{"bike_id":"cf904d8e-dd56-4449-9634-5ec8fcd061ab","system_id":"levelo_inurba_marseille","lat":43.3375,"lon":5.37453,"is_reserved":false,"is_disabled":false,"rental_uris":{"android":"levelo://app?vid=cf904d8e-dd56-4449-9634-5ec8fcd061ab","ios":"levelo://app?vid=cf904d8e-dd56-4449-9634-5ec8fcd061ab"},"vehicle_type_id":"4","last_reported":1727086274,"current_range_meters":38800,"station_id":"","pricing_plan_id":"cebpf4jnsgd1na2vs0mg"},{"bike_id":"02486d64-1a8b-4bbe-b235-713b4d9a1f6e","system_id":"levelo_inurba_marseille","lat":43.24075,"lon":5.37761,"is_reserved":false,"is_disabled":false,"rental_uris":{"android":"levelo://app?vid=02486d64-1a8b-4bbe-b235-713b4d9a1f6e","ios":"levelo://app?vid=02486d64-1a8b-4bbe-b235-713b4d9a1f6e"},"vehicle_type_id":"4","last_reported":1727086274,"current_range_meters":28400,"station_id":"ce4bhnp2rcd13ifvqgvg","pricing_plan_id":"cebpf4jnsgd1na2vs0mg"},{"bike_id":"4d89b1c0-3d38-458d-ba1a-07d6c88e5548","system_id":"levelo_inurba_marseille","lat":43.263916,"lon":5.396029,"is_reserved":false,"is_disabled":false,"rental_uris":{"android":"levelo://app?vid=4d89b1c0-3d38-458d-ba1a-07d6c88e5548","ios":"levelo://app?vid=4d89b1c0-3d38-458d-ba1a-07d6c88e5548"},"vehicle_type_id":"4","last_reported":1727086274,"current_range_meters":20000,"station_id":"ce4bhl92rcd13ifvqghg","pricing_plan_id":"cebpf4jnsgd1na2vs0mg"},{"bike_id":"75dafeb5-3bdc-4bc4-96a0-9aad6c028fc5","system_id":"levelo_inurba_marseille","lat":43.28929,"lon":5.38407,"is_reserved":false,"is_disabled":false,"rental_uris":{"android":"levelo://app?vid=75dafeb5-3bdc-4bc4-96a0-9aad6c028fc5","ios":"levelo://app?vid=75dafeb5-3bdc-4bc4-96a0-9aad6c028fc5"},"vehicle_type_id":"4","last_reported":1727086274,"current_range_meters":8400,"station_id":"ce4bh612rcd13ifvqe6g","pricing_plan_id":"cebpf4jnsgd1na2vs0mg"},{"bike_id":"d765ecc6-f24e-4e18-aeb0-429ef33b50a7","system_id":"levelo_inurba_marseille","lat":43.23189,"lon":5.39979,"is_reserved":false,"is_disabled":false,"rental_uris":{"android":"levelo://app?vid=d765ecc6-f24e-4e18-aeb0-429ef33b50a7","ios":"levelo://app?vid=d765ecc6-f24e-4e18-aeb0-429ef33b50a7"},"vehicle_type_id":"4","last_reported":1727086274,"current_range_meters":39200,"station_id":"ce4bhn12rcd13ifvqgqg","pricing_plan_id":"cebpf4jnsgd1na2vs0mg"},{"bike_id":"09b0c39f-a13f-4fb3-b353-5833cb9ecfc5","system_id":"levelo_inurba_marseille","lat":43.31357,"lon":5.36714,"is_reserved":false,"is_disabled":false,"rental_uris":{"android":"levelo://app?vid=09b0c39f-a13f-4fb3-b353-5833cb9ecfc5","ios":"levelo://app?vid=09b0c39f-a13f-4fb3-b353-5833cb9ecfc5"},"vehicle_type_id":"4","last_reported":1727086274,"current_range_meters":38800,"station_id":"ce4bgr92rcd13ifvqc6g","pricing_plan_id":"cebpf4jnsgd1na2vs0mg"},{"bike_id":"feb42740-c719-4916-9efa-d99f861e0e6d","system_id":"levelo_inurba_marseille","lat":43.32482,"lon":5.36565,"is_reserved":false,"is_disabled":false,"rental_uris":{"android":"levelo://app?vid=feb42740-c719-4916-9efa-d99f861e0e6d","ios":"levelo://app?vid=feb42740-c719-4916-9efa-d99f861e0e6d"},"vehicle_type_id":"4","last_reported":1727086274,"current_range_meters":30800,"station_id":"ce4bhs12rcd13ifvqhvg","pricing_plan_id":"cebpf4jnsgd1na2vs0mg"},{"bike_id":"914ae7ef-1ebe-4882-be25-0c3aa3dad21f","system_id":"levelo_inurba_marseille","lat":43.30532,"lon":5.36708,"is_reserved":false,"is_disabled":false,"rental_uris":{"android":"levelo://app?vid=914ae7ef-1ebe-4882-be25-0c3aa3dad21f","ios":"levelo://app?vid=914ae7ef-1ebe-4882-be25-0c3aa3dad21f"},"vehicle_type_id":"4","last_reported":1727086274,"current_range_meters":26800,"station_id":"ce4bgrp2rcd13ifvqc9g","pricing_plan_id":"cebpf4jnsgd1na2vs0mg"},{"bike_id":"744b0695-a299-4670-b5e8-e5bcab6e47eb","system_id":"levelo_inurba_marseille","lat":43.29564,"lon":5.37512,"is_reserved":false,"is_disabled":false,"rental_uris":{"android":"levelo://app?vid=744b0695-a299-4670-b5e8-e5bcab6e47eb","ios":"levelo://app?vid=744b0695-a299-4670-b5e8-e5bcab6e47eb"},"vehicle_type_id":"4","last_reported":1727086274,"current_range_meters":34000,"station_id":"ce4bgh92rcd13ifvqb50","pricing_plan_id":"cebpf4jnsgd1na2vs0mg"},{"bike_id":"128dadf8-8426-4460-a31d-9137c597cd4c","system_id":"levelo_inurba_marseille","lat":43.28614,"lon":5.35098,"is_reserved":false,"is_disabled":false,"rental_uris":{"android":"levelo://app?vid=128dadf8-8426-4460-a31d-9137c597cd4c","ios":"levelo://app?vid=128dadf8-8426-4460-a31d-9137c597cd4c"},"vehicle_type_id":"4","last_reported":1727086274,"current_range_meters":33200,"station_id":"ce4bhch2rcd13ifvqeug","pricing_plan_id":"cebpf4jnsgd1na2vs0mg"},{"bike_id":"3b7312f9-6244-4b71-a8bc-65ca3c008c21","system_id":"levelo_inurba_marseille","lat":43.30598,"lon":5.37245,"is_reserved":false,"is_disabled":false,"rental_uris":{"android":"levelo://app?vid=3b7312f9-6244-4b71-a8bc-65ca3c008c21","ios":"levelo://app?vid=3b7312f9-6244-4b71-a8bc-65ca3c008c21"},"vehicle_type_id":"4","last_reported":1727086274,"current_range_meters":22800,"station_id":"ce4bgqh2rcd13ifvqc4g","pricing_plan_id":"cebpf4jnsgd1na2vs0mg"},{"bike_id":"1381b50c-1e98-49e6-b864-c3afcd3ec9c6","system_id":"levelo_inurba_marseille","lat":43.29577,"lon":5.36737,"is_reserved":false,"is_disabled":false,"rental_uris":{"android":"levelo://app?vid=1381b50c-1e98-49e6-b864-c3afcd3ec9c6","ios":"levelo://app?vid=1381b50c-1e98-49e6-b864-c3afcd3ec9c6"},"vehicle_type_id":"4","last_reported":1727086274,"current_range_meters":38800,"station_id":"ce4bgph2rcd13ifvqc2g","pricing_plan_id":"cebpf4jnsgd1na2vs0mg"},{"bike_id":"fce734b4-6c36-4cb6-983c-c95238702258","system_id":"levelo_inurba_marseille","lat":43.31076,"lon":5.38117,"is_reserved":false,"is_disabled":false,"rental_uris":{"android":"levelo://app?vid=fce734b4-6c36-4cb6-983c-c95238702258","ios":"levelo://app?vid=fce734b4-6c36-4cb6-983c-c95238702258"},"vehicle_type_id":"4","last_reported":1727086274,"current_range_meters":8400,"station_id":"","pricing_plan_id":"cebpf4jnsgd1na2vs0mg"},{"bike_id":"3392fbd0-8f08-40e0-ab48-b0062035775d","system_id":"levelo_inurba_marseille","lat":43.28475,"lon":5.38543,"is_reserved":false,"is_disabled":false,"rental_uris":{"android":"levelo://app?vid=3392fbd0-8f08-40e0-ab48-b0062035775d","ios":"levelo://app?vid=3392fbd0-8f08-40e0-ab48-b0062035775d"},"vehicle_type_id":"4","last_reported":1727086274,"current_range_meters":36800,"station_id":"ce4bh8p2rcd13ifvqeb0","pricing_plan_id":"cebpf4jnsgd1na2vs0mg"},{"bike_id":"10b0459f-3d04-4f80-8147-0650147a68ff","system_id":"levelo_inurba_marseille","lat":43.337444,"lon":5.374475,"is_reserved":false,"is_disabled":false,"rental_uris":{"android":"levelo://app?vid=10b0459f-3d04-4f80-8147-0650147a68ff","ios":"levelo://app?vid=10b0459f-3d04-4f80-8147-0650147a68ff"},"vehicle_type_id":"4","last_reported":1727086274,"current_range_meters":33200,"station_id":"ce4bh0h2rcd13ifvqd60","pricing_plan_id":"cebpf4jnsgd1na2vs0mg"},{"bike_id":"79b384ac-b917-4159-acb1-340284376a3c","system_id":"levelo_inurba_marseille","lat":43.29849,"lon":5.36282,"is_reserved":false,"is_disabled":false,"rental_uris":{"android":"levelo://app?vid=79b384ac-b917-4159-acb1-340284376a3c","ios":"levelo://app?vid=79b384ac-b917-4159-acb1-340284376a3c"},"vehicle_type_id":"4","last_reported":1727086274,"current_range_meters":21600,"station_id":"ce4bgpp2rcd13ifvqc3g","pricing_plan_id":"cebpf4jnsgd1na2vs0mg"},{"bike_id":"e9ff8a04-d08a-4e53-ba15-13ed3974ebbf","system_id":"levelo_inurba_marseille","lat":43.29902,"lon":5.43672,"is_reserved":false,"is_disabled":false,"rental_uris":{"android":"levelo://app?vid=e9ff8a04-d08a-4e53-ba15-13ed3974ebbf","ios":"levelo://app?vid=e9ff8a04-d08a-4e53-ba15-13ed3974ebbf"},"vehicle_type_id":"4","last_reported":1727086274,"current_range_meters":10000,"station_id":"ce4bhpp2rcd13ifvqhfg","pricing_plan_id":"cebpf4jnsgd1na2vs0mg"},{"bike_id":"0ec38933-5a98-4d42-b084-ca5f237b215a","system_id":"levelo_inurba_marseille","lat":43.30138,"lon":5.37405,"is_reserved":false,"is_disabled":false,"rental_uris":{"android":"levelo://app?vid=0ec38933-5a98-4d42-b084-ca5f237b215a","ios":"levelo://app?vid=0ec38933-5a98-4d42-b084-ca5f237b215a"},"vehicle_type_id":"4","last_reported":1727086274,"current_range_meters":20800,"station_id":"ce4bgs92rcd13ifvqcc0","pricing_plan_id":"cebpf4jnsgd1na2vs0mg"},{"bike_id":"13aed5f1-c255-40bb-923e-72956c25d1fe","system_id":"levelo_inurba_marseille","lat":43.30944,"lon":5.3904,"is_reserved":false,"is_disabled":false,"rental_uris":{"android":"levelo://app?vid=13aed5f1-c255-40bb-923e-72956c25d1fe","ios":"levelo://app?vid=13aed5f1-c255-40bb-923e-72956c25d1fe"},"vehicle_type_id":"4","last_reported":1727086274,"current_range_meters":23200,"station_id":"ce4bgup2rcd13ifvqco0","pricing_plan_id":"cebpf4jnsgd1na2vs0mg"},{"bike_id":"e5afe0f9-2845-4770-8a8a-1f97c66f27dc","system_id":"levelo_inurba_marseille","lat":43.25934,"lon":5.40915,"is_reserved":false,"is_disabled":false,"rental_uris":{"android":"levelo://app?vid=e5afe0f9-2845-4770-8a8a-1f97c66f27dc","ios":"levelo://app?vid=e5afe0f9-2845-4770-8a8a-1f97c66f27dc"},"vehicle_type_id":"4","last_reported":1727086274,"current_range_meters":29600,"station_id":"ce4bhm92rcd13ifvqglg","pricing_plan_id":"cebpf4jnsgd1na2vs0mg"},{"bike_id":"74ad9dca-5715-4785-b896-4b4d3758fd7e","system_id":"levelo_inurba_marseille","lat":43.286798,"lon":5.400003,"is_reserved":false,"is_disabled":false,"rental_uris":{"android":"levelo://app?vid=74ad9dca-5715-4785-b896-4b4d3758fd7e","ios":"levelo://app?vid=74ad9dca-5715-4785-b896-4b4d3758fd7e"},"vehicle_type_id":"4","last_reported":1727086274,"current_range_meters":20400,"station_id":"ce4bho92rcd13ifvqh3g","pricing_plan_id":"cebpf4jnsgd1na2vs0mg"},{"bike_id":"4382d266-7300-4c12-ae78-826e5603357a","system_id":"levelo_inurba_marseille","lat":43.33758,"lon":5.37451,"is_reserved":false,"is_disabled":false,"rental_uris":{"android":"levelo://app?vid=4382d266-7300-4c12-ae78-826e5603357a","ios":"levelo://app?vid=4382d266-7300-4c12-ae78-826e5603357a"},"vehicle_type_id":"4","last_reported":1727086274,"current_range_meters":24000,"station_id":"","pricing_plan_id":"cebpf4jnsgd1na2vs0mg"},{"bike_id":"28284f2d-af6a-41fc-ad17-2d5e99e0773a","system_id":"levelo_inurba_marseille","lat":43.30538,"lon":5.36555,"is_reserved":false,"is_disabled":false,"rental_uris":{"android":"levelo://app?vid=28284f2d-af6a-41fc-ad17-2d5e99e0773a","ios":"levelo://app?vid=28284f2d-af6a-41fc-ad17-2d5e99e0773a"},"vehicle_type_id":"4","last_reported":1727086274,"current_range_meters":39200,"station_id":"ce4bgs12rcd13ifvqcag","pricing_plan_id":"cebpf4jnsgd1na2vs0mg"},{"bike_id":"effd8d86-e6b4-4eb5-a698-dd8d37ea6e0b","system_id":"levelo_inurba_marseille","lat":43.33745,"lon":5.3745,"is_reserved":false,"is_disabled":false,"rental_uris":{"android":"levelo://app?vid=effd8d86-e6b4-4eb5-a698-dd8d37ea6e0b","ios":"levelo://app?vid=effd8d86-e6b4-4eb5-a698-dd8d37ea6e0b"},"vehicle_type_id":"4","last_reported":1727086274,"current_range_meters":28000,"station_id":"","pricing_plan_id":"cebpf4jnsgd1na2vs0mg"},{"bike_id":"b8551345-00a8-413b-a6da-b44b1e50d1de","system_id":"levelo_inurba_marseille","lat":43.27491,"lon":5.42459,"is_reserved":false,"is_disabled":false,"rental_uris":{"android":"levelo://app?vid=b8551345-00a8-413b-a6da-b44b1e50d1de","ios":"levelo://app?vid=b8551345-00a8-413b-a6da-b44b1e50d1de"},"vehicle_type_id":"4","last_reported":1727086274,"current_range_meters":34800,"station_id":"ce4bhn92rcd13ifvqgrg","pricing_plan_id":"cebpf4jnsgd1na2vs0mg"},{"bike_id":"4a01d6bc-f4bf-45e2-800c-2ad1149b3b2e","system_id":"levelo_inurba_marseille","lat":43.29037,"lon":5.39955,"is_reserved":false,"is_disabled":false,"rental_uris":{"android":"levelo://app?vid=4a01d6bc-f4bf-45e2-800c-2ad1149b3b2e","ios":"levelo://app?vid=4a01d6bc-f4bf-45e2-800c-2ad1149b3b2e"},"vehicle_type_id":"4","last_reported":1727086274,"current_range_meters":20400,"station_id":"ce4bgt12rcd13ifvqce0","pricing_plan_id":"cebpf4jnsgd1na2vs0mg"},{"bike_id":"89d96de5-73f7-4d0d-9320-85f5d0349d2e","system_id":"levelo_inurba_marseille","lat":43.30449,"lon":5.37919,"is_reserved":false,"is_disabled":false,"rental_uris":{"android":"levelo://app?vid=89d96de5-73f7-4d0d-9320-85f5d0349d2e","ios":"levelo://app?vid=89d96de5-73f7-4d0d-9320-85f5d0349d2e"},"vehicle_type_id":"4","last_reported":1727086274,"current_range_meters":38800,"station_id":"ce4bgup2rcd13ifvqcn0","pricing_plan_id":"cebpf4jnsgd1na2vs0mg"},{"bike_id":"dc2f87b8-717f-4d58-a2e0-482f2021233f","system_id":"levelo_inurba_marseille","lat":43.31332,"lon":5.39693,"is_reserved":false,"is_disabled":false,"rental_uris":{"android":"levelo://app?vid=dc2f87b8-717f-4d58-a2e0-482f2021233f","ios":"levelo://app?vid=dc2f87b8-717f-4d58-a2e0-482f2021233f"},"vehicle_type_id":"4","last_reported":1727086274,"current_range_meters":20800,"station_id":"ce4bgvp2rcd13ifvqcu0","pricing_plan_id":"cebpf4jnsgd1na2vs0mg"},{"bike_id":"db27a81c-af96-4299-897b-8be270988d43","system_id":"levelo_inurba_marseille","lat":43.24078,"lon":5.3774,"is_reserved":false,"is_disabled":false,"rental_uris":{"android":"levelo://app?vid=db27a81c-af96-4299-897b-8be270988d43","ios":"levelo://app?vid=db27a81c-af96-4299-897b-8be270988d43"},"vehicle_type_id":"4","last_reported":1727086274,"current_range_meters":38800,"station_id":"ce4bhnp2rcd13ifvqgvg","pricing_plan_id":"cebpf4jnsgd1na2vs0mg"},{"bike_id":"8fbd8b80-10e8-490c-8f9b-94216e2d7c47","system_id":"levelo_inurba_marseille","lat":43.3377,"lon":5.37439,"is_reserved":false,"is_disabled":false,"rental_uris":{"android":"levelo://app?vid=8fbd8b80-10e8-490c-8f9b-94216e2d7c47","ios":"levelo://app?vid=8fbd8b80-10e8-490c-8f9b-94216e2d7c47"},"vehicle_type_id":"4","last_reported":1727086274,"current_range_meters":38800,"station_id":"","pricing_plan_id":"cebpf4jnsgd1na2vs0mg"},{"bike_id":"e396abd2-7fd3-4539-ab63-dfbb73e8702e","system_id":"levelo_inurba_marseille","lat":43.2978,"lon":5.3934,"is_reserved":false,"is_disabled":false,"rental_uris":{"android":"levelo://app?vid=e396abd2-7fd3-4539-ab63-dfbb73e8702e","ios":"levelo://app?vid=e396abd2-7fd3-4539-ab63-dfbb73e8702e"},"vehicle_type_id":"4","last_reported":1727086274,"current_range_meters":26800,"station_id":"chh1huq6cuj3fo74tm60","pricing_plan_id":"cebpf4jnsgd1na2vs0mg"},{"bike_id":"028f0096-1875-43c2-aee5-c6fce1615f8d","system_id":"levelo_inurba_marseille","lat":43.279399,"lon":5.410513,"is_reserved":false,"is_disabled":false,"rental_uris":{"android":"levelo://app?vid=028f0096-1875-43c2-aee5-c6fce1615f8d","ios":"levelo://app?vid=028f0096-1875-43c2-aee5-c6fce1615f8d"},"vehicle_type_id":"4","last_reported":1727086274,"current_range_meters":7200,"station_id":"ce4bhnp2rcd13ifvqh0g","pricing_plan_id":"cebpf4jnsgd1na2vs0mg"},{"bike_id":"4969c739-40f5-4812-874b-bf034fb3e5a7","system_id":"levelo_inurba_marseille","lat":43.29715,"lon":5.376898,"is_reserved":false,"is_disabled":false,"rental_uris":{"android":"levelo://app?vid=4969c739-40f5-4812-874b-bf034fb3e5a7","ios":"levelo://app?vid=4969c739-40f5-4812-874b-bf034fb3e5a7"},"vehicle_type_id":"4","last_reported":1727086274,"current_range_meters":38800,"station_id":"ce4bgkh2rcd13ifvqbl0","pricing_plan_id":"cebpf4jnsgd1na2vs0mg"},{"bike_id":"4fbb5250-9647-470b-8d93-052750ba4685","system_id":"levelo_inurba_marseille","lat":43.287806,"lon":5.373697,"is_reserved":false,"is_disabled":false,"rental_uris":{"android":"levelo://app?vid=4fbb5250-9647-470b-8d93-052750ba4685","ios":"levelo://app?vid=4fbb5250-9647-470b-8d93-052750ba4685"},"vehicle_type_id":"4","last_reported":1727086274,"current_range_meters":20000,"station_id":"ce4bh692rcd13ifvqe90","pricing_plan_id":"cebpf4jnsgd1na2vs0mg"},{"bike_id":"c4d81431-ee19-4b2b-9a19-a027dc40bf9b","system_id":"levelo_inurba_marseille","lat":43.27069,"lon":5.42272,"is_reserved":false,"is_disabled":false,"rental_uris":{"android":"levelo://app?vid=c4d81431-ee19-4b2b-9a19-a027dc40bf9b","ios":"levelo://app?vid=c4d81431-ee19-4b2b-9a19-a027dc40bf9b"},"vehicle_type_id":"4","last_reported":1727086274,"current_range_meters":28800,"station_id":"ce4bhk92rcd13ifvqgb0","pricing_plan_id":"cebpf4jnsgd1na2vs0mg"},{"bike_id":"fa690805-233a-4a70-a9f3-33f1b67cdb1f","system_id":"levelo_inurba_marseille","lat":43.32291,"lon":5.38262,"is_reserved":false,"is_disabled":false,"rental_uris":{"android":"levelo://app?vid=fa690805-233a-4a70-a9f3-33f1b67cdb1f","ios":"levelo://app?vid=fa690805-233a-4a70-a9f3-33f1b67cdb1f"},"vehicle_type_id":"4","last_reported":1727086274,"current_range_meters":38000,"station_id":"ce4bhr12rcd13ifvqhqg","pricing_plan_id":"cebpf4jnsgd1na2vs0mg"},{"bike_id":"7de67f75-7e3b-4a49-9cf3-b09ec2ff7e13","system_id":"levelo_inurba_marseille","lat":43.26025,"lon":5.3755,"is_reserved":false,"is_disabled":false,"rental_uris":{"android":"levelo://app?vid=7de67f75-7e3b-4a49-9cf3-b09ec2ff7e13","ios":"levelo://app?vid=7de67f75-7e3b-4a49-9cf3-b09ec2ff7e13"},"vehicle_type_id":"4","last_reported":1727086274,"current_range_meters":37600,"station_id":"ce4bhgh2rcd13ifvqfa0","pricing_plan_id":"cebpf4jnsgd1na2vs0mg"},{"bike_id":"93f0b4b5-f3b9-492d-b443-c1709870bc24","system_id":"levelo_inurba_marseille","lat":43.30087,"lon":5.3908,"is_reserved":false,"is_disabled":false,"rental_uris":{"android":"levelo://app?vid=93f0b4b5-f3b9-492d-b443-c1709870bc24","ios":"levelo://app?vid=93f0b4b5-f3b9-492d-b443-c1709870bc24"},"vehicle_type_id":"4","last_reported":1727086274,"current_range_meters":31200,"station_id":"ce4bh192rcd13ifvqdb0","pricing_plan_id":"cebpf4jnsgd1na2vs0mg"},{"bike_id":"68778406-03ca-4b6a-956b-2907b9689347","system_id":"levelo_inurba_marseille","lat":43.300488,"lon":5.386495,"is_reserved":false,"is_disabled":false,"rental_uris":{"android":"levelo://app?vid=68778406-03ca-4b6a-956b-2907b9689347","ios":"levelo://app?vid=68778406-03ca-4b6a-956b-2907b9689347"},"vehicle_type_id":"4","last_reported":1727086274,"current_range_meters":34000,"station_id":"ce4bgv12rcd13ifvqcp0","pricing_plan_id":"cebpf4jnsgd1na2vs0mg"},{"bike_id":"fe6e85c1-137f-42be-89b2-91e4fecafeca","system_id":"levelo_inurba_marseille","lat":43.26551,"lon":5.37284,"is_reserved":false,"is_disabled":false,"rental_uris":{"android":"levelo://app?vid=fe6e85c1-137f-42be-89b2-91e4fecafeca","ios":"levelo://app?vid=fe6e85c1-137f-42be-89b2-91e4fecafeca"},"vehicle_type_id":"4","last_reported":1727086274,"current_range_meters":26800,"station_id":"ce4bhg12rcd13ifvqf70","pricing_plan_id":"cebpf4jnsgd1na2vs0mg"},{"bike_id":"63837e2f-9e9e-4ca3-8127-3738fe4726e5","system_id":"levelo_inurba_marseille","lat":43.27486,"lon":5.42468,"is_reserved":false,"is_disabled":false,"rental_uris":{"android":"levelo://app?vid=63837e2f-9e9e-4ca3-8127-3738fe4726e5","ios":"levelo://app?vid=63837e2f-9e9e-4ca3-8127-3738fe4726e5"},"vehicle_type_id":"4","last_reported":1727086274,"current_range_meters":38000,"station_id":"ce4bhn92rcd13ifvqgrg","pricing_plan_id":"cebpf4jnsgd1na2vs0mg"},{"bike_id":"b9676bc6-39c1-4a22-94b4-02bce4ff8d0c","system_id":"levelo_inurba_marseille","lat":43.30546,"lon":5.36542,"is_reserved":false,"is_disabled":false,"rental_uris":{"android":"levelo://app?vid=b9676bc6-39c1-4a22-94b4-02bce4ff8d0c","ios":"levelo://app?vid=b9676bc6-39c1-4a22-94b4-02bce4ff8d0c"},"vehicle_type_id":"4","last_reported":1727086274,"current_range_meters":31200,"station_id":"ce4bgs12rcd13ifvqcag","pricing_plan_id":"cebpf4jnsgd1na2vs0mg"},{"bike_id":"7ee89815-3f87-4dc0-ac87-de45448091bf","system_id":"levelo_inurba_marseille","lat":43.26032,"lon":5.37547,"is_reserved":false,"is_disabled":false,"rental_uris":{"android":"levelo://app?vid=7ee89815-3f87-4dc0-ac87-de45448091bf","ios":"levelo://app?vid=7ee89815-3f87-4dc0-ac87-de45448091bf"},"vehicle_type_id":"4","last_reported":1727086274,"current_range_meters":23200,"station_id":"ce4bhgh2rcd13ifvqfa0","pricing_plan_id":"cebpf4jnsgd1na2vs0mg"},{"bike_id":"3fb8e4b8-d0ae-4853-bcac-cdfc1170c666","system_id":"levelo_inurba_marseille","lat":43.27917,"lon":5.39573,"is_reserved":false,"is_disabled":false,"rental_uris":{"android":"levelo://app?vid=3fb8e4b8-d0ae-4853-bcac-cdfc1170c666","ios":"levelo://app?vid=3fb8e4b8-d0ae-4853-bcac-cdfc1170c666"},"vehicle_type_id":"4","last_reported":1727086274,"current_range_meters":4000,"station_id":"ce4bhf92rcd13ifvqf40","pricing_plan_id":"cebpf4jnsgd1na2vs0mg"},{"bike_id":"64d814dc-eb74-4144-83cb-02bf8cabb0e2","system_id":"levelo_inurba_marseille","lat":43.29785,"lon":5.37113,"is_reserved":false,"is_disabled":false,"rental_uris":{"android":"levelo://app?vid=64d814dc-eb74-4144-83cb-02bf8cabb0e2","ios":"levelo://app?vid=64d814dc-eb74-4144-83cb-02bf8cabb0e2"},"vehicle_type_id":"4","last_reported":1727086274,"current_range_meters":24400,"station_id":"ce4bgop2rcd13ifvqc1g","pricing_plan_id":"cebpf4jnsgd1na2vs0mg"},{"bike_id":"85d649fa-68c6-4dd0-8e34-0988c7e58de8","system_id":"levelo_inurba_marseille","lat":43.30536,"lon":5.36707,"is_reserved":false,"is_disabled":false,"rental_uris":{"android":"levelo://app?vid=85d649fa-68c6-4dd0-8e34-0988c7e58de8","ios":"levelo://app?vid=85d649fa-68c6-4dd0-8e34-0988c7e58de8"},"vehicle_type_id":"4","last_reported":1727086274,"current_range_meters":9600,"station_id":"ce4bgrp2rcd13ifvqc9g","pricing_plan_id":"cebpf4jnsgd1na2vs0mg"},{"bike_id":"cfeee407-8b39-4bc1-8323-7a8cae6f5d1d","system_id":"levelo_inurba_marseille","lat":43.32481,"lon":5.3657,"is_reserved":false,"is_disabled":false,"rental_uris":{"android":"levelo://app?vid=cfeee407-8b39-4bc1-8323-7a8cae6f5d1d","ios":"levelo://app?vid=cfeee407-8b39-4bc1-8323-7a8cae6f5d1d"},"vehicle_type_id":"4","last_reported":1727086274,"current_range_meters":22400,"station_id":"ce4bhs12rcd13ifvqhvg","pricing_plan_id":"cebpf4jnsgd1na2vs0mg"},{"bike_id":"73c95d91-4339-4d75-b1c4-461a3daf1b5f","system_id":"levelo_inurba_marseille","lat":43.29561,"lon":5.42284,"is_reserved":false,"is_disabled":false,"rental_uris":{"android":"levelo://app?vid=73c95d91-4339-4d75-b1c4-461a3daf1b5f","ios":"levelo://app?vid=73c95d91-4339-4d75-b1c4-461a3daf1b5f"},"vehicle_type_id":"4","last_reported":1727086274,"current_range_meters":38000,"station_id":"ce4bhph2rcd13ifvqhdg","pricing_plan_id":"cebpf4jnsgd1na2vs0mg"},{"bike_id":"64c3a317-c373-4860-95f1-a0a836dc0b12","system_id":"levelo_inurba_marseille","lat":43.336029,"lon":5.410366,"is_reserved":false,"is_disabled":false,"rental_uris":{"android":"levelo://app?vid=64c3a317-c373-4860-95f1-a0a836dc0b12","ios":"levelo://app?vid=64c3a317-c373-4860-95f1-a0a836dc0b12"},"vehicle_type_id":"4","last_reported":1727086274,"current_range_meters":26800,"station_id":"ce4bhqh2rcd13ifvqhmg","pricing_plan_id":"cebpf4jnsgd1na2vs0mg"},{"bike_id":"72104a08-fa0d-45bc-bf4b-092480389030","system_id":"levelo_inurba_marseille","lat":43.31163,"lon":5.38719,"is_reserved":false,"is_disabled":false,"rental_uris":{"android":"levelo://app?vid=72104a08-fa0d-45bc-bf4b-092480389030","ios":"levelo://app?vid=72104a08-fa0d-45bc-bf4b-092480389030"},"vehicle_type_id":"4","last_reported":1727086274,"current_range_meters":36400,"station_id":"ce4bgv12rcd13ifvqcp0","pricing_plan_id":"cebpf4jnsgd1na2vs0mg"},{"bike_id":"40f8a7bb-5132-4c8d-a588-77f0de7c0aa8","system_id":"levelo_inurba_marseille","lat":43.26056,"lon":5.39396,"is_reserved":false,"is_disabled":false,"rental_uris":{"android":"levelo://app?vid=40f8a7bb-5132-4c8d-a588-77f0de7c0aa8","ios":"levelo://app?vid=40f8a7bb-5132-4c8d-a588-77f0de7c0aa8"},"vehicle_type_id":"4","last_reported":1727086274,"current_range_meters":36000,"station_id":"ce4bhh92rcd13ifvqfj0","pricing_plan_id":"cebpf4jnsgd1na2vs0mg"},{"bike_id":"88aaab0c-5265-46d6-adae-0168eaf23240","system_id":"levelo_inurba_marseille","lat":43.33747,"lon":5.37444,"is_reserved":false,"is_disabled":false,"rental_uris":{"android":"levelo://app?vid=88aaab0c-5265-46d6-adae-0168eaf23240","ios":"levelo://app?vid=88aaab0c-5265-46d6-adae-0168eaf23240"},"vehicle_type_id":"4","last_reported":1727086274,"current_range_meters":31200,"station_id":"","pricing_plan_id":"cebpf4jnsgd1na2vs0mg"},{"bike_id":"41e3be79-0483-4710-aecf-a207e49d16f8","system_id":"levelo_inurba_marseille","lat":43.2955,"lon":5.42286,"is_reserved":false,"is_disabled":false,"rental_uris":{"android":"levelo://app?vid=41e3be79-0483-4710-aecf-a207e49d16f8","ios":"levelo://app?vid=41e3be79-0483-4710-aecf-a207e49d16f8"},"vehicle_type_id":"4","last_reported":1727086274,"current_range_meters":14800,"station_id":"ce4bhph2rcd13ifvqhdg","pricing_plan_id":"cebpf4jnsgd1na2vs0mg"},{"bike_id":"eee05696-6b55-4ea5-a62a-8149d3287208","system_id":"levelo_inurba_marseille","lat":43.30536,"lon":5.36551,"is_reserved":false,"is_disabled":false,"rental_uris":{"android":"levelo://app?vid=eee05696-6b55-4ea5-a62a-8149d3287208","ios":"levelo://app?vid=eee05696-6b55-4ea5-a62a-8149d3287208"},"vehicle_type_id":"4","last_reported":1727086274,"current_range_meters":39200,"station_id":"ce4bgs12rcd13ifvqcag","pricing_plan_id":"cebpf4jnsgd1na2vs0mg"},{"bike_id":"7b5f9736-fb5f-42be-89b0-e4999833a34b","system_id":"levelo_inurba_marseille","lat":43.29302,"lon":5.37458,"is_reserved":false,"is_disabled":false,"rental_uris":{"android":"levelo://app?vid=7b5f9736-fb5f-42be-89b0-e4999833a34b","ios":"levelo://app?vid=7b5f9736-fb5f-42be-89b0-e4999833a34b"},"vehicle_type_id":"4","last_reported":1727086274,"current_range_meters":17600,"station_id":"ce4bgi12rcd13ifvqb70","pricing_plan_id":"cebpf4jnsgd1na2vs0mg"},{"bike_id":"45e12e89-d706-4a76-b8da-b5ff7a99a24a","system_id":"levelo_inurba_marseille","lat":43.32534,"lon":5.41447,"is_reserved":false,"is_disabled":false,"rental_uris":{"android":"levelo://app?vid=45e12e89-d706-4a76-b8da-b5ff7a99a24a","ios":"levelo://app?vid=45e12e89-d706-4a76-b8da-b5ff7a99a24a"},"vehicle_type_id":"4","last_reported":1727086274,"current_range_meters":35200,"station_id":"ce4bhq12rcd13ifvqhhg","pricing_plan_id":"cebpf4jnsgd1na2vs0mg"},{"bike_id":"02dc5c43-5b84-4817-a3c7-01bfe693dc51","system_id":"levelo_inurba_marseille","lat":43.33604,"lon":5.4102,"is_reserved":false,"is_disabled":false,"rental_uris":{"android":"levelo://app?vid=02dc5c43-5b84-4817-a3c7-01bfe693dc51","ios":"levelo://app?vid=02dc5c43-5b84-4817-a3c7-01bfe693dc51"},"vehicle_type_id":"4","last_reported":1727086274,"current_range_meters":22800,"station_id":"ce4bhqh2rcd13ifvqhmg","pricing_plan_id":"cebpf4jnsgd1na2vs0mg"},{"bike_id":"afbb408a-397f-46e3-916c-39adaf47bd14","system_id":"levelo_inurba_marseille","lat":43.29776,"lon":5.37106,"is_reserved":false,"is_disabled":false,"rental_uris":{"android":"levelo://app?vid=afbb408a-397f-46e3-916c-39adaf47bd14","ios":"levelo://app?vid=afbb408a-397f-46e3-916c-39adaf47bd14"},"vehicle_type_id":"4","last_reported":1727086274,"current_range_meters":22000,"station_id":"ce4bgop2rcd13ifvqc1g","pricing_plan_id":"cebpf4jnsgd1na2vs0mg"},{"bike_id":"71633d89-8187-400b-b3bd-254d8aa061f9","system_id":"levelo_inurba_marseille","lat":43.30138,"lon":5.37417,"is_reserved":false,"is_disabled":false,"rental_uris":{"android":"levelo://app?vid=71633d89-8187-400b-b3bd-254d8aa061f9","ios":"levelo://app?vid=71633d89-8187-400b-b3bd-254d8aa061f9"},"vehicle_type_id":"4","last_reported":1727086274,"current_range_meters":28400,"station_id":"ce4bgs92rcd13ifvqcc0","pricing_plan_id":"cebpf4jnsgd1na2vs0mg"},{"bike_id":"361ee900-a932-45dd-923f-ce99aa9db72c","system_id":"levelo_inurba_marseille","lat":43.30543,"lon":5.36551,"is_reserved":false,"is_disabled":false,"rental_uris":{"android":"levelo://app?vid=361ee900-a932-45dd-923f-ce99aa9db72c","ios":"levelo://app?vid=361ee900-a932-45dd-923f-ce99aa9db72c"},"vehicle_type_id":"4","last_reported":1727086274,"current_range_meters":39200,"station_id":"ce4bgs12rcd13ifvqcag","pricing_plan_id":"cebpf4jnsgd1na2vs0mg"},{"bike_id":"0f30add4-a156-4b7c-8d38-3528b70e9737","system_id":"levelo_inurba_marseille","lat":43.31357,"lon":5.36707,"is_reserved":false,"is_disabled":false,"rental_uris":{"android":"levelo://app?vid=0f30add4-a156-4b7c-8d38-3528b70e9737","ios":"levelo://app?vid=0f30add4-a156-4b7c-8d38-3528b70e9737"},"vehicle_type_id":"4","last_reported":1727086274,"current_range_meters":38800,"station_id":"ce4bgr92rcd13ifvqc6g","pricing_plan_id":"cebpf4jnsgd1na2vs0mg"},{"bike_id":"5d646be7-6f08-4485-8caa-430922346353","system_id":"levelo_inurba_marseille","lat":43.32482,"lon":5.3656,"is_reserved":false,"is_disabled":false,"rental_uris":{"android":"levelo://app?vid=5d646be7-6f08-4485-8caa-430922346353","ios":"levelo://app?vid=5d646be7-6f08-4485-8caa-430922346353"},"vehicle_type_id":"4","last_reported":1727086274,"current_range_meters":33200,"station_id":"ce4bhs12rcd13ifvqhvg","pricing_plan_id":"cebpf4jnsgd1na2vs0mg"},{"bike_id":"b3d26f7a-3890-4b6e-8a01-e5b5e2ff9864","system_id":"levelo_inurba_marseille","lat":43.29792,"lon":5.39355,"is_reserved":false,"is_disabled":false,"rental_uris":{"android":"levelo://app?vid=b3d26f7a-3890-4b6e-8a01-e5b5e2ff9864","ios":"levelo://app?vid=b3d26f7a-3890-4b6e-8a01-e5b5e2ff9864"},"vehicle_type_id":"4","last_reported":1727086274,"current_range_meters":37600,"station_id":"chh1huq6cuj3fo74tm60","pricing_plan_id":"cebpf4jnsgd1na2vs0mg"},{"bike_id":"d4057fd1-1169-4bb6-8a15-264b41404555","system_id":"levelo_inurba_marseille","lat":43.29573,"lon":5.37519,"is_reserved":false,"is_disabled":false,"rental_uris":{"android":"levelo://app?vid=d4057fd1-1169-4bb6-8a15-264b41404555","ios":"levelo://app?vid=d4057fd1-1169-4bb6-8a15-264b41404555"},"vehicle_type_id":"4","last_reported":1727086274,"current_range_meters":24400,"station_id":"ce4bgh92rcd13ifvqb50","pricing_plan_id":"cebpf4jnsgd1na2vs0mg"},{"bike_id":"ade268f0-dff7-4857-ba65-71fa14d830ec","system_id":"levelo_inurba_marseille","lat":43.30284,"lon":5.37693,"is_reserved":false,"is_disabled":false,"rental_uris":{"android":"levelo://app?vid=ade268f0-dff7-4857-ba65-71fa14d830ec","ios":"levelo://app?vid=ade268f0-dff7-4857-ba65-71fa14d830ec"},"vehicle_type_id":"4","last_reported":1727086274,"current_range_meters":17600,"station_id":"ce4bguh2rcd13ifvqcj0","pricing_plan_id":"cebpf4jnsgd1na2vs0mg"},{"bike_id":"3a19030d-3607-4273-b80a-5184a27534db","system_id":"levelo_inurba_marseille","lat":43.31114,"lon":5.37774,"is_reserved":false,"is_disabled":false,"rental_uris":{"android":"levelo://app?vid=3a19030d-3607-4273-b80a-5184a27534db","ios":"levelo://app?vid=3a19030d-3607-4273-b80a-5184a27534db"},"vehicle_type_id":"4","last_reported":1727086274,"current_range_meters":38400,"station_id":"ce4bgt92rcd13ifvqcg0","pricing_plan_id":"cebpf4jnsgd1na2vs0mg"},{"bike_id":"9d832db1-b618-4c31-8c41-fea099a3b1bc","system_id":"levelo_inurba_marseille","lat":43.2558,"lon":5.3824,"is_reserved":false,"is_disabled":false,"rental_uris":{"android":"levelo://app?vid=9d832db1-b618-4c31-8c41-fea099a3b1bc","ios":"levelo://app?vid=9d832db1-b618-4c31-8c41-fea099a3b1bc"},"vehicle_type_id":"4","last_reported":1727086274,"current_range_meters":32800,"station_id":"ce4bhih2rcd13ifvqfs0","pricing_plan_id":"cebpf4jnsgd1na2vs0mg"},{"bike_id":"df42f132-93bd-456a-9a0b-6da80ae47c3c","system_id":"levelo_inurba_marseille","lat":43.30953,"lon":5.39038,"is_reserved":false,"is_disabled":false,"rental_uris":{"android":"levelo://app?vid=df42f132-93bd-456a-9a0b-6da80ae47c3c","ios":"levelo://app?vid=df42f132-93bd-456a-9a0b-6da80ae47c3c"},"vehicle_type_id":"4","last_reported":1727086274,"current_range_meters":38800,"station_id":"ce4bgup2rcd13ifvqco0","pricing_plan_id":"cebpf4jnsgd1na2vs0mg"},{"bike_id":"668432ca-de92-4367-8eb2-c8bbe00db90d","system_id":"levelo_inurba_marseille","lat":43.30547,"lon":5.36543,"is_reserved":false,"is_disabled":false,"rental_uris":{"android":"levelo://app?vid=668432ca-de92-4367-8eb2-c8bbe00db90d","ios":"levelo://app?vid=668432ca-de92-4367-8eb2-c8bbe00db90d"},"vehicle_type_id":"4","last_reported":1727086274,"current_range_meters":28800,"station_id":"ce4bgs12rcd13ifvqcag","pricing_plan_id":"cebpf4jnsgd1na2vs0mg"},{"bike_id":"c8aaff3e-107d-4aa3-9e76-c955c0f33327","system_id":"levelo_inurba_marseille","lat":43.304671,"lon":5.388745,"is_reserved":false,"is_disabled":false,"rental_uris":{"android":"levelo://app?vid=c8aaff3e-107d-4aa3-9e76-c955c0f33327","ios":"levelo://app?vid=c8aaff3e-107d-4aa3-9e76-c955c0f33327"},"vehicle_type_id":"4","last_reported":1727086274,"current_range_meters":36400,"station_id":"ce4bgk12rcd13ifvqbi0","pricing_plan_id":"cebpf4jnsgd1na2vs0mg"},{"bike_id":"68bb8cf9-c609-4ced-8857-9fefcc8866f9","system_id":"levelo_inurba_marseille","lat":43.29578,"lon":5.3674,"is_reserved":false,"is_disabled":false,"rental_uris":{"android":"levelo://app?vid=68bb8cf9-c609-4ced-8857-9fefcc8866f9","ios":"levelo://app?vid=68bb8cf9-c609-4ced-8857-9fefcc8866f9"},"vehicle_type_id":"4","last_reported":1727086274,"current_range_meters":36400,"station_id":"ce4bgph2rcd13ifvqc2g","pricing_plan_id":"cebpf4jnsgd1na2vs0mg"},{"bike_id":"98317e9d-9c27-46f9-a4da-cf59250e8820","system_id":"levelo_inurba_marseille","lat":43.2407,"lon":5.37763,"is_reserved":false,"is_disabled":false,"rental_uris":{"android":"levelo://app?vid=98317e9d-9c27-46f9-a4da-cf59250e8820","ios":"levelo://app?vid=98317e9d-9c27-46f9-a4da-cf59250e8820"},"vehicle_type_id":"4","last_reported":1727086274,"current_range_meters":0,"station_id":"ce4bhnp2rcd13ifvqgvg","pricing_plan_id":"cebpf4jnsgd1na2vs0mg"},{"bike_id":"5409ee97-910d-4031-a395-074ded714555","system_id":"levelo_inurba_marseille","lat":43.27999,"lon":5.40013,"is_reserved":false,"is_disabled":false,"rental_uris":{"android":"levelo://app?vid=5409ee97-910d-4031-a395-074ded714555","ios":"levelo://app?vid=5409ee97-910d-4031-a395-074ded714555"},"vehicle_type_id":"4","last_reported":1727086274,"current_range_meters":20000,"station_id":"ce4bho92rcd13ifvqh4g","pricing_plan_id":"cebpf4jnsgd1na2vs0mg"},{"bike_id":"f166f65b-8650-45b7-aab5-35096092e02c","system_id":"levelo_inurba_marseille","lat":43.29568,"lon":5.37529,"is_reserved":false,"is_disabled":false,"rental_uris":{"android":"levelo://app?vid=f166f65b-8650-45b7-aab5-35096092e02c","ios":"levelo://app?vid=f166f65b-8650-45b7-aab5-35096092e02c"},"vehicle_type_id":"4","last_reported":1727086274,"current_range_meters":8800,"station_id":"ce4bgh92rcd13ifvqb50","pricing_plan_id":"cebpf4jnsgd1na2vs0mg"},{"bike_id":"da7e4c21-aacb-4d94-a6c8-f6a53378657c","system_id":"levelo_inurba_marseille","lat":43.30534,"lon":5.3655,"is_reserved":false,"is_disabled":false,"rental_uris":{"android":"levelo://app?vid=da7e4c21-aacb-4d94-a6c8-f6a53378657c","ios":"levelo://app?vid=da7e4c21-aacb-4d94-a6c8-f6a53378657c"},"vehicle_type_id":"4","last_reported":1727086274,"current_range_meters":21600,"station_id":"ce4bgs12rcd13ifvqcag","pricing_plan_id":"cebpf4jnsgd1na2vs0mg"},{"bike_id":"1e93c1c1-c2c1-43f7-8f78-a6ec0f1432cc","system_id":"levelo_inurba_marseille","lat":43.29062,"lon":5.37165,"is_reserved":false,"is_disabled":false,"rental_uris":{"android":"levelo://app?vid=1e93c1c1-c2c1-43f7-8f78-a6ec0f1432cc","ios":"levelo://app?vid=1e93c1c1-c2c1-43f7-8f78-a6ec0f1432cc"},"vehicle_type_id":"4","last_reported":1727086274,"current_range_meters":28000,"station_id":"ce4bh5p2rcd13ifvqe4g","pricing_plan_id":"cebpf4jnsgd1na2vs0mg"},{"bike_id":"a628b8c5-3b51-41c5-a53d-7d85b166e1f2","system_id":"levelo_inurba_marseille","lat":43.29986,"lon":5.37172,"is_reserved":false,"is_disabled":false,"rental_uris":{"android":"levelo://app?vid=a628b8c5-3b51-41c5-a53d-7d85b166e1f2","ios":"levelo://app?vid=a628b8c5-3b51-41c5-a53d-7d85b166e1f2"},"vehicle_type_id":"4","last_reported":1727086274,"current_range_meters":38400,"station_id":"ce4bgr92rcd13ifvqc7g","pricing_plan_id":"cebpf4jnsgd1na2vs0mg"},{"bike_id":"840f3e47-074d-4b22-ab80-8cfe985e5e84","system_id":"levelo_inurba_marseille","lat":43.24081,"lon":5.3775,"is_reserved":false,"is_disabled":false,"rental_uris":{"android":"levelo://app?vid=840f3e47-074d-4b22-ab80-8cfe985e5e84","ios":"levelo://app?vid=840f3e47-074d-4b22-ab80-8cfe985e5e84"},"vehicle_type_id":"4","last_reported":1727086274,"current_range_meters":30000,"station_id":"ce4bhnp2rcd13ifvqgvg","pricing_plan_id":"cebpf4jnsgd1na2vs0mg"},{"bike_id":"1d6d7d42-92f8-4710-836e-2aecc1e0d801","system_id":"levelo_inurba_marseille","lat":43.31269,"lon":5.40173,"is_reserved":false,"is_disabled":false,"rental_uris":{"android":"levelo://app?vid=1d6d7d42-92f8-4710-836e-2aecc1e0d801","ios":"levelo://app?vid=1d6d7d42-92f8-4710-836e-2aecc1e0d801"},"vehicle_type_id":"4","last_reported":1727086274,"current_range_meters":11600,"station_id":"ce4bh092rcd13ifvqd30","pricing_plan_id":"cebpf4jnsgd1na2vs0mg"},{"bike_id":"f6f2dcd5-9f8b-486f-bf33-85c68932231b","system_id":"levelo_inurba_marseille","lat":43.261932,"lon":5.374488,"is_reserved":false,"is_disabled":false,"rental_uris":{"android":"levelo://app?vid=f6f2dcd5-9f8b-486f-bf33-85c68932231b","ios":"levelo://app?vid=f6f2dcd5-9f8b-486f-bf33-85c68932231b"},"vehicle_type_id":"4","last_reported":1727086274,"current_range_meters":28800,"station_id":"ce4bhgp2rcd13ifvqfc0","pricing_plan_id":"cebpf4jnsgd1na2vs0mg"},{"bike_id":"0be445fb-689f-41f2-bac6-b0fe18f95e79","system_id":"levelo_inurba_marseille","lat":43.285029,"lon":5.359594,"is_reserved":false,"is_disabled":false,"rental_uris":{"android":"levelo://app?vid=0be445fb-689f-41f2-bac6-b0fe18f95e79","ios":"levelo://app?vid=0be445fb-689f-41f2-bac6-b0fe18f95e79"},"vehicle_type_id":"4","last_reported":1727086274,"current_range_meters":4800,"station_id":"ce4bhah2rcd13ifvqei0","pricing_plan_id":"cebpf4jnsgd1na2vs0mg"},{"bike_id":"b7310345-cb2f-4704-9ebb-41341736a90f","system_id":"levelo_inurba_marseille","lat":43.31158,"lon":5.3872,"is_reserved":false,"is_disabled":false,"rental_uris":{"android":"levelo://app?vid=b7310345-cb2f-4704-9ebb-41341736a90f","ios":"levelo://app?vid=b7310345-cb2f-4704-9ebb-41341736a90f"},"vehicle_type_id":"4","last_reported":1727086274,"current_range_meters":14000,"station_id":"ce4bgv12rcd13ifvqcp0","pricing_plan_id":"cebpf4jnsgd1na2vs0mg"},{"bike_id":"9e038611-14a3-447d-b6f1-4aa4ca54569f","system_id":"levelo_inurba_marseille","lat":43.32535,"lon":5.41442,"is_reserved":false,"is_disabled":false,"rental_uris":{"android":"levelo://app?vid=9e038611-14a3-447d-b6f1-4aa4ca54569f","ios":"levelo://app?vid=9e038611-14a3-447d-b6f1-4aa4ca54569f"},"vehicle_type_id":"4","last_reported":1727086274,"current_range_meters":23200,"station_id":"ce4bhq12rcd13ifvqhhg","pricing_plan_id":"cebpf4jnsgd1na2vs0mg"},{"bike_id":"7ac10a76-ab62-4113-9825-e80df7bf3f90","system_id":"levelo_inurba_marseille","lat":43.31354,"lon":5.36725,"is_reserved":false,"is_disabled":false,"rental_uris":{"android":"levelo://app?vid=7ac10a76-ab62-4113-9825-e80df7bf3f90","ios":"levelo://app?vid=7ac10a76-ab62-4113-9825-e80df7bf3f90"},"vehicle_type_id":"4","last_reported":1727086274,"current_range_meters":34000,"station_id":"ce4bgr92rcd13ifvqc6g","pricing_plan_id":"cebpf4jnsgd1na2vs0mg"},{"bike_id":"03f4b9c3-1c8a-4be8-b07f-ae99299f32a0","system_id":"levelo_inurba_marseille","lat":43.28157,"lon":5.42631,"is_reserved":false,"is_disabled":false,"rental_uris":{"android":"levelo://app?vid=03f4b9c3-1c8a-4be8-b07f-ae99299f32a0","ios":"levelo://app?vid=03f4b9c3-1c8a-4be8-b07f-ae99299f32a0"},"vehicle_type_id":"4","last_reported":1727086274,"current_range_meters":38800,"station_id":"ce4bhnh2rcd13ifvqgug","pricing_plan_id":"cebpf4jnsgd1na2vs0mg"},{"bike_id":"53bc259a-0b68-49d3-9b47-876af74922c9","system_id":"levelo_inurba_marseille","lat":43.31165,"lon":5.38715,"is_reserved":false,"is_disabled":false,"rental_uris":{"android":"levelo://app?vid=53bc259a-0b68-49d3-9b47-876af74922c9","ios":"levelo://app?vid=53bc259a-0b68-49d3-9b47-876af74922c9"},"vehicle_type_id":"4","last_reported":1727086274,"current_range_meters":36400,"station_id":"ce4bgv12rcd13ifvqcp0","pricing_plan_id":"cebpf4jnsgd1na2vs0mg"},{"bike_id":"b85c706a-e886-4780-a270-56bb58c6d47c","system_id":"levelo_inurba_marseille","lat":43.29582,"lon":5.36741,"is_reserved":false,"is_disabled":false,"rental_uris":{"android":"levelo://app?vid=b85c706a-e886-4780-a270-56bb58c6d47c","ios":"levelo://app?vid=b85c706a-e886-4780-a270-56bb58c6d47c"},"vehicle_type_id":"4","last_reported":1727086274,"current_range_meters":30800,"station_id":"ce4bgph2rcd13ifvqc2g","pricing_plan_id":"cebpf4jnsgd1na2vs0mg"},{"bike_id":"7a63ce13-34e2-49ed-8045-bd660792102e","system_id":"levelo_inurba_marseille","lat":43.25934,"lon":5.40911,"is_reserved":false,"is_disabled":false,"rental_uris":{"android":"levelo://app?vid=7a63ce13-34e2-49ed-8045-bd660792102e","ios":"levelo://app?vid=7a63ce13-34e2-49ed-8045-bd660792102e"},"vehicle_type_id":"4","last_reported":1727086274,"current_range_meters":30800,"station_id":"ce4bhm92rcd13ifvqglg","pricing_plan_id":"cebpf4jnsgd1na2vs0mg"},{"bike_id":"36dc71fe-bfc9-4a4d-b2ef-39ebb067c458","system_id":"levelo_inurba_marseille","lat":43.29554,"lon":5.42284,"is_reserved":false,"is_disabled":false,"rental_uris":{"android":"levelo://app?vid=36dc71fe-bfc9-4a4d-b2ef-39ebb067c458","ios":"levelo://app?vid=36dc71fe-bfc9-4a4d-b2ef-39ebb067c458"},"vehicle_type_id":"4","last_reported":1727086274,"current_range_meters":39200,"station_id":"ce4bhph2rcd13ifvqhdg","pricing_plan_id":"cebpf4jnsgd1na2vs0mg"},{"bike_id":"4e442a34-1c41-4d3c-9b65-5b0b3be50276","system_id":"levelo_inurba_marseille","lat":43.3372,"lon":5.39189,"is_reserved":false,"is_disabled":false,"rental_uris":{"android":"levelo://app?vid=4e442a34-1c41-4d3c-9b65-5b0b3be50276","ios":"levelo://app?vid=4e442a34-1c41-4d3c-9b65-5b0b3be50276"},"vehicle_type_id":"4","last_reported":1727086274,"current_range_meters":37600,"station_id":"ce4bhr92rcd13ifvqhsg","pricing_plan_id":"cebpf4jnsgd1na2vs0mg"},{"bike_id":"3c9c6733-d300-40a6-8ad0-5d22a13acbf3","system_id":"levelo_inurba_marseille","lat":43.29582,"lon":5.36739,"is_reserved":false,"is_disabled":false,"rental_uris":{"android":"levelo://app?vid=3c9c6733-d300-40a6-8ad0-5d22a13acbf3","ios":"levelo://app?vid=3c9c6733-d300-40a6-8ad0-5d22a13acbf3"},"vehicle_type_id":"4","last_reported":1727086274,"current_range_meters":39200,"station_id":"ce4bgph2rcd13ifvqc2g","pricing_plan_id":"cebpf4jnsgd1na2vs0mg"},{"bike_id":"3c620453-81c8-4d90-bc9e-55fe83491ca9","system_id":"levelo_inurba_marseille","lat":43.28468,"lon":5.38414,"is_reserved":false,"is_disabled":false,"rental_uris":{"android":"levelo://app?vid=3c620453-81c8-4d90-bc9e-55fe83491ca9","ios":"levelo://app?vid=3c620453-81c8-4d90-bc9e-55fe83491ca9"},"vehicle_type_id":"4","last_reported":1727086274,"current_range_meters":37600,"station_id":"ce4bh512rcd13ifvqe3g","pricing_plan_id":"cebpf4jnsgd1na2vs0mg"},{"bike_id":"d0097b4c-b690-467a-b4dc-3b7b3b1bb5dc","system_id":"levelo_inurba_marseille","lat":43.31367,"lon":5.36694,"is_reserved":false,"is_disabled":false,"rental_uris":{"android":"levelo://app?vid=d0097b4c-b690-467a-b4dc-3b7b3b1bb5dc","ios":"levelo://app?vid=d0097b4c-b690-467a-b4dc-3b7b3b1bb5dc"},"vehicle_type_id":"4","last_reported":1727086274,"current_range_meters":10800,"station_id":"ce4bgr92rcd13ifvqc6g","pricing_plan_id":"cebpf4jnsgd1na2vs0mg"},{"bike_id":"b93c77d4-e34c-431b-b621-2d1cda82acd0","system_id":"levelo_inurba_marseille","lat":43.23189,"lon":5.39981,"is_reserved":false,"is_disabled":false,"rental_uris":{"android":"levelo://app?vid=b93c77d4-e34c-431b-b621-2d1cda82acd0","ios":"levelo://app?vid=b93c77d4-e34c-431b-b621-2d1cda82acd0"},"vehicle_type_id":"4","last_reported":1727086274,"current_range_meters":19200,"station_id":"ce4bhn12rcd13ifvqgqg","pricing_plan_id":"cebpf4jnsgd1na2vs0mg"},{"bike_id":"66e1b911-aecd-467a-b6b0-7d00117ad264","system_id":"levelo_inurba_marseille","lat":43.31153,"lon":5.38302,"is_reserved":false,"is_disabled":false,"rental_uris":{"android":"levelo://app?vid=66e1b911-aecd-467a-b6b0-7d00117ad264","ios":"levelo://app?vid=66e1b911-aecd-467a-b6b0-7d00117ad264"},"vehicle_type_id":"4","last_reported":1727086274,"current_range_meters":27200,"station_id":"","pricing_plan_id":"cebpf4jnsgd1na2vs0mg"},{"bike_id":"ce1e6d58-cfb7-4ec4-bb20-35c51d94ff24","system_id":"levelo_inurba_marseille","lat":43.2826,"lon":5.35069,"is_reserved":false,"is_disabled":false,"rental_uris":{"android":"levelo://app?vid=ce1e6d58-cfb7-4ec4-bb20-35c51d94ff24","ios":"levelo://app?vid=ce1e6d58-cfb7-4ec4-bb20-35c51d94ff24"},