{"last_updated":1727180215,"ttl":60,"version":"2.2","data":{"bikes":[{"bike_id":"797b3561-4813-408d-a1b2-5d9a53a8eb30","system_id":"levelo_inurba_marseille","lat":43.32486,"lon":5.3656,"is_reserved":false,"is_disabled":false,"rental_uris":{"android":"levelo://app?vid=797b3561-4813-408d-a1b2-5d9a53a8eb30","ios":"levelo://app?vid=797b3561-4813-408d-a1b2-5d9a53a8eb30"},"vehicle_type_id":"4","last_reported":1727180216,"current_range_meters":39200,"station_id":"ce4bhs12rcd13ifvqhvg","pricing_plan_id":"cebpf4jnsgd1na2vs0mg"},{"bike_id":"94974735-9e09-4ce4-8c77-f4714a151daf","system_id":"levelo_inurba_marseille","lat":43.22929,"lon":5.35373,"is_reserved":false,"is_disabled":false,"rental_uris":{"android":"levelo://app?vid=94974735-9e09-4ce4-8c77-f4714a151daf","ios":"levelo://app?vid=94974735-9e09-4ce4-8c77-f4714a151daf"},"vehicle_type_id":"4","last_reported":1727180216,"current_range_meters":36800,"station_id":"cpo3532slgdg3j2ikp40","pricing_plan_id":"cebpf4jnsgd1na2vs0mg"},{"bike_id":"be8822b3-9edb-4359-9ba6-1ebccccba435","system_id":"levelo_inurba_marseille","lat":43.30277,"lon":5.37687,"is_reserved":false,"is_disabled":false,"rental_uris":{"android":"levelo://app?vid=be8822b3-9edb-4359-9ba6-1ebccccba435","ios":"levelo://app?vid=be8822b3-9edb-4359-9ba6-1ebccccba435"},"vehicle_type_id":"4","last_reported":1727180216,"current_range_meters":32800,"station_id":"ce4bguh2rcd13ifvqcj0","pricing_plan_id":"cebpf4jnsgd1na2vs0mg"},{"bike_id":"d65638f5-b8de-43ba-94f4-e7dde4a92b71","system_id":"levelo_inurba_marseille","lat":43.30849,"lon":5.37196,"is_reserved":false,"is_disabled":false,"rental_uris":{"android":"levelo://app?vid=d65638f5-b8de-43ba-94f4-e7dde4a92b71","ios":"levelo://app?vid=d65638f5-b8de-43ba-94f4-e7dde4a92b71"},"vehicle_type_id":"4","last_reported":1727180216,"current_range_meters":26000,"station_id":"ce4bguh2rcd13ifvqckg","pricing_plan_id":"cebpf4jnsgd1na2vs0mg"},{"bike_id":"2200d9de-eab9-4f82-a98f-84d47f405602","system_id":"levelo_inurba_marseille","lat":43.30472,"lon":5.37886,"is_reserved":false,"is_disabled":false,"rental_uris":{"android":"levelo://app?vid=2200d9de-eab9-4f82-a98f-84d47f405602","ios":"levelo://app?vid=2200d9de-eab9-4f82-a98f-84d47f405602"},"vehicle_type_id":"4","last_reported":1727180216,"current_range_meters":38000,"station_id":"ce4bgup2rcd13ifvqcn0","pricing_plan_id":"cebpf4jnsgd1na2vs0mg"},{"bike_id":"f0559f64-2dd1-426c-aa70-5982621f4cf2","system_id":"levelo_inurba_marseille","lat":43.33759,"lon":5.37427,"is_reserved":false,"is_disabled":false,"rental_uris":{"android":"levelo://app?vid=f0559f64-2dd1-426c-aa70-5982621f4cf2","ios":"levelo://app?vid=f0559f64-2dd1-426c-aa70-5982621f4cf2"},"vehicle_type_id":"4","last_reported":1727180216,"current_range_meters":38000,"station_id":"","pricing_plan_id":"cebpf4jnsgd1na2vs0mg"},{"bike_id":"89477c9b-899d-4e11-a6be-74f4b8898f6f","system_id":"levelo_inurba_marseille","lat":43.29049,"lon":5.3993,"is_reserved":false,"is_disabled":false,"rental_uris":{"android":"levelo://app?vid=89477c9b-899d-4e11-a6be-74f4b8898f6f","ios":"levelo://app?vid=89477c9b-899d-4e11-a6be-74f4b8898f6f"},"vehicle_type_id":"4","last_reported":1727180216,"current_range_meters":38400,"station_id":"ce4bh392rcd13ifvqdm0","pricing_plan_id":"cebpf4jnsgd1na2vs0mg"},{"bike_id":"5d3d257f-bb51-4bce-a465-c8d6a178e971","system_id":"levelo_inurba_marseille","lat":43.32658,"lon":5.40979,"is_reserved":false,"is_disabled":false,"rental_uris":{"android":"levelo://app?vid=5d3d257f-bb51-4bce-a465-c8d6a178e971","ios":"levelo://app?vid=5d3d257f-bb51-4bce-a465-c8d6a178e971"},"vehicle_type_id":"4","last_reported":1727180216,"current_range_meters":37600,"station_id":"ce4bhpp2rcd13ifvqhgg","pricing_plan_id":"cebpf4jnsgd1na2vs0mg"},{"bike_id":"c8c126d4-964c-4fae-b92b-c388d3040fa4","system_id":"levelo_inurba_marseille","lat":43.30484,"lon":5.373699,"is_reserved":false,"is_disabled":false,"rental_uris":{"android":"levelo://app?vid=c8c126d4-964c-4fae-b92b-c388d3040fa4","ios":"levelo://app?vid=c8c126d4-964c-4fae-b92b-c388d3040fa4"},"vehicle_type_id":"4","last_reported":1727180216,"current_range_meters":12400,"station_id":"ce4bhoh2rcd13ifvqh5g","pricing_plan_id":"cebpf4jnsgd1na2vs0mg"},{"bike_id":"a3205268-0a66-4403-b78e-c9e5b2e714fb","system_id":"levelo_inurba_marseille","lat":43.26951,"lon":5.38637,"is_reserved":false,"is_disabled":false,"rental_uris":{"android":"levelo://app?vid=a3205268-0a66-4403-b78e-c9e5b2e714fb","ios":"levelo://app?vid=a3205268-0a66-4403-b78e-c9e5b2e714fb"},"vehicle_type_id":"4","last_reported":1727180216,"current_range_meters":22000,"station_id":"ce4bhh92rcd13ifvqfh0","pricing_plan_id":"cebpf4jnsgd1na2vs0mg"},{"bike_id":"b14d0afd-356c-4c20-b93f-06a170749a0f","system_id":"levelo_inurba_marseille","lat":43.3375,"lon":5.37445,"is_reserved":false,"is_disabled":false,"rental_uris":{"android":"levelo://app?vid=b14d0afd-356c-4c20-b93f-06a170749a0f","ios":"levelo://app?vid=b14d0afd-356c-4c20-b93f-06a170749a0f"},"vehicle_type_id":"4","last_reported":1727180216,"current_range_meters":35200,"station_id":"","pricing_plan_id":"cebpf4jnsgd1na2vs0mg"},{"bike_id":"518e24e4-0539-424d-8557-a594d810dc9a","system_id":"levelo_inurba_marseille","lat":43.29299,"lon":5.37169,"is_reserved":false,"is_disabled":false,"rental_uris":{"android":"levelo://app?vid=518e24e4-0539-424d-8557-a594d810dc9a","ios":"levelo://app?vid=518e24e4-0539-424d-8557-a594d810dc9a"},"vehicle_type_id":"4","last_reported":1727180216,"current_range_meters":26800,"station_id":"ce4bgh92rcd13ifvqb40","pricing_plan_id":"cebpf4jnsgd1na2vs0mg"},{"bike_id":"dee10f61-199b-4b73-9298-6dd6856288a7","system_id":"levelo_inurba_marseille","lat":43.28155,"lon":5.42645,"is_reserved":false,"is_disabled":false,"rental_uris":{"android":"levelo://app?vid=dee10f61-199b-4b73-9298-6dd6856288a7","ios":"levelo://app?vid=dee10f61-199b-4b73-9298-6dd6856288a7"},"vehicle_type_id":"4","last_reported":1727180216,"current_range_meters":8000,"station_id":"ce4bhnh2rcd13ifvqgug","pricing_plan_id":"cebpf4jnsgd1na2vs0mg"},{"bike_id":"cec702f9-6429-493f-a263-782f4419d3a6","system_id":"levelo_inurba_marseille","lat":43.25866,"lon":5.39897,"is_reserved":false,"is_disabled":false,"rental_uris":{"android":"levelo://app?vid=cec702f9-6429-493f-a263-782f4419d3a6","ios":"levelo://app?vid=cec702f9-6429-493f-a263-782f4419d3a6"},"vehicle_type_id":"4","last_reported":1727180216,"current_range_meters":29600,"station_id":"ce4bhl92rcd13ifvqghg","pricing_plan_id":"cebpf4jnsgd1na2vs0mg"},{"bike_id":"0d42b10a-3b15-482b-bbe9-82d3ea517263","system_id":"levelo_inurba_marseille","lat":43.25939,"lon":5.40904,"is_reserved":false,"is_disabled":false,"rental_uris":{"android":"levelo://app?vid=0d42b10a-3b15-482b-bbe9-82d3ea517263","ios":"levelo://app?vid=0d42b10a-3b15-482b-bbe9-82d3ea517263"},"vehicle_type_id":"4","last_reported":1727180216,"current_range_meters":28400,"station_id":"ce4bhm92rcd13ifvqglg","pricing_plan_id":"cebpf4jnsgd1na2vs0mg"},{"bike_id":"fe69611f-6ed0-4350-9cf0-f719ab4012ce","system_id":"levelo_inurba_marseille","lat":43.3028,"lon":5.37691,"is_reserved":false,"is_disabled":false,"rental_uris":{"android":"levelo://app?vid=fe69611f-6ed0-4350-9cf0-f719ab4012ce","ios":"levelo://app?vid=fe69611f-6ed0-4350-9cf0-f719ab4012ce"},"vehicle_type_id":"4","last_reported":1727180216,"current_range_meters":38800,"station_id":"ce4bguh2rcd13ifvqcj0","pricing_plan_id":"cebpf4jnsgd1na2vs0mg"},{"bike_id":"c4db0edb-501c-427b-a7f2-d0a3989c55b2","system_id":"levelo_inurba_marseille","lat":43.27205,"lon":5.39183,"is_reserved":false,"is_disabled":false,"rental_uris":{"android":"levelo://app?vid=c4db0edb-501c-427b-a7f2-d0a3989c55b2","ios":"levelo://app?vid=c4db0edb-501c-427b-a7f2-d0a3989c55b2"},"vehicle_type_id":"4","last_reported":1727180216,"current_range_meters":2800,"station_id":"ce4bhhp2rcd13ifvqfm0","pricing_plan_id":"cebpf4jnsgd1na2vs0mg"},{"bike_id":"08dbffb8-8694-44b9-94a6-887203b2f845","system_id":"levelo_inurba_marseille","lat":43.29865,"lon":5.39735,"is_reserved":false,"is_disabled":false,"rental_uris":{"android":"levelo://app?vid=08dbffb8-8694-44b9-94a6-887203b2f845","ios":"levelo://app?vid=08dbffb8-8694-44b9-94a6-887203b2f845"},"vehicle_type_id":"4","last_reported":1727180216,"current_range_meters":14000,"station_id":"ce4bh0h2rcd13ifvqd50","pricing_plan_id":"cebpf4jnsgd1na2vs0mg"},{"bike_id":"03a3d6e2-992e-47df-a362-63da52ff6ce7","system_id":"levelo_inurba_marseille","lat":43.305446,"lon":5.365461,"is_reserved":false,"is_disabled":false,"rental_uris":{"android":"levelo://app?vid=03a3d6e2-992e-47df-a362-63da52ff6ce7","ios":"levelo://app?vid=03a3d6e2-992e-47df-a362-63da52ff6ce7"},"vehicle_type_id":"4","last_reported":1727180216,"current_range_meters":8000,"station_id":"ce4bgs12rcd13ifvqcag","pricing_plan_id":"cebpf4jnsgd1na2vs0mg"},{"bike_id":"7f34c370-5f95-43b1-ac2a-d78c61294077","system_id":"levelo_inurba_marseille","lat":43.26944,"lon":5.40251,"is_reserved":false,"is_disabled":false,"rental_uris":{"android":"levelo://app?vid=7f34c370-5f95-43b1-ac2a-d78c61294077","ios":"levelo://app?vid=7f34c370-5f95-43b1-ac2a-d78c61294077"},"vehicle_type_id":"4","last_reported":1727180216,"current_range_meters":18800,"station_id":"cjm6bp8fraef2m0cb0m0","pricing_plan_id":"cebpf4jnsgd1na2vs0mg"},{"bike_id":"7737b815-6daf-41f0-8354-4b28ba75917f","system_id":"levelo_inurba_marseille","lat":43.30189,"lon":5.39819,"is_reserved":false,"is_disabled":false,"rental_uris":{"android":"levelo://app?vid=7737b815-6daf-41f0-8354-4b28ba75917f","ios":"levelo://app?vid=7737b815-6daf-41f0-8354-4b28ba75917f"},"vehicle_type_id":"4","last_reported":1727180216,"current_range_meters":24000,"station_id":"ce4bgvp2rcd13ifvqct0","pricing_plan_id":"cebpf4jnsgd1na2vs0mg"},{"bike_id":"6af05b22-7037-4454-861c-3b90a9d37c6e","system_id":"levelo_inurba_marseille","lat":43.23155,"lon":5.43705,"is_reserved":false,"is_disabled":false,"rental_uris":{"android":"levelo://app?vid=6af05b22-7037-4454-861c-3b90a9d37c6e","ios":"levelo://app?vid=6af05b22-7037-4454-861c-3b90a9d37c6e"},"vehicle_type_id":"4","last_reported":1727180216,"current_range_meters":20400,"station_id":"ce4bhmp2rcd13ifvqgog","pricing_plan_id":"cebpf4jnsgd1na2vs0mg"},{"bike_id":"ba7a3d20-6e55-413e-9473-fbce90da0acf","system_id":"levelo_inurba_marseille","lat":43.2743,"lon":5.39403,"is_reserved":false,"is_disabled":false,"rental_uris":{"android":"levelo://app?vid=ba7a3d20-6e55-413e-9473-fbce90da0acf","ios":"levelo://app?vid=ba7a3d20-6e55-413e-9473-fbce90da0acf"},"vehicle_type_id":"4","last_reported":1727180216,"current_range_meters":4800,"station_id":"ce4bhdp2rcd13ifvqf20","pricing_plan_id":"cebpf4jnsgd1na2vs0mg"},{"bike_id":"203232da-cb2d-4a12-99f8-36d7610c05e0","system_id":"levelo_inurba_marseille","lat":43.27909,"lon":5.39586,"is_reserved":false,"is_disabled":false,"rental_uris":{"android":"levelo://app?vid=203232da-cb2d-4a12-99f8-36d7610c05e0","ios":"levelo://app?vid=203232da-cb2d-4a12-99f8-36d7610c05e0"},"vehicle_type_id":"4","last_reported":1727180216,"current_range_meters":37600,"station_id":"ce4bhf92rcd13ifvqf40","pricing_plan_id":"cebpf4jnsgd1na2vs0mg"},{"bike_id":"a0d707e1-1962-44ea-871d-1343e49e7758","system_id":"levelo_inurba_marseille","lat":43.27496,"lon":5.4245,"is_reserved":false,"is_disabled":false,"rental_uris":{"android":"levelo://app?vid=a0d707e1-1962-44ea-871d-1343e49e7758","ios":"levelo://app?vid=a0d707e1-1962-44ea-871d-1343e49e7758"},"vehicle_type_id":"4","last_reported":1727180216,"current_range_meters":33200,"station_id":"ce4bhn92rcd13ifvqgrg","pricing_plan_id":"cebpf4jnsgd1na2vs0mg"},{"bike_id":"023ad33c-a719-4863-9818-712ff3aead50","system_id":"levelo_inurba_marseille","lat":43.24667,"lon":5.38159,"is_reserved":false,"is_disabled":false,"rental_uris":{"android":"levelo://app?vid=023ad33c-a719-4863-9818-712ff3aead50","ios":"levelo://app?vid=023ad33c-a719-4863-9818-712ff3aead50"},"vehicle_type_id":"4","last_reported":1727180216,"current_range_meters":38400,"station_id":"ce4bhih2rcd13ifvqfr0","pricing_plan_id":"cebpf4jnsgd1na2vs0mg"},{"bike_id":"d4af3188-051f-4a7d-a203-31b3728fca1e","system_id":"levelo_inurba_marseille","lat":43.2707,"lon":5.42279,"is_reserved":false,"is_disabled":false,"rental_uris":{"android":"levelo://app?vid=d4af3188-051f-4a7d-a203-31b3728fca1e","ios":"levelo://app?vid=d4af3188-051f-4a7d-a203-31b3728fca1e"},"vehicle_type_id":"4","last_reported":1727180216,"current_range_meters":36800,"station_id":"ce4bhk92rcd13ifvqgb0","pricing_plan_id":"cebpf4jnsgd1na2vs0mg"},{"bike_id":"2ab2c023-b181-49c5-a1ff-ff1c4f3d3d80","system_id":"levelo_inurba_marseille","lat":43.32337,"lon":5.40627,"is_reserved":false,"is_disabled":false,"rental_uris":{"android":"levelo://app?vid=2ab2c023-b181-49c5-a1ff-ff1c4f3d3d80","ios":"levelo://app?vid=2ab2c023-b181-49c5-a1ff-ff1c4f3d3d80"},"vehicle_type_id":"4","last_reported":1727180216,"current_range_meters":36400,"station_id":"ce4bhq92rcd13ifvqhjg","pricing_plan_id":"cebpf4jnsgd1na2vs0mg"},{"bike_id":"a8451f1d-f7b9-49ce-b7a3-32c95d44e7b2","system_id":"levelo_inurba_marseille","lat":43.27674,"lon":5.38878,"is_reserved":false,"is_disabled":false,"rental_uris":{"android":"levelo://app?vid=a8451f1d-f7b9-49ce-b7a3-32c95d44e7b2","ios":"levelo://app?vid=a8451f1d-f7b9-49ce-b7a3-32c95d44e7b2"},"vehicle_type_id":"4","last_reported":1727180216,"current_range_meters":39200,"station_id":"ce4bhi12rcd13ifvqfo0","pricing_plan_id":"cebpf4jnsgd1na2vs0mg"},{"bike_id":"9ae27bf6-f242-47c4-8011-a85e1eba32a4","system_id":"levelo_inurba_marseille","lat":43.28346,"lon":5.38104,"is_reserved":false,"is_disabled":false,"rental_uris":{"android":"levelo://app?vid=9ae27bf6-f242-47c4-8011-a85e1eba32a4","ios":"levelo://app?vid=9ae27bf6-f242-47c4-8011-a85e1eba32a4"},"vehicle_type_id":"4","last_reported":1727180216,"current_range_meters":38800,"station_id":"ce4bh412rcd13ifvqdr0","pricing_plan_id":"cebpf4jnsgd1na2vs0mg"},{"bike_id":"f8c704cc-636c-4268-80af-5309e4b09904","system_id":"levelo_inurba_marseille","lat":43.24175,"lon":5.39711,"is_reserved":false,"is_disabled":false,"rental_uris":{"android":"levelo://app?vid=f8c704cc-636c-4268-80af-5309e4b09904","ios":"levelo://app?vid=f8c704cc-636c-4268-80af-5309e4b09904"},"vehicle_type_id":"4","last_reported":1727180216,"current_range_meters":37600,"station_id":"ce4bhn12rcd13ifvqgpg","pricing_plan_id":"cebpf4jnsgd1na2vs0mg"},{"bike_id":"5453ff63-c479-4c4f-90a6-2244bf56c8f3","system_id":"levelo_inurba_marseille","lat":43.2707,"lon":5.42278,"is_reserved":false,"is_disabled":false,"rental_uris":{"android":"levelo://app?vid=5453ff63-c479-4c4f-90a6-2244bf56c8f3","ios":"levelo://app?vid=5453ff63-c479-4c4f-90a6-2244bf56c8f3"},"vehicle_type_id":"4","last_reported":1727180216,"current_range_meters":40000,"station_id":"ce4bhk92rcd13ifvqgb0","pricing_plan_id":"cebpf4jnsgd1na2vs0mg"},{"bike_id":"9f649c77-13ab-4fbb-9a49-3ff7cc343baf","system_id":"levelo_inurba_marseille","lat":43.28935,"lon":5.36403,"is_reserved":false,"is_disabled":false,"rental_uris":{"android":"levelo://app?vid=9f649c77-13ab-4fbb-9a49-3ff7cc343baf","ios":"levelo://app?vid=9f649c77-13ab-4fbb-9a49-3ff7cc343baf"},"vehicle_type_id":"4","last_reported":1727180216,"current_range_meters":6400,"station_id":"ce4bhc92rcd13ifvqetg","pricing_plan_id":"cebpf4jnsgd1na2vs0mg"},{"bike_id":"4b6cc228-d3e6-44a3-bee8-b0056aed30bf","system_id":"levelo_inurba_marseille","lat":43.2315,"lon":5.43708,"is_reserved":false,"is_disabled":false,"rental_uris":{"android":"levelo://app?vid=4b6cc228-d3e6-44a3-bee8-b0056aed30bf","ios":"levelo://app?vid=4b6cc228-d3e6-44a3-bee8-b0056aed30bf"},"vehicle_type_id":"4","last_reported":1727180216,"current_range_meters":38800,"station_id":"ce4bhmp2rcd13ifvqgog","pricing_plan_id":"cebpf4jnsgd1na2vs0mg"},{"bike_id":"cfd99303-97a6-4a17-9efb-9ca480755f26","system_id":"levelo_inurba_marseille","lat":43.29373,"lon":5.3783,"is_reserved":false,"is_disabled":false,"rental_uris":{"android":"levelo://app?vid=cfd99303-97a6-4a17-9efb-9ca480755f26","ios":"levelo://app?vid=cfd99303-97a6-4a17-9efb-9ca480755f26"},"vehicle_type_id":"4","last_reported":1727180216,"current_range_meters":34800,"station_id":"ce4bgjh2rcd13ifvqbf0","pricing_plan_id":"cebpf4jnsgd1na2vs0mg"},{"bike_id":"8cd2232a-9b2c-420f-bcbf-dedebf61565f","system_id":"levelo_inurba_marseille","lat":43.27831,"lon":5.39206,"is_reserved":false,"is_disabled":false,"rental_uris":{"android":"levelo://app?vid=8cd2232a-9b2c-420f-bcbf-dedebf61565f","ios":"levelo://app?vid=8cd2232a-9b2c-420f-bcbf-dedebf61565f"},"vehicle_type_id":"4","last_reported":1727180216,"current_range_meters":29600,"station_id":"ce4bhjp2rcd13ifvqga0","pricing_plan_id":"cebpf4jnsgd1na2vs0mg"},{"bike_id":"2b53c05c-7e74-451c-9f0a-5f217febdc56","system_id":"levelo_inurba_marseille","lat":43.30153,"lon":5.37688,"is_reserved":false,"is_disabled":false,"rental_uris":{"android":"levelo://app?vid=2b53c05c-7e74-451c-9f0a-5f217febdc56","ios":"levelo://app?vid=2b53c05c-7e74-451c-9f0a-5f217febdc56"},"vehicle_type_id":"4","last_reported":1727180216,"current_range_meters":8400,"station_id":"","pricing_plan_id":"cebpf4jnsgd1na2vs0mg"},{"bike_id":"7a8458d5-44ac-4f2e-abef-3f01eb31f7ca","system_id":"levelo_inurba_marseille","lat":43.337444,"lon":5.374475,"is_reserved":false,"is_disabled":false,"rental_uris":{"android":"levelo://app?vid=7a8458d5-44ac-4f2e-abef-3f01eb31f7ca","ios":"levelo://app?vid=7a8458d5-44ac-4f2e-abef-3f01eb31f7ca"},"vehicle_type_id":"4","last_reported":1727180216,"current_range_meters":22000,"station_id":"","pricing_plan_id":"cebpf4jnsgd1na2vs0mg"},{"bike_id":"ef1087a3-2aa8-49da-a1ea-c5c69068f32c","system_id":"levelo_inurba_marseille","lat":43.26687,"lon":5.38268,"is_reserved":false,"is_disabled":false,"rental_uris":{"android":"levelo://app?vid=ef1087a3-2aa8-49da-a1ea-c5c69068f32c","ios":"levelo://app?vid=ef1087a3-2aa8-49da-a1ea-c5c69068f32c"},"vehicle_type_id":"4","last_reported":1727180216,"current_range_meters":24400,"station_id":"ce4bhg92rcd13ifvqf90","pricing_plan_id":"cebpf4jnsgd1na2vs0mg"},{"bike_id":"5fae732e-fc7e-43bb-bf77-0fc43fa6d8e7","system_id":"levelo_inurba_marseille","lat":43.29715,"lon":5.37273,"is_reserved":false,"is_disabled":false,"rental_uris":{"android":"levelo://app?vid=5fae732e-fc7e-43bb-bf77-0fc43fa6d8e7","ios":"levelo://app?vid=5fae732e-fc7e-43bb-bf77-0fc43fa6d8e7"},"vehicle_type_id":"4","last_reported":1727180216,"current_range_meters":38000,"station_id":"ce4bgk12rcd13ifvqbj0","pricing_plan_id":"cebpf4jnsgd1na2vs0mg"},{"bike_id":"c9b5ec6f-9235-414f-8086-a847b21c71d9","system_id":"levelo_inurba_marseille","lat":43.303083,"lon":5.369013,"is_reserved":false,"is_disabled":false,"rental_uris":{"android":"levelo://app?vid=c9b5ec6f-9235-414f-8086-a847b21c71d9","ios":"levelo://app?vid=c9b5ec6f-9235-414f-8086-a847b21c71d9"},"vehicle_type_id":"4","last_reported":1727180216,"current_range_meters":30400,"station_id":"ce4bgqh2rcd13ifvqc5g","pricing_plan_id":"cebpf4jnsgd1na2vs0mg"},{"bike_id":"ebf5c734-b1fe-4fcc-88dc-f9132da6918b","system_id":"levelo_inurba_marseille","lat":43.30465,"lon":5.37897,"is_reserved":false,"is_disabled":false,"rental_uris":{"android":"levelo://app?vid=ebf5c734-b1fe-4fcc-88dc-f9132da6918b","ios":"levelo://app?vid=ebf5c734-b1fe-4fcc-88dc-f9132da6918b"},"vehicle_type_id":"4","last_reported":1727180216,"current_range_meters":36800,"station_id":"ce4bgup2rcd13ifvqcn0","pricing_plan_id":"cebpf4jnsgd1na2vs0mg"},{"bike_id":"3a9fadd1-d72d-4760-95a7-ef922057e449","system_id":"levelo_inurba_marseille","lat":43.24544,"lon":5.39521,"is_reserved":false,"is_disabled":false,"rental_uris":{"android":"levelo://app?vid=3a9fadd1-d72d-4760-95a7-ef922057e449","ios":"levelo://app?vid=3a9fadd1-d72d-4760-95a7-ef922057e449"},"vehicle_type_id":"4","last_reported":1727180216,"current_range_meters":14800,"station_id":"ce4bhlp2rcd13ifvqgjg","pricing_plan_id":"cebpf4jnsgd1na2vs0mg"},{"bike_id":"52c997c6-dd4a-4a8c-bbcf-dbeed832e0a2","system_id":"levelo_inurba_marseille","lat":43.32657,"lon":5.40994,"is_reserved":false,"is_disabled":false,"rental_uris":{"android":"levelo://app?vid=52c997c6-dd4a-4a8c-bbcf-dbeed832e0a2","ios":"levelo://app?vid=52c997c6-dd4a-4a8c-bbcf-dbeed832e0a2"},"vehicle_type_id":"4","last_reported":1727180216,"current_range_meters":38800,"station_id":"ce4bhpp2rcd13ifvqhgg","pricing_plan_id":"cebpf4jnsgd1na2vs0mg"},{"bike_id":"4fc7e0fd-82d4-4b1c-bac0-b3e5247316cd","system_id":"levelo_inurba_marseille","lat":43.30138,"lon":5.38778,"is_reserved":false,"is_disabled":false,"rental_uris":{"android":"levelo://app?vid=4fc7e0fd-82d4-4b1c-bac0-b3e5247316cd","ios":"levelo://app?vid=4fc7e0fd-82d4-4b1c-bac0-b3e5247316cd"},"vehicle_type_id":"4","last_reported":1727180216,"current_range_meters":20000,"station_id":"ce4bghh2rcd13ifvqb60","pricing_plan_id":"cebpf4jnsgd1na2vs0mg"},{"bike_id":"c8243bdf-7063-48e0-83f5-bba459ffe98b","system_id":"levelo_inurba_marseille","lat":43.24077,"lon":5.37754,"is_reserved":false,"is_disabled":false,"rental_uris":{"android":"levelo://app?vid=c8243bdf-7063-48e0-83f5-bba459ffe98b","ios":"levelo://app?vid=c8243bdf-7063-48e0-83f5-bba459ffe98b"},"vehicle_type_id":"4","last_reported":1727180216,"current_range_meters":36800,"station_id":"ce4bhnp2rcd13ifvqgvg","pricing_plan_id":"cebpf4jnsgd1na2vs0mg"},{"bike_id":"2bb34e6d-f037-4009-aa61-80dd39e322b7","system_id":"levelo_inurba_marseille","lat":43.31275,"lon":5.40163,"is_reserved":false,"is_disabled":false,"rental_uris":{"android":"levelo://app?vid=2bb34e6d-f037-4009-aa61-80dd39e322b7","ios":"levelo://app?vid=2bb34e6d-f037-4009-aa61-80dd39e322b7"},"vehicle_type_id":"4","last_reported":1727180216,"current_range_meters":36400,"station_id":"ce4bh092rcd13ifvqd30","pricing_plan_id":"cebpf4jnsgd1na2vs0mg"},{"bike_id":"03409d1a-a416-4d64-af15-2f1fc04e5663","system_id":"levelo_inurba_marseille","lat":43.23148,"lon":5.43725,"is_reserved":false,"is_disabled":false,"rental_uris":{"android":"levelo://app?vid=03409d1a-a416-4d64-af15-2f1fc04e5663","ios":"levelo://app?vid=03409d1a-a416-4d64-af15-2f1fc04e5663"},"vehicle_type_id":"4","last_reported":1727180216,"current_range_meters":25200,"station_id":"ce4bhmp2rcd13ifvqgog","pricing_plan_id":"cebpf4jnsgd1na2vs0mg"},{"bike_id":"6979d0b4-a1f3-4e96-a880-9fd4f35bf761","system_id":"levelo_inurba_marseille","lat":43.30144,"lon":5.38086,"is_reserved":false,"is_disabled":false,"rental_uris":{"android":"levelo://app?vid=6979d0b4-a1f3-4e96-a880-9fd4f35bf761","ios":"levelo://app?vid=6979d0b4-a1f3-4e96-a880-9fd4f35bf761"},"vehicle_type_id":"4","last_reported":1727180216,"current_range_meters":30800,"station_id":"ce4bgjp2rcd13ifvqbh0","pricing_plan_id":"cebpf4jnsgd1na2vs0mg"},{"bike_id":"0187dbe4-866c-4031-9cbb-94cdd92f6a82","system_id":"levelo_inurba_marseille","lat":43.29258,"lon":5.36662,"is_reserved":false,"is_disabled":false,"rental_uris":{"android":"levelo://app?vid=0187dbe4-866c-4031-9cbb-94cdd92f6a82","ios":"levelo://app?vid=0187dbe4-866c-4031-9cbb-94cdd92f6a82"},"vehicle_type_id":"4","last_reported":1727180216,"current_range_meters":4400,"station_id":"","pricing_plan_id":"cebpf4jnsgd1na2vs0mg"},{"bike_id":"f9cddd65-ec41-4c64-8162-55d3f1685591","system_id":"levelo_inurba_marseille","lat":43.29238,"lon":5.36086,"is_reserved":false,"is_disabled":false,"rental_uris":{"android":"levelo://app?vid=f9cddd65-ec41-4c64-8162-55d3f1685591","ios":"levelo://app?vid=f9cddd65-ec41-4c64-8162-55d3f1685591"},"vehicle_type_id":"4","last_reported":1727180216,"current_range_meters":29600,"station_id":"","pricing_plan_id":"cebpf4jnsgd1na2vs0mg"},{"bike_id":"9fadec36-32c2-40ce-86e3-222ef791ca3d","system_id":"levelo_inurba_marseille","lat":43.29849,"lon":5.36263,"is_reserved":false,"is_disabled":false,"rental_uris":{"android":"levelo://app?vid=9fadec36-32c2-40ce-86e3-222ef791ca3d","ios":"levelo://app?vid=9fadec36-32c2-40ce-86e3-222ef791ca3d"},"vehicle_type_id":"4","last_reported":1727180216,"current_range_meters":24400,"station_id":"ce4bgpp2rcd13ifvqc3g","pricing_plan_id":"cebpf4jnsgd1na2vs0mg"},{"bike_id":"c29db812-a2ba-4b10-8014-dfbcc2e5e72c","system_id":"levelo_inurba_marseille","lat":43.26021,"lon":5.37591,"is_reserved":false,"is_disabled":false,"rental_uris":{"android":"levelo://app?vid=c29db812-a2ba-4b10-8014-dfbcc2e5e72c","ios":"levelo://app?vid=c29db812-a2ba-4b10-8014-dfbcc2e5e72c"},"vehicle_type_id":"4","last_reported":1727180216,"current_range_meters":3200,"station_id":"ce4bhgh2rcd13ifvqfa0","pricing_plan_id":"cebpf4jnsgd1na2vs0mg"},{"bike_id":"704c01b2-69df-4892-aa21-f88b9a3ef048","system_id":"levelo_inurba_marseille","lat":43.29789,"lon":5.38092,"is_reserved":false,"is_disabled":false,"rental_uris":{"android":"levelo://app?vid=704c01b2-69df-4892-aa21-f88b9a3ef048","ios":"levelo://app?vid=704c01b2-69df-4892-aa21-f88b9a3ef048"},"vehicle_type_id":"4","last_reported":1727180216,"current_range_meters":30800,"station_id":"ce4bgip2rcd13ifvqbb0","pricing_plan_id":"cebpf4jnsgd1na2vs0mg"},{"bike_id":"8835589f-726b-4887-977f-f53e9e8b7993","system_id":"levelo_inurba_marseille","lat":43.28721,"lon":5.37919,"is_reserved":false,"is_disabled":false,"rental_uris":{"android":"levelo://app?vid=8835589f-726b-4887-977f-f53e9e8b7993","ios":"levelo://app?vid=8835589f-726b-4887-977f-f53e9e8b7993"},"vehicle_type_id":"4","last_reported":1727180216,"current_range_meters":33600,"station_id":"ce4bh9p2rcd13ifvqec0","pricing_plan_id":"cebpf4jnsgd1na2vs0mg"},{"bike_id":"44a8a61c-997b-400e-8a2b-961413edaa1d","system_id":"levelo_inurba_marseille","lat":43.29846,"lon":5.36266,"is_reserved":false,"is_disabled":false,"rental_uris":{"android":"levelo://app?vid=44a8a61c-997b-400e-8a2b-961413edaa1d","ios":"levelo://app?vid=44a8a61c-997b-400e-8a2b-961413edaa1d"},"vehicle_type_id":"4","last_reported":1727180216,"current_range_meters":40000,"station_id":"ce4bgpp2rcd13ifvqc3g","pricing_plan_id":"cebpf4jnsgd1na2vs0mg"},{"bike_id":"cbfdac44-048a-45fc-a15a-fc4f9adac39a","system_id":"levelo_inurba_marseille","lat":43.30586,"lon":5.39338,"is_reserved":false,"is_disabled":false,"rental_uris":{"android":"levelo://app?vid=cbfdac44-048a-45fc-a15a-fc4f9adac39a","ios":"levelo://app?vid=cbfdac44-048a-45fc-a15a-fc4f9adac39a"},"vehicle_type_id":"4","last_reported":1727180216,"current_range_meters":24800,"station_id":"ce4bh0p2rcd13ifvqd80","pricing_plan_id":"cebpf4jnsgd1na2vs0mg"},{"bike_id":"93a0f687-caa9-4864-9cee-ae16a897e6f9","system_id":"levelo_inurba_marseille","lat":43.25874,"lon":5.39897,"is_reserved":false,"is_disabled":false,"rental_uris":{"android":"levelo://app?vid=93a0f687-caa9-4864-9cee-ae16a897e6f9","ios":"levelo://app?vid=93a0f687-caa9-4864-9cee-ae16a897e6f9"},"vehicle_type_id":"4","last_reported":1727180216,"current_range_meters":38400,"station_id":"ce4bhl92rcd13ifvqghg","pricing_plan_id":"cebpf4jnsgd1na2vs0mg"},{"bike_id":"82485995-fe24-4e7e-8681-27eeb66115bf","system_id":"levelo_inurba_marseille","lat":43.32535,"lon":5.41432,"is_reserved":false,"is_disabled":false,"rental_uris":{"android":"levelo://app?vid=82485995-fe24-4e7e-8681-27eeb66115bf","ios":"levelo://app?vid=82485995-fe24-4e7e-8681-27eeb66115bf"},"vehicle_type_id":"4","last_reported":1727180216,"current_range_meters":16000,"station_id":"ce4bhq12rcd13ifvqhhg","pricing_plan_id":"cebpf4jnsgd1na2vs0mg"},{"bike_id":"8fda463e-462b-4e59-9845-c675fea499f1","system_id":"levelo_inurba_marseille","lat":43.30532,"lon":5.36718,"is_reserved":false,"is_disabled":false,"rental_uris":{"android":"levelo://app?vid=8fda463e-462b-4e59-9845-c675fea499f1","ios":"levelo://app?vid=8fda463e-462b-4e59-9845-c675fea499f1"},"vehicle_type_id":"4","last_reported":1727180216,"current_range_meters":36800,"station_id":"ce4bgrp2rcd13ifvqc9g","pricing_plan_id":"cebpf4jnsgd1na2vs0mg"},{"bike_id":"00cd35ef-952b-4788-94fe-dbb3cb5fa024","system_id":"levelo_inurba_marseille","lat":43.24547,"lon":5.39525,"is_reserved":false,"is_disabled":false,"rental_uris":{"android":"levelo://app?vid=00cd35ef-952b-4788-94fe-dbb3cb5fa024","ios":"levelo://app?vid=00cd35ef-952b-4788-94fe-dbb3cb5fa024"},"vehicle_type_id":"4","last_reported":1727180216,"current_range_meters":27200,"station_id":"ce4bhlp2rcd13ifvqgjg","pricing_plan_id":"cebpf4jnsgd1na2vs0mg"},{"bike_id":"9fd3e48b-bda8-4d14-abe4-fabf4dce4b43","system_id":"levelo_inurba_marseille","lat":43.28857,"lon":5.3584,"is_reserved":false,"is_disabled":false,"rental_uris":{"android":"levelo://app?vid=9fd3e48b-bda8-4d14-abe4-fabf4dce4b43","ios":"levelo://app?vid=9fd3e48b-bda8-4d14-abe4-fabf4dce4b43"},"vehicle_type_id":"4","last_reported":1727180216,"current_range_meters":33200,"station_id":"ce4bhb12rcd13ifvqem0","pricing_plan_id":"cebpf4jnsgd1na2vs0mg"},{"bike_id":"ddde8305-71d0-45bc-92bc-fb043a21c1e8","system_id":"levelo_inurba_marseille","lat":43.29962,"lon":5.41318,"is_reserved":false,"is_disabled":false,"rental_uris":{"android":"levelo://app?vid=ddde8305-71d0-45bc-92bc-fb043a21c1e8","ios":"levelo://app?vid=ddde8305-71d0-45bc-92bc-fb043a21c1e8"},"vehicle_type_id":"4","last_reported":1727180216,"current_range_meters":23200,"station_id":"ce4bhp12rcd13ifvqh9g","pricing_plan_id":"cebpf4jnsgd1na2vs0mg"},{"bike_id":"5acb3404-4be0-4bc6-9e6e-5541e9ec50c5","system_id":"levelo_inurba_marseille","lat":43.31676,"lon":5.40471,"is_reserved":false,"is_disabled":false,"rental_uris":{"android":"levelo://app?vid=5acb3404-4be0-4bc6-9e6e-5541e9ec50c5","ios":"levelo://app?vid=5acb3404-4be0-4bc6-9e6e-5541e9ec50c5"},"vehicle_type_id":"4","last_reported":1727180216,"current_range_meters":30800,"station_id":"ce4bh012rcd13ifvqd00","pricing_plan_id":"cebpf4jnsgd1na2vs0mg"},{"bike_id":"3c8b0282-d0f9-46f6-8aeb-03cabe2a4232","system_id":"levelo_inurba_marseille","lat":43.30953,"lon":5.39034,"is_reserved":false,"is_disabled":false,"rental_uris":{"android":"levelo://app?vid=3c8b0282-d0f9-46f6-8aeb-03cabe2a4232","ios":"levelo://app?vid=3c8b0282-d0f9-46f6-8aeb-03cabe2a4232"},"vehicle_type_id":"4","last_reported":1727180216,"current_range_meters":17600,"station_id":"ce4bgup2rcd13ifvqco0","pricing_plan_id":"cebpf4jnsgd1na2vs0mg"},{"bike_id":"a57c0cca-328a-4f0a-b679-e1aacee7d643","system_id":"levelo_inurba_marseille","lat":43.27985,"lon":5.41659,"is_reserved":false,"is_disabled":false,"rental_uris":{"android":"levelo://app?vid=a57c0cca-328a-4f0a-b679-e1aacee7d643","ios":"levelo://app?vid=a57c0cca-328a-4f0a-b679-e1aacee7d643"},"vehicle_type_id":"4","last_reported":1727180216,"current_range_meters":10000,"station_id":"ce4bho12rcd13ifvqh1g","pricing_plan_id":"cebpf4jnsgd1na2vs0mg"},{"bike_id":"f8293786-01b3-4d92-850e-b35afbda3766","system_id":"levelo_inurba_marseille","lat":43.30143,"lon":5.37425,"is_reserved":false,"is_disabled":false,"rental_uris":{"android":"levelo://app?vid=f8293786-01b3-4d92-850e-b35afbda3766","ios":"levelo://app?vid=f8293786-01b3-4d92-850e-b35afbda3766"},"vehicle_type_id":"4","last_reported":1727180216,"current_range_meters":32400,"station_id":"ce4bgs92rcd13ifvqcc0","pricing_plan_id":"cebpf4jnsgd1na2vs0mg"},{"bike_id":"f9f8439e-9648-4b96-a94d-348b4835822e","system_id":"levelo_inurba_marseille","lat":43.295879,"lon":5.375173,"is_reserved":false,"is_disabled":false,"rental_uris":{"android":"levelo://app?vid=f9f8439e-9648-4b96-a94d-348b4835822e","ios":"levelo://app?vid=f9f8439e-9648-4b96-a94d-348b4835822e"},"vehicle_type_id":"4","last_reported":1727180216,"current_range_meters":38000,"station_id":"ce4bgh92rcd13ifvqb50","pricing_plan_id":"cebpf4jnsgd1na2vs0mg"},{"bike_id":"c00cbaf3-673a-41dc-aefd-e91c0d90b257","system_id":"levelo_inurba_marseille","lat":43.23063,"lon":5.35493,"is_reserved":false,"is_disabled":false,"rental_uris":{"android":"levelo://app?vid=c00cbaf3-673a-41dc-aefd-e91c0d90b257","ios":"levelo://app?vid=c00cbaf3-673a-41dc-aefd-e91c0d90b257"},"vehicle_type_id":"4","last_reported":1727180216,"current_range_meters":28400,"station_id":"cpo3342slgdg3j2ifvpg","pricing_plan_id":"cebpf4jnsgd1na2vs0mg"},{"bike_id":"76a852ec-e60b-49c4-a0c5-0eb314c5c3be","system_id":"levelo_inurba_marseille","lat":43.30272,"lon":5.37697,"is_reserved":false,"is_disabled":false,"rental_uris":{"android":"levelo://app?vid=76a852ec-e60b-49c4-a0c5-0eb314c5c3be","ios":"levelo://app?vid=76a852ec-e60b-49c4-a0c5-0eb314c5c3be"},"vehicle_type_id":"4","last_reported":1727180216,"current_range_meters":30400,"station_id":"ce4bguh2rcd13ifvqcj0","pricing_plan_id":"cebpf4jnsgd1na2vs0mg"},{"bike_id":"fcdd836b-8cb3-40ad-b531-092821d7a4e2","system_id":"levelo_inurba_marseille","lat":43.29046,"lon":5.3994,"is_reserved":false,"is_disabled":false,"rental_uris":{"android":"levelo://app?vid=fcdd836b-8cb3-40ad-b531-092821d7a4e2","ios":"levelo://app?vid=fcdd836b-8cb3-40ad-b531-092821d7a4e2"},"vehicle_type_id":"4","last_reported":1727180216,"current_range_meters":14000,"station_id":"ce4bh392rcd13ifvqdm0","pricing_plan_id":"cebpf4jnsgd1na2vs0mg"},{"bike_id":"1cf9c6ad-a18e-4581-966a-e4580ac983e8","system_id":"levelo_inurba_marseille","lat":43.30141,"lon":5.38075,"is_reserved":false,"is_disabled":false,"rental_uris":{"android":"levelo://app?vid=1cf9c6ad-a18e-4581-966a-e4580ac983e8","ios":"levelo://app?vid=1cf9c6ad-a18e-4581-966a-e4580ac983e8"},"vehicle_type_id":"4","last_reported":1727180216,"current_range_meters":36800,"station_id":"ce4bgjp2rcd13ifvqbh0","pricing_plan_id":"cebpf4jnsgd1na2vs0mg"},{"bike_id":"ecb70881-b110-48a8-b751-24b4690d4031","system_id":"levelo_inurba_marseille","lat":43.23189,"lon":5.3998,"is_reserved":false,"is_disabled":false,"rental_uris":{"android":"levelo://app?vid=ecb70881-b110-48a8-b751-24b4690d4031","ios":"levelo://app?vid=ecb70881-b110-48a8-b751-24b4690d4031"},"vehicle_type_id":"4","last_reported":1727180216,"current_range_meters":14000,"station_id":"ce4bhn12rcd13ifvqgqg","pricing_plan_id":"cebpf4jnsgd1na2vs0mg"},{"bike_id":"30636caa-8492-4c19-b136-588f8dc8d9f6","system_id":"levelo_inurba_marseille","lat":43.2962,"lon":5.37151,"is_reserved":false,"is_disabled":false,"rental_uris":{"android":"levelo://app?vid=30636caa-8492-4c19-b136-588f8dc8d9f6","ios":"levelo://app?vid=30636caa-8492-4c19-b136-588f8dc8d9f6"},"vehicle_type_id":"4","last_reported":1727180216,"current_range_meters":39200,"station_id":"ce4bgnh2rcd13ifvqc0g","pricing_plan_id":"cebpf4jnsgd1na2vs0mg"},{"bike_id":"52ee2fa4-11bf-4931-b2e1-6ae6afa58c6b","system_id":"levelo_inurba_marseille","lat":43.29812,"lon":5.38091,"is_reserved":false,"is_disabled":false,"rental_uris":{"android":"levelo://app?vid=52ee2fa4-11bf-4931-b2e1-6ae6afa58c6b","ios":"levelo://app?vid=52ee2fa4-11bf-4931-b2e1-6ae6afa58c6b"},"vehicle_type_id":"4","last_reported":1727180216,"current_range_meters":8800,"station_id":"ce4bgip2rcd13ifvqbb0","pricing_plan_id":"cebpf4jnsgd1na2vs0mg"},{"bike_id":"25bd7405-be80-4a77-a761-8a1efed52652","system_id":"levelo_inurba_marseille","lat":43.29896,"lon":5.43658,"is_reserved":false,"is_disabled":false,"rental_uris":{"android":"levelo://app?vid=25bd7405-be80-4a77-a761-8a1efed52652","ios":"levelo://app?vid=25bd7405-be80-4a77-a761-8a1efed52652"},"vehicle_type_id":"4","last_reported":1727180216,"current_range_meters":6800,"station_id":"ce4bhpp2rcd13ifvqhfg","pricing_plan_id":"cebpf4jnsgd1na2vs0mg"},{"bike_id":"96086254-c636-4e5b-8975-25742631d3ee","system_id":"levelo_inurba_marseille","lat":43.23156,"lon":5.43698,"is_reserved":false,"is_disabled":false,"rental_uris":{"android":"levelo://app?vid=96086254-c636-4e5b-8975-25742631d3ee","ios":"levelo://app?vid=96086254-c636-4e5b-8975-25742631d3ee"},"vehicle_type_id":"4","last_reported":1727180216,"current_range_meters":17200,"station_id":"ce4bhmp2rcd13ifvqgog","pricing_plan_id":"cebpf4jnsgd1na2vs0mg"},{"bike_id":"af9ee193-b9c3-4681-baa9-3c9a6f262171","system_id":"levelo_inurba_marseille","lat":43.31482,"lon":5.37307,"is_reserved":false,"is_disabled":false,"rental_uris":{"android":"levelo://app?vid=af9ee193-b9c3-4681-baa9-3c9a6f262171","ios":"levelo://app?vid=af9ee193-b9c3-4681-baa9-3c9a6f262171"},"vehicle_type_id":"4","last_reported":1727180216,"current_range_meters":10000,"station_id":"ce4bgt12rcd13ifvqcd0","pricing_plan_id":"cebpf4jnsgd1na2vs0mg"},{"bike_id":"a1dacc97-ea0d-4276-a0fd-f91a0191cd9e","system_id":"levelo_inurba_marseille","lat":43.30307,"lon":5.36892,"is_reserved":false,"is_disabled":false,"rental_uris":{"android":"levelo://app?vid=a1dacc97-ea0d-4276-a0fd-f91a0191cd9e","ios":"levelo://app?vid=a1dacc97-ea0d-4276-a0fd-f91a0191cd9e"},"vehicle_type_id":"4","last_reported":1727180216,"current_range_meters":29600,"station_id":"ce4bgqh2rcd13ifvqc5g","pricing_plan_id":"cebpf4jnsgd1na2vs0mg"},{"bike_id":"a8fe5136-4732-453d-9347-c3ecd10abfa6","system_id":"levelo_inurba_marseille","lat":43.30595,"lon":5.39364,"is_reserved":false,"is_disabled":false,"rental_uris":{"android":"levelo://app?vid=a8fe5136-4732-453d-9347-c3ecd10abfa6","ios":"levelo://app?vid=a8fe5136-4732-453d-9347-c3ecd10abfa6"},"vehicle_type_id":"4","last_reported":1727180216,"current_range_meters":20000,"station_id":"ce4bh0p2rcd13ifvqd80","pricing_plan_id":"cebpf4jnsgd1na2vs0mg"},{"bike_id":"633f2106-a60c-40e6-8cfb-64f986a9b453","system_id":"levelo_inurba_marseille","lat":43.30905,"lon":5.36854,"is_reserved":false,"is_disabled":false,"rental_uris":{"android":"levelo://app?vid=633f2106-a60c-40e6-8cfb-64f986a9b453","ios":"levelo://app?vid=633f2106-a60c-40e6-8cfb-64f986a9b453"},"vehicle_type_id":"4","last_reported":1727180216,"current_range_meters":32000,"station_id":"ce4bgn92rcd13ifvqbvg","pricing_plan_id":"cebpf4jnsgd1na2vs0mg"},{"bike_id":"589e44a5-6f27-40f9-9044-51060020ce52","system_id":"levelo_inurba_marseille","lat":43.2953,"lon":5.38531,"is_reserved":false,"is_disabled":false,"rental_uris":{"android":"levelo://app?vid=589e44a5-6f27-40f9-9044-51060020ce52","ios":"levelo://app?vid=589e44a5-6f27-40f9-9044-51060020ce52"},"vehicle_type_id":"4","last_reported":1727180216,"current_range_meters":30400,"station_id":"ce4bgih2rcd13ifvqba0","pricing_plan_id":"cebpf4jnsgd1na2vs0mg"},{"bike_id":"7ca40736-3101-431d-8d39-c06e3680f062","system_id":"levelo_inurba_marseille","lat":43.28661,"lon":5.36346,"is_reserved":false,"is_disabled":false,"rental_uris":{"android":"levelo://app?vid=7ca40736-3101-431d-8d39-c06e3680f062","ios":"levelo://app?vid=7ca40736-3101-431d-8d39-c06e3680f062"},"vehicle_type_id":"4","last_reported":1727180216,"current_range_meters":17600,"station_id":"ce4bhah2rcd13ifvqej0","pricing_plan_id":"cebpf4jnsgd1na2vs0mg"},{"bike_id":"eea2cd5a-ea70-49e4-b38f-c464fb6c5cc3","system_id":"levelo_inurba_marseille","lat":43.337444,"lon":5.374475,"is_reserved":false,"is_disabled":false,"rental_uris":{"android":"levelo://app?vid=eea2cd5a-ea70-49e4-b38f-c464fb6c5cc3","ios":"levelo://app?vid=eea2cd5a-ea70-49e4-b38f-c464fb6c5cc3"},"vehicle_type_id":"4","last_reported":1727180216,"current_range_meters":34800,"station_id":"","pricing_plan_id":"cebpf4jnsgd1na2vs0mg"},{"bike_id":"56ca6ae0-f5c2-4073-bc76-be3067eed049","system_id":"levelo_inurba_marseille","lat":43.29555,"lon":5.42292,"is_reserved":false,"is_disabled":false,"rental_uris":{"android":"levelo://app?vid=56ca6ae0-f5c2-4073-bc76-be3067eed049","ios":"levelo://app?vid=56ca6ae0-f5c2-4073-bc76-be3067eed049"},"vehicle_type_id":"4","last_reported":1727180216,"current_range_meters":17600,"station_id":"ce4bhph2rcd13ifvqhdg","pricing_plan_id":"cebpf4jnsgd1na2vs0mg"},{"bike_id":"0fd37ee7-fe90-492f-8922-6e6751318a04","system_id":"levelo_inurba_marseille","lat":43.2512,"lon":5.40324,"is_reserved":false,"is_disabled":false,"rental_uris":{"android":"levelo://app?vid=0fd37ee7-fe90-492f-8922-6e6751318a04","ios":"levelo://app?vid=0fd37ee7-fe90-492f-8922-6e6751318a04"},"vehicle_type_id":"4","last_reported":1727180216,"current_range_meters":9600,"station_id":"ce4bhlh2rcd13ifvqgig","pricing_plan_id":"cebpf4jnsgd1na2vs0mg"},{"bike_id":"1da69dba-953c-4d21-af9a-699bd6b421bd","system_id":"levelo_inurba_marseille","lat":43.31357,"lon":5.36717,"is_reserved":false,"is_disabled":false,"rental_uris":{"android":"levelo://app?vid=1da69dba-953c-4d21-af9a-699bd6b421bd","ios":"levelo://app?vid=1da69dba-953c-4d21-af9a-699bd6b421bd"},"vehicle_type_id":"4","last_reported":1727180216,"current_range_meters":39200,"station_id":"ce4bgr92rcd13ifvqc6g","pricing_plan_id":"cebpf4jnsgd1na2vs0mg"},{"bike_id":"b75a1aa6-99dc-497c-84d8-2917958ec05e","system_id":"levelo_inurba_marseille","lat":43.26958,"lon":5.38624,"is_reserved":false,"is_disabled":false,"rental_uris":{"android":"levelo://app?vid=b75a1aa6-99dc-497c-84d8-2917958ec05e","ios":"levelo://app?vid=b75a1aa6-99dc-497c-84d8-2917958ec05e"},"vehicle_type_id":"4","last_reported":1727180216,"current_range_meters":24000,"station_id":"ce4bhh92rcd13ifvqfh0","pricing_plan_id":"cebpf4jnsgd1na2vs0mg"},{"bike_id":"929a92e2-2c06-4bee-bf0d-0fb22e0837a1","system_id":"levelo_inurba_marseille","lat":43.27318,"lon":5.39069,"is_reserved":false,"is_disabled":false,"rental_uris":{"android":"levelo://app?vid=929a92e2-2c06-4bee-bf0d-0fb22e0837a1","ios":"levelo://app?vid=929a92e2-2c06-4bee-bf0d-0fb22e0837a1"},"vehicle_type_id":"4","last_reported":1727180216,"current_range_meters":26000,"station_id":"ce4bhgp2rcd13ifvqfe0","pricing_plan_id":"cebpf4jnsgd1na2vs0mg"},{"bike_id":"11792274-c4e1-4dcb-b2a1-424fa6a64f5a","system_id":"levelo_inurba_marseille","lat":43.25935,"lon":5.40896,"is_reserved":false,"is_disabled":false,"rental_uris":{"android":"levelo://app?vid=11792274-c4e1-4dcb-b2a1-424fa6a64f5a","ios":"levelo://app?vid=11792274-c4e1-4dcb-b2a1-424fa6a64f5a"},"vehicle_type_id":"4","last_reported":1727180216,"current_range_meters":14400,"station_id":"ce4bhm92rcd13ifvqglg","pricing_plan_id":"cebpf4jnsgd1na2vs0mg"},{"bike_id":"e59a9260-c0b5-4ade-b8d9-6965b1134efc","system_id":"levelo_inurba_marseille","lat":43.27426,"lon":5.39405,"is_reserved":false,"is_disabled":false,"rental_uris":{"android":"levelo://app?vid=e59a9260-c0b5-4ade-b8d9-6965b1134efc","ios":"levelo://app?vid=e59a9260-c0b5-4ade-b8d9-6965b1134efc"},"vehicle_type_id":"4","last_reported":1727180216,"current_range_meters":39200,"station_id":"ce4bhdp2rcd13ifvqf20","pricing_plan_id":"cebpf4jnsgd1na2vs0mg"},{"bike_id":"487537f2-89c2-4030-a61c-a25bc2c893bb","system_id":"levelo_inurba_marseille","lat":43.23179,"lon":5.3998,"is_reserved":false,"is_disabled":false,"rental_uris":{"android":"levelo://app?vid=487537f2-89c2-4030-a61c-a25bc2c893bb","ios":"levelo://app?vid=487537f2-89c2-4030-a61c-a25bc2c893bb"},"vehicle_type_id":"4","last_reported":1727180216,"current_range_meters":10000,"station_id":"ce4bhn12rcd13ifvqgqg","pricing_plan_id":"cebpf4jnsgd1na2vs0mg"},{"bike_id":"535244bd-764a-44d0-b71a-dcceb073c8f2","system_id":"levelo_inurba_marseille","lat":43.30151,"lon":5.38087,"is_reserved":false,"is_disabled":false,"rental_uris":{"android":"levelo://app?vid=535244bd-764a-44d0-b71a-dcceb073c8f2","ios":"levelo://app?vid=535244bd-764a-44d0-b71a-dcceb073c8f2"},"vehicle_type_id":"4","last_reported":1727180216,"current_range_meters":33200,"station_id":"ce4bgjp2rcd13ifvqbh0","pricing_plan_id":"cebpf4jnsgd1na2vs0mg"},{"bike_id":"ad5f19bf-b01a-43f3-9a01-ef600e5d25f1","system_id":"levelo_inurba_marseille","lat":43.32477,"lon":5.36564,"is_reserved":false,"is_disabled":false,"rental_uris":{"android":"levelo://app?vid=ad5f19bf-b01a-43f3-9a01-ef600e5d25f1","ios":"levelo://app?vid=ad5f19bf-b01a-43f3-9a01-ef600e5d25f1"},"vehicle_type_id":"4","last_reported":1727180216,"current_range_meters":32800,"station_id":"ce4bhs12rcd13ifvqhvg","pricing_plan_id":"cebpf4jnsgd1na2vs0mg"},{"bike_id":"3e9bdb3f-f70c-43af-9d90-e67f982e8cfd","system_id":"levelo_inurba_marseille","lat":43.33026,"lon":5.39038,"is_reserved":false,"is_disabled":false,"rental_uris":{"android":"levelo://app?vid=3e9bdb3f-f70c-43af-9d90-e67f982e8cfd","ios":"levelo://app?vid=3e9bdb3f-f70c-43af-9d90-e67f982e8cfd"},"vehicle_type_id":"4","last_reported":1727180216,"current_range_meters":20400,"station_id":"ce4bhr92rcd13ifvqhrg","pricing_plan_id":"cebpf4jnsgd1na2vs0mg"},{"bike_id":"01328d1a-46e2-4abc-b12b-32bf41357606","system_id":"levelo_inurba_marseille","lat":43.305468,"lon":5.367092,"is_reserved":false,"is_disabled":false,"rental_uris":{"android":"levelo://app?vid=01328d1a-46e2-4abc-b12b-32bf41357606","ios":"levelo://app?vid=01328d1a-46e2-4abc-b12b-32bf41357606"},"vehicle_type_id":"4","last_reported":1727180216,"current_range_meters":28400,"station_id":"ce4bgrp2rcd13ifvqc9g","pricing_plan_id":"cebpf4jnsgd1na2vs0mg"},{"bike_id":"a715cb71-82d2-4c0a-9f72-55577ca96973","system_id":"levelo_inurba_marseille","lat":43.29368,"lon":5.37843,"is_reserved":false,"is_disabled":false,"rental_uris":{"android":"levelo://app?vid=a715cb71-82d2-4c0a-9f72-55577ca96973","ios":"levelo://app?vid=a715cb71-82d2-4c0a-9f72-55577ca96973"},"vehicle_type_id":"4","last_reported":1727180216,"current_range_meters":38400,"station_id":"ce4bgjh2rcd13ifvqbf0","pricing_plan_id":"cebpf4jnsgd1na2vs0mg"},{"bike_id":"127ad052-b06c-436d-b7c9-c4d04199fbe5","system_id":"levelo_inurba_marseille","lat":43.30356,"lon":5.41878,"is_reserved":false,"is_disabled":false,"rental_uris":{"android":"levelo://app?vid=127ad052-b06c-436d-b7c9-c4d04199fbe5","ios":"levelo://app?vid=127ad052-b06c-436d-b7c9-c4d04199fbe5"},"vehicle_type_id":"4","last_reported":1727180216,"current_range_meters":36800,"station_id":"ce4bhop2rcd13ifvqh7g","pricing_plan_id":"cebpf4jnsgd1na2vs0mg"},{"bike_id":"495c8f04-baa0-4d04-b6e9-fa5581cfae30","system_id":"levelo_inurba_marseille","lat":43.301491,"lon":5.38081,"is_reserved":false,"is_disabled":false,"rental_uris":{"android":"levelo://app?vid=495c8f04-baa0-4d04-b6e9-fa5581cfae30","ios":"levelo://app?vid=495c8f04-baa0-4d04-b6e9-fa5581cfae30"},"vehicle_type_id":"4","last_reported":1727180216,"current_range_meters":38800,"station_id":"ce4bgjp2rcd13ifvqbh0","pricing_plan_id":"cebpf4jnsgd1na2vs0mg"},{"bike_id":"37aa31e2-23a7-4d4d-aa1e-19037c5f0a74","system_id":"levelo_inurba_marseille","lat":43.28155,"lon":5.42646,"is_reserved":false,"is_disabled":false,"rental_uris":{"android":"levelo://app?vid=37aa31e2-23a7-4d4d-aa1e-19037c5f0a74","ios":"levelo://app?vid=37aa31e2-23a7-4d4d-aa1e-19037c5f0a74"},"vehicle_type_id":"4","last_reported":1727180216,"current_range_meters":38400,"station_id":"ce4bhnh2rcd13ifvqgug","pricing_plan_id":"cebpf4jnsgd1na2vs0mg"},{"bike_id":"84f0e2bf-ec77-43e1-ac6e-d2df4cdab65b","system_id":"levelo_inurba_marseille","lat":43.26681,"lon":5.38271,"is_reserved":false,"is_disabled":false,"rental_uris":{"android":"levelo://app?vid=84f0e2bf-ec77-43e1-ac6e-d2df4cdab65b","ios":"levelo://app?vid=84f0e2bf-ec77-43e1-ac6e-d2df4cdab65b"},"vehicle_type_id":"4","last_reported":1727180216,"current_range_meters":27600,"station_id":"ce4bhg92rcd13ifvqf90","pricing_plan_id":"cebpf4jnsgd1na2vs0mg"},{"bike_id":"d4851a74-a7d2-4c7c-9595-2b42d26a0dfc","system_id":"levelo_inurba_marseille","lat":43.32537,"lon":5.41429,"is_reserved":false,"is_disabled":false,"rental_uris":{"android":"levelo://app?vid=d4851a74-a7d2-4c7c-9595-2b42d26a0dfc","ios":"levelo://app?vid=d4851a74-a7d2-4c7c-9595-2b42d26a0dfc"},"vehicle_type_id":"4","last_reported":1727180216,"current_range_meters":28400,"station_id":"ce4bhq12rcd13ifvqhhg","pricing_plan_id":"cebpf4jnsgd1na2vs0mg"},{"bike_id":"63661cf2-6693-428d-a1ba-fc90537c8eba","system_id":"levelo_inurba_marseille","lat":43.30153,"lon":5.38081,"is_reserved":false,"is_disabled":false,"rental_uris":{"android":"levelo://app?vid=63661cf2-6693-428d-a1ba-fc90537c8eba","ios":"levelo://app?vid=63661cf2-6693-428d-a1ba-fc90537c8eba"},"vehicle_type_id":"4","last_reported":1727180216,"current_range_meters":9600,"station_id":"ce4bgjp2rcd13ifvqbh0","pricing_plan_id":"cebpf4jnsgd1na2vs0mg"},{"bike_id":"3b3e77fb-b0f4-4f64-a500-c0772c045c1b","system_id":"levelo_inurba_marseille","lat":43.26058,"lon":5.39397,"is_reserved":false,"is_disabled":false,"rental_uris":{"android":"levelo://app?vid=3b3e77fb-b0f4-4f64-a500-c0772c045c1b","ios":"levelo://app?vid=3b3e77fb-b0f4-4f64-a500-c0772c045c1b"},"vehicle_type_id":"4","last_reported":1727180216,"current_range_meters":36800,"station_id":"ce4bhh92rcd13ifvqfj0","pricing_plan_id":"cebpf4jnsgd1na2vs0mg"},{"bike_id":"e9ecddf9-5c7c-4b1d-b61b-e6f2cb758e87","system_id":"levelo_inurba_marseille","lat":43.24085,"lon":5.3774,"is_reserved":false,"is_disabled":false,"rental_uris":{"android":"levelo://app?vid=e9ecddf9-5c7c-4b1d-b61b-e6f2cb758e87","ios":"levelo://app?vid=e9ecddf9-5c7c-4b1d-b61b-e6f2cb758e87"},"vehicle_type_id":"4","last_reported":1727180216,"current_range_meters":29600,"station_id":"ce4bhnp2rcd13ifvqgvg","pricing_plan_id":"cebpf4jnsgd1na2vs0mg"},{"bike_id":"cb582a3a-b9db-4e1d-bed8-998e91871868","system_id":"levelo_inurba_marseille","lat":43.24548,"lon":5.39525,"is_reserved":false,"is_disabled":false,"rental_uris":{"android":"levelo://app?vid=cb582a3a-b9db-4e1d-bed8-998e91871868","ios":"levelo://app?vid=cb582a3a-b9db-4e1d-bed8-998e91871868"},"vehicle_type_id":"4","last_reported":1727180216,"current_range_meters":3200,"station_id":"ce4bhlp2rcd13ifvqgjg","pricing_plan_id":"cebpf4jnsgd1na2vs0mg"},{"bike_id":"664c1492-4c06-4350-b400-91571a357f51","system_id":"levelo_inurba_marseille","lat":43.29839,"lon":5.36261,"is_reserved":false,"is_disabled":false,"rental_uris":{"android":"levelo://app?vid=664c1492-4c06-4350-b400-91571a357f51","ios":"levelo://app?vid=664c1492-4c06-4350-b400-91571a357f51"},"vehicle_type_id":"4","last_reported":1727180216,"current_range_meters":38000,"station_id":"ce4bgpp2rcd13ifvqc3g","pricing_plan_id":"cebpf4jnsgd1na2vs0mg"},{"bike_id":"3aff36ff-9dd0-4f87-aed5-767cc654ed17","system_id":"levelo_inurba_marseille","lat":43.287019,"lon":5.399932,"is_reserved":false,"is_disabled":false,"rental_uris":{"android":"levelo://app?vid=3aff36ff-9dd0-4f87-aed5-767cc654ed17","ios":"levelo://app?vid=3aff36ff-9dd0-4f87-aed5-767cc654ed17"},"vehicle_type_id":"4","last_reported":1727180216,"current_range_meters":28000,"station_id":"ce4bh392rcd13ifvqdm0","pricing_plan_id":"cebpf4jnsgd1na2vs0mg"},{"bike_id":"7188cc5d-7fd6-4e78-8d4e-521d4d1d865a","system_id":"levelo_inurba_marseille","lat":43.3031,"lon":5.36894,"is_reserved":false,"is_disabled":false,"rental_uris":{"android":"levelo://app?vid=7188cc5d-7fd6-4e78-8d4e-521d4d1d865a","ios":"levelo://app?vid=7188cc5d-7fd6-4e78-8d4e-521d4d1d865a"},"vehicle_type_id":"4","last_reported":1727180216,"current_range_meters":37600,"station_id":"ce4bgqh2rcd13ifvqc5g","pricing_plan_id":"cebpf4jnsgd1na2vs0mg"},{"bike_id":"6efc8f6e-e4c5-458f-8dc3-aaefee4604b4","system_id":"levelo_inurba_marseille","lat":43.31705,"lon":5.37756,"is_reserved":false,"is_disabled":false,"rental_uris":{"android":"levelo://app?vid=6efc8f6e-e4c5-458f-8dc3-aaefee4604b4","ios":"levelo://app?vid=6efc8f6e-e4c5-458f-8dc3-aaefee4604b4"},"vehicle_type_id":"4","last_reported":1727180216,"current_range_meters":38400,"station_id":"ce4bgth2rcd13ifvqch0","pricing_plan_id":"cebpf4jnsgd1na2vs0mg"},{"bike_id":"dc248b72-c9f2-42d0-8269-ac86da1c26c2","system_id":"levelo_inurba_marseille","lat":43.29104,"lon":5.38143,"is_reserved":false,"is_disabled":false,"rental_uris":{"android":"levelo://app?vid=dc248b72-c9f2-42d0-8269-ac86da1c26c2","ios":"levelo://app?vid=dc248b72-c9f2-42d0-8269-ac86da1c26c2"},"vehicle_type_id":"4","last_reported":1727180216,"current_range_meters":14400,"station_id":"ce4bh512rcd13ifvqe2g","pricing_plan_id":"cebpf4jnsgd1na2vs0mg"},{"bike_id":"703a83c6-041e-4688-bc8d-9a1eed2c00e1","system_id":"levelo_inurba_marseille","lat":43.24811,"lon":5.40614,"is_reserved":false,"is_disabled":false,"rental_uris":{"android":"levelo://app?vid=703a83c6-041e-4688-bc8d-9a1eed2c00e1","ios":"levelo://app?vid=703a83c6-041e-4688-bc8d-9a1eed2c00e1"},"vehicle_type_id":"4","last_reported":1727180216,"current_range_meters":16000,"station_id":"","pricing_plan_id":"cebpf4jnsgd1na2vs0mg"},{"bike_id":"445ab112-1d78-470c-83c0-bb9f52ccf0ad","system_id":"levelo_inurba_marseille","lat":43.24073,"lon":5.37764,"is_reserved":false,"is_disabled":false,"rental_uris":{"android":"levelo://app?vid=445ab112-1d78-470c-83c0-bb9f52ccf0ad","ios":"levelo://app?vid=445ab112-1d78-470c-83c0-bb9f52ccf0ad"},"vehicle_type_id":"4","last_reported":1727180216,"current_range_meters":3200,"station_id":"ce4bhnp2rcd13ifvqgvg","pricing_plan_id":"cebpf4jnsgd1na2vs0mg"},{"bike_id":"b3d0d2bc-1bb7-48d0-99e1-5eb8c65fa48f","system_id":"levelo_inurba_marseille","lat":43.28726,"lon":5.36077,"is_reserved":false,"is_disabled":false,"rental_uris":{"android":"levelo://app?vid=b3d0d2bc-1bb7-48d0-99e1-5eb8c65fa48f","ios":"levelo://app?vid=b3d0d2bc-1bb7-48d0-99e1-5eb8c65fa48f"},"vehicle_type_id":"4","last_reported":1727180216,"current_range_meters":24400,"station_id":"cki0cbj6b192h4jlfktg","pricing_plan_id":"cebpf4jnsgd1na2vs0mg"},{"bike_id":"05f30884-935f-4711-8dcc-d2615c99d435","system_id":"levelo_inurba_marseille","lat":43.27997,"lon":5.41663,"is_reserved":false,"is_disabled":false,"rental_uris":{"android":"levelo://app?vid=05f30884-935f-4711-8dcc-d2615c99d435","ios":"levelo://app?vid=05f30884-935f-4711-8dcc-d2615c99d435"},"vehicle_type_id":"4","last_reported":1727180216,"current_range_meters":26000,"station_id":"ce4bho12rcd13ifvqh1g","pricing_plan_id":"cebpf4jnsgd1na2vs0mg"},{"bike_id":"cbe36be7-9053-4c45-a36b-767ae2157a16","system_id":"levelo_inurba_marseille","lat":43.29262,"lon":5.3845,"is_reserved":false,"is_disabled":false,"rental_uris":{"android":"levelo://app?vid=cbe36be7-9053-4c45-a36b-767ae2157a16","ios":"levelo://app?vid=cbe36be7-9053-4c45-a36b-767ae2157a16"},"vehicle_type_id":"4","last_reported":1727180216,"current_range_meters":8800,"station_id":"ce4bh692rcd13ifvqea0","pricing_plan_id":"cebpf4jnsgd1na2vs0mg"},{"bike_id":"518747e0-4027-47b4-a1b1-481639171f7e","system_id":"levelo_inurba_marseille","lat":43.27074,"lon":5.42278,"is_reserved":false,"is_disabled":false,"rental_uris":{"android":"levelo://app?vid=518747e0-4027-47b4-a1b1-481639171f7e","ios":"levelo://app?vid=518747e0-4027-47b4-a1b1-481639171f7e"},"vehicle_type_id":"4","last_reported":1727180216,"current_range_meters":18000,"station_id":"ce4bhk92rcd13ifvqgb0","pricing_plan_id":"cebpf4jnsgd1na2vs0mg"},{"bike_id":"fc2644bf-dcb8-42e2-a726-fafbe0bfad12","system_id":"levelo_inurba_marseille","lat":43.27499,"lon":5.4245,"is_reserved":false,"is_disabled":false,"rental_uris":{"android":"levelo://app?vid=fc2644bf-dcb8-42e2-a726-fafbe0bfad12","ios":"levelo://app?vid=fc2644bf-dcb8-42e2-a726-fafbe0bfad12"},"vehicle_type_id":"4","last_reported":1727180216,"current_range_meters":24000,"station_id":"ce4bhn92rcd13ifvqgrg","pricing_plan_id":"cebpf4jnsgd1na2vs0mg"},{"bike_id":"7a907bd8-a31c-44f5-ae26-4d359cad6743","system_id":"levelo_inurba_marseille","lat":43.23061,"lon":5.35489,"is_reserved":false,"is_disabled":false,"rental_uris":{"android":"levelo://app?vid=7a907bd8-a31c-44f5-ae26-4d359cad6743","ios":"levelo://app?vid=7a907bd8-a31c-44f5-ae26-4d359cad6743"},"vehicle_type_id":"4","last_reported":1727180216,"current_range_meters":8800,"station_id":"cpo3342slgdg3j2ifvpg","pricing_plan_id":"cebpf4jnsgd1na2vs0mg"},{"bike_id":"5482bd4a-24f1-48af-a1e0-b401203b5708","system_id":"levelo_inurba_marseille","lat":43.24394,"lon":5.37061,"is_reserved":false,"is_disabled":false,"rental_uris":{"android":"levelo://app?vid=5482bd4a-24f1-48af-a1e0-b401203b5708","ios":"levelo://app?vid=5482bd4a-24f1-48af-a1e0-b401203b5708"},"vehicle_type_id":"4","last_reported":1727180216,"current_range_meters":2800,"station_id":"ce4bhhh2rcd13ifvqfk0","pricing_plan_id":"cebpf4jnsgd1na2vs0mg"},{"bike_id":"40ced7d8-d947-4602-b785-b792922bf0f2","system_id":"levelo_inurba_marseille","lat":43.320276,"lon":5.415676,"is_reserved":false,"is_disabled":false,"rental_uris":{"android":"levelo://app?vid=40ced7d8-d947-4602-b785-b792922bf0f2","ios":"levelo://app?vid=40ced7d8-d947-4602-b785-b792922bf0f2"},"vehicle_type_id":"4","last_reported":1727180216,"current_range_meters":39200,"station_id":"ce4bhq92rcd13ifvqhkg","pricing_plan_id":"cebpf4jnsgd1na2vs0mg"},{"bike_id":"30760a2b-7385-4a70-ae1c-e29d0d5406fa","system_id":"levelo_inurba_marseille","lat":43.29571,"lon":5.37492,"is_reserved":false,"is_disabled":false,"rental_uris":{"android":"levelo://app?vid=30760a2b-7385-4a70-ae1c-e29d0d5406fa","ios":"levelo://app?vid=30760a2b-7385-4a70-ae1c-e29d0d5406fa"},"vehicle_type_id":"4","last_reported":1727180216,"current_range_meters":30400,"station_id":"ce4bgh92rcd13ifvqb50","pricing_plan_id":"cebpf4jnsgd1na2vs0mg"},{"bike_id":"d84c15ee-be95-4cc9-b655-f412bf3cbfd1","system_id":"levelo_inurba_marseille","lat":43.24078,"lon":5.37737,"is_reserved":false,"is_disabled":false,"rental_uris":{"android":"levelo://app?vid=d84c15ee-be95-4cc9-b655-f412bf3cbfd1","ios":"levelo://app?vid=d84c15ee-be95-4cc9-b655-f412bf3cbfd1"},"vehicle_type_id":"4","last_reported":1727180216,"current_range_meters":11600,"station_id":"ce4bhnp2rcd13ifvqgvg","pricing_plan_id":"cebpf4jnsgd1na2vs0mg"},{"bike_id":"2d73ded3-7ec2-4dbc-8b61-eb74d0231a9e","system_id":"levelo_inurba_marseille","lat":43.30142,"lon":5.38082,"is_reserved":false,"is_disabled":false,"rental_uris":{"android":"levelo://app?vid=2d73ded3-7ec2-4dbc-8b61-eb74d0231a9e","ios":"levelo://app?vid=2d73ded3-7ec2-4dbc-8b61-eb74d0231a9e"},"vehicle_type_id":"4","last_reported":1727180216,"current_range_meters":25200,"station_id":"ce4bgjp2rcd13ifvqbh0","pricing_plan_id":"cebpf4jnsgd1na2vs0mg"},{"bike_id":"d1b06047-d803-449b-91bd-eb4589b5091f","system_id":"levelo_inurba_marseille","lat":43.29194,"lon":5.39314,"is_reserved":false,"is_disabled":false,"rental_uris":{"android":"levelo://app?vid=d1b06047-d803-449b-91bd-eb4589b5091f","ios":"levelo://app?vid=d1b06047-d803-449b-91bd-eb4589b5091f"},"vehicle_type_id":"4","last_reported":1727180216,"current_range_meters":37600,"station_id":"ce4bh192rcd13ifvqdd0","pricing_plan_id":"cebpf4jnsgd1na2vs0mg"},{"bike_id":"b86e4f19-4ef1-4d72-9478-ba452757ed0e","system_id":"levelo_inurba_marseille","lat":43.30881,"lon":5.3719,"is_reserved":false,"is_disabled":false,"rental_uris":{"android":"levelo://app?vid=b86e4f19-4ef1-4d72-9478-ba452757ed0e","ios":"levelo://app?vid=b86e4f19-4ef1-4d72-9478-ba452757ed0e"},"vehicle_type_id":"4","last_reported":1727180216,"current_range_meters":11600,"station_id":"ce4bguh2rcd13ifvqckg","pricing_plan_id":"cebpf4jnsgd1na2vs0mg"},{"bike_id":"cfdf58c5-f7ee-4bf8-b56c-0e8db1592002","system_id":"levelo_inurba_marseille","lat":43.31713,"lon":5.37756,"is_reserved":false,"is_disabled":false,"rental_uris":{"android":"levelo://app?vid=cfdf58c5-f7ee-4bf8-b56c-0e8db1592002","ios":"levelo://app?vid=cfdf58c5-f7ee-4bf8-b56c-0e8db1592002"},"vehicle_type_id":"4","last_reported":1727180216,"current_range_meters":23200,"station_id":"ce4bgth2rcd13ifvqch0","pricing_plan_id":"cebpf4jnsgd1na2vs0mg"},{"bike_id":"90e4f5cf-76b7-4f63-b9d0-430673bc5974","system_id":"levelo_inurba_marseille","lat":43.27914,"lon":5.39572,"is_reserved":false,"is_disabled":false,"rental_uris":{"android":"levelo://app?vid=90e4f5cf-76b7-4f63-b9d0-430673bc5974","ios":"levelo://app?vid=90e4f5cf-76b7-4f63-b9d0-430673bc5974"},"vehicle_type_id":"4","last_reported":1727180216,"current_range_meters":36400,"station_id":"ce4bhf92rcd13ifvqf40","pricing_plan_id":"cebpf4jnsgd1na2vs0mg"},{"bike_id":"48903664-f125-461c-bd03-ceeb33e27a89","system_id":"levelo_inurba_marseille","lat":43.32543,"lon":5.41441,"is_reserved":false,"is_disabled":false,"rental_uris":{"android":"levelo://app?vid=48903664-f125-461c-bd03-ceeb33e27a89","ios":"levelo://app?vid=48903664-f125-461c-bd03-ceeb33e27a89"},"vehicle_type_id":"4","last_reported":1727180216,"current_range_meters":27600,"station_id":"ce4bhq12rcd13ifvqhhg","pricing_plan_id":"cebpf4jnsgd1na2vs0mg"},{"bike_id":"2e772849-a2ef-44a8-ac1e-92baa03e5c0c","system_id":"levelo_inurba_marseille","lat":43.2694,"lon":5.40255,"is_reserved":false,"is_disabled":false,"rental_uris":{"android":"levelo://app?vid=2e772849-a2ef-44a8-ac1e-92baa03e5c0c","ios":"levelo://app?vid=2e772849-a2ef-44a8-ac1e-92baa03e5c0c"},"vehicle_type_id":"4","last_reported":1727180216,"current_range_meters":35200,"station_id":"cjm6bp8fraef2m0cb0m0","pricing_plan_id":"cebpf4jnsgd1na2vs0mg"},{"bike_id":"c0f8e675-d9ce-49e0-9f6b-6d982697c06b","system_id":"levelo_inurba_marseille","lat":43.30551,"lon":5.36527,"is_reserved":false,"is_disabled":false,"rental_uris":{"android":"levelo://app?vid=c0f8e675-d9ce-49e0-9f6b-6d982697c06b","ios":"levelo://app?vid=c0f8e675-d9ce-49e0-9f6b-6d982697c06b"},"vehicle_type_id":"4","last_reported":1727180216,"current_range_meters":33600,"station_id":"ce4bgs12rcd13ifvqcag","pricing_plan_id":"cebpf4jnsgd1na2vs0mg"},{"bike_id":"514f7f6f-039f-4ec8-bc9c-4ce20b42dbb7","system_id":"levelo_inurba_marseille","lat":43.30474,"lon":5.37906,"is_reserved":false,"is_disabled":false,"rental_uris":{"android":"levelo://app?vid=514f7f6f-039f-4ec8-bc9c-4ce20b42dbb7","ios":"levelo://app?vid=514f7f6f-039f-4ec8-bc9c-4ce20b42dbb7"},"vehicle_type_id":"4","last_reported":1727180216,"current_range_meters":36000,"station_id":"ce4bgup2rcd13ifvqcn0","pricing_plan_id":"cebpf4jnsgd1na2vs0mg"},{"bike_id":"9f92bf8f-7756-4ffd-ac07-bf9236417f30","system_id":"levelo_inurba_marseille","lat":43.30911,"lon":5.36849,"is_reserved":false,"is_disabled":false,"rental_uris":{"android":"levelo://app?vid=9f92bf8f-7756-4ffd-ac07-bf9236417f30","ios":"levelo://app?vid=9f92bf8f-7756-4ffd-ac07-bf9236417f30"},"vehicle_type_id":"4","last_reported":1727180216,"current_range_meters":39200,"station_id":"ce4bgn92rcd13ifvqbvg","pricing_plan_id":"cebpf4jnsgd1na2vs0mg"},{"bike_id":"7aa5dbb8-9989-4696-97fd-30ce98d04be0","system_id":"levelo_inurba_marseille","lat":43.24669,"lon":5.38164,"is_reserved":false,"is_disabled":false,"rental_uris":{"android":"levelo://app?vid=7aa5dbb8-9989-4696-97fd-30ce98d04be0","ios":"levelo://app?vid=7aa5dbb8-9989-4696-97fd-30ce98d04be0"},"vehicle_type_id":"4","last_reported":1727180216,"current_range_meters":28400,"station_id":"ce4bhih2rcd13ifvqfr0","pricing_plan_id":"cebpf4jnsgd1na2vs0mg"},{"bike_id":"38304a0e-282c-43ff-a76f-d42de1e48afc","system_id":"levelo_inurba_marseille","lat":43.28939,"lon":5.36636,"is_reserved":false,"is_disabled":false,"rental_uris":{"android":"levelo://app?vid=38304a0e-282c-43ff-a76f-d42de1e48afc","ios":"levelo://app?vid=38304a0e-282c-43ff-a76f-d42de1e48afc"},"vehicle_type_id":"4","last_reported":1727180216,"current_range_meters":28800,"station_id":"ce4bhap2rcd13ifvqek0","pricing_plan_id":"cebpf4jnsgd1na2vs0mg"},{"bike_id":"ebec7cd5-5fed-46ce-abdb-3cd659f607ac","system_id":"levelo_inurba_marseille","lat":43.2955,"lon":5.42283,"is_reserved":false,"is_disabled":false,"rental_uris":{"android":"levelo://app?vid=ebec7cd5-5fed-46ce-abdb-3cd659f607ac","ios":"levelo://app?vid=ebec7cd5-5fed-46ce-abdb-3cd659f607ac"},"vehicle_type_id":"4","last_reported":1727180216,"current_range_meters":38000,"station_id":"ce4bhph2rcd13ifvqhdg","pricing_plan_id":"cebpf4jnsgd1na2vs0mg"},{"bike_id":"c31dcbf6-219a-47b6-be69-9b36a1b46311","system_id":"levelo_inurba_marseille","lat":43.29375,"lon":5.37851,"is_reserved":false,"is_disabled":false,"rental_uris":{"android":"levelo://app?vid=c31dcbf6-219a-47b6-be69-9b36a1b46311","ios":"levelo://app?vid=c31dcbf6-219a-47b6-be69-9b36a1b46311"},"vehicle_type_id":"4","last_reported":1727180216,"current_range_meters":9200,"station_id":"ce4bgjh2rcd13ifvqbf0","pricing_plan_id":"cebpf4jnsgd1na2vs0mg"},{"bike_id":"e914d083-157a-46c3-886c-cb77b01d8fc5","system_id":"levelo_inurba_marseille","lat":43.26951,"lon":5.38639,"is_reserved":false,"is_disabled":false,"rental_uris":{"android":"levelo://app?vid=e914d083-157a-46c3-886c-cb77b01d8fc5","ios":"levelo://app?vid=e914d083-157a-46c3-886c-cb77b01d8fc5"},"vehicle_type_id":"4","last_reported":1727180216,"current_range_meters":32000,"station_id":"ce4bhh92rcd13ifvqfh0","pricing_plan_id":"cebpf4jnsgd1na2vs0mg"},{"bike_id":"071befd9-f402-4543-9b0c-47aedc783ff3","system_id":"levelo_inurba_marseille","lat":43.30926,"lon":5.36838,"is_reserved":false,"is_disabled":false,"rental_uris":{"android":"levelo://app?vid=071befd9-f402-4543-9b0c-47aedc783ff3","ios":"levelo://app?vid=071befd9-f402-4543-9b0c-47aedc783ff3"},"vehicle_type_id":"4","last_reported":1727180216,"current_range_meters":34800,"station_id":"ce4bgn92rcd13ifvqbvg","pricing_plan_id":"cebpf4jnsgd1na2vs0mg"},{"bike_id":"6d6065cc-15d1-48a2-aa33-8bac2101b02a","system_id":"levelo_inurba_marseille","lat":43.22932,"lon":5.35374,"is_reserved":false,"is_disabled":false,"rental_uris":{"android":"levelo://app?vid=6d6065cc-15d1-48a2-aa33-8bac2101b02a","ios":"levelo://app?vid=6d6065cc-15d1-48a2-aa33-8bac2101b02a"},"vehicle_type_id":"4","last_reported":1727180216,"current_range_meters":27200,"station_id":"cpo3532slgdg3j2ikp40","pricing_plan_id":"cebpf4jnsgd1na2vs0mg"},{"bike_id":"09db2183-b1d3-473b-aba6-b7133ce3cf60","system_id":"levelo_inurba_marseille","lat":43.30316,"lon":5.36899,"is_reserved":false,"is_disabled":false,"rental_uris":{"android":"levelo://app?vid=09db2183-b1d3-473b-aba6-b7133ce3cf60","ios":"levelo://app?vid=09db2183-b1d3-473b-aba6-b7133ce3cf60"},"vehicle_type_id":"4","last_reported":1727180216,"current_range_meters":33200,"station_id":"ce4bgqh2rcd13ifvqc5g","pricing_plan_id":"cebpf4jnsgd1na2vs0mg"},{"bike_id":"df5b38d2-64cb-4df0-856f-ea9bd22c082c","system_id":"levelo_inurba_marseille","lat":43.23193,"lon":5.35552,"is_reserved":false,"is_disabled":false,"rental_uris":{"android":"levelo://app?vid=df5b38d2-64cb-4df0-856f-ea9bd22c082c","ios":"levelo://app?vid=df5b38d2-64cb-4df0-856f-ea9bd22c082c"},"vehicle_type_id":"4","last_reported":1727180216,"current_range_meters":12000,"station_id":"ce4bhu92rcd13ifvqi70","pricing_plan_id":"cebpf4jnsgd1na2vs0mg"},{"bike_id":"222d165f-f42e-4e33-ac78-c51ca18dedb3","system_id":"levelo_inurba_marseille","lat":43.30534,"lon":5.36701,"is_reserved":false,"is_disabled":false,"rental_uris":{"android":"levelo://app?vid=222d165f-f42e-4e33-ac78-c51ca18dedb3","ios":"levelo://app?vid=222d165f-f42e-4e33-ac78-c51ca18dedb3"},"vehicle_type_id":"4","last_reported":1727180216,"current_range_meters":25200,"station_id":"ce4bgrp2rcd13ifvqc9g","pricing_plan_id":"cebpf4jnsgd1na2vs0mg"},{"bike_id":"07c8fb5a-e240-4d33-821a-3685022c2436","system_id":"levelo_inurba_marseille","lat":43.30297,"lon":5.36881,"is_reserved":false,"is_disabled":false,"rental_uris":{"android":"levelo://app?vid=07c8fb5a-e240-4d33-821a-3685022c2436","ios":"levelo://app?vid=07c8fb5a-e240-4d33-821a-3685022c2436"},"vehicle_type_id":"4","last_reported":1727180216,"current_range_meters":27600,"station_id":"ce4bgqh2rcd13ifvqc5g","pricing_plan_id":"cebpf4jnsgd1na2vs0mg"},{"bike_id":"abac6c53-cbdf-4477-8fbd-0a10f46e3678","system_id":"levelo_inurba_marseille","lat":43.29705,"lon":5.36813,"is_reserved":false,"is_disabled":false,"rental_uris":{"android":"levelo://app?vid=abac6c53-cbdf-4477-8fbd-0a10f46e3678","ios":"levelo://app?vid=abac6c53-cbdf-4477-8fbd-0a10f46e3678"},"vehicle_type_id":"4","last_reported":1727180216,"current_range_meters":17600,"station_id":"ce4bgn12rcd13ifvqbt0","pricing_plan_id":"cebpf4jnsgd1na2vs0mg"},{"bike_id":"274d0ad2-9790-4559-9bf9-c977e3e05cef","system_id":"levelo_inurba_marseille","lat":43.3229,"lon":5.38257,"is_reserved":false,"is_disabled":false,"rental_uris":{"android":"levelo://app?vid=274d0ad2-9790-4559-9bf9-c977e3e05cef","ios":"levelo://app?vid=274d0ad2-9790-4559-9bf9-c977e3e05cef"},"vehicle_type_id":"4","last_reported":1727180216,"current_range_meters":8800,"station_id":"ce4bhr12rcd13ifvqhqg","pricing_plan_id":"cebpf4jnsgd1na2vs0mg"},{"bike_id":"53181243-584b-481a-b414-e5a2f22d8a3c","system_id":"levelo_inurba_marseille","lat":43.27498,"lon":5.42452,"is_reserved":false,"is_disabled":false,"rental_uris":{"android":"levelo://app?vid=53181243-584b-481a-b414-e5a2f22d8a3c","ios":"levelo://app?vid=53181243-584b-481a-b414-e5a2f22d8a3c"},"vehicle_type_id":"4","last_reported":1727180216,"current_range_meters":16400,"station_id":"ce4bhn92rcd13ifvqgrg","pricing_plan_id":"cebpf4jnsgd1na2vs0mg"},{"bike_id":"240de32e-6d00-49d1-a896-2b0666047d98","system_id":"levelo_inurba_marseille","lat":43.33738,"lon":5.37472,"is_reserved":false,"is_disabled":false,"rental_uris":{"android":"levelo://app?vid=240de32e-6d00-49d1-a896-2b0666047d98","ios":"levelo://app?vid=240de32e-6d00-49d1-a896-2b0666047d98"},"vehicle_type_id":"4","last_reported":1727180216,"current_range_meters":26000,"station_id":"","pricing_plan_id":"cebpf4jnsgd1na2vs0mg"},{"bike_id":"7eae422c-142d-493c-992e-37f2fab8a9aa","system_id":"levelo_inurba_marseille","lat":43.28669,"lon":5.3866,"is_reserved":false,"is_disabled":false,"rental_uris":{"android":"levelo://app?vid=7eae422c-142d-493c-992e-37f2fab8a9aa","ios":"levelo://app?vid=7eae422c-142d-493c-992e-37f2fab8a9aa"},"vehicle_type_id":"4","last_reported":1727180216,"current_range_meters":13600,"station_id":"ce4bh492rcd13ifvqdug","pricing_plan_id":"cebpf4jnsgd1na2vs0mg"},{"bike_id":"17b1cd1a-7803-4ca9-91f3-73c4fa44f09e","system_id":"levelo_inurba_marseille","lat":43.29547,"lon":5.42282,"is_reserved":false,"is_disabled":false,"rental_uris":{"android":"levelo://app?vid=17b1cd1a-7803-4ca9-91f3-73c4fa44f09e","ios":"levelo://app?vid=17b1cd1a-7803-4ca9-91f3-73c4fa44f09e"},"vehicle_type_id":"4","last_reported":1727180216,"current_range_meters":8400,"station_id":"ce4bhph2rcd13ifvqhdg","pricing_plan_id":"cebpf4jnsgd1na2vs0mg"},{"bike_id":"2c43c88e-ad28-4001-9314-af5e9a95dd6d","system_id":"levelo_inurba_marseille","lat":43.24069,"lon":5.37756,"is_reserved":false,"is_disabled":false,"rental_uris":{"android":"levelo://app?vid=2c43c88e-ad28-4001-9314-af5e9a95dd6d","ios":"levelo://app?vid=2c43c88e-ad28-4001-9314-af5e9a95dd6d"},"vehicle_type_id":"4","last_reported":1727180216,"current_range_meters":8400,"station_id":"ce4bhnp2rcd13ifvqgvg","pricing_plan_id":"cebpf4jnsgd1na2vs0mg"},{"bike_id":"f8684ded-482a-44d6-97bf-a3ce8ec0cbf5","system_id":"levelo_inurba_marseille","lat":43.258685,"lon":5.398975,"is_reserved":false,"is_disabled":false,"rental_uris":{"android":"levelo://app?vid=f8684ded-482a-44d6-97bf-a3ce8ec0cbf5","ios":"levelo://app?vid=f8684ded-482a-44d6-97bf-a3ce8ec0cbf5"},"vehicle_type_id":"4","last_reported":1727180216,"current_range_meters":28800,"station_id":"ce4bhl92rcd13ifvqghg","pricing_plan_id":"cebpf4jnsgd1na2vs0mg"},{"bike_id":"107a4b57-c86c-4129-a8ca-a54e48696f6c","system_id":"levelo_inurba_marseille","lat":43.30153,"lon":5.36781,"is_reserved":false,"is_disabled":false,"rental_uris":{"android":"levelo://app?vid=107a4b57-c86c-4129-a8ca-a54e48696f6c","ios":"levelo://app?vid=107a4b57-c86c-4129-a8ca-a54e48696f6c"},"vehicle_type_id":"4","last_reported":1727180216,"current_range_meters":25200,"station_id":"ce4bgqh2rcd13ifvqc5g","pricing_plan_id":"cebpf4jnsgd1na2vs0mg"},{"bike_id":"c3c32305-0f6e-4de8-807c-e30199904187","system_id":"levelo_inurba_marseille","lat":43.30467,"lon":5.37899,"is_reserved":false,"is_disabled":false,"rental_uris":{"android":"levelo://app?vid=c3c32305-0f6e-4de8-807c-e30199904187","ios":"levelo://app?vid=c3c32305-0f6e-4de8-807c-e30199904187"},"vehicle_type_id":"4","last_reported":1727180216,"current_range_meters":28000,"station_id":"ce4bgup2rcd13ifvqcn0","pricing_plan_id":"cebpf4jnsgd1na2vs0mg"},{"bike_id":"63a16492-fc08-4919-93e5-db0aa1a3c3fe","system_id":"levelo_inurba_marseille","lat":43.25588,"lon":5.38226,"is_reserved":false,"is_disabled":false,"rental_uris":{"android":"levelo://app?vid=63a16492-fc08-4919-93e5-db0aa1a3c3fe","ios":"levelo://app?vid=63a16492-fc08-4919-93e5-db0aa1a3c3fe"},"vehicle_type_id":"4","last_reported":1727180216,"current_range_meters":38000,"station_id":"ce4bhih2rcd13ifvqfs0","pricing_plan_id":"cebpf4jnsgd1na2vs0mg"},{"bike_id":"7b3dbfe5-5399-4cd5-b38b-fbf7f81c035d","system_id":"levelo_inurba_marseille","lat":43.290933,"lon":5.381437,"is_reserved":false,"is_disabled":false,"rental_uris":{"android":"levelo://app?vid=7b3dbfe5-5399-4cd5-b38b-fbf7f81c035d","ios":"levelo://app?vid=7b3dbfe5-5399-4cd5-b38b-fbf7f81c035d"},"vehicle_type_id":"4","last_reported":1727180216,"current_range_meters":24400,"station_id":"ce4bh512rcd13ifvqe2g","pricing_plan_id":"cebpf4jnsgd1na2vs0mg"},{"bike_id":"b6eee498-fb15-4e3b-9eef-2538446e40a3","system_id":"levelo_inurba_marseille","lat":43.3055,"lon":5.36709,"is_reserved":false,"is_disabled":false,"rental_uris":{"android":"levelo://app?vid=b6eee498-fb15-4e3b-9eef-2538446e40a3","ios":"levelo://app?vid=b6eee498-fb15-4e3b-9eef-2538446e40a3"},"vehicle_type_id":"4","last_reported":1727180216,"current_range_meters":20400,"station_id":"ce4bgrp2rcd13ifvqc9g","pricing_plan_id":"cebpf4jnsgd1na2vs0mg"},{"bike_id":"9822d0ae-a774-411b-a6b1-a761f3951669","system_id":"levelo_inurba_marseille","lat":43.27371,"lon":5.3627,"is_reserved":false,"is_disabled":false,"rental_uris":{"android":"levelo://app?vid=9822d0ae-a774-411b-a6b1-a761f3951669","ios":"levelo://app?vid=9822d0ae-a774-411b-a6b1-a761f3951669"},"vehicle_type_id":"4","last_reported":1727180216,"current_range_meters":28000,"station_id":"ce4bhbh2rcd13ifvqeo0","pricing_plan_id":"cebpf4jnsgd1na2vs0mg"},{"bike_id":"5065c7eb-addd-423c-9b64-7a924ea4aba6","system_id":"levelo_inurba_marseille","lat":43.292736,"lon":5.368428,"is_reserved":false,"is_disabled":false,"rental_uris":{"android":"levelo://app?vid=5065c7eb-addd-423c-9b64-7a924ea4aba6","ios":"levelo://app?vid=5065c7eb-addd-423c-9b64-7a924ea4aba6"},"vehicle_type_id":"4","last_reported":1727180216,"current_range_meters":22000,"station_id":"ce4bhbp2rcd13ifvqesg","pricing_plan_id":"cebpf4jnsgd1na2vs0mg"},{"bike_id":"f5b1128c-7029-4130-89ca-a009ee88473a","system_id":"levelo_inurba_marseille","lat":43.24663,"lon":5.38164,"is_reserved":false,"is_disabled":false,"rental_uris":{"android":"levelo://app?vid=f5b1128c-7029-4130-89ca-a009ee88473a","ios":"levelo://app?vid=f5b1128c-7029-4130-89ca-a009ee88473a"},"vehicle_type_id":"4","last_reported":1727180216,"current_range_meters":8400,"station_id":"ce4bhih2rcd13ifvqfr0","pricing_plan_id":"cebpf4jnsgd1na2vs0mg"},{"bike_id":"74371e4c-2218-4397-9345-b9f878db7dd5","system_id":"levelo_inurba_marseille","lat":43.33761,"lon":5.3743,"is_reserved":false,"is_disabled":false,"rental_uris":{"android":"levelo://app?vid=74371e4c-2218-4397-9345-b9f878db7dd5","ios":"levelo://app?vid=74371e4c-2218-4397-9345-b9f878db7dd5"},"vehicle_type_id":"4","last_reported":1727180216,"current_range_meters":37600,"station_id":"","pricing_plan_id":"cebpf4jnsgd1na2vs0mg"},{"bike_id":"3073410f-7845-4cda-8ebb-ea5392e49bcf","system_id":"levelo_inurba_marseille","lat":43.29842,"lon":5.36265,"is_reserved":false,"is_disabled":false,"rental_uris":{"android":"levelo://app?vid=3073410f-7845-4cda-8ebb-ea5392e49bcf","ios":"levelo://app?vid=3073410f-7845-4cda-8ebb-ea5392e49bcf"},"vehicle_type_id":"4","last_reported":1727180216,"current_range_meters":28800,"station_id":"ce4bgpp2rcd13ifvqc3g","pricing_plan_id":"cebpf4jnsgd1na2vs0mg"},{"bike_id":"6ed83a92-8796-4a06-95be-b47fb0a95a41","system_id":"levelo_inurba_marseille","lat":43.30454,"lon":5.37903,"is_reserved":false,"is_disabled":false,"rental_uris":{"android":"levelo://app?vid=6ed83a92-8796-4a06-95be-b47fb0a95a41","ios":"levelo://app?vid=6ed83a92-8796-4a06-95be-b47fb0a95a41"},"vehicle_type_id":"4","last_reported":1727180216,"current_range_meters":4400,"station_id":"ce4bgup2rcd13ifvqcn0","pricing_plan_id":"cebpf4jnsgd1na2vs0mg"},{"bike_id":"45aa4500-f2ca-4428-8b3c-13971a47fcbb","system_id":"levelo_inurba_marseille","lat":43.30158,"lon":5.38084,"is_reserved":false,"is_disabled":false,"rental_uris":{"android":"levelo://app?vid=45aa4500-f2ca-4428-8b3c-13971a47fcbb","ios":"levelo://app?vid=45aa4500-f2ca-4428-8b3c-13971a47fcbb"},"vehicle_type_id":"4","last_reported":1727180216,"current_range_meters":34800,"station_id":"ce4bgjp2rcd13ifvqbh0","pricing_plan_id":"cebpf4jnsgd1na2vs0mg"},{"bike_id":"124543fe-b791-4047-97dc-3b38ba1277b8","system_id":"levelo_inurba_marseille","lat":43.27071,"lon":5.42277,"is_reserved":false,"is_disabled":false,"rental_uris":{"android":"levelo://app?vid=124543fe-b791-4047-97dc-3b38ba1277b8","ios":"levelo://app?vid=124543fe-b791-4047-97dc-3b38ba1277b8"},"vehicle_type_id":"4","last_reported":1727180216,"current_range_meters":25200,"station_id":"ce4bhk92rcd13ifvqgb0","pricing_plan_id":"cebpf4jnsgd1na2vs0mg"},{"bike_id":"70dcefbd-4b07-404e-b4c6-04f06b54c398","system_id":"levelo_inurba_marseille","lat":43.30137,"lon":5.37418,"is_reserved":false,"is_disabled":false,"rental_uris":{"android":"levelo://app?vid=70dcefbd-4b07-404e-b4c6-04f06b54c398","ios":"levelo://app?vid=70dcefbd-4b07-404e-b4c6-04f06b54c398"},"vehicle_type_id":"4","last_reported":1727180216,"current_range_meters":40000,"station_id":"ce4bgs92rcd13ifvqcc0","pricing_plan_id":"cebpf4jnsgd1na2vs0mg"},{"bike_id":"b1f73128-5271-43d8-af34-94e10e3b804a","system_id":"levelo_inurba_marseille","lat":43.33023,"lon":5.39042,"is_reserved":false,"is_disabled":false,"rental_uris":{"android":"levelo://app?vid=b1f73128-5271-43d8-af34-94e10e3b804a","ios":"levelo://app?vid=b1f73128-5271-43d8-af34-94e10e3b804a"},"vehicle_type_id":"4","last_reported":1727180216,"current_range_meters":40000,"station_id":"ce4bhr92rcd13ifvqhrg","pricing_plan_id":"cebpf4jnsgd1na2vs0mg"},{"bike_id":"80b07579-2a5a-49b4-9094-57448b6540bd","system_id":"levelo_inurba_marseille","lat":43.29915,"lon":5.37619,"is_reserved":false,"is_disabled":false,"rental_uris":{"android":"levelo://app?vid=80b07579-2a5a-49b4-9094-57448b6540bd","ios":"levelo://app?vid=80b07579-2a5a-49b4-9094-57448b6540bd"},"vehicle_type_id":"4","last_reported":1727180216,"current_range_meters":36800,"station_id":"ce4bh692rcd13ifvqea0","pricing_plan_id":"cebpf4jnsgd1na2vs0mg"},{"bike_id":"a44b45f3-0272-48ed-992c-2f9ffd4656e6","system_id":"levelo_inurba_marseille","lat":43.25586,"lon":5.38223,"is_reserved":false,"is_disabled":false,"rental_uris":{"android":"levelo://app?vid=a44b45f3-0272-48ed-992c-2f9ffd4656e6","ios":"levelo://app?vid=a44b45f3-0272-48ed-992c-2f9ffd4656e6"},"vehicle_type_id":"4","last_reported":1727180216,"current_range_meters":37600,"station_id":"ce4bhih2rcd13ifvqfs0","pricing_plan_id":"cebpf4jnsgd1na2vs0mg"},{"bike_id":"e1161fb6-04f8-49d2-bfcb-45a6908c7773","system_id":"levelo_inurba_marseille","lat":43.27183,"lon":5.40983,"is_reserved":false,"is_disabled":false,"rental_uris":{"android":"levelo://app?vid=e1161fb6-04f8-49d2-bfcb-45a6908c7773","ios":"levelo://app?vid=e1161fb6-04f8-49d2-bfcb-45a6908c7773"},"vehicle_type_id":"4","last_reported":1727180216,"current_range_meters":20400,"station_id":"ce4bhl12rcd13ifvqgf0","pricing_plan_id":"cebpf4jnsgd1na2vs0mg"},{"bike_id":"e3f57a42-d981-4f26-9539-a8ae8e300268","system_id":"levelo_inurba_marseille","lat":43.29609,"lon":5.37722,"is_reserved":false,"is_disabled":false,"rental_uris":{"android":"levelo://app?vid=e3f57a42-d981-4f26-9539-a8ae8e300268","ios":"levelo://app?vid=e3f57a42-d981-4f26-9539-a8ae8e300268"},"vehicle_type_id":"4","last_reported":1727180216,"current_range_meters":21600,"station_id":"ce4bgi92rcd13ifvqb90","pricing_plan_id":"cebpf4jnsgd1na2vs0mg"},{"bike_id":"d1f6e7ee-107b-4123-a25a-9db115b23083","system_id":"levelo_inurba_marseille","lat":43.26947,"lon":5.38633,"is_reserved":false,"is_disabled":false,"rental_uris":{"android":"levelo://app?vid=d1f6e7ee-107b-4123-a25a-9db115b23083","ios":"levelo://app?vid=d1f6e7ee-107b-4123-a25a-9db115b23083"},"vehicle_type_id":"4","last_reported":1727180216,"current_range_meters":36800,"station_id":"ce4bhh92rcd13ifvqfh0","pricing_plan_id":"cebpf4jnsgd1na2vs0mg"},{"bike_id":"22d8b226-bdcd-4ae0-a051-a71868a6939f","system_id":"levelo_inurba_marseille","lat":43.29159,"lon":5.37151,"is_reserved":false,"is_disabled":false,"rental_uris":{"android":"levelo://app?vid=22d8b226-bdcd-4ae0-a051-a71868a6939f","ios":"levelo://app?vid=22d8b226-bdcd-4ae0-a051-a71868a6939f"},"vehicle_type_id":"4","last_reported":1727180216,"current_range_meters":31200,"station_id":"ce4bha92rcd13ifvqeh0","pricing_plan_id":"cebpf4jnsgd1na2vs0mg"},{"bike_id":"4b770073-7726-4e78-b34f-a257261dc7d3","system_id":"levelo_inurba_marseille","lat":43.29556,"lon":5.42276,"is_reserved":false,"is_disabled":false,"rental_uris":{"android":"levelo://app?vid=4b770073-7726-4e78-b34f-a257261dc7d3","ios":"levelo://app?vid=4b770073-7726-4e78-b34f-a257261dc7d3"},"vehicle_type_id":"4","last_reported":1727180216,"current_range_meters":28400,"station_id":"ce4bhph2rcd13ifvqhdg","pricing_plan_id":"cebpf4jnsgd1na2vs0mg"},{"bike_id":"1166f6b1-5b87-4bc1-b21d-c61655b2fee0","system_id":"levelo_inurba_marseille","lat":43.29447,"lon":5.38061,"is_reserved":false,"is_disabled":false,"rental_uris":{"android":"levelo://app?vid=1166f6b1-5b87-4bc1-b21d-c61655b2fee0","ios":"levelo://app?vid=1166f6b1-5b87-4bc1-b21d-c61655b2fee0"},"vehicle_type_id":"4","last_reported":1727180216,"current_range_meters":37600,"station_id":"","pricing_plan_id":"cebpf4jnsgd1na2vs0mg"},{"bike_id":"d8652924-2187-42bf-848a-1f35c66a4826","system_id":"levelo_inurba_marseille","lat":43.24071,"lon":5.37764,"is_reserved":false,"is_disabled":false,"rental_uris":{"android":"levelo://app?vid=d8652924-2187-42bf-848a-1f35c66a4826","ios":"levelo://app?vid=d8652924-2187-42bf-848a-1f35c66a4826"},"vehicle_type_id":"4","last_reported":1727180216,"current_range_meters":14400,"station_id":"ce4bhnp2rcd13ifvqgvg","pricing_plan_id":"cebpf4jnsgd1na2vs0mg"},{"bike_id":"b9927a7a-6a68-4fdd-a9cf-21f3191cee64","system_id":"levelo_inurba_marseille","lat":43.28104,"lon":5.37841,"is_reserved":false,"is_disabled":false,"rental_uris":{"android":"levelo://app?vid=b9927a7a-6a68-4fdd-a9cf-21f3191cee64","ios":"levelo://app?vid=b9927a7a-6a68-4fdd-a9cf-21f3191cee64"},"vehicle_type_id":"4","last_reported":1727180216,"current_range_meters":38800,"station_id":"ce4bha12rcd13ifvqee0","pricing_plan_id":"cebpf4jnsgd1na2vs0mg"},{"bike_id":"9768603a-3105-42be-a49d-bc9bc42fe3f7","system_id":"levelo_inurba_marseille","lat":43.34144,"lon":5.40901,"is_reserved":false,"is_disabled":false,"rental_uris":{"android":"levelo://app?vid=9768603a-3105-42be-a49d-bc9bc42fe3f7","ios":"levelo://app?vid=9768603a-3105-42be-a49d-bc9bc42fe3f7"},"vehicle_type_id":"4","last_reported":1727180216,"current_range_meters":11600,"station_id":"ce4bhqh2rcd13ifvqhlg","pricing_plan_id":"cebpf4jnsgd1na2vs0mg"},{"bike_id":"efcab10f-f8b5-4015-93f2-6e1654482c73","system_id":"levelo_inurba_marseille","lat":43.24078,"lon":5.37753,"is_reserved":false,"is_disabled":false,"rental_uris":{"android":"levelo://app?vid=efcab10f-f8b5-4015-93f2-6e1654482c73","ios":"levelo://app?vid=efcab10f-f8b5-4015-93f2-6e1654482c73"},"vehicle_type_id":"4","last_reported":1727180216,"current_range_meters":32800,"station_id":"ce4bhnp2rcd13ifvqgvg","pricing_plan_id":"cebpf4jnsgd1na2vs0mg"},{"bike_id":"49d80325-faab-4d79-8ece-643304efb99e","system_id":"levelo_inurba_marseille","lat":43.26682,"lon":5.38267,"is_reserved":false,"is_disabled":false,"rental_uris":{"android":"levelo://app?vid=49d80325-faab-4d79-8ece-643304efb99e","ios":"levelo://app?vid=49d80325-faab-4d79-8ece-643304efb99e"},"vehicle_type_id":"4","last_reported":1727180216,"current_range_meters":38000,"station_id":"ce4bhg92rcd13ifvqf90","pricing_plan_id":"cebpf4jnsgd1na2vs0mg"},{"bike_id":"f217b67f-574c-4d4b-8797-8073266af066","system_id":"levelo_inurba_marseille","lat":43.26957,"lon":5.38629,"is_reserved":false,"is_disabled":false,"rental_uris":{"android":"levelo://app?vid=f217b67f-574c-4d4b-8797-8073266af066","ios":"levelo://app?vid=f217b67f-574c-4d4b-8797-8073266af066"},"vehicle_type_id":"4","last_reported":1727180216,"current_range_meters":38800,"station_id":"ce4bhh92rcd13ifvqfh0","pricing_plan_id":"cebpf4jnsgd1na2vs0mg"},{"bike_id":"e59b0fcb-9ec1-4e05-a6bd-12eb54ed61ec","system_id":"levelo_inurba_marseille","lat":43.2668,"lon":5.38263,"is_reserved":false,"is_disabled":false,"rental_uris":{"android":"levelo://app?vid=e59b0fcb-9ec1-4e05-a6bd-12eb54ed61ec","ios":"levelo://app?vid=e59b0fcb-9ec1-4e05-a6bd-12eb54ed61ec"},"vehicle_type_id":"4","last_reported":1727180216,"current_range_meters":35200,"station_id":"ce4bhg92rcd13ifvqf90","pricing_plan_id":"cebpf4jnsgd1na2vs0mg"},{"bike_id":"48557990-4eb5-4fa2-b998-12748800b44a","system_id":"levelo_inurba_marseille","lat":43.27066,"lon":5.4227,"is_reserved":false,"is_disabled":false,"rental_uris":{"android":"levelo://app?vid=48557990-4eb5-4fa2-b998-12748800b44a","ios":"levelo://app?vid=48557990-4eb5-4fa2-b998-12748800b44a"},"vehicle_type_id":"4","last_reported":1727180216,"current_range_meters":33600,"station_id":"ce4bhk92rcd13ifvqgb0","pricing_plan_id":"cebpf4jnsgd1na2vs0mg"},{"bike_id":"2c567e6d-9516-43a8-a805-6a796053112e","system_id":"levelo_inurba_marseille","lat":43.32486,"lon":5.36556,"is_reserved":false,"is_disabled":false,"rental_uris":{"android":"levelo://app?vid=2c567e6d-9516-43a8-a805-6a796053112e","ios":"levelo://app?vid=2c567e6d-9516-43a8-a805-6a796053112e"},"vehicle_type_id":"4","last_reported":1727180216,"current_range_meters":40000,"station_id":"ce4bhs12rcd13ifvqhvg","pricing_plan_id":"cebpf4jnsgd1na2vs0mg"},{"bike_id":"986694a0-e5ed-4553-8ab5-dfe78678ad95","system_id":"levelo_inurba_marseille","lat":43.32487,"lon":5.36562,"is_reserved":false,"is_disabled":false,"rental_uris":{"android":"levelo://app?vid=986694a0-e5ed-4553-8ab5-dfe78678ad95","ios":"levelo://app?vid=986694a0-e5ed-4553-8ab5-dfe78678ad95"},"vehicle_type_id":"4","last_reported":1727180216,"current_range_meters":28000,"station_id":"ce4bhs12rcd13ifvqhvg","pricing_plan_id":"cebpf4jnsgd1na2vs0mg"},{"bike_id":"3741c135-6583-410d-87b9-b4310a4bf662","system_id":"levelo_inurba_marseille","lat":43.26685,"lon":5.38265,"is_reserved":false,"is_disabled":false,"rental_uris":{"android":"levelo://app?vid=3741c135-6583-410d-87b9-b4310a4bf662","ios":"levelo://app?vid=3741c135-6583-410d-87b9-b4310a4bf662"},"vehicle_type_id":"4","last_reported":1727180216,"current_range_meters":38800,"station_id":"ce4bhg92rcd13ifvqf90","pricing_plan_id":"cebpf4jnsgd1na2vs0mg"},{"bike_id":"c64777d0-3386-46fc-ae9f-61f8beeade07","system_id":"levelo_inurba_marseille","lat":43.28266,"lon":5.35066,"is_reserved":false,"is_disabled":false,"rental_uris":{"android":"levelo://app?vid=c64777d0-3386-46fc-ae9f-61f8beeade07","ios":"levelo://app?vid=c64777d0-3386-46fc-ae9f-61f8beeade07"},"vehicle_type_id":"4","last_reported":1727180216,"current_range_meters":38000,"station_id":"ce4bhbp2rcd13ifvqerg","pricing_plan_id":"cebpf4jnsgd1na2vs0mg"},{"bike_id":"cb037699-9180-4cca-9257-9699aba3381e","system_id":"levelo_inurba_marseille","lat":43.24995,"lon":5.3892,"is_reserved":false,"is_disabled":false,"rental_uris":{"android":"levelo://app?vid=cb037699-9180-4cca-9257-9699aba3381e","ios":"levelo://app?vid=cb037699-9180-4cca-9257-9699aba3381e"},"vehicle_type_id":"4","last_reported":1727180216,"current_range_meters":40000,"station_id":"ce4bhgp2rcd13ifvqfd0","pricing_plan_id":"cebpf4jnsgd1na2vs0mg"},{"bike_id":"17701005-77c3-4e4f-a0b4-b2ece630517d","system_id":"levelo_inurba_marseille","lat":43.23962,"lon":5.36624,"is_reserved":false,"is_disabled":false,"rental_uris":{"android":"levelo://app?vid=17701005-77c3-4e4f-a0b4-b2ece630517d","ios":"levelo://app?vid=17701005-77c3-4e4f-a0b4-b2ece630517d"},"vehicle_type_id":"4","last_reported":1727180216,"current_range_meters":38800,"station_id":"ce4bhi12rcd13ifvqfp0","pricing_plan_id":"cebpf4jnsgd1na2vs0mg"},{"bike_id":"b5b5bf24-2775-4eb0-a3f8-704bdbc2ce1a","system_id":"levelo_inurba_marseille","lat":43.290488,"lon":5.378048,"is_reserved":false,"is_disabled":false,"rental_uris":{"android":"levelo://app?vid=b5b5bf24-2775-4eb0-a3f8-704bdbc2ce1a","ios":"levelo://app?vid=b5b5bf24-2775-4eb0-a3f8-704bdbc2ce1a"},"vehicle_type_id":"4","last_reported":1727180216,"current_range_meters":13600,"station_id":"ce4bh9p2rcd13ifvqed0","pricing_plan_id":"cebpf4jnsgd1na2vs0mg"},{"bike_id":"e5ecb953-43b6-40e6-9f73-99c952f50042","system_id":"levelo_inurba_marseille","lat":43.23146,"lon":5.43719,"is_reserved":false,"is_disabled":false,"rental_uris":{"android":"levelo://app?vid=e5ecb953-43b6-40e6-9f73-99c952f50042","ios":"levelo://app?vid=e5ecb953-43b6-40e6-9f73-99c952f50042"},"vehicle_type_id":"4","last_reported":1727180216,"current_range_meters":24800,"station_id":"ce4bhmp2rcd13ifvqgog","pricing_plan_id":"cebpf4jnsgd1na2vs0mg"},{"bike_id":"fe57e638-2e32-4de9-a694-726eae663078","system_id":"levelo_inurba_marseille","lat":43.30539,"lon":5.36525,"is_reserved":false,"is_disabled":false,"rental_uris":{"android":"levelo://app?vid=fe57e638-2e32-4de9-a694-726eae663078","ios":"levelo://app?vid=fe57e638-2e32-4de9-a694-726eae663078"},"vehicle_type_id":"4","last_reported":1727180216,"current_range_meters":29600,"station_id":"ce4bgs12rcd13ifvqcag","pricing_plan_id":"cebpf4jnsgd1na2vs0mg"},{"bike_id":"8439f7a9-67b6-4404-9a35-e4fa0bfff7cf","system_id":"levelo_inurba_marseille","lat":43.27946,"lon":5.41052,"is_reserved":false,"is_disabled":false,"rental_uris":{"android":"levelo://app?vid=8439f7a9-67b6-4404-9a35-e4fa0bfff7cf","ios":"levelo://app?vid=8439f7a9-67b6-4404-9a35-e4fa0bfff7cf"},"vehicle_type_id":"4","last_reported":1727180216,"current_range_meters":10800,"station_id":"ce4bhnp2rcd13ifvqh0g","pricing_plan_id":"cebpf4jnsgd1na2vs0mg"},{"bike_id":"1dc1c806-4f53-4aa0-a2b3-39bf45455c47","system_id":"levelo_inurba_marseille","lat":43.25583,"lon":5.38235,"is_reserved":false,"is_disabled":false,"rental_uris":{"android":"levelo://app?vid=1dc1c806-4f53-4aa0-a2b3-39bf45455c47","ios":"levelo://app?vid=1dc1c806-4f53-4aa0-a2b3-39bf45455c47"},"vehicle_type_id":"4","last_reported":1727180216,"current_range_meters":37600,"station_id":"ce4bhih2rcd13ifvqfs0","pricing_plan_id":"cebpf4jnsgd1na2vs0mg"},{"bike_id":"96eb8edc-e28c-41b2-a347-f14b4856fac1","system_id":"levelo_inurba_marseille","lat":43.26572,"lon":5.38995,"is_reserved":false,"is_disabled":false,"rental_uris":{"android":"levelo://app?vid=96eb8edc-e28c-41b2-a347-f14b4856fac1","ios":"levelo://app?vid=96eb8edc-e28c-41b2-a347-f14b4856fac1"},"vehicle_type_id":"4","last_reported":1727180216,"current_range_meters":21600,"station_id":"ce4bhe12rcd13ifvqf30","pricing_plan_id":"cebpf4jnsgd1na2vs0mg"},{"bike_id":"63ac3f3b-affc-4ed0-ad00-6c7dc2e92a73","system_id":"levelo_inurba_marseille","lat":43.30535,"lon":5.36709,"is_reserved":false,"is_disabled":false,"rental_uris":{"android":"levelo://app?vid=63ac3f3b-affc-4ed0-ad00-6c7dc2e92a73","ios":"levelo://app?vid=63ac3f3b-affc-4ed0-ad00-6c7dc2e92a73"},"vehicle_type_id":"4","last_reported":1727180216,"current_range_meters":20400,"station_id":"ce4bgrp2rcd13ifvqc9g","pricing_plan_id":"cebpf4jnsgd1na2vs0mg"},{"bike_id":"4ee726b4-231b-4d2b-acde-eda2d039192f","system_id":"levelo_inurba_marseille","lat":43.29101,"lon":5.38135,"is_reserved":false,"is_disabled":false,"rental_uris":{"android":"levelo://app?vid=4ee726b4-231b-4d2b-acde-eda2d039192f","ios":"levelo://app?vid=4ee726b4-231b-4d2b-acde-eda2d039192f"},"vehicle_type_id":"4","last_reported":1727180216,"current_range_meters":18000,"station_id":"ce4bh512rcd13ifvqe2g","pricing_plan_id":"cebpf4jnsgd1na2vs0mg"},{"bike_id":"d078808f-6fc7-46fd-95ec-7e61ed5d68d9","system_id":"levelo_inurba_marseille","lat":43.27315,"lon":5.39081,"is_reserved":false,"is_disabled":false,"rental_uris":{"android":"levelo://app?vid=d078808f-6fc7-46fd-95ec-7e61ed5d68d9","ios":"levelo://app?vid=d078808f-6fc7-46fd-95ec-7e61ed5d68d9"},"vehicle_type_id":"4","last_reported":1727180216,"current_range_meters":39200,"station_id":"ce4bhgp2rcd13ifvqfe0","pricing_plan_id":"cebpf4jnsgd1na2vs0mg"},{"bike_id":"01e3177f-2980-42c0-bc79-421123d82f75","system_id":"levelo_inurba_marseille","lat":43.2594,"lon":5.4091,"is_reserved":false,"is_disabled":false,"rental_uris":{"android":"levelo://app?vid=01e3177f-2980-42c0-bc79-421123d82f75","ios":"levelo://app?vid=01e3177f-2980-42c0-bc79-421123d82f75"},"vehicle_type_id":"4","last_reported":1727180216,"current_range_meters":8800,"station_id":"ce4bhm92rcd13ifvqglg","pricing_plan_id":"cebpf4jnsgd1na2vs0mg"},{"bike_id":"18e5515d-31cb-438b-845e-f3fd7a5b0e36","system_id":"levelo_inurba_marseille","lat":43.28938,"lon":5.36635,"is_reserved":false,"is_disabled":false,"rental_uris":{"android":"levelo://app?vid=18e5515d-31cb-438b-845e-f3fd7a5b0e36","ios":"levelo://app?vid=18e5515d-31cb-438b-845e-f3fd7a5b0e36"},"vehicle_type_id":"4","last_reported":1727180216,"current_range_meters":16000,"station_id":"ce4bhap2rcd13ifvqek0","pricing_plan_id":"cebpf4jnsgd1na2vs0mg"},{"bike_id":"ef462b40-5abb-456e-ae03-2b347f34b8dc","system_id":"levelo_inurba_marseille","lat":43.30467,"lon":5.37906,"is_reserved":false,"is_disabled":false,"rental_uris":{"android":"levelo://app?vid=ef462b40-5abb-456e-ae03-2b347f34b8dc","ios":"levelo://app?vid=ef462b40-5abb-456e-ae03-2b347f34b8dc"},"vehicle_type_id":"4","last_reported":1727180216,"current_range_meters":24000,"station_id":"ce4bgup2rcd13ifvqcn0","pricing_plan_id":"cebpf4jnsgd1na2vs0mg"},{"bike_id":"7a8bb622-0521-4ace-a01e-aea340970ff6","system_id":"levelo_inurba_marseille","lat":43.24661,"lon":5.38162,"is_reserved":false,"is_disabled":false,"rental_uris":{"android":"levelo://app?vid=7a8bb622-0521-4ace-a01e-aea340970ff6","ios":"levelo://app?vid=7a8bb622-0521-4ace-a01e-aea340970ff6"},"vehicle_type_id":"4","last_reported":1727180216,"current_range_meters":36400,"station_id":"ce4bhih2rcd13ifvqfr0","pricing_plan_id":"cebpf4jnsgd1na2vs0mg"},{"bike_id":"87bc3c3a-5b0d-4d32-b107-ce17692bf59d","system_id":"levelo_inurba_marseille","lat":43.2315,"lon":5.43705,"is_reserved":false,"is_disabled":false,"rental_uris":{"android":"levelo://app?vid=87bc3c3a-5b0d-4d32-b107-ce17692bf59d","ios":"levelo://app?vid=87bc3c3a-5b0d-4d32-b107-ce17692bf59d"},"vehicle_type_id":"4","last_reported":1727180216,"current_range_meters":3600,"station_id":"ce4bhmp2rcd13ifvqgog","pricing_plan_id":"cebpf4jnsgd1na2vs0mg"},{"bike_id":"c59b4fbd-17e5-433b-9846-f2a72cfd5939","system_id":"levelo_inurba_marseille","lat":43.3014,"lon":5.38777,"is_reserved":false,"is_disabled":false,"rental_uris":{"android":"levelo://app?vid=c59b4fbd-17e5-433b-9846-f2a72cfd5939","ios":"levelo://app?vid=c59b4fbd-17e5-433b-9846-f2a72cfd5939"},"vehicle_type_id":"4","last_reported":1727180216,"current_range_meters":36400,"station_id":"ce4bghh2rcd13ifvqb60","pricing_plan_id":"cebpf4jnsgd1na2vs0mg"},{"bike_id":"debce8ad-c4bd-4da4-ae26-4b934130bcea","system_id":"levelo_inurba_marseille","lat":43.337444,"lon":5.374475,"is_reserved":false,"is_disabled":false,"rental_uris":{"android":"levelo://app?vid=debce8ad-c4bd-4da4-ae26-4b934130bcea","ios":"levelo://app?vid=debce8ad-c4bd-4da4-ae26-4b934130bcea"},"vehicle_type_id":"4","last_reported":1727180216,"current_range_meters":36800,"station_id":"","pricing_plan_id":"cebpf4jnsgd1na2vs0mg"},{"bike_id":"d1572cca-6392-4a7c-89c3-baa05d721a30","system_id":"levelo_inurba_marseille","lat":43.24545,"lon":5.39521,"is_reserved":false,"is_disabled":false,"rental_uris":{"android":"levelo://app?vid=d1572cca-6392-4a7c-89c3-baa05d721a30","ios":"levelo://app?vid=d1572cca-6392-4a7c-89c3-baa05d721a30"},"vehicle_type_id":"4","last_reported":1727180216,"current_range_meters":6000,"station_id":"ce4bhlp2rcd13ifvqgjg","pricing_plan_id":"cebpf4jnsgd1na2vs0mg"},{"bike_id":"10f8ad50-3cb4-44f9-b1e3-af932be0c2fe","system_id":"levelo_inurba_marseille","lat":43.27913,"lon":5.3958,"is_reserved":false,"is_disabled":false,"rental_uris":{"android":"levelo://app?vid=10f8ad50-3cb4-44f9-b1e3-af932be0c2fe","ios":"levelo://app?vid=10f8ad50-3cb4-44f9-b1e3-af932be0c2fe"},"vehicle_type_id":"4","last_reported":1727180216,"current_range_meters":27600,"station_id":"ce4bhf92rcd13ifvqf40","pricing_plan_id":"cebpf4jnsgd1na2vs0mg"},{"bike_id":"8b2c757c-cb26-4014-b94d-e01482bdc0c5","system_id":"levelo_inurba_marseille","lat":43.29227,"lon":5.36055,"is_reserved":false,"is_disabled":false,"rental_uris":{"android":"levelo://app?vid=8b2c757c-cb26-4014-b94d-e01482bdc0c5","ios":"levelo://app?vid=8b2c757c-cb26-4014-b94d-e01482bdc0c5"},"vehicle_type_id":"4","last_reported":1727180216,"current_range_meters":20400,"station_id":"ce4bhbh2rcd13ifvqeqg","pricing_plan_id":"cebpf4jnsgd1na2vs0mg"},{"bike_id":"88da4001-985c-4e10-8718-27a5173978f0","system_id":"levelo_inurba_marseille","lat":43.25937,"lon":5.40912,"is_reserved":false,"is_disabled":false,"rental_uris":{"android":"levelo://app?vid=88da4001-985c-4e10-8718-27a5173978f0","ios":"levelo://app?vid=88da4001-985c-4e10-8718-27a5173978f0"},"vehicle_type_id":"4","last_reported":1727180216,"current_range_meters":22000,"station_id":"ce4bhm92rcd13ifvqglg","pricing_plan_id":"cebpf4jnsgd1na2vs0mg"},{"bike_id":"a0c97515-3c94-4a97-8379-f7b7767cc614","system_id":"levelo_inurba_marseille","lat":43.24078,"lon":5.37757,"is_reserved":false,"is_disabled":false,"rental_uris":{"android":"levelo://app?vid=a0c97515-3c94-4a97-8379-f7b7767cc614","ios":"levelo://app?vid=a0c97515-3c94-4a97-8379-f7b7767cc614"},"vehicle_type_id":"4","last_reported":1727180216,"current_range_meters":24800,"station_id":"ce4bhnp2rcd13ifvqgvg","pricing_plan_id":"cebpf4jnsgd1na2vs0mg"},{"bike_id":"7c6ec264-7013-498d-b486-94611ea4274a","system_id":"levelo_inurba_marseille","lat":43.264955,"lon":5.395418,"is_reserved":false,"is_disabled":false,"rental_uris":{"android":"levelo://app?vid=7c6ec264-7013-498d-b486-94611ea4274a","ios":"levelo://app?vid=7c6ec264-7013-498d-b486-94611ea4274a"},"vehicle_type_id":"4","last_reported":1727180216,"current_range_meters":20000,"station_id":"ce4bhi12rcd13ifvqfq0","pricing_plan_id":"cebpf4jnsgd1na2vs0mg"},{"bike_id":"68536a3b-9d4c-4778-842d-bec797c06af3","system_id":"levelo_inurba_marseille","lat":43.29105,"lon":5.38129,"is_reserved":false,"is_disabled":false,"rental_uris":{"android":"levelo://app?vid=68536a3b-9d4c-4778-842d-bec797c06af3","ios":"levelo://app?vid=68536a3b-9d4c-4778-842d-bec797c06af3"},"vehicle_type_id":"4","last_reported":1727180216,"current_range_meters":37600,"station_id":"ce4bh512rcd13ifvqe2g","pricing_plan_id":"cebpf4jnsgd1na2vs0mg"},{"bike_id":"337d797f-5bad-4e42-a3a9-741eceae0aa0","system_id":"levelo_inurba_marseille","lat":43.33723,"lon":5.39183,"is_reserved":false,"is_disabled":false,"rental_uris":{"android":"levelo://app?vid=337d797f-5bad-4e42-a3a9-741eceae0aa0","ios":"levelo://app?vid=337d797f-5bad-4e42-a3a9-741eceae0aa0"},"vehicle_type_id":"4","last_reported":1727180216,"current_range_meters":36800,"station_id":"ce4bhr92rcd13ifvqhsg","pricing_plan_id":"cebpf4jnsgd1na2vs0mg"},{"bike_id":"4d248d67-7876-4d4b-a4d0-58c880f6e169","system_id":"levelo_inurba_marseille","lat":43.30141,"lon":5.37426,"is_reserved":false,"is_disabled":false,"rental_uris":{"android":"levelo://app?vid=4d248d67-7876-4d4b-a4d0-58c880f6e169","ios":"levelo://app?vid=4d248d67-7876-4d4b-a4d0-58c880f6e169"},"vehicle_type_id":"4","last_reported":1727180216,"current_range_meters":36800,"station_id":"ce4bgs92rcd13ifvqcc0","pricing_plan_id":"cebpf4jnsgd1na2vs0mg"},{"bike_id":"ebabd93c-8308-4f8a-93ac-d572213397f7","system_id":"levelo_inurba_marseille","lat":43.27493,"lon":5.42455,"is_reserved":false,"is_disabled":false,"rental_uris":{"android":"levelo://app?vid=ebabd93c-8308-4f8a-93ac-d572213397f7","ios":"levelo://app?vid=ebabd93c-8308-4f8a-93ac-d572213397f7"},"vehicle_type_id":"4","last_reported":1727180216,"current_range_meters":2800,"station_id":"ce4bhn92rcd13ifvqgrg","pricing_plan_id":"cebpf4jnsgd1na2vs0mg"},{"bike_id":"313886ea-d7e6-4f46-88c2-d20fced15e63","system_id":"levelo_inurba_marseille","lat":43.27497,"lon":5.42455,"is_reserved":false,"is_disabled":false,"rental_uris":{"android":"levelo://app?vid=313886ea-d7e6-4f46-88c2-d20fced15e63","ios":"levelo://app?vid=313886ea-d7e6-4f46-88c2-d20fced15e63"},"vehicle_type_id":"4","last_reported":1727180216,"current_range_meters":8000,"station_id":"ce4bhn92rcd13ifvqgrg","pricing_plan_id":"cebpf4jnsgd1na2vs0mg"},{"bike_id":"4a4bfd88-bdfc-4802-b3a8-e798e4274727","system_id":"levelo_inurba_marseille","lat":43.32295,"lon":5.3826,"is_reserved":false,"is_disabled":false,"rental_uris":{"android":"levelo://app?vid=4a4bfd88-bdfc-4802-b3a8-e798e4274727","ios":"levelo://app?vid=4a4bfd88-bdfc-4802-b3a8-e798e4274727"},"vehicle_type_id":"4","last_reported":1727180216,"current_range_meters":33600,"station_id":"ce4bhr12rcd13ifvqhqg","pricing_plan_id":"cebpf4jnsgd1na2vs0mg"},{"bike_id":"fe9291c0-c1e0-47d3-902d-7bd90e99bf30","system_id":"levelo_inurba_marseille","lat":43.25935,"lon":5.40912,"is_reserved":false,"is_disabled":false,"rental_uris":{"android":"levelo://app?vid=fe9291c0-c1e0-47d3-902d-7bd90e99bf30","ios":"levelo://app?vid=fe9291c0-c1e0-47d3-902d-7bd90e99bf30"},"vehicle_type_id":"4","last_reported":1727180216,"current_range_meters":36000,"station_id":"ce4bhm92rcd13ifvqglg","pricing_plan_id":"cebpf4jnsgd1na2vs0mg"},{"bike_id":"3645aabc-25c4-4509-879c-cf8db9f5f469","system_id":"levelo_inurba_marseille","lat":43.2594,"lon":5.40903,"is_reserved":false,"is_disabled":false,"rental_uris":{"android":"levelo://app?vid=3645aabc-25c4-4509-879c-cf8db9f5f469","ios":"levelo://app?vid=3645aabc-25c4-4509-879c-cf8db9f5f469"},"vehicle_type_id":"4","last_reported":1727180216,"current_range_meters":26000,"station_id":"ce4bhm92rcd13ifvqglg","pricing_plan_id":"cebpf4jnsgd1na2vs0mg"},