{"last_updated":1745410788,"ttl":60,"version":"2.2","data":{"bikes":[{"bike_id":"80fd85ca-90c7-4ea5-a81c-b8aad488e975","system_id":"levelo_inurba_marseille","lat":43.30642,"lon":5.40107,"is_reserved":false,"is_disabled":false,"rental_uris":{"android":"levelo://app?vid=80fd85ca-90c7-4ea5-a81c-b8aad488e975","ios":"levelo://app?vid=80fd85ca-90c7-4ea5-a81c-b8aad488e975"},"vehicle_type_id":"4","last_reported":1745410788,"current_range_meters":2000,"station_id":"ce4bh112rcd13ifvqda0","pricing_plan_id":"cebpf4jnsgd1na2vs0mg"},{"bike_id":"6308a7e3-f142-49b0-9ed6-9f62a56c1e07","system_id":"levelo_inurba_marseille","lat":43.24168,"lon":5.36385,"is_reserved":false,"is_disabled":false,"rental_uris":{"android":"levelo://app?vid=6308a7e3-f142-49b0-9ed6-9f62a56c1e07","ios":"levelo://app?vid=6308a7e3-f142-49b0-9ed6-9f62a56c1e07"},"vehicle_type_id":"4","last_reported":1745410788,"current_range_meters":2800,"station_id":"cpo36qri1sfpv3e86is0","pricing_plan_id":"cebpf4jnsgd1na2vs0mg"},{"bike_id":"5177f030-1637-43a3-8d96-20a6d20b43c0","system_id":"levelo_inurba_marseille","lat":43.28932,"lon":5.36627,"is_reserved":false,"is_disabled":false,"rental_uris":{"android":"levelo://app?vid=5177f030-1637-43a3-8d96-20a6d20b43c0","ios":"levelo://app?vid=5177f030-1637-43a3-8d96-20a6d20b43c0"},"vehicle_type_id":"4","last_reported":1745410788,"current_range_meters":2800,"station_id":"ce4bhap2rcd13ifvqek0","pricing_plan_id":"cebpf4jnsgd1na2vs0mg"},{"bike_id":"dd7b4f3e-a4cf-4025-bfa9-9fbed11693c4","system_id":"levelo_inurba_marseille","lat":43.29797,"lon":5.40401,"is_reserved":false,"is_disabled":false,"rental_uris":{"android":"levelo://app?vid=dd7b4f3e-a4cf-4025-bfa9-9fbed11693c4","ios":"levelo://app?vid=dd7b4f3e-a4cf-4025-bfa9-9fbed11693c4"},"vehicle_type_id":"4","last_reported":1745410788,"current_range_meters":400,"station_id":"ce4bh112rcd13ifvqd90","pricing_plan_id":"cebpf4jnsgd1na2vs0mg"},{"bike_id":"3da75ca1-dda0-4288-9393-c6d17da6c53e","system_id":"levelo_inurba_marseille","lat":43.251013,"lon":5.403249,"is_reserved":false,"is_disabled":false,"rental_uris":{"android":"levelo://app?vid=3da75ca1-dda0-4288-9393-c6d17da6c53e","ios":"levelo://app?vid=3da75ca1-dda0-4288-9393-c6d17da6c53e"},"vehicle_type_id":"4","last_reported":1745410788,"current_range_meters":2800,"station_id":"ce4bhhh2rcd13ifvqfl0","pricing_plan_id":"cebpf4jnsgd1na2vs0mg"},{"bike_id":"d69b4840-a48c-46aa-8de4-1073f19f4178","system_id":"levelo_inurba_marseille","lat":43.28309,"lon":5.35064,"is_reserved":false,"is_disabled":true,"rental_uris":{"android":"levelo://app?vid=d69b4840-a48c-46aa-8de4-1073f19f4178","ios":"levelo://app?vid=d69b4840-a48c-46aa-8de4-1073f19f4178"},"vehicle_type_id":"4","last_reported":1745410788,"current_range_meters":2800,"station_id":"ce4bhbp2rcd13ifvqerg","pricing_plan_id":"cebpf4jnsgd1na2vs0mg"},{"bike_id":"9e1e9c99-2fa4-4b9c-bf93-33a66bb3a9c7","system_id":"levelo_inurba_marseille","lat":43.2737,"lon":5.36261,"is_reserved":false,"is_disabled":false,"rental_uris":{"android":"levelo://app?vid=9e1e9c99-2fa4-4b9c-bf93-33a66bb3a9c7","ios":"levelo://app?vid=9e1e9c99-2fa4-4b9c-bf93-33a66bb3a9c7"},"vehicle_type_id":"4","last_reported":1745410788,"current_range_meters":2800,"station_id":"ce4bhbh2rcd13ifvqeo0","pricing_plan_id":"cebpf4jnsgd1na2vs0mg"},{"bike_id":"b6fd4c13-5d42-4f33-bcd2-96a3522fb4b8","system_id":"levelo_inurba_marseille","lat":43.28727,"lon":5.36088,"is_reserved":false,"is_disabled":false,"rental_uris":{"android":"levelo://app?vid=b6fd4c13-5d42-4f33-bcd2-96a3522fb4b8","ios":"levelo://app?vid=b6fd4c13-5d42-4f33-bcd2-96a3522fb4b8"},"vehicle_type_id":"4","last_reported":1745410788,"current_range_meters":3200,"station_id":"cki0cbj6b192h4jlfktg","pricing_plan_id":"cebpf4jnsgd1na2vs0mg"},{"bike_id":"84c82555-1e87-41e7-982f-5529c95edd61","system_id":"levelo_inurba_marseille","lat":43.30932,"lon":5.40145,"is_reserved":false,"is_disabled":false,"rental_uris":{"android":"levelo://app?vid=84c82555-1e87-41e7-982f-5529c95edd61","ios":"levelo://app?vid=84c82555-1e87-41e7-982f-5529c95edd61"},"vehicle_type_id":"4","last_reported":1745410788,"current_range_meters":3200,"station_id":"ce4bgvp2rcd13ifvqct0","pricing_plan_id":"cebpf4jnsgd1na2vs0mg"},{"bike_id":"2d5475f9-c4c8-4f2f-9511-09ca94b0d30e","system_id":"levelo_inurba_marseille","lat":43.32536,"lon":5.41432,"is_reserved":false,"is_disabled":false,"rental_uris":{"android":"levelo://app?vid=2d5475f9-c4c8-4f2f-9511-09ca94b0d30e","ios":"levelo://app?vid=2d5475f9-c4c8-4f2f-9511-09ca94b0d30e"},"vehicle_type_id":"4","last_reported":1745410788,"current_range_meters":3200,"station_id":"ce4bhq12rcd13ifvqhhg","pricing_plan_id":"cebpf4jnsgd1na2vs0mg"},{"bike_id":"a7601a10-6363-4020-a807-c187bca3b750","system_id":"levelo_inurba_marseille","lat":43.27807,"lon":5.4073,"is_reserved":false,"is_disabled":false,"rental_uris":{"android":"levelo://app?vid=a7601a10-6363-4020-a807-c187bca3b750","ios":"levelo://app?vid=a7601a10-6363-4020-a807-c187bca3b750"},"vehicle_type_id":"4","last_reported":1745410788,"current_range_meters":3200,"station_id":"ce4bhnh2rcd13ifvqgtg","pricing_plan_id":"cebpf4jnsgd1na2vs0mg"},{"bike_id":"cbd8d7e0-2ea4-4d21-a3e4-16beba8f762a","system_id":"levelo_inurba_marseille","lat":43.2306,"lon":5.3549,"is_reserved":false,"is_disabled":false,"rental_uris":{"android":"levelo://app?vid=cbd8d7e0-2ea4-4d21-a3e4-16beba8f762a","ios":"levelo://app?vid=cbd8d7e0-2ea4-4d21-a3e4-16beba8f762a"},"vehicle_type_id":"4","last_reported":1745410788,"current_range_meters":3200,"station_id":"cpo3342slgdg3j2ifvpg","pricing_plan_id":"cebpf4jnsgd1na2vs0mg"},{"bike_id":"9a466413-7640-4d63-a20a-7a07fa89391e","system_id":"levelo_inurba_marseille","lat":43.29712,"lon":5.36611,"is_reserved":false,"is_disabled":false,"rental_uris":{"android":"levelo://app?vid=9a466413-7640-4d63-a20a-7a07fa89391e","ios":"levelo://app?vid=9a466413-7640-4d63-a20a-7a07fa89391e"},"vehicle_type_id":"4","last_reported":1745410788,"current_range_meters":3200,"station_id":"ce4bgn12rcd13ifvqbt0","pricing_plan_id":"cebpf4jnsgd1na2vs0mg"},{"bike_id":"f55e462f-3db3-47fc-92e4-121fc7b4f89d","system_id":"levelo_inurba_marseille","lat":43.296162,"lon":5.373976,"is_reserved":false,"is_disabled":false,"rental_uris":{"android":"levelo://app?vid=f55e462f-3db3-47fc-92e4-121fc7b4f89d","ios":"levelo://app?vid=f55e462f-3db3-47fc-92e4-121fc7b4f89d"},"vehicle_type_id":"4","last_reported":1745410788,"current_range_meters":3200,"station_id":"","pricing_plan_id":"cebpf4jnsgd1na2vs0mg"},{"bike_id":"73b72fc2-8e36-42f1-a670-fb49e0acace7","system_id":"levelo_inurba_marseille","lat":43.28716,"lon":5.37946,"is_reserved":false,"is_disabled":false,"rental_uris":{"android":"levelo://app?vid=73b72fc2-8e36-42f1-a670-fb49e0acace7","ios":"levelo://app?vid=73b72fc2-8e36-42f1-a670-fb49e0acace7"},"vehicle_type_id":"4","last_reported":1745410788,"current_range_meters":3200,"station_id":"ce4bh9p2rcd13ifvqec0","pricing_plan_id":"cebpf4jnsgd1na2vs0mg"},{"bike_id":"9d14915f-7652-40ff-88b3-21c12ebc8e94","system_id":"levelo_inurba_marseille","lat":43.290585,"lon":5.356016,"is_reserved":false,"is_disabled":false,"rental_uris":{"android":"levelo://app?vid=9d14915f-7652-40ff-88b3-21c12ebc8e94","ios":"levelo://app?vid=9d14915f-7652-40ff-88b3-21c12ebc8e94"},"vehicle_type_id":"4","last_reported":1745410788,"current_range_meters":3600,"station_id":"ce4bhb92rcd13ifvqen0","pricing_plan_id":"cebpf4jnsgd1na2vs0mg"},{"bike_id":"46deeb45-9e0a-4b30-bac2-9bccefe401ed","system_id":"levelo_inurba_marseille","lat":43.27366,"lon":5.36249,"is_reserved":false,"is_disabled":false,"rental_uris":{"android":"levelo://app?vid=46deeb45-9e0a-4b30-bac2-9bccefe401ed","ios":"levelo://app?vid=46deeb45-9e0a-4b30-bac2-9bccefe401ed"},"vehicle_type_id":"4","last_reported":1745410788,"current_range_meters":3600,"station_id":"ce4bhbh2rcd13ifvqeo0","pricing_plan_id":"cebpf4jnsgd1na2vs0mg"},{"bike_id":"b07ad998-4d92-4a45-90f7-5d03253f042d","system_id":"levelo_inurba_marseille","lat":43.25876,"lon":5.39892,"is_reserved":false,"is_disabled":false,"rental_uris":{"android":"levelo://app?vid=b07ad998-4d92-4a45-90f7-5d03253f042d","ios":"levelo://app?vid=b07ad998-4d92-4a45-90f7-5d03253f042d"},"vehicle_type_id":"4","last_reported":1745410788,"current_range_meters":3600,"station_id":"ce4bhl92rcd13ifvqghg","pricing_plan_id":"cebpf4jnsgd1na2vs0mg"},{"bike_id":"35ca16e2-99a8-4cab-87b8-cdc863f8af8a","system_id":"levelo_inurba_marseille","lat":43.24163,"lon":5.36399,"is_reserved":false,"is_disabled":false,"rental_uris":{"android":"levelo://app?vid=35ca16e2-99a8-4cab-87b8-cdc863f8af8a","ios":"levelo://app?vid=35ca16e2-99a8-4cab-87b8-cdc863f8af8a"},"vehicle_type_id":"4","last_reported":1745410788,"current_range_meters":4000,"station_id":"cpo36qri1sfpv3e86is0","pricing_plan_id":"cebpf4jnsgd1na2vs0mg"},{"bike_id":"67289e65-7144-4527-9dd7-c62b389b4b33","system_id":"levelo_inurba_marseille","lat":43.31277,"lon":5.4018,"is_reserved":false,"is_disabled":false,"rental_uris":{"android":"levelo://app?vid=67289e65-7144-4527-9dd7-c62b389b4b33","ios":"levelo://app?vid=67289e65-7144-4527-9dd7-c62b389b4b33"},"vehicle_type_id":"4","last_reported":1745410788,"current_range_meters":3600,"station_id":"ce4bh092rcd13ifvqd30","pricing_plan_id":"cebpf4jnsgd1na2vs0mg"},{"bike_id":"65dc5dda-56cb-4d93-8b3b-dbe69217e6e5","system_id":"levelo_inurba_marseille","lat":43.27618,"lon":5.36121,"is_reserved":false,"is_disabled":false,"rental_uris":{"android":"levelo://app?vid=65dc5dda-56cb-4d93-8b3b-dbe69217e6e5","ios":"levelo://app?vid=65dc5dda-56cb-4d93-8b3b-dbe69217e6e5"},"vehicle_type_id":"4","last_reported":1745410788,"current_range_meters":0,"station_id":"ce4bgj92rcd13ifvqbe0","pricing_plan_id":"cebpf4jnsgd1na2vs0mg"},{"bike_id":"34c614d5-1e78-4af9-bbc7-3ebce54fbdb1","system_id":"levelo_inurba_marseille","lat":43.30217,"lon":5.39393,"is_reserved":false,"is_disabled":false,"rental_uris":{"android":"levelo://app?vid=34c614d5-1e78-4af9-bbc7-3ebce54fbdb1","ios":"levelo://app?vid=34c614d5-1e78-4af9-bbc7-3ebce54fbdb1"},"vehicle_type_id":"4","last_reported":1745410788,"current_range_meters":4000,"station_id":"","pricing_plan_id":"cebpf4jnsgd1na2vs0mg"},{"bike_id":"322fb907-d562-429a-b282-a9770b46eff1","system_id":"levelo_inurba_marseille","lat":43.29855,"lon":5.36287,"is_reserved":false,"is_disabled":false,"rental_uris":{"android":"levelo://app?vid=322fb907-d562-429a-b282-a9770b46eff1","ios":"levelo://app?vid=322fb907-d562-429a-b282-a9770b46eff1"},"vehicle_type_id":"4","last_reported":1745410788,"current_range_meters":4000,"station_id":"ce4bgpp2rcd13ifvqc3g","pricing_plan_id":"cebpf4jnsgd1na2vs0mg"},{"bike_id":"46eb6ae3-620c-4c17-bf42-adb7a0bc2522","system_id":"levelo_inurba_marseille","lat":43.29622,"lon":5.37163,"is_reserved":false,"is_disabled":false,"rental_uris":{"android":"levelo://app?vid=46eb6ae3-620c-4c17-bf42-adb7a0bc2522","ios":"levelo://app?vid=46eb6ae3-620c-4c17-bf42-adb7a0bc2522"},"vehicle_type_id":"4","last_reported":1745410788,"current_range_meters":4000,"station_id":"ce4bgnh2rcd13ifvqc0g","pricing_plan_id":"cebpf4jnsgd1na2vs0mg"},{"bike_id":"4a0bde65-f1a5-4085-b5e6-1ae133e822df","system_id":"levelo_inurba_marseille","lat":43.255784,"lon":5.382286,"is_reserved":false,"is_disabled":false,"rental_uris":{"android":"levelo://app?vid=4a0bde65-f1a5-4085-b5e6-1ae133e822df","ios":"levelo://app?vid=4a0bde65-f1a5-4085-b5e6-1ae133e822df"},"vehicle_type_id":"4","last_reported":1745410788,"current_range_meters":4400,"station_id":"ce4bhih2rcd13ifvqfs0","pricing_plan_id":"cebpf4jnsgd1na2vs0mg"},{"bike_id":"c4644969-f9bf-4342-a987-722ad64a3032","system_id":"levelo_inurba_marseille","lat":43.2985,"lon":5.36283,"is_reserved":false,"is_disabled":false,"rental_uris":{"android":"levelo://app?vid=c4644969-f9bf-4342-a987-722ad64a3032","ios":"levelo://app?vid=c4644969-f9bf-4342-a987-722ad64a3032"},"vehicle_type_id":"4","last_reported":1745410788,"current_range_meters":4800,"station_id":"ce4bgpp2rcd13ifvqc3g","pricing_plan_id":"cebpf4jnsgd1na2vs0mg"},{"bike_id":"4333518a-764c-42e1-8df1-47fee209c5b3","system_id":"levelo_inurba_marseille","lat":43.28485,"lon":5.38421,"is_reserved":false,"is_disabled":false,"rental_uris":{"android":"levelo://app?vid=4333518a-764c-42e1-8df1-47fee209c5b3","ios":"levelo://app?vid=4333518a-764c-42e1-8df1-47fee209c5b3"},"vehicle_type_id":"4","last_reported":1745410788,"current_range_meters":4800,"station_id":"ce4bh512rcd13ifvqe3g","pricing_plan_id":"cebpf4jnsgd1na2vs0mg"},{"bike_id":"c68c7ed1-041e-4ce7-ac21-952e79dced48","system_id":"levelo_inurba_marseille","lat":43.25823,"lon":5.39447,"is_reserved":false,"is_disabled":false,"rental_uris":{"android":"levelo://app?vid=c68c7ed1-041e-4ce7-ac21-952e79dced48","ios":"levelo://app?vid=c68c7ed1-041e-4ce7-ac21-952e79dced48"},"vehicle_type_id":"4","last_reported":1745410788,"current_range_meters":4800,"station_id":"ce4bhip2rcd13ifvqft0","pricing_plan_id":"cebpf4jnsgd1na2vs0mg"},{"bike_id":"c145de60-c34b-420f-a646-915d8dd06f28","system_id":"levelo_inurba_marseille","lat":43.28441,"lon":5.39206,"is_reserved":false,"is_disabled":false,"rental_uris":{"android":"levelo://app?vid=c145de60-c34b-420f-a646-915d8dd06f28","ios":"levelo://app?vid=c145de60-c34b-420f-a646-915d8dd06f28"},"vehicle_type_id":"4","last_reported":1745410788,"current_range_meters":5600,"station_id":"ce4bhoh2rcd13ifvqh5g","pricing_plan_id":"cebpf4jnsgd1na2vs0mg"},{"bike_id":"eb71ebf8-329b-47fe-bafc-32fd11cfc6e2","system_id":"levelo_inurba_marseille","lat":43.29024,"lon":5.38646,"is_reserved":false,"is_disabled":true,"rental_uris":{"android":"levelo://app?vid=eb71ebf8-329b-47fe-bafc-32fd11cfc6e2","ios":"levelo://app?vid=eb71ebf8-329b-47fe-bafc-32fd11cfc6e2"},"vehicle_type_id":"4","last_reported":1745410788,"current_range_meters":5600,"station_id":"ce4bh4p2rcd13ifvqe0g","pricing_plan_id":"cebpf4jnsgd1na2vs0mg"},{"bike_id":"cfb16d28-7909-4a08-ad61-68c53292794a","system_id":"levelo_inurba_marseille","lat":43.231433,"lon":5.437173,"is_reserved":false,"is_disabled":false,"rental_uris":{"android":"levelo://app?vid=cfb16d28-7909-4a08-ad61-68c53292794a","ios":"levelo://app?vid=cfb16d28-7909-4a08-ad61-68c53292794a"},"vehicle_type_id":"4","last_reported":1745410788,"current_range_meters":6000,"station_id":"ce4bhmp2rcd13ifvqgog","pricing_plan_id":"cebpf4jnsgd1na2vs0mg"},{"bike_id":"3e35bc64-4443-4bcb-af58-3481783b4acb","system_id":"levelo_inurba_marseille","lat":43.25576,"lon":5.38222,"is_reserved":false,"is_disabled":false,"rental_uris":{"android":"levelo://app?vid=3e35bc64-4443-4bcb-af58-3481783b4acb","ios":"levelo://app?vid=3e35bc64-4443-4bcb-af58-3481783b4acb"},"vehicle_type_id":"4","last_reported":1745410788,"current_range_meters":6000,"station_id":"ce4bhih2rcd13ifvqfs0","pricing_plan_id":"cebpf4jnsgd1na2vs0mg"},{"bike_id":"cd9032bd-0290-4bc3-b23a-23e35b8913c0","system_id":"levelo_inurba_marseille","lat":43.22945,"lon":5.35362,"is_reserved":false,"is_disabled":false,"rental_uris":{"android":"levelo://app?vid=cd9032bd-0290-4bc3-b23a-23e35b8913c0","ios":"levelo://app?vid=cd9032bd-0290-4bc3-b23a-23e35b8913c0"},"vehicle_type_id":"4","last_reported":1745410788,"current_range_meters":6000,"station_id":"cpo3532slgdg3j2ikp40","pricing_plan_id":"cebpf4jnsgd1na2vs0mg"},{"bike_id":"e9bf06d7-6ee4-45bf-9e42-ccee2e2b6709","system_id":"levelo_inurba_marseille","lat":43.241651,"lon":5.363893,"is_reserved":false,"is_disabled":false,"rental_uris":{"android":"levelo://app?vid=e9bf06d7-6ee4-45bf-9e42-ccee2e2b6709","ios":"levelo://app?vid=e9bf06d7-6ee4-45bf-9e42-ccee2e2b6709"},"vehicle_type_id":"4","last_reported":1745410788,"current_range_meters":6400,"station_id":"cpo36qri1sfpv3e86is0","pricing_plan_id":"cebpf4jnsgd1na2vs0mg"},{"bike_id":"a754b563-0074-43f1-96d3-b51af44aee5a","system_id":"levelo_inurba_marseille","lat":43.32856,"lon":5.39181,"is_reserved":false,"is_disabled":false,"rental_uris":{"android":"levelo://app?vid=a754b563-0074-43f1-96d3-b51af44aee5a","ios":"levelo://app?vid=a754b563-0074-43f1-96d3-b51af44aee5a"},"vehicle_type_id":"4","last_reported":1745410788,"current_range_meters":6400,"station_id":"","pricing_plan_id":"cebpf4jnsgd1na2vs0mg"},{"bike_id":"37af84a6-ec07-413a-bcb5-27ffcec2ef47","system_id":"levelo_inurba_marseille","lat":43.28673,"lon":5.38658,"is_reserved":false,"is_disabled":false,"rental_uris":{"android":"levelo://app?vid=37af84a6-ec07-413a-bcb5-27ffcec2ef47","ios":"levelo://app?vid=37af84a6-ec07-413a-bcb5-27ffcec2ef47"},"vehicle_type_id":"4","last_reported":1745410788,"current_range_meters":7200,"station_id":"ce4bh492rcd13ifvqdug","pricing_plan_id":"cebpf4jnsgd1na2vs0mg"},{"bike_id":"d57e0c20-c7ba-4435-82d9-39fc26e30613","system_id":"levelo_inurba_marseille","lat":43.28424,"lon":5.34988,"is_reserved":false,"is_disabled":false,"rental_uris":{"android":"levelo://app?vid=d57e0c20-c7ba-4435-82d9-39fc26e30613","ios":"levelo://app?vid=d57e0c20-c7ba-4435-82d9-39fc26e30613"},"vehicle_type_id":"4","last_reported":1745410788,"current_range_meters":6400,"station_id":"ce4bhbh2rcd13ifvqepg","pricing_plan_id":"cebpf4jnsgd1na2vs0mg"},{"bike_id":"2ce636b4-3bcc-4d5c-8afd-a58c911f1ba0","system_id":"levelo_inurba_marseille","lat":43.29017,"lon":5.37573,"is_reserved":false,"is_disabled":false,"rental_uris":{"android":"levelo://app?vid=2ce636b4-3bcc-4d5c-8afd-a58c911f1ba0","ios":"levelo://app?vid=2ce636b4-3bcc-4d5c-8afd-a58c911f1ba0"},"vehicle_type_id":"4","last_reported":1745410788,"current_range_meters":6400,"station_id":"ce4bh692rcd13ifvqe90","pricing_plan_id":"cebpf4jnsgd1na2vs0mg"},{"bike_id":"7e85b374-a1d9-43ab-aae4-4ab5181acd65","system_id":"levelo_inurba_marseille","lat":43.29532,"lon":5.38547,"is_reserved":false,"is_disabled":false,"rental_uris":{"android":"levelo://app?vid=7e85b374-a1d9-43ab-aae4-4ab5181acd65","ios":"levelo://app?vid=7e85b374-a1d9-43ab-aae4-4ab5181acd65"},"vehicle_type_id":"4","last_reported":1745410788,"current_range_meters":6400,"station_id":"ce4bgih2rcd13ifvqba0","pricing_plan_id":"cebpf4jnsgd1na2vs0mg"},{"bike_id":"04cb011b-cb60-4711-9c6a-23a90dcf62c6","system_id":"levelo_inurba_marseille","lat":43.24386,"lon":5.37058,"is_reserved":false,"is_disabled":false,"rental_uris":{"android":"levelo://app?vid=04cb011b-cb60-4711-9c6a-23a90dcf62c6","ios":"levelo://app?vid=04cb011b-cb60-4711-9c6a-23a90dcf62c6"},"vehicle_type_id":"4","last_reported":1745410788,"current_range_meters":6800,"station_id":"ce4bhhh2rcd13ifvqfk0","pricing_plan_id":"cebpf4jnsgd1na2vs0mg"},{"bike_id":"bb4b96a0-def3-40f5-9288-68ec2867aafe","system_id":"levelo_inurba_marseille","lat":43.211947,"lon":5.350761,"is_reserved":false,"is_disabled":false,"rental_uris":{"android":"levelo://app?vid=bb4b96a0-def3-40f5-9288-68ec2867aafe","ios":"levelo://app?vid=bb4b96a0-def3-40f5-9288-68ec2867aafe"},"vehicle_type_id":"4","last_reported":1745410788,"current_range_meters":6800,"station_id":"","pricing_plan_id":"cebpf4jnsgd1na2vs0mg"},{"bike_id":"b82fd9fe-6c93-483d-bc4c-fe004f94fcdf","system_id":"levelo_inurba_marseille","lat":43.26574,"lon":5.373,"is_reserved":false,"is_disabled":false,"rental_uris":{"android":"levelo://app?vid=b82fd9fe-6c93-483d-bc4c-fe004f94fcdf","ios":"levelo://app?vid=b82fd9fe-6c93-483d-bc4c-fe004f94fcdf"},"vehicle_type_id":"4","last_reported":1745410788,"current_range_meters":6800,"station_id":"ce4bhg12rcd13ifvqf70","pricing_plan_id":"cebpf4jnsgd1na2vs0mg"},{"bike_id":"d9f10598-66a9-4c4c-8eb4-ea8f0bb34dc2","system_id":"levelo_inurba_marseille","lat":43.32539,"lon":5.4144,"is_reserved":false,"is_disabled":false,"rental_uris":{"android":"levelo://app?vid=d9f10598-66a9-4c4c-8eb4-ea8f0bb34dc2","ios":"levelo://app?vid=d9f10598-66a9-4c4c-8eb4-ea8f0bb34dc2"},"vehicle_type_id":"4","last_reported":1745410788,"current_range_meters":6800,"station_id":"ce4bhq12rcd13ifvqhhg","pricing_plan_id":"cebpf4jnsgd1na2vs0mg"},{"bike_id":"6295e082-2fa7-4f60-87f1-0adf611a16e5","system_id":"levelo_inurba_marseille","lat":43.27843,"lon":5.39212,"is_reserved":false,"is_disabled":false,"rental_uris":{"android":"levelo://app?vid=6295e082-2fa7-4f60-87f1-0adf611a16e5","ios":"levelo://app?vid=6295e082-2fa7-4f60-87f1-0adf611a16e5"},"vehicle_type_id":"4","last_reported":1745410788,"current_range_meters":8800,"station_id":"ce4bhjp2rcd13ifvqga0","pricing_plan_id":"cebpf4jnsgd1na2vs0mg"},{"bike_id":"42d3c5b5-1f93-4263-b5d2-2a48737e812c","system_id":"levelo_inurba_marseille","lat":43.30916,"lon":5.36844,"is_reserved":false,"is_disabled":false,"rental_uris":{"android":"levelo://app?vid=42d3c5b5-1f93-4263-b5d2-2a48737e812c","ios":"levelo://app?vid=42d3c5b5-1f93-4263-b5d2-2a48737e812c"},"vehicle_type_id":"4","last_reported":1745410788,"current_range_meters":7200,"station_id":"","pricing_plan_id":"cebpf4jnsgd1na2vs0mg"},{"bike_id":"2bb4dbbf-21b8-43cb-ab86-b7d00e702a08","system_id":"levelo_inurba_marseille","lat":43.330203,"lon":5.390361,"is_reserved":false,"is_disabled":false,"rental_uris":{"android":"levelo://app?vid=2bb4dbbf-21b8-43cb-ab86-b7d00e702a08","ios":"levelo://app?vid=2bb4dbbf-21b8-43cb-ab86-b7d00e702a08"},"vehicle_type_id":"4","last_reported":1745410788,"current_range_meters":7200,"station_id":"ce4bhr92rcd13ifvqhrg","pricing_plan_id":"cebpf4jnsgd1na2vs0mg"},{"bike_id":"64dbb56a-bcd6-4434-bbdc-4dd0ac5dc37b","system_id":"levelo_inurba_marseille","lat":43.29041,"lon":5.37562,"is_reserved":false,"is_disabled":false,"rental_uris":{"android":"levelo://app?vid=64dbb56a-bcd6-4434-bbdc-4dd0ac5dc37b","ios":"levelo://app?vid=64dbb56a-bcd6-4434-bbdc-4dd0ac5dc37b"},"vehicle_type_id":"4","last_reported":1745410788,"current_range_meters":9200,"station_id":"ce4bh692rcd13ifvqe90","pricing_plan_id":"cebpf4jnsgd1na2vs0mg"},{"bike_id":"8d2789be-d356-436f-bee5-111c80e6604e","system_id":"levelo_inurba_marseille","lat":43.24167,"lon":5.36388,"is_reserved":false,"is_disabled":false,"rental_uris":{"android":"levelo://app?vid=8d2789be-d356-436f-bee5-111c80e6604e","ios":"levelo://app?vid=8d2789be-d356-436f-bee5-111c80e6604e"},"vehicle_type_id":"4","last_reported":1745410788,"current_range_meters":7200,"station_id":"cpo36qri1sfpv3e86is0","pricing_plan_id":"cebpf4jnsgd1na2vs0mg"},{"bike_id":"2d5b34a8-7719-45ba-9de9-27de401223b3","system_id":"levelo_inurba_marseille","lat":43.25088,"lon":5.39522,"is_reserved":false,"is_disabled":false,"rental_uris":{"android":"levelo://app?vid=2d5b34a8-7719-45ba-9de9-27de401223b3","ios":"levelo://app?vid=2d5b34a8-7719-45ba-9de9-27de401223b3"},"vehicle_type_id":"4","last_reported":1745410788,"current_range_meters":8400,"station_id":"ce4bhm12rcd13ifvqgkg","pricing_plan_id":"cebpf4jnsgd1na2vs0mg"},{"bike_id":"ee5dda03-9c11-44af-924a-02c76adb8049","system_id":"levelo_inurba_marseille","lat":43.2418,"lon":5.3973,"is_reserved":false,"is_disabled":false,"rental_uris":{"android":"levelo://app?vid=ee5dda03-9c11-44af-924a-02c76adb8049","ios":"levelo://app?vid=ee5dda03-9c11-44af-924a-02c76adb8049"},"vehicle_type_id":"4","last_reported":1745410788,"current_range_meters":7200,"station_id":"ce4bhn12rcd13ifvqgpg","pricing_plan_id":"cebpf4jnsgd1na2vs0mg"},{"bike_id":"6013ce3f-3f5c-46fa-8bf6-7db42aad210e","system_id":"levelo_inurba_marseille","lat":43.28616,"lon":5.35098,"is_reserved":false,"is_disabled":false,"rental_uris":{"android":"levelo://app?vid=6013ce3f-3f5c-46fa-8bf6-7db42aad210e","ios":"levelo://app?vid=6013ce3f-3f5c-46fa-8bf6-7db42aad210e"},"vehicle_type_id":"4","last_reported":1745410788,"current_range_meters":7200,"station_id":"ce4bhch2rcd13ifvqeug","pricing_plan_id":"cebpf4jnsgd1na2vs0mg"},{"bike_id":"10bb30a3-ac22-4b86-9177-fda831d764d9","system_id":"levelo_inurba_marseille","lat":43.2919,"lon":5.36027,"is_reserved":false,"is_disabled":false,"rental_uris":{"android":"levelo://app?vid=10bb30a3-ac22-4b86-9177-fda831d764d9","ios":"levelo://app?vid=10bb30a3-ac22-4b86-9177-fda831d764d9"},"vehicle_type_id":"4","last_reported":1745410788,"current_range_meters":7200,"station_id":"","pricing_plan_id":"cebpf4jnsgd1na2vs0mg"},{"bike_id":"60f76300-2241-4c37-8665-8421fb752d9d","system_id":"levelo_inurba_marseille","lat":43.29922,"lon":5.37477,"is_reserved":false,"is_disabled":false,"rental_uris":{"android":"levelo://app?vid=60f76300-2241-4c37-8665-8421fb752d9d","ios":"levelo://app?vid=60f76300-2241-4c37-8665-8421fb752d9d"},"vehicle_type_id":"4","last_reported":1745410788,"current_range_meters":8000,"station_id":"ce4bgjh2rcd13ifvqbg0","pricing_plan_id":"cebpf4jnsgd1na2vs0mg"},{"bike_id":"e88ac0aa-172e-418f-9134-2e3c247b5863","system_id":"levelo_inurba_marseille","lat":43.23973,"lon":5.36619,"is_reserved":false,"is_disabled":false,"rental_uris":{"android":"levelo://app?vid=e88ac0aa-172e-418f-9134-2e3c247b5863","ios":"levelo://app?vid=e88ac0aa-172e-418f-9134-2e3c247b5863"},"vehicle_type_id":"4","last_reported":1745410788,"current_range_meters":8000,"station_id":"ce4bhi12rcd13ifvqfp0","pricing_plan_id":"cebpf4jnsgd1na2vs0mg"},{"bike_id":"8d3d203c-c49c-4deb-a007-2f93fb4b57dd","system_id":"levelo_inurba_marseille","lat":43.29924,"lon":5.43701,"is_reserved":false,"is_disabled":false,"rental_uris":{"android":"levelo://app?vid=8d3d203c-c49c-4deb-a007-2f93fb4b57dd","ios":"levelo://app?vid=8d3d203c-c49c-4deb-a007-2f93fb4b57dd"},"vehicle_type_id":"4","last_reported":1745410788,"current_range_meters":8000,"station_id":"ce4bhpp2rcd13ifvqhfg","pricing_plan_id":"cebpf4jnsgd1na2vs0mg"},{"bike_id":"00f791b3-0448-4fb6-a61d-87ad238478b1","system_id":"levelo_inurba_marseille","lat":43.30915,"lon":5.36824,"is_reserved":false,"is_disabled":false,"rental_uris":{"android":"levelo://app?vid=00f791b3-0448-4fb6-a61d-87ad238478b1","ios":"levelo://app?vid=00f791b3-0448-4fb6-a61d-87ad238478b1"},"vehicle_type_id":"4","last_reported":1745410788,"current_range_meters":8000,"station_id":"ce4bgn92rcd13ifvqbvg","pricing_plan_id":"cebpf4jnsgd1na2vs0mg"},{"bike_id":"f7767430-fc2d-48c7-8c09-a5a736a68c86","system_id":"levelo_inurba_marseille","lat":43.324966,"lon":5.365952,"is_reserved":false,"is_disabled":false,"rental_uris":{"android":"levelo://app?vid=f7767430-fc2d-48c7-8c09-a5a736a68c86","ios":"levelo://app?vid=f7767430-fc2d-48c7-8c09-a5a736a68c86"},"vehicle_type_id":"4","last_reported":1745410788,"current_range_meters":8000,"station_id":"ce4bhs12rcd13ifvqhvg","pricing_plan_id":"cebpf4jnsgd1na2vs0mg"},{"bike_id":"eb3fe0c7-a482-4961-be2d-7648fb53217d","system_id":"levelo_inurba_marseille","lat":43.28704,"lon":5.3999,"is_reserved":false,"is_disabled":false,"rental_uris":{"android":"levelo://app?vid=eb3fe0c7-a482-4961-be2d-7648fb53217d","ios":"levelo://app?vid=eb3fe0c7-a482-4961-be2d-7648fb53217d"},"vehicle_type_id":"4","last_reported":1745410788,"current_range_meters":7200,"station_id":"ce4bho92rcd13ifvqh3g","pricing_plan_id":"cebpf4jnsgd1na2vs0mg"},{"bike_id":"79675dac-e144-4c80-ad7d-c4e4d4015c07","system_id":"levelo_inurba_marseille","lat":43.3133,"lon":5.39696,"is_reserved":false,"is_disabled":false,"rental_uris":{"android":"levelo://app?vid=79675dac-e144-4c80-ad7d-c4e4d4015c07","ios":"levelo://app?vid=79675dac-e144-4c80-ad7d-c4e4d4015c07"},"vehicle_type_id":"4","last_reported":1745410788,"current_range_meters":8000,"station_id":"ce4bgvp2rcd13ifvqcu0","pricing_plan_id":"cebpf4jnsgd1na2vs0mg"},{"bike_id":"35c162b5-2f82-41ec-8bda-ea3b3b2fd3d1","system_id":"levelo_inurba_marseille","lat":43.26683,"lon":5.38271,"is_reserved":false,"is_disabled":false,"rental_uris":{"android":"levelo://app?vid=35c162b5-2f82-41ec-8bda-ea3b3b2fd3d1","ios":"levelo://app?vid=35c162b5-2f82-41ec-8bda-ea3b3b2fd3d1"},"vehicle_type_id":"4","last_reported":1745410788,"current_range_meters":8000,"station_id":"ce4bhg92rcd13ifvqf90","pricing_plan_id":"cebpf4jnsgd1na2vs0mg"},{"bike_id":"a355a24e-4b0f-43ac-82b0-f983e6c72409","system_id":"levelo_inurba_marseille","lat":43.29538,"lon":5.38546,"is_reserved":false,"is_disabled":false,"rental_uris":{"android":"levelo://app?vid=a355a24e-4b0f-43ac-82b0-f983e6c72409","ios":"levelo://app?vid=a355a24e-4b0f-43ac-82b0-f983e6c72409"},"vehicle_type_id":"4","last_reported":1745410788,"current_range_meters":7200,"station_id":"ce4bgih2rcd13ifvqba0","pricing_plan_id":"cebpf4jnsgd1na2vs0mg"},{"bike_id":"c510f5ab-d4eb-431e-9136-6828254b4bb2","system_id":"levelo_inurba_marseille","lat":43.3234,"lon":5.40617,"is_reserved":false,"is_disabled":false,"rental_uris":{"android":"levelo://app?vid=c510f5ab-d4eb-431e-9136-6828254b4bb2","ios":"levelo://app?vid=c510f5ab-d4eb-431e-9136-6828254b4bb2"},"vehicle_type_id":"4","last_reported":1745410788,"current_range_meters":8400,"station_id":"ce4bhq92rcd13ifvqhjg","pricing_plan_id":"cebpf4jnsgd1na2vs0mg"},{"bike_id":"ff6ba0d0-efef-49a3-ad3c-0a87196dffc3","system_id":"levelo_inurba_marseille","lat":43.23148,"lon":5.43707,"is_reserved":false,"is_disabled":false,"rental_uris":{"android":"levelo://app?vid=ff6ba0d0-efef-49a3-ad3c-0a87196dffc3","ios":"levelo://app?vid=ff6ba0d0-efef-49a3-ad3c-0a87196dffc3"},"vehicle_type_id":"4","last_reported":1745410788,"current_range_meters":8400,"station_id":"ce4bhmp2rcd13ifvqgog","pricing_plan_id":"cebpf4jnsgd1na2vs0mg"},{"bike_id":"49d295cd-3277-47cc-b4e5-25644bb25753","system_id":"levelo_inurba_marseille","lat":43.30537,"lon":5.36542,"is_reserved":false,"is_disabled":false,"rental_uris":{"android":"levelo://app?vid=49d295cd-3277-47cc-b4e5-25644bb25753","ios":"levelo://app?vid=49d295cd-3277-47cc-b4e5-25644bb25753"},"vehicle_type_id":"4","last_reported":1745410788,"current_range_meters":8400,"station_id":"ce4bgs12rcd13ifvqcag","pricing_plan_id":"cebpf4jnsgd1na2vs0mg"},{"bike_id":"235425ab-6608-4385-9695-12c58e7e28f5","system_id":"levelo_inurba_marseille","lat":43.26504,"lon":5.39536,"is_reserved":false,"is_disabled":false,"rental_uris":{"android":"levelo://app?vid=235425ab-6608-4385-9695-12c58e7e28f5","ios":"levelo://app?vid=235425ab-6608-4385-9695-12c58e7e28f5"},"vehicle_type_id":"4","last_reported":1745410788,"current_range_meters":8400,"station_id":"ce4bhi12rcd13ifvqfq0","pricing_plan_id":"cebpf4jnsgd1na2vs0mg"},{"bike_id":"1b504cce-030c-4a41-9a06-582a9c682d14","system_id":"levelo_inurba_marseille","lat":43.281548,"lon":5.426469,"is_reserved":false,"is_disabled":false,"rental_uris":{"android":"levelo://app?vid=1b504cce-030c-4a41-9a06-582a9c682d14","ios":"levelo://app?vid=1b504cce-030c-4a41-9a06-582a9c682d14"},"vehicle_type_id":"4","last_reported":1745410788,"current_range_meters":8800,"station_id":"ce4bhnh2rcd13ifvqgug","pricing_plan_id":"cebpf4jnsgd1na2vs0mg"},{"bike_id":"203edac6-808a-418e-a924-a5a89c94880e","system_id":"levelo_inurba_marseille","lat":43.28134,"lon":5.378632,"is_reserved":false,"is_disabled":false,"rental_uris":{"android":"levelo://app?vid=203edac6-808a-418e-a924-a5a89c94880e","ios":"levelo://app?vid=203edac6-808a-418e-a924-a5a89c94880e"},"vehicle_type_id":"4","last_reported":1745410788,"current_range_meters":8800,"station_id":"ce4bha12rcd13ifvqee0","pricing_plan_id":"cebpf4jnsgd1na2vs0mg"},{"bike_id":"9d7cd68a-0b0d-4018-85fc-05b542aed804","system_id":"levelo_inurba_marseille","lat":43.31259,"lon":5.36841,"is_reserved":false,"is_disabled":false,"rental_uris":{"android":"levelo://app?vid=9d7cd68a-0b0d-4018-85fc-05b542aed804","ios":"levelo://app?vid=9d7cd68a-0b0d-4018-85fc-05b542aed804"},"vehicle_type_id":"4","last_reported":1745410788,"current_range_meters":8800,"station_id":"ce4bgl92rcd13ifvqbq0","pricing_plan_id":"cebpf4jnsgd1na2vs0mg"},{"bike_id":"b0adf757-07de-4737-b77c-af15182024d8","system_id":"levelo_inurba_marseille","lat":43.24178,"lon":5.39735,"is_reserved":false,"is_disabled":false,"rental_uris":{"android":"levelo://app?vid=b0adf757-07de-4737-b77c-af15182024d8","ios":"levelo://app?vid=b0adf757-07de-4737-b77c-af15182024d8"},"vehicle_type_id":"4","last_reported":1745410788,"current_range_meters":8800,"station_id":"ce4bhn12rcd13ifvqgpg","pricing_plan_id":"cebpf4jnsgd1na2vs0mg"},{"bike_id":"546076dc-951e-4fe0-b46d-14bdc8dc6da0","system_id":"levelo_inurba_marseille","lat":43.23209,"lon":5.35542,"is_reserved":false,"is_disabled":false,"rental_uris":{"android":"levelo://app?vid=546076dc-951e-4fe0-b46d-14bdc8dc6da0","ios":"levelo://app?vid=546076dc-951e-4fe0-b46d-14bdc8dc6da0"},"vehicle_type_id":"4","last_reported":1745410788,"current_range_meters":8800,"station_id":"ce4bhu92rcd13ifvqi70","pricing_plan_id":"cebpf4jnsgd1na2vs0mg"},{"bike_id":"ad890711-96af-460f-889b-baab1672ec45","system_id":"levelo_inurba_marseille","lat":43.27376,"lon":5.36261,"is_reserved":false,"is_disabled":false,"rental_uris":{"android":"levelo://app?vid=ad890711-96af-460f-889b-baab1672ec45","ios":"levelo://app?vid=ad890711-96af-460f-889b-baab1672ec45"},"vehicle_type_id":"4","last_reported":1745410788,"current_range_meters":8800,"station_id":"ce4bhbh2rcd13ifvqeo0","pricing_plan_id":"cebpf4jnsgd1na2vs0mg"},{"bike_id":"d8bcc076-a7d4-4fba-90d6-17f84918ba15","system_id":"levelo_inurba_marseille","lat":43.27063,"lon":5.40258,"is_reserved":false,"is_disabled":false,"rental_uris":{"android":"levelo://app?vid=d8bcc076-a7d4-4fba-90d6-17f84918ba15","ios":"levelo://app?vid=d8bcc076-a7d4-4fba-90d6-17f84918ba15"},"vehicle_type_id":"4","last_reported":1745410788,"current_range_meters":8800,"station_id":"ce4bhk92rcd13ifvqgc0","pricing_plan_id":"cebpf4jnsgd1na2vs0mg"},{"bike_id":"e1fd7f64-812b-4605-8138-61db8c64fbe6","system_id":"levelo_inurba_marseille","lat":43.27059,"lon":5.40263,"is_reserved":false,"is_disabled":false,"rental_uris":{"android":"levelo://app?vid=e1fd7f64-812b-4605-8138-61db8c64fbe6","ios":"levelo://app?vid=e1fd7f64-812b-4605-8138-61db8c64fbe6"},"vehicle_type_id":"4","last_reported":1745410788,"current_range_meters":8800,"station_id":"ce4bhk92rcd13ifvqgc0","pricing_plan_id":"cebpf4jnsgd1na2vs0mg"},{"bike_id":"9ab19447-bc98-4691-8454-b4a7a789d7a4","system_id":"levelo_inurba_marseille","lat":43.29898,"lon":5.39733,"is_reserved":false,"is_disabled":false,"rental_uris":{"android":"levelo://app?vid=9ab19447-bc98-4691-8454-b4a7a789d7a4","ios":"levelo://app?vid=9ab19447-bc98-4691-8454-b4a7a789d7a4"},"vehicle_type_id":"4","last_reported":1745410788,"current_range_meters":8400,"station_id":"ce4bh0h2rcd13ifvqd50","pricing_plan_id":"cebpf4jnsgd1na2vs0mg"},{"bike_id":"53dba7bd-08f4-4733-a9dd-297b3726ee50","system_id":"levelo_inurba_marseille","lat":43.29631,"lon":5.40601,"is_reserved":false,"is_disabled":false,"rental_uris":{"android":"levelo://app?vid=53dba7bd-08f4-4733-a9dd-297b3726ee50","ios":"levelo://app?vid=53dba7bd-08f4-4733-a9dd-297b3726ee50"},"vehicle_type_id":"4","last_reported":1745410788,"current_range_meters":8800,"station_id":"ce4bh0h2rcd13ifvqd60","pricing_plan_id":"cebpf4jnsgd1na2vs0mg"},{"bike_id":"5c55aae8-85a7-46b5-b8d6-7bf418753c7c","system_id":"levelo_inurba_marseille","lat":43.31333,"lon":5.39692,"is_reserved":false,"is_disabled":false,"rental_uris":{"android":"levelo://app?vid=5c55aae8-85a7-46b5-b8d6-7bf418753c7c","ios":"levelo://app?vid=5c55aae8-85a7-46b5-b8d6-7bf418753c7c"},"vehicle_type_id":"4","last_reported":1745410788,"current_range_meters":9200,"station_id":"ce4bgvp2rcd13ifvqcu0","pricing_plan_id":"cebpf4jnsgd1na2vs0mg"},{"bike_id":"5946b16d-5555-4609-80c2-5c8e33fd1689","system_id":"levelo_inurba_marseille","lat":43.30537,"lon":5.3654,"is_reserved":false,"is_disabled":false,"rental_uris":{"android":"levelo://app?vid=5946b16d-5555-4609-80c2-5c8e33fd1689","ios":"levelo://app?vid=5946b16d-5555-4609-80c2-5c8e33fd1689"},"vehicle_type_id":"4","last_reported":1745410788,"current_range_meters":9200,"station_id":"ce4bgs12rcd13ifvqcag","pricing_plan_id":"cebpf4jnsgd1na2vs0mg"},{"bike_id":"00b08297-35d6-4846-bf8a-bff6cabbfb8e","system_id":"levelo_inurba_marseille","lat":43.23194,"lon":5.35546,"is_reserved":false,"is_disabled":false,"rental_uris":{"android":"levelo://app?vid=00b08297-35d6-4846-bf8a-bff6cabbfb8e","ios":"levelo://app?vid=00b08297-35d6-4846-bf8a-bff6cabbfb8e"},"vehicle_type_id":"4","last_reported":1745410788,"current_range_meters":9200,"station_id":"ce4bhu92rcd13ifvqi70","pricing_plan_id":"cebpf4jnsgd1na2vs0mg"},{"bike_id":"34ef3343-62a2-4e83-be6b-0ac6b296b6cf","system_id":"levelo_inurba_marseille","lat":43.28473,"lon":5.38411,"is_reserved":false,"is_disabled":false,"rental_uris":{"android":"levelo://app?vid=34ef3343-62a2-4e83-be6b-0ac6b296b6cf","ios":"levelo://app?vid=34ef3343-62a2-4e83-be6b-0ac6b296b6cf"},"vehicle_type_id":"4","last_reported":1745410788,"current_range_meters":9200,"station_id":"ce4bh512rcd13ifvqe3g","pricing_plan_id":"cebpf4jnsgd1na2vs0mg"},{"bike_id":"49c0f902-eac7-4a79-adf0-d142aff51e11","system_id":"levelo_inurba_marseille","lat":43.24163,"lon":5.36394,"is_reserved":false,"is_disabled":false,"rental_uris":{"android":"levelo://app?vid=49c0f902-eac7-4a79-adf0-d142aff51e11","ios":"levelo://app?vid=49c0f902-eac7-4a79-adf0-d142aff51e11"},"vehicle_type_id":"4","last_reported":1745410788,"current_range_meters":9200,"station_id":"cpo36qri1sfpv3e86is0","pricing_plan_id":"cebpf4jnsgd1na2vs0mg"},{"bike_id":"728b7169-2c34-494f-ac43-6fdd418034b4","system_id":"levelo_inurba_marseille","lat":43.23151,"lon":5.43724,"is_reserved":false,"is_disabled":false,"rental_uris":{"android":"levelo://app?vid=728b7169-2c34-494f-ac43-6fdd418034b4","ios":"levelo://app?vid=728b7169-2c34-494f-ac43-6fdd418034b4"},"vehicle_type_id":"4","last_reported":1745410788,"current_range_meters":9600,"station_id":"ce4bhmp2rcd13ifvqgog","pricing_plan_id":"cebpf4jnsgd1na2vs0mg"},{"bike_id":"cc1cb3af-4037-43e0-8c4a-5959782df113","system_id":"levelo_inurba_marseille","lat":43.28932,"lon":5.36633,"is_reserved":false,"is_disabled":false,"rental_uris":{"android":"levelo://app?vid=cc1cb3af-4037-43e0-8c4a-5959782df113","ios":"levelo://app?vid=cc1cb3af-4037-43e0-8c4a-5959782df113"},"vehicle_type_id":"4","last_reported":1745410788,"current_range_meters":9200,"station_id":"ce4bhap2rcd13ifvqek0","pricing_plan_id":"cebpf4jnsgd1na2vs0mg"},{"bike_id":"bfd7698d-3f70-47e8-9ed2-2bd210725188","system_id":"levelo_inurba_marseille","lat":43.31225,"lon":5.36864,"is_reserved":false,"is_disabled":false,"rental_uris":{"android":"levelo://app?vid=bfd7698d-3f70-47e8-9ed2-2bd210725188","ios":"levelo://app?vid=bfd7698d-3f70-47e8-9ed2-2bd210725188"},"vehicle_type_id":"4","last_reported":1745410788,"current_range_meters":9600,"station_id":"ce4bgl92rcd13ifvqbq0","pricing_plan_id":"cebpf4jnsgd1na2vs0mg"},{"bike_id":"6d34b760-7502-4afd-8b23-00905c9e42f2","system_id":"levelo_inurba_marseille","lat":43.30537,"lon":5.36545,"is_reserved":false,"is_disabled":false,"rental_uris":{"android":"levelo://app?vid=6d34b760-7502-4afd-8b23-00905c9e42f2","ios":"levelo://app?vid=6d34b760-7502-4afd-8b23-00905c9e42f2"},"vehicle_type_id":"4","last_reported":1745410788,"current_range_meters":9600,"station_id":"ce4bgs12rcd13ifvqcag","pricing_plan_id":"cebpf4jnsgd1na2vs0mg"},{"bike_id":"28ef8c1b-d69b-4c04-86bd-ee93b4dc595b","system_id":"levelo_inurba_marseille","lat":43.29618,"lon":5.37715,"is_reserved":false,"is_disabled":false,"rental_uris":{"android":"levelo://app?vid=28ef8c1b-d69b-4c04-86bd-ee93b4dc595b","ios":"levelo://app?vid=28ef8c1b-d69b-4c04-86bd-ee93b4dc595b"},"vehicle_type_id":"4","last_reported":1745410788,"current_range_meters":10800,"station_id":"ce4bgi92rcd13ifvqb90","pricing_plan_id":"cebpf4jnsgd1na2vs0mg"},{"bike_id":"099ffe95-1522-4621-90dc-83d39ddaa82a","system_id":"levelo_inurba_marseille","lat":43.305882,"lon":5.400959,"is_reserved":false,"is_disabled":false,"rental_uris":{"android":"levelo://app?vid=099ffe95-1522-4621-90dc-83d39ddaa82a","ios":"levelo://app?vid=099ffe95-1522-4621-90dc-83d39ddaa82a"},"vehicle_type_id":"4","last_reported":1745410788,"current_range_meters":9600,"station_id":"ce4bh112rcd13ifvqda0","pricing_plan_id":"cebpf4jnsgd1na2vs0mg"},{"bike_id":"5717a1c7-e151-4553-b844-e9fc249a74bf","system_id":"levelo_inurba_marseille","lat":43.284118,"lon":5.349853,"is_reserved":false,"is_disabled":false,"rental_uris":{"android":"levelo://app?vid=5717a1c7-e151-4553-b844-e9fc249a74bf","ios":"levelo://app?vid=5717a1c7-e151-4553-b844-e9fc249a74bf"},"vehicle_type_id":"4","last_reported":1745410788,"current_range_meters":9600,"station_id":"ce4bhbh2rcd13ifvqepg","pricing_plan_id":"cebpf4jnsgd1na2vs0mg"},{"bike_id":"4fdc277a-f50f-4724-ad42-7705073a0d11","system_id":"levelo_inurba_marseille","lat":43.3254,"lon":5.41436,"is_reserved":false,"is_disabled":false,"rental_uris":{"android":"levelo://app?vid=4fdc277a-f50f-4724-ad42-7705073a0d11","ios":"levelo://app?vid=4fdc277a-f50f-4724-ad42-7705073a0d11"},"vehicle_type_id":"4","last_reported":1745410788,"current_range_meters":9600,"station_id":"ce4bhq12rcd13ifvqhhg","pricing_plan_id":"cebpf4jnsgd1na2vs0mg"},{"bike_id":"fbb6be43-75ac-4697-af84-df6581464ee0","system_id":"levelo_inurba_marseille","lat":43.23965,"lon":5.36638,"is_reserved":false,"is_disabled":false,"rental_uris":{"android":"levelo://app?vid=fbb6be43-75ac-4697-af84-df6581464ee0","ios":"levelo://app?vid=fbb6be43-75ac-4697-af84-df6581464ee0"},"vehicle_type_id":"4","last_reported":1745410788,"current_range_meters":10000,"station_id":"ce4bhi12rcd13ifvqfp0","pricing_plan_id":"cebpf4jnsgd1na2vs0mg"},{"bike_id":"05eb3e54-97b9-4bb3-8161-b00395a35549","system_id":"levelo_inurba_marseille","lat":43.25584,"lon":5.38232,"is_reserved":false,"is_disabled":false,"rental_uris":{"android":"levelo://app?vid=05eb3e54-97b9-4bb3-8161-b00395a35549","ios":"levelo://app?vid=05eb3e54-97b9-4bb3-8161-b00395a35549"},"vehicle_type_id":"4","last_reported":1745410788,"current_range_meters":10000,"station_id":"ce4bhih2rcd13ifvqfs0","pricing_plan_id":"cebpf4jnsgd1na2vs0mg"},{"bike_id":"2cb82fb4-f985-447a-bb6a-7e3bf09deebf","system_id":"levelo_inurba_marseille","lat":43.27943,"lon":5.41041,"is_reserved":false,"is_disabled":false,"rental_uris":{"android":"levelo://app?vid=2cb82fb4-f985-447a-bb6a-7e3bf09deebf","ios":"levelo://app?vid=2cb82fb4-f985-447a-bb6a-7e3bf09deebf"},"vehicle_type_id":"4","last_reported":1745410788,"current_range_meters":10000,"station_id":"ce4bhnp2rcd13ifvqh0g","pricing_plan_id":"cebpf4jnsgd1na2vs0mg"},{"bike_id":"11b17ab4-cdc1-4c46-8cb6-2acd431f6c30","system_id":"levelo_inurba_marseille","lat":43.27054,"lon":5.40265,"is_reserved":false,"is_disabled":false,"rental_uris":{"android":"levelo://app?vid=11b17ab4-cdc1-4c46-8cb6-2acd431f6c30","ios":"levelo://app?vid=11b17ab4-cdc1-4c46-8cb6-2acd431f6c30"},"vehicle_type_id":"4","last_reported":1745410788,"current_range_meters":10800,"station_id":"ce4bhk92rcd13ifvqgc0","pricing_plan_id":"cebpf4jnsgd1na2vs0mg"},{"bike_id":"c612583d-79c0-480f-8d78-405c84662324","system_id":"levelo_inurba_marseille","lat":43.29775,"lon":5.38118,"is_reserved":false,"is_disabled":true,"rental_uris":{"android":"levelo://app?vid=c612583d-79c0-480f-8d78-405c84662324","ios":"levelo://app?vid=c612583d-79c0-480f-8d78-405c84662324"},"vehicle_type_id":"4","last_reported":1745410788,"current_range_meters":10800,"station_id":"ce4bgip2rcd13ifvqbb0","pricing_plan_id":"cebpf4jnsgd1na2vs0mg"},{"bike_id":"40864a2c-57b8-4712-94b4-df37369751e9","system_id":"levelo_inurba_marseille","lat":43.29898,"lon":5.43671,"is_reserved":false,"is_disabled":false,"rental_uris":{"android":"levelo://app?vid=40864a2c-57b8-4712-94b4-df37369751e9","ios":"levelo://app?vid=40864a2c-57b8-4712-94b4-df37369751e9"},"vehicle_type_id":"4","last_reported":1745410788,"current_range_meters":10800,"station_id":"ce4bhpp2rcd13ifvqhfg","pricing_plan_id":"cebpf4jnsgd1na2vs0mg"},{"bike_id":"e08ed01d-b22c-48a8-8cd8-0c7d5e4e9163","system_id":"levelo_inurba_marseille","lat":43.28407,"lon":5.34978,"is_reserved":false,"is_disabled":false,"rental_uris":{"android":"levelo://app?vid=e08ed01d-b22c-48a8-8cd8-0c7d5e4e9163","ios":"levelo://app?vid=e08ed01d-b22c-48a8-8cd8-0c7d5e4e9163"},"vehicle_type_id":"4","last_reported":1745410788,"current_range_meters":10800,"station_id":"ce4bhbh2rcd13ifvqepg","pricing_plan_id":"cebpf4jnsgd1na2vs0mg"},{"bike_id":"83851056-92a1-4220-a7bd-963d20931282","system_id":"levelo_inurba_marseille","lat":43.29704,"lon":5.37701,"is_reserved":false,"is_disabled":false,"rental_uris":{"android":"levelo://app?vid=83851056-92a1-4220-a7bd-963d20931282","ios":"levelo://app?vid=83851056-92a1-4220-a7bd-963d20931282"},"vehicle_type_id":"4","last_reported":1745410788,"current_range_meters":10800,"station_id":"ce4bgkh2rcd13ifvqbl0","pricing_plan_id":"cebpf4jnsgd1na2vs0mg"},{"bike_id":"78664173-fd82-466b-ba70-2aab38780411","system_id":"levelo_inurba_marseille","lat":43.23207,"lon":5.35571,"is_reserved":false,"is_disabled":false,"rental_uris":{"android":"levelo://app?vid=78664173-fd82-466b-ba70-2aab38780411","ios":"levelo://app?vid=78664173-fd82-466b-ba70-2aab38780411"},"vehicle_type_id":"4","last_reported":1745410788,"current_range_meters":11200,"station_id":"ce4bhu92rcd13ifvqi70","pricing_plan_id":"cebpf4jnsgd1na2vs0mg"},{"bike_id":"3b163d06-e384-4a29-a1a7-6e37ca4bdaa2","system_id":"levelo_inurba_marseille","lat":43.29681,"lon":5.37299,"is_reserved":false,"is_disabled":false,"rental_uris":{"android":"levelo://app?vid=3b163d06-e384-4a29-a1a7-6e37ca4bdaa2","ios":"levelo://app?vid=3b163d06-e384-4a29-a1a7-6e37ca4bdaa2"},"vehicle_type_id":"4","last_reported":1745410788,"current_range_meters":10800,"station_id":"ce4bgk12rcd13ifvqbj0","pricing_plan_id":"cebpf4jnsgd1na2vs0mg"},{"bike_id":"58eae0cc-d519-41e9-ab72-b90b259818ed","system_id":"levelo_inurba_marseille","lat":43.30894,"lon":5.396571,"is_reserved":false,"is_disabled":false,"rental_uris":{"android":"levelo://app?vid=58eae0cc-d519-41e9-ab72-b90b259818ed","ios":"levelo://app?vid=58eae0cc-d519-41e9-ab72-b90b259818ed"},"vehicle_type_id":"4","last_reported":1745410788,"current_range_meters":11200,"station_id":"ce4bh092rcd13ifvqd20","pricing_plan_id":"cebpf4jnsgd1na2vs0mg"},{"bike_id":"d5ce9b12-bedb-486d-98cf-3ebe769addff","system_id":"levelo_inurba_marseille","lat":43.299,"lon":5.43675,"is_reserved":false,"is_disabled":false,"rental_uris":{"android":"levelo://app?vid=d5ce9b12-bedb-486d-98cf-3ebe769addff","ios":"levelo://app?vid=d5ce9b12-bedb-486d-98cf-3ebe769addff"},"vehicle_type_id":"4","last_reported":1745410788,"current_range_meters":11200,"station_id":"ce4bhpp2rcd13ifvqhfg","pricing_plan_id":"cebpf4jnsgd1na2vs0mg"},{"bike_id":"33c9de7b-1662-4e3f-8bf7-663bfd518365","system_id":"levelo_inurba_marseille","lat":43.276229,"lon":5.361106,"is_reserved":false,"is_disabled":false,"rental_uris":{"android":"levelo://app?vid=33c9de7b-1662-4e3f-8bf7-663bfd518365","ios":"levelo://app?vid=33c9de7b-1662-4e3f-8bf7-663bfd518365"},"vehicle_type_id":"4","last_reported":1745410788,"current_range_meters":11200,"station_id":"","pricing_plan_id":"cebpf4jnsgd1na2vs0mg"},{"bike_id":"49f26039-908e-49e8-bafd-d0e1f8c74636","system_id":"levelo_inurba_marseille","lat":43.29753,"lon":5.36178,"is_reserved":false,"is_disabled":false,"rental_uris":{"android":"levelo://app?vid=49f26039-908e-49e8-bafd-d0e1f8c74636","ios":"levelo://app?vid=49f26039-908e-49e8-bafd-d0e1f8c74636"},"vehicle_type_id":"4","last_reported":1745410788,"current_range_meters":11600,"station_id":"","pricing_plan_id":"cebpf4jnsgd1na2vs0mg"},{"bike_id":"29557cd6-e30c-4193-97f9-eb19785da0d9","system_id":"levelo_inurba_marseille","lat":43.30906,"lon":5.3689,"is_reserved":false,"is_disabled":false,"rental_uris":{"android":"levelo://app?vid=29557cd6-e30c-4193-97f9-eb19785da0d9","ios":"levelo://app?vid=29557cd6-e30c-4193-97f9-eb19785da0d9"},"vehicle_type_id":"4","last_reported":1745410788,"current_range_meters":11200,"station_id":"ce4bgn92rcd13ifvqbvg","pricing_plan_id":"cebpf4jnsgd1na2vs0mg"},{"bike_id":"5546f93c-c7eb-4a36-b1e9-022b7fc99074","system_id":"levelo_inurba_marseille","lat":43.23194,"lon":5.35555,"is_reserved":false,"is_disabled":false,"rental_uris":{"android":"levelo://app?vid=5546f93c-c7eb-4a36-b1e9-022b7fc99074","ios":"levelo://app?vid=5546f93c-c7eb-4a36-b1e9-022b7fc99074"},"vehicle_type_id":"4","last_reported":1745410788,"current_range_meters":11600,"station_id":"ce4bhu92rcd13ifvqi70","pricing_plan_id":"cebpf4jnsgd1na2vs0mg"},{"bike_id":"0e07d52e-e643-4c2e-a9a0-f081afe4d305","system_id":"levelo_inurba_marseille","lat":43.23056,"lon":5.35488,"is_reserved":false,"is_disabled":false,"rental_uris":{"android":"levelo://app?vid=0e07d52e-e643-4c2e-a9a0-f081afe4d305","ios":"levelo://app?vid=0e07d52e-e643-4c2e-a9a0-f081afe4d305"},"vehicle_type_id":"4","last_reported":1745410788,"current_range_meters":11600,"station_id":"cpo3342slgdg3j2ifvpg","pricing_plan_id":"cebpf4jnsgd1na2vs0mg"},{"bike_id":"c542efc1-9241-49ad-a82c-6a2030fa9fc1","system_id":"levelo_inurba_marseille","lat":43.27379,"lon":5.36275,"is_reserved":false,"is_disabled":false,"rental_uris":{"android":"levelo://app?vid=c542efc1-9241-49ad-a82c-6a2030fa9fc1","ios":"levelo://app?vid=c542efc1-9241-49ad-a82c-6a2030fa9fc1"},"vehicle_type_id":"4","last_reported":1745410788,"current_range_meters":11600,"station_id":"ce4bhbh2rcd13ifvqeo0","pricing_plan_id":"cebpf4jnsgd1na2vs0mg"},{"bike_id":"67131355-bc71-4d54-9739-c36701821609","system_id":"levelo_inurba_marseille","lat":43.24808,"lon":5.3746,"is_reserved":false,"is_disabled":false,"rental_uris":{"android":"levelo://app?vid=67131355-bc71-4d54-9739-c36701821609","ios":"levelo://app?vid=67131355-bc71-4d54-9739-c36701821609"},"vehicle_type_id":"4","last_reported":1745410788,"current_range_meters":11600,"station_id":"ce4bhgh2rcd13ifvqfb0","pricing_plan_id":"cebpf4jnsgd1na2vs0mg"},{"bike_id":"513fa858-5569-4ae2-b6f2-b193ab8bf454","system_id":"levelo_inurba_marseille","lat":43.26552,"lon":5.37287,"is_reserved":false,"is_disabled":false,"rental_uris":{"android":"levelo://app?vid=513fa858-5569-4ae2-b6f2-b193ab8bf454","ios":"levelo://app?vid=513fa858-5569-4ae2-b6f2-b193ab8bf454"},"vehicle_type_id":"4","last_reported":1745410788,"current_range_meters":11600,"station_id":"ce4bhg12rcd13ifvqf70","pricing_plan_id":"cebpf4jnsgd1na2vs0mg"},{"bike_id":"f5c5552e-3dbb-479f-b379-f48c71109c39","system_id":"levelo_inurba_marseille","lat":43.26795,"lon":5.39411,"is_reserved":false,"is_disabled":false,"rental_uris":{"android":"levelo://app?vid=f5c5552e-3dbb-479f-b379-f48c71109c39","ios":"levelo://app?vid=f5c5552e-3dbb-479f-b379-f48c71109c39"},"vehicle_type_id":"4","last_reported":1745410788,"current_range_meters":11600,"station_id":"ce4bhh12rcd13ifvqfg0","pricing_plan_id":"cebpf4jnsgd1na2vs0mg"},{"bike_id":"d1f64bec-0f11-420b-b6eb-98c774bf5b6c","system_id":"levelo_inurba_marseille","lat":43.28272,"lon":5.35057,"is_reserved":false,"is_disabled":false,"rental_uris":{"android":"levelo://app?vid=d1f64bec-0f11-420b-b6eb-98c774bf5b6c","ios":"levelo://app?vid=d1f64bec-0f11-420b-b6eb-98c774bf5b6c"},"vehicle_type_id":"4","last_reported":1745410788,"current_range_meters":12000,"station_id":"ce4bhbp2rcd13ifvqerg","pricing_plan_id":"cebpf4jnsgd1na2vs0mg"},{"bike_id":"f31bee90-1c13-4189-9679-0326782d9854","system_id":"levelo_inurba_marseille","lat":43.31765,"lon":5.39015,"is_reserved":false,"is_disabled":false,"rental_uris":{"android":"levelo://app?vid=f31bee90-1c13-4189-9679-0326782d9854","ios":"levelo://app?vid=f31bee90-1c13-4189-9679-0326782d9854"},"vehicle_type_id":"4","last_reported":1745410788,"current_range_meters":12400,"station_id":"ce4bhqp2rcd13ifvqhng","pricing_plan_id":"cebpf4jnsgd1na2vs0mg"},{"bike_id":"fe9a0b76-50b8-421c-bb48-9d67be0909ab","system_id":"levelo_inurba_marseille","lat":43.23149,"lon":5.43727,"is_reserved":false,"is_disabled":false,"rental_uris":{"android":"levelo://app?vid=fe9a0b76-50b8-421c-bb48-9d67be0909ab","ios":"levelo://app?vid=fe9a0b76-50b8-421c-bb48-9d67be0909ab"},"vehicle_type_id":"4","last_reported":1745410788,"current_range_meters":12400,"station_id":"ce4bhmp2rcd13ifvqgog","pricing_plan_id":"cebpf4jnsgd1na2vs0mg"},{"bike_id":"abd226a8-d003-4133-b9d2-b7c952b7ead1","system_id":"levelo_inurba_marseille","lat":43.23058,"lon":5.35487,"is_reserved":false,"is_disabled":false,"rental_uris":{"android":"levelo://app?vid=abd226a8-d003-4133-b9d2-b7c952b7ead1","ios":"levelo://app?vid=abd226a8-d003-4133-b9d2-b7c952b7ead1"},"vehicle_type_id":"4","last_reported":1745410788,"current_range_meters":12400,"station_id":"cpo3342slgdg3j2ifvpg","pricing_plan_id":"cebpf4jnsgd1na2vs0mg"},{"bike_id":"f36d089e-788c-4bd3-9198-e8cacf91e002","system_id":"levelo_inurba_marseille","lat":43.31213,"lon":5.36884,"is_reserved":false,"is_disabled":false,"rental_uris":{"android":"levelo://app?vid=f36d089e-788c-4bd3-9198-e8cacf91e002","ios":"levelo://app?vid=f36d089e-788c-4bd3-9198-e8cacf91e002"},"vehicle_type_id":"4","last_reported":1745410788,"current_range_meters":12400,"station_id":"ce4bgl92rcd13ifvqbq0","pricing_plan_id":"cebpf4jnsgd1na2vs0mg"},{"bike_id":"d269e365-83a9-45c0-a749-19c48e102eb9","system_id":"levelo_inurba_marseille","lat":43.30536,"lon":5.36548,"is_reserved":false,"is_disabled":false,"rental_uris":{"android":"levelo://app?vid=d269e365-83a9-45c0-a749-19c48e102eb9","ios":"levelo://app?vid=d269e365-83a9-45c0-a749-19c48e102eb9"},"vehicle_type_id":"4","last_reported":1745410788,"current_range_meters":12400,"station_id":"ce4bgs12rcd13ifvqcag","pricing_plan_id":"cebpf4jnsgd1na2vs0mg"},{"bike_id":"b96d48d5-fc65-423b-9a30-5d2c864e8939","system_id":"levelo_inurba_marseille","lat":43.225,"lon":5.3479,"is_reserved":false,"is_disabled":false,"rental_uris":{"android":"levelo://app?vid=b96d48d5-fc65-423b-9a30-5d2c864e8939","ios":"levelo://app?vid=b96d48d5-fc65-423b-9a30-5d2c864e8939"},"vehicle_type_id":"4","last_reported":1745410788,"current_range_meters":12800,"station_id":"st_cvj5dfep6f1abm77gieg","pricing_plan_id":"cebpf4jnsgd1na2vs0mg"},{"bike_id":"51d87f7d-c380-45af-bf37-43f302972e73","system_id":"levelo_inurba_marseille","lat":43.29529,"lon":5.39037,"is_reserved":false,"is_disabled":false,"rental_uris":{"android":"levelo://app?vid=51d87f7d-c380-45af-bf37-43f302972e73","ios":"levelo://app?vid=51d87f7d-c380-45af-bf37-43f302972e73"},"vehicle_type_id":"4","last_reported":1745410788,"current_range_meters":15200,"station_id":"ce4bh3p2rcd13ifvqdp0","pricing_plan_id":"cebpf4jnsgd1na2vs0mg"},{"bike_id":"c7141070-bfe4-4ff3-86cf-a869bb61d1eb","system_id":"levelo_inurba_marseille","lat":43.28267,"lon":5.35072,"is_reserved":false,"is_disabled":false,"rental_uris":{"android":"levelo://app?vid=c7141070-bfe4-4ff3-86cf-a869bb61d1eb","ios":"levelo://app?vid=c7141070-bfe4-4ff3-86cf-a869bb61d1eb"},"vehicle_type_id":"4","last_reported":1745410788,"current_range_meters":12800,"station_id":"ce4bhbp2rcd13ifvqerg","pricing_plan_id":"cebpf4jnsgd1na2vs0mg"},{"bike_id":"688caaf3-ab91-4e9e-b3ad-9be627bd4609","system_id":"levelo_inurba_marseille","lat":43.231479,"lon":5.437283,"is_reserved":false,"is_disabled":false,"rental_uris":{"android":"levelo://app?vid=688caaf3-ab91-4e9e-b3ad-9be627bd4609","ios":"levelo://app?vid=688caaf3-ab91-4e9e-b3ad-9be627bd4609"},"vehicle_type_id":"4","last_reported":1745410788,"current_range_meters":12800,"station_id":"ce4bhmp2rcd13ifvqgog","pricing_plan_id":"cebpf4jnsgd1na2vs0mg"},{"bike_id":"5654bb20-d7f4-42f3-a804-9e5bdd351297","system_id":"levelo_inurba_marseille","lat":43.23967,"lon":5.36629,"is_reserved":false,"is_disabled":false,"rental_uris":{"android":"levelo://app?vid=5654bb20-d7f4-42f3-a804-9e5bdd351297","ios":"levelo://app?vid=5654bb20-d7f4-42f3-a804-9e5bdd351297"},"vehicle_type_id":"4","last_reported":1745410788,"current_range_meters":12800,"station_id":"ce4bhi12rcd13ifvqfp0","pricing_plan_id":"cebpf4jnsgd1na2vs0mg"},{"bike_id":"fc95c022-5d99-4883-976b-3e014c5a3389","system_id":"levelo_inurba_marseille","lat":43.23147,"lon":5.43715,"is_reserved":false,"is_disabled":false,"rental_uris":{"android":"levelo://app?vid=fc95c022-5d99-4883-976b-3e014c5a3389","ios":"levelo://app?vid=fc95c022-5d99-4883-976b-3e014c5a3389"},"vehicle_type_id":"4","last_reported":1745410788,"current_range_meters":12800,"station_id":"ce4bhmp2rcd13ifvqgog","pricing_plan_id":"cebpf4jnsgd1na2vs0mg"},{"bike_id":"1722a673-2297-42bc-8c04-e0ec249871b0","system_id":"levelo_inurba_marseille","lat":43.2993,"lon":5.36543,"is_reserved":false,"is_disabled":false,"rental_uris":{"android":"levelo://app?vid=1722a673-2297-42bc-8c04-e0ec249871b0","ios":"levelo://app?vid=1722a673-2297-42bc-8c04-e0ec249871b0"},"vehicle_type_id":"4","last_reported":1745410788,"current_range_meters":13600,"station_id":"ce4bgm92rcd13ifvqbr0","pricing_plan_id":"cebpf4jnsgd1na2vs0mg"},{"bike_id":"ae2607c9-27d0-4814-bc50-d40a7c41d115","system_id":"levelo_inurba_marseille","lat":43.30177,"lon":5.39339,"is_reserved":false,"is_disabled":false,"rental_uris":{"android":"levelo://app?vid=ae2607c9-27d0-4814-bc50-d40a7c41d115","ios":"levelo://app?vid=ae2607c9-27d0-4814-bc50-d40a7c41d115"},"vehicle_type_id":"4","last_reported":1745410788,"current_range_meters":13600,"station_id":"","pricing_plan_id":"cebpf4jnsgd1na2vs0mg"},{"bike_id":"4b4c75c7-110a-47da-88aa-7892c928e931","system_id":"levelo_inurba_marseille","lat":43.25578,"lon":5.38229,"is_reserved":false,"is_disabled":false,"rental_uris":{"android":"levelo://app?vid=4b4c75c7-110a-47da-88aa-7892c928e931","ios":"levelo://app?vid=4b4c75c7-110a-47da-88aa-7892c928e931"},"vehicle_type_id":"4","last_reported":1745410788,"current_range_meters":13600,"station_id":"ce4bhih2rcd13ifvqfs0","pricing_plan_id":"cebpf4jnsgd1na2vs0mg"},{"bike_id":"21a2dcef-6c92-4d3a-8bd7-339cec325153","system_id":"levelo_inurba_marseille","lat":43.21751,"lon":5.34603,"is_reserved":false,"is_disabled":false,"rental_uris":{"android":"levelo://app?vid=21a2dcef-6c92-4d3a-8bd7-339cec325153","ios":"levelo://app?vid=21a2dcef-6c92-4d3a-8bd7-339cec325153"},"vehicle_type_id":"4","last_reported":1745410788,"current_range_meters":13600,"station_id":"st_cvj6r9ubvosntc0bgbag","pricing_plan_id":"cebpf4jnsgd1na2vs0mg"},{"bike_id":"3e8f0127-96fd-4fdd-97f2-be6e836f9523","system_id":"levelo_inurba_marseille","lat":43.3377,"lon":5.37443,"is_reserved":false,"is_disabled":false,"rental_uris":{"android":"levelo://app?vid=3e8f0127-96fd-4fdd-97f2-be6e836f9523","ios":"levelo://app?vid=3e8f0127-96fd-4fdd-97f2-be6e836f9523"},"vehicle_type_id":"4","last_reported":1745410788,"current_range_meters":13600,"station_id":"","pricing_plan_id":"cebpf4jnsgd1na2vs0mg"},{"bike_id":"d9a8a967-1d8e-4fd1-a587-16ce70ac5d65","system_id":"levelo_inurba_marseille","lat":43.2558,"lon":5.38242,"is_reserved":false,"is_disabled":false,"rental_uris":{"android":"levelo://app?vid=d9a8a967-1d8e-4fd1-a587-16ce70ac5d65","ios":"levelo://app?vid=d9a8a967-1d8e-4fd1-a587-16ce70ac5d65"},"vehicle_type_id":"4","last_reported":1745410788,"current_range_meters":14000,"station_id":"ce4bhih2rcd13ifvqfs0","pricing_plan_id":"cebpf4jnsgd1na2vs0mg"},{"bike_id":"1b8b7145-49a7-4fe1-96a2-72a1d6e84a54","system_id":"levelo_inurba_marseille","lat":43.23066,"lon":5.35484,"is_reserved":false,"is_disabled":false,"rental_uris":{"android":"levelo://app?vid=1b8b7145-49a7-4fe1-96a2-72a1d6e84a54","ios":"levelo://app?vid=1b8b7145-49a7-4fe1-96a2-72a1d6e84a54"},"vehicle_type_id":"4","last_reported":1745410788,"current_range_meters":14000,"station_id":"cpo3342slgdg3j2ifvpg","pricing_plan_id":"cebpf4jnsgd1na2vs0mg"},{"bike_id":"9c9027e2-66e9-4f39-8cb3-44bd771afc59","system_id":"levelo_inurba_marseille","lat":43.26795,"lon":5.39412,"is_reserved":false,"is_disabled":false,"rental_uris":{"android":"levelo://app?vid=9c9027e2-66e9-4f39-8cb3-44bd771afc59","ios":"levelo://app?vid=9c9027e2-66e9-4f39-8cb3-44bd771afc59"},"vehicle_type_id":"4","last_reported":1745410788,"current_range_meters":14400,"station_id":"ce4bhh12rcd13ifvqfg0","pricing_plan_id":"cebpf4jnsgd1na2vs0mg"},{"bike_id":"b597f496-e2eb-4b69-83e0-d99c4479c16a","system_id":"levelo_inurba_marseille","lat":43.25582,"lon":5.38242,"is_reserved":false,"is_disabled":false,"rental_uris":{"android":"levelo://app?vid=b597f496-e2eb-4b69-83e0-d99c4479c16a","ios":"levelo://app?vid=b597f496-e2eb-4b69-83e0-d99c4479c16a"},"vehicle_type_id":"4","last_reported":1745410788,"current_range_meters":14400,"station_id":"ce4bhih2rcd13ifvqfs0","pricing_plan_id":"cebpf4jnsgd1na2vs0mg"},{"bike_id":"e74b7f13-f590-45e0-b15c-6eb5e48a77a9","system_id":"levelo_inurba_marseille","lat":43.28268,"lon":5.35072,"is_reserved":false,"is_disabled":false,"rental_uris":{"android":"levelo://app?vid=e74b7f13-f590-45e0-b15c-6eb5e48a77a9","ios":"levelo://app?vid=e74b7f13-f590-45e0-b15c-6eb5e48a77a9"},"vehicle_type_id":"4","last_reported":1745410788,"current_range_meters":14400,"station_id":"ce4bhbp2rcd13ifvqerg","pricing_plan_id":"cebpf4jnsgd1na2vs0mg"},{"bike_id":"ad435124-c9e7-428b-b34f-4515a72c402c","system_id":"levelo_inurba_marseille","lat":43.27375,"lon":5.36261,"is_reserved":false,"is_disabled":false,"rental_uris":{"android":"levelo://app?vid=ad435124-c9e7-428b-b34f-4515a72c402c","ios":"levelo://app?vid=ad435124-c9e7-428b-b34f-4515a72c402c"},"vehicle_type_id":"4","last_reported":1745410788,"current_range_meters":14400,"station_id":"ce4bhbh2rcd13ifvqeo0","pricing_plan_id":"cebpf4jnsgd1na2vs0mg"},{"bike_id":"4b8921bc-5aaf-4418-89cf-4d61eddbd7dc","system_id":"levelo_inurba_marseille","lat":43.29585,"lon":5.36748,"is_reserved":false,"is_disabled":false,"rental_uris":{"android":"levelo://app?vid=4b8921bc-5aaf-4418-89cf-4d61eddbd7dc","ios":"levelo://app?vid=4b8921bc-5aaf-4418-89cf-4d61eddbd7dc"},"vehicle_type_id":"4","last_reported":1745410788,"current_range_meters":14800,"station_id":"ce4bgph2rcd13ifvqc2g","pricing_plan_id":"cebpf4jnsgd1na2vs0mg"},{"bike_id":"daf442ce-5346-4d40-a0b5-203393fcc7ea","system_id":"levelo_inurba_marseille","lat":43.32654,"lon":5.40984,"is_reserved":false,"is_disabled":false,"rental_uris":{"android":"levelo://app?vid=daf442ce-5346-4d40-a0b5-203393fcc7ea","ios":"levelo://app?vid=daf442ce-5346-4d40-a0b5-203393fcc7ea"},"vehicle_type_id":"4","last_reported":1745410788,"current_range_meters":14800,"station_id":"ce4bhpp2rcd13ifvqhgg","pricing_plan_id":"cebpf4jnsgd1na2vs0mg"},{"bike_id":"ac9bebdb-d4a6-4b09-8175-bbc5cbbebca7","system_id":"levelo_inurba_marseille","lat":43.24806,"lon":5.37459,"is_reserved":false,"is_disabled":false,"rental_uris":{"android":"levelo://app?vid=ac9bebdb-d4a6-4b09-8175-bbc5cbbebca7","ios":"levelo://app?vid=ac9bebdb-d4a6-4b09-8175-bbc5cbbebca7"},"vehicle_type_id":"4","last_reported":1745410788,"current_range_meters":15200,"station_id":"ce4bhgh2rcd13ifvqfb0","pricing_plan_id":"cebpf4jnsgd1na2vs0mg"},{"bike_id":"2065a991-88db-4d6d-9b66-af21d16b8cae","system_id":"levelo_inurba_marseille","lat":43.30884,"lon":5.39631,"is_reserved":false,"is_disabled":false,"rental_uris":{"android":"levelo://app?vid=2065a991-88db-4d6d-9b66-af21d16b8cae","ios":"levelo://app?vid=2065a991-88db-4d6d-9b66-af21d16b8cae"},"vehicle_type_id":"4","last_reported":1745410788,"current_range_meters":15200,"station_id":"ce4bh012rcd13ifvqcv0","pricing_plan_id":"cebpf4jnsgd1na2vs0mg"},{"bike_id":"e99ec399-05b5-4a5a-92a9-7e03e246fb84","system_id":"levelo_inurba_marseille","lat":43.29536,"lon":5.38546,"is_reserved":false,"is_disabled":false,"rental_uris":{"android":"levelo://app?vid=e99ec399-05b5-4a5a-92a9-7e03e246fb84","ios":"levelo://app?vid=e99ec399-05b5-4a5a-92a9-7e03e246fb84"},"vehicle_type_id":"4","last_reported":1745410788,"current_range_meters":14800,"station_id":"ce4bgih2rcd13ifvqba0","pricing_plan_id":"cebpf4jnsgd1na2vs0mg"},{"bike_id":"b1cec82b-7bd6-4bb1-b5e7-1380740753b3","system_id":"levelo_inurba_marseille","lat":43.24388,"lon":5.37065,"is_reserved":false,"is_disabled":false,"rental_uris":{"android":"levelo://app?vid=b1cec82b-7bd6-4bb1-b5e7-1380740753b3","ios":"levelo://app?vid=b1cec82b-7bd6-4bb1-b5e7-1380740753b3"},"vehicle_type_id":"4","last_reported":1745410788,"current_range_meters":16000,"station_id":"ce4bhhh2rcd13ifvqfk0","pricing_plan_id":"cebpf4jnsgd1na2vs0mg"},{"bike_id":"286dbcac-6354-448b-a599-cb4c70c47ee9","system_id":"levelo_inurba_marseille","lat":43.2925,"lon":5.37627,"is_reserved":false,"is_disabled":false,"rental_uris":{"android":"levelo://app?vid=286dbcac-6354-448b-a599-cb4c70c47ee9","ios":"levelo://app?vid=286dbcac-6354-448b-a599-cb4c70c47ee9"},"vehicle_type_id":"4","last_reported":1745410788,"current_range_meters":16000,"station_id":"ce4bgi12rcd13ifvqb80","pricing_plan_id":"cebpf4jnsgd1na2vs0mg"},{"bike_id":"b07fbc95-fd95-41f2-9d12-d968c26f4585","system_id":"levelo_inurba_marseille","lat":43.28944,"lon":5.39639,"is_reserved":false,"is_disabled":false,"rental_uris":{"android":"levelo://app?vid=b07fbc95-fd95-41f2-9d12-d968c26f4585","ios":"levelo://app?vid=b07fbc95-fd95-41f2-9d12-d968c26f4585"},"vehicle_type_id":"4","last_reported":1745410788,"current_range_meters":16000,"station_id":"ce4bh3h2rcd13ifvqdn0","pricing_plan_id":"cebpf4jnsgd1na2vs0mg"},{"bike_id":"7a4b6298-f4e2-4124-8bef-23c13f4c5654","system_id":"levelo_inurba_marseille","lat":43.28084,"lon":5.39668,"is_reserved":false,"is_disabled":false,"rental_uris":{"android":"levelo://app?vid=7a4b6298-f4e2-4124-8bef-23c13f4c5654","ios":"levelo://app?vid=7a4b6298-f4e2-4124-8bef-23c13f4c5654"},"vehicle_type_id":"4","last_reported":1745410788,"current_range_meters":16000,"station_id":"ce4bho12rcd13ifvqh2g","pricing_plan_id":"cebpf4jnsgd1na2vs0mg"},{"bike_id":"fb5beae2-acc2-4671-8960-ca0b844c97d8","system_id":"levelo_inurba_marseille","lat":43.32655,"lon":5.40994,"is_reserved":false,"is_disabled":false,"rental_uris":{"android":"levelo://app?vid=fb5beae2-acc2-4671-8960-ca0b844c97d8","ios":"levelo://app?vid=fb5beae2-acc2-4671-8960-ca0b844c97d8"},"vehicle_type_id":"4","last_reported":1745410788,"current_range_meters":16400,"station_id":"ce4bhpp2rcd13ifvqhgg","pricing_plan_id":"cebpf4jnsgd1na2vs0mg"},{"bike_id":"46374c49-3adc-4c5a-8966-e00f056c0d57","system_id":"levelo_inurba_marseille","lat":43.27846,"lon":5.35442,"is_reserved":false,"is_disabled":false,"rental_uris":{"android":"levelo://app?vid=46374c49-3adc-4c5a-8966-e00f056c0d57","ios":"levelo://app?vid=46374c49-3adc-4c5a-8966-e00f056c0d57"},"vehicle_type_id":"4","last_reported":1745410788,"current_range_meters":16400,"station_id":"","pricing_plan_id":"cebpf4jnsgd1na2vs0mg"},{"bike_id":"49e8d0ad-4863-4a68-8bc3-65d17ecc97a3","system_id":"levelo_inurba_marseille","lat":43.301364,"lon":5.373865,"is_reserved":false,"is_disabled":false,"rental_uris":{"android":"levelo://app?vid=49e8d0ad-4863-4a68-8bc3-65d17ecc97a3","ios":"levelo://app?vid=49e8d0ad-4863-4a68-8bc3-65d17ecc97a3"},"vehicle_type_id":"4","last_reported":1745410788,"current_range_meters":16400,"station_id":"ce4bgs92rcd13ifvqcc0","pricing_plan_id":"cebpf4jnsgd1na2vs0mg"},{"bike_id":"7452ad08-346d-40d7-b69d-4d1c4f8b13d5","system_id":"levelo_inurba_marseille","lat":43.262027,"lon":5.379232,"is_reserved":false,"is_disabled":false,"rental_uris":{"android":"levelo://app?vid=7452ad08-346d-40d7-b69d-4d1c4f8b13d5","ios":"levelo://app?vid=7452ad08-346d-40d7-b69d-4d1c4f8b13d5"},"vehicle_type_id":"4","last_reported":1745410788,"current_range_meters":16400,"station_id":"ce4bhjp2rcd13ifvqg90","pricing_plan_id":"cebpf4jnsgd1na2vs0mg"},{"bike_id":"b217c7a4-92b6-4872-91fa-f2c2827250cc","system_id":"levelo_inurba_marseille","lat":43.28746,"lon":5.38942,"is_reserved":false,"is_disabled":false,"rental_uris":{"android":"levelo://app?vid=b217c7a4-92b6-4872-91fa-f2c2827250cc","ios":"levelo://app?vid=b217c7a4-92b6-4872-91fa-f2c2827250cc"},"vehicle_type_id":"4","last_reported":1745410788,"current_range_meters":16400,"station_id":"","pricing_plan_id":"cebpf4jnsgd1na2vs0mg"},{"bike_id":"f5baa355-2de1-4264-be00-31c50ccc3a3e","system_id":"levelo_inurba_marseille","lat":43.296661,"lon":5.377543,"is_reserved":false,"is_disabled":false,"rental_uris":{"android":"levelo://app?vid=f5baa355-2de1-4264-be00-31c50ccc3a3e","ios":"levelo://app?vid=f5baa355-2de1-4264-be00-31c50ccc3a3e"},"vehicle_type_id":"4","last_reported":1745410788,"current_range_meters":16400,"station_id":"ce4bh2p2rcd13ifvqdi0","pricing_plan_id":"cebpf4jnsgd1na2vs0mg"},{"bike_id":"bceb8cba-0252-464f-a7c9-f9b4548f7a27","system_id":"levelo_inurba_marseille","lat":43.28067,"lon":5.39651,"is_reserved":false,"is_disabled":true,"rental_uris":{"android":"levelo://app?vid=bceb8cba-0252-464f-a7c9-f9b4548f7a27","ios":"levelo://app?vid=bceb8cba-0252-464f-a7c9-f9b4548f7a27"},"vehicle_type_id":"4","last_reported":1745410788,"current_range_meters":16400,"station_id":"ce4bho12rcd13ifvqh2g","pricing_plan_id":"cebpf4jnsgd1na2vs0mg"},{"bike_id":"072d0c45-ef28-4731-a027-84bd3b549ce5","system_id":"levelo_inurba_marseille","lat":43.30953,"lon":5.39037,"is_reserved":false,"is_disabled":false,"rental_uris":{"android":"levelo://app?vid=072d0c45-ef28-4731-a027-84bd3b549ce5","ios":"levelo://app?vid=072d0c45-ef28-4731-a027-84bd3b549ce5"},"vehicle_type_id":"4","last_reported":1745410788,"current_range_meters":17600,"station_id":"ce4bgup2rcd13ifvqco0","pricing_plan_id":"cebpf4jnsgd1na2vs0mg"},{"bike_id":"162104c9-c9c3-41e8-9022-0f16a6a968c6","system_id":"levelo_inurba_marseille","lat":43.330224,"lon":5.390448,"is_reserved":false,"is_disabled":false,"rental_uris":{"android":"levelo://app?vid=162104c9-c9c3-41e8-9022-0f16a6a968c6","ios":"levelo://app?vid=162104c9-c9c3-41e8-9022-0f16a6a968c6"},"vehicle_type_id":"4","last_reported":1745410788,"current_range_meters":16800,"station_id":"ce4bhr92rcd13ifvqhrg","pricing_plan_id":"cebpf4jnsgd1na2vs0mg"},{"bike_id":"94201ef7-9954-4e84-be72-e2fae875cbe9","system_id":"levelo_inurba_marseille","lat":43.282715,"lon":5.350798,"is_reserved":false,"is_disabled":false,"rental_uris":{"android":"levelo://app?vid=94201ef7-9954-4e84-be72-e2fae875cbe9","ios":"levelo://app?vid=94201ef7-9954-4e84-be72-e2fae875cbe9"},"vehicle_type_id":"4","last_reported":1745410788,"current_range_meters":16800,"station_id":"ce4bh5p2rcd13ifvqe4g","pricing_plan_id":"cebpf4jnsgd1na2vs0mg"},{"bike_id":"c1693141-8dd1-4fcb-ba7b-27b0d750914c","system_id":"levelo_inurba_marseille","lat":43.28943,"lon":5.36641,"is_reserved":false,"is_disabled":false,"rental_uris":{"android":"levelo://app?vid=c1693141-8dd1-4fcb-ba7b-27b0d750914c","ios":"levelo://app?vid=c1693141-8dd1-4fcb-ba7b-27b0d750914c"},"vehicle_type_id":"4","last_reported":1745410788,"current_range_meters":8800,"station_id":"ce4bhap2rcd13ifvqek0","pricing_plan_id":"cebpf4jnsgd1na2vs0mg"},{"bike_id":"652319d8-eed0-457d-9910-29ad56a32d90","system_id":"levelo_inurba_marseille","lat":43.31993,"lon":5.38156,"is_reserved":false,"is_disabled":false,"rental_uris":{"android":"levelo://app?vid=652319d8-eed0-457d-9910-29ad56a32d90","ios":"levelo://app?vid=652319d8-eed0-457d-9910-29ad56a32d90"},"vehicle_type_id":"4","last_reported":1745410788,"current_range_meters":16800,"station_id":"ce4bhr12rcd13ifvqhpg","pricing_plan_id":"cebpf4jnsgd1na2vs0mg"},{"bike_id":"9ec49457-910a-4a25-9cd0-b82d5625cff5","system_id":"levelo_inurba_marseille","lat":43.23148,"lon":5.43724,"is_reserved":false,"is_disabled":false,"rental_uris":{"android":"levelo://app?vid=9ec49457-910a-4a25-9cd0-b82d5625cff5","ios":"levelo://app?vid=9ec49457-910a-4a25-9cd0-b82d5625cff5"},"vehicle_type_id":"4","last_reported":1745410788,"current_range_meters":16800,"station_id":"ce4bhmp2rcd13ifvqgog","pricing_plan_id":"cebpf4jnsgd1na2vs0mg"},{"bike_id":"b5d609bf-0c9b-49e3-9426-ce02cb8383b8","system_id":"levelo_inurba_marseille","lat":43.34158,"lon":5.40899,"is_reserved":false,"is_disabled":false,"rental_uris":{"android":"levelo://app?vid=b5d609bf-0c9b-49e3-9426-ce02cb8383b8","ios":"levelo://app?vid=b5d609bf-0c9b-49e3-9426-ce02cb8383b8"},"vehicle_type_id":"4","last_reported":1745410788,"current_range_meters":16800,"station_id":"ce4bhqh2rcd13ifvqhlg","pricing_plan_id":"cebpf4jnsgd1na2vs0mg"},{"bike_id":"646a8205-cd6c-4548-a7e0-52e88d86d8af","system_id":"levelo_inurba_marseille","lat":43.29369,"lon":5.37838,"is_reserved":false,"is_disabled":false,"rental_uris":{"android":"levelo://app?vid=646a8205-cd6c-4548-a7e0-52e88d86d8af","ios":"levelo://app?vid=646a8205-cd6c-4548-a7e0-52e88d86d8af"},"vehicle_type_id":"4","last_reported":1745410788,"current_range_meters":17200,"station_id":"ce4bgjh2rcd13ifvqbf0","pricing_plan_id":"cebpf4jnsgd1na2vs0mg"},{"bike_id":"fa2c04a6-8104-4009-8e17-a21291784412","system_id":"levelo_inurba_marseille","lat":43.2587,"lon":5.39898,"is_reserved":false,"is_disabled":false,"rental_uris":{"android":"levelo://app?vid=fa2c04a6-8104-4009-8e17-a21291784412","ios":"levelo://app?vid=fa2c04a6-8104-4009-8e17-a21291784412"},"vehicle_type_id":"4","last_reported":1745410788,"current_range_meters":16800,"station_id":"ce4bhl92rcd13ifvqghg","pricing_plan_id":"cebpf4jnsgd1na2vs0mg"},{"bike_id":"0af4b43d-7e97-475d-97c8-8508c5244b69","system_id":"levelo_inurba_marseille","lat":43.265712,"lon":5.39015,"is_reserved":false,"is_disabled":false,"rental_uris":{"android":"levelo://app?vid=0af4b43d-7e97-475d-97c8-8508c5244b69","ios":"levelo://app?vid=0af4b43d-7e97-475d-97c8-8508c5244b69"},"vehicle_type_id":"4","last_reported":1745410788,"current_range_meters":16800,"station_id":"ce4bhgp2rcd13ifvqfd0","pricing_plan_id":"cebpf4jnsgd1na2vs0mg"},{"bike_id":"1980f4c5-88bf-4ec9-abdd-9b6ff502ba0f","system_id":"levelo_inurba_marseille","lat":43.30936,"lon":5.40158,"is_reserved":false,"is_disabled":false,"rental_uris":{"android":"levelo://app?vid=1980f4c5-88bf-4ec9-abdd-9b6ff502ba0f","ios":"levelo://app?vid=1980f4c5-88bf-4ec9-abdd-9b6ff502ba0f"},"vehicle_type_id":"4","last_reported":1745410788,"current_range_meters":17200,"station_id":"ce4bgvp2rcd13ifvqct0","pricing_plan_id":"cebpf4jnsgd1na2vs0mg"},{"bike_id":"2d86b612-dc71-4122-9ad7-1874d480ca11","system_id":"levelo_inurba_marseille","lat":43.29623,"lon":5.3771,"is_reserved":false,"is_disabled":false,"rental_uris":{"android":"levelo://app?vid=2d86b612-dc71-4122-9ad7-1874d480ca11","ios":"levelo://app?vid=2d86b612-dc71-4122-9ad7-1874d480ca11"},"vehicle_type_id":"4","last_reported":1745410788,"current_range_meters":17200,"station_id":"ce4bgi92rcd13ifvqb90","pricing_plan_id":"cebpf4jnsgd1na2vs0mg"},{"bike_id":"9966e2c4-c438-4020-9570-af75c54f7699","system_id":"levelo_inurba_marseille","lat":43.25122,"lon":5.40318,"is_reserved":false,"is_disabled":false,"rental_uris":{"android":"levelo://app?vid=9966e2c4-c438-4020-9570-af75c54f7699","ios":"levelo://app?vid=9966e2c4-c438-4020-9570-af75c54f7699"},"vehicle_type_id":"4","last_reported":1745410788,"current_range_meters":17200,"station_id":"ce4bhlh2rcd13ifvqgig","pricing_plan_id":"cebpf4jnsgd1na2vs0mg"},{"bike_id":"9f03d585-943b-4327-9128-af3ed4edb7b5","system_id":"levelo_inurba_marseille","lat":43.25939,"lon":5.40902,"is_reserved":false,"is_disabled":false,"rental_uris":{"android":"levelo://app?vid=9f03d585-943b-4327-9128-af3ed4edb7b5","ios":"levelo://app?vid=9f03d585-943b-4327-9128-af3ed4edb7b5"},"vehicle_type_id":"4","last_reported":1745410788,"current_range_meters":17600,"station_id":"ce4bhm92rcd13ifvqglg","pricing_plan_id":"cebpf4jnsgd1na2vs0mg"},{"bike_id":"29c27f6c-b172-4d99-add3-c74bdfc6be20","system_id":"levelo_inurba_marseille","lat":43.33024,"lon":5.39055,"is_reserved":false,"is_disabled":false,"rental_uris":{"android":"levelo://app?vid=29c27f6c-b172-4d99-add3-c74bdfc6be20","ios":"levelo://app?vid=29c27f6c-b172-4d99-add3-c74bdfc6be20"},"vehicle_type_id":"4","last_reported":1745410788,"current_range_meters":17600,"station_id":"ce4bhr92rcd13ifvqhrg","pricing_plan_id":"cebpf4jnsgd1na2vs0mg"},{"bike_id":"548a676c-6329-4f1b-a15f-51e09f419043","system_id":"levelo_inurba_marseille","lat":43.26957,"lon":5.38621,"is_reserved":false,"is_disabled":true,"rental_uris":{"android":"levelo://app?vid=548a676c-6329-4f1b-a15f-51e09f419043","ios":"levelo://app?vid=548a676c-6329-4f1b-a15f-51e09f419043"},"vehicle_type_id":"4","last_reported":1745410788,"current_range_meters":17600,"station_id":"ce4bhh92rcd13ifvqfh0","pricing_plan_id":"cebpf4jnsgd1na2vs0mg"},{"bike_id":"5dd12b3b-eef7-4dab-a6de-2ed4ff99da38","system_id":"levelo_inurba_marseille","lat":43.290413,"lon":5.375622,"is_reserved":false,"is_disabled":true,"rental_uris":{"android":"levelo://app?vid=5dd12b3b-eef7-4dab-a6de-2ed4ff99da38","ios":"levelo://app?vid=5dd12b3b-eef7-4dab-a6de-2ed4ff99da38"},"vehicle_type_id":"4","last_reported":1745410788,"current_range_meters":17600,"station_id":"ce4bha92rcd13ifvqeg0","pricing_plan_id":"cebpf4jnsgd1na2vs0mg"},{"bike_id":"4d9176c0-80f0-410a-b425-e01dfe6f840e","system_id":"levelo_inurba_marseille","lat":43.25719,"lon":5.41116,"is_reserved":false,"is_disabled":false,"rental_uris":{"android":"levelo://app?vid=4d9176c0-80f0-410a-b425-e01dfe6f840e","ios":"levelo://app?vid=4d9176c0-80f0-410a-b425-e01dfe6f840e"},"vehicle_type_id":"4","last_reported":1745410788,"current_range_meters":17200,"station_id":"ce4bhkp2rcd13ifvqgd0","pricing_plan_id":"cebpf4jnsgd1na2vs0mg"},{"bike_id":"e133fc36-b2f5-442d-ae6f-c25f45e6d265","system_id":"levelo_inurba_marseille","lat":43.243885,"lon":5.370611,"is_reserved":false,"is_disabled":false,"rental_uris":{"android":"levelo://app?vid=e133fc36-b2f5-442d-ae6f-c25f45e6d265","ios":"levelo://app?vid=e133fc36-b2f5-442d-ae6f-c25f45e6d265"},"vehicle_type_id":"4","last_reported":1745410788,"current_range_meters":17600,"station_id":"ce4bhhh2rcd13ifvqfk0","pricing_plan_id":"cebpf4jnsgd1na2vs0mg"},{"bike_id":"431f8e0d-2b86-4422-8cda-97ec47af7bcd","system_id":"levelo_inurba_marseille","lat":43.26222,"lon":5.40465,"is_reserved":false,"is_disabled":false,"rental_uris":{"android":"levelo://app?vid=431f8e0d-2b86-4422-8cda-97ec47af7bcd","ios":"levelo://app?vid=431f8e0d-2b86-4422-8cda-97ec47af7bcd"},"vehicle_type_id":"4","last_reported":1745410788,"current_range_meters":17600,"station_id":"ce4bhmh2rcd13ifvqgmg","pricing_plan_id":"cebpf4jnsgd1na2vs0mg"},{"bike_id":"7cb503d8-a3ee-4291-8d4b-648ba2f1137c","system_id":"levelo_inurba_marseille","lat":43.2417,"lon":5.36388,"is_reserved":false,"is_disabled":false,"rental_uris":{"android":"levelo://app?vid=7cb503d8-a3ee-4291-8d4b-648ba2f1137c","ios":"levelo://app?vid=7cb503d8-a3ee-4291-8d4b-648ba2f1137c"},"vehicle_type_id":"4","last_reported":1745410788,"current_range_meters":17600,"station_id":"cpo36qri1sfpv3e86is0","pricing_plan_id":"cebpf4jnsgd1na2vs0mg"},{"bike_id":"365c3e75-caf0-4654-b3ad-5a21a5e01551","system_id":"levelo_inurba_marseille","lat":43.28153,"lon":5.4264,"is_reserved":false,"is_disabled":false,"rental_uris":{"android":"levelo://app?vid=365c3e75-caf0-4654-b3ad-5a21a5e01551","ios":"levelo://app?vid=365c3e75-caf0-4654-b3ad-5a21a5e01551"},"vehicle_type_id":"4","last_reported":1745410788,"current_range_meters":18000,"station_id":"ce4bhnh2rcd13ifvqgug","pricing_plan_id":"cebpf4jnsgd1na2vs0mg"},{"bike_id":"0ea362ce-4354-4f0f-acc7-962b146816c7","system_id":"levelo_inurba_marseille","lat":43.25858,"lon":5.39931,"is_reserved":false,"is_disabled":true,"rental_uris":{"android":"levelo://app?vid=0ea362ce-4354-4f0f-acc7-962b146816c7","ios":"levelo://app?vid=0ea362ce-4354-4f0f-acc7-962b146816c7"},"vehicle_type_id":"4","last_reported":1745410788,"current_range_meters":18000,"station_id":"ce4bhl92rcd13ifvqghg","pricing_plan_id":"cebpf4jnsgd1na2vs0mg"},{"bike_id":"8d89104a-29c7-425d-bda9-af966dc2c6e6","system_id":"levelo_inurba_marseille","lat":43.24389,"lon":5.37055,"is_reserved":false,"is_disabled":false,"rental_uris":{"android":"levelo://app?vid=8d89104a-29c7-425d-bda9-af966dc2c6e6","ios":"levelo://app?vid=8d89104a-29c7-425d-bda9-af966dc2c6e6"},"vehicle_type_id":"4","last_reported":1745410788,"current_range_meters":18000,"station_id":"ce4bhhh2rcd13ifvqfk0","pricing_plan_id":"cebpf4jnsgd1na2vs0mg"},{"bike_id":"274753bf-af8d-439b-9031-ffe84f2ed2ba","system_id":"levelo_inurba_marseille","lat":43.26222,"lon":5.40454,"is_reserved":false,"is_disabled":false,"rental_uris":{"android":"levelo://app?vid=274753bf-af8d-439b-9031-ffe84f2ed2ba","ios":"levelo://app?vid=274753bf-af8d-439b-9031-ffe84f2ed2ba"},"vehicle_type_id":"4","last_reported":1745410788,"current_range_meters":18000,"station_id":"ce4bhmh2rcd13ifvqgmg","pricing_plan_id":"cebpf4jnsgd1na2vs0mg"},{"bike_id":"376cc741-d657-4315-8208-209b8b0c4494","system_id":"levelo_inurba_marseille","lat":43.29626,"lon":5.406,"is_reserved":false,"is_disabled":false,"rental_uris":{"android":"levelo://app?vid=376cc741-d657-4315-8208-209b8b0c4494","ios":"levelo://app?vid=376cc741-d657-4315-8208-209b8b0c4494"},"vehicle_type_id":"4","last_reported":1745410788,"current_range_meters":18000,"station_id":"ce4bh0h2rcd13ifvqd60","pricing_plan_id":"cebpf4jnsgd1na2vs0mg"},{"bike_id":"b84bfc54-c2b4-4517-b89a-84cf15f2841d","system_id":"levelo_inurba_marseille","lat":43.305478,"lon":5.367332,"is_reserved":false,"is_disabled":false,"rental_uris":{"android":"levelo://app?vid=b84bfc54-c2b4-4517-b89a-84cf15f2841d","ios":"levelo://app?vid=b84bfc54-c2b4-4517-b89a-84cf15f2841d"},"vehicle_type_id":"4","last_reported":1745410788,"current_range_meters":18000,"station_id":"ce4bgrp2rcd13ifvqc9g","pricing_plan_id":"cebpf4jnsgd1na2vs0mg"},{"bike_id":"db5aece3-f671-463b-8d4f-4d692a6fc18c","system_id":"levelo_inurba_marseille","lat":43.29708,"lon":5.36597,"is_reserved":false,"is_disabled":false,"rental_uris":{"android":"levelo://app?vid=db5aece3-f671-463b-8d4f-4d692a6fc18c","ios":"levelo://app?vid=db5aece3-f671-463b-8d4f-4d692a6fc18c"},"vehicle_type_id":"4","last_reported":1745410788,"current_range_meters":18000,"station_id":"ce4bgn12rcd13ifvqbt0","pricing_plan_id":"cebpf4jnsgd1na2vs0mg"},{"bike_id":"c7b90bf3-baf1-4b35-b182-f85c92c205a4","system_id":"levelo_inurba_marseille","lat":43.28416,"lon":5.34984,"is_reserved":false,"is_disabled":false,"rental_uris":{"android":"levelo://app?vid=c7b90bf3-baf1-4b35-b182-f85c92c205a4","ios":"levelo://app?vid=c7b90bf3-baf1-4b35-b182-f85c92c205a4"},"vehicle_type_id":"4","last_reported":1745410788,"current_range_meters":18000,"station_id":"ce4bhbh2rcd13ifvqepg","pricing_plan_id":"cebpf4jnsgd1na2vs0mg"},{"bike_id":"e8cccef0-f876-4a28-ac24-326aec25603e","system_id":"levelo_inurba_marseille","lat":43.31528,"lon":5.38016,"is_reserved":false,"is_disabled":false,"rental_uris":{"android":"levelo://app?vid=e8cccef0-f876-4a28-ac24-326aec25603e","ios":"levelo://app?vid=e8cccef0-f876-4a28-ac24-326aec25603e"},"vehicle_type_id":"4","last_reported":1745410788,"current_range_meters":18000,"station_id":"ce4bhsp2rcd13ifvqi50","pricing_plan_id":"cebpf4jnsgd1na2vs0mg"},{"bike_id":"81ffcc4b-a5eb-448f-a1fc-c33627df0ae3","system_id":"levelo_inurba_marseille","lat":43.29854,"lon":5.36285,"is_reserved":false,"is_disabled":false,"rental_uris":{"android":"levelo://app?vid=81ffcc4b-a5eb-448f-a1fc-c33627df0ae3","ios":"levelo://app?vid=81ffcc4b-a5eb-448f-a1fc-c33627df0ae3"},"vehicle_type_id":"4","last_reported":1745410788,"current_range_meters":18000,"station_id":"ce4bgpp2rcd13ifvqc3g","pricing_plan_id":"cebpf4jnsgd1na2vs0mg"},{"bike_id":"76795801-15e6-4272-80f9-f24296731352","system_id":"levelo_inurba_marseille","lat":43.25013,"lon":5.38921,"is_reserved":false,"is_disabled":false,"rental_uris":{"android":"levelo://app?vid=76795801-15e6-4272-80f9-f24296731352","ios":"levelo://app?vid=76795801-15e6-4272-80f9-f24296731352"},"vehicle_type_id":"4","last_reported":1745410788,"current_range_meters":18800,"station_id":"ce4bhgp2rcd13ifvqfd0","pricing_plan_id":"cebpf4jnsgd1na2vs0mg"},{"bike_id":"ee354981-1331-4223-a45e-4b1b7261b1e3","system_id":"levelo_inurba_marseille","lat":43.33406,"lon":5.40069,"is_reserved":false,"is_disabled":false,"rental_uris":{"android":"levelo://app?vid=ee354981-1331-4223-a45e-4b1b7261b1e3","ios":"levelo://app?vid=ee354981-1331-4223-a45e-4b1b7261b1e3"},"vehicle_type_id":"4","last_reported":1745410788,"current_range_meters":18800,"station_id":"","pricing_plan_id":"cebpf4jnsgd1na2vs0mg"},{"bike_id":"322995c8-8601-4b19-ac1c-f357afc63d51","system_id":"levelo_inurba_marseille","lat":43.23145,"lon":5.43699,"is_reserved":false,"is_disabled":false,"rental_uris":{"android":"levelo://app?vid=322995c8-8601-4b19-ac1c-f357afc63d51","ios":"levelo://app?vid=322995c8-8601-4b19-ac1c-f357afc63d51"},"vehicle_type_id":"4","last_reported":1745410788,"current_range_meters":18800,"station_id":"ce4bhmp2rcd13ifvqgog","pricing_plan_id":"cebpf4jnsgd1na2vs0mg"},{"bike_id":"fa8a552a-d2d3-4e8d-8d8e-02bdba037836","system_id":"levelo_inurba_marseille","lat":43.337444,"lon":5.374475,"is_reserved":false,"is_disabled":false,"rental_uris":{"android":"levelo://app?vid=fa8a552a-d2d3-4e8d-8d8e-02bdba037836","ios":"levelo://app?vid=fa8a552a-d2d3-4e8d-8d8e-02bdba037836"},"vehicle_type_id":"4","last_reported":1745410788,"current_range_meters":18800,"station_id":"","pricing_plan_id":"cebpf4jnsgd1na2vs0mg"},{"bike_id":"b878a2b9-87e5-4cdb-804c-ea8c0b0ac599","system_id":"levelo_inurba_marseille","lat":43.29048,"lon":5.35907,"is_reserved":false,"is_disabled":false,"rental_uris":{"android":"levelo://app?vid=b878a2b9-87e5-4cdb-804c-ea8c0b0ac599","ios":"levelo://app?vid=b878a2b9-87e5-4cdb-804c-ea8c0b0ac599"},"vehicle_type_id":"4","last_reported":1745410788,"current_range_meters":18800,"station_id":"ce4bha92rcd13ifvqeg0","pricing_plan_id":"cebpf4jnsgd1na2vs0mg"},{"bike_id":"723c553c-4e77-4ada-a731-a78df7eb8dce","system_id":"levelo_inurba_marseille","lat":43.2558,"lon":5.38246,"is_reserved":false,"is_disabled":false,"rental_uris":{"android":"levelo://app?vid=723c553c-4e77-4ada-a731-a78df7eb8dce","ios":"levelo://app?vid=723c553c-4e77-4ada-a731-a78df7eb8dce"},"vehicle_type_id":"4","last_reported":1745410788,"current_range_meters":18800,"station_id":"ce4bhih2rcd13ifvqfs0","pricing_plan_id":"cebpf4jnsgd1na2vs0mg"},{"bike_id":"e6a13dc9-b06d-4057-9bf9-c0a50b0f9470","system_id":"levelo_inurba_marseille","lat":43.3031,"lon":5.36903,"is_reserved":false,"is_disabled":false,"rental_uris":{"android":"levelo://app?vid=e6a13dc9-b06d-4057-9bf9-c0a50b0f9470","ios":"levelo://app?vid=e6a13dc9-b06d-4057-9bf9-c0a50b0f9470"},"vehicle_type_id":"4","last_reported":1745410788,"current_range_meters":19200,"station_id":"ce4bgqh2rcd13ifvqc5g","pricing_plan_id":"cebpf4jnsgd1na2vs0mg"},{"bike_id":"8640d103-b99c-4978-8609-fa50fc35f39f","system_id":"levelo_inurba_marseille","lat":43.32543,"lon":5.414323,"is_reserved":false,"is_disabled":false,"rental_uris":{"android":"levelo://app?vid=8640d103-b99c-4978-8609-fa50fc35f39f","ios":"levelo://app?vid=8640d103-b99c-4978-8609-fa50fc35f39f"},"vehicle_type_id":"4","last_reported":1745410788,"current_range_meters":18800,"station_id":"ce4bhq12rcd13ifvqhhg","pricing_plan_id":"cebpf4jnsgd1na2vs0mg"},{"bike_id":"5914bf9c-0d58-4f9a-bf72-6f9e529b13d7","system_id":"levelo_inurba_marseille","lat":43.32366,"lon":5.38889,"is_reserved":false,"is_disabled":false,"rental_uris":{"android":"levelo://app?vid=5914bf9c-0d58-4f9a-bf72-6f9e529b13d7","ios":"levelo://app?vid=5914bf9c-0d58-4f9a-bf72-6f9e529b13d7"},"vehicle_type_id":"4","last_reported":1745410788,"current_range_meters":19200,"station_id":"ce4bhqp2rcd13ifvqhog","pricing_plan_id":"cebpf4jnsgd1na2vs0mg"},{"bike_id":"894b8530-885f-4d4d-a2ae-913958cbbe2f","system_id":"levelo_inurba_marseille","lat":43.25909,"lon":5.40869,"is_reserved":false,"is_disabled":false,"rental_uris":{"android":"levelo://app?vid=894b8530-885f-4d4d-a2ae-913958cbbe2f","ios":"levelo://app?vid=894b8530-885f-4d4d-a2ae-913958cbbe2f"},"vehicle_type_id":"4","last_reported":1745410788,"current_range_meters":19200,"station_id":"ce4bhm92rcd13ifvqglg","pricing_plan_id":"cebpf4jnsgd1na2vs0mg"},{"bike_id":"8b13a928-cf73-4379-a0db-2b466786b7d8","system_id":"levelo_inurba_marseille","lat":43.337702,"lon":5.374306,"is_reserved":false,"is_disabled":false,"rental_uris":{"android":"levelo://app?vid=8b13a928-cf73-4379-a0db-2b466786b7d8","ios":"levelo://app?vid=8b13a928-cf73-4379-a0db-2b466786b7d8"},"vehicle_type_id":"4","last_reported":1745410788,"current_range_meters":19600,"station_id":"","pricing_plan_id":"cebpf4jnsgd1na2vs0mg"},{"bike_id":"8f33f60c-520f-4816-886f-b784d01d7d2b","system_id":"levelo_inurba_marseille","lat":43.2827,"lon":5.35066,"is_reserved":false,"is_disabled":false,"rental_uris":{"android":"levelo://app?vid=8f33f60c-520f-4816-886f-b784d01d7d2b","ios":"levelo://app?vid=8f33f60c-520f-4816-886f-b784d01d7d2b"},"vehicle_type_id":"4","last_reported":1745410788,"current_range_meters":19600,"station_id":"ce4bhbp2rcd13ifvqerg","pricing_plan_id":"cebpf4jnsgd1na2vs0mg"},{"bike_id":"2eaf8beb-1cac-47a8-96ab-693b8610591d","system_id":"levelo_inurba_marseille","lat":43.24119,"lon":5.39782,"is_reserved":false,"is_disabled":false,"rental_uris":{"android":"levelo://app?vid=2eaf8beb-1cac-47a8-96ab-693b8610591d","ios":"levelo://app?vid=2eaf8beb-1cac-47a8-96ab-693b8610591d"},"vehicle_type_id":"4","last_reported":1745410788,"current_range_meters":19600,"station_id":"ce4bhn12rcd13ifvqgpg","pricing_plan_id":"cebpf4jnsgd1na2vs0mg"},{"bike_id":"7f4c3b02-135e-4c8b-ae41-58f43c6a5eeb","system_id":"levelo_inurba_marseille","lat":43.32481,"lon":5.3656,"is_reserved":false,"is_disabled":false,"rental_uris":{"android":"levelo://app?vid=7f4c3b02-135e-4c8b-ae41-58f43c6a5eeb","ios":"levelo://app?vid=7f4c3b02-135e-4c8b-ae41-58f43c6a5eeb"},"vehicle_type_id":"4","last_reported":1745410788,"current_range_meters":19600,"station_id":"ce4bhs12rcd13ifvqhvg","pricing_plan_id":"cebpf4jnsgd1na2vs0mg"},{"bike_id":"469ffe37-1d2e-49f0-9210-eaa8250ec996","system_id":"levelo_inurba_marseille","lat":43.28411,"lon":5.34976,"is_reserved":false,"is_disabled":false,"rental_uris":{"android":"levelo://app?vid=469ffe37-1d2e-49f0-9210-eaa8250ec996","ios":"levelo://app?vid=469ffe37-1d2e-49f0-9210-eaa8250ec996"},"vehicle_type_id":"4","last_reported":1745410788,"current_range_meters":19600,"station_id":"ce4bhbh2rcd13ifvqepg","pricing_plan_id":"cebpf4jnsgd1na2vs0mg"},{"bike_id":"711d8ed4-9237-4449-9f69-3ba668c4873f","system_id":"levelo_inurba_marseille","lat":43.28267,"lon":5.35063,"is_reserved":false,"is_disabled":false,"rental_uris":{"android":"levelo://app?vid=711d8ed4-9237-4449-9f69-3ba668c4873f","ios":"levelo://app?vid=711d8ed4-9237-4449-9f69-3ba668c4873f"},"vehicle_type_id":"4","last_reported":1745410788,"current_range_meters":19600,"station_id":"ce4bhbp2rcd13ifvqerg","pricing_plan_id":"cebpf4jnsgd1na2vs0mg"},{"bike_id":"0bd6b9dc-0d28-4aed-ba01-15bad0c8f4e6","system_id":"levelo_inurba_marseille","lat":43.21748,"lon":5.34603,"is_reserved":false,"is_disabled":false,"rental_uris":{"android":"levelo://app?vid=0bd6b9dc-0d28-4aed-ba01-15bad0c8f4e6","ios":"levelo://app?vid=0bd6b9dc-0d28-4aed-ba01-15bad0c8f4e6"},"vehicle_type_id":"4","last_reported":1745410788,"current_range_meters":19600,"station_id":"st_cvj6r9ubvosntc0bgbag","pricing_plan_id":"cebpf4jnsgd1na2vs0mg"},{"bike_id":"137ae00f-fd98-43a7-9d82-47f25ed013d3","system_id":"levelo_inurba_marseille","lat":43.27059,"lon":5.40264,"is_reserved":false,"is_disabled":false,"rental_uris":{"android":"levelo://app?vid=137ae00f-fd98-43a7-9d82-47f25ed013d3","ios":"levelo://app?vid=137ae00f-fd98-43a7-9d82-47f25ed013d3"},"vehicle_type_id":"4","last_reported":1745410788,"current_range_meters":20000,"station_id":"ce4bhk92rcd13ifvqgc0","pricing_plan_id":"cebpf4jnsgd1na2vs0mg"},{"bike_id":"79db34f9-14bb-49f3-a996-e2bd4e3b1235","system_id":"levelo_inurba_marseille","lat":43.28414,"lon":5.37507,"is_reserved":false,"is_disabled":false,"rental_uris":{"android":"levelo://app?vid=79db34f9-14bb-49f3-a996-e2bd4e3b1235","ios":"levelo://app?vid=79db34f9-14bb-49f3-a996-e2bd4e3b1235"},"vehicle_type_id":"4","last_reported":1745410788,"current_range_meters":20000,"station_id":"ce4bh412rcd13ifvqds0","pricing_plan_id":"cebpf4jnsgd1na2vs0mg"},{"bike_id":"8a10e821-c20e-4688-ba5e-47ea47594480","system_id":"levelo_inurba_marseille","lat":43.28617,"lon":5.35106,"is_reserved":false,"is_disabled":false,"rental_uris":{"android":"levelo://app?vid=8a10e821-c20e-4688-ba5e-47ea47594480","ios":"levelo://app?vid=8a10e821-c20e-4688-ba5e-47ea47594480"},"vehicle_type_id":"4","last_reported":1745410788,"current_range_meters":20000,"station_id":"ce4bhch2rcd13ifvqeug","pricing_plan_id":"cebpf4jnsgd1na2vs0mg"},{"bike_id":"17d72075-99f4-47b5-97af-1cfa9c4f4610","system_id":"levelo_inurba_marseille","lat":43.29031,"lon":5.38647,"is_reserved":false,"is_disabled":false,"rental_uris":{"android":"levelo://app?vid=17d72075-99f4-47b5-97af-1cfa9c4f4610","ios":"levelo://app?vid=17d72075-99f4-47b5-97af-1cfa9c4f4610"},"vehicle_type_id":"4","last_reported":1745410788,"current_range_meters":20000,"station_id":"ce4bh4p2rcd13ifvqe0g","pricing_plan_id":"cebpf4jnsgd1na2vs0mg"},{"bike_id":"7049f559-46ea-469f-b042-655207f67349","system_id":"levelo_inurba_marseille","lat":43.23159,"lon":5.43705,"is_reserved":false,"is_disabled":false,"rental_uris":{"android":"levelo://app?vid=7049f559-46ea-469f-b042-655207f67349","ios":"levelo://app?vid=7049f559-46ea-469f-b042-655207f67349"},"vehicle_type_id":"4","last_reported":1745410788,"current_range_meters":20000,"station_id":"ce4bhmp2rcd13ifvqgog","pricing_plan_id":"cebpf4jnsgd1na2vs0mg"},{"bike_id":"cb423e2c-05ff-4caf-b739-e7f61bbde923","system_id":"levelo_inurba_marseille","lat":43.28855,"lon":5.39301,"is_reserved":false,"is_disabled":false,"rental_uris":{"android":"levelo://app?vid=cb423e2c-05ff-4caf-b739-e7f61bbde923","ios":"levelo://app?vid=cb423e2c-05ff-4caf-b739-e7f61bbde923"},"vehicle_type_id":"4","last_reported":1745410788,"current_range_meters":22000,"station_id":"ce4bh2p2rcd13ifvqdi0","pricing_plan_id":"cebpf4jnsgd1na2vs0mg"},{"bike_id":"5afd13e0-4749-4a6a-a2f6-bdec4efd916a","system_id":"levelo_inurba_marseille","lat":43.29797,"lon":5.40396,"is_reserved":false,"is_disabled":false,"rental_uris":{"android":"levelo://app?vid=5afd13e0-4749-4a6a-a2f6-bdec4efd916a","ios":"levelo://app?vid=5afd13e0-4749-4a6a-a2f6-bdec4efd916a"},"vehicle_type_id":"4","last_reported":1745410788,"current_range_meters":20400,"station_id":"ce4bh112rcd13ifvqd90","pricing_plan_id":"cebpf4jnsgd1na2vs0mg"},{"bike_id":"76c010ce-291d-42e8-8c9c-bb6e23877a8f","system_id":"levelo_inurba_marseille","lat":43.28416,"lon":5.34976,"is_reserved":false,"is_disabled":false,"rental_uris":{"android":"levelo://app?vid=76c010ce-291d-42e8-8c9c-bb6e23877a8f","ios":"levelo://app?vid=76c010ce-291d-42e8-8c9c-bb6e23877a8f"},"vehicle_type_id":"4","last_reported":1745410788,"current_range_meters":20400,"station_id":"ce4bhbh2rcd13ifvqepg","pricing_plan_id":"cebpf4jnsgd1na2vs0mg"},{"bike_id":"1fa007f1-bd54-47c1-b07c-203a44c781b6","system_id":"levelo_inurba_marseille","lat":43.30356,"lon":5.41877,"is_reserved":false,"is_disabled":false,"rental_uris":{"android":"levelo://app?vid=1fa007f1-bd54-47c1-b07c-203a44c781b6","ios":"levelo://app?vid=1fa007f1-bd54-47c1-b07c-203a44c781b6"},"vehicle_type_id":"4","last_reported":1745410788,"current_range_meters":20400,"station_id":"ce4bhop2rcd13ifvqh7g","pricing_plan_id":"cebpf4jnsgd1na2vs0mg"},{"bike_id":"e846dd22-a9f4-48f8-8c65-a4d9a26dfa06","system_id":"levelo_inurba_marseille","lat":43.24666,"lon":5.38169,"is_reserved":false,"is_disabled":false,"rental_uris":{"android":"levelo://app?vid=e846dd22-a9f4-48f8-8c65-a4d9a26dfa06","ios":"levelo://app?vid=e846dd22-a9f4-48f8-8c65-a4d9a26dfa06"},"vehicle_type_id":"4","last_reported":1745410788,"current_range_meters":20400,"station_id":"ce4bhih2rcd13ifvqfr0","pricing_plan_id":"cebpf4jnsgd1na2vs0mg"},{"bike_id":"d67e280a-f708-44d7-ac1f-37a8ebf5003e","system_id":"levelo_inurba_marseille","lat":43.302,"lon":5.39362,"is_reserved":false,"is_disabled":false,"rental_uris":{"android":"levelo://app?vid=d67e280a-f708-44d7-ac1f-37a8ebf5003e","ios":"levelo://app?vid=d67e280a-f708-44d7-ac1f-37a8ebf5003e"},"vehicle_type_id":"4","last_reported":1745410788,"current_range_meters":20400,"station_id":"","pricing_plan_id":"cebpf4jnsgd1na2vs0mg"},{"bike_id":"a07a0112-0f52-427c-a940-98c17c422ddc","system_id":"levelo_inurba_marseille","lat":43.29537,"lon":5.38544,"is_reserved":false,"is_disabled":false,"rental_uris":{"android":"levelo://app?vid=a07a0112-0f52-427c-a940-98c17c422ddc","ios":"levelo://app?vid=a07a0112-0f52-427c-a940-98c17c422ddc"},"vehicle_type_id":"4","last_reported":1745410788,"current_range_meters":20400,"station_id":"ce4bgih2rcd13ifvqba0","pricing_plan_id":"cebpf4jnsgd1na2vs0mg"},{"bike_id":"e3f91c2f-3293-400e-a9df-7c04a539878f","system_id":"levelo_inurba_marseille","lat":43.30421,"lon":5.38886,"is_reserved":false,"is_disabled":false,"rental_uris":{"android":"levelo://app?vid=e3f91c2f-3293-400e-a9df-7c04a539878f","ios":"levelo://app?vid=e3f91c2f-3293-400e-a9df-7c04a539878f"},"vehicle_type_id":"4","last_reported":1745410788,"current_range_meters":20000,"station_id":"ce4bgk12rcd13ifvqbi0","pricing_plan_id":"cebpf4jnsgd1na2vs0mg"},{"bike_id":"a294df07-99f5-41b2-8a74-86edcf13e44e","system_id":"levelo_inurba_marseille","lat":43.2439,"lon":5.37057,"is_reserved":false,"is_disabled":false,"rental_uris":{"android":"levelo://app?vid=a294df07-99f5-41b2-8a74-86edcf13e44e","ios":"levelo://app?vid=a294df07-99f5-41b2-8a74-86edcf13e44e"},"vehicle_type_id":"4","last_reported":1745410788,"current_range_meters":20400,"station_id":"ce4bhhh2rcd13ifvqfk0","pricing_plan_id":"cebpf4jnsgd1na2vs0mg"},{"bike_id":"387a6a32-c85b-4e1e-985c-e54be80dbd60","system_id":"levelo_inurba_marseille","lat":43.258578,"lon":5.399073,"is_reserved":false,"is_disabled":false,"rental_uris":{"android":"levelo://app?vid=387a6a32-c85b-4e1e-985c-e54be80dbd60","ios":"levelo://app?vid=387a6a32-c85b-4e1e-985c-e54be80dbd60"},"vehicle_type_id":"4","last_reported":1745410788,"current_range_meters":20400,"station_id":"ce4bhl92rcd13ifvqghg","pricing_plan_id":"cebpf4jnsgd1na2vs0mg"},{"bike_id":"11f4ee4a-7fa1-4c62-b378-a96e1722a902","system_id":"levelo_inurba_marseille","lat":43.30553,"lon":5.366803,"is_reserved":false,"is_disabled":true,"rental_uris":{"android":"levelo://app?vid=11f4ee4a-7fa1-4c62-b378-a96e1722a902","ios":"levelo://app?vid=11f4ee4a-7fa1-4c62-b378-a96e1722a902"},"vehicle_type_id":"4","last_reported":1745410788,"current_range_meters":20800,"station_id":"ce4bgrp2rcd13ifvqc9g","pricing_plan_id":"cebpf4jnsgd1na2vs0mg"},{"bike_id":"d5c19a7e-9b0d-47ac-8959-8eb21063802d","system_id":"levelo_inurba_marseille","lat":43.33018,"lon":5.39031,"is_reserved":false,"is_disabled":false,"rental_uris":{"android":"levelo://app?vid=d5c19a7e-9b0d-47ac-8959-8eb21063802d","ios":"levelo://app?vid=d5c19a7e-9b0d-47ac-8959-8eb21063802d"},"vehicle_type_id":"4","last_reported":1745410788,"current_range_meters":20800,"station_id":"ce4bhr92rcd13ifvqhrg","pricing_plan_id":"cebpf4jnsgd1na2vs0mg"},{"bike_id":"17f64928-2dde-4002-ba54-81b220f041ae","system_id":"levelo_inurba_marseille","lat":43.28413,"lon":5.34988,"is_reserved":false,"is_disabled":false,"rental_uris":{"android":"levelo://app?vid=17f64928-2dde-4002-ba54-81b220f041ae","ios":"levelo://app?vid=17f64928-2dde-4002-ba54-81b220f041ae"},"vehicle_type_id":"4","last_reported":1745410788,"current_range_meters":20800,"station_id":"ce4bhbh2rcd13ifvqepg","pricing_plan_id":"cebpf4jnsgd1na2vs0mg"},{"bike_id":"8b43b1fb-5cab-4db8-ae05-f66514d8855e","system_id":"levelo_inurba_marseille","lat":43.31284,"lon":5.37315,"is_reserved":false,"is_disabled":false,"rental_uris":{"android":"levelo://app?vid=8b43b1fb-5cab-4db8-ae05-f66514d8855e","ios":"levelo://app?vid=8b43b1fb-5cab-4db8-ae05-f66514d8855e"},"vehicle_type_id":"4","last_reported":1745410788,"current_range_meters":20800,"station_id":"","pricing_plan_id":"cebpf4jnsgd1na2vs0mg"},{"bike_id":"45aa6f4c-70b3-4b6e-bedf-c907059e9a0c","system_id":"levelo_inurba_marseille","lat":43.31272,"lon":5.40166,"is_reserved":false,"is_disabled":false,"rental_uris":{"android":"levelo://app?vid=45aa6f4c-70b3-4b6e-bedf-c907059e9a0c","ios":"levelo://app?vid=45aa6f4c-70b3-4b6e-bedf-c907059e9a0c"},"vehicle_type_id":"4","last_reported":1745410788,"current_range_meters":20800,"station_id":"ce4bh092rcd13ifvqd30","pricing_plan_id":"cebpf4jnsgd1na2vs0mg"},{"bike_id":"ab8406b2-4f8d-4381-8821-3db52b0a4d4d","system_id":"levelo_inurba_marseille","lat":43.27356,"lon":5.37827,"is_reserved":false,"is_disabled":false,"rental_uris":{"android":"levelo://app?vid=ab8406b2-4f8d-4381-8821-3db52b0a4d4d","ios":"levelo://app?vid=ab8406b2-4f8d-4381-8821-3db52b0a4d4d"},"vehicle_type_id":"4","last_reported":1745410788,"current_range_meters":20800,"station_id":"","pricing_plan_id":"cebpf4jnsgd1na2vs0mg"},{"bike_id":"4913507c-096c-4918-8edb-802e1c951937","system_id":"levelo_inurba_marseille","lat":43.29894,"lon":5.43673,"is_reserved":false,"is_disabled":false,"rental_uris":{"android":"levelo://app?vid=4913507c-096c-4918-8edb-802e1c951937","ios":"levelo://app?vid=4913507c-096c-4918-8edb-802e1c951937"},"vehicle_type_id":"4","last_reported":1745410788,"current_range_meters":20800,"station_id":"ce4bhpp2rcd13ifvqhfg","pricing_plan_id":"cebpf4jnsgd1na2vs0mg"},{"bike_id":"ef7b4785-fa2b-49c3-8f9c-177a53d7e716","system_id":"levelo_inurba_marseille","lat":43.30312,"lon":5.3692,"is_reserved":false,"is_disabled":false,"rental_uris":{"android":"levelo://app?vid=ef7b4785-fa2b-49c3-8f9c-177a53d7e716","ios":"levelo://app?vid=ef7b4785-fa2b-49c3-8f9c-177a53d7e716"},"vehicle_type_id":"4","last_reported":1745410788,"current_range_meters":20800,"station_id":"ce4bgqh2rcd13ifvqc5g","pricing_plan_id":"cebpf4jnsgd1na2vs0mg"},