{"last_updated":1758442321,"ttl":60,"version":"2.2","data":{"bikes":[{"bike_id":"cad97885-b582-49b2-8b83-0a6c3d079fc6","system_id":"levelo_inurba_marseille","lat":43.297018,"lon":5.365873,"is_reserved":false,"is_disabled":false,"rental_uris":{"android":"levelo://app?vid=cad97885-b582-49b2-8b83-0a6c3d079fc6","ios":"levelo://app?vid=cad97885-b582-49b2-8b83-0a6c3d079fc6"},"vehicle_type_id":"4","last_reported":1758442322,"current_range_meters":2800,"station_id":"ce4bgn12rcd13ifvqbt0","pricing_plan_id":"cebpf4jnsgd1na2vs0mg"},{"bike_id":"4a42c3a7-350b-4a49-9c56-c4b3d7531c94","system_id":"levelo_inurba_marseille","lat":43.305533,"lon":5.366949,"is_reserved":false,"is_disabled":false,"rental_uris":{"android":"levelo://app?vid=4a42c3a7-350b-4a49-9c56-c4b3d7531c94","ios":"levelo://app?vid=4a42c3a7-350b-4a49-9c56-c4b3d7531c94"},"vehicle_type_id":"4","last_reported":1758442322,"current_range_meters":2800,"station_id":"ce4bgrp2rcd13ifvqc9g","pricing_plan_id":"cebpf4jnsgd1na2vs0mg"},{"bike_id":"aae94305-14de-4d77-aed3-cf696de9e3eb","system_id":"levelo_inurba_marseille","lat":43.303205,"lon":5.404462,"is_reserved":false,"is_disabled":false,"rental_uris":{"android":"levelo://app?vid=aae94305-14de-4d77-aed3-cf696de9e3eb","ios":"levelo://app?vid=aae94305-14de-4d77-aed3-cf696de9e3eb"},"vehicle_type_id":"4","last_reported":1758442322,"current_range_meters":2800,"station_id":"ce4bh012rcd13ifvqd10","pricing_plan_id":"cebpf4jnsgd1na2vs0mg"},{"bike_id":"a839ad44-e005-45b8-a739-b2e28337e6c7","system_id":"levelo_inurba_marseille","lat":43.298816,"lon":5.397388,"is_reserved":false,"is_disabled":true,"rental_uris":{"android":"levelo://app?vid=a839ad44-e005-45b8-a739-b2e28337e6c7","ios":"levelo://app?vid=a839ad44-e005-45b8-a739-b2e28337e6c7"},"vehicle_type_id":"4","last_reported":1758442322,"current_range_meters":2800,"station_id":"ce4bh0h2rcd13ifvqd50","pricing_plan_id":"cebpf4jnsgd1na2vs0mg"},{"bike_id":"c9f4b21b-ec2b-4175-aa80-1c0e52fd7e28","system_id":"levelo_inurba_marseille","lat":43.2843,"lon":5.49057,"is_reserved":false,"is_disabled":false,"rental_uris":{"android":"levelo://app?vid=c9f4b21b-ec2b-4175-aa80-1c0e52fd7e28","ios":"levelo://app?vid=c9f4b21b-ec2b-4175-aa80-1c0e52fd7e28"},"vehicle_type_id":"4","last_reported":1758442322,"current_range_meters":3600,"station_id":"","pricing_plan_id":"cebpf4jnsgd1na2vs0mg"},{"bike_id":"78a18b56-84dc-49f2-a9b1-5bbfde6eda3e","system_id":"levelo_inurba_marseille","lat":43.29972,"lon":5.38499,"is_reserved":false,"is_disabled":true,"rental_uris":{"android":"levelo://app?vid=78a18b56-84dc-49f2-a9b1-5bbfde6eda3e","ios":"levelo://app?vid=78a18b56-84dc-49f2-a9b1-5bbfde6eda3e"},"vehicle_type_id":"4","last_reported":1758442322,"current_range_meters":3600,"station_id":"ce4bgj92rcd13ifvqbd0","pricing_plan_id":"cebpf4jnsgd1na2vs0mg"},{"bike_id":"35207c51-5616-44e0-a79e-9090518685b1","system_id":"levelo_inurba_marseille","lat":43.292257,"lon":5.360697,"is_reserved":false,"is_disabled":false,"rental_uris":{"android":"levelo://app?vid=35207c51-5616-44e0-a79e-9090518685b1","ios":"levelo://app?vid=35207c51-5616-44e0-a79e-9090518685b1"},"vehicle_type_id":"4","last_reported":1758442322,"current_range_meters":3600,"station_id":"ce4bhbh2rcd13ifvqeqg","pricing_plan_id":"cebpf4jnsgd1na2vs0mg"},{"bike_id":"adbbec83-b051-4e7f-a394-5fdc9b2b0234","system_id":"levelo_inurba_marseille","lat":43.32147,"lon":5.38436,"is_reserved":false,"is_disabled":false,"rental_uris":{"android":"levelo://app?vid=adbbec83-b051-4e7f-a394-5fdc9b2b0234","ios":"levelo://app?vid=adbbec83-b051-4e7f-a394-5fdc9b2b0234"},"vehicle_type_id":"4","last_reported":1758442322,"current_range_meters":4000,"station_id":"","pricing_plan_id":"cebpf4jnsgd1na2vs0mg"},{"bike_id":"3dbd5d4f-8816-4c2f-9a97-a1578a6da6ed","system_id":"levelo_inurba_marseille","lat":43.2901,"lon":5.35597,"is_reserved":false,"is_disabled":false,"rental_uris":{"android":"levelo://app?vid=3dbd5d4f-8816-4c2f-9a97-a1578a6da6ed","ios":"levelo://app?vid=3dbd5d4f-8816-4c2f-9a97-a1578a6da6ed"},"vehicle_type_id":"4","last_reported":1758442322,"current_range_meters":4000,"station_id":"ce4bhb92rcd13ifvqen0","pricing_plan_id":"cebpf4jnsgd1na2vs0mg"},{"bike_id":"3c9735e9-fd7e-4079-8199-725760347837","system_id":"levelo_inurba_marseille","lat":43.21182,"lon":5.35079,"is_reserved":false,"is_disabled":false,"rental_uris":{"android":"levelo://app?vid=3c9735e9-fd7e-4079-8199-725760347837","ios":"levelo://app?vid=3c9735e9-fd7e-4079-8199-725760347837"},"vehicle_type_id":"4","last_reported":1758442322,"current_range_meters":4400,"station_id":"st_cvj6sg6p6f1abm77japg","pricing_plan_id":"cebpf4jnsgd1na2vs0mg"},{"bike_id":"e1065c32-ac19-477b-812a-39f964d50769","system_id":"levelo_inurba_marseille","lat":43.23187,"lon":5.35548,"is_reserved":false,"is_disabled":true,"rental_uris":{"android":"levelo://app?vid=e1065c32-ac19-477b-812a-39f964d50769","ios":"levelo://app?vid=e1065c32-ac19-477b-812a-39f964d50769"},"vehicle_type_id":"4","last_reported":1758442322,"current_range_meters":4400,"station_id":"ce4bhu92rcd13ifvqi70","pricing_plan_id":"cebpf4jnsgd1na2vs0mg"},{"bike_id":"90e8324f-ab5a-4b51-81a5-e116e7955ae7","system_id":"levelo_inurba_marseille","lat":43.26555,"lon":5.3729,"is_reserved":false,"is_disabled":true,"rental_uris":{"android":"levelo://app?vid=90e8324f-ab5a-4b51-81a5-e116e7955ae7","ios":"levelo://app?vid=90e8324f-ab5a-4b51-81a5-e116e7955ae7"},"vehicle_type_id":"4","last_reported":1758442322,"current_range_meters":4400,"station_id":"ce4bhg12rcd13ifvqf70","pricing_plan_id":"cebpf4jnsgd1na2vs0mg"},{"bike_id":"bf56b3f9-1f58-4c43-a376-7d5880956ccb","system_id":"levelo_inurba_marseille","lat":43.28403,"lon":5.37528,"is_reserved":false,"is_disabled":false,"rental_uris":{"android":"levelo://app?vid=bf56b3f9-1f58-4c43-a376-7d5880956ccb","ios":"levelo://app?vid=bf56b3f9-1f58-4c43-a376-7d5880956ccb"},"vehicle_type_id":"4","last_reported":1758442322,"current_range_meters":4400,"station_id":"ce4bh412rcd13ifvqds0","pricing_plan_id":"cebpf4jnsgd1na2vs0mg"},{"bike_id":"5bb42022-0e19-48bc-a5b4-218bb1d7482e","system_id":"levelo_inurba_marseille","lat":43.31247,"lon":5.3775,"is_reserved":false,"is_disabled":false,"rental_uris":{"android":"levelo://app?vid=5bb42022-0e19-48bc-a5b4-218bb1d7482e","ios":"levelo://app?vid=5bb42022-0e19-48bc-a5b4-218bb1d7482e"},"vehicle_type_id":"4","last_reported":1758442322,"current_range_meters":4400,"station_id":"","pricing_plan_id":"cebpf4jnsgd1na2vs0mg"},{"bike_id":"27c0c058-0b73-410e-b675-424a541acc3a","system_id":"levelo_inurba_marseille","lat":43.30517,"lon":5.36545,"is_reserved":false,"is_disabled":false,"rental_uris":{"android":"levelo://app?vid=27c0c058-0b73-410e-b675-424a541acc3a","ios":"levelo://app?vid=27c0c058-0b73-410e-b675-424a541acc3a"},"vehicle_type_id":"4","last_reported":1758442322,"current_range_meters":4400,"station_id":"ce4bgs12rcd13ifvqcag","pricing_plan_id":"cebpf4jnsgd1na2vs0mg"},{"bike_id":"6dc49f8f-31b8-485c-b489-e3fd253e6676","system_id":"levelo_inurba_marseille","lat":43.32668,"lon":5.40994,"is_reserved":false,"is_disabled":true,"rental_uris":{"android":"levelo://app?vid=6dc49f8f-31b8-485c-b489-e3fd253e6676","ios":"levelo://app?vid=6dc49f8f-31b8-485c-b489-e3fd253e6676"},"vehicle_type_id":"4","last_reported":1758442322,"current_range_meters":4800,"station_id":"ce4bhpp2rcd13ifvqhgg","pricing_plan_id":"cebpf4jnsgd1na2vs0mg"},{"bike_id":"0960e3dd-c358-4474-bd10-8223758e1f6b","system_id":"levelo_inurba_marseille","lat":43.296996,"lon":5.376855,"is_reserved":false,"is_disabled":false,"rental_uris":{"android":"levelo://app?vid=0960e3dd-c358-4474-bd10-8223758e1f6b","ios":"levelo://app?vid=0960e3dd-c358-4474-bd10-8223758e1f6b"},"vehicle_type_id":"4","last_reported":1758442322,"current_range_meters":4800,"station_id":"","pricing_plan_id":"cebpf4jnsgd1na2vs0mg"},{"bike_id":"ab5b9659-77bc-417b-8f8b-7002662fbf28","system_id":"levelo_inurba_marseille","lat":43.29317,"lon":5.41159,"is_reserved":false,"is_disabled":false,"rental_uris":{"android":"levelo://app?vid=ab5b9659-77bc-417b-8f8b-7002662fbf28","ios":"levelo://app?vid=ab5b9659-77bc-417b-8f8b-7002662fbf28"},"vehicle_type_id":"4","last_reported":1758442322,"current_range_meters":5600,"station_id":"","pricing_plan_id":"cebpf4jnsgd1na2vs0mg"},{"bike_id":"1dbc6ff6-de1e-44f5-9332-c8820f81075d","system_id":"levelo_inurba_marseille","lat":43.21196,"lon":5.35076,"is_reserved":false,"is_disabled":true,"rental_uris":{"android":"levelo://app?vid=1dbc6ff6-de1e-44f5-9332-c8820f81075d","ios":"levelo://app?vid=1dbc6ff6-de1e-44f5-9332-c8820f81075d"},"vehicle_type_id":"4","last_reported":1758442322,"current_range_meters":6000,"station_id":"st_cvj6sg6p6f1abm77japg","pricing_plan_id":"cebpf4jnsgd1na2vs0mg"},{"bike_id":"816e5f9f-ca3d-451e-b15d-06b844153704","system_id":"levelo_inurba_marseille","lat":43.28207,"lon":5.39065,"is_reserved":false,"is_disabled":false,"rental_uris":{"android":"levelo://app?vid=816e5f9f-ca3d-451e-b15d-06b844153704","ios":"levelo://app?vid=816e5f9f-ca3d-451e-b15d-06b844153704"},"vehicle_type_id":"4","last_reported":1758442322,"current_range_meters":6000,"station_id":"ce4bhn92rcd13ifvqgsg","pricing_plan_id":"cebpf4jnsgd1na2vs0mg"},{"bike_id":"04ac4072-76af-404d-8a72-a8ffe8ae8fcc","system_id":"levelo_inurba_marseille","lat":43.32574,"lon":5.39188,"is_reserved":false,"is_disabled":true,"rental_uris":{"android":"levelo://app?vid=04ac4072-76af-404d-8a72-a8ffe8ae8fcc","ios":"levelo://app?vid=04ac4072-76af-404d-8a72-a8ffe8ae8fcc"},"vehicle_type_id":"4","last_reported":1758442322,"current_range_meters":6000,"station_id":"","pricing_plan_id":"cebpf4jnsgd1na2vs0mg"},{"bike_id":"c627b34a-8e81-4438-af3b-4fd0aab1c160","system_id":"levelo_inurba_marseille","lat":43.29341,"lon":5.36363,"is_reserved":false,"is_disabled":false,"rental_uris":{"android":"levelo://app?vid=c627b34a-8e81-4438-af3b-4fd0aab1c160","ios":"levelo://app?vid=c627b34a-8e81-4438-af3b-4fd0aab1c160"},"vehicle_type_id":"4","last_reported":1758442322,"current_range_meters":6000,"station_id":"","pricing_plan_id":"cebpf4jnsgd1na2vs0mg"},{"bike_id":"7dd65b1b-fb7b-4087-9803-34d477de11ae","system_id":"levelo_inurba_marseille","lat":43.21183,"lon":5.35075,"is_reserved":false,"is_disabled":false,"rental_uris":{"android":"levelo://app?vid=7dd65b1b-fb7b-4087-9803-34d477de11ae","ios":"levelo://app?vid=7dd65b1b-fb7b-4087-9803-34d477de11ae"},"vehicle_type_id":"4","last_reported":1758442322,"current_range_meters":6400,"station_id":"st_cvj6sg6p6f1abm77japg","pricing_plan_id":"cebpf4jnsgd1na2vs0mg"},{"bike_id":"ab7a8fdd-ad48-4fd5-abfd-ecb2615d4d39","system_id":"levelo_inurba_marseille","lat":43.32354,"lon":5.40622,"is_reserved":false,"is_disabled":false,"rental_uris":{"android":"levelo://app?vid=ab7a8fdd-ad48-4fd5-abfd-ecb2615d4d39","ios":"levelo://app?vid=ab7a8fdd-ad48-4fd5-abfd-ecb2615d4d39"},"vehicle_type_id":"4","last_reported":1758442322,"current_range_meters":6400,"station_id":"ce4bhq92rcd13ifvqhjg","pricing_plan_id":"cebpf4jnsgd1na2vs0mg"},{"bike_id":"4f56c56b-f94f-450d-a85e-2e7032af1096","system_id":"levelo_inurba_marseille","lat":43.28695,"lon":5.39979,"is_reserved":false,"is_disabled":false,"rental_uris":{"android":"levelo://app?vid=4f56c56b-f94f-450d-a85e-2e7032af1096","ios":"levelo://app?vid=4f56c56b-f94f-450d-a85e-2e7032af1096"},"vehicle_type_id":"4","last_reported":1758442322,"current_range_meters":6400,"station_id":"ce4bho92rcd13ifvqh3g","pricing_plan_id":"cebpf4jnsgd1na2vs0mg"},{"bike_id":"3082f593-a5a6-48f9-afa8-383813f7af0b","system_id":"levelo_inurba_marseille","lat":43.21742,"lon":5.34617,"is_reserved":false,"is_disabled":true,"rental_uris":{"android":"levelo://app?vid=3082f593-a5a6-48f9-afa8-383813f7af0b","ios":"levelo://app?vid=3082f593-a5a6-48f9-afa8-383813f7af0b"},"vehicle_type_id":"4","last_reported":1758442322,"current_range_meters":6400,"station_id":"st_cvj6r9ubvosntc0bgbag","pricing_plan_id":"cebpf4jnsgd1na2vs0mg"},{"bike_id":"53264fdb-d3ce-412c-9b54-11908fde133c","system_id":"levelo_inurba_marseille","lat":43.25861,"lon":5.39924,"is_reserved":false,"is_disabled":true,"rental_uris":{"android":"levelo://app?vid=53264fdb-d3ce-412c-9b54-11908fde133c","ios":"levelo://app?vid=53264fdb-d3ce-412c-9b54-11908fde133c"},"vehicle_type_id":"4","last_reported":1758442322,"current_range_meters":6400,"station_id":"ce4bhl92rcd13ifvqghg","pricing_plan_id":"cebpf4jnsgd1na2vs0mg"},{"bike_id":"3d0eb870-fa5b-4986-bc99-e4ff452e545e","system_id":"levelo_inurba_marseille","lat":43.31768,"lon":5.39006,"is_reserved":false,"is_disabled":false,"rental_uris":{"android":"levelo://app?vid=3d0eb870-fa5b-4986-bc99-e4ff452e545e","ios":"levelo://app?vid=3d0eb870-fa5b-4986-bc99-e4ff452e545e"},"vehicle_type_id":"4","last_reported":1758442322,"current_range_meters":6400,"station_id":"ce4bhqp2rcd13ifvqhng","pricing_plan_id":"cebpf4jnsgd1na2vs0mg"},{"bike_id":"ce19734b-c251-4eaf-bf57-c69e821a93dd","system_id":"levelo_inurba_marseille","lat":43.28943,"lon":5.46542,"is_reserved":false,"is_disabled":false,"rental_uris":{"android":"levelo://app?vid=ce19734b-c251-4eaf-bf57-c69e821a93dd","ios":"levelo://app?vid=ce19734b-c251-4eaf-bf57-c69e821a93dd"},"vehicle_type_id":"4","last_reported":1758442322,"current_range_meters":6400,"station_id":"","pricing_plan_id":"cebpf4jnsgd1na2vs0mg"},{"bike_id":"378477c6-6aad-4766-98f5-567e84496f31","system_id":"levelo_inurba_marseille","lat":43.231867,"lon":5.399843,"is_reserved":false,"is_disabled":false,"rental_uris":{"android":"levelo://app?vid=378477c6-6aad-4766-98f5-567e84496f31","ios":"levelo://app?vid=378477c6-6aad-4766-98f5-567e84496f31"},"vehicle_type_id":"4","last_reported":1758442322,"current_range_meters":6400,"station_id":"ce4bhn12rcd13ifvqgqg","pricing_plan_id":"cebpf4jnsgd1na2vs0mg"},{"bike_id":"cd1fd2b3-434c-4286-8d1e-2b0be73057f4","system_id":"levelo_inurba_marseille","lat":43.23157,"lon":5.437,"is_reserved":false,"is_disabled":false,"rental_uris":{"android":"levelo://app?vid=cd1fd2b3-434c-4286-8d1e-2b0be73057f4","ios":"levelo://app?vid=cd1fd2b3-434c-4286-8d1e-2b0be73057f4"},"vehicle_type_id":"4","last_reported":1758442322,"current_range_meters":6400,"station_id":"ce4bhmp2rcd13ifvqgog","pricing_plan_id":"cebpf4jnsgd1na2vs0mg"},{"bike_id":"c51ad096-4aa3-4897-8a22-0348b7c08dfc","system_id":"levelo_inurba_marseille","lat":43.28086,"lon":5.39662,"is_reserved":false,"is_disabled":true,"rental_uris":{"android":"levelo://app?vid=c51ad096-4aa3-4897-8a22-0348b7c08dfc","ios":"levelo://app?vid=c51ad096-4aa3-4897-8a22-0348b7c08dfc"},"vehicle_type_id":"4","last_reported":1758442322,"current_range_meters":6800,"station_id":"ce4bho12rcd13ifvqh2g","pricing_plan_id":"cebpf4jnsgd1na2vs0mg"},{"bike_id":"2ed6611a-330e-4bd3-afbf-75312292f107","system_id":"levelo_inurba_marseille","lat":43.26193,"lon":5.37453,"is_reserved":false,"is_disabled":false,"rental_uris":{"android":"levelo://app?vid=2ed6611a-330e-4bd3-afbf-75312292f107","ios":"levelo://app?vid=2ed6611a-330e-4bd3-afbf-75312292f107"},"vehicle_type_id":"4","last_reported":1758442322,"current_range_meters":6800,"station_id":"ce4bhgp2rcd13ifvqfc0","pricing_plan_id":"cebpf4jnsgd1na2vs0mg"},{"bike_id":"53e573fc-04fc-42a7-b460-7431de9fb872","system_id":"levelo_inurba_marseille","lat":43.30925,"lon":5.40158,"is_reserved":false,"is_disabled":false,"rental_uris":{"android":"levelo://app?vid=53e573fc-04fc-42a7-b460-7431de9fb872","ios":"levelo://app?vid=53e573fc-04fc-42a7-b460-7431de9fb872"},"vehicle_type_id":"4","last_reported":1758442322,"current_range_meters":6800,"station_id":"ce4bgvp2rcd13ifvqct0","pricing_plan_id":"cebpf4jnsgd1na2vs0mg"},{"bike_id":"37e1f6b1-cf86-4107-9a0b-9e12910128e5","system_id":"levelo_inurba_marseille","lat":43.30177,"lon":5.36675,"is_reserved":false,"is_disabled":true,"rental_uris":{"android":"levelo://app?vid=37e1f6b1-cf86-4107-9a0b-9e12910128e5","ios":"levelo://app?vid=37e1f6b1-cf86-4107-9a0b-9e12910128e5"},"vehicle_type_id":"4","last_reported":1758442322,"current_range_meters":6800,"station_id":"ce4bgrh2rcd13ifvqc8g","pricing_plan_id":"cebpf4jnsgd1na2vs0mg"},{"bike_id":"fef4f526-738c-4bdf-9109-073dfefdd587","system_id":"levelo_inurba_marseille","lat":43.24072,"lon":5.3776,"is_reserved":false,"is_disabled":false,"rental_uris":{"android":"levelo://app?vid=fef4f526-738c-4bdf-9109-073dfefdd587","ios":"levelo://app?vid=fef4f526-738c-4bdf-9109-073dfefdd587"},"vehicle_type_id":"4","last_reported":1758442322,"current_range_meters":6800,"station_id":"ce4bhnp2rcd13ifvqgvg","pricing_plan_id":"cebpf4jnsgd1na2vs0mg"},{"bike_id":"3ec600b2-3caa-4cb9-9071-04c752d97625","system_id":"levelo_inurba_marseille","lat":43.29525,"lon":5.38531,"is_reserved":false,"is_disabled":false,"rental_uris":{"android":"levelo://app?vid=3ec600b2-3caa-4cb9-9071-04c752d97625","ios":"levelo://app?vid=3ec600b2-3caa-4cb9-9071-04c752d97625"},"vehicle_type_id":"4","last_reported":1758442322,"current_range_meters":6400,"station_id":"ce4bgih2rcd13ifvqba0","pricing_plan_id":"cebpf4jnsgd1na2vs0mg"},{"bike_id":"12ed6c49-784d-4e90-9587-47eae4f126ab","system_id":"levelo_inurba_marseille","lat":43.21742,"lon":5.34607,"is_reserved":false,"is_disabled":true,"rental_uris":{"android":"levelo://app?vid=12ed6c49-784d-4e90-9587-47eae4f126ab","ios":"levelo://app?vid=12ed6c49-784d-4e90-9587-47eae4f126ab"},"vehicle_type_id":"4","last_reported":1758442322,"current_range_meters":6800,"station_id":"st_cvj6r9ubvosntc0bgbag","pricing_plan_id":"cebpf4jnsgd1na2vs0mg"},{"bike_id":"fcb3f6af-c7d4-4ccc-be82-7f951e8865a2","system_id":"levelo_inurba_marseille","lat":43.21183,"lon":5.35079,"is_reserved":false,"is_disabled":false,"rental_uris":{"android":"levelo://app?vid=fcb3f6af-c7d4-4ccc-be82-7f951e8865a2","ios":"levelo://app?vid=fcb3f6af-c7d4-4ccc-be82-7f951e8865a2"},"vehicle_type_id":"4","last_reported":1758442322,"current_range_meters":7200,"station_id":"st_cvj6sg6p6f1abm77japg","pricing_plan_id":"cebpf4jnsgd1na2vs0mg"},{"bike_id":"e6f59a7f-e88f-4d65-bed3-135ed8be6983","system_id":"levelo_inurba_marseille","lat":43.32551,"lon":5.39103,"is_reserved":false,"is_disabled":true,"rental_uris":{"android":"levelo://app?vid=e6f59a7f-e88f-4d65-bed3-135ed8be6983","ios":"levelo://app?vid=e6f59a7f-e88f-4d65-bed3-135ed8be6983"},"vehicle_type_id":"4","last_reported":1758442322,"current_range_meters":7200,"station_id":"","pricing_plan_id":"cebpf4jnsgd1na2vs0mg"},{"bike_id":"2bdee642-8994-41be-8516-67f86bf658a4","system_id":"levelo_inurba_marseille","lat":43.24634,"lon":5.43141,"is_reserved":false,"is_disabled":false,"rental_uris":{"android":"levelo://app?vid=2bdee642-8994-41be-8516-67f86bf658a4","ios":"levelo://app?vid=2bdee642-8994-41be-8516-67f86bf658a4"},"vehicle_type_id":"4","last_reported":1758442322,"current_range_meters":7200,"station_id":"st_d2m6c4gdas8pm72e190g","pricing_plan_id":"cebpf4jnsgd1na2vs0mg"},{"bike_id":"897c4e80-6680-4e9a-8f03-da389a60d6fa","system_id":"levelo_inurba_marseille","lat":43.2827,"lon":5.35073,"is_reserved":false,"is_disabled":false,"rental_uris":{"android":"levelo://app?vid=897c4e80-6680-4e9a-8f03-da389a60d6fa","ios":"levelo://app?vid=897c4e80-6680-4e9a-8f03-da389a60d6fa"},"vehicle_type_id":"4","last_reported":1758442322,"current_range_meters":7200,"station_id":"ce4bhbp2rcd13ifvqerg","pricing_plan_id":"cebpf4jnsgd1na2vs0mg"},{"bike_id":"575f379b-682e-45a6-a90b-e2da032a9ae0","system_id":"levelo_inurba_marseille","lat":43.21194,"lon":5.35073,"is_reserved":false,"is_disabled":false,"rental_uris":{"android":"levelo://app?vid=575f379b-682e-45a6-a90b-e2da032a9ae0","ios":"levelo://app?vid=575f379b-682e-45a6-a90b-e2da032a9ae0"},"vehicle_type_id":"4","last_reported":1758442322,"current_range_meters":7200,"station_id":"st_cvj6sg6p6f1abm77japg","pricing_plan_id":"cebpf4jnsgd1na2vs0mg"},{"bike_id":"f0f8deb3-2fee-4bb8-8e9d-6ec2f63ed0cd","system_id":"levelo_inurba_marseille","lat":43.29543,"lon":5.37523,"is_reserved":false,"is_disabled":false,"rental_uris":{"android":"levelo://app?vid=f0f8deb3-2fee-4bb8-8e9d-6ec2f63ed0cd","ios":"levelo://app?vid=f0f8deb3-2fee-4bb8-8e9d-6ec2f63ed0cd"},"vehicle_type_id":"4","last_reported":1758442322,"current_range_meters":8000,"station_id":"ce4bgkp2rcd13ifvqbmg","pricing_plan_id":"cebpf4jnsgd1na2vs0mg"},{"bike_id":"c129f003-ae23-4809-a8ef-7609a70d8ece","system_id":"levelo_inurba_marseille","lat":43.29231,"lon":5.36049,"is_reserved":false,"is_disabled":false,"rental_uris":{"android":"levelo://app?vid=c129f003-ae23-4809-a8ef-7609a70d8ece","ios":"levelo://app?vid=c129f003-ae23-4809-a8ef-7609a70d8ece"},"vehicle_type_id":"4","last_reported":1758442322,"current_range_meters":8000,"station_id":"ce4bhbh2rcd13ifvqeqg","pricing_plan_id":"cebpf4jnsgd1na2vs0mg"},{"bike_id":"983a620b-01a6-4d1d-ba52-ef20538afef9","system_id":"levelo_inurba_marseille","lat":43.30945,"lon":5.39047,"is_reserved":false,"is_disabled":false,"rental_uris":{"android":"levelo://app?vid=983a620b-01a6-4d1d-ba52-ef20538afef9","ios":"levelo://app?vid=983a620b-01a6-4d1d-ba52-ef20538afef9"},"vehicle_type_id":"4","last_reported":1758442322,"current_range_meters":8000,"station_id":"ce4bgup2rcd13ifvqco0","pricing_plan_id":"cebpf4jnsgd1na2vs0mg"},{"bike_id":"c24c584e-965e-4b9f-94e0-3380ecc56df2","system_id":"levelo_inurba_marseille","lat":43.25347,"lon":5.42155,"is_reserved":false,"is_disabled":false,"rental_uris":{"android":"levelo://app?vid=c24c584e-965e-4b9f-94e0-3380ecc56df2","ios":"levelo://app?vid=c24c584e-965e-4b9f-94e0-3380ecc56df2"},"vehicle_type_id":"4","last_reported":1758442322,"current_range_meters":8000,"station_id":"st_d2m65c5bi1j21697t3ng","pricing_plan_id":"cebpf4jnsgd1na2vs0mg"},{"bike_id":"617dca4b-4508-4d52-9e62-d583d919ac44","system_id":"levelo_inurba_marseille","lat":43.29743,"lon":5.37119,"is_reserved":false,"is_disabled":false,"rental_uris":{"android":"levelo://app?vid=617dca4b-4508-4d52-9e62-d583d919ac44","ios":"levelo://app?vid=617dca4b-4508-4d52-9e62-d583d919ac44"},"vehicle_type_id":"4","last_reported":1758442322,"current_range_meters":8000,"station_id":"ce4bgop2rcd13ifvqc1g","pricing_plan_id":"cebpf4jnsgd1na2vs0mg"},{"bike_id":"c4706891-6ce1-4440-91ff-a3ecf2ff007e","system_id":"levelo_inurba_marseille","lat":43.26374,"lon":5.40075,"is_reserved":false,"is_disabled":false,"rental_uris":{"android":"levelo://app?vid=c4706891-6ce1-4440-91ff-a3ecf2ff007e","ios":"levelo://app?vid=c4706891-6ce1-4440-91ff-a3ecf2ff007e"},"vehicle_type_id":"4","last_reported":1758442322,"current_range_meters":8400,"station_id":"","pricing_plan_id":"cebpf4jnsgd1na2vs0mg"},{"bike_id":"fb995bc5-3894-4487-abcd-e5b9a8d3d3a0","system_id":"levelo_inurba_marseille","lat":43.24274,"lon":5.40279,"is_reserved":false,"is_disabled":false,"rental_uris":{"android":"levelo://app?vid=fb995bc5-3894-4487-abcd-e5b9a8d3d3a0","ios":"levelo://app?vid=fb995bc5-3894-4487-abcd-e5b9a8d3d3a0"},"vehicle_type_id":"4","last_reported":1758442322,"current_range_meters":8400,"station_id":"","pricing_plan_id":"cebpf4jnsgd1na2vs0mg"},{"bike_id":"5b84af94-a4d6-4b46-a63f-085ff5681f73","system_id":"levelo_inurba_marseille","lat":43.21188,"lon":5.35082,"is_reserved":false,"is_disabled":false,"rental_uris":{"android":"levelo://app?vid=5b84af94-a4d6-4b46-a63f-085ff5681f73","ios":"levelo://app?vid=5b84af94-a4d6-4b46-a63f-085ff5681f73"},"vehicle_type_id":"4","last_reported":1758442322,"current_range_meters":8400,"station_id":"st_cvj6sg6p6f1abm77japg","pricing_plan_id":"cebpf4jnsgd1na2vs0mg"},{"bike_id":"41d41162-c451-4e5f-8bcf-1c9a70c5510c","system_id":"levelo_inurba_marseille","lat":43.296126,"lon":5.377286,"is_reserved":false,"is_disabled":true,"rental_uris":{"android":"levelo://app?vid=41d41162-c451-4e5f-8bcf-1c9a70c5510c","ios":"levelo://app?vid=41d41162-c451-4e5f-8bcf-1c9a70c5510c"},"vehicle_type_id":"4","last_reported":1758442322,"current_range_meters":8400,"station_id":"ce4bgi92rcd13ifvqb90","pricing_plan_id":"cebpf4jnsgd1na2vs0mg"},{"bike_id":"256d9bfe-d37a-423c-a9a3-8dbdd57905f9","system_id":"levelo_inurba_marseille","lat":43.28726,"lon":5.36088,"is_reserved":false,"is_disabled":false,"rental_uris":{"android":"levelo://app?vid=256d9bfe-d37a-423c-a9a3-8dbdd57905f9","ios":"levelo://app?vid=256d9bfe-d37a-423c-a9a3-8dbdd57905f9"},"vehicle_type_id":"4","last_reported":1758442322,"current_range_meters":8400,"station_id":"cki0cbj6b192h4jlfktg","pricing_plan_id":"cebpf4jnsgd1na2vs0mg"},{"bike_id":"284e5dc7-9aa4-4996-a049-3639bfbc7f92","system_id":"levelo_inurba_marseille","lat":43.30817,"lon":5.37709,"is_reserved":false,"is_disabled":false,"rental_uris":{"android":"levelo://app?vid=284e5dc7-9aa4-4996-a049-3639bfbc7f92","ios":"levelo://app?vid=284e5dc7-9aa4-4996-a049-3639bfbc7f92"},"vehicle_type_id":"4","last_reported":1758442322,"current_range_meters":8400,"station_id":"","pricing_plan_id":"cebpf4jnsgd1na2vs0mg"},{"bike_id":"6bebf7e2-fdcc-48ad-ac1f-3ad487550ab3","system_id":"levelo_inurba_marseille","lat":43.29869,"lon":5.39747,"is_reserved":false,"is_disabled":false,"rental_uris":{"android":"levelo://app?vid=6bebf7e2-fdcc-48ad-ac1f-3ad487550ab3","ios":"levelo://app?vid=6bebf7e2-fdcc-48ad-ac1f-3ad487550ab3"},"vehicle_type_id":"4","last_reported":1758442322,"current_range_meters":8800,"station_id":"ce4bh0h2rcd13ifvqd50","pricing_plan_id":"cebpf4jnsgd1na2vs0mg"},{"bike_id":"3116075e-fa9b-423b-beef-aeee538d6e30","system_id":"levelo_inurba_marseille","lat":43.21735,"lon":5.34593,"is_reserved":false,"is_disabled":true,"rental_uris":{"android":"levelo://app?vid=3116075e-fa9b-423b-beef-aeee538d6e30","ios":"levelo://app?vid=3116075e-fa9b-423b-beef-aeee538d6e30"},"vehicle_type_id":"4","last_reported":1758442322,"current_range_meters":8800,"station_id":"st_cvj6r9ubvosntc0bgbag","pricing_plan_id":"cebpf4jnsgd1na2vs0mg"},{"bike_id":"98e8af00-4b83-49fb-a286-0d2396c92bd0","system_id":"levelo_inurba_marseille","lat":43.30895,"lon":5.36847,"is_reserved":false,"is_disabled":true,"rental_uris":{"android":"levelo://app?vid=98e8af00-4b83-49fb-a286-0d2396c92bd0","ios":"levelo://app?vid=98e8af00-4b83-49fb-a286-0d2396c92bd0"},"vehicle_type_id":"4","last_reported":1758442322,"current_range_meters":8800,"station_id":"ce4bgn92rcd13ifvqbvg","pricing_plan_id":"cebpf4jnsgd1na2vs0mg"},{"bike_id":"83774ab6-916a-4512-bbb6-fffff61e684e","system_id":"levelo_inurba_marseille","lat":43.29041,"lon":5.39978,"is_reserved":false,"is_disabled":false,"rental_uris":{"android":"levelo://app?vid=83774ab6-916a-4512-bbb6-fffff61e684e","ios":"levelo://app?vid=83774ab6-916a-4512-bbb6-fffff61e684e"},"vehicle_type_id":"4","last_reported":1758442322,"current_range_meters":8800,"station_id":"ce4bh392rcd13ifvqdm0","pricing_plan_id":"cebpf4jnsgd1na2vs0mg"},{"bike_id":"eb168494-9929-40a3-9abd-cadf01fabe8a","system_id":"levelo_inurba_marseille","lat":43.29191,"lon":5.35805,"is_reserved":false,"is_disabled":false,"rental_uris":{"android":"levelo://app?vid=eb168494-9929-40a3-9abd-cadf01fabe8a","ios":"levelo://app?vid=eb168494-9929-40a3-9abd-cadf01fabe8a"},"vehicle_type_id":"4","last_reported":1758442322,"current_range_meters":8800,"station_id":"ce4bhb12rcd13ifvqel0","pricing_plan_id":"cebpf4jnsgd1na2vs0mg"},{"bike_id":"9adec78f-4ce1-4961-83d4-96661034cd9c","system_id":"levelo_inurba_marseille","lat":43.24073,"lon":5.41333,"is_reserved":false,"is_disabled":false,"rental_uris":{"android":"levelo://app?vid=9adec78f-4ce1-4961-83d4-96661034cd9c","ios":"levelo://app?vid=9adec78f-4ce1-4961-83d4-96661034cd9c"},"vehicle_type_id":"4","last_reported":1758442322,"current_range_meters":8800,"station_id":"","pricing_plan_id":"cebpf4jnsgd1na2vs0mg"},{"bike_id":"0319c100-5c9c-49b7-9f2a-421506d58186","system_id":"levelo_inurba_marseille","lat":43.32908,"lon":5.39091,"is_reserved":false,"is_disabled":true,"rental_uris":{"android":"levelo://app?vid=0319c100-5c9c-49b7-9f2a-421506d58186","ios":"levelo://app?vid=0319c100-5c9c-49b7-9f2a-421506d58186"},"vehicle_type_id":"4","last_reported":1758442322,"current_range_meters":8800,"station_id":"","pricing_plan_id":"cebpf4jnsgd1na2vs0mg"},{"bike_id":"1c2ec2b3-5fa4-4dad-b085-89cc349ccb29","system_id":"levelo_inurba_marseille","lat":43.317251,"lon":5.424013,"is_reserved":false,"is_disabled":false,"rental_uris":{"android":"levelo://app?vid=1c2ec2b3-5fa4-4dad-b085-89cc349ccb29","ios":"levelo://app?vid=1c2ec2b3-5fa4-4dad-b085-89cc349ccb29"},"vehicle_type_id":"4","last_reported":1758442322,"current_range_meters":9200,"station_id":"ce4bhp92rcd13ifvqhbg","pricing_plan_id":"cebpf4jnsgd1na2vs0mg"},{"bike_id":"576f2039-00ac-4f2c-a68d-0faa97f37880","system_id":"levelo_inurba_marseille","lat":43.33175,"lon":5.39263,"is_reserved":false,"is_disabled":true,"rental_uris":{"android":"levelo://app?vid=576f2039-00ac-4f2c-a68d-0faa97f37880","ios":"levelo://app?vid=576f2039-00ac-4f2c-a68d-0faa97f37880"},"vehicle_type_id":"4","last_reported":1758442322,"current_range_meters":9200,"station_id":"","pricing_plan_id":"cebpf4jnsgd1na2vs0mg"},{"bike_id":"77c29b03-885a-40a4-9585-62d951ee2e0b","system_id":"levelo_inurba_marseille","lat":43.29717,"lon":5.37685,"is_reserved":false,"is_disabled":false,"rental_uris":{"android":"levelo://app?vid=77c29b03-885a-40a4-9585-62d951ee2e0b","ios":"levelo://app?vid=77c29b03-885a-40a4-9585-62d951ee2e0b"},"vehicle_type_id":"4","last_reported":1758442322,"current_range_meters":9200,"station_id":"ce4bgkh2rcd13ifvqbl0","pricing_plan_id":"cebpf4jnsgd1na2vs0mg"},{"bike_id":"ae5ccd80-2896-4733-9148-6522e9bbfe0c","system_id":"levelo_inurba_marseille","lat":43.22544,"lon":5.41646,"is_reserved":false,"is_disabled":true,"rental_uris":{"android":"levelo://app?vid=ae5ccd80-2896-4733-9148-6522e9bbfe0c","ios":"levelo://app?vid=ae5ccd80-2896-4733-9148-6522e9bbfe0c"},"vehicle_type_id":"4","last_reported":1758442322,"current_range_meters":9200,"station_id":"st_d2o4gvlbi1j2169b742g","pricing_plan_id":"cebpf4jnsgd1na2vs0mg"},{"bike_id":"9637c146-59d7-436a-a4f3-e8022fe36949","system_id":"levelo_inurba_marseille","lat":43.21194,"lon":5.35089,"is_reserved":false,"is_disabled":false,"rental_uris":{"android":"levelo://app?vid=9637c146-59d7-436a-a4f3-e8022fe36949","ios":"levelo://app?vid=9637c146-59d7-436a-a4f3-e8022fe36949"},"vehicle_type_id":"4","last_reported":1758442322,"current_range_meters":9200,"station_id":"st_cvj6sg6p6f1abm77japg","pricing_plan_id":"cebpf4jnsgd1na2vs0mg"},{"bike_id":"8b96fbd8-2945-4ab5-9278-d6f86d4be219","system_id":"levelo_inurba_marseille","lat":43.24391,"lon":5.37052,"is_reserved":false,"is_disabled":false,"rental_uris":{"android":"levelo://app?vid=8b96fbd8-2945-4ab5-9278-d6f86d4be219","ios":"levelo://app?vid=8b96fbd8-2945-4ab5-9278-d6f86d4be219"},"vehicle_type_id":"4","last_reported":1758442322,"current_range_meters":9200,"station_id":"ce4bhhh2rcd13ifvqfk0","pricing_plan_id":"cebpf4jnsgd1na2vs0mg"},{"bike_id":"2c534eaa-7774-4900-9c81-8b5cd3ce0c45","system_id":"levelo_inurba_marseille","lat":43.26942,"lon":5.40262,"is_reserved":false,"is_disabled":false,"rental_uris":{"android":"levelo://app?vid=2c534eaa-7774-4900-9c81-8b5cd3ce0c45","ios":"levelo://app?vid=2c534eaa-7774-4900-9c81-8b5cd3ce0c45"},"vehicle_type_id":"4","last_reported":1758442322,"current_range_meters":9200,"station_id":"cjm6bp8fraef2m0cb0m0","pricing_plan_id":"cebpf4jnsgd1na2vs0mg"},{"bike_id":"0f7caa9f-1d1a-40d7-9b4a-2f8720e63681","system_id":"levelo_inurba_marseille","lat":43.30873,"lon":5.37553,"is_reserved":false,"is_disabled":false,"rental_uris":{"android":"levelo://app?vid=0f7caa9f-1d1a-40d7-9b4a-2f8720e63681","ios":"levelo://app?vid=0f7caa9f-1d1a-40d7-9b4a-2f8720e63681"},"vehicle_type_id":"4","last_reported":1758442322,"current_range_meters":9600,"station_id":"","pricing_plan_id":"cebpf4jnsgd1na2vs0mg"},{"bike_id":"5193c79a-dd55-4a9d-b4d1-489e3d5d3c5b","system_id":"levelo_inurba_marseille","lat":43.31499,"lon":5.37266,"is_reserved":false,"is_disabled":false,"rental_uris":{"android":"levelo://app?vid=5193c79a-dd55-4a9d-b4d1-489e3d5d3c5b","ios":"levelo://app?vid=5193c79a-dd55-4a9d-b4d1-489e3d5d3c5b"},"vehicle_type_id":"4","last_reported":1758442322,"current_range_meters":9600,"station_id":"ce4bgt12rcd13ifvqcd0","pricing_plan_id":"cebpf4jnsgd1na2vs0mg"},{"bike_id":"89abb31b-0297-46fc-9c27-47c11e9b15f4","system_id":"levelo_inurba_marseille","lat":43.30152,"lon":5.38094,"is_reserved":false,"is_disabled":false,"rental_uris":{"android":"levelo://app?vid=89abb31b-0297-46fc-9c27-47c11e9b15f4","ios":"levelo://app?vid=89abb31b-0297-46fc-9c27-47c11e9b15f4"},"vehicle_type_id":"4","last_reported":1758442322,"current_range_meters":9600,"station_id":"ce4bgjp2rcd13ifvqbh0","pricing_plan_id":"cebpf4jnsgd1na2vs0mg"},{"bike_id":"6d0ef348-fd86-4c26-9096-d229d04ea986","system_id":"levelo_inurba_marseille","lat":43.27883,"lon":5.40554,"is_reserved":false,"is_disabled":true,"rental_uris":{"android":"levelo://app?vid=6d0ef348-fd86-4c26-9096-d229d04ea986","ios":"levelo://app?vid=6d0ef348-fd86-4c26-9096-d229d04ea986"},"vehicle_type_id":"4","last_reported":1758442322,"current_range_meters":9600,"station_id":"","pricing_plan_id":"cebpf4jnsgd1na2vs0mg"},{"bike_id":"e0350e70-2592-4f30-a29f-913a6972d66c","system_id":"levelo_inurba_marseille","lat":43.26229,"lon":5.40414,"is_reserved":false,"is_disabled":false,"rental_uris":{"android":"levelo://app?vid=e0350e70-2592-4f30-a29f-913a6972d66c","ios":"levelo://app?vid=e0350e70-2592-4f30-a29f-913a6972d66c"},"vehicle_type_id":"4","last_reported":1758442322,"current_range_meters":9600,"station_id":"ce4bhmh2rcd13ifvqgmg","pricing_plan_id":"cebpf4jnsgd1na2vs0mg"},{"bike_id":"213f818a-2fc2-423a-8734-2921a1895f7c","system_id":"levelo_inurba_marseille","lat":43.21206,"lon":5.35072,"is_reserved":false,"is_disabled":false,"rental_uris":{"android":"levelo://app?vid=213f818a-2fc2-423a-8734-2921a1895f7c","ios":"levelo://app?vid=213f818a-2fc2-423a-8734-2921a1895f7c"},"vehicle_type_id":"4","last_reported":1758442322,"current_range_meters":10000,"station_id":"st_cvj6sg6p6f1abm77japg","pricing_plan_id":"cebpf4jnsgd1na2vs0mg"},{"bike_id":"1ec2c9ee-599c-41dd-952b-4550e21655ba","system_id":"levelo_inurba_marseille","lat":43.31495,"lon":5.37285,"is_reserved":false,"is_disabled":false,"rental_uris":{"android":"levelo://app?vid=1ec2c9ee-599c-41dd-952b-4550e21655ba","ios":"levelo://app?vid=1ec2c9ee-599c-41dd-952b-4550e21655ba"},"vehicle_type_id":"4","last_reported":1758442322,"current_range_meters":10000,"station_id":"ce4bgt12rcd13ifvqcd0","pricing_plan_id":"cebpf4jnsgd1na2vs0mg"},{"bike_id":"d701ffb6-d985-42e1-8545-ee350fa0185e","system_id":"levelo_inurba_marseille","lat":43.2861,"lon":5.37093,"is_reserved":false,"is_disabled":true,"rental_uris":{"android":"levelo://app?vid=d701ffb6-d985-42e1-8545-ee350fa0185e","ios":"levelo://app?vid=d701ffb6-d985-42e1-8545-ee350fa0185e"},"vehicle_type_id":"4","last_reported":1758442322,"current_range_meters":10000,"station_id":"ce4bht12rcd13ifvqi60","pricing_plan_id":"cebpf4jnsgd1na2vs0mg"},{"bike_id":"2f4ba3c4-d560-4d54-af01-9eafbd4f5950","system_id":"levelo_inurba_marseille","lat":43.24401,"lon":5.3707,"is_reserved":false,"is_disabled":true,"rental_uris":{"android":"levelo://app?vid=2f4ba3c4-d560-4d54-af01-9eafbd4f5950","ios":"levelo://app?vid=2f4ba3c4-d560-4d54-af01-9eafbd4f5950"},"vehicle_type_id":"4","last_reported":1758442322,"current_range_meters":10000,"station_id":"ce4bhhh2rcd13ifvqfk0","pricing_plan_id":"cebpf4jnsgd1na2vs0mg"},{"bike_id":"b766d582-d4f0-4f9a-9867-0ae0b8177870","system_id":"levelo_inurba_marseille","lat":43.21183,"lon":5.35074,"is_reserved":false,"is_disabled":false,"rental_uris":{"android":"levelo://app?vid=b766d582-d4f0-4f9a-9867-0ae0b8177870","ios":"levelo://app?vid=b766d582-d4f0-4f9a-9867-0ae0b8177870"},"vehicle_type_id":"4","last_reported":1758442322,"current_range_meters":10000,"station_id":"st_cvj6sg6p6f1abm77japg","pricing_plan_id":"cebpf4jnsgd1na2vs0mg"},{"bike_id":"a33a7d2b-3a19-4e17-8886-71256af367d3","system_id":"levelo_inurba_marseille","lat":43.28157,"lon":5.42654,"is_reserved":false,"is_disabled":true,"rental_uris":{"android":"levelo://app?vid=a33a7d2b-3a19-4e17-8886-71256af367d3","ios":"levelo://app?vid=a33a7d2b-3a19-4e17-8886-71256af367d3"},"vehicle_type_id":"4","last_reported":1758442322,"current_range_meters":10000,"station_id":"ce4bhnh2rcd13ifvqgug","pricing_plan_id":"cebpf4jnsgd1na2vs0mg"},{"bike_id":"c1843d42-9f15-4235-8c7f-0c60147cb155","system_id":"levelo_inurba_marseille","lat":43.21195,"lon":5.35104,"is_reserved":false,"is_disabled":false,"rental_uris":{"android":"levelo://app?vid=c1843d42-9f15-4235-8c7f-0c60147cb155","ios":"levelo://app?vid=c1843d42-9f15-4235-8c7f-0c60147cb155"},"vehicle_type_id":"4","last_reported":1758442322,"current_range_meters":10000,"station_id":"st_cvj6sg6p6f1abm77japg","pricing_plan_id":"cebpf4jnsgd1na2vs0mg"},{"bike_id":"be1d288a-4bd5-4641-8f1b-5e507a7feddc","system_id":"levelo_inurba_marseille","lat":43.24167,"lon":5.39726,"is_reserved":false,"is_disabled":false,"rental_uris":{"android":"levelo://app?vid=be1d288a-4bd5-4641-8f1b-5e507a7feddc","ios":"levelo://app?vid=be1d288a-4bd5-4641-8f1b-5e507a7feddc"},"vehicle_type_id":"4","last_reported":1758442322,"current_range_meters":10000,"station_id":"ce4bhn12rcd13ifvqgpg","pricing_plan_id":"cebpf4jnsgd1na2vs0mg"},{"bike_id":"facab4cd-9207-4e9f-ab62-f64f567a1437","system_id":"levelo_inurba_marseille","lat":43.3013,"lon":5.38788,"is_reserved":false,"is_disabled":true,"rental_uris":{"android":"levelo://app?vid=facab4cd-9207-4e9f-ab62-f64f567a1437","ios":"levelo://app?vid=facab4cd-9207-4e9f-ab62-f64f567a1437"},"vehicle_type_id":"4","last_reported":1758442322,"current_range_meters":10000,"station_id":"ce4bghh2rcd13ifvqb60","pricing_plan_id":"cebpf4jnsgd1na2vs0mg"},{"bike_id":"534ff5b4-9e83-493b-9063-104ef0af4212","system_id":"levelo_inurba_marseille","lat":43.27992,"lon":5.41661,"is_reserved":false,"is_disabled":true,"rental_uris":{"android":"levelo://app?vid=534ff5b4-9e83-493b-9063-104ef0af4212","ios":"levelo://app?vid=534ff5b4-9e83-493b-9063-104ef0af4212"},"vehicle_type_id":"4","last_reported":1758442322,"current_range_meters":10000,"station_id":"ce4bho12rcd13ifvqh1g","pricing_plan_id":"cebpf4jnsgd1na2vs0mg"},{"bike_id":"3233d7e4-5f56-4e8d-93a4-1dd88f8cd7b9","system_id":"levelo_inurba_marseille","lat":43.30378,"lon":5.42475,"is_reserved":false,"is_disabled":false,"rental_uris":{"android":"levelo://app?vid=3233d7e4-5f56-4e8d-93a4-1dd88f8cd7b9","ios":"levelo://app?vid=3233d7e4-5f56-4e8d-93a4-1dd88f8cd7b9"},"vehicle_type_id":"4","last_reported":1758442322,"current_range_meters":10000,"station_id":"ce4bhoh2rcd13ifvqh6g","pricing_plan_id":"cebpf4jnsgd1na2vs0mg"},{"bike_id":"7a4b0f1a-c2ee-4dbe-b661-5def8902608f","system_id":"levelo_inurba_marseille","lat":43.22941,"lon":5.35383,"is_reserved":false,"is_disabled":false,"rental_uris":{"android":"levelo://app?vid=7a4b0f1a-c2ee-4dbe-b661-5def8902608f","ios":"levelo://app?vid=7a4b0f1a-c2ee-4dbe-b661-5def8902608f"},"vehicle_type_id":"4","last_reported":1758442322,"current_range_meters":10800,"station_id":"cpo3532slgdg3j2ikp40","pricing_plan_id":"cebpf4jnsgd1na2vs0mg"},{"bike_id":"77414249-1f78-4b2e-aa29-789893ea1742","system_id":"levelo_inurba_marseille","lat":43.28171,"lon":5.42622,"is_reserved":false,"is_disabled":true,"rental_uris":{"android":"levelo://app?vid=77414249-1f78-4b2e-aa29-789893ea1742","ios":"levelo://app?vid=77414249-1f78-4b2e-aa29-789893ea1742"},"vehicle_type_id":"4","last_reported":1758442322,"current_range_meters":10800,"station_id":"ce4bhnh2rcd13ifvqgug","pricing_plan_id":"cebpf4jnsgd1na2vs0mg"},{"bike_id":"66025994-f94f-4211-a619-224b3a69e8d4","system_id":"levelo_inurba_marseille","lat":43.23963,"lon":5.36631,"is_reserved":false,"is_disabled":false,"rental_uris":{"android":"levelo://app?vid=66025994-f94f-4211-a619-224b3a69e8d4","ios":"levelo://app?vid=66025994-f94f-4211-a619-224b3a69e8d4"},"vehicle_type_id":"4","last_reported":1758442322,"current_range_meters":10800,"station_id":"ce4bhi12rcd13ifvqfp0","pricing_plan_id":"cebpf4jnsgd1na2vs0mg"},{"bike_id":"b28536fb-1a1f-4c02-92d1-a68528fce61d","system_id":"levelo_inurba_marseille","lat":43.29315,"lon":5.37181,"is_reserved":false,"is_disabled":true,"rental_uris":{"android":"levelo://app?vid=b28536fb-1a1f-4c02-92d1-a68528fce61d","ios":"levelo://app?vid=b28536fb-1a1f-4c02-92d1-a68528fce61d"},"vehicle_type_id":"4","last_reported":1758442322,"current_range_meters":10800,"station_id":"ce4bgh92rcd13ifvqb40","pricing_plan_id":"cebpf4jnsgd1na2vs0mg"},{"bike_id":"8f90c6e9-c2a0-414b-a280-ed01b517d1e8","system_id":"levelo_inurba_marseille","lat":43.21193,"lon":5.35061,"is_reserved":false,"is_disabled":false,"rental_uris":{"android":"levelo://app?vid=8f90c6e9-c2a0-414b-a280-ed01b517d1e8","ios":"levelo://app?vid=8f90c6e9-c2a0-414b-a280-ed01b517d1e8"},"vehicle_type_id":"4","last_reported":1758442322,"current_range_meters":10800,"station_id":"st_cvj6sg6p6f1abm77japg","pricing_plan_id":"cebpf4jnsgd1na2vs0mg"},{"bike_id":"223b7bd3-4e58-43fc-b261-f699c49e7071","system_id":"levelo_inurba_marseille","lat":43.29623,"lon":5.40613,"is_reserved":false,"is_disabled":false,"rental_uris":{"android":"levelo://app?vid=223b7bd3-4e58-43fc-b261-f699c49e7071","ios":"levelo://app?vid=223b7bd3-4e58-43fc-b261-f699c49e7071"},"vehicle_type_id":"4","last_reported":1758442322,"current_range_meters":10800,"station_id":"ce4bh0h2rcd13ifvqd60","pricing_plan_id":"cebpf4jnsgd1na2vs0mg"},{"bike_id":"97893650-9a0c-47e4-baee-ec60bbc1b06d","system_id":"levelo_inurba_marseille","lat":43.25744,"lon":5.41099,"is_reserved":false,"is_disabled":true,"rental_uris":{"android":"levelo://app?vid=97893650-9a0c-47e4-baee-ec60bbc1b06d","ios":"levelo://app?vid=97893650-9a0c-47e4-baee-ec60bbc1b06d"},"vehicle_type_id":"4","last_reported":1758442322,"current_range_meters":10800,"station_id":"ce4bhkp2rcd13ifvqgd0","pricing_plan_id":"cebpf4jnsgd1na2vs0mg"},{"bike_id":"527cbfc9-ea8a-4822-bda0-e7e0d824b792","system_id":"levelo_inurba_marseille","lat":43.24668,"lon":5.38149,"is_reserved":false,"is_disabled":false,"rental_uris":{"android":"levelo://app?vid=527cbfc9-ea8a-4822-bda0-e7e0d824b792","ios":"levelo://app?vid=527cbfc9-ea8a-4822-bda0-e7e0d824b792"},"vehicle_type_id":"4","last_reported":1758442322,"current_range_meters":10800,"station_id":"ce4bhih2rcd13ifvqfr0","pricing_plan_id":"cebpf4jnsgd1na2vs0mg"},{"bike_id":"8e6747cf-b8c6-4cd7-bba9-81728939e96e","system_id":"levelo_inurba_marseille","lat":43.27808,"lon":5.40717,"is_reserved":false,"is_disabled":true,"rental_uris":{"android":"levelo://app?vid=8e6747cf-b8c6-4cd7-bba9-81728939e96e","ios":"levelo://app?vid=8e6747cf-b8c6-4cd7-bba9-81728939e96e"},"vehicle_type_id":"4","last_reported":1758442322,"current_range_meters":10800,"station_id":"ce4bhnh2rcd13ifvqgtg","pricing_plan_id":"cebpf4jnsgd1na2vs0mg"},{"bike_id":"55d1bc08-fd54-4a82-afc7-2adcaa7b1c4e","system_id":"levelo_inurba_marseille","lat":43.30023,"lon":5.37714,"is_reserved":false,"is_disabled":false,"rental_uris":{"android":"levelo://app?vid=55d1bc08-fd54-4a82-afc7-2adcaa7b1c4e","ios":"levelo://app?vid=55d1bc08-fd54-4a82-afc7-2adcaa7b1c4e"},"vehicle_type_id":"4","last_reported":1758442322,"current_range_meters":10800,"station_id":"","pricing_plan_id":"cebpf4jnsgd1na2vs0mg"},{"bike_id":"94c8fc6f-e70c-4b36-9dd7-b9f8bf160e02","system_id":"levelo_inurba_marseille","lat":43.24069,"lon":5.37764,"is_reserved":false,"is_disabled":false,"rental_uris":{"android":"levelo://app?vid=94c8fc6f-e70c-4b36-9dd7-b9f8bf160e02","ios":"levelo://app?vid=94c8fc6f-e70c-4b36-9dd7-b9f8bf160e02"},"vehicle_type_id":"4","last_reported":1758442322,"current_range_meters":10800,"station_id":"ce4bhnp2rcd13ifvqgvg","pricing_plan_id":"cebpf4jnsgd1na2vs0mg"},{"bike_id":"2d82061a-a240-43d1-93a6-ab71cf777b3c","system_id":"levelo_inurba_marseille","lat":43.211911,"lon":5.350689,"is_reserved":false,"is_disabled":false,"rental_uris":{"android":"levelo://app?vid=2d82061a-a240-43d1-93a6-ab71cf777b3c","ios":"levelo://app?vid=2d82061a-a240-43d1-93a6-ab71cf777b3c"},"vehicle_type_id":"4","last_reported":1758442322,"current_range_meters":10800,"station_id":"st_cvj6sg6p6f1abm77japg","pricing_plan_id":"cebpf4jnsgd1na2vs0mg"},{"bike_id":"2015c1f2-c286-408a-b930-50d865ce0bb9","system_id":"levelo_inurba_marseille","lat":43.21201,"lon":5.350911,"is_reserved":false,"is_disabled":false,"rental_uris":{"android":"levelo://app?vid=2015c1f2-c286-408a-b930-50d865ce0bb9","ios":"levelo://app?vid=2015c1f2-c286-408a-b930-50d865ce0bb9"},"vehicle_type_id":"4","last_reported":1758442322,"current_range_meters":10800,"station_id":"st_cvj6sg6p6f1abm77japg","pricing_plan_id":"cebpf4jnsgd1na2vs0mg"},{"bike_id":"68adab37-f5ad-4072-b58a-fe6c68285ca6","system_id":"levelo_inurba_marseille","lat":43.30624,"lon":5.37658,"is_reserved":false,"is_disabled":false,"rental_uris":{"android":"levelo://app?vid=68adab37-f5ad-4072-b58a-fe6c68285ca6","ios":"levelo://app?vid=68adab37-f5ad-4072-b58a-fe6c68285ca6"},"vehicle_type_id":"4","last_reported":1758442322,"current_range_meters":11200,"station_id":"","pricing_plan_id":"cebpf4jnsgd1na2vs0mg"},{"bike_id":"a6fca1ab-da49-42a5-966c-8f06d6d92855","system_id":"levelo_inurba_marseille","lat":43.30892,"lon":5.39656,"is_reserved":false,"is_disabled":false,"rental_uris":{"android":"levelo://app?vid=a6fca1ab-da49-42a5-966c-8f06d6d92855","ios":"levelo://app?vid=a6fca1ab-da49-42a5-966c-8f06d6d92855"},"vehicle_type_id":"4","last_reported":1758442322,"current_range_meters":11200,"station_id":"","pricing_plan_id":"cebpf4jnsgd1na2vs0mg"},{"bike_id":"ea9c3128-c564-4f4c-8f5d-5027bd504982","system_id":"levelo_inurba_marseille","lat":43.2792,"lon":5.39576,"is_reserved":false,"is_disabled":true,"rental_uris":{"android":"levelo://app?vid=ea9c3128-c564-4f4c-8f5d-5027bd504982","ios":"levelo://app?vid=ea9c3128-c564-4f4c-8f5d-5027bd504982"},"vehicle_type_id":"4","last_reported":1758442322,"current_range_meters":11200,"station_id":"ce4bhf92rcd13ifvqf40","pricing_plan_id":"cebpf4jnsgd1na2vs0mg"},{"bike_id":"97a089a1-0c2b-4b71-9a3f-449f6236ef1a","system_id":"levelo_inurba_marseille","lat":43.3041,"lon":5.381178,"is_reserved":false,"is_disabled":false,"rental_uris":{"android":"levelo://app?vid=97a089a1-0c2b-4b71-9a3f-449f6236ef1a","ios":"levelo://app?vid=97a089a1-0c2b-4b71-9a3f-449f6236ef1a"},"vehicle_type_id":"4","last_reported":1758442322,"current_range_meters":11200,"station_id":"ce4bhnp2rcd13ifvqgvg","pricing_plan_id":"cebpf4jnsgd1na2vs0mg"},{"bike_id":"efe4c92d-c909-492f-a0bc-bcfece1fb6e4","system_id":"levelo_inurba_marseille","lat":43.29527,"lon":5.38537,"is_reserved":false,"is_disabled":false,"rental_uris":{"android":"levelo://app?vid=efe4c92d-c909-492f-a0bc-bcfece1fb6e4","ios":"levelo://app?vid=efe4c92d-c909-492f-a0bc-bcfece1fb6e4"},"vehicle_type_id":"4","last_reported":1758442322,"current_range_meters":11200,"station_id":"ce4bgih2rcd13ifvqba0","pricing_plan_id":"cebpf4jnsgd1na2vs0mg"},{"bike_id":"d2677a12-2024-4e55-9ffa-ad8dbccf1de6","system_id":"levelo_inurba_marseille","lat":43.29204,"lon":5.39332,"is_reserved":false,"is_disabled":false,"rental_uris":{"android":"levelo://app?vid=d2677a12-2024-4e55-9ffa-ad8dbccf1de6","ios":"levelo://app?vid=d2677a12-2024-4e55-9ffa-ad8dbccf1de6"},"vehicle_type_id":"4","last_reported":1758442322,"current_range_meters":9600,"station_id":"ce4bh192rcd13ifvqdd0","pricing_plan_id":"cebpf4jnsgd1na2vs0mg"},{"bike_id":"fcdf231d-004a-41f8-b1ef-36ce260a3ad4","system_id":"levelo_inurba_marseille","lat":43.30438,"lon":5.3792,"is_reserved":false,"is_disabled":false,"rental_uris":{"android":"levelo://app?vid=fcdf231d-004a-41f8-b1ef-36ce260a3ad4","ios":"levelo://app?vid=fcdf231d-004a-41f8-b1ef-36ce260a3ad4"},"vehicle_type_id":"4","last_reported":1758442322,"current_range_meters":11200,"station_id":"ce4bgup2rcd13ifvqcn0","pricing_plan_id":"cebpf4jnsgd1na2vs0mg"},{"bike_id":"a07a513e-e5a9-4481-8592-d991379bc662","system_id":"levelo_inurba_marseille","lat":43.337536,"lon":5.374536,"is_reserved":false,"is_disabled":false,"rental_uris":{"android":"levelo://app?vid=a07a513e-e5a9-4481-8592-d991379bc662","ios":"levelo://app?vid=a07a513e-e5a9-4481-8592-d991379bc662"},"vehicle_type_id":"4","last_reported":1758442322,"current_range_meters":11200,"station_id":"","pricing_plan_id":"cebpf4jnsgd1na2vs0mg"},{"bike_id":"5319fae8-be79-4d87-b5d0-b333eba32d6a","system_id":"levelo_inurba_marseille","lat":43.211833,"lon":5.350788,"is_reserved":false,"is_disabled":false,"rental_uris":{"android":"levelo://app?vid=5319fae8-be79-4d87-b5d0-b333eba32d6a","ios":"levelo://app?vid=5319fae8-be79-4d87-b5d0-b333eba32d6a"},"vehicle_type_id":"4","last_reported":1758442322,"current_range_meters":11600,"station_id":"st_cvj6sg6p6f1abm77japg","pricing_plan_id":"cebpf4jnsgd1na2vs0mg"},{"bike_id":"a2102b8c-b983-4410-9ad4-d6231edcc8e2","system_id":"levelo_inurba_marseille","lat":43.29622,"lon":5.40577,"is_reserved":false,"is_disabled":false,"rental_uris":{"android":"levelo://app?vid=a2102b8c-b983-4410-9ad4-d6231edcc8e2","ios":"levelo://app?vid=a2102b8c-b983-4410-9ad4-d6231edcc8e2"},"vehicle_type_id":"4","last_reported":1758442322,"current_range_meters":11600,"station_id":"ce4bh0h2rcd13ifvqd60","pricing_plan_id":"cebpf4jnsgd1na2vs0mg"},{"bike_id":"e86cce24-0f21-4e0d-a094-2ca607577906","system_id":"levelo_inurba_marseille","lat":43.30127,"lon":5.38764,"is_reserved":false,"is_disabled":true,"rental_uris":{"android":"levelo://app?vid=e86cce24-0f21-4e0d-a094-2ca607577906","ios":"levelo://app?vid=e86cce24-0f21-4e0d-a094-2ca607577906"},"vehicle_type_id":"4","last_reported":1758442322,"current_range_meters":11600,"station_id":"ce4bghh2rcd13ifvqb60","pricing_plan_id":"cebpf4jnsgd1na2vs0mg"},{"bike_id":"1ff39d7b-2539-46bc-b9f5-8104a0a2c0aa","system_id":"levelo_inurba_marseille","lat":43.305871,"lon":5.37196,"is_reserved":false,"is_disabled":false,"rental_uris":{"android":"levelo://app?vid=1ff39d7b-2539-46bc-b9f5-8104a0a2c0aa","ios":"levelo://app?vid=1ff39d7b-2539-46bc-b9f5-8104a0a2c0aa"},"vehicle_type_id":"4","last_reported":1758442322,"current_range_meters":11600,"station_id":"ce4bgqh2rcd13ifvqc4g","pricing_plan_id":"cebpf4jnsgd1na2vs0mg"},{"bike_id":"f6d09edb-46c8-43ac-bc24-11a7161d11b8","system_id":"levelo_inurba_marseille","lat":43.31763,"lon":5.39021,"is_reserved":false,"is_disabled":false,"rental_uris":{"android":"levelo://app?vid=f6d09edb-46c8-43ac-bc24-11a7161d11b8","ios":"levelo://app?vid=f6d09edb-46c8-43ac-bc24-11a7161d11b8"},"vehicle_type_id":"4","last_reported":1758442322,"current_range_meters":11600,"station_id":"ce4bhqp2rcd13ifvqhng","pricing_plan_id":"cebpf4jnsgd1na2vs0mg"},{"bike_id":"70589723-c695-466f-b9b6-01fc3c0c0dac","system_id":"levelo_inurba_marseille","lat":43.29037,"lon":5.39972,"is_reserved":false,"is_disabled":false,"rental_uris":{"android":"levelo://app?vid=70589723-c695-466f-b9b6-01fc3c0c0dac","ios":"levelo://app?vid=70589723-c695-466f-b9b6-01fc3c0c0dac"},"vehicle_type_id":"4","last_reported":1758442322,"current_range_meters":12000,"station_id":"ce4bh392rcd13ifvqdm0","pricing_plan_id":"cebpf4jnsgd1na2vs0mg"},{"bike_id":"5c1ecbc7-6a51-471c-9a6a-d85d8932eaff","system_id":"levelo_inurba_marseille","lat":43.31338,"lon":5.41324,"is_reserved":false,"is_disabled":false,"rental_uris":{"android":"levelo://app?vid=5c1ecbc7-6a51-471c-9a6a-d85d8932eaff","ios":"levelo://app?vid=5c1ecbc7-6a51-471c-9a6a-d85d8932eaff"},"vehicle_type_id":"4","last_reported":1758442322,"current_range_meters":12000,"station_id":"","pricing_plan_id":"cebpf4jnsgd1na2vs0mg"},{"bike_id":"eaa4b818-5f73-43c6-b1a3-2bd219aca400","system_id":"levelo_inurba_marseille","lat":43.25331,"lon":5.42174,"is_reserved":false,"is_disabled":false,"rental_uris":{"android":"levelo://app?vid=eaa4b818-5f73-43c6-b1a3-2bd219aca400","ios":"levelo://app?vid=eaa4b818-5f73-43c6-b1a3-2bd219aca400"},"vehicle_type_id":"4","last_reported":1758442322,"current_range_meters":12400,"station_id":"st_d2m65c5bi1j21697t3ng","pricing_plan_id":"cebpf4jnsgd1na2vs0mg"},{"bike_id":"28e12325-1bac-4433-9100-6c834d569a46","system_id":"levelo_inurba_marseille","lat":43.31482,"lon":5.3732,"is_reserved":false,"is_disabled":false,"rental_uris":{"android":"levelo://app?vid=28e12325-1bac-4433-9100-6c834d569a46","ios":"levelo://app?vid=28e12325-1bac-4433-9100-6c834d569a46"},"vehicle_type_id":"4","last_reported":1758442322,"current_range_meters":12400,"station_id":"ce4bgt12rcd13ifvqcd0","pricing_plan_id":"cebpf4jnsgd1na2vs0mg"},{"bike_id":"5d633773-c86d-4663-ae55-dfb6f9eda023","system_id":"levelo_inurba_marseille","lat":43.2593,"lon":5.40879,"is_reserved":false,"is_disabled":false,"rental_uris":{"android":"levelo://app?vid=5d633773-c86d-4663-ae55-dfb6f9eda023","ios":"levelo://app?vid=5d633773-c86d-4663-ae55-dfb6f9eda023"},"vehicle_type_id":"4","last_reported":1758442322,"current_range_meters":12400,"station_id":"","pricing_plan_id":"cebpf4jnsgd1na2vs0mg"},{"bike_id":"9b470796-c41e-49a1-ac18-9b8e5946e2cf","system_id":"levelo_inurba_marseille","lat":43.27491,"lon":5.42447,"is_reserved":false,"is_disabled":false,"rental_uris":{"android":"levelo://app?vid=9b470796-c41e-49a1-ac18-9b8e5946e2cf","ios":"levelo://app?vid=9b470796-c41e-49a1-ac18-9b8e5946e2cf"},"vehicle_type_id":"4","last_reported":1758442322,"current_range_meters":12400,"station_id":"ce4bhn92rcd13ifvqgrg","pricing_plan_id":"cebpf4jnsgd1na2vs0mg"},{"bike_id":"a2cb9d12-1bc1-402c-a582-c559c163f0a9","system_id":"levelo_inurba_marseille","lat":43.29247,"lon":5.40899,"is_reserved":false,"is_disabled":false,"rental_uris":{"android":"levelo://app?vid=a2cb9d12-1bc1-402c-a582-c559c163f0a9","ios":"levelo://app?vid=a2cb9d12-1bc1-402c-a582-c559c163f0a9"},"vehicle_type_id":"4","last_reported":1758442322,"current_range_meters":12400,"station_id":"ce4bh192rcd13ifvqdc0","pricing_plan_id":"cebpf4jnsgd1na2vs0mg"},{"bike_id":"a57b1326-853b-4a8b-afe8-49b1f5da3f6e","system_id":"levelo_inurba_marseille","lat":43.25921,"lon":5.40897,"is_reserved":false,"is_disabled":false,"rental_uris":{"android":"levelo://app?vid=a57b1326-853b-4a8b-afe8-49b1f5da3f6e","ios":"levelo://app?vid=a57b1326-853b-4a8b-afe8-49b1f5da3f6e"},"vehicle_type_id":"4","last_reported":1758442322,"current_range_meters":12800,"station_id":"ce4bhm92rcd13ifvqglg","pricing_plan_id":"cebpf4jnsgd1na2vs0mg"},{"bike_id":"d801b961-8b0f-429d-9d3e-817010448aec","system_id":"levelo_inurba_marseille","lat":43.337632,"lon":5.374376,"is_reserved":false,"is_disabled":false,"rental_uris":{"android":"levelo://app?vid=d801b961-8b0f-429d-9d3e-817010448aec","ios":"levelo://app?vid=d801b961-8b0f-429d-9d3e-817010448aec"},"vehicle_type_id":"4","last_reported":1758442322,"current_range_meters":13600,"station_id":"","pricing_plan_id":"cebpf4jnsgd1na2vs0mg"},{"bike_id":"118b6d7e-3328-44e2-ae13-d04071b8c00f","system_id":"levelo_inurba_marseille","lat":43.21189,"lon":5.35086,"is_reserved":false,"is_disabled":false,"rental_uris":{"android":"levelo://app?vid=118b6d7e-3328-44e2-ae13-d04071b8c00f","ios":"levelo://app?vid=118b6d7e-3328-44e2-ae13-d04071b8c00f"},"vehicle_type_id":"4","last_reported":1758442322,"current_range_meters":13600,"station_id":"st_cvj6sg6p6f1abm77japg","pricing_plan_id":"cebpf4jnsgd1na2vs0mg"},{"bike_id":"df4f2983-fc84-4e2a-986e-828b4d3aa34e","system_id":"levelo_inurba_marseille","lat":43.29848,"lon":5.39739,"is_reserved":false,"is_disabled":false,"rental_uris":{"android":"levelo://app?vid=df4f2983-fc84-4e2a-986e-828b4d3aa34e","ios":"levelo://app?vid=df4f2983-fc84-4e2a-986e-828b4d3aa34e"},"vehicle_type_id":"4","last_reported":1758442322,"current_range_meters":13600,"station_id":"ce4bh0h2rcd13ifvqd50","pricing_plan_id":"cebpf4jnsgd1na2vs0mg"},{"bike_id":"f8875c01-58df-4320-848c-e00378d1cc68","system_id":"levelo_inurba_marseille","lat":43.27572,"lon":5.38428,"is_reserved":false,"is_disabled":false,"rental_uris":{"android":"levelo://app?vid=f8875c01-58df-4320-848c-e00378d1cc68","ios":"levelo://app?vid=f8875c01-58df-4320-848c-e00378d1cc68"},"vehicle_type_id":"4","last_reported":1758442322,"current_range_meters":13600,"station_id":"ce4bhh92rcd13ifvqfi0","pricing_plan_id":"cebpf4jnsgd1na2vs0mg"},{"bike_id":"ad3b9a79-2fea-4743-a6da-194a3004707a","system_id":"levelo_inurba_marseille","lat":43.29381,"lon":5.37868,"is_reserved":false,"is_disabled":true,"rental_uris":{"android":"levelo://app?vid=ad3b9a79-2fea-4743-a6da-194a3004707a","ios":"levelo://app?vid=ad3b9a79-2fea-4743-a6da-194a3004707a"},"vehicle_type_id":"4","last_reported":1758442322,"current_range_meters":13600,"station_id":"ce4bgjh2rcd13ifvqbf0","pricing_plan_id":"cebpf4jnsgd1na2vs0mg"},{"bike_id":"394bbc81-dc66-4519-a76d-fc81a65cacf7","system_id":"levelo_inurba_marseille","lat":43.21197,"lon":5.35081,"is_reserved":false,"is_disabled":false,"rental_uris":{"android":"levelo://app?vid=394bbc81-dc66-4519-a76d-fc81a65cacf7","ios":"levelo://app?vid=394bbc81-dc66-4519-a76d-fc81a65cacf7"},"vehicle_type_id":"4","last_reported":1758442322,"current_range_meters":13600,"station_id":"st_cvj6sg6p6f1abm77japg","pricing_plan_id":"cebpf4jnsgd1na2vs0mg"},{"bike_id":"4505d2ba-7f18-4a4d-9aaa-502995150725","system_id":"levelo_inurba_marseille","lat":43.29224,"lon":5.36067,"is_reserved":false,"is_disabled":false,"rental_uris":{"android":"levelo://app?vid=4505d2ba-7f18-4a4d-9aaa-502995150725","ios":"levelo://app?vid=4505d2ba-7f18-4a4d-9aaa-502995150725"},"vehicle_type_id":"4","last_reported":1758442322,"current_range_meters":14000,"station_id":"ce4bhbh2rcd13ifvqeqg","pricing_plan_id":"cebpf4jnsgd1na2vs0mg"},{"bike_id":"30254bcf-491a-43ce-8026-59469d5d3836","system_id":"levelo_inurba_marseille","lat":43.26198,"lon":5.37932,"is_reserved":false,"is_disabled":false,"rental_uris":{"android":"levelo://app?vid=30254bcf-491a-43ce-8026-59469d5d3836","ios":"levelo://app?vid=30254bcf-491a-43ce-8026-59469d5d3836"},"vehicle_type_id":"4","last_reported":1758442322,"current_range_meters":14000,"station_id":"ce4bhjp2rcd13ifvqg90","pricing_plan_id":"cebpf4jnsgd1na2vs0mg"},{"bike_id":"d2667e4e-8f97-413d-81b1-13a394c6285f","system_id":"levelo_inurba_marseille","lat":43.21743,"lon":5.34613,"is_reserved":false,"is_disabled":true,"rental_uris":{"android":"levelo://app?vid=d2667e4e-8f97-413d-81b1-13a394c6285f","ios":"levelo://app?vid=d2667e4e-8f97-413d-81b1-13a394c6285f"},"vehicle_type_id":"4","last_reported":1758442322,"current_range_meters":14000,"station_id":"st_cvj6r9ubvosntc0bgbag","pricing_plan_id":"cebpf4jnsgd1na2vs0mg"},{"bike_id":"a5364c4b-9fbc-4200-9686-1db420406c33","system_id":"levelo_inurba_marseille","lat":43.30411,"lon":5.39744,"is_reserved":false,"is_disabled":true,"rental_uris":{"android":"levelo://app?vid=a5364c4b-9fbc-4200-9686-1db420406c33","ios":"levelo://app?vid=a5364c4b-9fbc-4200-9686-1db420406c33"},"vehicle_type_id":"4","last_reported":1758442322,"current_range_meters":14000,"station_id":"ce4bh092rcd13ifvqd20","pricing_plan_id":"cebpf4jnsgd1na2vs0mg"},{"bike_id":"76bbf107-7ec5-4826-b296-ab629ecd14ab","system_id":"levelo_inurba_marseille","lat":43.2984,"lon":5.42102,"is_reserved":false,"is_disabled":false,"rental_uris":{"android":"levelo://app?vid=76bbf107-7ec5-4826-b296-ab629ecd14ab","ios":"levelo://app?vid=76bbf107-7ec5-4826-b296-ab629ecd14ab"},"vehicle_type_id":"4","last_reported":1758442322,"current_range_meters":14000,"station_id":"","pricing_plan_id":"cebpf4jnsgd1na2vs0mg"},{"bike_id":"bcc89d7a-f64d-4519-9ccf-00ce888944de","system_id":"levelo_inurba_marseille","lat":43.2821,"lon":5.39053,"is_reserved":false,"is_disabled":false,"rental_uris":{"android":"levelo://app?vid=bcc89d7a-f64d-4519-9ccf-00ce888944de","ios":"levelo://app?vid=bcc89d7a-f64d-4519-9ccf-00ce888944de"},"vehicle_type_id":"4","last_reported":1758442322,"current_range_meters":14400,"station_id":"ce4bhn92rcd13ifvqgsg","pricing_plan_id":"cebpf4jnsgd1na2vs0mg"},{"bike_id":"8aa5b788-3d94-452f-8a0e-8476ae6daeaa","system_id":"levelo_inurba_marseille","lat":43.2957,"lon":5.39979,"is_reserved":false,"is_disabled":false,"rental_uris":{"android":"levelo://app?vid=8aa5b788-3d94-452f-8a0e-8476ae6daeaa","ios":"levelo://app?vid=8aa5b788-3d94-452f-8a0e-8476ae6daeaa"},"vehicle_type_id":"4","last_reported":1758442322,"current_range_meters":14400,"station_id":"ce4bh312rcd13ifvqdj0","pricing_plan_id":"cebpf4jnsgd1na2vs0mg"},{"bike_id":"a8e72e83-9768-4b0b-81f6-cec0c80a86eb","system_id":"levelo_inurba_marseille","lat":43.30782,"lon":5.37653,"is_reserved":false,"is_disabled":false,"rental_uris":{"android":"levelo://app?vid=a8e72e83-9768-4b0b-81f6-cec0c80a86eb","ios":"levelo://app?vid=a8e72e83-9768-4b0b-81f6-cec0c80a86eb"},"vehicle_type_id":"4","last_reported":1758442322,"current_range_meters":14400,"station_id":"ce4bgv92rcd13ifvqcq0","pricing_plan_id":"cebpf4jnsgd1na2vs0mg"},{"bike_id":"e86857f8-f405-4657-b145-ec58ed187087","system_id":"levelo_inurba_marseille","lat":43.31484,"lon":5.3881,"is_reserved":false,"is_disabled":false,"rental_uris":{"android":"levelo://app?vid=e86857f8-f405-4657-b145-ec58ed187087","ios":"levelo://app?vid=e86857f8-f405-4657-b145-ec58ed187087"},"vehicle_type_id":"4","last_reported":1758442322,"current_range_meters":14400,"station_id":"ce4bgt92rcd13ifvqcf0","pricing_plan_id":"cebpf4jnsgd1na2vs0mg"},{"bike_id":"a8e19e19-b686-4cf5-9165-d4aca8be612a","system_id":"levelo_inurba_marseille","lat":43.25002,"lon":5.38924,"is_reserved":false,"is_disabled":false,"rental_uris":{"android":"levelo://app?vid=a8e19e19-b686-4cf5-9165-d4aca8be612a","ios":"levelo://app?vid=a8e19e19-b686-4cf5-9165-d4aca8be612a"},"vehicle_type_id":"4","last_reported":1758442322,"current_range_meters":14000,"station_id":"ce4bhgp2rcd13ifvqfd0","pricing_plan_id":"cebpf4jnsgd1na2vs0mg"},{"bike_id":"14ab75aa-9981-4348-8134-6f7226aff1c1","system_id":"levelo_inurba_marseille","lat":43.31194,"lon":5.38722,"is_reserved":false,"is_disabled":false,"rental_uris":{"android":"levelo://app?vid=14ab75aa-9981-4348-8134-6f7226aff1c1","ios":"levelo://app?vid=14ab75aa-9981-4348-8134-6f7226aff1c1"},"vehicle_type_id":"4","last_reported":1758442322,"current_range_meters":14400,"station_id":"ce4bgv12rcd13ifvqcp0","pricing_plan_id":"cebpf4jnsgd1na2vs0mg"},{"bike_id":"363d99e5-837c-43c8-abcc-c80ef2e2786a","system_id":"levelo_inurba_marseille","lat":43.21201,"lon":5.35089,"is_reserved":false,"is_disabled":false,"rental_uris":{"android":"levelo://app?vid=363d99e5-837c-43c8-abcc-c80ef2e2786a","ios":"levelo://app?vid=363d99e5-837c-43c8-abcc-c80ef2e2786a"},"vehicle_type_id":"4","last_reported":1758442322,"current_range_meters":14400,"station_id":"st_cvj6sg6p6f1abm77japg","pricing_plan_id":"cebpf4jnsgd1na2vs0mg"},{"bike_id":"f92466e6-9f39-4aa1-b676-b17a1e81767e","system_id":"levelo_inurba_marseille","lat":43.30139,"lon":5.39876,"is_reserved":false,"is_disabled":false,"rental_uris":{"android":"levelo://app?vid=f92466e6-9f39-4aa1-b676-b17a1e81767e","ios":"levelo://app?vid=f92466e6-9f39-4aa1-b676-b17a1e81767e"},"vehicle_type_id":"4","last_reported":1758442322,"current_range_meters":14400,"station_id":"ce4bh0h2rcd13ifvqd40","pricing_plan_id":"cebpf4jnsgd1na2vs0mg"},{"bike_id":"33f9dc2a-8021-49c3-863d-c7095445ba48","system_id":"levelo_inurba_marseille","lat":43.261992,"lon":5.374464,"is_reserved":false,"is_disabled":false,"rental_uris":{"android":"levelo://app?vid=33f9dc2a-8021-49c3-863d-c7095445ba48","ios":"levelo://app?vid=33f9dc2a-8021-49c3-863d-c7095445ba48"},"vehicle_type_id":"4","last_reported":1758442322,"current_range_meters":14400,"station_id":"ce4bhgp2rcd13ifvqfc0","pricing_plan_id":"cebpf4jnsgd1na2vs0mg"},{"bike_id":"aaf6f317-6d40-4cf9-abdb-2776478eaf09","system_id":"levelo_inurba_marseille","lat":43.27809,"lon":5.3924,"is_reserved":false,"is_disabled":false,"rental_uris":{"android":"levelo://app?vid=aaf6f317-6d40-4cf9-abdb-2776478eaf09","ios":"levelo://app?vid=aaf6f317-6d40-4cf9-abdb-2776478eaf09"},"vehicle_type_id":"4","last_reported":1758442322,"current_range_meters":14800,"station_id":"ce4bhjp2rcd13ifvqga0","pricing_plan_id":"cebpf4jnsgd1na2vs0mg"},{"bike_id":"e02c55bd-c9d1-44a5-ade4-296a8a4e470c","system_id":"levelo_inurba_marseille","lat":43.29223,"lon":5.3607,"is_reserved":false,"is_disabled":false,"rental_uris":{"android":"levelo://app?vid=e02c55bd-c9d1-44a5-ade4-296a8a4e470c","ios":"levelo://app?vid=e02c55bd-c9d1-44a5-ade4-296a8a4e470c"},"vehicle_type_id":"4","last_reported":1758442322,"current_range_meters":14800,"station_id":"ce4bhbh2rcd13ifvqeqg","pricing_plan_id":"cebpf4jnsgd1na2vs0mg"},{"bike_id":"5cca5d6f-62f6-457b-87a3-6dd07d6d40a3","system_id":"levelo_inurba_marseille","lat":43.3199,"lon":5.38178,"is_reserved":false,"is_disabled":false,"rental_uris":{"android":"levelo://app?vid=5cca5d6f-62f6-457b-87a3-6dd07d6d40a3","ios":"levelo://app?vid=5cca5d6f-62f6-457b-87a3-6dd07d6d40a3"},"vehicle_type_id":"4","last_reported":1758442322,"current_range_meters":14800,"station_id":"ce4bhr12rcd13ifvqhpg","pricing_plan_id":"cebpf4jnsgd1na2vs0mg"},{"bike_id":"4402017c-2f1a-48d6-bf06-9e3ff3239720","system_id":"levelo_inurba_marseille","lat":43.28672,"lon":5.38662,"is_reserved":false,"is_disabled":false,"rental_uris":{"android":"levelo://app?vid=4402017c-2f1a-48d6-bf06-9e3ff3239720","ios":"levelo://app?vid=4402017c-2f1a-48d6-bf06-9e3ff3239720"},"vehicle_type_id":"4","last_reported":1758442322,"current_range_meters":14800,"station_id":"ce4bh492rcd13ifvqdug","pricing_plan_id":"cebpf4jnsgd1na2vs0mg"},{"bike_id":"75cdae86-aa3c-46f9-92bf-f3662c1063cf","system_id":"levelo_inurba_marseille","lat":43.337257,"lon":5.391949,"is_reserved":false,"is_disabled":false,"rental_uris":{"android":"levelo://app?vid=75cdae86-aa3c-46f9-92bf-f3662c1063cf","ios":"levelo://app?vid=75cdae86-aa3c-46f9-92bf-f3662c1063cf"},"vehicle_type_id":"4","last_reported":1758442322,"current_range_meters":14800,"station_id":"ce4bhr92rcd13ifvqhsg","pricing_plan_id":"cebpf4jnsgd1na2vs0mg"},{"bike_id":"158236de-064b-4448-aa12-7a3a145c873e","system_id":"levelo_inurba_marseille","lat":43.29229,"lon":5.36048,"is_reserved":false,"is_disabled":false,"rental_uris":{"android":"levelo://app?vid=158236de-064b-4448-aa12-7a3a145c873e","ios":"levelo://app?vid=158236de-064b-4448-aa12-7a3a145c873e"},"vehicle_type_id":"4","last_reported":1758442322,"current_range_meters":14800,"station_id":"ce4bhbh2rcd13ifvqeqg","pricing_plan_id":"cebpf4jnsgd1na2vs0mg"},{"bike_id":"b610fd77-8ae2-47f8-91d1-ab7f96ab296c","system_id":"levelo_inurba_marseille","lat":43.29218,"lon":5.36052,"is_reserved":false,"is_disabled":false,"rental_uris":{"android":"levelo://app?vid=b610fd77-8ae2-47f8-91d1-ab7f96ab296c","ios":"levelo://app?vid=b610fd77-8ae2-47f8-91d1-ab7f96ab296c"},"vehicle_type_id":"4","last_reported":1758442322,"current_range_meters":15200,"station_id":"ce4bhbh2rcd13ifvqeqg","pricing_plan_id":"cebpf4jnsgd1na2vs0mg"},{"bike_id":"1be0e12d-c982-4197-8e20-7fc42fd9f189","system_id":"levelo_inurba_marseille","lat":43.31335,"lon":5.39698,"is_reserved":false,"is_disabled":false,"rental_uris":{"android":"levelo://app?vid=1be0e12d-c982-4197-8e20-7fc42fd9f189","ios":"levelo://app?vid=1be0e12d-c982-4197-8e20-7fc42fd9f189"},"vehicle_type_id":"4","last_reported":1758442322,"current_range_meters":15200,"station_id":"ce4bgvp2rcd13ifvqcu0","pricing_plan_id":"cebpf4jnsgd1na2vs0mg"},{"bike_id":"a329363e-972b-428b-836e-51e3b2893c70","system_id":"levelo_inurba_marseille","lat":43.212,"lon":5.35066,"is_reserved":false,"is_disabled":false,"rental_uris":{"android":"levelo://app?vid=a329363e-972b-428b-836e-51e3b2893c70","ios":"levelo://app?vid=a329363e-972b-428b-836e-51e3b2893c70"},"vehicle_type_id":"4","last_reported":1758442322,"current_range_meters":15200,"station_id":"st_cvj6sg6p6f1abm77japg","pricing_plan_id":"cebpf4jnsgd1na2vs0mg"},{"bike_id":"9176512c-2cc1-4df2-a8e0-6be514fbcdbf","system_id":"levelo_inurba_marseille","lat":43.33748,"lon":5.37465,"is_reserved":false,"is_disabled":false,"rental_uris":{"android":"levelo://app?vid=9176512c-2cc1-4df2-a8e0-6be514fbcdbf","ios":"levelo://app?vid=9176512c-2cc1-4df2-a8e0-6be514fbcdbf"},"vehicle_type_id":"4","last_reported":1758442322,"current_range_meters":15200,"station_id":"","pricing_plan_id":"cebpf4jnsgd1na2vs0mg"},{"bike_id":"8256c3c5-29e1-4d6d-816d-98492f1b2555","system_id":"levelo_inurba_marseille","lat":43.27492,"lon":5.42457,"is_reserved":false,"is_disabled":false,"rental_uris":{"android":"levelo://app?vid=8256c3c5-29e1-4d6d-816d-98492f1b2555","ios":"levelo://app?vid=8256c3c5-29e1-4d6d-816d-98492f1b2555"},"vehicle_type_id":"4","last_reported":1758442322,"current_range_meters":15200,"station_id":"ce4bhn92rcd13ifvqgrg","pricing_plan_id":"cebpf4jnsgd1na2vs0mg"},{"bike_id":"026473c9-7c77-4076-ba5b-973302c60469","system_id":"levelo_inurba_marseille","lat":43.23963,"lon":5.36626,"is_reserved":false,"is_disabled":false,"rental_uris":{"android":"levelo://app?vid=026473c9-7c77-4076-ba5b-973302c60469","ios":"levelo://app?vid=026473c9-7c77-4076-ba5b-973302c60469"},"vehicle_type_id":"4","last_reported":1758442322,"current_range_meters":15200,"station_id":"ce4bhi12rcd13ifvqfp0","pricing_plan_id":"cebpf4jnsgd1na2vs0mg"},{"bike_id":"1f41fd1e-481b-4ece-9473-0c8205774c6a","system_id":"levelo_inurba_marseille","lat":43.3021,"lon":5.39457,"is_reserved":false,"is_disabled":false,"rental_uris":{"android":"levelo://app?vid=1f41fd1e-481b-4ece-9473-0c8205774c6a","ios":"levelo://app?vid=1f41fd1e-481b-4ece-9473-0c8205774c6a"},"vehicle_type_id":"4","last_reported":1758442322,"current_range_meters":15200,"station_id":"ce4bh0p2rcd13ifvqd70","pricing_plan_id":"cebpf4jnsgd1na2vs0mg"},{"bike_id":"438ead59-de14-4fa0-a61d-03a70a4122ae","system_id":"levelo_inurba_marseille","lat":43.97285,"lon":4.89134,"is_reserved":false,"is_disabled":true,"rental_uris":{"android":"levelo://app?vid=438ead59-de14-4fa0-a61d-03a70a4122ae","ios":"levelo://app?vid=438ead59-de14-4fa0-a61d-03a70a4122ae"},"vehicle_type_id":"4","last_reported":1758442322,"current_range_meters":15200,"station_id":"","pricing_plan_id":"cebpf4jnsgd1na2vs0mg"},{"bike_id":"d158c34c-ce51-43ba-9697-624f9e4e9d38","system_id":"levelo_inurba_marseille","lat":43.29253,"lon":5.40897,"is_reserved":false,"is_disabled":false,"rental_uris":{"android":"levelo://app?vid=d158c34c-ce51-43ba-9697-624f9e4e9d38","ios":"levelo://app?vid=d158c34c-ce51-43ba-9697-624f9e4e9d38"},"vehicle_type_id":"4","last_reported":1758442322,"current_range_meters":15200,"station_id":"ce4bh192rcd13ifvqdc0","pricing_plan_id":"cebpf4jnsgd1na2vs0mg"},{"bike_id":"a14e4aba-8ea8-4fd8-a01d-0001201db749","system_id":"levelo_inurba_marseille","lat":43.28709,"lon":5.4,"is_reserved":false,"is_disabled":false,"rental_uris":{"android":"levelo://app?vid=a14e4aba-8ea8-4fd8-a01d-0001201db749","ios":"levelo://app?vid=a14e4aba-8ea8-4fd8-a01d-0001201db749"},"vehicle_type_id":"4","last_reported":1758442322,"current_range_meters":16000,"station_id":"ce4bho92rcd13ifvqh3g","pricing_plan_id":"cebpf4jnsgd1na2vs0mg"},{"bike_id":"5012c91b-a53c-4c5f-901c-26f9fc9d8566","system_id":"levelo_inurba_marseille","lat":43.31121,"lon":5.37757,"is_reserved":false,"is_disabled":false,"rental_uris":{"android":"levelo://app?vid=5012c91b-a53c-4c5f-901c-26f9fc9d8566","ios":"levelo://app?vid=5012c91b-a53c-4c5f-901c-26f9fc9d8566"},"vehicle_type_id":"4","last_reported":1758442322,"current_range_meters":16000,"station_id":"ce4bgt92rcd13ifvqcg0","pricing_plan_id":"cebpf4jnsgd1na2vs0mg"},{"bike_id":"f581ccb4-ae4a-44ef-9aee-8da2f62ff531","system_id":"levelo_inurba_marseille","lat":43.31244,"lon":5.36824,"is_reserved":false,"is_disabled":false,"rental_uris":{"android":"levelo://app?vid=f581ccb4-ae4a-44ef-9aee-8da2f62ff531","ios":"levelo://app?vid=f581ccb4-ae4a-44ef-9aee-8da2f62ff531"},"vehicle_type_id":"4","last_reported":1758442322,"current_range_meters":16000,"station_id":"ce4bgl92rcd13ifvqbq0","pricing_plan_id":"cebpf4jnsgd1na2vs0mg"},{"bike_id":"b22bfa05-faa9-4074-a1be-f504ad012798","system_id":"levelo_inurba_marseille","lat":43.31753,"lon":5.3902,"is_reserved":false,"is_disabled":false,"rental_uris":{"android":"levelo://app?vid=b22bfa05-faa9-4074-a1be-f504ad012798","ios":"levelo://app?vid=b22bfa05-faa9-4074-a1be-f504ad012798"},"vehicle_type_id":"4","last_reported":1758442322,"current_range_meters":16000,"station_id":"ce4bhqp2rcd13ifvqhng","pricing_plan_id":"cebpf4jnsgd1na2vs0mg"},{"bike_id":"162483fb-058a-43f7-a272-15e63e78b5bc","system_id":"levelo_inurba_marseille","lat":43.2176,"lon":5.34602,"is_reserved":false,"is_disabled":true,"rental_uris":{"android":"levelo://app?vid=162483fb-058a-43f7-a272-15e63e78b5bc","ios":"levelo://app?vid=162483fb-058a-43f7-a272-15e63e78b5bc"},"vehicle_type_id":"4","last_reported":1758442322,"current_range_meters":16000,"station_id":"st_cvj6r9ubvosntc0bgbag","pricing_plan_id":"cebpf4jnsgd1na2vs0mg"},{"bike_id":"15609c4e-f589-422c-9a62-c8d2d4eb92fd","system_id":"levelo_inurba_marseille","lat":43.33003,"lon":5.38092,"is_reserved":false,"is_disabled":false,"rental_uris":{"android":"levelo://app?vid=15609c4e-f589-422c-9a62-c8d2d4eb92fd","ios":"levelo://app?vid=15609c4e-f589-422c-9a62-c8d2d4eb92fd"},"vehicle_type_id":"4","last_reported":1758442322,"current_range_meters":16000,"station_id":"","pricing_plan_id":"cebpf4jnsgd1na2vs0mg"},{"bike_id":"c8995560-feef-43bd-866e-b077f6010f3a","system_id":"levelo_inurba_marseille","lat":43.29194,"lon":5.35802,"is_reserved":false,"is_disabled":false,"rental_uris":{"android":"levelo://app?vid=c8995560-feef-43bd-866e-b077f6010f3a","ios":"levelo://app?vid=c8995560-feef-43bd-866e-b077f6010f3a"},"vehicle_type_id":"4","last_reported":1758442322,"current_range_meters":16000,"station_id":"ce4bhb12rcd13ifvqel0","pricing_plan_id":"cebpf4jnsgd1na2vs0mg"},{"bike_id":"7dfa5743-3739-4ea1-809b-4b7ff3c51c53","system_id":"levelo_inurba_marseille","lat":43.27621,"lon":5.36108,"is_reserved":false,"is_disabled":false,"rental_uris":{"android":"levelo://app?vid=7dfa5743-3739-4ea1-809b-4b7ff3c51c53","ios":"levelo://app?vid=7dfa5743-3739-4ea1-809b-4b7ff3c51c53"},"vehicle_type_id":"4","last_reported":1758442322,"current_range_meters":16000,"station_id":"ce4bgj92rcd13ifvqbe0","pricing_plan_id":"cebpf4jnsgd1na2vs0mg"},{"bike_id":"a8a56f6a-e200-4c08-a984-317cae1616a2","system_id":"levelo_inurba_marseille","lat":43.30328,"lon":5.40451,"is_reserved":false,"is_disabled":false,"rental_uris":{"android":"levelo://app?vid=a8a56f6a-e200-4c08-a984-317cae1616a2","ios":"levelo://app?vid=a8a56f6a-e200-4c08-a984-317cae1616a2"},"vehicle_type_id":"4","last_reported":1758442322,"current_range_meters":16000,"station_id":"ce4bh012rcd13ifvqd10","pricing_plan_id":"cebpf4jnsgd1na2vs0mg"},{"bike_id":"e7f6ec9d-0d28-4bd8-a3da-83f0cd142dce","system_id":"levelo_inurba_marseille","lat":43.290291,"lon":5.386496,"is_reserved":false,"is_disabled":false,"rental_uris":{"android":"levelo://app?vid=e7f6ec9d-0d28-4bd8-a3da-83f0cd142dce","ios":"levelo://app?vid=e7f6ec9d-0d28-4bd8-a3da-83f0cd142dce"},"vehicle_type_id":"4","last_reported":1758442322,"current_range_meters":16400,"station_id":"","pricing_plan_id":"cebpf4jnsgd1na2vs0mg"},{"bike_id":"0c8a92f3-f5d4-48dc-bbf5-8177c0a48b95","system_id":"levelo_inurba_marseille","lat":43.29624,"lon":5.38154,"is_reserved":false,"is_disabled":false,"rental_uris":{"android":"levelo://app?vid=0c8a92f3-f5d4-48dc-bbf5-8177c0a48b95","ios":"levelo://app?vid=0c8a92f3-f5d4-48dc-bbf5-8177c0a48b95"},"vehicle_type_id":"4","last_reported":1758442322,"current_range_meters":16400,"station_id":"ce4bgl12rcd13ifvqbo0","pricing_plan_id":"cebpf4jnsgd1na2vs0mg"},{"bike_id":"176a31c4-a17c-44ec-bbf6-50f8985ee1fc","system_id":"levelo_inurba_marseille","lat":43.25345,"lon":5.42173,"is_reserved":false,"is_disabled":false,"rental_uris":{"android":"levelo://app?vid=176a31c4-a17c-44ec-bbf6-50f8985ee1fc","ios":"levelo://app?vid=176a31c4-a17c-44ec-bbf6-50f8985ee1fc"},"vehicle_type_id":"4","last_reported":1758442322,"current_range_meters":16400,"station_id":"st_d2m65c5bi1j21697t3ng","pricing_plan_id":"cebpf4jnsgd1na2vs0mg"},{"bike_id":"a4473019-692e-4bd9-9b08-db083daad564","system_id":"levelo_inurba_marseille","lat":43.31992,"lon":5.38124,"is_reserved":false,"is_disabled":false,"rental_uris":{"android":"levelo://app?vid=a4473019-692e-4bd9-9b08-db083daad564","ios":"levelo://app?vid=a4473019-692e-4bd9-9b08-db083daad564"},"vehicle_type_id":"4","last_reported":1758442322,"current_range_meters":16400,"station_id":"ce4bhr12rcd13ifvqhpg","pricing_plan_id":"cebpf4jnsgd1na2vs0mg"},{"bike_id":"3fb9283c-9e32-419d-ac73-fd1372458f6c","system_id":"levelo_inurba_marseille","lat":43.26205,"lon":5.37466,"is_reserved":false,"is_disabled":false,"rental_uris":{"android":"levelo://app?vid=3fb9283c-9e32-419d-ac73-fd1372458f6c","ios":"levelo://app?vid=3fb9283c-9e32-419d-ac73-fd1372458f6c"},"vehicle_type_id":"4","last_reported":1758442322,"current_range_meters":16400,"station_id":"ce4bhgp2rcd13ifvqfc0","pricing_plan_id":"cebpf4jnsgd1na2vs0mg"},{"bike_id":"d639fc5d-edb5-4e2c-8ef6-ca308fb6a725","system_id":"levelo_inurba_marseille","lat":43.23187,"lon":5.39979,"is_reserved":false,"is_disabled":false,"rental_uris":{"android":"levelo://app?vid=d639fc5d-edb5-4e2c-8ef6-ca308fb6a725","ios":"levelo://app?vid=d639fc5d-edb5-4e2c-8ef6-ca308fb6a725"},"vehicle_type_id":"4","last_reported":1758442322,"current_range_meters":16400,"station_id":"ce4bhn12rcd13ifvqgqg","pricing_plan_id":"cebpf4jnsgd1na2vs0mg"},{"bike_id":"6be3bd8b-eada-4f83-bfbf-82d34cec3c94","system_id":"levelo_inurba_marseille","lat":43.337724,"lon":5.374496,"is_reserved":false,"is_disabled":false,"rental_uris":{"android":"levelo://app?vid=6be3bd8b-eada-4f83-bfbf-82d34cec3c94","ios":"levelo://app?vid=6be3bd8b-eada-4f83-bfbf-82d34cec3c94"},"vehicle_type_id":"4","last_reported":1758442322,"current_range_meters":16400,"station_id":"","pricing_plan_id":"cebpf4jnsgd1na2vs0mg"},{"bike_id":"97e78d58-9da6-4d2e-a8a7-97799dd1fee2","system_id":"levelo_inurba_marseille","lat":43.29895,"lon":5.3974,"is_reserved":false,"is_disabled":false,"rental_uris":{"android":"levelo://app?vid=97e78d58-9da6-4d2e-a8a7-97799dd1fee2","ios":"levelo://app?vid=97e78d58-9da6-4d2e-a8a7-97799dd1fee2"},"vehicle_type_id":"4","last_reported":1758442322,"current_range_meters":16400,"station_id":"ce4bh0h2rcd13ifvqd50","pricing_plan_id":"cebpf4jnsgd1na2vs0mg"},{"bike_id":"f3805ac9-2ab6-41f8-b374-0887d951860e","system_id":"levelo_inurba_marseille","lat":43.21757,"lon":5.34598,"is_reserved":false,"is_disabled":true,"rental_uris":{"android":"levelo://app?vid=f3805ac9-2ab6-41f8-b374-0887d951860e","ios":"levelo://app?vid=f3805ac9-2ab6-41f8-b374-0887d951860e"},"vehicle_type_id":"4","last_reported":1758442322,"current_range_meters":16400,"station_id":"st_cvj6r9ubvosntc0bgbag","pricing_plan_id":"cebpf4jnsgd1na2vs0mg"},{"bike_id":"b6678485-35fb-46c4-8625-f1fe6882fa7e","system_id":"levelo_inurba_marseille","lat":43.262217,"lon":5.404512,"is_reserved":false,"is_disabled":false,"rental_uris":{"android":"levelo://app?vid=b6678485-35fb-46c4-8625-f1fe6882fa7e","ios":"levelo://app?vid=b6678485-35fb-46c4-8625-f1fe6882fa7e"},"vehicle_type_id":"4","last_reported":1758442322,"current_range_meters":16400,"station_id":"ce4bhmh2rcd13ifvqgmg","pricing_plan_id":"cebpf4jnsgd1na2vs0mg"},{"bike_id":"a9cba043-e93d-4449-b080-8b3e9e227325","system_id":"levelo_inurba_marseille","lat":43.29642,"lon":5.40626,"is_reserved":false,"is_disabled":false,"rental_uris":{"android":"levelo://app?vid=a9cba043-e93d-4449-b080-8b3e9e227325","ios":"levelo://app?vid=a9cba043-e93d-4449-b080-8b3e9e227325"},"vehicle_type_id":"4","last_reported":1758442322,"current_range_meters":16800,"station_id":"ce4bh0h2rcd13ifvqd60","pricing_plan_id":"cebpf4jnsgd1na2vs0mg"},{"bike_id":"14e0ecfc-848e-4179-ac98-8bf6c41189b5","system_id":"levelo_inurba_marseille","lat":43.30284,"lon":5.396613,"is_reserved":false,"is_disabled":false,"rental_uris":{"android":"levelo://app?vid=14e0ecfc-848e-4179-ac98-8bf6c41189b5","ios":"levelo://app?vid=14e0ecfc-848e-4179-ac98-8bf6c41189b5"},"vehicle_type_id":"4","last_reported":1758442322,"current_range_meters":16800,"station_id":"","pricing_plan_id":"cebpf4jnsgd1na2vs0mg"},{"bike_id":"6fe025d9-a6f5-413f-a2cb-db271fd37025","system_id":"levelo_inurba_marseille","lat":43.30148,"lon":5.38082,"is_reserved":false,"is_disabled":false,"rental_uris":{"android":"levelo://app?vid=6fe025d9-a6f5-413f-a2cb-db271fd37025","ios":"levelo://app?vid=6fe025d9-a6f5-413f-a2cb-db271fd37025"},"vehicle_type_id":"4","last_reported":1758442322,"current_range_meters":16800,"station_id":"ce4bgjp2rcd13ifvqbh0","pricing_plan_id":"cebpf4jnsgd1na2vs0mg"},{"bike_id":"ab3ffc48-3b72-4766-9326-6b75f94718d3","system_id":"levelo_inurba_marseille","lat":43.289174,"lon":5.384025,"is_reserved":false,"is_disabled":true,"rental_uris":{"android":"levelo://app?vid=ab3ffc48-3b72-4766-9326-6b75f94718d3","ios":"levelo://app?vid=ab3ffc48-3b72-4766-9326-6b75f94718d3"},"vehicle_type_id":"4","last_reported":1758442322,"current_range_meters":16800,"station_id":"ce4bh612rcd13ifvqe6g","pricing_plan_id":"cebpf4jnsgd1na2vs0mg"},{"bike_id":"b8ef90bb-057a-402b-9655-3a68d78bcddb","system_id":"levelo_inurba_marseille","lat":43.26224,"lon":5.4045,"is_reserved":false,"is_disabled":false,"rental_uris":{"android":"levelo://app?vid=b8ef90bb-057a-402b-9655-3a68d78bcddb","ios":"levelo://app?vid=b8ef90bb-057a-402b-9655-3a68d78bcddb"},"vehicle_type_id":"4","last_reported":1758442322,"current_range_meters":16800,"station_id":"ce4bhmh2rcd13ifvqgmg","pricing_plan_id":"cebpf4jnsgd1na2vs0mg"},{"bike_id":"07bf7daf-7f0f-4cf7-90db-b9f0e0dfa16a","system_id":"levelo_inurba_marseille","lat":43.21192,"lon":5.35078,"is_reserved":false,"is_disabled":false,"rental_uris":{"android":"levelo://app?vid=07bf7daf-7f0f-4cf7-90db-b9f0e0dfa16a","ios":"levelo://app?vid=07bf7daf-7f0f-4cf7-90db-b9f0e0dfa16a"},"vehicle_type_id":"4","last_reported":1758442322,"current_range_meters":16800,"station_id":"st_cvj6sg6p6f1abm77japg","pricing_plan_id":"cebpf4jnsgd1na2vs0mg"},{"bike_id":"1f5f1aea-0efa-4310-b0af-b5d79f6200fa","system_id":"levelo_inurba_marseille","lat":43.29558,"lon":5.42289,"is_reserved":false,"is_disabled":false,"rental_uris":{"android":"levelo://app?vid=1f5f1aea-0efa-4310-b0af-b5d79f6200fa","ios":"levelo://app?vid=1f5f1aea-0efa-4310-b0af-b5d79f6200fa"},"vehicle_type_id":"4","last_reported":1758442322,"current_range_meters":16800,"station_id":"ce4bhph2rcd13ifvqhdg","pricing_plan_id":"cebpf4jnsgd1na2vs0mg"},{"bike_id":"9fe10e97-6854-4c72-996f-b5303df416f0","system_id":"levelo_inurba_marseille","lat":43.29193,"lon":5.35806,"is_reserved":false,"is_disabled":false,"rental_uris":{"android":"levelo://app?vid=9fe10e97-6854-4c72-996f-b5303df416f0","ios":"levelo://app?vid=9fe10e97-6854-4c72-996f-b5303df416f0"},"vehicle_type_id":"4","last_reported":1758442322,"current_range_meters":16000,"station_id":"ce4bhb12rcd13ifvqel0","pricing_plan_id":"cebpf4jnsgd1na2vs0mg"},{"bike_id":"fc4dbd92-2091-45f3-9efc-894ddd069d71","system_id":"levelo_inurba_marseille","lat":43.25087,"lon":5.39516,"is_reserved":false,"is_disabled":false,"rental_uris":{"android":"levelo://app?vid=fc4dbd92-2091-45f3-9efc-894ddd069d71","ios":"levelo://app?vid=fc4dbd92-2091-45f3-9efc-894ddd069d71"},"vehicle_type_id":"4","last_reported":1758442322,"current_range_meters":17200,"station_id":"ce4bhm12rcd13ifvqgkg","pricing_plan_id":"cebpf4jnsgd1na2vs0mg"},{"bike_id":"3c0e89c2-e003-4a1f-89b7-ba9811bfbf54","system_id":"levelo_inurba_marseille","lat":43.30889,"lon":5.39657,"is_reserved":false,"is_disabled":false,"rental_uris":{"android":"levelo://app?vid=3c0e89c2-e003-4a1f-89b7-ba9811bfbf54","ios":"levelo://app?vid=3c0e89c2-e003-4a1f-89b7-ba9811bfbf54"},"vehicle_type_id":"4","last_reported":1758442322,"current_range_meters":17200,"station_id":"ce4bh012rcd13ifvqcv0","pricing_plan_id":"cebpf4jnsgd1na2vs0mg"},{"bike_id":"a3a4206e-9698-40c4-99a7-c2a694b15382","system_id":"levelo_inurba_marseille","lat":43.25918,"lon":5.40887,"is_reserved":false,"is_disabled":false,"rental_uris":{"android":"levelo://app?vid=a3a4206e-9698-40c4-99a7-c2a694b15382","ios":"levelo://app?vid=a3a4206e-9698-40c4-99a7-c2a694b15382"},"vehicle_type_id":"4","last_reported":1758442322,"current_range_meters":17200,"station_id":"ce4bhm92rcd13ifvqglg","pricing_plan_id":"cebpf4jnsgd1na2vs0mg"},{"bike_id":"5da51eae-ac5e-4509-9d08-45539d1e08a9","system_id":"levelo_inurba_marseille","lat":43.29607,"lon":5.37701,"is_reserved":false,"is_disabled":false,"rental_uris":{"android":"levelo://app?vid=5da51eae-ac5e-4509-9d08-45539d1e08a9","ios":"levelo://app?vid=5da51eae-ac5e-4509-9d08-45539d1e08a9"},"vehicle_type_id":"4","last_reported":1758442322,"current_range_meters":17200,"station_id":"ce4bgi92rcd13ifvqb90","pricing_plan_id":"cebpf4jnsgd1na2vs0mg"},{"bike_id":"71cb05d4-36fa-4ba6-824a-3eb73d21ff45","system_id":"levelo_inurba_marseille","lat":43.29565,"lon":5.37531,"is_reserved":false,"is_disabled":false,"rental_uris":{"android":"levelo://app?vid=71cb05d4-36fa-4ba6-824a-3eb73d21ff45","ios":"levelo://app?vid=71cb05d4-36fa-4ba6-824a-3eb73d21ff45"},"vehicle_type_id":"4","last_reported":1758442322,"current_range_meters":17200,"station_id":"ce4bgh92rcd13ifvqb50","pricing_plan_id":"cebpf4jnsgd1na2vs0mg"},{"bike_id":"1e0fd49c-ac4b-47b7-af02-10561a312938","system_id":"levelo_inurba_marseille","lat":43.21754,"lon":5.34613,"is_reserved":false,"is_disabled":true,"rental_uris":{"android":"levelo://app?vid=1e0fd49c-ac4b-47b7-af02-10561a312938","ios":"levelo://app?vid=1e0fd49c-ac4b-47b7-af02-10561a312938"},"vehicle_type_id":"4","last_reported":1758442322,"current_range_meters":17600,"station_id":"st_cvj6r9ubvosntc0bgbag","pricing_plan_id":"cebpf4jnsgd1na2vs0mg"},{"bike_id":"76aabfa6-feff-4f9e-98e3-80f3ed3d34bb","system_id":"levelo_inurba_marseille","lat":43.30255,"lon":5.40049,"is_reserved":false,"is_disabled":true,"rental_uris":{"android":"levelo://app?vid=76aabfa6-feff-4f9e-98e3-80f3ed3d34bb","ios":"levelo://app?vid=76aabfa6-feff-4f9e-98e3-80f3ed3d34bb"},"vehicle_type_id":"4","last_reported":1758442322,"current_range_meters":17600,"station_id":"ce4bgvh2rcd13ifvqcs0","pricing_plan_id":"cebpf4jnsgd1na2vs0mg"},{"bike_id":"4806da5a-67b2-4245-853a-7c8de74bc531","system_id":"levelo_inurba_marseille","lat":43.2707,"lon":5.42293,"is_reserved":false,"is_disabled":false,"rental_uris":{"android":"levelo://app?vid=4806da5a-67b2-4245-853a-7c8de74bc531","ios":"levelo://app?vid=4806da5a-67b2-4245-853a-7c8de74bc531"},"vehicle_type_id":"4","last_reported":1758442322,"current_range_meters":17600,"station_id":"ce4bhk92rcd13ifvqgb0","pricing_plan_id":"cebpf4jnsgd1na2vs0mg"},{"bike_id":"43d57fd4-047e-4ac8-97e5-ec9b96239472","system_id":"levelo_inurba_marseille","lat":43.33123,"lon":5.39726,"is_reserved":false,"is_disabled":false,"rental_uris":{"android":"levelo://app?vid=43d57fd4-047e-4ac8-97e5-ec9b96239472","ios":"levelo://app?vid=43d57fd4-047e-4ac8-97e5-ec9b96239472"},"vehicle_type_id":"4","last_reported":1758442322,"current_range_meters":17600,"station_id":"","pricing_plan_id":"cebpf4jnsgd1na2vs0mg"},{"bike_id":"99f2a0d1-a9bb-4a75-ad28-578d9b01c1fc","system_id":"levelo_inurba_marseille","lat":43.30129,"lon":5.38779,"is_reserved":false,"is_disabled":true,"rental_uris":{"android":"levelo://app?vid=99f2a0d1-a9bb-4a75-ad28-578d9b01c1fc","ios":"levelo://app?vid=99f2a0d1-a9bb-4a75-ad28-578d9b01c1fc"},"vehicle_type_id":"4","last_reported":1758442322,"current_range_meters":18000,"station_id":"ce4bghh2rcd13ifvqb60","pricing_plan_id":"cebpf4jnsgd1na2vs0mg"},{"bike_id":"3b0b789e-88d2-410a-96c8-106210ba991d","system_id":"levelo_inurba_marseille","lat":43.30459,"lon":5.379,"is_reserved":false,"is_disabled":false,"rental_uris":{"android":"levelo://app?vid=3b0b789e-88d2-410a-96c8-106210ba991d","ios":"levelo://app?vid=3b0b789e-88d2-410a-96c8-106210ba991d"},"vehicle_type_id":"4","last_reported":1758442322,"current_range_meters":18000,"station_id":"ce4bgup2rcd13ifvqcn0","pricing_plan_id":"cebpf4jnsgd1na2vs0mg"},{"bike_id":"da05eb96-257a-419d-b8c1-0ef92d280a60","system_id":"levelo_inurba_marseille","lat":43.29024,"lon":5.39967,"is_reserved":false,"is_disabled":false,"rental_uris":{"android":"levelo://app?vid=da05eb96-257a-419d-b8c1-0ef92d280a60","ios":"levelo://app?vid=da05eb96-257a-419d-b8c1-0ef92d280a60"},"vehicle_type_id":"4","last_reported":1758442322,"current_range_meters":18000,"station_id":"ce4bh392rcd13ifvqdm0","pricing_plan_id":"cebpf4jnsgd1na2vs0mg"},{"bike_id":"b9e6e074-a56d-49da-9bdb-b2f9d067d50b","system_id":"levelo_inurba_marseille","lat":43.323527,"lon":5.382051,"is_reserved":false,"is_disabled":false,"rental_uris":{"android":"levelo://app?vid=b9e6e074-a56d-49da-9bdb-b2f9d067d50b","ios":"levelo://app?vid=b9e6e074-a56d-49da-9bdb-b2f9d067d50b"},"vehicle_type_id":"4","last_reported":1758442322,"current_range_meters":18000,"station_id":"ce4bhr12rcd13ifvqhqg","pricing_plan_id":"cebpf4jnsgd1na2vs0mg"},{"bike_id":"fb08f156-ea50-4007-b63e-36129be259ae","system_id":"levelo_inurba_marseille","lat":43.24102,"lon":5.37765,"is_reserved":false,"is_disabled":false,"rental_uris":{"android":"levelo://app?vid=fb08f156-ea50-4007-b63e-36129be259ae","ios":"levelo://app?vid=fb08f156-ea50-4007-b63e-36129be259ae"},"vehicle_type_id":"4","last_reported":1758442322,"current_range_meters":18000,"station_id":"ce4bhnp2rcd13ifvqgvg","pricing_plan_id":"cebpf4jnsgd1na2vs0mg"},{"bike_id":"b874668a-3903-4b29-8b4c-18d5e457d26b","system_id":"levelo_inurba_marseille","lat":43.29,"lon":5.35617,"is_reserved":false,"is_disabled":false,"rental_uris":{"android":"levelo://app?vid=b874668a-3903-4b29-8b4c-18d5e457d26b","ios":"levelo://app?vid=b874668a-3903-4b29-8b4c-18d5e457d26b"},"vehicle_type_id":"4","last_reported":1758442322,"current_range_meters":17600,"station_id":"ce4bhb92rcd13ifvqen0","pricing_plan_id":"cebpf4jnsgd1na2vs0mg"},{"bike_id":"74f14d90-28b2-4e9d-b0d9-cba57e7c01d2","system_id":"levelo_inurba_marseille","lat":43.29567,"lon":5.39986,"is_reserved":false,"is_disabled":false,"rental_uris":{"android":"levelo://app?vid=74f14d90-28b2-4e9d-b0d9-cba57e7c01d2","ios":"levelo://app?vid=74f14d90-28b2-4e9d-b0d9-cba57e7c01d2"},"vehicle_type_id":"4","last_reported":1758442322,"current_range_meters":18000,"station_id":"ce4bh312rcd13ifvqdj0","pricing_plan_id":"cebpf4jnsgd1na2vs0mg"},{"bike_id":"4426a04d-ee40-424f-8601-8084b91d43fb","system_id":"levelo_inurba_marseille","lat":43.31326,"lon":5.39699,"is_reserved":false,"is_disabled":false,"rental_uris":{"android":"levelo://app?vid=4426a04d-ee40-424f-8601-8084b91d43fb","ios":"levelo://app?vid=4426a04d-ee40-424f-8601-8084b91d43fb"},"vehicle_type_id":"4","last_reported":1758442322,"current_range_meters":18000,"station_id":"ce4bgvp2rcd13ifvqcu0","pricing_plan_id":"cebpf4jnsgd1na2vs0mg"},{"bike_id":"dfca4ae8-04b7-43f0-9aac-e5e3d6e4088b","system_id":"levelo_inurba_marseille","lat":43.31259,"lon":5.40171,"is_reserved":false,"is_disabled":false,"rental_uris":{"android":"levelo://app?vid=dfca4ae8-04b7-43f0-9aac-e5e3d6e4088b","ios":"levelo://app?vid=dfca4ae8-04b7-43f0-9aac-e5e3d6e4088b"},"vehicle_type_id":"4","last_reported":1758442322,"current_range_meters":18000,"station_id":"ce4bh092rcd13ifvqd30","pricing_plan_id":"cebpf4jnsgd1na2vs0mg"},{"bike_id":"423aeb91-69f4-4522-916b-76a472005736","system_id":"levelo_inurba_marseille","lat":43.31475,"lon":5.38036,"is_reserved":false,"is_disabled":false,"rental_uris":{"android":"levelo://app?vid=423aeb91-69f4-4522-916b-76a472005736","ios":"levelo://app?vid=423aeb91-69f4-4522-916b-76a472005736"},"vehicle_type_id":"4","last_reported":1758442322,"current_range_meters":18000,"station_id":"","pricing_plan_id":"cebpf4jnsgd1na2vs0mg"},{"bike_id":"1f58cb87-9d25-4b6d-96bf-d44c2a7b7a0e","system_id":"levelo_inurba_marseille","lat":43.29262,"lon":5.38433,"is_reserved":false,"is_disabled":false,"rental_uris":{"android":"levelo://app?vid=1f58cb87-9d25-4b6d-96bf-d44c2a7b7a0e","ios":"levelo://app?vid=1f58cb87-9d25-4b6d-96bf-d44c2a7b7a0e"},"vehicle_type_id":"4","last_reported":1758442322,"current_range_meters":18000,"station_id":"ce4bh692rcd13ifvqea0","pricing_plan_id":"cebpf4jnsgd1na2vs0mg"},{"bike_id":"6e462536-3a01-4092-9490-0b0d7831c7b9","system_id":"levelo_inurba_marseille","lat":43.29501,"lon":5.39034,"is_reserved":false,"is_disabled":true,"rental_uris":{"android":"levelo://app?vid=6e462536-3a01-4092-9490-0b0d7831c7b9","ios":"levelo://app?vid=6e462536-3a01-4092-9490-0b0d7831c7b9"},"vehicle_type_id":"4","last_reported":1758442322,"current_range_meters":18000,"station_id":"ce4bh3p2rcd13ifvqdp0","pricing_plan_id":"cebpf4jnsgd1na2vs0mg"},{"bike_id":"479ab7b6-977d-492d-890f-64b423a3f41f","system_id":"levelo_inurba_marseille","lat":43.25502,"lon":5.3765,"is_reserved":false,"is_disabled":false,"rental_uris":{"android":"levelo://app?vid=479ab7b6-977d-492d-890f-64b423a3f41f","ios":"levelo://app?vid=479ab7b6-977d-492d-890f-64b423a3f41f"},"vehicle_type_id":"4","last_reported":1758442322,"current_range_meters":18000,"station_id":"ce4bhh12rcd13ifvqff0","pricing_plan_id":"cebpf4jnsgd1na2vs0mg"},{"bike_id":"d1114a25-396a-458c-bb3a-06443865c163","system_id":"levelo_inurba_marseille","lat":43.29773,"lon":5.38097,"is_reserved":false,"is_disabled":true,"rental_uris":{"android":"levelo://app?vid=d1114a25-396a-458c-bb3a-06443865c163","ios":"levelo://app?vid=d1114a25-396a-458c-bb3a-06443865c163"},"vehicle_type_id":"4","last_reported":1758442322,"current_range_meters":18800,"station_id":"ce4bgip2rcd13ifvqbb0","pricing_plan_id":"cebpf4jnsgd1na2vs0mg"},{"bike_id":"6c265c4b-8bd7-4585-9a94-48f4b85ecf1e","system_id":"levelo_inurba_marseille","lat":43.25745,"lon":5.411,"is_reserved":false,"is_disabled":false,"rental_uris":{"android":"levelo://app?vid=6c265c4b-8bd7-4585-9a94-48f4b85ecf1e","ios":"levelo://app?vid=6c265c4b-8bd7-4585-9a94-48f4b85ecf1e"},"vehicle_type_id":"4","last_reported":1758442322,"current_range_meters":18800,"station_id":"ce4bhkp2rcd13ifvqgd0","pricing_plan_id":"cebpf4jnsgd1na2vs0mg"},{"bike_id":"1a6aef74-6c06-4938-b06f-254fb9fa1f9b","system_id":"levelo_inurba_marseille","lat":43.28693,"lon":5.39988,"is_reserved":false,"is_disabled":false,"rental_uris":{"android":"levelo://app?vid=1a6aef74-6c06-4938-b06f-254fb9fa1f9b","ios":"levelo://app?vid=1a6aef74-6c06-4938-b06f-254fb9fa1f9b"},"vehicle_type_id":"4","last_reported":1758442322,"current_range_meters":18800,"station_id":"ce4bho92rcd13ifvqh3g","pricing_plan_id":"cebpf4jnsgd1na2vs0mg"},{"bike_id":"4b1f1b97-9617-49ad-8cd5-85352fc5aa3d","system_id":"levelo_inurba_marseille","lat":43.26941,"lon":5.40247,"is_reserved":false,"is_disabled":false,"rental_uris":{"android":"levelo://app?vid=4b1f1b97-9617-49ad-8cd5-85352fc5aa3d","ios":"levelo://app?vid=4b1f1b97-9617-49ad-8cd5-85352fc5aa3d"},"vehicle_type_id":"4","last_reported":1758442322,"current_range_meters":18000,"station_id":"cjm6bp8fraef2m0cb0m0","pricing_plan_id":"cebpf4jnsgd1na2vs0mg"},{"bike_id":"34f32fc0-aa07-4a77-a798-5dff527258f0","system_id":"levelo_inurba_marseille","lat":43.28672,"lon":5.38645,"is_reserved":false,"is_disabled":true,"rental_uris":{"android":"levelo://app?vid=34f32fc0-aa07-4a77-a798-5dff527258f0","ios":"levelo://app?vid=34f32fc0-aa07-4a77-a798-5dff527258f0"},"vehicle_type_id":"4","last_reported":1758442322,"current_range_meters":18800,"station_id":"ce4bh492rcd13ifvqdug","pricing_plan_id":"cebpf4jnsgd1na2vs0mg"},{"bike_id":"aa615de6-88cf-4553-9e37-2b398204d202","system_id":"levelo_inurba_marseille","lat":43.2121,"lon":5.35119,"is_reserved":false,"is_disabled":false,"rental_uris":{"android":"levelo://app?vid=aa615de6-88cf-4553-9e37-2b398204d202","ios":"levelo://app?vid=aa615de6-88cf-4553-9e37-2b398204d202"},"vehicle_type_id":"4","last_reported":1758442322,"current_range_meters":19200,"station_id":"st_cvj6sg6p6f1abm77japg","pricing_plan_id":"cebpf4jnsgd1na2vs0mg"},{"bike_id":"d64a3c34-4f58-4a33-9858-96d7eeac0575","system_id":"levelo_inurba_marseille","lat":43.21738,"lon":5.34619,"is_reserved":false,"is_disabled":true,"rental_uris":{"android":"levelo://app?vid=d64a3c34-4f58-4a33-9858-96d7eeac0575","ios":"levelo://app?vid=d64a3c34-4f58-4a33-9858-96d7eeac0575"},"vehicle_type_id":"4","last_reported":1758442322,"current_range_meters":19200,"station_id":"st_cvj6r9ubvosntc0bgbag","pricing_plan_id":"cebpf4jnsgd1na2vs0mg"},{"bike_id":"94d430e6-52b3-4d21-80c9-c6dd4519a8fb","system_id":"levelo_inurba_marseille","lat":43.31771,"lon":5.38322,"is_reserved":false,"is_disabled":false,"rental_uris":{"android":"levelo://app?vid=94d430e6-52b3-4d21-80c9-c6dd4519a8fb","ios":"levelo://app?vid=94d430e6-52b3-4d21-80c9-c6dd4519a8fb"},"vehicle_type_id":"4","last_reported":1758442322,"current_range_meters":19200,"station_id":"","pricing_plan_id":"cebpf4jnsgd1na2vs0mg"},{"bike_id":"bfe8d8f5-28f0-4ecd-b340-fa38c16b1198","system_id":"levelo_inurba_marseille","lat":43.271744,"lon":5.409905,"is_reserved":false,"is_disabled":false,"rental_uris":{"android":"levelo://app?vid=bfe8d8f5-28f0-4ecd-b340-fa38c16b1198","ios":"levelo://app?vid=bfe8d8f5-28f0-4ecd-b340-fa38c16b1198"},"vehicle_type_id":"4","last_reported":1758442322,"current_range_meters":18800,"station_id":"ce4bhl12rcd13ifvqgf0","pricing_plan_id":"cebpf4jnsgd1na2vs0mg"},{"bike_id":"c8833dac-ac0e-4947-980a-a1e99af51c2c","system_id":"levelo_inurba_marseille","lat":43.26558,"lon":5.37283,"is_reserved":false,"is_disabled":false,"rental_uris":{"android":"levelo://app?vid=c8833dac-ac0e-4947-980a-a1e99af51c2c","ios":"levelo://app?vid=c8833dac-ac0e-4947-980a-a1e99af51c2c"},"vehicle_type_id":"4","last_reported":1758442322,"current_range_meters":19200,"station_id":"ce4bhg12rcd13ifvqf70","pricing_plan_id":"cebpf4jnsgd1na2vs0mg"},{"bike_id":"b8b086fa-144f-4e7c-a845-e879caf46260","system_id":"levelo_inurba_marseille","lat":43.28863,"lon":5.42528,"is_reserved":false,"is_disabled":false,"rental_uris":{"android":"levelo://app?vid=b8b086fa-144f-4e7c-a845-e879caf46260","ios":"levelo://app?vid=b8b086fa-144f-4e7c-a845-e879caf46260"},"vehicle_type_id":"4","last_reported":1758442322,"current_range_meters":19200,"station_id":"","pricing_plan_id":"cebpf4jnsgd1na2vs0mg"},{"bike_id":"769a6df7-1de5-42df-adb4-5f3589c04404","system_id":"levelo_inurba_marseille","lat":43.28129,"lon":5.42637,"is_reserved":false,"is_disabled":false,"rental_uris":{"android":"levelo://app?vid=769a6df7-1de5-42df-adb4-5f3589c04404","ios":"levelo://app?vid=769a6df7-1de5-42df-adb4-5f3589c04404"},"vehicle_type_id":"4","last_reported":1758442322,"current_range_meters":19600,"station_id":"ce4bhnh2rcd13ifvqgug","pricing_plan_id":"cebpf4jnsgd1na2vs0mg"},{"bike_id":"4ffff748-d86e-448c-b56c-98423ce5e657","system_id":"levelo_inurba_marseille","lat":43.3088,"lon":5.39648,"is_reserved":false,"is_disabled":false,"rental_uris":{"android":"levelo://app?vid=4ffff748-d86e-448c-b56c-98423ce5e657","ios":"levelo://app?vid=4ffff748-d86e-448c-b56c-98423ce5e657"},"vehicle_type_id":"4","last_reported":1758442322,"current_range_meters":19600,"station_id":"ce4bh012rcd13ifvqcv0","pricing_plan_id":"cebpf4jnsgd1na2vs0mg"},{"bike_id":"40af9c97-e433-4d5f-aa67-78d647ee5b4c","system_id":"levelo_inurba_marseille","lat":43.27485,"lon":5.42462,"is_reserved":false,"is_disabled":true,"rental_uris":{"android":"levelo://app?vid=40af9c97-e433-4d5f-aa67-78d647ee5b4c","ios":"levelo://app?vid=40af9c97-e433-4d5f-aa67-78d647ee5b4c"},"vehicle_type_id":"4","last_reported":1758442322,"current_range_meters":19600,"station_id":"ce4bhn92rcd13ifvqgrg","pricing_plan_id":"cebpf4jnsgd1na2vs0mg"},{"bike_id":"6b7f5438-5b95-4c3c-9c06-f39c612d15b0","system_id":"levelo_inurba_marseille","lat":43.30882,"lon":5.39629,"is_reserved":false,"is_disabled":false,"rental_uris":{"android":"levelo://app?vid=6b7f5438-5b95-4c3c-9c06-f39c612d15b0","ios":"levelo://app?vid=6b7f5438-5b95-4c3c-9c06-f39c612d15b0"},"vehicle_type_id":"4","last_reported":1758442322,"current_range_meters":19600,"station_id":"ce4bh012rcd13ifvqcv0","pricing_plan_id":"cebpf4jnsgd1na2vs0mg"},{"bike_id":"aea34ff3-2b2b-489f-878a-74b04d7e1e98","system_id":"levelo_inurba_marseille","lat":43.3014,"lon":5.38094,"is_reserved":false,"is_disabled":false,"rental_uris":{"android":"levelo://app?vid=aea34ff3-2b2b-489f-878a-74b04d7e1e98","ios":"levelo://app?vid=aea34ff3-2b2b-489f-878a-74b04d7e1e98"},"vehicle_type_id":"4","last_reported":1758442322,"current_range_meters":19600,"station_id":"ce4bgjp2rcd13ifvqbh0","pricing_plan_id":"cebpf4jnsgd1na2vs0mg"},{"bike_id":"b339ab2c-7f4e-4f78-b77b-6800a39b2b65","system_id":"levelo_inurba_marseille","lat":43.29055,"lon":5.37571,"is_reserved":false,"is_disabled":true,"rental_uris":{"android":"levelo://app?vid=b339ab2c-7f4e-4f78-b77b-6800a39b2b65","ios":"levelo://app?vid=b339ab2c-7f4e-4f78-b77b-6800a39b2b65"},"vehicle_type_id":"4","last_reported":1758442322,"current_range_meters":19600,"station_id":"ce4bh692rcd13ifvqe90","pricing_plan_id":"cebpf4jnsgd1na2vs0mg"},{"bike_id":"b2be2404-53eb-4f74-9829-8104df3de106","system_id":"levelo_inurba_marseille","lat":43.33618,"lon":5.35448,"is_reserved":false,"is_disabled":false,"rental_uris":{"android":"levelo://app?vid=b2be2404-53eb-4f74-9829-8104df3de106","ios":"levelo://app?vid=b2be2404-53eb-4f74-9829-8104df3de106"},"vehicle_type_id":"4","last_reported":1758442322,"current_range_meters":19600,"station_id":"","pricing_plan_id":"cebpf4jnsgd1na2vs0mg"},