{"last_updated":1733771259,"ttl":60,"version":"2.2","data":{"bikes":[{"bike_id":"fff6d518-10ee-4fd1-9c09-3218d9eb7e1c","system_id":"levelo_inurba_marseille","lat":43.3095,"lon":5.39039,"is_reserved":false,"is_disabled":false,"rental_uris":{"android":"levelo://app?vid=fff6d518-10ee-4fd1-9c09-3218d9eb7e1c","ios":"levelo://app?vid=fff6d518-10ee-4fd1-9c09-3218d9eb7e1c"},"vehicle_type_id":"4","last_reported":1733771259,"current_range_meters":38800,"station_id":"ce4bgup2rcd13ifvqco0","pricing_plan_id":"cebpf4jnsgd1na2vs0mg"},{"bike_id":"0c5673e3-c4d7-4bda-bf84-9cc7ccff7c66","system_id":"levelo_inurba_marseille","lat":43.25109,"lon":5.40312,"is_reserved":false,"is_disabled":false,"rental_uris":{"android":"levelo://app?vid=0c5673e3-c4d7-4bda-bf84-9cc7ccff7c66","ios":"levelo://app?vid=0c5673e3-c4d7-4bda-bf84-9cc7ccff7c66"},"vehicle_type_id":"4","last_reported":1733771259,"current_range_meters":20400,"station_id":"ce4bhlh2rcd13ifvqgig","pricing_plan_id":"cebpf4jnsgd1na2vs0mg"},{"bike_id":"4d948681-b8e3-4474-8600-cbf29481b748","system_id":"levelo_inurba_marseille","lat":43.29404,"lon":5.39618,"is_reserved":false,"is_disabled":false,"rental_uris":{"android":"levelo://app?vid=4d948681-b8e3-4474-8600-cbf29481b748","ios":"levelo://app?vid=4d948681-b8e3-4474-8600-cbf29481b748"},"vehicle_type_id":"4","last_reported":1733771259,"current_range_meters":20400,"station_id":"","pricing_plan_id":"cebpf4jnsgd1na2vs0mg"},{"bike_id":"8e029eaf-e104-4c5d-858d-6cd39de73d09","system_id":"levelo_inurba_marseille","lat":43.24196,"lon":5.36397,"is_reserved":false,"is_disabled":false,"rental_uris":{"android":"levelo://app?vid=8e029eaf-e104-4c5d-858d-6cd39de73d09","ios":"levelo://app?vid=8e029eaf-e104-4c5d-858d-6cd39de73d09"},"vehicle_type_id":"4","last_reported":1733771259,"current_range_meters":20800,"station_id":"cpo36qri1sfpv3e86is0","pricing_plan_id":"cebpf4jnsgd1na2vs0mg"},{"bike_id":"e2d3e4de-9812-4d59-9564-3751a59eadd1","system_id":"levelo_inurba_marseille","lat":43.28,"lon":5.39907,"is_reserved":false,"is_disabled":false,"rental_uris":{"android":"levelo://app?vid=e2d3e4de-9812-4d59-9564-3751a59eadd1","ios":"levelo://app?vid=e2d3e4de-9812-4d59-9564-3751a59eadd1"},"vehicle_type_id":"4","last_reported":1733771259,"current_range_meters":5600,"station_id":"ce4bhh92rcd13ifvqfi0","pricing_plan_id":"cebpf4jnsgd1na2vs0mg"},{"bike_id":"49890e82-aa27-4846-9659-88aa2ac9ae8b","system_id":"levelo_inurba_marseille","lat":43.24698,"lon":5.38138,"is_reserved":false,"is_disabled":false,"rental_uris":{"android":"levelo://app?vid=49890e82-aa27-4846-9659-88aa2ac9ae8b","ios":"levelo://app?vid=49890e82-aa27-4846-9659-88aa2ac9ae8b"},"vehicle_type_id":"4","last_reported":1733771259,"current_range_meters":38000,"station_id":"ce4bhih2rcd13ifvqfr0","pricing_plan_id":"cebpf4jnsgd1na2vs0mg"},{"bike_id":"6ce2b2d2-d6d8-4021-89de-a52489417845","system_id":"levelo_inurba_marseille","lat":43.27806,"lon":5.40704,"is_reserved":false,"is_disabled":false,"rental_uris":{"android":"levelo://app?vid=6ce2b2d2-d6d8-4021-89de-a52489417845","ios":"levelo://app?vid=6ce2b2d2-d6d8-4021-89de-a52489417845"},"vehicle_type_id":"4","last_reported":1733771259,"current_range_meters":32800,"station_id":"ce4bhnh2rcd13ifvqgtg","pricing_plan_id":"cebpf4jnsgd1na2vs0mg"},{"bike_id":"e6287468-f98b-4727-8dd2-6732688b3747","system_id":"levelo_inurba_marseille","lat":43.28029,"lon":5.36943,"is_reserved":false,"is_disabled":false,"rental_uris":{"android":"levelo://app?vid=e6287468-f98b-4727-8dd2-6732688b3747","ios":"levelo://app?vid=e6287468-f98b-4727-8dd2-6732688b3747"},"vehicle_type_id":"4","last_reported":1733771259,"current_range_meters":7200,"station_id":"ce4bha12rcd13ifvqef0","pricing_plan_id":"cebpf4jnsgd1na2vs0mg"},{"bike_id":"ba5e9603-9efa-46a1-a491-af58be8cd5cb","system_id":"levelo_inurba_marseille","lat":43.3235,"lon":5.36752,"is_reserved":false,"is_disabled":false,"rental_uris":{"android":"levelo://app?vid=ba5e9603-9efa-46a1-a491-af58be8cd5cb","ios":"levelo://app?vid=ba5e9603-9efa-46a1-a491-af58be8cd5cb"},"vehicle_type_id":"4","last_reported":1733771259,"current_range_meters":35200,"station_id":"ce4bhsh2rcd13ifvqi2g","pricing_plan_id":"cebpf4jnsgd1na2vs0mg"},{"bike_id":"d7c8c15b-fef7-401a-88a6-d231e1fbaaef","system_id":"levelo_inurba_marseille","lat":43.30642,"lon":5.4008,"is_reserved":false,"is_disabled":false,"rental_uris":{"android":"levelo://app?vid=d7c8c15b-fef7-401a-88a6-d231e1fbaaef","ios":"levelo://app?vid=d7c8c15b-fef7-401a-88a6-d231e1fbaaef"},"vehicle_type_id":"4","last_reported":1733771259,"current_range_meters":35600,"station_id":"ce4bh112rcd13ifvqda0","pricing_plan_id":"cebpf4jnsgd1na2vs0mg"},{"bike_id":"c263d26e-8f64-47ad-89a2-270160df6c56","system_id":"levelo_inurba_marseille","lat":43.30907,"lon":5.36849,"is_reserved":false,"is_disabled":false,"rental_uris":{"android":"levelo://app?vid=c263d26e-8f64-47ad-89a2-270160df6c56","ios":"levelo://app?vid=c263d26e-8f64-47ad-89a2-270160df6c56"},"vehicle_type_id":"4","last_reported":1733771259,"current_range_meters":38000,"station_id":"ce4bgn92rcd13ifvqbvg","pricing_plan_id":"cebpf4jnsgd1na2vs0mg"},{"bike_id":"8bd642b2-0279-44c7-9ee2-fc3b57332c83","system_id":"levelo_inurba_marseille","lat":43.27455,"lon":5.40073,"is_reserved":false,"is_disabled":true,"rental_uris":{"android":"levelo://app?vid=8bd642b2-0279-44c7-9ee2-fc3b57332c83","ios":"levelo://app?vid=8bd642b2-0279-44c7-9ee2-fc3b57332c83"},"vehicle_type_id":"4","last_reported":1733771259,"current_range_meters":0,"station_id":"","pricing_plan_id":"cebpf4jnsgd1na2vs0mg"},{"bike_id":"6c16c61a-9861-4fd5-915e-d88f0ddf0d18","system_id":"levelo_inurba_marseille","lat":43.28604,"lon":5.3706,"is_reserved":false,"is_disabled":false,"rental_uris":{"android":"levelo://app?vid=6c16c61a-9861-4fd5-915e-d88f0ddf0d18","ios":"levelo://app?vid=6c16c61a-9861-4fd5-915e-d88f0ddf0d18"},"vehicle_type_id":"4","last_reported":1733771259,"current_range_meters":24400,"station_id":"ce4bht12rcd13ifvqi60","pricing_plan_id":"cebpf4jnsgd1na2vs0mg"},{"bike_id":"ef83a8f0-2ecc-477b-bd5d-14646efb0150","system_id":"levelo_inurba_marseille","lat":43.29196,"lon":5.39316,"is_reserved":false,"is_disabled":false,"rental_uris":{"android":"levelo://app?vid=ef83a8f0-2ecc-477b-bd5d-14646efb0150","ios":"levelo://app?vid=ef83a8f0-2ecc-477b-bd5d-14646efb0150"},"vehicle_type_id":"4","last_reported":1733771259,"current_range_meters":38000,"station_id":"ce4bh192rcd13ifvqdd0","pricing_plan_id":"cebpf4jnsgd1na2vs0mg"},{"bike_id":"a0f1ee90-789a-4b1b-b04b-392b97c6abfc","system_id":"levelo_inurba_marseille","lat":43.29036,"lon":5.35915,"is_reserved":false,"is_disabled":false,"rental_uris":{"android":"levelo://app?vid=a0f1ee90-789a-4b1b-b04b-392b97c6abfc","ios":"levelo://app?vid=a0f1ee90-789a-4b1b-b04b-392b97c6abfc"},"vehicle_type_id":"4","last_reported":1733771259,"current_range_meters":36400,"station_id":"ce4bha92rcd13ifvqeg0","pricing_plan_id":"cebpf4jnsgd1na2vs0mg"},{"bike_id":"f09914a1-032a-4233-965f-c73f49a269ba","system_id":"levelo_inurba_marseille","lat":43.337444,"lon":5.374475,"is_reserved":false,"is_disabled":true,"rental_uris":{"android":"levelo://app?vid=f09914a1-032a-4233-965f-c73f49a269ba","ios":"levelo://app?vid=f09914a1-032a-4233-965f-c73f49a269ba"},"vehicle_type_id":"4","last_reported":1733771259,"current_range_meters":0,"station_id":"","pricing_plan_id":"cebpf4jnsgd1na2vs0mg"},{"bike_id":"d8037fe8-1ae6-486e-82e6-5c27ba5ddb10","system_id":"levelo_inurba_marseille","lat":43.25582,"lon":5.3823,"is_reserved":false,"is_disabled":true,"rental_uris":{"android":"levelo://app?vid=d8037fe8-1ae6-486e-82e6-5c27ba5ddb10","ios":"levelo://app?vid=d8037fe8-1ae6-486e-82e6-5c27ba5ddb10"},"vehicle_type_id":"4","last_reported":1733771259,"current_range_meters":0,"station_id":"ce4bhih2rcd13ifvqfs0","pricing_plan_id":"cebpf4jnsgd1na2vs0mg"},{"bike_id":"f6ceca24-19af-4ed8-b20b-dad7699688ae","system_id":"levelo_inurba_marseille","lat":43.32477,"lon":5.36573,"is_reserved":false,"is_disabled":true,"rental_uris":{"android":"levelo://app?vid=f6ceca24-19af-4ed8-b20b-dad7699688ae","ios":"levelo://app?vid=f6ceca24-19af-4ed8-b20b-dad7699688ae"},"vehicle_type_id":"4","last_reported":1733771259,"current_range_meters":26800,"station_id":"ce4bhs12rcd13ifvqhvg","pricing_plan_id":"cebpf4jnsgd1na2vs0mg"},{"bike_id":"a955f565-33db-4fdc-bdbf-249121ea420f","system_id":"levelo_inurba_marseille","lat":43.29182,"lon":5.35793,"is_reserved":false,"is_disabled":true,"rental_uris":{"android":"levelo://app?vid=a955f565-33db-4fdc-bdbf-249121ea420f","ios":"levelo://app?vid=a955f565-33db-4fdc-bdbf-249121ea420f"},"vehicle_type_id":"4","last_reported":1733771259,"current_range_meters":30800,"station_id":"ce4bhb12rcd13ifvqel0","pricing_plan_id":"cebpf4jnsgd1na2vs0mg"},{"bike_id":"7b419e68-91f3-4489-9ff1-9ee172dd0f4b","system_id":"levelo_inurba_marseille","lat":43.28461,"lon":5.3589,"is_reserved":false,"is_disabled":false,"rental_uris":{"android":"levelo://app?vid=7b419e68-91f3-4489-9ff1-9ee172dd0f4b","ios":"levelo://app?vid=7b419e68-91f3-4489-9ff1-9ee172dd0f4b"},"vehicle_type_id":"4","last_reported":1733771259,"current_range_meters":38800,"station_id":"ce4bhah2rcd13ifvqei0","pricing_plan_id":"cebpf4jnsgd1na2vs0mg"},{"bike_id":"1aa44ed9-e118-4ef3-bc76-ec2ddb64bcd0","system_id":"levelo_inurba_marseille","lat":43.27322,"lon":5.39085,"is_reserved":false,"is_disabled":true,"rental_uris":{"android":"levelo://app?vid=1aa44ed9-e118-4ef3-bc76-ec2ddb64bcd0","ios":"levelo://app?vid=1aa44ed9-e118-4ef3-bc76-ec2ddb64bcd0"},"vehicle_type_id":"4","last_reported":1733771259,"current_range_meters":17200,"station_id":"ce4bhgp2rcd13ifvqfe0","pricing_plan_id":"cebpf4jnsgd1na2vs0mg"},{"bike_id":"14c257dc-06bf-4a29-939b-9abb4cc4885a","system_id":"levelo_inurba_marseille","lat":43.28497,"lon":5.3681,"is_reserved":false,"is_disabled":false,"rental_uris":{"android":"levelo://app?vid=14c257dc-06bf-4a29-939b-9abb4cc4885a","ios":"levelo://app?vid=14c257dc-06bf-4a29-939b-9abb4cc4885a"},"vehicle_type_id":"4","last_reported":1733771259,"current_range_meters":6000,"station_id":"","pricing_plan_id":"cebpf4jnsgd1na2vs0mg"},{"bike_id":"79533f17-2510-4978-b3f7-d9e54ffe07ac","system_id":"levelo_inurba_marseille","lat":43.29626,"lon":5.40597,"is_reserved":false,"is_disabled":false,"rental_uris":{"android":"levelo://app?vid=79533f17-2510-4978-b3f7-d9e54ffe07ac","ios":"levelo://app?vid=79533f17-2510-4978-b3f7-d9e54ffe07ac"},"vehicle_type_id":"4","last_reported":1733771259,"current_range_meters":38800,"station_id":"ce4bh0h2rcd13ifvqd60","pricing_plan_id":"cebpf4jnsgd1na2vs0mg"},{"bike_id":"0e57d714-949d-4e62-a856-8d524104f737","system_id":"levelo_inurba_marseille","lat":43.29625,"lon":5.40598,"is_reserved":false,"is_disabled":false,"rental_uris":{"android":"levelo://app?vid=0e57d714-949d-4e62-a856-8d524104f737","ios":"levelo://app?vid=0e57d714-949d-4e62-a856-8d524104f737"},"vehicle_type_id":"4","last_reported":1733771259,"current_range_meters":38800,"station_id":"ce4bh0h2rcd13ifvqd60","pricing_plan_id":"cebpf4jnsgd1na2vs0mg"},{"bike_id":"3584fe42-a225-447a-a28a-f1865249a2d1","system_id":"levelo_inurba_marseille","lat":43.25113,"lon":5.40316,"is_reserved":false,"is_disabled":false,"rental_uris":{"android":"levelo://app?vid=3584fe42-a225-447a-a28a-f1865249a2d1","ios":"levelo://app?vid=3584fe42-a225-447a-a28a-f1865249a2d1"},"vehicle_type_id":"4","last_reported":1733771259,"current_range_meters":15200,"station_id":"ce4bhlh2rcd13ifvqgig","pricing_plan_id":"cebpf4jnsgd1na2vs0mg"},{"bike_id":"748ed380-cc04-447e-a269-40aa2d7d60b0","system_id":"levelo_inurba_marseille","lat":43.27554,"lon":5.38429,"is_reserved":false,"is_disabled":false,"rental_uris":{"android":"levelo://app?vid=748ed380-cc04-447e-a269-40aa2d7d60b0","ios":"levelo://app?vid=748ed380-cc04-447e-a269-40aa2d7d60b0"},"vehicle_type_id":"4","last_reported":1733771259,"current_range_meters":37600,"station_id":"ce4bhh92rcd13ifvqfi0","pricing_plan_id":"cebpf4jnsgd1na2vs0mg"},{"bike_id":"6e0392cc-81c7-44f9-bb29-a83dcdbcd0e1","system_id":"levelo_inurba_marseille","lat":43.28701,"lon":5.37378,"is_reserved":false,"is_disabled":false,"rental_uris":{"android":"levelo://app?vid=6e0392cc-81c7-44f9-bb29-a83dcdbcd0e1","ios":"levelo://app?vid=6e0392cc-81c7-44f9-bb29-a83dcdbcd0e1"},"vehicle_type_id":"4","last_reported":1733771259,"current_range_meters":32000,"station_id":"ce4bh3p2rcd13ifvqdq0","pricing_plan_id":"cebpf4jnsgd1na2vs0mg"},{"bike_id":"4cc1bbde-3c5a-4224-a53b-ecc35c086af7","system_id":"levelo_inurba_marseille","lat":43.28599,"lon":5.37057,"is_reserved":false,"is_disabled":false,"rental_uris":{"android":"levelo://app?vid=4cc1bbde-3c5a-4224-a53b-ecc35c086af7","ios":"levelo://app?vid=4cc1bbde-3c5a-4224-a53b-ecc35c086af7"},"vehicle_type_id":"4","last_reported":1733771259,"current_range_meters":16400,"station_id":"ce4bht12rcd13ifvqi60","pricing_plan_id":"cebpf4jnsgd1na2vs0mg"},{"bike_id":"480f28a2-7fc0-4293-a84e-a1f8167b279b","system_id":"levelo_inurba_marseille","lat":43.25861,"lon":5.39905,"is_reserved":false,"is_disabled":false,"rental_uris":{"android":"levelo://app?vid=480f28a2-7fc0-4293-a84e-a1f8167b279b","ios":"levelo://app?vid=480f28a2-7fc0-4293-a84e-a1f8167b279b"},"vehicle_type_id":"4","last_reported":1733771259,"current_range_meters":38800,"station_id":"ce4bhl92rcd13ifvqghg","pricing_plan_id":"cebpf4jnsgd1na2vs0mg"},{"bike_id":"0262ddd9-f869-4fe5-a781-6931725a380d","system_id":"levelo_inurba_marseille","lat":43.27939,"lon":5.41045,"is_reserved":false,"is_disabled":false,"rental_uris":{"android":"levelo://app?vid=0262ddd9-f869-4fe5-a781-6931725a380d","ios":"levelo://app?vid=0262ddd9-f869-4fe5-a781-6931725a380d"},"vehicle_type_id":"4","last_reported":1733771259,"current_range_meters":16000,"station_id":"ce4bhnp2rcd13ifvqh0g","pricing_plan_id":"cebpf4jnsgd1na2vs0mg"},{"bike_id":"938640b4-f78c-4def-9b16-e6205edb88bc","system_id":"levelo_inurba_marseille","lat":43.28152,"lon":5.42638,"is_reserved":false,"is_disabled":true,"rental_uris":{"android":"levelo://app?vid=938640b4-f78c-4def-9b16-e6205edb88bc","ios":"levelo://app?vid=938640b4-f78c-4def-9b16-e6205edb88bc"},"vehicle_type_id":"4","last_reported":1733771259,"current_range_meters":34000,"station_id":"ce4bhnh2rcd13ifvqgug","pricing_plan_id":"cebpf4jnsgd1na2vs0mg"},{"bike_id":"e249a03c-cd0f-4755-a638-6d0781511477","system_id":"levelo_inurba_marseille","lat":43.29295,"lon":5.37465,"is_reserved":false,"is_disabled":false,"rental_uris":{"android":"levelo://app?vid=e249a03c-cd0f-4755-a638-6d0781511477","ios":"levelo://app?vid=e249a03c-cd0f-4755-a638-6d0781511477"},"vehicle_type_id":"4","last_reported":1733771259,"current_range_meters":11600,"station_id":"ce4bgi12rcd13ifvqb70","pricing_plan_id":"cebpf4jnsgd1na2vs0mg"},{"bike_id":"ea9d4249-69ee-4a2d-857e-bb5f7820465f","system_id":"levelo_inurba_marseille","lat":43.29442,"lon":5.3974,"is_reserved":false,"is_disabled":false,"rental_uris":{"android":"levelo://app?vid=ea9d4249-69ee-4a2d-857e-bb5f7820465f","ios":"levelo://app?vid=ea9d4249-69ee-4a2d-857e-bb5f7820465f"},"vehicle_type_id":"4","last_reported":1733771259,"current_range_meters":39200,"station_id":"ce4bh3h2rcd13ifvqdo0","pricing_plan_id":"cebpf4jnsgd1na2vs0mg"},{"bike_id":"cf55b169-9388-4819-bfa4-c55a8fa03873","system_id":"levelo_inurba_marseille","lat":43.27613,"lon":5.36105,"is_reserved":false,"is_disabled":true,"rental_uris":{"android":"levelo://app?vid=cf55b169-9388-4819-bfa4-c55a8fa03873","ios":"levelo://app?vid=cf55b169-9388-4819-bfa4-c55a8fa03873"},"vehicle_type_id":"4","last_reported":1733771259,"current_range_meters":28400,"station_id":"ce4bgj92rcd13ifvqbe0","pricing_plan_id":"cebpf4jnsgd1na2vs0mg"},{"bike_id":"2f3968e7-9336-4ee4-ba78-8e92c0a818cc","system_id":"levelo_inurba_marseille","lat":43.31322,"lon":5.36647,"is_reserved":false,"is_disabled":true,"rental_uris":{"android":"levelo://app?vid=2f3968e7-9336-4ee4-ba78-8e92c0a818cc","ios":"levelo://app?vid=2f3968e7-9336-4ee4-ba78-8e92c0a818cc"},"vehicle_type_id":"4","last_reported":1733771259,"current_range_meters":0,"station_id":"","pricing_plan_id":"cebpf4jnsgd1na2vs0mg"},{"bike_id":"ba0855e1-a344-4ad4-b7ef-fa9c8edb2b41","system_id":"levelo_inurba_marseille","lat":43.28149,"lon":5.42641,"is_reserved":false,"is_disabled":false,"rental_uris":{"android":"levelo://app?vid=ba0855e1-a344-4ad4-b7ef-fa9c8edb2b41","ios":"levelo://app?vid=ba0855e1-a344-4ad4-b7ef-fa9c8edb2b41"},"vehicle_type_id":"4","last_reported":1733771259,"current_range_meters":11200,"station_id":"ce4bhnh2rcd13ifvqgug","pricing_plan_id":"cebpf4jnsgd1na2vs0mg"},{"bike_id":"b2eccbb3-a55b-440e-a8e1-5dfbf23b943b","system_id":"levelo_inurba_marseille","lat":43.26941,"lon":5.40247,"is_reserved":false,"is_disabled":false,"rental_uris":{"android":"levelo://app?vid=b2eccbb3-a55b-440e-a8e1-5dfbf23b943b","ios":"levelo://app?vid=b2eccbb3-a55b-440e-a8e1-5dfbf23b943b"},"vehicle_type_id":"4","last_reported":1733771259,"current_range_meters":19600,"station_id":"cjm6bp8fraef2m0cb0m0","pricing_plan_id":"cebpf4jnsgd1na2vs0mg"},{"bike_id":"32818863-0b19-40fb-81e1-93b68c6542c0","system_id":"levelo_inurba_marseille","lat":43.30139,"lon":5.3987,"is_reserved":false,"is_disabled":false,"rental_uris":{"android":"levelo://app?vid=32818863-0b19-40fb-81e1-93b68c6542c0","ios":"levelo://app?vid=32818863-0b19-40fb-81e1-93b68c6542c0"},"vehicle_type_id":"4","last_reported":1733771259,"current_range_meters":38800,"station_id":"ce4bh0h2rcd13ifvqd40","pricing_plan_id":"cebpf4jnsgd1na2vs0mg"},{"bike_id":"8b085477-ac1a-49a8-a7b6-2ec9aed28765","system_id":"levelo_inurba_marseille","lat":43.29528,"lon":5.38551,"is_reserved":false,"is_disabled":false,"rental_uris":{"android":"levelo://app?vid=8b085477-ac1a-49a8-a7b6-2ec9aed28765","ios":"levelo://app?vid=8b085477-ac1a-49a8-a7b6-2ec9aed28765"},"vehicle_type_id":"4","last_reported":1733771259,"current_range_meters":33600,"station_id":"ce4bgih2rcd13ifvqba0","pricing_plan_id":"cebpf4jnsgd1na2vs0mg"},{"bike_id":"4c634b51-f78c-4188-bb5c-dedfedf1caf0","system_id":"levelo_inurba_marseille","lat":43.2807,"lon":5.3965,"is_reserved":false,"is_disabled":false,"rental_uris":{"android":"levelo://app?vid=4c634b51-f78c-4188-bb5c-dedfedf1caf0","ios":"levelo://app?vid=4c634b51-f78c-4188-bb5c-dedfedf1caf0"},"vehicle_type_id":"4","last_reported":1733771259,"current_range_meters":32000,"station_id":"ce4bho12rcd13ifvqh2g","pricing_plan_id":"cebpf4jnsgd1na2vs0mg"},{"bike_id":"bebbc687-d8a4-40fc-90ad-9a6f7e83ae21","system_id":"levelo_inurba_marseille","lat":43.30929,"lon":5.40139,"is_reserved":false,"is_disabled":false,"rental_uris":{"android":"levelo://app?vid=bebbc687-d8a4-40fc-90ad-9a6f7e83ae21","ios":"levelo://app?vid=bebbc687-d8a4-40fc-90ad-9a6f7e83ae21"},"vehicle_type_id":"4","last_reported":1733771259,"current_range_meters":28400,"station_id":"ce4bgvp2rcd13ifvqct0","pricing_plan_id":"cebpf4jnsgd1na2vs0mg"},{"bike_id":"7f0b121b-7748-43bd-b861-318cbdf6fb69","system_id":"levelo_inurba_marseille","lat":43.28454,"lon":5.35889,"is_reserved":false,"is_disabled":true,"rental_uris":{"android":"levelo://app?vid=7f0b121b-7748-43bd-b861-318cbdf6fb69","ios":"levelo://app?vid=7f0b121b-7748-43bd-b861-318cbdf6fb69"},"vehicle_type_id":"4","last_reported":1733771259,"current_range_meters":36800,"station_id":"ce4bhah2rcd13ifvqei0","pricing_plan_id":"cebpf4jnsgd1na2vs0mg"},{"bike_id":"6583aefc-6815-4bd5-8f5c-a9c5d794f47e","system_id":"levelo_inurba_marseille","lat":43.36394,"lon":5.34175,"is_reserved":false,"is_disabled":false,"rental_uris":{"android":"levelo://app?vid=6583aefc-6815-4bd5-8f5c-a9c5d794f47e","ios":"levelo://app?vid=6583aefc-6815-4bd5-8f5c-a9c5d794f47e"},"vehicle_type_id":"4","last_reported":1733771259,"current_range_meters":12000,"station_id":"","pricing_plan_id":"cebpf4jnsgd1na2vs0mg"},{"bike_id":"c8beff43-7449-4aa4-86a7-476ca29a8130","system_id":"levelo_inurba_marseille","lat":43.31725,"lon":5.424,"is_reserved":false,"is_disabled":false,"rental_uris":{"android":"levelo://app?vid=c8beff43-7449-4aa4-86a7-476ca29a8130","ios":"levelo://app?vid=c8beff43-7449-4aa4-86a7-476ca29a8130"},"vehicle_type_id":"4","last_reported":1733771259,"current_range_meters":37600,"station_id":"ce4bhp92rcd13ifvqhbg","pricing_plan_id":"cebpf4jnsgd1na2vs0mg"},{"bike_id":"1ea75704-24c4-4a36-9d48-d8cdff10644f","system_id":"levelo_inurba_marseille","lat":43.33021,"lon":5.39041,"is_reserved":false,"is_disabled":true,"rental_uris":{"android":"levelo://app?vid=1ea75704-24c4-4a36-9d48-d8cdff10644f","ios":"levelo://app?vid=1ea75704-24c4-4a36-9d48-d8cdff10644f"},"vehicle_type_id":"4","last_reported":1733771259,"current_range_meters":1600,"station_id":"ce4bhr92rcd13ifvqhrg","pricing_plan_id":"cebpf4jnsgd1na2vs0mg"},{"bike_id":"72a40c74-61ce-4e85-9c26-7501b1062d7a","system_id":"levelo_inurba_marseille","lat":43.32335,"lon":5.40619,"is_reserved":false,"is_disabled":false,"rental_uris":{"android":"levelo://app?vid=72a40c74-61ce-4e85-9c26-7501b1062d7a","ios":"levelo://app?vid=72a40c74-61ce-4e85-9c26-7501b1062d7a"},"vehicle_type_id":"4","last_reported":1733771259,"current_range_meters":16400,"station_id":"ce4bhq92rcd13ifvqhjg","pricing_plan_id":"cebpf4jnsgd1na2vs0mg"},{"bike_id":"b97d7574-49b3-4eea-b4a7-8d4ca9df8845","system_id":"levelo_inurba_marseille","lat":43.27175,"lon":5.40997,"is_reserved":false,"is_disabled":false,"rental_uris":{"android":"levelo://app?vid=b97d7574-49b3-4eea-b4a7-8d4ca9df8845","ios":"levelo://app?vid=b97d7574-49b3-4eea-b4a7-8d4ca9df8845"},"vehicle_type_id":"4","last_reported":1733771259,"current_range_meters":19200,"station_id":"ce4bhl12rcd13ifvqgf0","pricing_plan_id":"cebpf4jnsgd1na2vs0mg"},{"bike_id":"ab6491a9-622a-424b-bedc-ab1c401a00b0","system_id":"levelo_inurba_marseille","lat":43.2957,"lon":5.39982,"is_reserved":false,"is_disabled":false,"rental_uris":{"android":"levelo://app?vid=ab6491a9-622a-424b-bedc-ab1c401a00b0","ios":"levelo://app?vid=ab6491a9-622a-424b-bedc-ab1c401a00b0"},"vehicle_type_id":"4","last_reported":1733771259,"current_range_meters":12000,"station_id":"ce4bh312rcd13ifvqdj0","pricing_plan_id":"cebpf4jnsgd1na2vs0mg"},{"bike_id":"ad2f90d1-2f44-4830-9c20-e8aa5d565d92","system_id":"levelo_inurba_marseille","lat":43.25578,"lon":5.38219,"is_reserved":false,"is_disabled":true,"rental_uris":{"android":"levelo://app?vid=ad2f90d1-2f44-4830-9c20-e8aa5d565d92","ios":"levelo://app?vid=ad2f90d1-2f44-4830-9c20-e8aa5d565d92"},"vehicle_type_id":"4","last_reported":1733771259,"current_range_meters":0,"station_id":"ce4bhih2rcd13ifvqfs0","pricing_plan_id":"cebpf4jnsgd1na2vs0mg"},{"bike_id":"be11bf77-dce6-4575-b3d6-de65c68412a2","system_id":"levelo_inurba_marseille","lat":43.26063,"lon":5.3939,"is_reserved":false,"is_disabled":false,"rental_uris":{"android":"levelo://app?vid=be11bf77-dce6-4575-b3d6-de65c68412a2","ios":"levelo://app?vid=be11bf77-dce6-4575-b3d6-de65c68412a2"},"vehicle_type_id":"4","last_reported":1733771259,"current_range_meters":36400,"station_id":"ce4bhh92rcd13ifvqfj0","pricing_plan_id":"cebpf4jnsgd1na2vs0mg"},{"bike_id":"a721bc18-7d6c-476a-81a6-be99af33c966","system_id":"levelo_inurba_marseille","lat":43.25579,"lon":5.38228,"is_reserved":false,"is_disabled":false,"rental_uris":{"android":"levelo://app?vid=a721bc18-7d6c-476a-81a6-be99af33c966","ios":"levelo://app?vid=a721bc18-7d6c-476a-81a6-be99af33c966"},"vehicle_type_id":"4","last_reported":1733771259,"current_range_meters":6000,"station_id":"ce4bhih2rcd13ifvqfs0","pricing_plan_id":"cebpf4jnsgd1na2vs0mg"},{"bike_id":"f990d6ef-8e09-4118-9444-4a4a6da06769","system_id":"levelo_inurba_marseille","lat":43.31525,"lon":5.38035,"is_reserved":false,"is_disabled":false,"rental_uris":{"android":"levelo://app?vid=f990d6ef-8e09-4118-9444-4a4a6da06769","ios":"levelo://app?vid=f990d6ef-8e09-4118-9444-4a4a6da06769"},"vehicle_type_id":"4","last_reported":1733771259,"current_range_meters":12400,"station_id":"ce4bhsp2rcd13ifvqi50","pricing_plan_id":"cebpf4jnsgd1na2vs0mg"},{"bike_id":"f10c5e90-601b-4bd4-87e7-4cbb6a13a4fb","system_id":"levelo_inurba_marseille","lat":43.26123,"lon":5.39268,"is_reserved":false,"is_disabled":true,"rental_uris":{"android":"levelo://app?vid=f10c5e90-601b-4bd4-87e7-4cbb6a13a4fb","ios":"levelo://app?vid=f10c5e90-601b-4bd4-87e7-4cbb6a13a4fb"},"vehicle_type_id":"4","last_reported":1733771259,"current_range_meters":0,"station_id":"","pricing_plan_id":"cebpf4jnsgd1na2vs0mg"},{"bike_id":"74c2409c-00fc-4889-a480-53c8537bffe9","system_id":"levelo_inurba_marseille","lat":43.29796,"lon":5.40404,"is_reserved":false,"is_disabled":false,"rental_uris":{"android":"levelo://app?vid=74c2409c-00fc-4889-a480-53c8537bffe9","ios":"levelo://app?vid=74c2409c-00fc-4889-a480-53c8537bffe9"},"vehicle_type_id":"4","last_reported":1733771259,"current_range_meters":38800,"station_id":"ce4bh112rcd13ifvqd90","pricing_plan_id":"cebpf4jnsgd1na2vs0mg"},{"bike_id":"8179a502-24d2-4fc0-958c-6bce9d778e94","system_id":"levelo_inurba_marseille","lat":43.27864,"lon":5.40657,"is_reserved":false,"is_disabled":false,"rental_uris":{"android":"levelo://app?vid=8179a502-24d2-4fc0-958c-6bce9d778e94","ios":"levelo://app?vid=8179a502-24d2-4fc0-958c-6bce9d778e94"},"vehicle_type_id":"4","last_reported":1733771259,"current_range_meters":32400,"station_id":"","pricing_plan_id":"cebpf4jnsgd1na2vs0mg"},{"bike_id":"4b799a83-3267-4ff9-a319-edb45c4d8b56","system_id":"levelo_inurba_marseille","lat":43.28609,"lon":5.37062,"is_reserved":false,"is_disabled":false,"rental_uris":{"android":"levelo://app?vid=4b799a83-3267-4ff9-a319-edb45c4d8b56","ios":"levelo://app?vid=4b799a83-3267-4ff9-a319-edb45c4d8b56"},"vehicle_type_id":"4","last_reported":1733771259,"current_range_meters":27600,"station_id":"ce4bht12rcd13ifvqi60","pricing_plan_id":"cebpf4jnsgd1na2vs0mg"},{"bike_id":"c1af07c0-ed11-49c8-aa2e-1104638a28b7","system_id":"levelo_inurba_marseille","lat":43.23067,"lon":5.35495,"is_reserved":false,"is_disabled":false,"rental_uris":{"android":"levelo://app?vid=c1af07c0-ed11-49c8-aa2e-1104638a28b7","ios":"levelo://app?vid=c1af07c0-ed11-49c8-aa2e-1104638a28b7"},"vehicle_type_id":"4","last_reported":1733771259,"current_range_meters":24000,"station_id":"cpo3342slgdg3j2ifvpg","pricing_plan_id":"cebpf4jnsgd1na2vs0mg"},{"bike_id":"a1b7d0a9-885b-4563-80bb-c16c77a2747b","system_id":"levelo_inurba_marseille","lat":43.31067,"lon":5.38351,"is_reserved":false,"is_disabled":false,"rental_uris":{"android":"levelo://app?vid=a1b7d0a9-885b-4563-80bb-c16c77a2747b","ios":"levelo://app?vid=a1b7d0a9-885b-4563-80bb-c16c77a2747b"},"vehicle_type_id":"4","last_reported":1733771259,"current_range_meters":38800,"station_id":"ce4bgv92rcd13ifvqcr0","pricing_plan_id":"cebpf4jnsgd1na2vs0mg"},{"bike_id":"169e14f5-d110-464e-80da-ab97874f1b45","system_id":"levelo_inurba_marseille","lat":43.30325,"lon":5.40441,"is_reserved":false,"is_disabled":false,"rental_uris":{"android":"levelo://app?vid=169e14f5-d110-464e-80da-ab97874f1b45","ios":"levelo://app?vid=169e14f5-d110-464e-80da-ab97874f1b45"},"vehicle_type_id":"4","last_reported":1733771259,"current_range_meters":25600,"station_id":"ce4bh012rcd13ifvqd10","pricing_plan_id":"cebpf4jnsgd1na2vs0mg"},{"bike_id":"0706adb5-0c61-4c6b-9d93-aada612b11f4","system_id":"levelo_inurba_marseille","lat":43.29633,"lon":5.40593,"is_reserved":false,"is_disabled":true,"rental_uris":{"android":"levelo://app?vid=0706adb5-0c61-4c6b-9d93-aada612b11f4","ios":"levelo://app?vid=0706adb5-0c61-4c6b-9d93-aada612b11f4"},"vehicle_type_id":"4","last_reported":1733771259,"current_range_meters":0,"station_id":"ce4bh0h2rcd13ifvqd60","pricing_plan_id":"cebpf4jnsgd1na2vs0mg"},{"bike_id":"88792e37-20ff-4411-87bd-033987ebaaa7","system_id":"levelo_inurba_marseille","lat":43.29255,"lon":5.40906,"is_reserved":false,"is_disabled":false,"rental_uris":{"android":"levelo://app?vid=88792e37-20ff-4411-87bd-033987ebaaa7","ios":"levelo://app?vid=88792e37-20ff-4411-87bd-033987ebaaa7"},"vehicle_type_id":"4","last_reported":1733771259,"current_range_meters":12800,"station_id":"ce4bh192rcd13ifvqdc0","pricing_plan_id":"cebpf4jnsgd1na2vs0mg"},{"bike_id":"6f5aafc4-06b9-4dba-b612-5d926167490b","system_id":"levelo_inurba_marseille","lat":43.32479,"lon":5.36576,"is_reserved":false,"is_disabled":true,"rental_uris":{"android":"levelo://app?vid=6f5aafc4-06b9-4dba-b612-5d926167490b","ios":"levelo://app?vid=6f5aafc4-06b9-4dba-b612-5d926167490b"},"vehicle_type_id":"4","last_reported":1733771259,"current_range_meters":400,"station_id":"ce4bhs12rcd13ifvqhvg","pricing_plan_id":"cebpf4jnsgd1na2vs0mg"},{"bike_id":"f930f8e1-4780-4824-b739-56f3c0a30182","system_id":"levelo_inurba_marseille","lat":43.29194,"lon":5.35794,"is_reserved":false,"is_disabled":false,"rental_uris":{"android":"levelo://app?vid=f930f8e1-4780-4824-b739-56f3c0a30182","ios":"levelo://app?vid=f930f8e1-4780-4824-b739-56f3c0a30182"},"vehicle_type_id":"4","last_reported":1733771259,"current_range_meters":28000,"station_id":"ce4bhb12rcd13ifvqel0","pricing_plan_id":"cebpf4jnsgd1na2vs0mg"},{"bike_id":"19b06128-e0d1-48bb-8561-de6b4c9be47a","system_id":"levelo_inurba_marseille","lat":43.30797,"lon":5.43519,"is_reserved":false,"is_disabled":false,"rental_uris":{"android":"levelo://app?vid=19b06128-e0d1-48bb-8561-de6b4c9be47a","ios":"levelo://app?vid=19b06128-e0d1-48bb-8561-de6b4c9be47a"},"vehicle_type_id":"4","last_reported":1733771259,"current_range_meters":17200,"station_id":"ce4bhph2rcd13ifvqheg","pricing_plan_id":"cebpf4jnsgd1na2vs0mg"},{"bike_id":"b089d5a6-e8e6-4265-b578-f28e18d6c5ed","system_id":"levelo_inurba_marseille","lat":43.255,"lon":5.37651,"is_reserved":false,"is_disabled":true,"rental_uris":{"android":"levelo://app?vid=b089d5a6-e8e6-4265-b578-f28e18d6c5ed","ios":"levelo://app?vid=b089d5a6-e8e6-4265-b578-f28e18d6c5ed"},"vehicle_type_id":"4","last_reported":1733771259,"current_range_meters":0,"station_id":"ce4bhh12rcd13ifvqff0","pricing_plan_id":"cebpf4jnsgd1na2vs0mg"},{"bike_id":"74ddbdc3-b082-4f44-a075-38dfc2e6b2cd","system_id":"levelo_inurba_marseille","lat":43.24162,"lon":5.36386,"is_reserved":false,"is_disabled":false,"rental_uris":{"android":"levelo://app?vid=74ddbdc3-b082-4f44-a075-38dfc2e6b2cd","ios":"levelo://app?vid=74ddbdc3-b082-4f44-a075-38dfc2e6b2cd"},"vehicle_type_id":"4","last_reported":1733771259,"current_range_meters":26000,"station_id":"cpo36qri1sfpv3e86is0","pricing_plan_id":"cebpf4jnsgd1na2vs0mg"},{"bike_id":"778cfa67-5e48-43ac-bad2-c30d515ff32e","system_id":"levelo_inurba_marseille","lat":43.30795,"lon":5.4352,"is_reserved":false,"is_disabled":true,"rental_uris":{"android":"levelo://app?vid=778cfa67-5e48-43ac-bad2-c30d515ff32e","ios":"levelo://app?vid=778cfa67-5e48-43ac-bad2-c30d515ff32e"},"vehicle_type_id":"4","last_reported":1733771259,"current_range_meters":0,"station_id":"ce4bhph2rcd13ifvqheg","pricing_plan_id":"cebpf4jnsgd1na2vs0mg"},{"bike_id":"69be092f-025c-48d3-a199-9bc9e5b57099","system_id":"levelo_inurba_marseille","lat":43.28415,"lon":5.37508,"is_reserved":false,"is_disabled":false,"rental_uris":{"android":"levelo://app?vid=69be092f-025c-48d3-a199-9bc9e5b57099","ios":"levelo://app?vid=69be092f-025c-48d3-a199-9bc9e5b57099"},"vehicle_type_id":"4","last_reported":1733771259,"current_range_meters":33200,"station_id":"ce4bh412rcd13ifvqds0","pricing_plan_id":"cebpf4jnsgd1na2vs0mg"},{"bike_id":"f942e722-5039-4601-9971-0207b150598d","system_id":"levelo_inurba_marseille","lat":43.29854,"lon":5.36294,"is_reserved":false,"is_disabled":false,"rental_uris":{"android":"levelo://app?vid=f942e722-5039-4601-9971-0207b150598d","ios":"levelo://app?vid=f942e722-5039-4601-9971-0207b150598d"},"vehicle_type_id":"4","last_reported":1733771259,"current_range_meters":16000,"station_id":"ce4bgpp2rcd13ifvqc3g","pricing_plan_id":"cebpf4jnsgd1na2vs0mg"},{"bike_id":"9cd79aab-6f4c-4919-b570-803a9e8b35c5","system_id":"levelo_inurba_marseille","lat":43.30459,"lon":5.36722,"is_reserved":false,"is_disabled":true,"rental_uris":{"android":"levelo://app?vid=9cd79aab-6f4c-4919-b570-803a9e8b35c5","ios":"levelo://app?vid=9cd79aab-6f4c-4919-b570-803a9e8b35c5"},"vehicle_type_id":"4","last_reported":1733771259,"current_range_meters":27200,"station_id":"","pricing_plan_id":"cebpf4jnsgd1na2vs0mg"},{"bike_id":"f95523f3-5731-46db-8f8e-d7028f1a0556","system_id":"levelo_inurba_marseille","lat":43.2795,"lon":5.38682,"is_reserved":false,"is_disabled":false,"rental_uris":{"android":"levelo://app?vid=f95523f3-5731-46db-8f8e-d7028f1a0556","ios":"levelo://app?vid=f95523f3-5731-46db-8f8e-d7028f1a0556"},"vehicle_type_id":"4","last_reported":1733771259,"current_range_meters":37600,"station_id":"ce4bhg12rcd13ifvqf80","pricing_plan_id":"cebpf4jnsgd1na2vs0mg"},{"bike_id":"cbdb57b9-a749-4a16-834d-41210e9b107c","system_id":"levelo_inurba_marseille","lat":43.27327,"lon":5.39083,"is_reserved":false,"is_disabled":false,"rental_uris":{"android":"levelo://app?vid=cbdb57b9-a749-4a16-834d-41210e9b107c","ios":"levelo://app?vid=cbdb57b9-a749-4a16-834d-41210e9b107c"},"vehicle_type_id":"4","last_reported":1733771259,"current_range_meters":19600,"station_id":"ce4bhgp2rcd13ifvqfe0","pricing_plan_id":"cebpf4jnsgd1na2vs0mg"},{"bike_id":"cf80ef54-0b0f-4dfe-80d1-0c382470e0e9","system_id":"levelo_inurba_marseille","lat":43.250775,"lon":5.395393,"is_reserved":false,"is_disabled":false,"rental_uris":{"android":"levelo://app?vid=cf80ef54-0b0f-4dfe-80d1-0c382470e0e9","ios":"levelo://app?vid=cf80ef54-0b0f-4dfe-80d1-0c382470e0e9"},"vehicle_type_id":"4","last_reported":1733771259,"current_range_meters":17600,"station_id":"","pricing_plan_id":"cebpf4jnsgd1na2vs0mg"},{"bike_id":"6812e31c-6539-4208-9b50-24648584764a","system_id":"levelo_inurba_marseille","lat":43.30212,"lon":5.36596,"is_reserved":false,"is_disabled":false,"rental_uris":{"android":"levelo://app?vid=6812e31c-6539-4208-9b50-24648584764a","ios":"levelo://app?vid=6812e31c-6539-4208-9b50-24648584764a"},"vehicle_type_id":"4","last_reported":1733771259,"current_range_meters":38800,"station_id":"ce4bgrh2rcd13ifvqc8g","pricing_plan_id":"cebpf4jnsgd1na2vs0mg"},{"bike_id":"f97ddc52-5758-4192-8ca1-71254ad1a77e","system_id":"levelo_inurba_marseille","lat":43.26193,"lon":5.37448,"is_reserved":false,"is_disabled":false,"rental_uris":{"android":"levelo://app?vid=f97ddc52-5758-4192-8ca1-71254ad1a77e","ios":"levelo://app?vid=f97ddc52-5758-4192-8ca1-71254ad1a77e"},"vehicle_type_id":"4","last_reported":1733771259,"current_range_meters":38400,"station_id":"ce4bhgp2rcd13ifvqfc0","pricing_plan_id":"cebpf4jnsgd1na2vs0mg"},{"bike_id":"11e86528-eb6b-4391-86a5-9b1822d069a4","system_id":"levelo_inurba_marseille","lat":43.278805,"lon":5.388003,"is_reserved":false,"is_disabled":true,"rental_uris":{"android":"levelo://app?vid=11e86528-eb6b-4391-86a5-9b1822d069a4","ios":"levelo://app?vid=11e86528-eb6b-4391-86a5-9b1822d069a4"},"vehicle_type_id":"4","last_reported":1733771259,"current_range_meters":0,"station_id":"","pricing_plan_id":"cebpf4jnsgd1na2vs0mg"},{"bike_id":"6cc6805f-c0ca-4585-bdf1-b5a0339762b0","system_id":"levelo_inurba_marseille","lat":43.29027,"lon":5.42744,"is_reserved":false,"is_disabled":true,"rental_uris":{"android":"levelo://app?vid=6cc6805f-c0ca-4585-bdf1-b5a0339762b0","ios":"levelo://app?vid=6cc6805f-c0ca-4585-bdf1-b5a0339762b0"},"vehicle_type_id":"4","last_reported":1733771259,"current_range_meters":0,"station_id":"","pricing_plan_id":"cebpf4jnsgd1na2vs0mg"},{"bike_id":"8f772b81-91eb-45fa-983a-b5bdf7ecefc2","system_id":"levelo_inurba_marseille","lat":43.251103,"lon":5.403226,"is_reserved":false,"is_disabled":false,"rental_uris":{"android":"levelo://app?vid=8f772b81-91eb-45fa-983a-b5bdf7ecefc2","ios":"levelo://app?vid=8f772b81-91eb-45fa-983a-b5bdf7ecefc2"},"vehicle_type_id":"4","last_reported":1733771259,"current_range_meters":2800,"station_id":"ce4bhlh2rcd13ifvqgig","pricing_plan_id":"cebpf4jnsgd1na2vs0mg"},{"bike_id":"a478bcff-2af8-4db5-8351-cdbe6b849a6d","system_id":"levelo_inurba_marseille","lat":43.3341,"lon":5.36195,"is_reserved":false,"is_disabled":true,"rental_uris":{"android":"levelo://app?vid=a478bcff-2af8-4db5-8351-cdbe6b849a6d","ios":"levelo://app?vid=a478bcff-2af8-4db5-8351-cdbe6b849a6d"},"vehicle_type_id":"4","last_reported":1733771259,"current_range_meters":0,"station_id":"","pricing_plan_id":"cebpf4jnsgd1na2vs0mg"},{"bike_id":"9e736131-8d63-4ba4-ae54-4e22464643f0","system_id":"levelo_inurba_marseille","lat":43.29164,"lon":5.3716,"is_reserved":false,"is_disabled":false,"rental_uris":{"android":"levelo://app?vid=9e736131-8d63-4ba4-ae54-4e22464643f0","ios":"levelo://app?vid=9e736131-8d63-4ba4-ae54-4e22464643f0"},"vehicle_type_id":"4","last_reported":1733771259,"current_range_meters":37600,"station_id":"ce4bha92rcd13ifvqeh0","pricing_plan_id":"cebpf4jnsgd1na2vs0mg"},{"bike_id":"9f03dca4-237a-49dc-8f4b-3b6a07909c99","system_id":"levelo_inurba_marseille","lat":43.23196,"lon":5.35557,"is_reserved":false,"is_disabled":false,"rental_uris":{"android":"levelo://app?vid=9f03dca4-237a-49dc-8f4b-3b6a07909c99","ios":"levelo://app?vid=9f03dca4-237a-49dc-8f4b-3b6a07909c99"},"vehicle_type_id":"4","last_reported":1733771259,"current_range_meters":7200,"station_id":"ce4bhu92rcd13ifvqi70","pricing_plan_id":"cebpf4jnsgd1na2vs0mg"},{"bike_id":"b6fcd388-ab74-408f-9e17-a2445b649a56","system_id":"levelo_inurba_marseille","lat":43.28457,"lon":5.35893,"is_reserved":false,"is_disabled":false,"rental_uris":{"android":"levelo://app?vid=b6fcd388-ab74-408f-9e17-a2445b649a56","ios":"levelo://app?vid=b6fcd388-ab74-408f-9e17-a2445b649a56"},"vehicle_type_id":"4","last_reported":1733771259,"current_range_meters":20000,"station_id":"ce4bhah2rcd13ifvqei0","pricing_plan_id":"cebpf4jnsgd1na2vs0mg"},{"bike_id":"1893dd0f-e72d-42c7-9f7a-d443413ee8a1","system_id":"levelo_inurba_marseille","lat":43.27945,"lon":5.41054,"is_reserved":false,"is_disabled":true,"rental_uris":{"android":"levelo://app?vid=1893dd0f-e72d-42c7-9f7a-d443413ee8a1","ios":"levelo://app?vid=1893dd0f-e72d-42c7-9f7a-d443413ee8a1"},"vehicle_type_id":"4","last_reported":1733771259,"current_range_meters":0,"station_id":"ce4bhnp2rcd13ifvqh0g","pricing_plan_id":"cebpf4jnsgd1na2vs0mg"},{"bike_id":"aa9050e6-a6d8-46f7-8e4a-741171c50581","system_id":"levelo_inurba_marseille","lat":43.2508,"lon":5.39511,"is_reserved":false,"is_disabled":false,"rental_uris":{"android":"levelo://app?vid=aa9050e6-a6d8-46f7-8e4a-741171c50581","ios":"levelo://app?vid=aa9050e6-a6d8-46f7-8e4a-741171c50581"},"vehicle_type_id":"4","last_reported":1733771259,"current_range_meters":33600,"station_id":"ce4bhm12rcd13ifvqgkg","pricing_plan_id":"cebpf4jnsgd1na2vs0mg"},{"bike_id":"9c46fb0b-973e-43f1-9487-2c4d99e0f0e9","system_id":"levelo_inurba_marseille","lat":43.27676,"lon":5.38893,"is_reserved":false,"is_disabled":false,"rental_uris":{"android":"levelo://app?vid=9c46fb0b-973e-43f1-9487-2c4d99e0f0e9","ios":"levelo://app?vid=9c46fb0b-973e-43f1-9487-2c4d99e0f0e9"},"vehicle_type_id":"4","last_reported":1733771259,"current_range_meters":31200,"station_id":"ce4bhi12rcd13ifvqfo0","pricing_plan_id":"cebpf4jnsgd1na2vs0mg"},{"bike_id":"cf995f0f-a2d6-4303-85db-6d52c33aec36","system_id":"levelo_inurba_marseille","lat":43.33015,"lon":5.39028,"is_reserved":false,"is_disabled":false,"rental_uris":{"android":"levelo://app?vid=cf995f0f-a2d6-4303-85db-6d52c33aec36","ios":"levelo://app?vid=cf995f0f-a2d6-4303-85db-6d52c33aec36"},"vehicle_type_id":"4","last_reported":1733771259,"current_range_meters":39200,"station_id":"ce4bhr92rcd13ifvqhrg","pricing_plan_id":"cebpf4jnsgd1na2vs0mg"},{"bike_id":"cbf9c981-cbe9-407f-b4c6-5d2065d44b78","system_id":"levelo_inurba_marseille","lat":43.33021,"lon":5.39044,"is_reserved":false,"is_disabled":false,"rental_uris":{"android":"levelo://app?vid=cbf9c981-cbe9-407f-b4c6-5d2065d44b78","ios":"levelo://app?vid=cbf9c981-cbe9-407f-b4c6-5d2065d44b78"},"vehicle_type_id":"4","last_reported":1733771259,"current_range_meters":23200,"station_id":"ce4bhr92rcd13ifvqhrg","pricing_plan_id":"cebpf4jnsgd1na2vs0mg"},{"bike_id":"a606c2e1-4d89-4460-8af5-a1bffa750d87","system_id":"levelo_inurba_marseille","lat":43.31487,"lon":5.37306,"is_reserved":false,"is_disabled":false,"rental_uris":{"android":"levelo://app?vid=a606c2e1-4d89-4460-8af5-a1bffa750d87","ios":"levelo://app?vid=a606c2e1-4d89-4460-8af5-a1bffa750d87"},"vehicle_type_id":"4","last_reported":1733771259,"current_range_meters":32800,"station_id":"ce4bgt12rcd13ifvqcd0","pricing_plan_id":"cebpf4jnsgd1na2vs0mg"},{"bike_id":"243c0fa9-fb27-4111-81f0-175e30eaaaed","system_id":"levelo_inurba_marseille","lat":43.29043,"lon":5.35914,"is_reserved":false,"is_disabled":true,"rental_uris":{"android":"levelo://app?vid=243c0fa9-fb27-4111-81f0-175e30eaaaed","ios":"levelo://app?vid=243c0fa9-fb27-4111-81f0-175e30eaaaed"},"vehicle_type_id":"4","last_reported":1733771259,"current_range_meters":38800,"station_id":"ce4bha92rcd13ifvqeg0","pricing_plan_id":"cebpf4jnsgd1na2vs0mg"},{"bike_id":"ec50719b-4d96-4e25-bc96-5c048872ab73","system_id":"levelo_inurba_marseille","lat":43.2866,"lon":5.36347,"is_reserved":false,"is_disabled":false,"rental_uris":{"android":"levelo://app?vid=ec50719b-4d96-4e25-bc96-5c048872ab73","ios":"levelo://app?vid=ec50719b-4d96-4e25-bc96-5c048872ab73"},"vehicle_type_id":"4","last_reported":1733771259,"current_range_meters":28000,"station_id":"ce4bhah2rcd13ifvqej0","pricing_plan_id":"cebpf4jnsgd1na2vs0mg"},{"bike_id":"a873af9b-a353-4469-b239-adbb5bf5dc0d","system_id":"levelo_inurba_marseille","lat":43.25864,"lon":5.39905,"is_reserved":false,"is_disabled":false,"rental_uris":{"android":"levelo://app?vid=a873af9b-a353-4469-b239-adbb5bf5dc0d","ios":"levelo://app?vid=a873af9b-a353-4469-b239-adbb5bf5dc0d"},"vehicle_type_id":"4","last_reported":1733771259,"current_range_meters":38800,"station_id":"ce4bhl92rcd13ifvqghg","pricing_plan_id":"cebpf4jnsgd1na2vs0mg"},{"bike_id":"736f6ae6-7558-432f-bac9-25b0b9abee75","system_id":"levelo_inurba_marseille","lat":43.31482,"lon":5.37302,"is_reserved":false,"is_disabled":false,"rental_uris":{"android":"levelo://app?vid=736f6ae6-7558-432f-bac9-25b0b9abee75","ios":"levelo://app?vid=736f6ae6-7558-432f-bac9-25b0b9abee75"},"vehicle_type_id":"4","last_reported":1733771259,"current_range_meters":9200,"station_id":"ce4bgt12rcd13ifvqcd0","pricing_plan_id":"cebpf4jnsgd1na2vs0mg"},{"bike_id":"95b68163-8c31-4ce4-989b-0d594a1f53e9","system_id":"levelo_inurba_marseille","lat":43.29672,"lon":5.3724,"is_reserved":false,"is_disabled":false,"rental_uris":{"android":"levelo://app?vid=95b68163-8c31-4ce4-989b-0d594a1f53e9","ios":"levelo://app?vid=95b68163-8c31-4ce4-989b-0d594a1f53e9"},"vehicle_type_id":"4","last_reported":1733771259,"current_range_meters":26000,"station_id":"ce4bgk12rcd13ifvqbj0","pricing_plan_id":"cebpf4jnsgd1na2vs0mg"},{"bike_id":"9310c1ed-6dc8-42a9-af19-178a43c22c4b","system_id":"levelo_inurba_marseille","lat":43.29565,"lon":5.39961,"is_reserved":false,"is_disabled":false,"rental_uris":{"android":"levelo://app?vid=9310c1ed-6dc8-42a9-af19-178a43c22c4b","ios":"levelo://app?vid=9310c1ed-6dc8-42a9-af19-178a43c22c4b"},"vehicle_type_id":"4","last_reported":1733771259,"current_range_meters":24800,"station_id":"ce4bh312rcd13ifvqdj0","pricing_plan_id":"cebpf4jnsgd1na2vs0mg"},{"bike_id":"1381d957-9c22-4679-9945-3cee5159e1e0","system_id":"levelo_inurba_marseille","lat":43.25105,"lon":5.4033,"is_reserved":false,"is_disabled":false,"rental_uris":{"android":"levelo://app?vid=1381d957-9c22-4679-9945-3cee5159e1e0","ios":"levelo://app?vid=1381d957-9c22-4679-9945-3cee5159e1e0"},"vehicle_type_id":"4","last_reported":1733771259,"current_range_meters":28000,"station_id":"ce4bhlh2rcd13ifvqgig","pricing_plan_id":"cebpf4jnsgd1na2vs0mg"},{"bike_id":"dba007e6-8889-4e76-a4bf-87bc5db880a0","system_id":"levelo_inurba_marseille","lat":43.33019,"lon":5.39036,"is_reserved":false,"is_disabled":false,"rental_uris":{"android":"levelo://app?vid=dba007e6-8889-4e76-a4bf-87bc5db880a0","ios":"levelo://app?vid=dba007e6-8889-4e76-a4bf-87bc5db880a0"},"vehicle_type_id":"4","last_reported":1733771259,"current_range_meters":38800,"station_id":"ce4bhr92rcd13ifvqhrg","pricing_plan_id":"cebpf4jnsgd1na2vs0mg"},{"bike_id":"72369e3c-7a31-4199-a732-76fa73093ac4","system_id":"levelo_inurba_marseille","lat":43.31355,"lon":5.36708,"is_reserved":false,"is_disabled":true,"rental_uris":{"android":"levelo://app?vid=72369e3c-7a31-4199-a732-76fa73093ac4","ios":"levelo://app?vid=72369e3c-7a31-4199-a732-76fa73093ac4"},"vehicle_type_id":"4","last_reported":1733771259,"current_range_meters":27600,"station_id":"ce4bgr92rcd13ifvqc6g","pricing_plan_id":"cebpf4jnsgd1na2vs0mg"},{"bike_id":"5fa91bad-b486-4700-aee0-3d40cbe09516","system_id":"levelo_inurba_marseille","lat":43.24162,"lon":5.36394,"is_reserved":false,"is_disabled":false,"rental_uris":{"android":"levelo://app?vid=5fa91bad-b486-4700-aee0-3d40cbe09516","ios":"levelo://app?vid=5fa91bad-b486-4700-aee0-3d40cbe09516"},"vehicle_type_id":"4","last_reported":1733771259,"current_range_meters":38800,"station_id":"cpo36qri1sfpv3e86is0","pricing_plan_id":"cebpf4jnsgd1na2vs0mg"},{"bike_id":"ea8ed2d5-53ec-47b1-a5a2-fa8804d51246","system_id":"levelo_inurba_marseille","lat":43.27561,"lon":5.38411,"is_reserved":false,"is_disabled":false,"rental_uris":{"android":"levelo://app?vid=ea8ed2d5-53ec-47b1-a5a2-fa8804d51246","ios":"levelo://app?vid=ea8ed2d5-53ec-47b1-a5a2-fa8804d51246"},"vehicle_type_id":"4","last_reported":1733771259,"current_range_meters":12800,"station_id":"ce4bhh92rcd13ifvqfi0","pricing_plan_id":"cebpf4jnsgd1na2vs0mg"},{"bike_id":"58d3480e-9a25-4142-9952-995aac0b5e71","system_id":"levelo_inurba_marseille","lat":43.31118,"lon":5.36754,"is_reserved":false,"is_disabled":false,"rental_uris":{"android":"levelo://app?vid=58d3480e-9a25-4142-9952-995aac0b5e71","ios":"levelo://app?vid=58d3480e-9a25-4142-9952-995aac0b5e71"},"vehicle_type_id":"4","last_reported":1733771259,"current_range_meters":36800,"station_id":"","pricing_plan_id":"cebpf4jnsgd1na2vs0mg"},{"bike_id":"067d4f8e-eded-4040-9b89-eb14aebc4852","system_id":"levelo_inurba_marseille","lat":43.29895,"lon":5.43675,"is_reserved":false,"is_disabled":false,"rental_uris":{"android":"levelo://app?vid=067d4f8e-eded-4040-9b89-eb14aebc4852","ios":"levelo://app?vid=067d4f8e-eded-4040-9b89-eb14aebc4852"},"vehicle_type_id":"4","last_reported":1733771259,"current_range_meters":36800,"station_id":"ce4bhpp2rcd13ifvqhfg","pricing_plan_id":"cebpf4jnsgd1na2vs0mg"},{"bike_id":"23504e84-62de-4322-9c7d-5dbe7fb79461","system_id":"levelo_inurba_marseille","lat":43.28652,"lon":5.36352,"is_reserved":false,"is_disabled":true,"rental_uris":{"android":"levelo://app?vid=23504e84-62de-4322-9c7d-5dbe7fb79461","ios":"levelo://app?vid=23504e84-62de-4322-9c7d-5dbe7fb79461"},"vehicle_type_id":"4","last_reported":1733771259,"current_range_meters":0,"station_id":"ce4bhah2rcd13ifvqej0","pricing_plan_id":"cebpf4jnsgd1na2vs0mg"},{"bike_id":"5296114b-8626-48f5-977d-e8d6150c1950","system_id":"levelo_inurba_marseille","lat":43.2603,"lon":5.37548,"is_reserved":false,"is_disabled":false,"rental_uris":{"android":"levelo://app?vid=5296114b-8626-48f5-977d-e8d6150c1950","ios":"levelo://app?vid=5296114b-8626-48f5-977d-e8d6150c1950"},"vehicle_type_id":"4","last_reported":1733771259,"current_range_meters":38800,"station_id":"ce4bhgh2rcd13ifvqfa0","pricing_plan_id":"cebpf4jnsgd1na2vs0mg"},{"bike_id":"9f3769a7-f392-475e-913a-8ad10d3e2daf","system_id":"levelo_inurba_marseille","lat":43.24167,"lon":5.36396,"is_reserved":false,"is_disabled":false,"rental_uris":{"android":"levelo://app?vid=9f3769a7-f392-475e-913a-8ad10d3e2daf","ios":"levelo://app?vid=9f3769a7-f392-475e-913a-8ad10d3e2daf"},"vehicle_type_id":"4","last_reported":1733771259,"current_range_meters":20000,"station_id":"cpo36qri1sfpv3e86is0","pricing_plan_id":"cebpf4jnsgd1na2vs0mg"},{"bike_id":"896d4ccf-3d83-4122-b2f2-1a77a517b0e7","system_id":"levelo_inurba_marseille","lat":43.23961,"lon":5.36631,"is_reserved":false,"is_disabled":false,"rental_uris":{"android":"levelo://app?vid=896d4ccf-3d83-4122-b2f2-1a77a517b0e7","ios":"levelo://app?vid=896d4ccf-3d83-4122-b2f2-1a77a517b0e7"},"vehicle_type_id":"4","last_reported":1733771259,"current_range_meters":38000,"station_id":"ce4bhi12rcd13ifvqfp0","pricing_plan_id":"cebpf4jnsgd1na2vs0mg"},{"bike_id":"9f1e516b-ea28-4c1c-8fda-b24449880743","system_id":"levelo_inurba_marseille","lat":43.28468,"lon":5.38563,"is_reserved":false,"is_disabled":false,"rental_uris":{"android":"levelo://app?vid=9f1e516b-ea28-4c1c-8fda-b24449880743","ios":"levelo://app?vid=9f1e516b-ea28-4c1c-8fda-b24449880743"},"vehicle_type_id":"4","last_reported":1733771259,"current_range_meters":20400,"station_id":"ce4bh8p2rcd13ifvqeb0","pricing_plan_id":"cebpf4jnsgd1na2vs0mg"},{"bike_id":"78538ca3-c476-4016-a603-0265e1a2f841","system_id":"levelo_inurba_marseille","lat":43.33022,"lon":5.39033,"is_reserved":false,"is_disabled":false,"rental_uris":{"android":"levelo://app?vid=78538ca3-c476-4016-a603-0265e1a2f841","ios":"levelo://app?vid=78538ca3-c476-4016-a603-0265e1a2f841"},"vehicle_type_id":"4","last_reported":1733771259,"current_range_meters":6000,"station_id":"ce4bhr92rcd13ifvqhrg","pricing_plan_id":"cebpf4jnsgd1na2vs0mg"},{"bike_id":"e5226b2e-d9bd-40f9-9cfb-30b1d6507ec9","system_id":"levelo_inurba_marseille","lat":43.3054,"lon":5.38438,"is_reserved":false,"is_disabled":false,"rental_uris":{"android":"levelo://app?vid=e5226b2e-d9bd-40f9-9cfb-30b1d6507ec9","ios":"levelo://app?vid=e5226b2e-d9bd-40f9-9cfb-30b1d6507ec9"},"vehicle_type_id":"4","last_reported":1733771259,"current_range_meters":38000,"station_id":"ce4bgg92rcd13ifvqb30","pricing_plan_id":"cebpf4jnsgd1na2vs0mg"},{"bike_id":"456ee3e2-7425-4120-bc59-2e964fa693a8","system_id":"levelo_inurba_marseille","lat":43.24388,"lon":5.37066,"is_reserved":false,"is_disabled":false,"rental_uris":{"android":"levelo://app?vid=456ee3e2-7425-4120-bc59-2e964fa693a8","ios":"levelo://app?vid=456ee3e2-7425-4120-bc59-2e964fa693a8"},"vehicle_type_id":"4","last_reported":1733771259,"current_range_meters":38800,"station_id":"ce4bhhh2rcd13ifvqfk0","pricing_plan_id":"cebpf4jnsgd1na2vs0mg"},{"bike_id":"3c2062af-ee33-42a5-bf68-d8b0edbf6fcf","system_id":"levelo_inurba_marseille","lat":43.3198,"lon":5.38141,"is_reserved":false,"is_disabled":false,"rental_uris":{"android":"levelo://app?vid=3c2062af-ee33-42a5-bf68-d8b0edbf6fcf","ios":"levelo://app?vid=3c2062af-ee33-42a5-bf68-d8b0edbf6fcf"},"vehicle_type_id":"4","last_reported":1733771259,"current_range_meters":39200,"station_id":"ce4bhr12rcd13ifvqhpg","pricing_plan_id":"cebpf4jnsgd1na2vs0mg"},{"bike_id":"0ab87780-bde4-4d2f-b06a-fa603c2f5ec5","system_id":"levelo_inurba_marseille","lat":43.2927,"lon":5.40141,"is_reserved":false,"is_disabled":false,"rental_uris":{"android":"levelo://app?vid=0ab87780-bde4-4d2f-b06a-fa603c2f5ec5","ios":"levelo://app?vid=0ab87780-bde4-4d2f-b06a-fa603c2f5ec5"},"vehicle_type_id":"4","last_reported":1733771259,"current_range_meters":38800,"station_id":"ce4bh312rcd13ifvqdk0","pricing_plan_id":"cebpf4jnsgd1na2vs0mg"},{"bike_id":"2df2c603-7f05-4f43-a92d-22c85fe3c124","system_id":"levelo_inurba_marseille","lat":43.27363,"lon":5.36247,"is_reserved":false,"is_disabled":true,"rental_uris":{"android":"levelo://app?vid=2df2c603-7f05-4f43-a92d-22c85fe3c124","ios":"levelo://app?vid=2df2c603-7f05-4f43-a92d-22c85fe3c124"},"vehicle_type_id":"4","last_reported":1733771259,"current_range_meters":800,"station_id":"ce4bhbh2rcd13ifvqeo0","pricing_plan_id":"cebpf4jnsgd1na2vs0mg"},{"bike_id":"c7b3d98e-f9c4-4269-9d19-8c37bcc5beda","system_id":"levelo_inurba_marseille","lat":43.27827,"lon":5.40696,"is_reserved":false,"is_disabled":false,"rental_uris":{"android":"levelo://app?vid=c7b3d98e-f9c4-4269-9d19-8c37bcc5beda","ios":"levelo://app?vid=c7b3d98e-f9c4-4269-9d19-8c37bcc5beda"},"vehicle_type_id":"4","last_reported":1733771259,"current_range_meters":20400,"station_id":"ce4bhnh2rcd13ifvqgtg","pricing_plan_id":"cebpf4jnsgd1na2vs0mg"},{"bike_id":"25a20b03-9830-4773-bc6b-d425633d2c5c","system_id":"levelo_inurba_marseille","lat":43.2477,"lon":5.40022,"is_reserved":false,"is_disabled":true,"rental_uris":{"android":"levelo://app?vid=25a20b03-9830-4773-bc6b-d425633d2c5c","ios":"levelo://app?vid=25a20b03-9830-4773-bc6b-d425633d2c5c"},"vehicle_type_id":"4","last_reported":1733771259,"current_range_meters":0,"station_id":"","pricing_plan_id":"cebpf4jnsgd1na2vs0mg"},{"bike_id":"66381ce7-4373-4194-919a-e52873b105b7","system_id":"levelo_inurba_marseille","lat":43.248,"lon":5.37453,"is_reserved":false,"is_disabled":false,"rental_uris":{"android":"levelo://app?vid=66381ce7-4373-4194-919a-e52873b105b7","ios":"levelo://app?vid=66381ce7-4373-4194-919a-e52873b105b7"},"vehicle_type_id":"4","last_reported":1733771259,"current_range_meters":13600,"station_id":"ce4bhgh2rcd13ifvqfb0","pricing_plan_id":"cebpf4jnsgd1na2vs0mg"},{"bike_id":"9dfa7fc8-d604-4d2d-a43b-7839aeea0c13","system_id":"levelo_inurba_marseille","lat":43.27947,"lon":5.41048,"is_reserved":false,"is_disabled":false,"rental_uris":{"android":"levelo://app?vid=9dfa7fc8-d604-4d2d-a43b-7839aeea0c13","ios":"levelo://app?vid=9dfa7fc8-d604-4d2d-a43b-7839aeea0c13"},"vehicle_type_id":"4","last_reported":1733771259,"current_range_meters":38800,"station_id":"ce4bhnp2rcd13ifvqh0g","pricing_plan_id":"cebpf4jnsgd1na2vs0mg"},{"bike_id":"969628a7-39ce-4cf4-8aae-e895824b70d3","system_id":"levelo_inurba_marseille","lat":43.29257,"lon":5.40899,"is_reserved":false,"is_disabled":false,"rental_uris":{"android":"levelo://app?vid=969628a7-39ce-4cf4-8aae-e895824b70d3","ios":"levelo://app?vid=969628a7-39ce-4cf4-8aae-e895824b70d3"},"vehicle_type_id":"4","last_reported":1733771259,"current_range_meters":38800,"station_id":"ce4bh192rcd13ifvqdc0","pricing_plan_id":"cebpf4jnsgd1na2vs0mg"},{"bike_id":"96b4e0a8-8f98-4fc6-8d19-c0dca4f16ba5","system_id":"levelo_inurba_marseille","lat":43.28456,"lon":5.35883,"is_reserved":false,"is_disabled":false,"rental_uris":{"android":"levelo://app?vid=96b4e0a8-8f98-4fc6-8d19-c0dca4f16ba5","ios":"levelo://app?vid=96b4e0a8-8f98-4fc6-8d19-c0dca4f16ba5"},"vehicle_type_id":"4","last_reported":1733771259,"current_range_meters":29600,"station_id":"ce4bhah2rcd13ifvqei0","pricing_plan_id":"cebpf4jnsgd1na2vs0mg"},{"bike_id":"1142e82c-8995-498a-a463-5645e3358beb","system_id":"levelo_inurba_marseille","lat":43.30139,"lon":5.38782,"is_reserved":false,"is_disabled":false,"rental_uris":{"android":"levelo://app?vid=1142e82c-8995-498a-a463-5645e3358beb","ios":"levelo://app?vid=1142e82c-8995-498a-a463-5645e3358beb"},"vehicle_type_id":"4","last_reported":1733771259,"current_range_meters":38800,"station_id":"ce4bghh2rcd13ifvqb60","pricing_plan_id":"cebpf4jnsgd1na2vs0mg"},{"bike_id":"f28f99b4-6cf7-4153-b870-5ede39787b28","system_id":"levelo_inurba_marseille","lat":43.29191,"lon":5.39333,"is_reserved":false,"is_disabled":false,"rental_uris":{"android":"levelo://app?vid=f28f99b4-6cf7-4153-b870-5ede39787b28","ios":"levelo://app?vid=f28f99b4-6cf7-4153-b870-5ede39787b28"},"vehicle_type_id":"4","last_reported":1733771259,"current_range_meters":34800,"station_id":"ce4bh192rcd13ifvqdd0","pricing_plan_id":"cebpf4jnsgd1na2vs0mg"},{"bike_id":"55e60e63-47ce-424d-ad59-1c9ec610c8a6","system_id":"levelo_inurba_marseille","lat":43.28445,"lon":5.35892,"is_reserved":false,"is_disabled":false,"rental_uris":{"android":"levelo://app?vid=55e60e63-47ce-424d-ad59-1c9ec610c8a6","ios":"levelo://app?vid=55e60e63-47ce-424d-ad59-1c9ec610c8a6"},"vehicle_type_id":"4","last_reported":1733771259,"current_range_meters":38800,"station_id":"ce4bhah2rcd13ifvqei0","pricing_plan_id":"cebpf4jnsgd1na2vs0mg"},{"bike_id":"79eec760-3148-415c-9486-9ff642f00208","system_id":"levelo_inurba_marseille","lat":43.3466,"lon":5.34551,"is_reserved":false,"is_disabled":true,"rental_uris":{"android":"levelo://app?vid=79eec760-3148-415c-9486-9ff642f00208","ios":"levelo://app?vid=79eec760-3148-415c-9486-9ff642f00208"},"vehicle_type_id":"4","last_reported":1733771259,"current_range_meters":3200,"station_id":"","pricing_plan_id":"cebpf4jnsgd1na2vs0mg"},{"bike_id":"9a8f466b-8790-45e8-9233-f61a1cfa1f24","system_id":"levelo_inurba_marseille","lat":43.28468,"lon":5.35887,"is_reserved":false,"is_disabled":false,"rental_uris":{"android":"levelo://app?vid=9a8f466b-8790-45e8-9233-f61a1cfa1f24","ios":"levelo://app?vid=9a8f466b-8790-45e8-9233-f61a1cfa1f24"},"vehicle_type_id":"4","last_reported":1733771259,"current_range_meters":20000,"station_id":"ce4bhah2rcd13ifvqei0","pricing_plan_id":"cebpf4jnsgd1na2vs0mg"},{"bike_id":"10eeb2d7-4b2f-4a9a-999b-cb4f6e28cca0","system_id":"levelo_inurba_marseille","lat":43.27065,"lon":5.42272,"is_reserved":false,"is_disabled":false,"rental_uris":{"android":"levelo://app?vid=10eeb2d7-4b2f-4a9a-999b-cb4f6e28cca0","ios":"levelo://app?vid=10eeb2d7-4b2f-4a9a-999b-cb4f6e28cca0"},"vehicle_type_id":"4","last_reported":1733771259,"current_range_meters":38800,"station_id":"ce4bhk92rcd13ifvqgb0","pricing_plan_id":"cebpf4jnsgd1na2vs0mg"},{"bike_id":"504e4842-c129-4970-9fab-aad2f04a92ca","system_id":"levelo_inurba_marseille","lat":43.29978,"lon":5.38492,"is_reserved":false,"is_disabled":false,"rental_uris":{"android":"levelo://app?vid=504e4842-c129-4970-9fab-aad2f04a92ca","ios":"levelo://app?vid=504e4842-c129-4970-9fab-aad2f04a92ca"},"vehicle_type_id":"4","last_reported":1733771259,"current_range_meters":8400,"station_id":"ce4bgj92rcd13ifvqbd0","pricing_plan_id":"cebpf4jnsgd1na2vs0mg"},{"bike_id":"de0851d9-37dc-4543-bbc2-d3c69fe3a640","system_id":"levelo_inurba_marseille","lat":43.29803,"lon":5.38092,"is_reserved":false,"is_disabled":false,"rental_uris":{"android":"levelo://app?vid=de0851d9-37dc-4543-bbc2-d3c69fe3a640","ios":"levelo://app?vid=de0851d9-37dc-4543-bbc2-d3c69fe3a640"},"vehicle_type_id":"4","last_reported":1733771259,"current_range_meters":21600,"station_id":"ce4bgip2rcd13ifvqbb0","pricing_plan_id":"cebpf4jnsgd1na2vs0mg"},{"bike_id":"10c18d36-6d36-494c-95cf-3503c78f31b6","system_id":"levelo_inurba_marseille","lat":43.28716,"lon":5.37937,"is_reserved":false,"is_disabled":false,"rental_uris":{"android":"levelo://app?vid=10c18d36-6d36-494c-95cf-3503c78f31b6","ios":"levelo://app?vid=10c18d36-6d36-494c-95cf-3503c78f31b6"},"vehicle_type_id":"4","last_reported":1733771259,"current_range_meters":27600,"station_id":"ce4bh9p2rcd13ifvqec0","pricing_plan_id":"cebpf4jnsgd1na2vs0mg"},{"bike_id":"667e4a02-7d54-4ed5-b967-fdd44fbb149f","system_id":"levelo_inurba_marseille","lat":43.30271,"lon":5.37712,"is_reserved":false,"is_disabled":false,"rental_uris":{"android":"levelo://app?vid=667e4a02-7d54-4ed5-b967-fdd44fbb149f","ios":"levelo://app?vid=667e4a02-7d54-4ed5-b967-fdd44fbb149f"},"vehicle_type_id":"4","last_reported":1733771259,"current_range_meters":28400,"station_id":"ce4bguh2rcd13ifvqcj0","pricing_plan_id":"cebpf4jnsgd1na2vs0mg"},{"bike_id":"916a2d70-59d8-4425-95e0-fadd99f50cb5","system_id":"levelo_inurba_marseille","lat":43.31075,"lon":5.38351,"is_reserved":false,"is_disabled":false,"rental_uris":{"android":"levelo://app?vid=916a2d70-59d8-4425-95e0-fadd99f50cb5","ios":"levelo://app?vid=916a2d70-59d8-4425-95e0-fadd99f50cb5"},"vehicle_type_id":"4","last_reported":1733771259,"current_range_meters":35200,"station_id":"ce4bgv92rcd13ifvqcr0","pricing_plan_id":"cebpf4jnsgd1na2vs0mg"},{"bike_id":"e3650a39-7faf-4bef-874a-053482a93766","system_id":"levelo_inurba_marseille","lat":43.29722,"lon":5.37686,"is_reserved":false,"is_disabled":true,"rental_uris":{"android":"levelo://app?vid=e3650a39-7faf-4bef-874a-053482a93766","ios":"levelo://app?vid=e3650a39-7faf-4bef-874a-053482a93766"},"vehicle_type_id":"4","last_reported":1733771259,"current_range_meters":30000,"station_id":"ce4bgkh2rcd13ifvqbl0","pricing_plan_id":"cebpf4jnsgd1na2vs0mg"},{"bike_id":"e652bd0e-f25c-4f49-88d2-3023d62cd5aa","system_id":"levelo_inurba_marseille","lat":43.295892,"lon":5.37506,"is_reserved":false,"is_disabled":true,"rental_uris":{"android":"levelo://app?vid=e652bd0e-f25c-4f49-88d2-3023d62cd5aa","ios":"levelo://app?vid=e652bd0e-f25c-4f49-88d2-3023d62cd5aa"},"vehicle_type_id":"4","last_reported":1733771259,"current_range_meters":0,"station_id":"","pricing_plan_id":"cebpf4jnsgd1na2vs0mg"},{"bike_id":"fe5707ac-071f-4824-98b8-d6b028bc38f8","system_id":"levelo_inurba_marseille","lat":43.25861,"lon":5.39898,"is_reserved":false,"is_disabled":false,"rental_uris":{"android":"levelo://app?vid=fe5707ac-071f-4824-98b8-d6b028bc38f8","ios":"levelo://app?vid=fe5707ac-071f-4824-98b8-d6b028bc38f8"},"vehicle_type_id":"4","last_reported":1733771259,"current_range_meters":30400,"station_id":"ce4bhl92rcd13ifvqghg","pricing_plan_id":"cebpf4jnsgd1na2vs0mg"},{"bike_id":"50f52497-54ca-47ea-a19e-1fc86f8c6045","system_id":"levelo_inurba_marseille","lat":43.28234,"lon":5.42408,"is_reserved":false,"is_disabled":true,"rental_uris":{"android":"levelo://app?vid=50f52497-54ca-47ea-a19e-1fc86f8c6045","ios":"levelo://app?vid=50f52497-54ca-47ea-a19e-1fc86f8c6045"},"vehicle_type_id":"4","last_reported":1733771259,"current_range_meters":8000,"station_id":"","pricing_plan_id":"cebpf4jnsgd1na2vs0mg"},{"bike_id":"1b2d4db1-cec0-4376-9abf-f3b964e5dcb7","system_id":"levelo_inurba_marseille","lat":43.23196,"lon":5.35552,"is_reserved":false,"is_disabled":false,"rental_uris":{"android":"levelo://app?vid=1b2d4db1-cec0-4376-9abf-f3b964e5dcb7","ios":"levelo://app?vid=1b2d4db1-cec0-4376-9abf-f3b964e5dcb7"},"vehicle_type_id":"4","last_reported":1733771259,"current_range_meters":25600,"station_id":"ce4bhu92rcd13ifvqi70","pricing_plan_id":"cebpf4jnsgd1na2vs0mg"},{"bike_id":"65a5d8de-101e-4549-82cc-0aa76cd0538b","system_id":"levelo_inurba_marseille","lat":43.30309,"lon":5.36909,"is_reserved":false,"is_disabled":true,"rental_uris":{"android":"levelo://app?vid=65a5d8de-101e-4549-82cc-0aa76cd0538b","ios":"levelo://app?vid=65a5d8de-101e-4549-82cc-0aa76cd0538b"},"vehicle_type_id":"4","last_reported":1733771259,"current_range_meters":3200,"station_id":"","pricing_plan_id":"cebpf4jnsgd1na2vs0mg"},{"bike_id":"33f1a526-a5a3-4261-b1e0-d90c46ff918d","system_id":"levelo_inurba_marseille","lat":43.28149,"lon":5.42641,"is_reserved":false,"is_disabled":true,"rental_uris":{"android":"levelo://app?vid=33f1a526-a5a3-4261-b1e0-d90c46ff918d","ios":"levelo://app?vid=33f1a526-a5a3-4261-b1e0-d90c46ff918d"},"vehicle_type_id":"4","last_reported":1733771259,"current_range_meters":19600,"station_id":"ce4bhnh2rcd13ifvqgug","pricing_plan_id":"cebpf4jnsgd1na2vs0mg"},{"bike_id":"3e9e2561-6f54-485e-84b2-cff5e0916c34","system_id":"levelo_inurba_marseille","lat":43.3233,"lon":5.40611,"is_reserved":false,"is_disabled":false,"rental_uris":{"android":"levelo://app?vid=3e9e2561-6f54-485e-84b2-cff5e0916c34","ios":"levelo://app?vid=3e9e2561-6f54-485e-84b2-cff5e0916c34"},"vehicle_type_id":"4","last_reported":1733771259,"current_range_meters":16000,"station_id":"ce4bhq92rcd13ifvqhjg","pricing_plan_id":"cebpf4jnsgd1na2vs0mg"},{"bike_id":"2bd36f3b-4af0-4760-8e12-1fe89576ec69","system_id":"levelo_inurba_marseille","lat":43.25825,"lon":5.39437,"is_reserved":false,"is_disabled":false,"rental_uris":{"android":"levelo://app?vid=2bd36f3b-4af0-4760-8e12-1fe89576ec69","ios":"levelo://app?vid=2bd36f3b-4af0-4760-8e12-1fe89576ec69"},"vehicle_type_id":"4","last_reported":1733771259,"current_range_meters":30000,"station_id":"ce4bhip2rcd13ifvqft0","pricing_plan_id":"cebpf4jnsgd1na2vs0mg"},{"bike_id":"aae32562-ceaf-49bd-b629-fbe5977d1592","system_id":"levelo_inurba_marseille","lat":43.26561,"lon":5.39003,"is_reserved":false,"is_disabled":false,"rental_uris":{"android":"levelo://app?vid=aae32562-ceaf-49bd-b629-fbe5977d1592","ios":"levelo://app?vid=aae32562-ceaf-49bd-b629-fbe5977d1592"},"vehicle_type_id":"4","last_reported":1733771259,"current_range_meters":19200,"station_id":"ce4bhe12rcd13ifvqf30","pricing_plan_id":"cebpf4jnsgd1na2vs0mg"},{"bike_id":"76297273-a070-4aeb-9b97-514f5db3a44c","system_id":"levelo_inurba_marseille","lat":43.28267,"lon":5.35059,"is_reserved":false,"is_disabled":false,"rental_uris":{"android":"levelo://app?vid=76297273-a070-4aeb-9b97-514f5db3a44c","ios":"levelo://app?vid=76297273-a070-4aeb-9b97-514f5db3a44c"},"vehicle_type_id":"4","last_reported":1733771259,"current_range_meters":23200,"station_id":"ce4bhbp2rcd13ifvqerg","pricing_plan_id":"cebpf4jnsgd1na2vs0mg"},{"bike_id":"1c5491e3-5640-4dec-a041-cae84c60627c","system_id":"levelo_inurba_marseille","lat":43.29005,"lon":5.35615,"is_reserved":false,"is_disabled":true,"rental_uris":{"android":"levelo://app?vid=1c5491e3-5640-4dec-a041-cae84c60627c","ios":"levelo://app?vid=1c5491e3-5640-4dec-a041-cae84c60627c"},"vehicle_type_id":"4","last_reported":1733771259,"current_range_meters":23200,"station_id":"ce4bhb92rcd13ifvqen0","pricing_plan_id":"cebpf4jnsgd1na2vs0mg"},{"bike_id":"4bfa63c7-de25-4f46-99aa-67f41ca15b2d","system_id":"levelo_inurba_marseille","lat":43.27974,"lon":5.38738,"is_reserved":false,"is_disabled":false,"rental_uris":{"android":"levelo://app?vid=4bfa63c7-de25-4f46-99aa-67f41ca15b2d","ios":"levelo://app?vid=4bfa63c7-de25-4f46-99aa-67f41ca15b2d"},"vehicle_type_id":"4","last_reported":1733771259,"current_range_meters":32000,"station_id":"ce4bhg12rcd13ifvqf80","pricing_plan_id":"cebpf4jnsgd1na2vs0mg"},{"bike_id":"5d9d33ed-3cf9-4f40-bcf4-4fd075009d99","system_id":"levelo_inurba_marseille","lat":43.26935,"lon":5.40253,"is_reserved":false,"is_disabled":false,"rental_uris":{"android":"levelo://app?vid=5d9d33ed-3cf9-4f40-bcf4-4fd075009d99","ios":"levelo://app?vid=5d9d33ed-3cf9-4f40-bcf4-4fd075009d99"},"vehicle_type_id":"4","last_reported":1733771259,"current_range_meters":18000,"station_id":"cjm6bp8fraef2m0cb0m0","pricing_plan_id":"cebpf4jnsgd1na2vs0mg"},{"bike_id":"e2e5fff8-dab3-4021-a87d-3c7c833d47d1","system_id":"levelo_inurba_marseille","lat":43.26214,"lon":5.37442,"is_reserved":false,"is_disabled":false,"rental_uris":{"android":"levelo://app?vid=e2e5fff8-dab3-4021-a87d-3c7c833d47d1","ios":"levelo://app?vid=e2e5fff8-dab3-4021-a87d-3c7c833d47d1"},"vehicle_type_id":"4","last_reported":1733771259,"current_range_meters":12000,"station_id":"ce4bhgp2rcd13ifvqfc0","pricing_plan_id":"cebpf4jnsgd1na2vs0mg"},{"bike_id":"b8ec9b64-e348-44c1-9548-0544741a8e35","system_id":"levelo_inurba_marseille","lat":43.3176,"lon":5.39014,"is_reserved":false,"is_disabled":true,"rental_uris":{"android":"levelo://app?vid=b8ec9b64-e348-44c1-9548-0544741a8e35","ios":"levelo://app?vid=b8ec9b64-e348-44c1-9548-0544741a8e35"},"vehicle_type_id":"4","last_reported":1733771259,"current_range_meters":0,"station_id":"ce4bhqp2rcd13ifvqhng","pricing_plan_id":"cebpf4jnsgd1na2vs0mg"},{"bike_id":"2765efb2-7c76-484b-a4f5-6c6bd065d11b","system_id":"levelo_inurba_marseille","lat":43.31231,"lon":5.3687,"is_reserved":false,"is_disabled":false,"rental_uris":{"android":"levelo://app?vid=2765efb2-7c76-484b-a4f5-6c6bd065d11b","ios":"levelo://app?vid=2765efb2-7c76-484b-a4f5-6c6bd065d11b"},"vehicle_type_id":"4","last_reported":1733771259,"current_range_meters":20000,"station_id":"ce4bgl92rcd13ifvqbq0","pricing_plan_id":"cebpf4jnsgd1na2vs0mg"},{"bike_id":"f44c4128-7be2-4a46-a438-dfb677b443d7","system_id":"levelo_inurba_marseille","lat":43.31331,"lon":5.39677,"is_reserved":false,"is_disabled":false,"rental_uris":{"android":"levelo://app?vid=f44c4128-7be2-4a46-a438-dfb677b443d7","ios":"levelo://app?vid=f44c4128-7be2-4a46-a438-dfb677b443d7"},"vehicle_type_id":"4","last_reported":1733771259,"current_range_meters":28400,"station_id":"ce4bgvp2rcd13ifvqcu0","pricing_plan_id":"cebpf4jnsgd1na2vs0mg"},{"bike_id":"2cdc68bc-783f-42f1-8a2a-30a830fd99d3","system_id":"levelo_inurba_marseille","lat":43.30142,"lon":5.37404,"is_reserved":false,"is_disabled":true,"rental_uris":{"android":"levelo://app?vid=2cdc68bc-783f-42f1-8a2a-30a830fd99d3","ios":"levelo://app?vid=2cdc68bc-783f-42f1-8a2a-30a830fd99d3"},"vehicle_type_id":"4","last_reported":1733771259,"current_range_meters":37600,"station_id":"ce4bgs92rcd13ifvqcc0","pricing_plan_id":"cebpf4jnsgd1na2vs0mg"},{"bike_id":"ac3858f4-4179-4fef-a133-d553fcaf3557","system_id":"levelo_inurba_marseille","lat":43.26941,"lon":5.40253,"is_reserved":false,"is_disabled":false,"rental_uris":{"android":"levelo://app?vid=ac3858f4-4179-4fef-a133-d553fcaf3557","ios":"levelo://app?vid=ac3858f4-4179-4fef-a133-d553fcaf3557"},"vehicle_type_id":"4","last_reported":1733771259,"current_range_meters":32000,"station_id":"cjm6bp8fraef2m0cb0m0","pricing_plan_id":"cebpf4jnsgd1na2vs0mg"},{"bike_id":"f04c662a-4856-4b9e-9ba1-300effb74f28","system_id":"levelo_inurba_marseille","lat":43.2998,"lon":5.38499,"is_reserved":false,"is_disabled":true,"rental_uris":{"android":"levelo://app?vid=f04c662a-4856-4b9e-9ba1-300effb74f28","ios":"levelo://app?vid=f04c662a-4856-4b9e-9ba1-300effb74f28"},"vehicle_type_id":"4","last_reported":1733771259,"current_range_meters":36800,"station_id":"ce4bgj92rcd13ifvqbd0","pricing_plan_id":"cebpf4jnsgd1na2vs0mg"},{"bike_id":"b77f54b8-0618-490b-9929-20052e5f0ec6","system_id":"levelo_inurba_marseille","lat":43.29297,"lon":5.37437,"is_reserved":false,"is_disabled":true,"rental_uris":{"android":"levelo://app?vid=b77f54b8-0618-490b-9929-20052e5f0ec6","ios":"levelo://app?vid=b77f54b8-0618-490b-9929-20052e5f0ec6"},"vehicle_type_id":"4","last_reported":1733771259,"current_range_meters":29600,"station_id":"ce4bgi12rcd13ifvqb70","pricing_plan_id":"cebpf4jnsgd1na2vs0mg"},{"bike_id":"ac678e73-d27e-419d-895b-380a318f19a9","system_id":"levelo_inurba_marseille","lat":43.31755,"lon":5.39011,"is_reserved":false,"is_disabled":false,"rental_uris":{"android":"levelo://app?vid=ac678e73-d27e-419d-895b-380a318f19a9","ios":"levelo://app?vid=ac678e73-d27e-419d-895b-380a318f19a9"},"vehicle_type_id":"4","last_reported":1733771259,"current_range_meters":24000,"station_id":"ce4bhqp2rcd13ifvqhng","pricing_plan_id":"cebpf4jnsgd1na2vs0mg"},{"bike_id":"b7704992-265d-44ce-8e30-e3b1a140a380","system_id":"levelo_inurba_marseille","lat":43.29787,"lon":5.38105,"is_reserved":false,"is_disabled":true,"rental_uris":{"android":"levelo://app?vid=b7704992-265d-44ce-8e30-e3b1a140a380","ios":"levelo://app?vid=b7704992-265d-44ce-8e30-e3b1a140a380"},"vehicle_type_id":"4","last_reported":1733771259,"current_range_meters":38400,"station_id":"ce4bgip2rcd13ifvqbb0","pricing_plan_id":"cebpf4jnsgd1na2vs0mg"},{"bike_id":"a6c5c83f-b01c-49eb-be62-6019d9cacfe5","system_id":"levelo_inurba_marseille","lat":43.30326,"lon":5.40424,"is_reserved":false,"is_disabled":false,"rental_uris":{"android":"levelo://app?vid=a6c5c83f-b01c-49eb-be62-6019d9cacfe5","ios":"levelo://app?vid=a6c5c83f-b01c-49eb-be62-6019d9cacfe5"},"vehicle_type_id":"4","last_reported":1733771259,"current_range_meters":12000,"station_id":"ce4bh012rcd13ifvqd10","pricing_plan_id":"cebpf4jnsgd1na2vs0mg"},{"bike_id":"d43e5ea8-13b0-4ee3-b5ea-caee40935a00","system_id":"levelo_inurba_marseille","lat":43.27168,"lon":5.40993,"is_reserved":false,"is_disabled":false,"rental_uris":{"android":"levelo://app?vid=d43e5ea8-13b0-4ee3-b5ea-caee40935a00","ios":"levelo://app?vid=d43e5ea8-13b0-4ee3-b5ea-caee40935a00"},"vehicle_type_id":"4","last_reported":1733771259,"current_range_meters":7200,"station_id":"ce4bhl12rcd13ifvqgf0","pricing_plan_id":"cebpf4jnsgd1na2vs0mg"},{"bike_id":"5260ced4-7564-448d-9818-7245cb224691","system_id":"levelo_inurba_marseille","lat":43.27613,"lon":5.36108,"is_reserved":false,"is_disabled":false,"rental_uris":{"android":"levelo://app?vid=5260ced4-7564-448d-9818-7245cb224691","ios":"levelo://app?vid=5260ced4-7564-448d-9818-7245cb224691"},"vehicle_type_id":"4","last_reported":1733771259,"current_range_meters":36000,"station_id":"ce4bgj92rcd13ifvqbe0","pricing_plan_id":"cebpf4jnsgd1na2vs0mg"},{"bike_id":"1e859a15-ffcf-4eb9-a77a-06be667face9","system_id":"levelo_inurba_marseille","lat":43.30883,"lon":5.39656,"is_reserved":false,"is_disabled":true,"rental_uris":{"android":"levelo://app?vid=1e859a15-ffcf-4eb9-a77a-06be667face9","ios":"levelo://app?vid=1e859a15-ffcf-4eb9-a77a-06be667face9"},"vehicle_type_id":"4","last_reported":1733771259,"current_range_meters":800,"station_id":"ce4bh012rcd13ifvqcv0","pricing_plan_id":"cebpf4jnsgd1na2vs0mg"},{"bike_id":"2875cb10-461a-4c23-8a58-154557790fa3","system_id":"levelo_inurba_marseille","lat":43.28928,"lon":5.38397,"is_reserved":false,"is_disabled":false,"rental_uris":{"android":"levelo://app?vid=2875cb10-461a-4c23-8a58-154557790fa3","ios":"levelo://app?vid=2875cb10-461a-4c23-8a58-154557790fa3"},"vehicle_type_id":"4","last_reported":1733771259,"current_range_meters":20800,"station_id":"ce4bh612rcd13ifvqe6g","pricing_plan_id":"cebpf4jnsgd1na2vs0mg"},{"bike_id":"eb4e32cd-a02d-4e92-a013-1fdc0dd71ccb","system_id":"levelo_inurba_marseille","lat":43.324799,"lon":5.365716,"is_reserved":false,"is_disabled":true,"rental_uris":{"android":"levelo://app?vid=eb4e32cd-a02d-4e92-a013-1fdc0dd71ccb","ios":"levelo://app?vid=eb4e32cd-a02d-4e92-a013-1fdc0dd71ccb"},"vehicle_type_id":"4","last_reported":1733771259,"current_range_meters":0,"station_id":"","pricing_plan_id":"cebpf4jnsgd1na2vs0mg"},{"bike_id":"ad24f16e-2206-4a3c-9b57-73b59ffe17ba","system_id":"levelo_inurba_marseille","lat":43.24167,"lon":5.36391,"is_reserved":false,"is_disabled":false,"rental_uris":{"android":"levelo://app?vid=ad24f16e-2206-4a3c-9b57-73b59ffe17ba","ios":"levelo://app?vid=ad24f16e-2206-4a3c-9b57-73b59ffe17ba"},"vehicle_type_id":"4","last_reported":1733771259,"current_range_meters":38000,"station_id":"cpo36qri1sfpv3e86is0","pricing_plan_id":"cebpf4jnsgd1na2vs0mg"},{"bike_id":"0d85aea1-3dc9-4857-8032-fe4189ddab21","system_id":"levelo_inurba_marseille","lat":43.25107,"lon":5.40322,"is_reserved":false,"is_disabled":false,"rental_uris":{"android":"levelo://app?vid=0d85aea1-3dc9-4857-8032-fe4189ddab21","ios":"levelo://app?vid=0d85aea1-3dc9-4857-8032-fe4189ddab21"},"vehicle_type_id":"4","last_reported":1733771259,"current_range_meters":38800,"station_id":"ce4bhlh2rcd13ifvqgig","pricing_plan_id":"cebpf4jnsgd1na2vs0mg"},{"bike_id":"35ae6d33-ce47-435d-a71b-7607511d72da","system_id":"levelo_inurba_marseille","lat":43.28412,"lon":5.37522,"is_reserved":false,"is_disabled":false,"rental_uris":{"android":"levelo://app?vid=35ae6d33-ce47-435d-a71b-7607511d72da","ios":"levelo://app?vid=35ae6d33-ce47-435d-a71b-7607511d72da"},"vehicle_type_id":"4","last_reported":1733771259,"current_range_meters":30800,"station_id":"ce4bh412rcd13ifvqds0","pricing_plan_id":"cebpf4jnsgd1na2vs0mg"},{"bike_id":"a7315204-04ec-4ba8-a095-857e3593e956","system_id":"levelo_inurba_marseille","lat":43.268,"lon":5.40266,"is_reserved":false,"is_disabled":false,"rental_uris":{"android":"levelo://app?vid=a7315204-04ec-4ba8-a095-857e3593e956","ios":"levelo://app?vid=a7315204-04ec-4ba8-a095-857e3593e956"},"vehicle_type_id":"4","last_reported":1733771259,"current_range_meters":36000,"station_id":"ce501612rcd8frsf0b60","pricing_plan_id":"cebpf4jnsgd1na2vs0mg"},{"bike_id":"0fdd6727-2bc3-47df-b102-b89c7db134be","system_id":"levelo_inurba_marseille","lat":43.29699,"lon":5.36616,"is_reserved":false,"is_disabled":false,"rental_uris":{"android":"levelo://app?vid=0fdd6727-2bc3-47df-b102-b89c7db134be","ios":"levelo://app?vid=0fdd6727-2bc3-47df-b102-b89c7db134be"},"vehicle_type_id":"4","last_reported":1733771259,"current_range_meters":37600,"station_id":"ce4bgn12rcd13ifvqbt0","pricing_plan_id":"cebpf4jnsgd1na2vs0mg"},{"bike_id":"26924fb9-4179-4abe-8b03-e0d47c141d92","system_id":"levelo_inurba_marseille","lat":43.27175,"lon":5.40989,"is_reserved":false,"is_disabled":false,"rental_uris":{"android":"levelo://app?vid=26924fb9-4179-4abe-8b03-e0d47c141d92","ios":"levelo://app?vid=26924fb9-4179-4abe-8b03-e0d47c141d92"},"vehicle_type_id":"4","last_reported":1733771259,"current_range_meters":30400,"station_id":"ce4bhl12rcd13ifvqgf0","pricing_plan_id":"cebpf4jnsgd1na2vs0mg"},{"bike_id":"cd9a32ce-0ab0-41c9-a298-1885f875db6f","system_id":"levelo_inurba_marseille","lat":43.2861,"lon":5.37065,"is_reserved":false,"is_disabled":false,"rental_uris":{"android":"levelo://app?vid=cd9a32ce-0ab0-41c9-a298-1885f875db6f","ios":"levelo://app?vid=cd9a32ce-0ab0-41c9-a298-1885f875db6f"},"vehicle_type_id":"4","last_reported":1733771259,"current_range_meters":37600,"station_id":"ce4bht12rcd13ifvqi60","pricing_plan_id":"cebpf4jnsgd1na2vs0mg"},{"bike_id":"db14e876-0fd6-46a7-8620-bb06967f83cc","system_id":"levelo_inurba_marseille","lat":43.31329,"lon":5.39689,"is_reserved":false,"is_disabled":true,"rental_uris":{"android":"levelo://app?vid=db14e876-0fd6-46a7-8620-bb06967f83cc","ios":"levelo://app?vid=db14e876-0fd6-46a7-8620-bb06967f83cc"},"vehicle_type_id":"4","last_reported":1733771259,"current_range_meters":36800,"station_id":"ce4bgvp2rcd13ifvqcu0","pricing_plan_id":"cebpf4jnsgd1na2vs0mg"},{"bike_id":"4ef93df4-305c-4f31-91e4-9a42900a0bbf","system_id":"levelo_inurba_marseille","lat":43.32658,"lon":5.40982,"is_reserved":false,"is_disabled":false,"rental_uris":{"android":"levelo://app?vid=4ef93df4-305c-4f31-91e4-9a42900a0bbf","ios":"levelo://app?vid=4ef93df4-305c-4f31-91e4-9a42900a0bbf"},"vehicle_type_id":"4","last_reported":1733771259,"current_range_meters":38400,"station_id":"ce4bhpp2rcd13ifvqhgg","pricing_plan_id":"cebpf4jnsgd1na2vs0mg"},{"bike_id":"0931b039-b8ee-4a7c-a3e4-11fddb201f7d","system_id":"levelo_inurba_marseille","lat":43.30946,"lon":5.39082,"is_reserved":false,"is_disabled":false,"rental_uris":{"android":"levelo://app?vid=0931b039-b8ee-4a7c-a3e4-11fddb201f7d","ios":"levelo://app?vid=0931b039-b8ee-4a7c-a3e4-11fddb201f7d"},"vehicle_type_id":"4","last_reported":1733771259,"current_range_meters":38800,"station_id":"ce4bgup2rcd13ifvqco0","pricing_plan_id":"cebpf4jnsgd1na2vs0mg"},{"bike_id":"e0cd8b9e-001b-42cc-9850-bb3239ea0234","system_id":"levelo_inurba_marseille","lat":43.28603,"lon":5.37066,"is_reserved":false,"is_disabled":false,"rental_uris":{"android":"levelo://app?vid=e0cd8b9e-001b-42cc-9850-bb3239ea0234","ios":"levelo://app?vid=e0cd8b9e-001b-42cc-9850-bb3239ea0234"},"vehicle_type_id":"4","last_reported":1733771259,"current_range_meters":24800,"station_id":"ce4bht12rcd13ifvqi60","pricing_plan_id":"cebpf4jnsgd1na2vs0mg"},{"bike_id":"aed83838-fdf2-4478-b514-fc20fca131ee","system_id":"levelo_inurba_marseille","lat":43.28665,"lon":5.38654,"is_reserved":false,"is_disabled":false,"rental_uris":{"android":"levelo://app?vid=aed83838-fdf2-4478-b514-fc20fca131ee","ios":"levelo://app?vid=aed83838-fdf2-4478-b514-fc20fca131ee"},"vehicle_type_id":"4","last_reported":1733771259,"current_range_meters":38400,"station_id":"ce4bh492rcd13ifvqdug","pricing_plan_id":"cebpf4jnsgd1na2vs0mg"},{"bike_id":"f053331d-0abb-43e7-8478-ba9d2018108e","system_id":"levelo_inurba_marseille","lat":43.28936,"lon":5.39625,"is_reserved":false,"is_disabled":false,"rental_uris":{"android":"levelo://app?vid=f053331d-0abb-43e7-8478-ba9d2018108e","ios":"levelo://app?vid=f053331d-0abb-43e7-8478-ba9d2018108e"},"vehicle_type_id":"4","last_reported":1733771259,"current_range_meters":33600,"station_id":"ce4bh3h2rcd13ifvqdn0","pricing_plan_id":"cebpf4jnsgd1na2vs0mg"},{"bike_id":"5c986032-9da4-406e-a79e-259c18ab5fbe","system_id":"levelo_inurba_marseille","lat":43.30205,"lon":5.39463,"is_reserved":false,"is_disabled":false,"rental_uris":{"android":"levelo://app?vid=5c986032-9da4-406e-a79e-259c18ab5fbe","ios":"levelo://app?vid=5c986032-9da4-406e-a79e-259c18ab5fbe"},"vehicle_type_id":"4","last_reported":1733771259,"current_range_meters":38800,"station_id":"ce4bh0p2rcd13ifvqd70","pricing_plan_id":"cebpf4jnsgd1na2vs0mg"},{"bike_id":"80de590b-e7e2-4334-8c3f-1906440fa371","system_id":"levelo_inurba_marseille","lat":43.26801,"lon":5.40268,"is_reserved":false,"is_disabled":false,"rental_uris":{"android":"levelo://app?vid=80de590b-e7e2-4334-8c3f-1906440fa371","ios":"levelo://app?vid=80de590b-e7e2-4334-8c3f-1906440fa371"},"vehicle_type_id":"4","last_reported":1733771259,"current_range_meters":36400,"station_id":"ce501612rcd8frsf0b60","pricing_plan_id":"cebpf4jnsgd1na2vs0mg"},{"bike_id":"d4fd2653-50b3-44d7-a22d-add5ab44e964","system_id":"levelo_inurba_marseille","lat":43.25113,"lon":5.40317,"is_reserved":false,"is_disabled":true,"rental_uris":{"android":"levelo://app?vid=d4fd2653-50b3-44d7-a22d-add5ab44e964","ios":"levelo://app?vid=d4fd2653-50b3-44d7-a22d-add5ab44e964"},"vehicle_type_id":"4","last_reported":1733771259,"current_range_meters":400,"station_id":"ce4bhlh2rcd13ifvqgig","pricing_plan_id":"cebpf4jnsgd1na2vs0mg"},{"bike_id":"0ccd581d-9c76-4795-b702-2d923b116e9d","system_id":"levelo_inurba_marseille","lat":43.27171,"lon":5.40987,"is_reserved":false,"is_disabled":false,"rental_uris":{"android":"levelo://app?vid=0ccd581d-9c76-4795-b702-2d923b116e9d","ios":"levelo://app?vid=0ccd581d-9c76-4795-b702-2d923b116e9d"},"vehicle_type_id":"4","last_reported":1733771259,"current_range_meters":36400,"station_id":"ce4bhl12rcd13ifvqgf0","pricing_plan_id":"cebpf4jnsgd1na2vs0mg"},{"bike_id":"05575073-9c9a-45fe-abff-84c01dd1532a","system_id":"levelo_inurba_marseille","lat":43.28842,"lon":5.39323,"is_reserved":false,"is_disabled":false,"rental_uris":{"android":"levelo://app?vid=05575073-9c9a-45fe-abff-84c01dd1532a","ios":"levelo://app?vid=05575073-9c9a-45fe-abff-84c01dd1532a"},"vehicle_type_id":"4","last_reported":1733771259,"current_range_meters":12800,"station_id":"ce4bh2p2rcd13ifvqdi0","pricing_plan_id":"cebpf4jnsgd1na2vs0mg"},{"bike_id":"b898d49a-fd6d-49dd-a858-9ce5592dfe19","system_id":"levelo_inurba_marseille","lat":43.28587,"lon":5.39494,"is_reserved":false,"is_disabled":false,"rental_uris":{"android":"levelo://app?vid=b898d49a-fd6d-49dd-a858-9ce5592dfe19","ios":"levelo://app?vid=b898d49a-fd6d-49dd-a858-9ce5592dfe19"},"vehicle_type_id":"4","last_reported":1733771259,"current_range_meters":37600,"station_id":"ce4bh292rcd13ifvqdg0","pricing_plan_id":"cebpf4jnsgd1na2vs0mg"},{"bike_id":"95d8628d-10b1-47e7-9a42-9b126ec315c6","system_id":"levelo_inurba_marseille","lat":43.23187,"lon":5.35554,"is_reserved":false,"is_disabled":false,"rental_uris":{"android":"levelo://app?vid=95d8628d-10b1-47e7-9a42-9b126ec315c6","ios":"levelo://app?vid=95d8628d-10b1-47e7-9a42-9b126ec315c6"},"vehicle_type_id":"4","last_reported":1733771259,"current_range_meters":27600,"station_id":"ce4bhu92rcd13ifvqi70","pricing_plan_id":"cebpf4jnsgd1na2vs0mg"},{"bike_id":"c0ea6bbb-5f51-4e94-8660-fd158d8d114c","system_id":"levelo_inurba_marseille","lat":43.3112,"lon":5.3778,"is_reserved":false,"is_disabled":false,"rental_uris":{"android":"levelo://app?vid=c0ea6bbb-5f51-4e94-8660-fd158d8d114c","ios":"levelo://app?vid=c0ea6bbb-5f51-4e94-8660-fd158d8d114c"},"vehicle_type_id":"4","last_reported":1733771259,"current_range_meters":8800,"station_id":"ce4bgt92rcd13ifvqcg0","pricing_plan_id":"cebpf4jnsgd1na2vs0mg"},{"bike_id":"d6476c12-9601-48bb-81d1-c130012be534","system_id":"levelo_inurba_marseille","lat":43.24671,"lon":5.38148,"is_reserved":false,"is_disabled":false,"rental_uris":{"android":"levelo://app?vid=d6476c12-9601-48bb-81d1-c130012be534","ios":"levelo://app?vid=d6476c12-9601-48bb-81d1-c130012be534"},"vehicle_type_id":"4","last_reported":1733771259,"current_range_meters":22400,"station_id":"ce4bhih2rcd13ifvqfr0","pricing_plan_id":"cebpf4jnsgd1na2vs0mg"},{"bike_id":"0fee292b-f658-424f-b752-9421f5a4935c","system_id":"levelo_inurba_marseille","lat":43.31216,"lon":5.36857,"is_reserved":false,"is_disabled":false,"rental_uris":{"android":"levelo://app?vid=0fee292b-f658-424f-b752-9421f5a4935c","ios":"levelo://app?vid=0fee292b-f658-424f-b752-9421f5a4935c"},"vehicle_type_id":"4","last_reported":1733771259,"current_range_meters":24400,"station_id":"ce4bgl92rcd13ifvqbq0","pricing_plan_id":"cebpf4jnsgd1na2vs0mg"},{"bike_id":"b9951f92-8590-4cb3-803f-6c913224162c","system_id":"levelo_inurba_marseille","lat":43.28939,"lon":5.36378,"is_reserved":false,"is_disabled":false,"rental_uris":{"android":"levelo://app?vid=b9951f92-8590-4cb3-803f-6c913224162c","ios":"levelo://app?vid=b9951f92-8590-4cb3-803f-6c913224162c"},"vehicle_type_id":"4","last_reported":1733771259,"current_range_meters":38800,"station_id":"ce4bhc92rcd13ifvqetg","pricing_plan_id":"cebpf4jnsgd1na2vs0mg"},{"bike_id":"80a88867-2daa-403a-8c8d-1f4205d4a0ea","system_id":"levelo_inurba_marseille","lat":43.2987,"lon":5.39736,"is_reserved":false,"is_disabled":false,"rental_uris":{"android":"levelo://app?vid=80a88867-2daa-403a-8c8d-1f4205d4a0ea","ios":"levelo://app?vid=80a88867-2daa-403a-8c8d-1f4205d4a0ea"},"vehicle_type_id":"4","last_reported":1733771259,"current_range_meters":38800,"station_id":"ce4bh0h2rcd13ifvqd50","pricing_plan_id":"cebpf4jnsgd1na2vs0mg"},{"bike_id":"2123cd6c-9203-46fa-a8aa-c510db496bf1","system_id":"levelo_inurba_marseille","lat":43.31274,"lon":5.40163,"is_reserved":false,"is_disabled":false,"rental_uris":{"android":"levelo://app?vid=2123cd6c-9203-46fa-a8aa-c510db496bf1","ios":"levelo://app?vid=2123cd6c-9203-46fa-a8aa-c510db496bf1"},"vehicle_type_id":"4","last_reported":1733771259,"current_range_meters":38000,"station_id":"ce4bh092rcd13ifvqd30","pricing_plan_id":"cebpf4jnsgd1na2vs0mg"},{"bike_id":"570bad79-da0a-4f0e-bd71-fcfb4fde31b3","system_id":"levelo_inurba_marseille","lat":43.23967,"lon":5.36633,"is_reserved":false,"is_disabled":false,"rental_uris":{"android":"levelo://app?vid=570bad79-da0a-4f0e-bd71-fcfb4fde31b3","ios":"levelo://app?vid=570bad79-da0a-4f0e-bd71-fcfb4fde31b3"},"vehicle_type_id":"4","last_reported":1733771259,"current_range_meters":36800,"station_id":"ce4bhi12rcd13ifvqfp0","pricing_plan_id":"cebpf4jnsgd1na2vs0mg"},{"bike_id":"0f20b602-7b45-4989-92b6-4d1c64ab5468","system_id":"levelo_inurba_marseille","lat":43.26552,"lon":5.37288,"is_reserved":false,"is_disabled":false,"rental_uris":{"android":"levelo://app?vid=0f20b602-7b45-4989-92b6-4d1c64ab5468","ios":"levelo://app?vid=0f20b602-7b45-4989-92b6-4d1c64ab5468"},"vehicle_type_id":"4","last_reported":1733771259,"current_range_meters":36800,"station_id":"ce4bhg12rcd13ifvqf70","pricing_plan_id":"cebpf4jnsgd1na2vs0mg"},{"bike_id":"a82d634a-a49c-4d39-abc7-6109fc7823f3","system_id":"levelo_inurba_marseille","lat":43.26936,"lon":5.4025,"is_reserved":false,"is_disabled":false,"rental_uris":{"android":"levelo://app?vid=a82d634a-a49c-4d39-abc7-6109fc7823f3","ios":"levelo://app?vid=a82d634a-a49c-4d39-abc7-6109fc7823f3"},"vehicle_type_id":"4","last_reported":1733771259,"current_range_meters":37600,"station_id":"cjm6bp8fraef2m0cb0m0","pricing_plan_id":"cebpf4jnsgd1na2vs0mg"},{"bike_id":"370f6989-d64b-449c-a09a-7579d6bffe31","system_id":"levelo_inurba_marseille","lat":43.29039,"lon":5.39966,"is_reserved":false,"is_disabled":false,"rental_uris":{"android":"levelo://app?vid=370f6989-d64b-449c-a09a-7579d6bffe31","ios":"levelo://app?vid=370f6989-d64b-449c-a09a-7579d6bffe31"},"vehicle_type_id":"4","last_reported":1733771259,"current_range_meters":32800,"station_id":"ce4bh392rcd13ifvqdm0","pricing_plan_id":"cebpf4jnsgd1na2vs0mg"},{"bike_id":"542b6e00-6e1f-43d7-a5c9-75a058c60f20","system_id":"levelo_inurba_marseille","lat":43.29784,"lon":5.37091,"is_reserved":false,"is_disabled":false,"rental_uris":{"android":"levelo://app?vid=542b6e00-6e1f-43d7-a5c9-75a058c60f20","ios":"levelo://app?vid=542b6e00-6e1f-43d7-a5c9-75a058c60f20"},"vehicle_type_id":"4","last_reported":1733771259,"current_range_meters":37600,"station_id":"ce4bgop2rcd13ifvqc1g","pricing_plan_id":"cebpf4jnsgd1na2vs0mg"},{"bike_id":"b0a4e998-f60a-4efb-b833-729c60f52aec","system_id":"levelo_inurba_marseille","lat":43.28715,"lon":5.37938,"is_reserved":false,"is_disabled":false,"rental_uris":{"android":"levelo://app?vid=b0a4e998-f60a-4efb-b833-729c60f52aec","ios":"levelo://app?vid=b0a4e998-f60a-4efb-b833-729c60f52aec"},"vehicle_type_id":"4","last_reported":1733771259,"current_range_meters":18000,"station_id":"ce4bh9p2rcd13ifvqec0","pricing_plan_id":"cebpf4jnsgd1na2vs0mg"},{"bike_id":"7bdd6ea7-bb42-4e6e-800a-52cdbbc2d2d3","system_id":"levelo_inurba_marseille","lat":43.30317,"lon":5.40438,"is_reserved":false,"is_disabled":false,"rental_uris":{"android":"levelo://app?vid=7bdd6ea7-bb42-4e6e-800a-52cdbbc2d2d3","ios":"levelo://app?vid=7bdd6ea7-bb42-4e6e-800a-52cdbbc2d2d3"},"vehicle_type_id":"4","last_reported":1733771259,"current_range_meters":38800,"station_id":"ce4bh012rcd13ifvqd10","pricing_plan_id":"cebpf4jnsgd1na2vs0mg"},{"bike_id":"b8e7f883-5b9b-422d-81e9-d00c2442da3b","system_id":"levelo_inurba_marseille","lat":43.23061,"lon":5.35491,"is_reserved":false,"is_disabled":false,"rental_uris":{"android":"levelo://app?vid=b8e7f883-5b9b-422d-81e9-d00c2442da3b","ios":"levelo://app?vid=b8e7f883-5b9b-422d-81e9-d00c2442da3b"},"vehicle_type_id":"4","last_reported":1733771259,"current_range_meters":38800,"station_id":"cpo3342slgdg3j2ifvpg","pricing_plan_id":"cebpf4jnsgd1na2vs0mg"},{"bike_id":"df530ce9-7550-4bc0-857d-aa2d9daf2958","system_id":"levelo_inurba_marseille","lat":43.33021,"lon":5.3904,"is_reserved":false,"is_disabled":false,"rental_uris":{"android":"levelo://app?vid=df530ce9-7550-4bc0-857d-aa2d9daf2958","ios":"levelo://app?vid=df530ce9-7550-4bc0-857d-aa2d9daf2958"},"vehicle_type_id":"4","last_reported":1733771259,"current_range_meters":39200,"station_id":"ce4bhr92rcd13ifvqhrg","pricing_plan_id":"cebpf4jnsgd1na2vs0mg"},{"bike_id":"1d7987ae-4cc4-4ac1-a4aa-7cdab375a8eb","system_id":"levelo_inurba_marseille","lat":43.27495,"lon":5.42448,"is_reserved":false,"is_disabled":false,"rental_uris":{"android":"levelo://app?vid=1d7987ae-4cc4-4ac1-a4aa-7cdab375a8eb","ios":"levelo://app?vid=1d7987ae-4cc4-4ac1-a4aa-7cdab375a8eb"},"vehicle_type_id":"4","last_reported":1733771259,"current_range_meters":16400,"station_id":"ce4bhn92rcd13ifvqgrg","pricing_plan_id":"cebpf4jnsgd1na2vs0mg"},{"bike_id":"906df3e2-6732-4a7d-a642-3070115e11a9","system_id":"levelo_inurba_marseille","lat":43.29898,"lon":5.43644,"is_reserved":false,"is_disabled":false,"rental_uris":{"android":"levelo://app?vid=906df3e2-6732-4a7d-a642-3070115e11a9","ios":"levelo://app?vid=906df3e2-6732-4a7d-a642-3070115e11a9"},"vehicle_type_id":"4","last_reported":1733771259,"current_range_meters":19600,"station_id":"ce4bhpp2rcd13ifvqhfg","pricing_plan_id":"cebpf4jnsgd1na2vs0mg"},{"bike_id":"8c773509-0447-476a-8a92-d1489fe1691e","system_id":"levelo_inurba_marseille","lat":43.2963,"lon":5.40598,"is_reserved":false,"is_disabled":false,"rental_uris":{"android":"levelo://app?vid=8c773509-0447-476a-8a92-d1489fe1691e","ios":"levelo://app?vid=8c773509-0447-476a-8a92-d1489fe1691e"},"vehicle_type_id":"4","last_reported":1733771259,"current_range_meters":38400,"station_id":"ce4bh0h2rcd13ifvqd60","pricing_plan_id":"cebpf4jnsgd1na2vs0mg"},{"bike_id":"48bb7f30-23bf-4cd9-a2de-2229a8eb1cc0","system_id":"levelo_inurba_marseille","lat":43.28603,"lon":5.37069,"is_reserved":false,"is_disabled":false,"rental_uris":{"android":"levelo://app?vid=48bb7f30-23bf-4cd9-a2de-2229a8eb1cc0","ios":"levelo://app?vid=48bb7f30-23bf-4cd9-a2de-2229a8eb1cc0"},"vehicle_type_id":"4","last_reported":1733771259,"current_range_meters":36400,"station_id":"ce4bht12rcd13ifvqi60","pricing_plan_id":"cebpf4jnsgd1na2vs0mg"},{"bike_id":"a0b44e86-9121-4df3-b62a-0fc9a0d1110c","system_id":"levelo_inurba_marseille","lat":43.23056,"lon":5.35491,"is_reserved":false,"is_disabled":false,"rental_uris":{"android":"levelo://app?vid=a0b44e86-9121-4df3-b62a-0fc9a0d1110c","ios":"levelo://app?vid=a0b44e86-9121-4df3-b62a-0fc9a0d1110c"},"vehicle_type_id":"4","last_reported":1733771259,"current_range_meters":38800,"station_id":"cpo3342slgdg3j2ifvpg","pricing_plan_id":"cebpf4jnsgd1na2vs0mg"},{"bike_id":"a0c230af-183e-4db9-b10f-8c1a6d844ebf","system_id":"levelo_inurba_marseille","lat":43.3013,"lon":5.38787,"is_reserved":false,"is_disabled":true,"rental_uris":{"android":"levelo://app?vid=a0c230af-183e-4db9-b10f-8c1a6d844ebf","ios":"levelo://app?vid=a0c230af-183e-4db9-b10f-8c1a6d844ebf"},"vehicle_type_id":"4","last_reported":1733771259,"current_range_meters":0,"station_id":"ce4bghh2rcd13ifvqb60","pricing_plan_id":"cebpf4jnsgd1na2vs0mg"},{"bike_id":"f87cf9e6-dfc9-4626-bb94-2221a897c82e","system_id":"levelo_inurba_marseille","lat":43.25502,"lon":5.3765,"is_reserved":false,"is_disabled":false,"rental_uris":{"android":"levelo://app?vid=f87cf9e6-dfc9-4626-bb94-2221a897c82e","ios":"levelo://app?vid=f87cf9e6-dfc9-4626-bb94-2221a897c82e"},"vehicle_type_id":"4","last_reported":1733771259,"current_range_meters":32000,"station_id":"ce4bhh12rcd13ifvqff0","pricing_plan_id":"cebpf4jnsgd1na2vs0mg"},{"bike_id":"7f9c386e-b632-4a27-b88a-465f0b34b163","system_id":"levelo_inurba_marseille","lat":43.28154,"lon":5.42636,"is_reserved":false,"is_disabled":false,"rental_uris":{"android":"levelo://app?vid=7f9c386e-b632-4a27-b88a-465f0b34b163","ios":"levelo://app?vid=7f9c386e-b632-4a27-b88a-465f0b34b163"},"vehicle_type_id":"4","last_reported":1733771259,"current_range_meters":38800,"station_id":"ce4bhnh2rcd13ifvqgug","pricing_plan_id":"cebpf4jnsgd1na2vs0mg"},{"bike_id":"43d8cf4d-9136-4a03-81f9-800a1b81f4a3","system_id":"levelo_inurba_marseille","lat":43.24072,"lon":5.37755,"is_reserved":false,"is_disabled":false,"rental_uris":{"android":"levelo://app?vid=43d8cf4d-9136-4a03-81f9-800a1b81f4a3","ios":"levelo://app?vid=43d8cf4d-9136-4a03-81f9-800a1b81f4a3"},"vehicle_type_id":"4","last_reported":1733771259,"current_range_meters":31200,"station_id":"ce4bhnp2rcd13ifvqgvg","pricing_plan_id":"cebpf4jnsgd1na2vs0mg"},{"bike_id":"cc336cac-8007-41b9-a148-898779cdec0f","system_id":"levelo_inurba_marseille","lat":43.24989,"lon":5.38936,"is_reserved":false,"is_disabled":false,"rental_uris":{"android":"levelo://app?vid=cc336cac-8007-41b9-a148-898779cdec0f","ios":"levelo://app?vid=cc336cac-8007-41b9-a148-898779cdec0f"},"vehicle_type_id":"4","last_reported":1733771259,"current_range_meters":38800,"station_id":"ce4bhgp2rcd13ifvqfd0","pricing_plan_id":"cebpf4jnsgd1na2vs0mg"},{"bike_id":"4ae5fe7f-a755-40fe-9b35-59fbb2437146","system_id":"levelo_inurba_marseille","lat":43.24172,"lon":5.36389,"is_reserved":false,"is_disabled":false,"rental_uris":{"android":"levelo://app?vid=4ae5fe7f-a755-40fe-9b35-59fbb2437146","ios":"levelo://app?vid=4ae5fe7f-a755-40fe-9b35-59fbb2437146"},"vehicle_type_id":"4","last_reported":1733771259,"current_range_meters":22000,"station_id":"cpo36qri1sfpv3e86is0","pricing_plan_id":"cebpf4jnsgd1na2vs0mg"},{"bike_id":"420a01ca-f20c-4d9b-a3a0-da0e358edd17","system_id":"levelo_inurba_marseille","lat":43.28149,"lon":5.42643,"is_reserved":false,"is_disabled":false,"rental_uris":{"android":"levelo://app?vid=420a01ca-f20c-4d9b-a3a0-da0e358edd17","ios":"levelo://app?vid=420a01ca-f20c-4d9b-a3a0-da0e358edd17"},"vehicle_type_id":"4","last_reported":1733771259,"current_range_meters":10000,"station_id":"ce4bhnh2rcd13ifvqgug","pricing_plan_id":"cebpf4jnsgd1na2vs0mg"},{"bike_id":"3db1ad9f-bbd8-41af-af90-75837bfb0a04","system_id":"levelo_inurba_marseille","lat":43.28108,"lon":5.37834,"is_reserved":false,"is_disabled":false,"rental_uris":{"android":"levelo://app?vid=3db1ad9f-bbd8-41af-af90-75837bfb0a04","ios":"levelo://app?vid=3db1ad9f-bbd8-41af-af90-75837bfb0a04"},"vehicle_type_id":"4","last_reported":1733771259,"current_range_meters":16400,"station_id":"ce4bha12rcd13ifvqee0","pricing_plan_id":"cebpf4jnsgd1na2vs0mg"},{"bike_id":"0d1a327b-f729-4054-8a7c-4451cde7ab80","system_id":"levelo_inurba_marseille","lat":43.29882,"lon":5.3973,"is_reserved":false,"is_disabled":false,"rental_uris":{"android":"levelo://app?vid=0d1a327b-f729-4054-8a7c-4451cde7ab80","ios":"levelo://app?vid=0d1a327b-f729-4054-8a7c-4451cde7ab80"},"vehicle_type_id":"4","last_reported":1733771259,"current_range_meters":38800,"station_id":"ce4bh0h2rcd13ifvqd50","pricing_plan_id":"cebpf4jnsgd1na2vs0mg"},{"bike_id":"28a24d05-8010-4639-9ae5-2790f225bf4d","system_id":"levelo_inurba_marseille","lat":43.28564,"lon":5.39486,"is_reserved":false,"is_disabled":false,"rental_uris":{"android":"levelo://app?vid=28a24d05-8010-4639-9ae5-2790f225bf4d","ios":"levelo://app?vid=28a24d05-8010-4639-9ae5-2790f225bf4d"},"vehicle_type_id":"4","last_reported":1733771259,"current_range_meters":38800,"station_id":"ce4bh292rcd13ifvqdg0","pricing_plan_id":"cebpf4jnsgd1na2vs0mg"},{"bike_id":"c7e5310e-8cec-4b85-9eba-9258c307f13d","system_id":"levelo_inurba_marseille","lat":43.28154,"lon":5.42641,"is_reserved":false,"is_disabled":true,"rental_uris":{"android":"levelo://app?vid=c7e5310e-8cec-4b85-9eba-9258c307f13d","ios":"levelo://app?vid=c7e5310e-8cec-4b85-9eba-9258c307f13d"},"vehicle_type_id":"4","last_reported":1733771259,"current_range_meters":0,"station_id":"ce4bhnh2rcd13ifvqgug","pricing_plan_id":"cebpf4jnsgd1na2vs0mg"},{"bike_id":"4175272a-002b-45de-af9a-905422d35a8c","system_id":"levelo_inurba_marseille","lat":43.28153,"lon":5.42647,"is_reserved":false,"is_disabled":false,"rental_uris":{"android":"levelo://app?vid=4175272a-002b-45de-af9a-905422d35a8c","ios":"levelo://app?vid=4175272a-002b-45de-af9a-905422d35a8c"},"vehicle_type_id":"4","last_reported":1733771259,"current_range_meters":25200,"station_id":"ce4bhnh2rcd13ifvqgug","pricing_plan_id":"cebpf4jnsgd1na2vs0mg"},{"bike_id":"8fe11311-9ea0-413c-a2d5-e33d8df0bfb7","system_id":"levelo_inurba_marseille","lat":43.27173,"lon":5.41,"is_reserved":false,"is_disabled":false,"rental_uris":{"android":"levelo://app?vid=8fe11311-9ea0-413c-a2d5-e33d8df0bfb7","ios":"levelo://app?vid=8fe11311-9ea0-413c-a2d5-e33d8df0bfb7"},"vehicle_type_id":"4","last_reported":1733771259,"current_range_meters":38800,"station_id":"ce4bhl12rcd13ifvqgf0","pricing_plan_id":"cebpf4jnsgd1na2vs0mg"},{"bike_id":"41b109e1-7867-4eed-b84d-27444e7d34b9","system_id":"levelo_inurba_marseille","lat":43.29371,"lon":5.37861,"is_reserved":false,"is_disabled":true,"rental_uris":{"android":"levelo://app?vid=41b109e1-7867-4eed-b84d-27444e7d34b9","ios":"levelo://app?vid=41b109e1-7867-4eed-b84d-27444e7d34b9"},"vehicle_type_id":"4","last_reported":1733771259,"current_range_meters":26000,"station_id":"ce4bgjh2rcd13ifvqbf0","pricing_plan_id":"cebpf4jnsgd1na2vs0mg"},{"bike_id":"76e85b42-6ef4-4ebe-a2d2-66a968f1b669","system_id":"levelo_inurba_marseille","lat":43.28844,"lon":5.35848,"is_reserved":false,"is_disabled":false,"rental_uris":{"android":"levelo://app?vid=76e85b42-6ef4-4ebe-a2d2-66a968f1b669","ios":"levelo://app?vid=76e85b42-6ef4-4ebe-a2d2-66a968f1b669"},"vehicle_type_id":"4","last_reported":1733771259,"current_range_meters":38400,"station_id":"ce4bhb12rcd13ifvqem0","pricing_plan_id":"cebpf4jnsgd1na2vs0mg"},{"bike_id":"5bd6bd78-4585-4412-88b0-3de4a55947a6","system_id":"levelo_inurba_marseille","lat":43.32292,"lon":5.38269,"is_reserved":false,"is_disabled":false,"rental_uris":{"android":"levelo://app?vid=5bd6bd78-4585-4412-88b0-3de4a55947a6","ios":"levelo://app?vid=5bd6bd78-4585-4412-88b0-3de4a55947a6"},"vehicle_type_id":"4","last_reported":1733771259,"current_range_meters":38800,"station_id":"ce4bhr12rcd13ifvqhqg","pricing_plan_id":"cebpf4jnsgd1na2vs0mg"},{"bike_id":"4a54766d-6088-4334-bd49-988caf2a828b","system_id":"levelo_inurba_marseille","lat":43.27967,"lon":5.38717,"is_reserved":false,"is_disabled":false,"rental_uris":{"android":"levelo://app?vid=4a54766d-6088-4334-bd49-988caf2a828b","ios":"levelo://app?vid=4a54766d-6088-4334-bd49-988caf2a828b"},"vehicle_type_id":"4","last_reported":1733771259,"current_range_meters":8800,"station_id":"ce4bhg12rcd13ifvqf80","pricing_plan_id":"cebpf4jnsgd1na2vs0mg"},{"bike_id":"ba5e4c54-9e0f-419d-acd3-894b4507a88b","system_id":"levelo_inurba_marseille","lat":43.23056,"lon":5.35489,"is_reserved":false,"is_disabled":false,"rental_uris":{"android":"levelo://app?vid=ba5e4c54-9e0f-419d-acd3-894b4507a88b","ios":"levelo://app?vid=ba5e4c54-9e0f-419d-acd3-894b4507a88b"},"vehicle_type_id":"4","last_reported":1733771259,"current_range_meters":29600,"station_id":"cpo3342slgdg3j2ifvpg","pricing_plan_id":"cebpf4jnsgd1na2vs0mg"},{"bike_id":"69054ccc-7ceb-483d-9c75-3a542a4fbde6","system_id":"levelo_inurba_marseille","lat":43.2509,"lon":5.39513,"is_reserved":false,"is_disabled":false,"rental_uris":{"android":"levelo://app?vid=69054ccc-7ceb-483d-9c75-3a542a4fbde6","ios":"levelo://app?vid=69054ccc-7ceb-483d-9c75-3a542a4fbde6"},"vehicle_type_id":"4","last_reported":1733771259,"current_range_meters":38800,"station_id":"ce4bhm12rcd13ifvqgkg","pricing_plan_id":"cebpf4jnsgd1na2vs0mg"},{"bike_id":"eaa53cca-26e1-4a88-93cc-cc0e9d64fc97","system_id":"levelo_inurba_marseille","lat":43.33726,"lon":5.39178,"is_reserved":false,"is_disabled":false,"rental_uris":{"android":"levelo://app?vid=eaa53cca-26e1-4a88-93cc-cc0e9d64fc97","ios":"levelo://app?vid=eaa53cca-26e1-4a88-93cc-cc0e9d64fc97"},"vehicle_type_id":"4","last_reported":1733771259,"current_range_meters":36400,"station_id":"ce4bhr92rcd13ifvqhsg","pricing_plan_id":"cebpf4jnsgd1na2vs0mg"},{"bike_id":"3c22221f-1bf3-4cd3-8bd0-9295be576f81","system_id":"levelo_inurba_marseille","lat":43.25103,"lon":5.40324,"is_reserved":false,"is_disabled":false,"rental_uris":{"android":"levelo://app?vid=3c22221f-1bf3-4cd3-8bd0-9295be576f81","ios":"levelo://app?vid=3c22221f-1bf3-4cd3-8bd0-9295be576f81"},