{"last_updated":1685023595,"ttl":30,"version":"2.2","data":{"bikes":[{"bike_id":"e984a29f-7fbf-4df4-8737-51e1746b0871","system_id":"levelo_inurba_marseille","lat":43.313391,"lon":5.36706,"is_reserved":false,"is_disabled":false,"rental_uris":{"android":"levelo://app?vid=e984a29f-7fbf-4df4-8737-51e1746b0871","ios":"levelo://app?vid=e984a29f-7fbf-4df4-8737-51e1746b0871"},"vehicle_type_id":"4","last_reported":1685023595,"current_range_meters":31200,"station_id":"ce4bgr92rcd13ifvqc6g","pricing_plan_id":"free"},{"bike_id":"275bcb69-0784-42fa-b862-afbe2737c47f","system_id":"levelo_inurba_marseille","lat":43.313391,"lon":5.36706,"is_reserved":false,"is_disabled":false,"rental_uris":{"android":"levelo://app?vid=275bcb69-0784-42fa-b862-afbe2737c47f","ios":"levelo://app?vid=275bcb69-0784-42fa-b862-afbe2737c47f"},"vehicle_type_id":"4","last_reported":1685023595,"current_range_meters":29600,"station_id":"ce4bgr92rcd13ifvqc6g","pricing_plan_id":"free"},{"bike_id":"43653bd7-693f-4e9f-a189-36b2f77d0ea1","system_id":"levelo_inurba_marseille","lat":43.3136,"lon":5.36714,"is_reserved":false,"is_disabled":false,"rental_uris":{"android":"levelo://app?vid=43653bd7-693f-4e9f-a189-36b2f77d0ea1","ios":"levelo://app?vid=43653bd7-693f-4e9f-a189-36b2f77d0ea1"},"vehicle_type_id":"4","last_reported":1685023595,"current_range_meters":31200,"station_id":"ce4bgr92rcd13ifvqc6g","pricing_plan_id":"free"},{"bike_id":"c7196536-9b0a-4dcd-a747-b9a6353a191a","system_id":"levelo_inurba_marseille","lat":43.31341,"lon":5.367098,"is_reserved":false,"is_disabled":false,"rental_uris":{"android":"levelo://app?vid=c7196536-9b0a-4dcd-a747-b9a6353a191a","ios":"levelo://app?vid=c7196536-9b0a-4dcd-a747-b9a6353a191a"},"vehicle_type_id":"4","last_reported":1685023595,"current_range_meters":31600,"station_id":"ce4bgr92rcd13ifvqc6g","pricing_plan_id":"free"},{"bike_id":"c483a466-8b7a-4236-8add-6682a44bd099","system_id":"levelo_inurba_marseille","lat":43.313391,"lon":5.36706,"is_reserved":false,"is_disabled":false,"rental_uris":{"android":"levelo://app?vid=c483a466-8b7a-4236-8add-6682a44bd099","ios":"levelo://app?vid=c483a466-8b7a-4236-8add-6682a44bd099"},"vehicle_type_id":"4","last_reported":1685023595,"current_range_meters":25600,"station_id":"ce4bgr92rcd13ifvqc6g","pricing_plan_id":"free"},{"bike_id":"85c73a90-66de-434e-b698-7d80915eb59f","system_id":"levelo_inurba_marseille","lat":43.31341,"lon":5.367098,"is_reserved":false,"is_disabled":false,"rental_uris":{"android":"levelo://app?vid=85c73a90-66de-434e-b698-7d80915eb59f","ios":"levelo://app?vid=85c73a90-66de-434e-b698-7d80915eb59f"},"vehicle_type_id":"4","last_reported":1685023595,"current_range_meters":31600,"station_id":"ce4bgr92rcd13ifvqc6g","pricing_plan_id":"free"},{"bike_id":"9add802e-2be5-47bb-99d4-889533610c7f","system_id":"levelo_inurba_marseille","lat":43.313391,"lon":5.36706,"is_reserved":false,"is_disabled":false,"rental_uris":{"android":"levelo://app?vid=9add802e-2be5-47bb-99d4-889533610c7f","ios":"levelo://app?vid=9add802e-2be5-47bb-99d4-889533610c7f"},"vehicle_type_id":"4","last_reported":1685023595,"current_range_meters":26000,"station_id":"ce4bgr92rcd13ifvqc6g","pricing_plan_id":"free"},{"bike_id":"be0f795b-7ced-4c0d-8d5e-c3c455811729","system_id":"levelo_inurba_marseille","lat":43.313391,"lon":5.36706,"is_reserved":false,"is_disabled":false,"rental_uris":{"android":"levelo://app?vid=be0f795b-7ced-4c0d-8d5e-c3c455811729","ios":"levelo://app?vid=be0f795b-7ced-4c0d-8d5e-c3c455811729"},"vehicle_type_id":"4","last_reported":1685023595,"current_range_meters":31600,"station_id":"ce4bgr92rcd13ifvqc6g","pricing_plan_id":"free"},{"bike_id":"ab333eea-3dd6-4b0c-8ee1-ebbbee5cd192","system_id":"levelo_inurba_marseille","lat":43.31341,"lon":5.367098,"is_reserved":false,"is_disabled":false,"rental_uris":{"android":"levelo://app?vid=ab333eea-3dd6-4b0c-8ee1-ebbbee5cd192","ios":"levelo://app?vid=ab333eea-3dd6-4b0c-8ee1-ebbbee5cd192"},"vehicle_type_id":"4","last_reported":1685023595,"current_range_meters":25600,"station_id":"ce4bgr92rcd13ifvqc6g","pricing_plan_id":"free"},{"bike_id":"057874b2-e801-4ed3-9143-b0ecbb73e206","system_id":"levelo_inurba_marseille","lat":43.312239,"lon":5.368562,"is_reserved":false,"is_disabled":false,"rental_uris":{"android":"levelo://app?vid=057874b2-e801-4ed3-9143-b0ecbb73e206","ios":"levelo://app?vid=057874b2-e801-4ed3-9143-b0ecbb73e206"},"vehicle_type_id":"4","last_reported":1685023595,"current_range_meters":28000,"station_id":"ce4bgl92rcd13ifvqbq0","pricing_plan_id":"free"},{"bike_id":"7b5c99ab-fe4f-4d0a-92df-752ed5837304","system_id":"levelo_inurba_marseille","lat":43.312239,"lon":5.368562,"is_reserved":false,"is_disabled":false,"rental_uris":{"android":"levelo://app?vid=7b5c99ab-fe4f-4d0a-92df-752ed5837304","ios":"levelo://app?vid=7b5c99ab-fe4f-4d0a-92df-752ed5837304"},"vehicle_type_id":"4","last_reported":1685023595,"current_range_meters":31600,"station_id":"ce4bgl92rcd13ifvqbq0","pricing_plan_id":"free"},{"bike_id":"3f63655c-0c8f-49f2-90ce-3970191ab847","system_id":"levelo_inurba_marseille","lat":43.312239,"lon":5.368562,"is_reserved":false,"is_disabled":false,"rental_uris":{"android":"levelo://app?vid=3f63655c-0c8f-49f2-90ce-3970191ab847","ios":"levelo://app?vid=3f63655c-0c8f-49f2-90ce-3970191ab847"},"vehicle_type_id":"4","last_reported":1685023595,"current_range_meters":25200,"station_id":"ce4bgl92rcd13ifvqbq0","pricing_plan_id":"free"},{"bike_id":"a6af8036-e835-4df6-9747-b1ddadefd95f","system_id":"levelo_inurba_marseille","lat":43.312239,"lon":5.368562,"is_reserved":false,"is_disabled":false,"rental_uris":{"android":"levelo://app?vid=a6af8036-e835-4df6-9747-b1ddadefd95f","ios":"levelo://app?vid=a6af8036-e835-4df6-9747-b1ddadefd95f"},"vehicle_type_id":"4","last_reported":1685023595,"current_range_meters":21600,"station_id":"ce4bgl92rcd13ifvqbq0","pricing_plan_id":"free"},{"bike_id":"233ce2aa-2fb7-424e-a04c-3154d8520de8","system_id":"levelo_inurba_marseille","lat":43.312239,"lon":5.368562,"is_reserved":false,"is_disabled":false,"rental_uris":{"android":"levelo://app?vid=233ce2aa-2fb7-424e-a04c-3154d8520de8","ios":"levelo://app?vid=233ce2aa-2fb7-424e-a04c-3154d8520de8"},"vehicle_type_id":"4","last_reported":1685023595,"current_range_meters":3200,"station_id":"ce4bgl92rcd13ifvqbq0","pricing_plan_id":"free"},{"bike_id":"a50d886a-96d9-4913-b3b1-639fffa4c3ed","system_id":"levelo_inurba_marseille","lat":43.312239,"lon":5.368562,"is_reserved":false,"is_disabled":false,"rental_uris":{"android":"levelo://app?vid=a50d886a-96d9-4913-b3b1-639fffa4c3ed","ios":"levelo://app?vid=a50d886a-96d9-4913-b3b1-639fffa4c3ed"},"vehicle_type_id":"4","last_reported":1685023595,"current_range_meters":12000,"station_id":"ce4bgl92rcd13ifvqbq0","pricing_plan_id":"free"},{"bike_id":"0b81d4eb-2691-44c0-beed-2716b4b0564e","system_id":"levelo_inurba_marseille","lat":43.314811,"lon":5.373104,"is_reserved":false,"is_disabled":false,"rental_uris":{"android":"levelo://app?vid=0b81d4eb-2691-44c0-beed-2716b4b0564e","ios":"levelo://app?vid=0b81d4eb-2691-44c0-beed-2716b4b0564e"},"vehicle_type_id":"4","last_reported":1685023595,"current_range_meters":31600,"station_id":"ce4bgt12rcd13ifvqcd0","pricing_plan_id":"free"},{"bike_id":"355ddd02-c44e-4eea-b179-abf2a97c0ef7","system_id":"levelo_inurba_marseille","lat":43.314811,"lon":5.373103,"is_reserved":false,"is_disabled":false,"rental_uris":{"android":"levelo://app?vid=355ddd02-c44e-4eea-b179-abf2a97c0ef7","ios":"levelo://app?vid=355ddd02-c44e-4eea-b179-abf2a97c0ef7"},"vehicle_type_id":"4","last_reported":1685023595,"current_range_meters":31200,"station_id":"ce4bgt12rcd13ifvqcd0","pricing_plan_id":"free"},{"bike_id":"c7b5046e-42d3-402c-80ca-754012b7a0c1","system_id":"levelo_inurba_marseille","lat":43.314811,"lon":5.373103,"is_reserved":false,"is_disabled":false,"rental_uris":{"android":"levelo://app?vid=c7b5046e-42d3-402c-80ca-754012b7a0c1","ios":"levelo://app?vid=c7b5046e-42d3-402c-80ca-754012b7a0c1"},"vehicle_type_id":"4","last_reported":1685023595,"current_range_meters":23200,"station_id":"ce4bgt12rcd13ifvqcd0","pricing_plan_id":"free"},{"bike_id":"619ea46b-ab1b-42e9-9139-01195e468123","system_id":"levelo_inurba_marseille","lat":43.314811,"lon":5.373104,"is_reserved":false,"is_disabled":false,"rental_uris":{"android":"levelo://app?vid=619ea46b-ab1b-42e9-9139-01195e468123","ios":"levelo://app?vid=619ea46b-ab1b-42e9-9139-01195e468123"},"vehicle_type_id":"4","last_reported":1685023595,"current_range_meters":23600,"station_id":"ce4bgt12rcd13ifvqcd0","pricing_plan_id":"free"},{"bike_id":"5da3d7dd-44c6-45f6-9958-a741cd24feea","system_id":"levelo_inurba_marseille","lat":43.308614,"lon":5.372098,"is_reserved":false,"is_disabled":false,"rental_uris":{"android":"levelo://app?vid=5da3d7dd-44c6-45f6-9958-a741cd24feea","ios":"levelo://app?vid=5da3d7dd-44c6-45f6-9958-a741cd24feea"},"vehicle_type_id":"4","last_reported":1685023595,"current_range_meters":25600,"station_id":"ce4bguh2rcd13ifvqckg","pricing_plan_id":"free"},{"bike_id":"42d58258-4b63-42d8-ba9a-0d441cba720c","system_id":"levelo_inurba_marseille","lat":43.308614,"lon":5.372098,"is_reserved":false,"is_disabled":false,"rental_uris":{"android":"levelo://app?vid=42d58258-4b63-42d8-ba9a-0d441cba720c","ios":"levelo://app?vid=42d58258-4b63-42d8-ba9a-0d441cba720c"},"vehicle_type_id":"4","last_reported":1685023595,"current_range_meters":400,"station_id":"ce4bguh2rcd13ifvqckg","pricing_plan_id":"free"},{"bike_id":"b4c9ac5c-44d9-46cd-8865-ab182e69e1b2","system_id":"levelo_inurba_marseille","lat":43.308614,"lon":5.372098,"is_reserved":false,"is_disabled":false,"rental_uris":{"android":"levelo://app?vid=b4c9ac5c-44d9-46cd-8865-ab182e69e1b2","ios":"levelo://app?vid=b4c9ac5c-44d9-46cd-8865-ab182e69e1b2"},"vehicle_type_id":"4","last_reported":1685023595,"current_range_meters":23600,"station_id":"ce4bguh2rcd13ifvqckg","pricing_plan_id":"free"},{"bike_id":"91a40185-48cd-4516-ab51-7ac8ba88f035","system_id":"levelo_inurba_marseille","lat":43.308614,"lon":5.372098,"is_reserved":false,"is_disabled":false,"rental_uris":{"android":"levelo://app?vid=91a40185-48cd-4516-ab51-7ac8ba88f035","ios":"levelo://app?vid=91a40185-48cd-4516-ab51-7ac8ba88f035"},"vehicle_type_id":"4","last_reported":1685023595,"current_range_meters":24800,"station_id":"ce4bguh2rcd13ifvqckg","pricing_plan_id":"free"},{"bike_id":"7c37a44b-d29a-41e3-a9ae-c9b2fba4e9ab","system_id":"levelo_inurba_marseille","lat":43.308614,"lon":5.372098,"is_reserved":false,"is_disabled":false,"rental_uris":{"android":"levelo://app?vid=7c37a44b-d29a-41e3-a9ae-c9b2fba4e9ab","ios":"levelo://app?vid=7c37a44b-d29a-41e3-a9ae-c9b2fba4e9ab"},"vehicle_type_id":"4","last_reported":1685023595,"current_range_meters":15200,"station_id":"ce4bguh2rcd13ifvqckg","pricing_plan_id":"free"},{"bike_id":"c138181f-48ac-4415-a593-05e777911b4d","system_id":"levelo_inurba_marseille","lat":43.30695,"lon":5.36674,"is_reserved":false,"is_disabled":false,"rental_uris":{"android":"levelo://app?vid=c138181f-48ac-4415-a593-05e777911b4d","ios":"levelo://app?vid=c138181f-48ac-4415-a593-05e777911b4d"},"vehicle_type_id":"4","last_reported":1685023595,"current_range_meters":23600,"station_id":"","pricing_plan_id":"free"},{"bike_id":"c57a7ba2-1f28-4aee-97d9-dccd952af36b","system_id":"levelo_inurba_marseille","lat":43.305368,"lon":5.367343,"is_reserved":false,"is_disabled":false,"rental_uris":{"android":"levelo://app?vid=c57a7ba2-1f28-4aee-97d9-dccd952af36b","ios":"levelo://app?vid=c57a7ba2-1f28-4aee-97d9-dccd952af36b"},"vehicle_type_id":"4","last_reported":1685023595,"current_range_meters":0,"station_id":"ce4bgrp2rcd13ifvqc9g","pricing_plan_id":"free"},{"bike_id":"e97ce7eb-2de2-4f0f-887c-7175d80f4d9c","system_id":"levelo_inurba_marseille","lat":43.305706,"lon":5.365654,"is_reserved":false,"is_disabled":false,"rental_uris":{"android":"levelo://app?vid=e97ce7eb-2de2-4f0f-887c-7175d80f4d9c","ios":"levelo://app?vid=e97ce7eb-2de2-4f0f-887c-7175d80f4d9c"},"vehicle_type_id":"4","last_reported":1685023595,"current_range_meters":14400,"station_id":"ce4bgs12rcd13ifvqcag","pricing_plan_id":"free"},{"bike_id":"c6a8e4d0-dc2e-4aff-8858-c644e714434a","system_id":"levelo_inurba_marseille","lat":43.305706,"lon":5.365654,"is_reserved":false,"is_disabled":false,"rental_uris":{"android":"levelo://app?vid=c6a8e4d0-dc2e-4aff-8858-c644e714434a","ios":"levelo://app?vid=c6a8e4d0-dc2e-4aff-8858-c644e714434a"},"vehicle_type_id":"4","last_reported":1685023595,"current_range_meters":13200,"station_id":"ce4bgs12rcd13ifvqcag","pricing_plan_id":"free"},{"bike_id":"988f1757-ab65-4244-8bc1-dc2c913464c8","system_id":"levelo_inurba_marseille","lat":43.305368,"lon":5.367343,"is_reserved":false,"is_disabled":false,"rental_uris":{"android":"levelo://app?vid=988f1757-ab65-4244-8bc1-dc2c913464c8","ios":"levelo://app?vid=988f1757-ab65-4244-8bc1-dc2c913464c8"},"vehicle_type_id":"4","last_reported":1685023595,"current_range_meters":12800,"station_id":"ce4bgrp2rcd13ifvqc9g","pricing_plan_id":"free"},{"bike_id":"6f4307b1-f1f2-4423-81d0-cee3f5f5c1ed","system_id":"levelo_inurba_marseille","lat":43.305989,"lon":5.37225,"is_reserved":false,"is_disabled":false,"rental_uris":{"android":"levelo://app?vid=6f4307b1-f1f2-4423-81d0-cee3f5f5c1ed","ios":"levelo://app?vid=6f4307b1-f1f2-4423-81d0-cee3f5f5c1ed"},"vehicle_type_id":"4","last_reported":1685023595,"current_range_meters":30000,"station_id":"ce4bgqh2rcd13ifvqc4g","pricing_plan_id":"free"},{"bike_id":"d5c2342c-7a45-47b1-af05-bfe90b1c908f","system_id":"levelo_inurba_marseille","lat":43.305989,"lon":5.37225,"is_reserved":false,"is_disabled":false,"rental_uris":{"android":"levelo://app?vid=d5c2342c-7a45-47b1-af05-bfe90b1c908f","ios":"levelo://app?vid=d5c2342c-7a45-47b1-af05-bfe90b1c908f"},"vehicle_type_id":"4","last_reported":1685023595,"current_range_meters":27600,"station_id":"ce4bgqh2rcd13ifvqc4g","pricing_plan_id":"free"},{"bike_id":"e4b2eb69-3f1d-4c2e-8117-ecbcae728786","system_id":"levelo_inurba_marseille","lat":43.311131,"lon":5.377651,"is_reserved":false,"is_disabled":false,"rental_uris":{"android":"levelo://app?vid=e4b2eb69-3f1d-4c2e-8117-ecbcae728786","ios":"levelo://app?vid=e4b2eb69-3f1d-4c2e-8117-ecbcae728786"},"vehicle_type_id":"4","last_reported":1685023595,"current_range_meters":20800,"station_id":"ce4bgt92rcd13ifvqcg0","pricing_plan_id":"free"},{"bike_id":"67333cc9-36c8-4d95-8304-375dcbdce646","system_id":"levelo_inurba_marseille","lat":43.31128,"lon":5.37768,"is_reserved":false,"is_disabled":false,"rental_uris":{"android":"levelo://app?vid=67333cc9-36c8-4d95-8304-375dcbdce646","ios":"levelo://app?vid=67333cc9-36c8-4d95-8304-375dcbdce646"},"vehicle_type_id":"4","last_reported":1685023595,"current_range_meters":4800,"station_id":"ce4bgt92rcd13ifvqcg0","pricing_plan_id":"free"},{"bike_id":"95c696ae-6012-4c11-8dc8-2e2c6870f22e","system_id":"levelo_inurba_marseille","lat":43.31116,"lon":5.37773,"is_reserved":false,"is_disabled":false,"rental_uris":{"android":"levelo://app?vid=95c696ae-6012-4c11-8dc8-2e2c6870f22e","ios":"levelo://app?vid=95c696ae-6012-4c11-8dc8-2e2c6870f22e"},"vehicle_type_id":"4","last_reported":1685023595,"current_range_meters":11200,"station_id":"ce4bgt92rcd13ifvqcg0","pricing_plan_id":"free"},{"bike_id":"1e3654da-4ca8-4941-8c9e-d7ae66415c19","system_id":"levelo_inurba_marseille","lat":43.317075,"lon":5.377367,"is_reserved":false,"is_disabled":false,"rental_uris":{"android":"levelo://app?vid=1e3654da-4ca8-4941-8c9e-d7ae66415c19","ios":"levelo://app?vid=1e3654da-4ca8-4941-8c9e-d7ae66415c19"},"vehicle_type_id":"4","last_reported":1685023595,"current_range_meters":21200,"station_id":"ce4bgth2rcd13ifvqch0","pricing_plan_id":"free"},{"bike_id":"8d3b898a-41aa-4f28-b1a2-33ce656ae17f","system_id":"levelo_inurba_marseille","lat":43.317075,"lon":5.377367,"is_reserved":false,"is_disabled":false,"rental_uris":{"android":"levelo://app?vid=8d3b898a-41aa-4f28-b1a2-33ce656ae17f","ios":"levelo://app?vid=8d3b898a-41aa-4f28-b1a2-33ce656ae17f"},"vehicle_type_id":"4","last_reported":1685023595,"current_range_meters":22800,"station_id":"ce4bgth2rcd13ifvqch0","pricing_plan_id":"free"},{"bike_id":"16e7282a-4eed-47c3-83b3-d7e0dee6c006","system_id":"levelo_inurba_marseille","lat":43.317075,"lon":5.377367,"is_reserved":false,"is_disabled":false,"rental_uris":{"android":"levelo://app?vid=16e7282a-4eed-47c3-83b3-d7e0dee6c006","ios":"levelo://app?vid=16e7282a-4eed-47c3-83b3-d7e0dee6c006"},"vehicle_type_id":"4","last_reported":1685023595,"current_range_meters":22400,"station_id":"ce4bgth2rcd13ifvqch0","pricing_plan_id":"free"},{"bike_id":"b6855b1f-51d1-440e-8236-2a00d5254915","system_id":"levelo_inurba_marseille","lat":43.317075,"lon":5.377367,"is_reserved":false,"is_disabled":false,"rental_uris":{"android":"levelo://app?vid=b6855b1f-51d1-440e-8236-2a00d5254915","ios":"levelo://app?vid=b6855b1f-51d1-440e-8236-2a00d5254915"},"vehicle_type_id":"4","last_reported":1685023595,"current_range_meters":19600,"station_id":"ce4bgth2rcd13ifvqch0","pricing_plan_id":"free"},{"bike_id":"3022569d-6af5-45bd-8997-a0f8c384be8e","system_id":"levelo_inurba_marseille","lat":43.317075,"lon":5.377367,"is_reserved":false,"is_disabled":false,"rental_uris":{"android":"levelo://app?vid=3022569d-6af5-45bd-8997-a0f8c384be8e","ios":"levelo://app?vid=3022569d-6af5-45bd-8997-a0f8c384be8e"},"vehicle_type_id":"4","last_reported":1685023595,"current_range_meters":27200,"station_id":"ce4bgth2rcd13ifvqch0","pricing_plan_id":"free"},{"bike_id":"68553df9-2b4c-4244-a834-2447f191355a","system_id":"levelo_inurba_marseille","lat":43.317075,"lon":5.377367,"is_reserved":false,"is_disabled":false,"rental_uris":{"android":"levelo://app?vid=68553df9-2b4c-4244-a834-2447f191355a","ios":"levelo://app?vid=68553df9-2b4c-4244-a834-2447f191355a"},"vehicle_type_id":"4","last_reported":1685023595,"current_range_meters":6800,"station_id":"ce4bgth2rcd13ifvqch0","pricing_plan_id":"free"},{"bike_id":"2ab4639f-70ee-4cae-8aea-667b4c6c63d0","system_id":"levelo_inurba_marseille","lat":43.317075,"lon":5.377367,"is_reserved":false,"is_disabled":false,"rental_uris":{"android":"levelo://app?vid=2ab4639f-70ee-4cae-8aea-667b4c6c63d0","ios":"levelo://app?vid=2ab4639f-70ee-4cae-8aea-667b4c6c63d0"},"vehicle_type_id":"4","last_reported":1685023595,"current_range_meters":17200,"station_id":"ce4bgth2rcd13ifvqch0","pricing_plan_id":"free"},{"bike_id":"fd38c318-e10c-4ea0-8386-140691495f8d","system_id":"levelo_inurba_marseille","lat":43.31713,"lon":5.37832,"is_reserved":false,"is_disabled":false,"rental_uris":{"android":"levelo://app?vid=fd38c318-e10c-4ea0-8386-140691495f8d","ios":"levelo://app?vid=fd38c318-e10c-4ea0-8386-140691495f8d"},"vehicle_type_id":"4","last_reported":1685023595,"current_range_meters":28400,"station_id":"","pricing_plan_id":"free"},{"bike_id":"2407a2b3-7830-4e8d-a265-030e976f3f01","system_id":"levelo_inurba_marseille","lat":43.303046,"lon":5.368981,"is_reserved":false,"is_disabled":false,"rental_uris":{"android":"levelo://app?vid=2407a2b3-7830-4e8d-a265-030e976f3f01","ios":"levelo://app?vid=2407a2b3-7830-4e8d-a265-030e976f3f01"},"vehicle_type_id":"4","last_reported":1685023595,"current_range_meters":20000,"station_id":"ce4bgqh2rcd13ifvqc5g","pricing_plan_id":"free"},{"bike_id":"c1e55b64-be8d-4cb6-8815-8211afcbe693","system_id":"levelo_inurba_marseille","lat":43.301939,"lon":5.366286,"is_reserved":false,"is_disabled":false,"rental_uris":{"android":"levelo://app?vid=c1e55b64-be8d-4cb6-8815-8211afcbe693","ios":"levelo://app?vid=c1e55b64-be8d-4cb6-8815-8211afcbe693"},"vehicle_type_id":"4","last_reported":1685023595,"current_range_meters":18800,"station_id":"ce4bgrh2rcd13ifvqc8g","pricing_plan_id":"free"},{"bike_id":"5df837d5-7751-45e9-bbd4-f03ec32b1569","system_id":"levelo_inurba_marseille","lat":43.308012,"lon":5.381511,"is_reserved":false,"is_disabled":false,"rental_uris":{"android":"levelo://app?vid=5df837d5-7751-45e9-bbd4-f03ec32b1569","ios":"levelo://app?vid=5df837d5-7751-45e9-bbd4-f03ec32b1569"},"vehicle_type_id":"4","last_reported":1685023595,"current_range_meters":4400,"station_id":"ce4bgt12rcd13ifvqce0","pricing_plan_id":"free"},{"bike_id":"f1577212-28ef-4b3f-834e-6a63d7690e99","system_id":"levelo_inurba_marseille","lat":43.308012,"lon":5.381511,"is_reserved":false,"is_disabled":false,"rental_uris":{"android":"levelo://app?vid=f1577212-28ef-4b3f-834e-6a63d7690e99","ios":"levelo://app?vid=f1577212-28ef-4b3f-834e-6a63d7690e99"},"vehicle_type_id":"4","last_reported":1685023595,"current_range_meters":31200,"station_id":"ce4bgt12rcd13ifvqce0","pricing_plan_id":"free"},{"bike_id":"c63e4662-1580-4bf2-987d-9677149ad232","system_id":"levelo_inurba_marseille","lat":43.308012,"lon":5.381511,"is_reserved":false,"is_disabled":false,"rental_uris":{"android":"levelo://app?vid=c63e4662-1580-4bf2-987d-9677149ad232","ios":"levelo://app?vid=c63e4662-1580-4bf2-987d-9677149ad232"},"vehicle_type_id":"4","last_reported":1685023595,"current_range_meters":22400,"station_id":"ce4bgt12rcd13ifvqce0","pricing_plan_id":"free"},{"bike_id":"b61a68e2-6000-4bdb-9bc4-3598198ea889","system_id":"levelo_inurba_marseille","lat":43.304606,"lon":5.379026,"is_reserved":false,"is_disabled":false,"rental_uris":{"android":"levelo://app?vid=b61a68e2-6000-4bdb-9bc4-3598198ea889","ios":"levelo://app?vid=b61a68e2-6000-4bdb-9bc4-3598198ea889"},"vehicle_type_id":"4","last_reported":1685023595,"current_range_meters":21600,"station_id":"ce4bgup2rcd13ifvqcn0","pricing_plan_id":"free"},{"bike_id":"94f072e2-85ff-4596-bbb0-710894775dab","system_id":"levelo_inurba_marseille","lat":43.304606,"lon":5.379026,"is_reserved":false,"is_disabled":false,"rental_uris":{"android":"levelo://app?vid=94f072e2-85ff-4596-bbb0-710894775dab","ios":"levelo://app?vid=94f072e2-85ff-4596-bbb0-710894775dab"},"vehicle_type_id":"4","last_reported":1685023595,"current_range_meters":25600,"station_id":"ce4bgup2rcd13ifvqcn0","pricing_plan_id":"free"},{"bike_id":"4e814b18-bd40-456c-8834-f45cc5994bd7","system_id":"levelo_inurba_marseille","lat":43.304606,"lon":5.379026,"is_reserved":false,"is_disabled":false,"rental_uris":{"android":"levelo://app?vid=4e814b18-bd40-456c-8834-f45cc5994bd7","ios":"levelo://app?vid=4e814b18-bd40-456c-8834-f45cc5994bd7"},"vehicle_type_id":"4","last_reported":1685023595,"current_range_meters":31600,"station_id":"ce4bgup2rcd13ifvqcn0","pricing_plan_id":"free"},{"bike_id":"7c8e47f6-8e85-4c65-be72-08727df199da","system_id":"levelo_inurba_marseille","lat":43.304606,"lon":5.379026,"is_reserved":false,"is_disabled":false,"rental_uris":{"android":"levelo://app?vid=7c8e47f6-8e85-4c65-be72-08727df199da","ios":"levelo://app?vid=7c8e47f6-8e85-4c65-be72-08727df199da"},"vehicle_type_id":"4","last_reported":1685023595,"current_range_meters":31600,"station_id":"ce4bgup2rcd13ifvqcn0","pricing_plan_id":"free"},{"bike_id":"0ffd0683-a0c2-499b-baa9-9fb25ff50dd2","system_id":"levelo_inurba_marseille","lat":43.304606,"lon":5.379026,"is_reserved":false,"is_disabled":false,"rental_uris":{"android":"levelo://app?vid=0ffd0683-a0c2-499b-baa9-9fb25ff50dd2","ios":"levelo://app?vid=0ffd0683-a0c2-499b-baa9-9fb25ff50dd2"},"vehicle_type_id":"4","last_reported":1685023595,"current_range_meters":0,"station_id":"ce4bgup2rcd13ifvqcn0","pricing_plan_id":"free"},{"bike_id":"7395c332-0b22-4349-8d13-fd8e52e63d93","system_id":"levelo_inurba_marseille","lat":43.304606,"lon":5.379026,"is_reserved":false,"is_disabled":false,"rental_uris":{"android":"levelo://app?vid=7395c332-0b22-4349-8d13-fd8e52e63d93","ios":"levelo://app?vid=7395c332-0b22-4349-8d13-fd8e52e63d93"},"vehicle_type_id":"4","last_reported":1685023595,"current_range_meters":21200,"station_id":"ce4bgup2rcd13ifvqcn0","pricing_plan_id":"free"},{"bike_id":"cf2f3eb4-6f4f-4a50-b605-72765a8ff72b","system_id":"levelo_inurba_marseille","lat":43.304606,"lon":5.379026,"is_reserved":false,"is_disabled":false,"rental_uris":{"android":"levelo://app?vid=cf2f3eb4-6f4f-4a50-b605-72765a8ff72b","ios":"levelo://app?vid=cf2f3eb4-6f4f-4a50-b605-72765a8ff72b"},"vehicle_type_id":"4","last_reported":1685023595,"current_range_meters":31600,"station_id":"ce4bgup2rcd13ifvqcn0","pricing_plan_id":"free"},{"bike_id":"c55ca39e-0e57-4098-bcf7-7ef12d439714","system_id":"levelo_inurba_marseille","lat":43.304606,"lon":5.379026,"is_reserved":false,"is_disabled":false,"rental_uris":{"android":"levelo://app?vid=c55ca39e-0e57-4098-bcf7-7ef12d439714","ios":"levelo://app?vid=c55ca39e-0e57-4098-bcf7-7ef12d439714"},"vehicle_type_id":"4","last_reported":1685023595,"current_range_meters":31200,"station_id":"ce4bgup2rcd13ifvqcn0","pricing_plan_id":"free"},{"bike_id":"c2753820-8c3f-4b36-b195-3fbd1d1d7104","system_id":"levelo_inurba_marseille","lat":43.304606,"lon":5.379026,"is_reserved":false,"is_disabled":false,"rental_uris":{"android":"levelo://app?vid=c2753820-8c3f-4b36-b195-3fbd1d1d7104","ios":"levelo://app?vid=c2753820-8c3f-4b36-b195-3fbd1d1d7104"},"vehicle_type_id":"4","last_reported":1685023595,"current_range_meters":23600,"station_id":"ce4bgup2rcd13ifvqcn0","pricing_plan_id":"free"},{"bike_id":"c95c124c-90ad-4b4a-bbbc-da3d70626f4a","system_id":"levelo_inurba_marseille","lat":43.30464,"lon":5.37898,"is_reserved":false,"is_disabled":false,"rental_uris":{"android":"levelo://app?vid=c95c124c-90ad-4b4a-bbbc-da3d70626f4a","ios":"levelo://app?vid=c95c124c-90ad-4b4a-bbbc-da3d70626f4a"},"vehicle_type_id":"4","last_reported":1685023595,"current_range_meters":19600,"station_id":"ce4bgup2rcd13ifvqcn0","pricing_plan_id":"free"},{"bike_id":"a50db0b2-81dd-478f-918a-2962e53808ad","system_id":"levelo_inurba_marseille","lat":43.304606,"lon":5.379026,"is_reserved":false,"is_disabled":false,"rental_uris":{"android":"levelo://app?vid=a50db0b2-81dd-478f-918a-2962e53808ad","ios":"levelo://app?vid=a50db0b2-81dd-478f-918a-2962e53808ad"},"vehicle_type_id":"4","last_reported":1685023595,"current_range_meters":800,"station_id":"ce4bgup2rcd13ifvqcn0","pricing_plan_id":"free"},{"bike_id":"d91d74fb-f6d4-4a20-8e52-3d25c1e8f3ae","system_id":"levelo_inurba_marseille","lat":43.304606,"lon":5.379026,"is_reserved":false,"is_disabled":false,"rental_uris":{"android":"levelo://app?vid=d91d74fb-f6d4-4a20-8e52-3d25c1e8f3ae","ios":"levelo://app?vid=d91d74fb-f6d4-4a20-8e52-3d25c1e8f3ae"},"vehicle_type_id":"4","last_reported":1685023595,"current_range_meters":31600,"station_id":"ce4bgup2rcd13ifvqcn0","pricing_plan_id":"free"},{"bike_id":"1a751915-6fe7-4814-b222-c38fff867de9","system_id":"levelo_inurba_marseille","lat":43.304606,"lon":5.379026,"is_reserved":false,"is_disabled":false,"rental_uris":{"android":"levelo://app?vid=1a751915-6fe7-4814-b222-c38fff867de9","ios":"levelo://app?vid=1a751915-6fe7-4814-b222-c38fff867de9"},"vehicle_type_id":"4","last_reported":1685023595,"current_range_meters":15200,"station_id":"ce4bgup2rcd13ifvqcn0","pricing_plan_id":"free"},{"bike_id":"4a04b2b5-e6b7-4dde-a6fa-a015924ab68d","system_id":"levelo_inurba_marseille","lat":43.304606,"lon":5.379026,"is_reserved":false,"is_disabled":false,"rental_uris":{"android":"levelo://app?vid=4a04b2b5-e6b7-4dde-a6fa-a015924ab68d","ios":"levelo://app?vid=4a04b2b5-e6b7-4dde-a6fa-a015924ab68d"},"vehicle_type_id":"4","last_reported":1685023595,"current_range_meters":31600,"station_id":"ce4bgup2rcd13ifvqcn0","pricing_plan_id":"free"},{"bike_id":"cb79e689-3bb0-430f-95c7-107aeee7d1fc","system_id":"levelo_inurba_marseille","lat":43.304606,"lon":5.379026,"is_reserved":false,"is_disabled":false,"rental_uris":{"android":"levelo://app?vid=cb79e689-3bb0-430f-95c7-107aeee7d1fc","ios":"levelo://app?vid=cb79e689-3bb0-430f-95c7-107aeee7d1fc"},"vehicle_type_id":"4","last_reported":1685023595,"current_range_meters":31600,"station_id":"ce4bgup2rcd13ifvqcn0","pricing_plan_id":"free"},{"bike_id":"fec61e95-eee6-47da-bb41-60634a74c235","system_id":"levelo_inurba_marseille","lat":43.304606,"lon":5.379026,"is_reserved":false,"is_disabled":false,"rental_uris":{"android":"levelo://app?vid=fec61e95-eee6-47da-bb41-60634a74c235","ios":"levelo://app?vid=fec61e95-eee6-47da-bb41-60634a74c235"},"vehicle_type_id":"4","last_reported":1685023595,"current_range_meters":31600,"station_id":"ce4bgup2rcd13ifvqcn0","pricing_plan_id":"free"},{"bike_id":"863823a4-040e-4915-82fe-a0802a7b9745","system_id":"levelo_inurba_marseille","lat":43.304606,"lon":5.379026,"is_reserved":false,"is_disabled":false,"rental_uris":{"android":"levelo://app?vid=863823a4-040e-4915-82fe-a0802a7b9745","ios":"levelo://app?vid=863823a4-040e-4915-82fe-a0802a7b9745"},"vehicle_type_id":"4","last_reported":1685023595,"current_range_meters":22800,"station_id":"ce4bgup2rcd13ifvqcn0","pricing_plan_id":"free"},{"bike_id":"610fff3d-ab29-41f5-ae69-b55454563145","system_id":"levelo_inurba_marseille","lat":43.304606,"lon":5.379026,"is_reserved":false,"is_disabled":false,"rental_uris":{"android":"levelo://app?vid=610fff3d-ab29-41f5-ae69-b55454563145","ios":"levelo://app?vid=610fff3d-ab29-41f5-ae69-b55454563145"},"vehicle_type_id":"4","last_reported":1685023595,"current_range_meters":18400,"station_id":"ce4bgup2rcd13ifvqcn0","pricing_plan_id":"free"},{"bike_id":"fb8b5732-fa72-4b2a-99f6-b19b6f61e809","system_id":"levelo_inurba_marseille","lat":43.304606,"lon":5.379026,"is_reserved":false,"is_disabled":false,"rental_uris":{"android":"levelo://app?vid=fb8b5732-fa72-4b2a-99f6-b19b6f61e809","ios":"levelo://app?vid=fb8b5732-fa72-4b2a-99f6-b19b6f61e809"},"vehicle_type_id":"4","last_reported":1685023595,"current_range_meters":21200,"station_id":"ce4bgup2rcd13ifvqcn0","pricing_plan_id":"free"},{"bike_id":"9b0e13c2-50fc-40f3-a4b1-165ec841fc11","system_id":"levelo_inurba_marseille","lat":43.304606,"lon":5.379026,"is_reserved":false,"is_disabled":false,"rental_uris":{"android":"levelo://app?vid=9b0e13c2-50fc-40f3-a4b1-165ec841fc11","ios":"levelo://app?vid=9b0e13c2-50fc-40f3-a4b1-165ec841fc11"},"vehicle_type_id":"4","last_reported":1685023595,"current_range_meters":30400,"station_id":"ce4bgup2rcd13ifvqcn0","pricing_plan_id":"free"},{"bike_id":"5a7a7e37-5a2a-43b9-b38c-6cfc67fb7f20","system_id":"levelo_inurba_marseille","lat":43.304606,"lon":5.379026,"is_reserved":false,"is_disabled":false,"rental_uris":{"android":"levelo://app?vid=5a7a7e37-5a2a-43b9-b38c-6cfc67fb7f20","ios":"levelo://app?vid=5a7a7e37-5a2a-43b9-b38c-6cfc67fb7f20"},"vehicle_type_id":"4","last_reported":1685023595,"current_range_meters":31600,"station_id":"ce4bgup2rcd13ifvqcn0","pricing_plan_id":"free"},{"bike_id":"bfdcad51-97fc-4fc5-8b82-c545596782cd","system_id":"levelo_inurba_marseille","lat":43.319935,"lon":5.381699,"is_reserved":false,"is_disabled":false,"rental_uris":{"android":"levelo://app?vid=bfdcad51-97fc-4fc5-8b82-c545596782cd","ios":"levelo://app?vid=bfdcad51-97fc-4fc5-8b82-c545596782cd"},"vehicle_type_id":"4","last_reported":1685023595,"current_range_meters":31200,"station_id":"ce4bhr12rcd13ifvqhpg","pricing_plan_id":"free"},{"bike_id":"530a238a-2fe4-4ada-b174-d32325afbdf2","system_id":"levelo_inurba_marseille","lat":43.31995,"lon":5.38149,"is_reserved":false,"is_disabled":false,"rental_uris":{"android":"levelo://app?vid=530a238a-2fe4-4ada-b174-d32325afbdf2","ios":"levelo://app?vid=530a238a-2fe4-4ada-b174-d32325afbdf2"},"vehicle_type_id":"4","last_reported":1685023595,"current_range_meters":29600,"station_id":"ce4bhr12rcd13ifvqhpg","pricing_plan_id":"free"},{"bike_id":"ec2bf9d8-bdcd-4d00-823b-5e25cb80cc6b","system_id":"levelo_inurba_marseille","lat":43.31994,"lon":5.38151,"is_reserved":false,"is_disabled":false,"rental_uris":{"android":"levelo://app?vid=ec2bf9d8-bdcd-4d00-823b-5e25cb80cc6b","ios":"levelo://app?vid=ec2bf9d8-bdcd-4d00-823b-5e25cb80cc6b"},"vehicle_type_id":"4","last_reported":1685023595,"current_range_meters":31200,"station_id":"ce4bhr12rcd13ifvqhpg","pricing_plan_id":"free"},{"bike_id":"e5571f58-adb6-49b7-8c86-2d757ae8e1a0","system_id":"levelo_inurba_marseille","lat":43.319935,"lon":5.381699,"is_reserved":false,"is_disabled":false,"rental_uris":{"android":"levelo://app?vid=e5571f58-adb6-49b7-8c86-2d757ae8e1a0","ios":"levelo://app?vid=e5571f58-adb6-49b7-8c86-2d757ae8e1a0"},"vehicle_type_id":"4","last_reported":1685023595,"current_range_meters":22400,"station_id":"ce4bhr12rcd13ifvqhpg","pricing_plan_id":"free"},{"bike_id":"6aa0f572-3ab3-430e-bea6-9fb28aa33ed2","system_id":"levelo_inurba_marseille","lat":43.32,"lon":5.38152,"is_reserved":false,"is_disabled":false,"rental_uris":{"android":"levelo://app?vid=6aa0f572-3ab3-430e-bea6-9fb28aa33ed2","ios":"levelo://app?vid=6aa0f572-3ab3-430e-bea6-9fb28aa33ed2"},"vehicle_type_id":"4","last_reported":1685023595,"current_range_meters":18800,"station_id":"ce4bhr12rcd13ifvqhpg","pricing_plan_id":"free"},{"bike_id":"5ac2fe43-85c7-472b-b3f7-4192c6da01ce","system_id":"levelo_inurba_marseille","lat":43.320076,"lon":5.381696,"is_reserved":false,"is_disabled":false,"rental_uris":{"android":"levelo://app?vid=5ac2fe43-85c7-472b-b3f7-4192c6da01ce","ios":"levelo://app?vid=5ac2fe43-85c7-472b-b3f7-4192c6da01ce"},"vehicle_type_id":"4","last_reported":1685023595,"current_range_meters":21200,"station_id":"","pricing_plan_id":"free"},{"bike_id":"3822388a-a307-4bb3-bd87-f7cf392cd2bf","system_id":"levelo_inurba_marseille","lat":43.313571,"lon":5.384829,"is_reserved":false,"is_disabled":false,"rental_uris":{"android":"levelo://app?vid=3822388a-a307-4bb3-bd87-f7cf392cd2bf","ios":"levelo://app?vid=3822388a-a307-4bb3-bd87-f7cf392cd2bf"},"vehicle_type_id":"4","last_reported":1685023595,"current_range_meters":5600,"station_id":"ce4bgt92rcd13ifvqcf0","pricing_plan_id":"free"},{"bike_id":"5fa403dd-6641-4344-b57d-14f2b48d8a0e","system_id":"levelo_inurba_marseille","lat":43.313571,"lon":5.384829,"is_reserved":false,"is_disabled":false,"rental_uris":{"android":"levelo://app?vid=5fa403dd-6641-4344-b57d-14f2b48d8a0e","ios":"levelo://app?vid=5fa403dd-6641-4344-b57d-14f2b48d8a0e"},"vehicle_type_id":"4","last_reported":1685023595,"current_range_meters":32000,"station_id":"ce4bgt92rcd13ifvqcf0","pricing_plan_id":"free"},{"bike_id":"65b82cf4-50b8-40c6-9ebb-bc81ef4f21c4","system_id":"levelo_inurba_marseille","lat":43.313571,"lon":5.384829,"is_reserved":false,"is_disabled":false,"rental_uris":{"android":"levelo://app?vid=65b82cf4-50b8-40c6-9ebb-bc81ef4f21c4","ios":"levelo://app?vid=65b82cf4-50b8-40c6-9ebb-bc81ef4f21c4"},"vehicle_type_id":"4","last_reported":1685023595,"current_range_meters":31600,"station_id":"ce4bgt92rcd13ifvqcf0","pricing_plan_id":"free"},{"bike_id":"7ff0cf0c-f9cb-4047-bca4-1219b301fb5d","system_id":"levelo_inurba_marseille","lat":43.313571,"lon":5.384829,"is_reserved":false,"is_disabled":false,"rental_uris":{"android":"levelo://app?vid=7ff0cf0c-f9cb-4047-bca4-1219b301fb5d","ios":"levelo://app?vid=7ff0cf0c-f9cb-4047-bca4-1219b301fb5d"},"vehicle_type_id":"4","last_reported":1685023595,"current_range_meters":31600,"station_id":"ce4bgt92rcd13ifvqcf0","pricing_plan_id":"free"},{"bike_id":"6f076896-c175-452e-a765-07edc6d3f0c9","system_id":"levelo_inurba_marseille","lat":43.313571,"lon":5.384829,"is_reserved":false,"is_disabled":false,"rental_uris":{"android":"levelo://app?vid=6f076896-c175-452e-a765-07edc6d3f0c9","ios":"levelo://app?vid=6f076896-c175-452e-a765-07edc6d3f0c9"},"vehicle_type_id":"4","last_reported":1685023595,"current_range_meters":22800,"station_id":"ce4bgt92rcd13ifvqcf0","pricing_plan_id":"free"},{"bike_id":"d4b0c2b6-4e7a-43aa-b1a1-ee583cc5e17a","system_id":"levelo_inurba_marseille","lat":43.313571,"lon":5.384829,"is_reserved":false,"is_disabled":false,"rental_uris":{"android":"levelo://app?vid=d4b0c2b6-4e7a-43aa-b1a1-ee583cc5e17a","ios":"levelo://app?vid=d4b0c2b6-4e7a-43aa-b1a1-ee583cc5e17a"},"vehicle_type_id":"4","last_reported":1685023595,"current_range_meters":29600,"station_id":"ce4bgt92rcd13ifvqcf0","pricing_plan_id":"free"},{"bike_id":"aab6c4c5-7641-473d-b0ca-ba7b1b297645","system_id":"levelo_inurba_marseille","lat":43.29932,"lon":5.36541,"is_reserved":false,"is_disabled":false,"rental_uris":{"android":"levelo://app?vid=aab6c4c5-7641-473d-b0ca-ba7b1b297645","ios":"levelo://app?vid=aab6c4c5-7641-473d-b0ca-ba7b1b297645"},"vehicle_type_id":"4","last_reported":1685023595,"current_range_meters":20000,"station_id":"ce4bgm92rcd13ifvqbr0","pricing_plan_id":"free"},{"bike_id":"664b1cb7-cee1-44ca-8a28-af3bf303709d","system_id":"levelo_inurba_marseille","lat":43.299209,"lon":5.365547,"is_reserved":false,"is_disabled":false,"rental_uris":{"android":"levelo://app?vid=664b1cb7-cee1-44ca-8a28-af3bf303709d","ios":"levelo://app?vid=664b1cb7-cee1-44ca-8a28-af3bf303709d"},"vehicle_type_id":"4","last_reported":1685023595,"current_range_meters":16400,"station_id":"ce4bgm92rcd13ifvqbr0","pricing_plan_id":"free"},{"bike_id":"f44e5492-12a5-4c87-abe6-e8197d354e29","system_id":"levelo_inurba_marseille","lat":43.298433,"lon":5.362774,"is_reserved":false,"is_disabled":false,"rental_uris":{"android":"levelo://app?vid=f44e5492-12a5-4c87-abe6-e8197d354e29","ios":"levelo://app?vid=f44e5492-12a5-4c87-abe6-e8197d354e29"},"vehicle_type_id":"4","last_reported":1685023595,"current_range_meters":28000,"station_id":"ce4bgpp2rcd13ifvqc3g","pricing_plan_id":"free"},{"bike_id":"a841f93a-a0a4-490a-92f5-6c035aaee142","system_id":"levelo_inurba_marseille","lat":43.305364,"lon":5.384119,"is_reserved":false,"is_disabled":false,"rental_uris":{"android":"levelo://app?vid=a841f93a-a0a4-490a-92f5-6c035aaee142","ios":"levelo://app?vid=a841f93a-a0a4-490a-92f5-6c035aaee142"},"vehicle_type_id":"4","last_reported":1685023595,"current_range_meters":16400,"station_id":"ce4bgg92rcd13ifvqb30","pricing_plan_id":"free"},{"bike_id":"222af222-eb78-44de-9b83-1cd69aaa2759","system_id":"levelo_inurba_marseille","lat":43.299243,"lon":5.37481,"is_reserved":false,"is_disabled":false,"rental_uris":{"android":"levelo://app?vid=222af222-eb78-44de-9b83-1cd69aaa2759","ios":"levelo://app?vid=222af222-eb78-44de-9b83-1cd69aaa2759"},"vehicle_type_id":"4","last_reported":1685023595,"current_range_meters":31600,"station_id":"ce4bgjh2rcd13ifvqbg0","pricing_plan_id":"free"},{"bike_id":"2e1bcafa-386b-4036-a670-0b51dcb29005","system_id":"levelo_inurba_marseille","lat":43.298433,"lon":5.362774,"is_reserved":false,"is_disabled":false,"rental_uris":{"android":"levelo://app?vid=2e1bcafa-386b-4036-a670-0b51dcb29005","ios":"levelo://app?vid=2e1bcafa-386b-4036-a670-0b51dcb29005"},"vehicle_type_id":"4","last_reported":1685023595,"current_range_meters":28400,"station_id":"ce4bgpp2rcd13ifvqc3g","pricing_plan_id":"free"},{"bike_id":"795522f5-b776-4115-aeea-a748e9d034b1","system_id":"levelo_inurba_marseille","lat":43.298433,"lon":5.362774,"is_reserved":false,"is_disabled":false,"rental_uris":{"android":"levelo://app?vid=795522f5-b776-4115-aeea-a748e9d034b1","ios":"levelo://app?vid=795522f5-b776-4115-aeea-a748e9d034b1"},"vehicle_type_id":"4","last_reported":1685023595,"current_range_meters":12000,"station_id":"ce4bgpp2rcd13ifvqc3g","pricing_plan_id":"free"},{"bike_id":"3bfb4307-1252-4ce7-90cf-0d223bd74af7","system_id":"levelo_inurba_marseille","lat":43.29923,"lon":5.37466,"is_reserved":false,"is_disabled":false,"rental_uris":{"android":"levelo://app?vid=3bfb4307-1252-4ce7-90cf-0d223bd74af7","ios":"levelo://app?vid=3bfb4307-1252-4ce7-90cf-0d223bd74af7"},"vehicle_type_id":"4","last_reported":1685023595,"current_range_meters":22400,"station_id":"ce4bgjh2rcd13ifvqbg0","pricing_plan_id":"free"},{"bike_id":"e9ebe460-8e17-4be4-98a0-c9780da37027","system_id":"levelo_inurba_marseille","lat":43.299243,"lon":5.374807,"is_reserved":false,"is_disabled":false,"rental_uris":{"android":"levelo://app?vid=e9ebe460-8e17-4be4-98a0-c9780da37027","ios":"levelo://app?vid=e9ebe460-8e17-4be4-98a0-c9780da37027"},"vehicle_type_id":"4","last_reported":1685023595,"current_range_meters":18800,"station_id":"ce4bgjh2rcd13ifvqbg0","pricing_plan_id":"free"},{"bike_id":"a8bd4f19-4781-44fb-91e6-9bbc69995f2f","system_id":"levelo_inurba_marseille","lat":43.29918,"lon":5.37467,"is_reserved":false,"is_disabled":false,"rental_uris":{"android":"levelo://app?vid=a8bd4f19-4781-44fb-91e6-9bbc69995f2f","ios":"levelo://app?vid=a8bd4f19-4781-44fb-91e6-9bbc69995f2f"},"vehicle_type_id":"4","last_reported":1685023595,"current_range_meters":21200,"station_id":"ce4bgjh2rcd13ifvqbg0","pricing_plan_id":"free"},{"bike_id":"f4a5c009-9116-45de-843f-e750266933a4","system_id":"levelo_inurba_marseille","lat":43.29917,"lon":5.37466,"is_reserved":false,"is_disabled":false,"rental_uris":{"android":"levelo://app?vid=f4a5c009-9116-45de-843f-e750266933a4","ios":"levelo://app?vid=f4a5c009-9116-45de-843f-e750266933a4"},"vehicle_type_id":"4","last_reported":1685023595,"current_range_meters":28800,"station_id":"ce4bgjh2rcd13ifvqbg0","pricing_plan_id":"free"},{"bike_id":"bf218088-b6e4-4102-834f-d807243cbce1","system_id":"levelo_inurba_marseille","lat":43.311722,"lon":5.387247,"is_reserved":false,"is_disabled":false,"rental_uris":{"android":"levelo://app?vid=bf218088-b6e4-4102-834f-d807243cbce1","ios":"levelo://app?vid=bf218088-b6e4-4102-834f-d807243cbce1"},"vehicle_type_id":"4","last_reported":1685023595,"current_range_meters":26400,"station_id":"ce4bgv12rcd13ifvqcp0","pricing_plan_id":"free"},{"bike_id":"f612a92b-c79e-4d62-bd69-d9947a9c15df","system_id":"levelo_inurba_marseille","lat":43.29914,"lon":5.37469,"is_reserved":false,"is_disabled":false,"rental_uris":{"android":"levelo://app?vid=f612a92b-c79e-4d62-bd69-d9947a9c15df","ios":"levelo://app?vid=f612a92b-c79e-4d62-bd69-d9947a9c15df"},"vehicle_type_id":"4","last_reported":1685023595,"current_range_meters":31200,"station_id":"ce4bgjh2rcd13ifvqbg0","pricing_plan_id":"free"},{"bike_id":"91d09164-94fd-4652-b99c-97630fcc7d31","system_id":"levelo_inurba_marseille","lat":43.299145,"lon":5.374728,"is_reserved":false,"is_disabled":false,"rental_uris":{"android":"levelo://app?vid=91d09164-94fd-4652-b99c-97630fcc7d31","ios":"levelo://app?vid=91d09164-94fd-4652-b99c-97630fcc7d31"},"vehicle_type_id":"4","last_reported":1685023595,"current_range_meters":28400,"station_id":"ce4bgjh2rcd13ifvqbg0","pricing_plan_id":"free"},{"bike_id":"b71e9600-89a3-4a78-ad8d-4967495d2b22","system_id":"levelo_inurba_marseille","lat":43.311722,"lon":5.387247,"is_reserved":false,"is_disabled":false,"rental_uris":{"android":"levelo://app?vid=b71e9600-89a3-4a78-ad8d-4967495d2b22","ios":"levelo://app?vid=b71e9600-89a3-4a78-ad8d-4967495d2b22"},"vehicle_type_id":"4","last_reported":1685023595,"current_range_meters":26000,"station_id":"ce4bgv12rcd13ifvqcp0","pricing_plan_id":"free"},{"bike_id":"dde0ed73-aabd-4191-b64a-c96f2ea24388","system_id":"levelo_inurba_marseille","lat":43.311722,"lon":5.387247,"is_reserved":false,"is_disabled":false,"rental_uris":{"android":"levelo://app?vid=dde0ed73-aabd-4191-b64a-c96f2ea24388","ios":"levelo://app?vid=dde0ed73-aabd-4191-b64a-c96f2ea24388"},"vehicle_type_id":"4","last_reported":1685023595,"current_range_meters":9600,"station_id":"ce4bgv12rcd13ifvqcp0","pricing_plan_id":"free"},{"bike_id":"35179476-9183-49dd-acc2-0153e8453b43","system_id":"levelo_inurba_marseille","lat":43.29913,"lon":5.37479,"is_reserved":false,"is_disabled":false,"rental_uris":{"android":"levelo://app?vid=35179476-9183-49dd-acc2-0153e8453b43","ios":"levelo://app?vid=35179476-9183-49dd-acc2-0153e8453b43"},"vehicle_type_id":"4","last_reported":1685023595,"current_range_meters":21600,"station_id":"ce4bgjh2rcd13ifvqbg0","pricing_plan_id":"free"},{"bike_id":"65c49fca-29d5-422c-8b90-ee0679ccfae0","system_id":"levelo_inurba_marseille","lat":43.311722,"lon":5.387247,"is_reserved":false,"is_disabled":false,"rental_uris":{"android":"levelo://app?vid=65c49fca-29d5-422c-8b90-ee0679ccfae0","ios":"levelo://app?vid=65c49fca-29d5-422c-8b90-ee0679ccfae0"},"vehicle_type_id":"4","last_reported":1685023595,"current_range_meters":31600,"station_id":"ce4bgv12rcd13ifvqcp0","pricing_plan_id":"free"},{"bike_id":"6593734c-6b45-42e5-9029-536c9d67ca03","system_id":"levelo_inurba_marseille","lat":43.311722,"lon":5.387247,"is_reserved":false,"is_disabled":false,"rental_uris":{"android":"levelo://app?vid=6593734c-6b45-42e5-9029-536c9d67ca03","ios":"levelo://app?vid=6593734c-6b45-42e5-9029-536c9d67ca03"},"vehicle_type_id":"4","last_reported":1685023595,"current_range_meters":31600,"station_id":"ce4bgv12rcd13ifvqcp0","pricing_plan_id":"free"},{"bike_id":"3831da95-583b-4509-bb5e-e643a701070e","system_id":"levelo_inurba_marseille","lat":43.311722,"lon":5.387247,"is_reserved":false,"is_disabled":false,"rental_uris":{"android":"levelo://app?vid=3831da95-583b-4509-bb5e-e643a701070e","ios":"levelo://app?vid=3831da95-583b-4509-bb5e-e643a701070e"},"vehicle_type_id":"4","last_reported":1685023595,"current_range_meters":22000,"station_id":"ce4bgv12rcd13ifvqcp0","pricing_plan_id":"free"},{"bike_id":"266cb5e1-0c9d-463b-80ca-f73480fbd694","system_id":"levelo_inurba_marseille","lat":43.297774,"lon":5.370875,"is_reserved":false,"is_disabled":false,"rental_uris":{"android":"levelo://app?vid=266cb5e1-0c9d-463b-80ca-f73480fbd694","ios":"levelo://app?vid=266cb5e1-0c9d-463b-80ca-f73480fbd694"},"vehicle_type_id":"4","last_reported":1685023595,"current_range_meters":17200,"station_id":"ce4bgop2rcd13ifvqc1g","pricing_plan_id":"free"},{"bike_id":"22191902-7688-485e-97bd-3ac4270cf6f3","system_id":"levelo_inurba_marseille","lat":43.297794,"lon":5.370888,"is_reserved":false,"is_disabled":false,"rental_uris":{"android":"levelo://app?vid=22191902-7688-485e-97bd-3ac4270cf6f3","ios":"levelo://app?vid=22191902-7688-485e-97bd-3ac4270cf6f3"},"vehicle_type_id":"4","last_reported":1685023595,"current_range_meters":28400,"station_id":"ce4bgop2rcd13ifvqc1g","pricing_plan_id":"free"},{"bike_id":"3c11ad08-778f-4008-b97c-48b0f09c9654","system_id":"levelo_inurba_marseille","lat":43.328371,"lon":5.366909,"is_reserved":false,"is_disabled":false,"rental_uris":{"android":"levelo://app?vid=3c11ad08-778f-4008-b97c-48b0f09c9654","ios":"levelo://app?vid=3c11ad08-778f-4008-b97c-48b0f09c9654"},"vehicle_type_id":"4","last_reported":1685023595,"current_range_meters":5200,"station_id":"ce4bhs92rcd13ifvqi0g","pricing_plan_id":"free"},{"bike_id":"fad50468-bff6-4eb0-bc39-08e7203bec60","system_id":"levelo_inurba_marseille","lat":43.328371,"lon":5.366912,"is_reserved":false,"is_disabled":false,"rental_uris":{"android":"levelo://app?vid=fad50468-bff6-4eb0-bc39-08e7203bec60","ios":"levelo://app?vid=fad50468-bff6-4eb0-bc39-08e7203bec60"},"vehicle_type_id":"4","last_reported":1685023595,"current_range_meters":18000,"station_id":"ce4bhs92rcd13ifvqi0g","pricing_plan_id":"free"},{"bike_id":"07d0f5f8-594a-4c99-bd5f-efd86e16327f","system_id":"levelo_inurba_marseille","lat":43.328371,"lon":5.366912,"is_reserved":false,"is_disabled":false,"rental_uris":{"android":"levelo://app?vid=07d0f5f8-594a-4c99-bd5f-efd86e16327f","ios":"levelo://app?vid=07d0f5f8-594a-4c99-bd5f-efd86e16327f"},"vehicle_type_id":"4","last_reported":1685023595,"current_range_meters":12400,"station_id":"ce4bhs92rcd13ifvqi0g","pricing_plan_id":"free"},{"bike_id":"33d64a15-7d9d-4fb0-ae0e-1b1b07ff9aea","system_id":"levelo_inurba_marseille","lat":43.328371,"lon":5.366909,"is_reserved":false,"is_disabled":false,"rental_uris":{"android":"levelo://app?vid=33d64a15-7d9d-4fb0-ae0e-1b1b07ff9aea","ios":"levelo://app?vid=33d64a15-7d9d-4fb0-ae0e-1b1b07ff9aea"},"vehicle_type_id":"4","last_reported":1685023595,"current_range_meters":31200,"station_id":"ce4bhs92rcd13ifvqi0g","pricing_plan_id":"free"},{"bike_id":"00b8ca22-0152-40bc-b554-c83c1b83a55e","system_id":"levelo_inurba_marseille","lat":43.328371,"lon":5.366909,"is_reserved":false,"is_disabled":false,"rental_uris":{"android":"levelo://app?vid=00b8ca22-0152-40bc-b554-c83c1b83a55e","ios":"levelo://app?vid=00b8ca22-0152-40bc-b554-c83c1b83a55e"},"vehicle_type_id":"4","last_reported":1685023595,"current_range_meters":25200,"station_id":"ce4bhs92rcd13ifvqi0g","pricing_plan_id":"free"},{"bike_id":"977a9d9e-5034-4d66-9bd6-3c524daf3bdf","system_id":"levelo_inurba_marseille","lat":43.328371,"lon":5.366909,"is_reserved":false,"is_disabled":false,"rental_uris":{"android":"levelo://app?vid=977a9d9e-5034-4d66-9bd6-3c524daf3bdf","ios":"levelo://app?vid=977a9d9e-5034-4d66-9bd6-3c524daf3bdf"},"vehicle_type_id":"4","last_reported":1685023595,"current_range_meters":23200,"station_id":"ce4bhs92rcd13ifvqi0g","pricing_plan_id":"free"},{"bike_id":"cd2ff10f-681c-4c0d-b23b-ed356d56ba93","system_id":"levelo_inurba_marseille","lat":43.328371,"lon":5.366912,"is_reserved":false,"is_disabled":false,"rental_uris":{"android":"levelo://app?vid=cd2ff10f-681c-4c0d-b23b-ed356d56ba93","ios":"levelo://app?vid=cd2ff10f-681c-4c0d-b23b-ed356d56ba93"},"vehicle_type_id":"4","last_reported":1685023595,"current_range_meters":28800,"station_id":"ce4bhs92rcd13ifvqi0g","pricing_plan_id":"free"},{"bike_id":"beb58a24-32df-4292-805e-75c74c187706","system_id":"levelo_inurba_marseille","lat":43.328371,"lon":5.366912,"is_reserved":false,"is_disabled":false,"rental_uris":{"android":"levelo://app?vid=beb58a24-32df-4292-805e-75c74c187706","ios":"levelo://app?vid=beb58a24-32df-4292-805e-75c74c187706"},"vehicle_type_id":"4","last_reported":1685023595,"current_range_meters":31200,"station_id":"ce4bhs92rcd13ifvqi0g","pricing_plan_id":"free"},{"bike_id":"4fe812b5-a152-4f6f-a5e4-5b2d482ba70f","system_id":"levelo_inurba_marseille","lat":43.32832,"lon":5.36686,"is_reserved":false,"is_disabled":false,"rental_uris":{"android":"levelo://app?vid=4fe812b5-a152-4f6f-a5e4-5b2d482ba70f","ios":"levelo://app?vid=4fe812b5-a152-4f6f-a5e4-5b2d482ba70f"},"vehicle_type_id":"4","last_reported":1685023595,"current_range_meters":18800,"station_id":"ce4bhs92rcd13ifvqi0g","pricing_plan_id":"free"},{"bike_id":"276e8684-5df0-487d-a846-8933fb6a8ad0","system_id":"levelo_inurba_marseille","lat":43.296129,"lon":5.370777,"is_reserved":false,"is_disabled":false,"rental_uris":{"android":"levelo://app?vid=276e8684-5df0-487d-a846-8933fb6a8ad0","ios":"levelo://app?vid=276e8684-5df0-487d-a846-8933fb6a8ad0"},"vehicle_type_id":"4","last_reported":1685023595,"current_range_meters":32000,"station_id":"ce4bgnh2rcd13ifvqc0g","pricing_plan_id":"free"},{"bike_id":"ed34c371-6696-4a01-a67e-dcbb404d59a3","system_id":"levelo_inurba_marseille","lat":43.296131,"lon":5.370791,"is_reserved":false,"is_disabled":false,"rental_uris":{"android":"levelo://app?vid=ed34c371-6696-4a01-a67e-dcbb404d59a3","ios":"levelo://app?vid=ed34c371-6696-4a01-a67e-dcbb404d59a3"},"vehicle_type_id":"4","last_reported":1685023595,"current_range_meters":31200,"station_id":"ce4bgnh2rcd13ifvqc0g","pricing_plan_id":"free"},{"bike_id":"287908f5-73bb-4505-98c0-048d3cd90521","system_id":"levelo_inurba_marseille","lat":43.296129,"lon":5.370777,"is_reserved":false,"is_disabled":false,"rental_uris":{"android":"levelo://app?vid=287908f5-73bb-4505-98c0-048d3cd90521","ios":"levelo://app?vid=287908f5-73bb-4505-98c0-048d3cd90521"},"vehicle_type_id":"4","last_reported":1685023595,"current_range_meters":32000,"station_id":"ce4bgnh2rcd13ifvqc0g","pricing_plan_id":"free"},{"bike_id":"b306a77a-ec90-4f87-bfaf-963b3cccd034","system_id":"levelo_inurba_marseille","lat":43.296129,"lon":5.370777,"is_reserved":false,"is_disabled":false,"rental_uris":{"android":"levelo://app?vid=b306a77a-ec90-4f87-bfaf-963b3cccd034","ios":"levelo://app?vid=b306a77a-ec90-4f87-bfaf-963b3cccd034"},"vehicle_type_id":"4","last_reported":1685023595,"current_range_meters":24800,"station_id":"ce4bgnh2rcd13ifvqc0g","pricing_plan_id":"free"},{"bike_id":"848e8dc3-aaff-45b3-a6a8-7611a32dac89","system_id":"levelo_inurba_marseille","lat":43.296131,"lon":5.370791,"is_reserved":false,"is_disabled":false,"rental_uris":{"android":"levelo://app?vid=848e8dc3-aaff-45b3-a6a8-7611a32dac89","ios":"levelo://app?vid=848e8dc3-aaff-45b3-a6a8-7611a32dac89"},"vehicle_type_id":"4","last_reported":1685023595,"current_range_meters":31600,"station_id":"ce4bgnh2rcd13ifvqc0g","pricing_plan_id":"free"},{"bike_id":"c1deb0c2-b281-40c1-9849-5cc7814987e5","system_id":"levelo_inurba_marseille","lat":43.296131,"lon":5.370773,"is_reserved":false,"is_disabled":false,"rental_uris":{"android":"levelo://app?vid=c1deb0c2-b281-40c1-9849-5cc7814987e5","ios":"levelo://app?vid=c1deb0c2-b281-40c1-9849-5cc7814987e5"},"vehicle_type_id":"4","last_reported":1685023595,"current_range_meters":31600,"station_id":"ce4bgnh2rcd13ifvqc0g","pricing_plan_id":"free"},{"bike_id":"8d2a68ab-a795-457d-8046-b1268d68d348","system_id":"levelo_inurba_marseille","lat":43.296131,"lon":5.370791,"is_reserved":false,"is_disabled":false,"rental_uris":{"android":"levelo://app?vid=8d2a68ab-a795-457d-8046-b1268d68d348","ios":"levelo://app?vid=8d2a68ab-a795-457d-8046-b1268d68d348"},"vehicle_type_id":"4","last_reported":1685023595,"current_range_meters":30000,"station_id":"ce4bgnh2rcd13ifvqc0g","pricing_plan_id":"free"},{"bike_id":"a9a45203-b76a-409c-bc97-881f123325d2","system_id":"levelo_inurba_marseille","lat":43.296129,"lon":5.370777,"is_reserved":false,"is_disabled":false,"rental_uris":{"android":"levelo://app?vid=a9a45203-b76a-409c-bc97-881f123325d2","ios":"levelo://app?vid=a9a45203-b76a-409c-bc97-881f123325d2"},"vehicle_type_id":"4","last_reported":1685023595,"current_range_meters":19200,"station_id":"ce4bgnh2rcd13ifvqc0g","pricing_plan_id":"free"},{"bike_id":"ab3d2a27-8557-4913-b72d-52cd747a45fe","system_id":"levelo_inurba_marseille","lat":43.296129,"lon":5.370777,"is_reserved":false,"is_disabled":false,"rental_uris":{"android":"levelo://app?vid=ab3d2a27-8557-4913-b72d-52cd747a45fe","ios":"levelo://app?vid=ab3d2a27-8557-4913-b72d-52cd747a45fe"},"vehicle_type_id":"4","last_reported":1685023595,"current_range_meters":23200,"station_id":"ce4bgnh2rcd13ifvqc0g","pricing_plan_id":"free"},{"bike_id":"560fb9aa-f551-4b4b-a2e0-cd6add8ef0de","system_id":"levelo_inurba_marseille","lat":43.296131,"lon":5.370791,"is_reserved":false,"is_disabled":false,"rental_uris":{"android":"levelo://app?vid=560fb9aa-f551-4b4b-a2e0-cd6add8ef0de","ios":"levelo://app?vid=560fb9aa-f551-4b4b-a2e0-cd6add8ef0de"},"vehicle_type_id":"4","last_reported":1685023595,"current_range_meters":29200,"station_id":"ce4bgnh2rcd13ifvqc0g","pricing_plan_id":"free"},{"bike_id":"585a17db-e1ac-48ba-ae06-39ee105c2f04","system_id":"levelo_inurba_marseille","lat":43.296131,"lon":5.370791,"is_reserved":false,"is_disabled":false,"rental_uris":{"android":"levelo://app?vid=585a17db-e1ac-48ba-ae06-39ee105c2f04","ios":"levelo://app?vid=585a17db-e1ac-48ba-ae06-39ee105c2f04"},"vehicle_type_id":"4","last_reported":1685023595,"current_range_meters":30000,"station_id":"ce4bgnh2rcd13ifvqc0g","pricing_plan_id":"free"},{"bike_id":"4ac5b4a2-ef8b-4285-bd1a-5fe47af2af52","system_id":"levelo_inurba_marseille","lat":43.29573,"lon":5.367355,"is_reserved":false,"is_disabled":false,"rental_uris":{"android":"levelo://app?vid=4ac5b4a2-ef8b-4285-bd1a-5fe47af2af52","ios":"levelo://app?vid=4ac5b4a2-ef8b-4285-bd1a-5fe47af2af52"},"vehicle_type_id":"4","last_reported":1685023595,"current_range_meters":31600,"station_id":"ce4bgph2rcd13ifvqc2g","pricing_plan_id":"free"},{"bike_id":"caa3d85c-a14d-4dc8-bfeb-117847fbe8b3","system_id":"levelo_inurba_marseille","lat":43.2974,"lon":5.37685,"is_reserved":false,"is_disabled":false,"rental_uris":{"android":"levelo://app?vid=caa3d85c-a14d-4dc8-bfeb-117847fbe8b3","ios":"levelo://app?vid=caa3d85c-a14d-4dc8-bfeb-117847fbe8b3"},"vehicle_type_id":"4","last_reported":1685023595,"current_range_meters":27600,"station_id":"ce4bgkh2rcd13ifvqbl0","pricing_plan_id":"free"},{"bike_id":"7187ccfd-8c7a-4cc5-91e7-248a68a678e4","system_id":"levelo_inurba_marseille","lat":43.31672,"lon":5.38963,"is_reserved":false,"is_disabled":false,"rental_uris":{"android":"levelo://app?vid=7187ccfd-8c7a-4cc5-91e7-248a68a678e4","ios":"levelo://app?vid=7187ccfd-8c7a-4cc5-91e7-248a68a678e4"},"vehicle_type_id":"4","last_reported":1685023595,"current_range_meters":1200,"station_id":"","pricing_plan_id":"free"},{"bike_id":"3b23bdcf-fd76-4624-8d70-83bdb848cd2b","system_id":"levelo_inurba_marseille","lat":43.296935,"lon":5.376544,"is_reserved":false,"is_disabled":false,"rental_uris":{"android":"levelo://app?vid=3b23bdcf-fd76-4624-8d70-83bdb848cd2b","ios":"levelo://app?vid=3b23bdcf-fd76-4624-8d70-83bdb848cd2b"},"vehicle_type_id":"4","last_reported":1685023595,"current_range_meters":13200,"station_id":"ce4bgkh2rcd13ifvqbl0","pricing_plan_id":"free"},{"bike_id":"690ac8ea-330d-43a7-b79c-44b17b5edd5c","system_id":"levelo_inurba_marseille","lat":43.296921,"lon":5.376579,"is_reserved":false,"is_disabled":false,"rental_uris":{"android":"levelo://app?vid=690ac8ea-330d-43a7-b79c-44b17b5edd5c","ios":"levelo://app?vid=690ac8ea-330d-43a7-b79c-44b17b5edd5c"},"vehicle_type_id":"4","last_reported":1685023595,"current_range_meters":2800,"station_id":"ce4bgkh2rcd13ifvqbl0","pricing_plan_id":"free"},{"bike_id":"dafd89e3-aa2b-443f-a9dd-b67257362b3a","system_id":"levelo_inurba_marseille","lat":43.309589,"lon":5.390258,"is_reserved":false,"is_disabled":false,"rental_uris":{"android":"levelo://app?vid=dafd89e3-aa2b-443f-a9dd-b67257362b3a","ios":"levelo://app?vid=dafd89e3-aa2b-443f-a9dd-b67257362b3a"},"vehicle_type_id":"4","last_reported":1685023595,"current_range_meters":13600,"station_id":"ce4bgup2rcd13ifvqco0","pricing_plan_id":"free"},{"bike_id":"3fa6f2ef-a688-42ed-845b-3e8f47c1aae7","system_id":"levelo_inurba_marseille","lat":43.309589,"lon":5.390258,"is_reserved":false,"is_disabled":false,"rental_uris":{"android":"levelo://app?vid=3fa6f2ef-a688-42ed-845b-3e8f47c1aae7","ios":"levelo://app?vid=3fa6f2ef-a688-42ed-845b-3e8f47c1aae7"},"vehicle_type_id":"4","last_reported":1685023595,"current_range_meters":31600,"station_id":"ce4bgup2rcd13ifvqco0","pricing_plan_id":"free"},{"bike_id":"62daeab9-03ea-4e03-aa2c-9028257d2325","system_id":"levelo_inurba_marseille","lat":43.309589,"lon":5.390258,"is_reserved":false,"is_disabled":false,"rental_uris":{"android":"levelo://app?vid=62daeab9-03ea-4e03-aa2c-9028257d2325","ios":"levelo://app?vid=62daeab9-03ea-4e03-aa2c-9028257d2325"},"vehicle_type_id":"4","last_reported":1685023595,"current_range_meters":30000,"station_id":"ce4bgup2rcd13ifvqco0","pricing_plan_id":"free"},{"bike_id":"601df83d-b775-4975-9931-820801a2c0ee","system_id":"levelo_inurba_marseille","lat":43.309589,"lon":5.390258,"is_reserved":false,"is_disabled":false,"rental_uris":{"android":"levelo://app?vid=601df83d-b775-4975-9931-820801a2c0ee","ios":"levelo://app?vid=601df83d-b775-4975-9931-820801a2c0ee"},"vehicle_type_id":"4","last_reported":1685023595,"current_range_meters":24000,"station_id":"ce4bgup2rcd13ifvqco0","pricing_plan_id":"free"},{"bike_id":"a8c41122-c6ff-47b3-847d-f3739c8b7fcd","system_id":"levelo_inurba_marseille","lat":43.3095,"lon":5.39033,"is_reserved":false,"is_disabled":false,"rental_uris":{"android":"levelo://app?vid=a8c41122-c6ff-47b3-847d-f3739c8b7fcd","ios":"levelo://app?vid=a8c41122-c6ff-47b3-847d-f3739c8b7fcd"},"vehicle_type_id":"4","last_reported":1685023595,"current_range_meters":4400,"station_id":"ce4bgup2rcd13ifvqco0","pricing_plan_id":"free"},{"bike_id":"0d9f3358-c10d-40b6-917b-b79621359bb9","system_id":"levelo_inurba_marseille","lat":43.309589,"lon":5.390258,"is_reserved":false,"is_disabled":false,"rental_uris":{"android":"levelo://app?vid=0d9f3358-c10d-40b6-917b-b79621359bb9","ios":"levelo://app?vid=0d9f3358-c10d-40b6-917b-b79621359bb9"},"vehicle_type_id":"4","last_reported":1685023595,"current_range_meters":30400,"station_id":"ce4bgup2rcd13ifvqco0","pricing_plan_id":"free"},{"bike_id":"7536048a-8120-4c15-90e6-bce81906500a","system_id":"levelo_inurba_marseille","lat":43.30954,"lon":5.39036,"is_reserved":false,"is_disabled":false,"rental_uris":{"android":"levelo://app?vid=7536048a-8120-4c15-90e6-bce81906500a","ios":"levelo://app?vid=7536048a-8120-4c15-90e6-bce81906500a"},"vehicle_type_id":"4","last_reported":1685023595,"current_range_meters":26000,"station_id":"ce4bgup2rcd13ifvqco0","pricing_plan_id":"free"},{"bike_id":"1205a9ce-5dcc-4264-b49f-791a323a3889","system_id":"levelo_inurba_marseille","lat":43.30953,"lon":5.39037,"is_reserved":false,"is_disabled":false,"rental_uris":{"android":"levelo://app?vid=1205a9ce-5dcc-4264-b49f-791a323a3889","ios":"levelo://app?vid=1205a9ce-5dcc-4264-b49f-791a323a3889"},"vehicle_type_id":"4","last_reported":1685023595,"current_range_meters":22000,"station_id":"ce4bgup2rcd13ifvqco0","pricing_plan_id":"free"},{"bike_id":"b4e10166-47d2-4221-91d4-cf70fe2dea0d","system_id":"levelo_inurba_marseille","lat":43.309589,"lon":5.390258,"is_reserved":false,"is_disabled":false,"rental_uris":{"android":"levelo://app?vid=b4e10166-47d2-4221-91d4-cf70fe2dea0d","ios":"levelo://app?vid=b4e10166-47d2-4221-91d4-cf70fe2dea0d"},"vehicle_type_id":"4","last_reported":1685023595,"current_range_meters":28400,"station_id":"ce4bgup2rcd13ifvqco0","pricing_plan_id":"free"},{"bike_id":"6c811dda-8ade-4eac-a585-d7bb833bc0c1","system_id":"levelo_inurba_marseille","lat":43.309589,"lon":5.390258,"is_reserved":false,"is_disabled":false,"rental_uris":{"android":"levelo://app?vid=6c811dda-8ade-4eac-a585-d7bb833bc0c1","ios":"levelo://app?vid=6c811dda-8ade-4eac-a585-d7bb833bc0c1"},"vehicle_type_id":"4","last_reported":1685023595,"current_range_meters":31600,"station_id":"ce4bgup2rcd13ifvqco0","pricing_plan_id":"free"},{"bike_id":"900b6f57-26f5-484f-889f-9847d60c517f","system_id":"levelo_inurba_marseille","lat":43.309589,"lon":5.390258,"is_reserved":false,"is_disabled":false,"rental_uris":{"android":"levelo://app?vid=900b6f57-26f5-484f-889f-9847d60c517f","ios":"levelo://app?vid=900b6f57-26f5-484f-889f-9847d60c517f"},"vehicle_type_id":"4","last_reported":1685023595,"current_range_meters":31600,"station_id":"ce4bgup2rcd13ifvqco0","pricing_plan_id":"free"},{"bike_id":"b78daf6b-abee-4438-ab54-98e9e135fc37","system_id":"levelo_inurba_marseille","lat":43.30956,"lon":5.39039,"is_reserved":false,"is_disabled":false,"rental_uris":{"android":"levelo://app?vid=b78daf6b-abee-4438-ab54-98e9e135fc37","ios":"levelo://app?vid=b78daf6b-abee-4438-ab54-98e9e135fc37"},"vehicle_type_id":"4","last_reported":1685023595,"current_range_meters":28400,"station_id":"ce4bgup2rcd13ifvqco0","pricing_plan_id":"free"},{"bike_id":"517c7d4f-fd33-4081-9a0c-3a439801ed6c","system_id":"levelo_inurba_marseille","lat":43.309589,"lon":5.390258,"is_reserved":false,"is_disabled":false,"rental_uris":{"android":"levelo://app?vid=517c7d4f-fd33-4081-9a0c-3a439801ed6c","ios":"levelo://app?vid=517c7d4f-fd33-4081-9a0c-3a439801ed6c"},"vehicle_type_id":"4","last_reported":1685023595,"current_range_meters":32000,"station_id":"ce4bgup2rcd13ifvqco0","pricing_plan_id":"free"},{"bike_id":"428323dc-8645-43b5-b29f-308454fd9794","system_id":"levelo_inurba_marseille","lat":43.309589,"lon":5.390258,"is_reserved":false,"is_disabled":false,"rental_uris":{"android":"levelo://app?vid=428323dc-8645-43b5-b29f-308454fd9794","ios":"levelo://app?vid=428323dc-8645-43b5-b29f-308454fd9794"},"vehicle_type_id":"4","last_reported":1685023595,"current_range_meters":31600,"station_id":"ce4bgup2rcd13ifvqco0","pricing_plan_id":"free"},{"bike_id":"9e4d1865-ecb4-42ea-b0ed-9a47b7b6efd0","system_id":"levelo_inurba_marseille","lat":43.309589,"lon":5.390258,"is_reserved":false,"is_disabled":false,"rental_uris":{"android":"levelo://app?vid=9e4d1865-ecb4-42ea-b0ed-9a47b7b6efd0","ios":"levelo://app?vid=9e4d1865-ecb4-42ea-b0ed-9a47b7b6efd0"},"vehicle_type_id":"4","last_reported":1685023595,"current_range_meters":29600,"station_id":"ce4bgup2rcd13ifvqco0","pricing_plan_id":"free"},{"bike_id":"26065bd1-de86-4cfb-a35a-5c6a5f1676ff","system_id":"levelo_inurba_marseille","lat":43.309589,"lon":5.390258,"is_reserved":false,"is_disabled":false,"rental_uris":{"android":"levelo://app?vid=26065bd1-de86-4cfb-a35a-5c6a5f1676ff","ios":"levelo://app?vid=26065bd1-de86-4cfb-a35a-5c6a5f1676ff"},"vehicle_type_id":"4","last_reported":1685023595,"current_range_meters":30400,"station_id":"ce4bgup2rcd13ifvqco0","pricing_plan_id":"free"},{"bike_id":"f157929a-a9ac-43d0-aaf0-f69de9666196","system_id":"levelo_inurba_marseille","lat":43.309589,"lon":5.390258,"is_reserved":false,"is_disabled":false,"rental_uris":{"android":"levelo://app?vid=f157929a-a9ac-43d0-aaf0-f69de9666196","ios":"levelo://app?vid=f157929a-a9ac-43d0-aaf0-f69de9666196"},"vehicle_type_id":"4","last_reported":1685023595,"current_range_meters":28000,"station_id":"ce4bgup2rcd13ifvqco0","pricing_plan_id":"free"},{"bike_id":"287364c3-4106-492d-80f0-1e1e0131f7ce","system_id":"levelo_inurba_marseille","lat":43.30953,"lon":5.39045,"is_reserved":false,"is_disabled":false,"rental_uris":{"android":"levelo://app?vid=287364c3-4106-492d-80f0-1e1e0131f7ce","ios":"levelo://app?vid=287364c3-4106-492d-80f0-1e1e0131f7ce"},"vehicle_type_id":"4","last_reported":1685023595,"current_range_meters":31200,"station_id":"ce4bgup2rcd13ifvqco0","pricing_plan_id":"free"},{"bike_id":"05768691-4442-410e-9202-7ecc6291b9a1","system_id":"levelo_inurba_marseille","lat":43.30951,"lon":5.39047,"is_reserved":false,"is_disabled":false,"rental_uris":{"android":"levelo://app?vid=05768691-4442-410e-9202-7ecc6291b9a1","ios":"levelo://app?vid=05768691-4442-410e-9202-7ecc6291b9a1"},"vehicle_type_id":"4","last_reported":1685023595,"current_range_meters":21600,"station_id":"ce4bgup2rcd13ifvqco0","pricing_plan_id":"free"},{"bike_id":"6267e579-54de-47b6-8684-06386f4d5691","system_id":"levelo_inurba_marseille","lat":43.317557,"lon":5.390173,"is_reserved":false,"is_disabled":false,"rental_uris":{"android":"levelo://app?vid=6267e579-54de-47b6-8684-06386f4d5691","ios":"levelo://app?vid=6267e579-54de-47b6-8684-06386f4d5691"},"vehicle_type_id":"4","last_reported":1685023595,"current_range_meters":0,"station_id":"ce4bhqp2rcd13ifvqhng","pricing_plan_id":"free"},{"bike_id":"b01f2e96-afa0-4ebf-b0a2-0f7885c6eee3","system_id":"levelo_inurba_marseille","lat":43.317557,"lon":5.390173,"is_reserved":false,"is_disabled":false,"rental_uris":{"android":"levelo://app?vid=b01f2e96-afa0-4ebf-b0a2-0f7885c6eee3","ios":"levelo://app?vid=b01f2e96-afa0-4ebf-b0a2-0f7885c6eee3"},"vehicle_type_id":"4","last_reported":1685023595,"current_range_meters":26400,"station_id":"ce4bhqp2rcd13ifvqhng","pricing_plan_id":"free"},{"bike_id":"3ea96fc2-d402-4fa1-807c-19831e0a46a6","system_id":"levelo_inurba_marseille","lat":43.3043,"lon":5.3888,"is_reserved":false,"is_disabled":false,"rental_uris":{"android":"levelo://app?vid=3ea96fc2-d402-4fa1-807c-19831e0a46a6","ios":"levelo://app?vid=3ea96fc2-d402-4fa1-807c-19831e0a46a6"},"vehicle_type_id":"4","last_reported":1685023595,"current_range_meters":19200,"station_id":"ce4bgk12rcd13ifvqbi0","pricing_plan_id":"free"},{"bike_id":"b708adfe-d4ad-47ed-b888-dc18602b36a8","system_id":"levelo_inurba_marseille","lat":43.295748,"lon":5.37522,"is_reserved":false,"is_disabled":false,"rental_uris":{"android":"levelo://app?vid=b708adfe-d4ad-47ed-b888-dc18602b36a8","ios":"levelo://app?vid=b708adfe-d4ad-47ed-b888-dc18602b36a8"},"vehicle_type_id":"4","last_reported":1685023595,"current_range_meters":28000,"station_id":"ce4bgh92rcd13ifvqb50","pricing_plan_id":"free"},{"bike_id":"1baa588c-a5a9-4636-93d3-c63fa076a5ad","system_id":"levelo_inurba_marseille","lat":43.30423,"lon":5.38885,"is_reserved":false,"is_disabled":false,"rental_uris":{"android":"levelo://app?vid=1baa588c-a5a9-4636-93d3-c63fa076a5ad","ios":"levelo://app?vid=1baa588c-a5a9-4636-93d3-c63fa076a5ad"},"vehicle_type_id":"4","last_reported":1685023595,"current_range_meters":19200,"station_id":"ce4bgk12rcd13ifvqbi0","pricing_plan_id":"free"},{"bike_id":"bcd8c961-05ab-4256-80e0-49df4978ecb5","system_id":"levelo_inurba_marseille","lat":43.298037,"lon":5.381066,"is_reserved":false,"is_disabled":false,"rental_uris":{"android":"levelo://app?vid=bcd8c961-05ab-4256-80e0-49df4978ecb5","ios":"levelo://app?vid=bcd8c961-05ab-4256-80e0-49df4978ecb5"},"vehicle_type_id":"4","last_reported":1685023595,"current_range_meters":28800,"station_id":"ce4bgip2rcd13ifvqbb0","pricing_plan_id":"free"},{"bike_id":"255a248a-3438-47b5-810c-4e43e6ca2a12","system_id":"levelo_inurba_marseille","lat":43.296277,"lon":5.377108,"is_reserved":false,"is_disabled":false,"rental_uris":{"android":"levelo://app?vid=255a248a-3438-47b5-810c-4e43e6ca2a12","ios":"levelo://app?vid=255a248a-3438-47b5-810c-4e43e6ca2a12"},"vehicle_type_id":"4","last_reported":1685023595,"current_range_meters":20400,"station_id":"ce4bgi92rcd13ifvqb90","pricing_plan_id":"free"},{"bike_id":"acf63df0-7791-445f-a9fb-84ae2a804075","system_id":"levelo_inurba_marseille","lat":43.299707,"lon":5.384859,"is_reserved":false,"is_disabled":false,"rental_uris":{"android":"levelo://app?vid=acf63df0-7791-445f-a9fb-84ae2a804075","ios":"levelo://app?vid=acf63df0-7791-445f-a9fb-84ae2a804075"},"vehicle_type_id":"4","last_reported":1685023595,"current_range_meters":28000,"station_id":"ce4bgj92rcd13ifvqbd0","pricing_plan_id":"free"},{"bike_id":"5f0e2c2c-935c-4607-aa76-4ee90af6cb87","system_id":"levelo_inurba_marseille","lat":43.29975,"lon":5.38491,"is_reserved":false,"is_disabled":false,"rental_uris":{"android":"levelo://app?vid=5f0e2c2c-935c-4607-aa76-4ee90af6cb87","ios":"levelo://app?vid=5f0e2c2c-935c-4607-aa76-4ee90af6cb87"},"vehicle_type_id":"4","last_reported":1685023595,"current_range_meters":29600,"station_id":"ce4bgj92rcd13ifvqbd0","pricing_plan_id":"free"},{"bike_id":"9639d62b-9173-4efd-8d1e-777851e467fd","system_id":"levelo_inurba_marseille","lat":43.299724,"lon":5.384848,"is_reserved":false,"is_disabled":false,"rental_uris":{"android":"levelo://app?vid=9639d62b-9173-4efd-8d1e-777851e467fd","ios":"levelo://app?vid=9639d62b-9173-4efd-8d1e-777851e467fd"},"vehicle_type_id":"4","last_reported":1685023595,"current_range_meters":10400,"station_id":"ce4bgj92rcd13ifvqbd0","pricing_plan_id":"free"},{"bike_id":"55e67315-282e-4abf-b236-515194c93842","system_id":"levelo_inurba_marseille","lat":43.304274,"lon":5.388873,"is_reserved":false,"is_disabled":false,"rental_uris":{"android":"levelo://app?vid=55e67315-282e-4abf-b236-515194c93842","ios":"levelo://app?vid=55e67315-282e-4abf-b236-515194c93842"},"vehicle_type_id":"4","last_reported":1685023595,"current_range_meters":26400,"station_id":"ce4bgk12rcd13ifvqbi0","pricing_plan_id":"free"},{"bike_id":"3f5be396-e893-4f97-a9c0-48f17a82fb11","system_id":"levelo_inurba_marseille","lat":43.32367,"lon":5.388836,"is_reserved":false,"is_disabled":false,"rental_uris":{"android":"levelo://app?vid=3f5be396-e893-4f97-a9c0-48f17a82fb11","ios":"levelo://app?vid=3f5be396-e893-4f97-a9c0-48f17a82fb11"},"vehicle_type_id":"4","last_reported":1685023595,"current_range_meters":28800,"station_id":"ce4bhqp2rcd13ifvqhog","pricing_plan_id":"free"},{"bike_id":"b842a883-baab-4aaa-9c22-726d37235f77","system_id":"levelo_inurba_marseille","lat":43.32367,"lon":5.388836,"is_reserved":false,"is_disabled":false,"rental_uris":{"android":"levelo://app?vid=b842a883-baab-4aaa-9c22-726d37235f77","ios":"levelo://app?vid=b842a883-baab-4aaa-9c22-726d37235f77"},"vehicle_type_id":"4","last_reported":1685023595,"current_range_meters":31200,"station_id":"ce4bhqp2rcd13ifvqhog","pricing_plan_id":"free"},{"bike_id":"f4e460fc-0a1c-43a8-ab7a-6446a09df7d0","system_id":"levelo_inurba_marseille","lat":43.32367,"lon":5.388836,"is_reserved":false,"is_disabled":false,"rental_uris":{"android":"levelo://app?vid=f4e460fc-0a1c-43a8-ab7a-6446a09df7d0","ios":"levelo://app?vid=f4e460fc-0a1c-43a8-ab7a-6446a09df7d0"},"vehicle_type_id":"4","last_reported":1685023595,"current_range_meters":0,"station_id":"ce4bhqp2rcd13ifvqhog","pricing_plan_id":"free"},{"bike_id":"eb919dee-7924-4349-b9ec-b54f7f96aefd","system_id":"levelo_inurba_marseille","lat":43.32367,"lon":5.388836,"is_reserved":false,"is_disabled":false,"rental_uris":{"android":"levelo://app?vid=eb919dee-7924-4349-b9ec-b54f7f96aefd","ios":"levelo://app?vid=eb919dee-7924-4349-b9ec-b54f7f96aefd"},"vehicle_type_id":"4","last_reported":1685023595,"current_range_meters":23600,"station_id":"ce4bhqp2rcd13ifvqhog","pricing_plan_id":"free"},{"bike_id":"3f245026-7545-4924-a951-14be0bedc89e","system_id":"levelo_inurba_marseille","lat":43.31297,"lon":5.39364,"is_reserved":false,"is_disabled":false,"rental_uris":{"android":"levelo://app?vid=3f245026-7545-4924-a951-14be0bedc89e","ios":"levelo://app?vid=3f245026-7545-4924-a951-14be0bedc89e"},"vehicle_type_id":"4","last_reported":1685023595,"current_range_meters":1600,"station_id":"","pricing_plan_id":"free"},{"bike_id":"ca2c75f7-351c-498d-b0e1-f09e00036371","system_id":"levelo_inurba_marseille","lat":43.293249,"lon":5.371578,"is_reserved":false,"is_disabled":false,"rental_uris":{"android":"levelo://app?vid=ca2c75f7-351c-498d-b0e1-f09e00036371","ios":"levelo://app?vid=ca2c75f7-351c-498d-b0e1-f09e00036371"},"vehicle_type_id":"4","last_reported":1685023595,"current_range_meters":25200,"station_id":"ce4bgh92rcd13ifvqb40","pricing_plan_id":"free"},{"bike_id":"902d47fe-e37b-423e-99bb-eb73c3fb8832","system_id":"levelo_inurba_marseille","lat":43.29269,"lon":5.36843,"is_reserved":false,"is_disabled":false,"rental_uris":{"android":"levelo://app?vid=902d47fe-e37b-423e-99bb-eb73c3fb8832","ios":"levelo://app?vid=902d47fe-e37b-423e-99bb-eb73c3fb8832"},"vehicle_type_id":"4","last_reported":1685023595,"current_range_meters":26800,"station_id":"ce4bhbp2rcd13ifvqesg","pricing_plan_id":"free"},{"bike_id":"d729998c-5625-47ca-a6a0-eab34370556c","system_id":"levelo_inurba_marseille","lat":43.2936,"lon":5.37835,"is_reserved":false,"is_disabled":false,"rental_uris":{"android":"levelo://app?vid=d729998c-5625-47ca-a6a0-eab34370556c","ios":"levelo://app?vid=d729998c-5625-47ca-a6a0-eab34370556c"},"vehicle_type_id":"4","last_reported":1685023595,"current_range_meters":31600,"station_id":"ce4bgjh2rcd13ifvqbf0","pricing_plan_id":"free"},{"bike_id":"54955ef8-b762-40cb-a217-537a18b25a2c","system_id":"levelo_inurba_marseille","lat":43.29375,"lon":5.37844,"is_reserved":false,"is_disabled":false,"rental_uris":{"android":"levelo://app?vid=54955ef8-b762-40cb-a217-537a18b25a2c","ios":"levelo://app?vid=54955ef8-b762-40cb-a217-537a18b25a2c"},"vehicle_type_id":"4","last_reported":1685023595,"current_range_meters":8400,"station_id":"ce4bgjh2rcd13ifvqbf0","pricing_plan_id":"free"},{"bike_id":"9fe7649a-8349-4c58-8820-1cd677c0d594","system_id":"levelo_inurba_marseille","lat":43.2936,"lon":5.37835,"is_reserved":false,"is_disabled":false,"rental_uris":{"android":"levelo://app?vid=9fe7649a-8349-4c58-8820-1cd677c0d594","ios":"levelo://app?vid=9fe7649a-8349-4c58-8820-1cd677c0d594"},"vehicle_type_id":"4","last_reported":1685023595,"current_range_meters":16800,"station_id":"ce4bgjh2rcd13ifvqbf0","pricing_plan_id":"free"},{"bike_id":"3c01d05a-22e2-4824-b9cd-43d553a95469","system_id":"levelo_inurba_marseille","lat":43.302992,"lon":5.392136,"is_reserved":false,"is_disabled":false,"rental_uris":{"android":"levelo://app?vid=3c01d05a-22e2-4824-b9cd-43d553a95469","ios":"levelo://app?vid=3c01d05a-22e2-4824-b9cd-43d553a95469"},"vehicle_type_id":"4","last_reported":1685023595,"current_range_meters":25200,"station_id":"ce4bgkh2rcd13ifvqbk0","pricing_plan_id":"free"},{"bike_id":"7791cd60-0e1f-4e28-969c-e7b9573c8486","system_id":"levelo_inurba_marseille","lat":43.29366,"lon":5.37839,"is_reserved":false,"is_disabled":false,"rental_uris":{"android":"levelo://app?vid=7791cd60-0e1f-4e28-969c-e7b9573c8486","ios":"levelo://app?vid=7791cd60-0e1f-4e28-969c-e7b9573c8486"},"vehicle_type_id":"4","last_reported":1685023595,"current_range_meters":19200,"station_id":"ce4bgjh2rcd13ifvqbf0","pricing_plan_id":"free"},{"bike_id":"bd08f4b9-2b2f-4666-a119-f43f84c07617","system_id":"levelo_inurba_marseille","lat":43.2936,"lon":5.37835,"is_reserved":false,"is_disabled":false,"rental_uris":{"android":"levelo://app?vid=bd08f4b9-2b2f-4666-a119-f43f84c07617","ios":"levelo://app?vid=bd08f4b9-2b2f-4666-a119-f43f84c07617"},"vehicle_type_id":"4","last_reported":1685023595,"current_range_meters":16800,"station_id":"ce4bgjh2rcd13ifvqbf0","pricing_plan_id":"free"},{"bike_id":"c7c7f819-f196-43ce-9356-6bf838b2caff","system_id":"levelo_inurba_marseille","lat":43.313291,"lon":5.396838,"is_reserved":false,"is_disabled":false,"rental_uris":{"android":"levelo://app?vid=c7c7f819-f196-43ce-9356-6bf838b2caff","ios":"levelo://app?vid=c7c7f819-f196-43ce-9356-6bf838b2caff"},"vehicle_type_id":"4","last_reported":1685023595,"current_range_meters":21200,"station_id":"ce4bgvp2rcd13ifvqcu0","pricing_plan_id":"free"},{"bike_id":"9c558f72-97c1-490e-807e-6ce8eb942744","system_id":"levelo_inurba_marseille","lat":43.292311,"lon":5.360731,"is_reserved":false,"is_disabled":false,"rental_uris":{"android":"levelo://app?vid=9c558f72-97c1-490e-807e-6ce8eb942744","ios":"levelo://app?vid=9c558f72-97c1-490e-807e-6ce8eb942744"},"vehicle_type_id":"4","last_reported":1685023595,"current_range_meters":6800,"station_id":"ce4bhbh2rcd13ifvqeqg","pricing_plan_id":"free"},{"bike_id":"0234071f-fcb9-40c7-a9a5-9b33030cd1f3","system_id":"levelo_inurba_marseille","lat":43.30085,"lon":5.390856,"is_reserved":false,"is_disabled":false,"rental_uris":{"android":"levelo://app?vid=0234071f-fcb9-40c7-a9a5-9b33030cd1f3","ios":"levelo://app?vid=0234071f-fcb9-40c7-a9a5-9b33030cd1f3"},"vehicle_type_id":"4","last_reported":1685023595,"current_range_meters":18400,"station_id":"ce4bh192rcd13ifvqdb0","pricing_plan_id":"free"},{"bike_id":"172f44c2-d33c-40ad-b53d-211c13abba25","system_id":"levelo_inurba_marseille","lat":43.28856,"lon":5.358371,"is_reserved":false,"is_disabled":false,"rental_uris":{"android":"levelo://app?vid=172f44c2-d33c-40ad-b53d-211c13abba25","ios":"levelo://app?vid=172f44c2-d33c-40ad-b53d-211c13abba25"},"vehicle_type_id":"4","last_reported":1685023595,"current_range_meters":24800,"station_id":"ce4bhb12rcd13ifvqem0","pricing_plan_id":"free"},{"bike_id":"d399ee4f-144e-47d7-9cec-5c6e7f55e9bc","system_id":"levelo_inurba_marseille","lat":43.292663,"lon":5.376389,"is_reserved":false,"is_disabled":false,"rental_uris":{"android":"levelo://app?vid=d399ee4f-144e-47d7-9cec-5c6e7f55e9bc","ios":"levelo://app?vid=d399ee4f-144e-47d7-9cec-5c6e7f55e9bc"},"vehicle_type_id":"4","last_reported":1685023595,"current_range_meters":26400,"station_id":"ce4bgi12rcd13ifvqb80","pricing_plan_id":"free"},{"bike_id":"84caceda-d192-40fe-90d2-52faaacd3984","system_id":"levelo_inurba_marseille","lat":43.291675,"lon":5.371583,"is_reserved":false,"is_disabled":false,"rental_uris":{"android":"levelo://app?vid=84caceda-d192-40fe-90d2-52faaacd3984","ios":"levelo://app?vid=84caceda-d192-40fe-90d2-52faaacd3984"},"vehicle_type_id":"4","last_reported":1685023595,"current_range_meters":25200,"station_id":"ce4bha92rcd13ifvqeh0","pricing_plan_id":"free"},{"bike_id":"355269ca-c866-4dbb-94ea-806d69a0a6b7","system_id":"levelo_inurba_marseille","lat":43.298764,"lon":5.388973,"is_reserved":false,"is_disabled":false,"rental_uris":{"android":"levelo://app?vid=355269ca-c866-4dbb-94ea-806d69a0a6b7","ios":"levelo://app?vid=355269ca-c866-4dbb-94ea-806d69a0a6b7"},"vehicle_type_id":"4","last_reported":1685023595,"current_range_meters":21600,"station_id":"ce4bh392rcd13ifvqdl0","pricing_plan_id":"free"},{"bike_id":"3ac8af72-e888-41fc-9d20-5b3ce0df1329","system_id":"levelo_inurba_marseille","lat":43.30891,"lon":5.39629,"is_reserved":false,"is_disabled":false,"rental_uris":{"android":"levelo://app?vid=3ac8af72-e888-41fc-9d20-5b3ce0df1329","ios":"levelo://app?vid=3ac8af72-e888-41fc-9d20-5b3ce0df1329"},"vehicle_type_id":"4","last_reported":1685023595,"current_range_meters":31200,"station_id":"ce4bh012rcd13ifvqcv0","pricing_plan_id":"free"},{"bike_id":"c937aa2c-6bb3-4485-9f4a-93f044777dc5","system_id":"levelo_inurba_marseille","lat":43.31329,"lon":5.39679,"is_reserved":false,"is_disabled":false,"rental_uris":{"android":"levelo://app?vid=c937aa2c-6bb3-4485-9f4a-93f044777dc5","ios":"levelo://app?vid=c937aa2c-6bb3-4485-9f4a-93f044777dc5"},"vehicle_type_id":"4","last_reported":1685023595,"current_range_meters":31200,"station_id":"ce4bgvp2rcd13ifvqcu0","pricing_plan_id":"free"},{"bike_id":"14f608d8-753a-4e2e-a14b-5aff665211cf","system_id":"levelo_inurba_marseille","lat":43.313291,"lon":5.396838,"is_reserved":false,"is_disabled":false,"rental_uris":{"android":"levelo://app?vid=14f608d8-753a-4e2e-a14b-5aff665211cf","ios":"levelo://app?vid=14f608d8-753a-4e2e-a14b-5aff665211cf"},"vehicle_type_id":"4","last_reported":1685023595,"current_range_meters":30800,"station_id":"ce4bgvp2rcd13ifvqcu0","pricing_plan_id":"free"},{"bike_id":"4967a9b0-da3d-46f2-81fb-b778c1c005d4","system_id":"levelo_inurba_marseille","lat":43.313291,"lon":5.396838,"is_reserved":false,"is_disabled":false,"rental_uris":{"android":"levelo://app?vid=4967a9b0-da3d-46f2-81fb-b778c1c005d4","ios":"levelo://app?vid=4967a9b0-da3d-46f2-81fb-b778c1c005d4"},"vehicle_type_id":"4","last_reported":1685023595,"current_range_meters":29600,"station_id":"ce4bgvp2rcd13ifvqcu0","pricing_plan_id":"free"},{"bike_id":"014e24f9-6bba-49cf-a6df-b28e3a283dea","system_id":"levelo_inurba_marseille","lat":43.30882,"lon":5.3964,"is_reserved":false,"is_disabled":false,"rental_uris":{"android":"levelo://app?vid=014e24f9-6bba-49cf-a6df-b28e3a283dea","ios":"levelo://app?vid=014e24f9-6bba-49cf-a6df-b28e3a283dea"},"vehicle_type_id":"4","last_reported":1685023595,"current_range_meters":15200,"station_id":"","pricing_plan_id":"free"},{"bike_id":"4db145ed-c56f-4b2d-a98f-9cfa330565a6","system_id":"levelo_inurba_marseille","lat":43.313291,"lon":5.396838,"is_reserved":false,"is_disabled":false,"rental_uris":{"android":"levelo://app?vid=4db145ed-c56f-4b2d-a98f-9cfa330565a6","ios":"levelo://app?vid=4db145ed-c56f-4b2d-a98f-9cfa330565a6"},"vehicle_type_id":"4","last_reported":1685023595,"current_range_meters":31200,"station_id":"ce4bgvp2rcd13ifvqcu0","pricing_plan_id":"free"},{"bike_id":"1811c22a-0d37-4206-a3b7-e67cfdcd0912","system_id":"levelo_inurba_marseille","lat":43.3133,"lon":5.39689,"is_reserved":false,"is_disabled":false,"rental_uris":{"android":"levelo://app?vid=1811c22a-0d37-4206-a3b7-e67cfdcd0912","ios":"levelo://app?vid=1811c22a-0d37-4206-a3b7-e67cfdcd0912"},"vehicle_type_id":"4","last_reported":1685023595,"current_range_meters":31200,"station_id":"ce4bgvp2rcd13ifvqcu0","pricing_plan_id":"free"},{"bike_id":"31d189ad-8339-485f-8dce-9367a2fc481b","system_id":"levelo_inurba_marseille","lat":43.30889,"lon":5.39643,"is_reserved":false,"is_disabled":false,"rental_uris":{"android":"levelo://app?vid=31d189ad-8339-485f-8dce-9367a2fc481b","ios":"levelo://app?vid=31d189ad-8339-485f-8dce-9367a2fc481b"},"vehicle_type_id":"4","last_reported":1685023595,"current_range_meters":30400,"station_id":"ce4bh012rcd13ifvqcv0","pricing_plan_id":"free"},{"bike_id":"8628177d-3758-440b-adc7-76f36747ad1c","system_id":"levelo_inurba_marseille","lat":43.3088,"lon":5.39641,"is_reserved":false,"is_disabled":false,"rental_uris":{"android":"levelo://app?vid=8628177d-3758-440b-adc7-76f36747ad1c","ios":"levelo://app?vid=8628177d-3758-440b-adc7-76f36747ad1c"},"vehicle_type_id":"4","last_reported":1685023595,"current_range_meters":29600,"station_id":"","pricing_plan_id":"free"},{"bike_id":"3ffeb55d-9100-466b-938b-f3150f8e2412","system_id":"levelo_inurba_marseille","lat":43.313291,"lon":5.396838,"is_reserved":false,"is_disabled":false,"rental_uris":{"android":"levelo://app?vid=3ffeb55d-9100-466b-938b-f3150f8e2412","ios":"levelo://app?vid=3ffeb55d-9100-466b-938b-f3150f8e2412"},"vehicle_type_id":"4","last_reported":1685023595,"current_range_meters":31200,"station_id":"ce4bgvp2rcd13ifvqcu0","pricing_plan_id":"free"},{"bike_id":"a4ec70b9-896f-44e2-93bb-68aeba6936d3","system_id":"levelo_inurba_marseille","lat":43.30889,"lon":5.39644,"is_reserved":false,"is_disabled":false,"rental_uris":{"android":"levelo://app?vid=a4ec70b9-896f-44e2-93bb-68aeba6936d3","ios":"levelo://app?vid=a4ec70b9-896f-44e2-93bb-68aeba6936d3"},"vehicle_type_id":"4","last_reported":1685023595,"current_range_meters":31200,"station_id":"ce4bh012rcd13ifvqcv0","pricing_plan_id":"free"},{"bike_id":"26da6284-4e79-4ec8-a059-e6adbf47a57b","system_id":"levelo_inurba_marseille","lat":43.313291,"lon":5.396838,"is_reserved":false,"is_disabled":false,"rental_uris":{"android":"levelo://app?vid=26da6284-4e79-4ec8-a059-e6adbf47a57b","ios":"levelo://app?vid=26da6284-4e79-4ec8-a059-e6adbf47a57b"},"vehicle_type_id":"4","last_reported":1685023595,"current_range_meters":28000,"station_id":"ce4bgvp2rcd13ifvqcu0","pricing_plan_id":"free"},{"bike_id":"8344e5c1-f4db-45f1-bcb4-31122ce74860","system_id":"levelo_inurba_marseille","lat":43.31331,"lon":5.39692,"is_reserved":false,"is_disabled":false,"rental_uris":{"android":"levelo://app?vid=8344e5c1-f4db-45f1-bcb4-31122ce74860","ios":"levelo://app?vid=8344e5c1-f4db-45f1-bcb4-31122ce74860"},"vehicle_type_id":"4","last_reported":1685023595,"current_range_meters":26800,"station_id":"ce4bgvp2rcd13ifvqcu0","pricing_plan_id":"free"},{"bike_id":"2672ac12-4489-4faa-9202-cf9080d4db0b","system_id":"levelo_inurba_marseille","lat":43.313291,"lon":5.396838,"is_reserved":false,"is_disabled":false,"rental_uris":{"android":"levelo://app?vid=2672ac12-4489-4faa-9202-cf9080d4db0b","ios":"levelo://app?vid=2672ac12-4489-4faa-9202-cf9080d4db0b"},"vehicle_type_id":"4","last_reported":1685023595,"current_range_meters":22000,"station_id":"ce4bgvp2rcd13ifvqcu0","pricing_plan_id":"free"},{"bike_id":"6c67f493-e7c3-4081-b9db-bf7a1e826abd","system_id":"levelo_inurba_marseille","lat":43.3133,"lon":5.39693,"is_reserved":false,"is_disabled":false,"rental_uris":{"android":"levelo://app?vid=6c67f493-e7c3-4081-b9db-bf7a1e826abd","ios":"levelo://app?vid=6c67f493-e7c3-4081-b9db-bf7a1e826abd"},"vehicle_type_id":"4","last_reported":1685023595,"current_range_meters":31200,"station_id":"ce4bgvp2rcd13ifvqcu0","pricing_plan_id":"free"},{"bike_id":"c6e6e02c-dc44-4728-9e2c-a48dc35086fd","system_id":"levelo_inurba_marseille","lat":43.31331,"lon":5.39693,"is_reserved":false,"is_disabled":false,"rental_uris":{"android":"levelo://app?vid=c6e6e02c-dc44-4728-9e2c-a48dc35086fd","ios":"levelo://app?vid=c6e6e02c-dc44-4728-9e2c-a48dc35086fd"},"vehicle_type_id":"4","last_reported":1685023595,"current_range_meters":31200,"station_id":"ce4bgvp2rcd13ifvqcu0","pricing_plan_id":"free"},{"bike_id":"ce6dba37-9887-49c1-9106-bf1b39eb4f3e","system_id":"levelo_inurba_marseille","lat":43.3133,"lon":5.39695,"is_reserved":false,"is_disabled":false,"rental_uris":{"android":"levelo://app?vid=ce6dba37-9887-49c1-9106-bf1b39eb4f3e","ios":"levelo://app?vid=ce6dba37-9887-49c1-9106-bf1b39eb4f3e"},"vehicle_type_id":"4","last_reported":1685023595,"current_range_meters":31200,"station_id":"ce4bgvp2rcd13ifvqcu0","pricing_plan_id":"free"},{"bike_id":"af0a295c-ae19-42cb-b8db-a3036f91fbf0","system_id":"levelo_inurba_marseille","lat":43.29189,"lon":5.35792,"is_reserved":false,"is_disabled":false,"rental_uris":{"android":"levelo://app?vid=af0a295c-ae19-42cb-b8db-a3036f91fbf0","ios":"levelo://app?vid=af0a295c-ae19-42cb-b8db-a3036f91fbf0"},"vehicle_type_id":"4","last_reported":1685023595,"current_range_meters":0,"station_id":"ce4bhb12rcd13ifvqel0","pricing_plan_id":"free"},{"bike_id":"e02f95be-d3b8-4492-af7e-5c18369a125e","system_id":"levelo_inurba_marseille","lat":43.313291,"lon":5.396838,"is_reserved":false,"is_disabled":false,"rental_uris":{"android":"levelo://app?vid=e02f95be-d3b8-4492-af7e-5c18369a125e","ios":"levelo://app?vid=e02f95be-d3b8-4492-af7e-5c18369a125e"},"vehicle_type_id":"4","last_reported":1685023595,"current_range_meters":12400,"station_id":"ce4bgvp2rcd13ifvqcu0","pricing_plan_id":"free"},{"bike_id":"ec181cce-0c6c-4611-8d63-65ab32e9b274","system_id":"levelo_inurba_marseille","lat":43.30881,"lon":5.39649,"is_reserved":false,"is_disabled":false,"rental_uris":{"android":"levelo://app?vid=ec181cce-0c6c-4611-8d63-65ab32e9b274","ios":"levelo://app?vid=ec181cce-0c6c-4611-8d63-65ab32e9b274"},"vehicle_type_id":"4","last_reported":1685023595,"current_range_meters":31200,"station_id":"ce4bh012rcd13ifvqcv0","pricing_plan_id":"free"},{"bike_id":"269902bd-0baa-4898-a766-a302c95e81b6","system_id":"levelo_inurba_marseille","lat":43.308894,"lon":5.396583,"is_reserved":false,"is_disabled":false,"rental_uris":{"android":"levelo://app?vid=269902bd-0baa-4898-a766-a302c95e81b6","ios":"levelo://app?vid=269902bd-0baa-4898-a766-a302c95e81b6"},"vehicle_type_id":"4","last_reported":1685023595,"current_range_meters":19600,"station_id":"ce4bh012rcd13ifvqcv0","pricing_plan_id":"free"},{"bike_id":"e4ad82b7-7f58-4222-8f9e-7c512934523c","system_id":"levelo_inurba_marseille","lat":43.29529,"lon":5.385581,"is_reserved":false,"is_disabled":false,"rental_uris":{"android":"levelo://app?vid=e4ad82b7-7f58-4222-8f9e-7c512934523c","ios":"levelo://app?vid=e4ad82b7-7f58-4222-8f9e-7c512934523c"},"vehicle_type_id":"4","last_reported":1685023595,"current_range_meters":4800,"station_id":"ce4bgih2rcd13ifvqba0","pricing_plan_id":"free"},{"bike_id":"f7edf5f3-a7a8-4e5a-8b75-aabfa8cde2ae","system_id":"levelo_inurba_marseille","lat":43.29529,"lon":5.385581,"is_reserved":false,"is_disabled":false,"rental_uris":{"android":"levelo://app?vid=f7edf5f3-a7a8-4e5a-8b75-aabfa8cde2ae","ios":"levelo://app?vid=f7edf5f3-a7a8-4e5a-8b75-aabfa8cde2ae"},"vehicle_type_id":"4","last_reported":1685023595,"current_range_meters":29200,"station_id":"ce4bgih2rcd13ifvqba0","pricing_plan_id":"free"},{"bike_id":"f7920e84-e9a9-40fe-8ea6-9ea5bb03cd09","system_id":"levelo_inurba_marseille","lat":43.313278,"lon":5.397214,"is_reserved":false,"is_disabled":false,"rental_uris":{"android":"levelo://app?vid=f7920e84-e9a9-40fe-8ea6-9ea5bb03cd09","ios":"levelo://app?vid=f7920e84-e9a9-40fe-8ea6-9ea5bb03cd09"},"vehicle_type_id":"4","last_reported":1685023595,"current_range_meters":14800,"station_id":"ce4bgvp2rcd13ifvqcu0","pricing_plan_id":"free"},{"bike_id":"84760981-30bc-4eaa-8ffa-a7b33256a0e7","system_id":"levelo_inurba_marseille","lat":43.290779,"lon":5.371482,"is_reserved":false,"is_disabled":false,"rental_uris":{"android":"levelo://app?vid=84760981-30bc-4eaa-8ffa-a7b33256a0e7","ios":"levelo://app?vid=84760981-30bc-4eaa-8ffa-a7b33256a0e7"},"vehicle_type_id":"4","last_reported":1685023595,"current_range_meters":26400,"station_id":"ce4bh5p2rcd13ifvqe4g","pricing_plan_id":"free"},{"bike_id":"ffe3be28-759f-4e13-ba49-4e41ee317356","system_id":"levelo_inurba_marseille","lat":43.290779,"lon":5.371482,"is_reserved":false,"is_disabled":false,"rental_uris":{"android":"levelo://app?vid=ffe3be28-759f-4e13-ba49-4e41ee317356","ios":"levelo://app?vid=ffe3be28-759f-4e13-ba49-4e41ee317356"},"vehicle_type_id":"4","last_reported":1685023595,"current_range_meters":16400,"station_id":"ce4bh5p2rcd13ifvqe4g","pricing_plan_id":"free"},{"bike_id":"d534ca67-6ebb-4876-a2b7-5a42d84b10eb","system_id":"levelo_inurba_marseille","lat":43.302008,"lon":5.394694,"is_reserved":false,"is_disabled":false,"rental_uris":{"android":"levelo://app?vid=d534ca67-6ebb-4876-a2b7-5a42d84b10eb","ios":"levelo://app?vid=d534ca67-6ebb-4876-a2b7-5a42d84b10eb"},"vehicle_type_id":"4","last_reported":1685023595,"current_range_meters":15600,"station_id":"ce4bh0p2rcd13ifvqd70","pricing_plan_id":"free"},{"bike_id":"3596a5b0-d48f-4e53-af36-20b01bf25ce4","system_id":"levelo_inurba_marseille","lat":43.29127,"lon":5.355774,"is_reserved":false,"is_disabled":false,"rental_uris":{"android":"levelo://app?vid=3596a5b0-d48f-4e53-af36-20b01bf25ce4","ios":"levelo://app?vid=3596a5b0-d48f-4e53-af36-20b01bf25ce4"},"vehicle_type_id":"4","last_reported":1685023595,"current_range_meters":400,"station_id":"","pricing_plan_id":"free"},{"bike_id":"5b5e3eb5-330d-4780-89c3-de8bd98e8661","system_id":"levelo_inurba_marseille","lat":43.290624,"lon":5.359245,"is_reserved":false,"is_disabled":false,"rental_uris":{"android":"levelo://app?vid=5b5e3eb5-330d-4780-89c3-de8bd98e8661","ios":"levelo://app?vid=5b5e3eb5-330d-4780-89c3-de8bd98e8661"},"vehicle_type_id":"4","last_reported":1685023595,"current_range_meters":30800,"station_id":"ce4bha92rcd13ifvqeg0","pricing_plan_id":"free"},{"bike_id":"3f114410-01f5-46c9-b0cf-2ac169a176ba","system_id":"levelo_inurba_marseille","lat":43.290631,"lon":5.359244,"is_reserved":false,"is_disabled":false,"rental_uris":{"android":"levelo://app?vid=3f114410-01f5-46c9-b0cf-2ac169a176ba","ios":"levelo://app?vid=3f114410-01f5-46c9-b0cf-2ac169a176ba"},"vehicle_type_id":"4","last_reported":1685023595,"current_range_meters":28000,"station_id":"ce4bha92rcd13ifvqeg0","pricing_plan_id":"free"},{"bike_id":"eaad7598-fb24-446a-933f-ee3654adeb46","system_id":"levelo_inurba_marseille","lat":43.290319,"lon":5.375732,"is_reserved":false,"is_disabled":false,"rental_uris":{"android":"levelo://app?vid=eaad7598-fb24-446a-933f-ee3654adeb46","ios":"levelo://app?vid=eaad7598-fb24-446a-933f-ee3654adeb46"},"vehicle_type_id":"4","last_reported":1685023595,"current_range_meters":19600,"station_id":"ce4bh692rcd13ifvqe90","pricing_plan_id":"free"},{"bike_id":"81928b35-85de-44d1-a8d2-df10232e2490","system_id":"levelo_inurba_marseille","lat":43.289184,"lon":5.366408,"is_reserved":false,"is_disabled":false,"rental_uris":{"android":"levelo://app?vid=81928b35-85de-44d1-a8d2-df10232e2490","ios":"levelo://app?vid=81928b35-85de-44d1-a8d2-df10232e2490"},"vehicle_type_id":"4","last_reported":1685023595,"current_range_meters":31600,"station_id":"ce4bhap2rcd13ifvqek0","pricing_plan_id":"free"},{"bike_id":"e19a1c21-9a56-4631-be0c-e17522c05b83","system_id":"levelo_inurba_marseille","lat":43.292642,"lon":5.384254,"is_reserved":false,"is_disabled":false,"rental_uris":{"android":"levelo://app?vid=e19a1c21-9a56-4631-be0c-e17522c05b83","ios":"levelo://app?vid=e19a1c21-9a56-4631-be0c-e17522c05b83"},"vehicle_type_id":"4","last_reported":1685023595,"current_range_meters":31600,"station_id":"ce4bh692rcd13ifvqea0","pricing_plan_id":"free"},{"bike_id":"a1c5b791-53c7-472b-9158-7145f9ae8097","system_id":"levelo_inurba_marseille","lat":43.290104,"lon":5.356111,"is_reserved":false,"is_disabled":false,"rental_uris":{"android":"levelo://app?vid=a1c5b791-53c7-472b-9158-7145f9ae8097","ios":"levelo://app?vid=a1c5b791-53c7-472b-9158-7145f9ae8097"},"vehicle_type_id":"4","last_reported":1685023595,"current_range_meters":24400,"station_id":"ce4bhb92rcd13ifvqen0","pricing_plan_id":"free"},{"bike_id":"7dc00b48-5852-4899-b254-0d5bba0beaf4","system_id":"levelo_inurba_marseille","lat":43.290103,"lon":5.356114,"is_reserved":false,"is_disabled":false,"rental_uris":{"android":"levelo://app?vid=7dc00b48-5852-4899-b254-0d5bba0beaf4","ios":"levelo://app?vid=7dc00b48-5852-4899-b254-0d5bba0beaf4"},"vehicle_type_id":"4","last_reported":1685023595,"current_range_meters":12800,"station_id":"ce4bhb92rcd13ifvqen0","pricing_plan_id":"free"},{"bike_id":"abfa5f81-80dd-40fd-80a9-91bd261def9b","system_id":"levelo_inurba_marseille","lat":43.290104,"lon":5.356111,"is_reserved":false,"is_disabled":false,"rental_uris":{"android":"levelo://app?vid=abfa5f81-80dd-40fd-80a9-91bd261def9b","ios":"levelo://app?vid=abfa5f81-80dd-40fd-80a9-91bd261def9b"},"vehicle_type_id":"4","last_reported":1685023595,"current_range_meters":31600,"station_id":"ce4bhb92rcd13ifvqen0","pricing_plan_id":"free"},{"bike_id":"c8d16d4f-e72c-4a8f-9278-3ca9869cc11f","system_id":"levelo_inurba_marseille","lat":43.290104,"lon":5.356111,"is_reserved":false,"is_disabled":false,"rental_uris":{"android":"levelo://app?vid=c8d16d4f-e72c-4a8f-9278-3ca9869cc11f","ios":"levelo://app?vid=c8d16d4f-e72c-4a8f-9278-3ca9869cc11f"},"vehicle_type_id":"4","last_reported":1685023595,"current_range_meters":29600,"station_id":"ce4bhb92rcd13ifvqen0","pricing_plan_id":"free"},{"bike_id":"0b4f3246-a94d-4db5-8cf3-dfb5aef7fbe0","system_id":"levelo_inurba_marseille","lat":43.290103,"lon":5.356114,"is_reserved":false,"is_disabled":false,"rental_uris":{"android":"levelo://app?vid=0b4f3246-a94d-4db5-8cf3-dfb5aef7fbe0","ios":"levelo://app?vid=0b4f3246-a94d-4db5-8cf3-dfb5aef7fbe0"},"vehicle_type_id":"4","last_reported":1685023595,"current_range_meters":28000,"station_id":"ce4bhb92rcd13ifvqen0","pricing_plan_id":"free"},{"bike_id":"c5395b14-ce19-4653-9f03-ff72981de89f","system_id":"levelo_inurba_marseille","lat":43.290104,"lon":5.356111,"is_reserved":false,"is_disabled":false,"rental_uris":{"android":"levelo://app?vid=c5395b14-ce19-4653-9f03-ff72981de89f","ios":"levelo://app?vid=c5395b14-ce19-4653-9f03-ff72981de89f"},"vehicle_type_id":"4","last_reported":1685023595,"current_range_meters":28800,"station_id":"ce4bhb92rcd13ifvqen0","pricing_plan_id":"free"},{"bike_id":"798e8de8-cf00-4b95-8a81-bf1a831e8dc7","system_id":"levelo_inurba_marseille","lat":43.28976,"lon":5.37838,"is_reserved":false,"is_disabled":false,"rental_uris":{"android":"levelo://app?vid=798e8de8-cf00-4b95-8a81-bf1a831e8dc7","ios":"levelo://app?vid=798e8de8-cf00-4b95-8a81-bf1a831e8dc7"},"vehicle_type_id":"4","last_reported":1685023595,"current_range_meters":18400,"station_id":"","pricing_plan_id":"free"},{"bike_id":"f50467b6-ee4f-4713-97fa-732e63d1352d","system_id":"levelo_inurba_marseille","lat":43.28856,"lon":5.358371,"is_reserved":false,"is_disabled":false,"rental_uris":{"android":"levelo://app?vid=f50467b6-ee4f-4713-97fa-732e63d1352d","ios":"levelo://app?vid=f50467b6-ee4f-4713-97fa-732e63d1352d"},"vehicle_type_id":"4","last_reported":1685023595,"current_range_meters":25200,"station_id":"ce4bhb12rcd13ifvqem0","pricing_plan_id":"free"},{"bike_id":"d6edd7a2-78aa-40b7-aa45-902da874b14a","system_id":"levelo_inurba_marseille","lat":43.30642,"lon":5.401031,"is_reserved":false,"is_disabled":false,"rental_uris":{"android":"levelo://app?vid=d6edd7a2-78aa-40b7-aa45-902da874b14a","ios":"levelo://app?vid=d6edd7a2-78aa-40b7-aa45-902da874b14a"},"vehicle_type_id":"4","last_reported":1685023595,"current_range_meters":10800,"station_id":"ce4bh112rcd13ifvqda0","pricing_plan_id":"free"},{"bike_id":"b6c167e5-8ea4-4c02-8976-ca091b357b94","system_id":"levelo_inurba_marseille","lat":43.29017,"lon":5.38119,"is_reserved":false,"is_disabled":false,"rental_uris":{"android":"levelo://app?vid=b6c167e5-8ea4-4c02-8976-ca091b357b94","ios":"levelo://app?vid=b6c167e5-8ea4-4c02-8976-ca091b357b94"},"vehicle_type_id":"4","last_reported":1685023595,"current_range_meters":30800,"station_id":"ce4bh4p2rcd13ifvqe1g","pricing_plan_id":"free"},{"bike_id":"1b125055-07dc-4b6b-8e5e-66a3048974cc","system_id":"levelo_inurba_marseille","lat":43.28856,"lon":5.358371,"is_reserved":false,"is_disabled":false,"rental_uris":{"android":"levelo://app?vid=1b125055-07dc-4b6b-8e5e-66a3048974cc","ios":"levelo://app?vid=1b125055-07dc-4b6b-8e5e-66a3048974cc"},"vehicle_type_id":"4","last_reported":1685023595,"current_range_meters":30000,"station_id":"ce4bhb12rcd13ifvqem0","pricing_plan_id":"free"},{"bike_id":"e06c5a98-0e22-4f60-9d6f-46b118ee0a8b","system_id":"levelo_inurba_marseille","lat":43.28856,"lon":5.358371,"is_reserved":false,"is_disabled":false,"rental_uris":{"android":"levelo://app?vid=e06c5a98-0e22-4f60-9d6f-46b118ee0a8b","ios":"levelo://app?vid=e06c5a98-0e22-4f60-9d6f-46b118ee0a8b"},"vehicle_type_id":"4","last_reported":1685023595,"current_range_meters":30800,"station_id":"ce4bhb12rcd13ifvqem0","pricing_plan_id":"free"},{"bike_id":"3ff1d0a8-164e-4e5f-b22a-af7d64c1e3a9","system_id":"levelo_inurba_marseille","lat":43.290094,"lon":5.381264,"is_reserved":false,"is_disabled":false,"rental_uris":{"android":"levelo://app?vid=3ff1d0a8-164e-4e5f-b22a-af7d64c1e3a9","ios":"levelo://app?vid=3ff1d0a8-164e-4e5f-b22a-af7d64c1e3a9"},"vehicle_type_id":"4","last_reported":1685023595,"current_range_meters":11600,"station_id":"ce4bh4p2rcd13ifvqe1g","pricing_plan_id":"free"},{"bike_id":"ef909302-674b-495c-9ec0-fce64c9c33a6","system_id":"levelo_inurba_marseille","lat":43.28856,"lon":5.358371,"is_reserved":false,"is_disabled":false,"rental_uris":{"android":"levelo://app?vid=ef909302-674b-495c-9ec0-fce64c9c33a6","ios":"levelo://app?vid=ef909302-674b-495c-9ec0-fce64c9c33a6"},"vehicle_type_id":"4","last_reported":1685023595,"current_range_meters":26800,"station_id":"ce4bhb12rcd13ifvqem0","pricing_plan_id":"free"},{"bike_id":"92e13a18-407a-4937-8a93-8b0c6422a699","system_id":"levelo_inurba_marseille","lat":43.28856,"lon":5.358371,"is_reserved":false,"is_disabled":false,"rental_uris":{"android":"levelo://app?vid=92e13a18-407a-4937-8a93-8b0c6422a699","ios":"levelo://app?vid=92e13a18-407a-4937-8a93-8b0c6422a699"},"vehicle_type_id":"4","last_reported":1685023595,"current_range_meters":11200,"station_id":"ce4bhb12rcd13ifvqem0","pricing_plan_id":"free"},{"bike_id":"94ff0af8-e85c-437e-b6f7-78a393d6f178","system_id":"levelo_inurba_marseille","lat":43.337426,"lon":5.374404,"is_reserved":false,"is_disabled":false,"rental_uris":{"android":"levelo://app?vid=94ff0af8-e85c-437e-b6f7-78a393d6f178","ios":"levelo://app?vid=94ff0af8-e85c-437e-b6f7-78a393d6f178"},"vehicle_type_id":"4","last_reported":1685023595,"current_range_meters":24800,"station_id":"","pricing_plan_id":"free"},