{"last_updated":1693429620,"ttl":30,"version":"2.2","data":{"bikes":[{"bike_id":"e52d22b3-75b4-416c-a78d-9cbc0dcf0878","system_id":"levelo_inurba_marseille","lat":43.3123,"lon":5.36856,"is_reserved":false,"is_disabled":false,"rental_uris":{"android":"levelo://app?vid=e52d22b3-75b4-416c-a78d-9cbc0dcf0878","ios":"levelo://app?vid=e52d22b3-75b4-416c-a78d-9cbc0dcf0878"},"vehicle_type_id":"4","last_reported":1693429621,"current_range_meters":20000,"station_id":"ce4bgl92rcd13ifvqbq0","pricing_plan_id":"free"},{"bike_id":"b3dfeaf5-7385-40ae-9379-7efc1769def6","system_id":"levelo_inurba_marseille","lat":43.309076,"lon":5.368465,"is_reserved":false,"is_disabled":false,"rental_uris":{"android":"levelo://app?vid=b3dfeaf5-7385-40ae-9379-7efc1769def6","ios":"levelo://app?vid=b3dfeaf5-7385-40ae-9379-7efc1769def6"},"vehicle_type_id":"4","last_reported":1693429621,"current_range_meters":25200,"station_id":"ce4bgn92rcd13ifvqbvg","pricing_plan_id":"free"},{"bike_id":"8d3e0f8e-a8b8-4145-ba0d-93b32ef9c9e0","system_id":"levelo_inurba_marseille","lat":43.309076,"lon":5.368465,"is_reserved":false,"is_disabled":false,"rental_uris":{"android":"levelo://app?vid=8d3e0f8e-a8b8-4145-ba0d-93b32ef9c9e0","ios":"levelo://app?vid=8d3e0f8e-a8b8-4145-ba0d-93b32ef9c9e0"},"vehicle_type_id":"4","last_reported":1693429621,"current_range_meters":28800,"station_id":"ce4bgn92rcd13ifvqbvg","pricing_plan_id":"free"},{"bike_id":"d2be997d-44d2-40a5-bb20-02aeaaf65fa5","system_id":"levelo_inurba_marseille","lat":43.314811,"lon":5.373104,"is_reserved":false,"is_disabled":false,"rental_uris":{"android":"levelo://app?vid=d2be997d-44d2-40a5-bb20-02aeaaf65fa5","ios":"levelo://app?vid=d2be997d-44d2-40a5-bb20-02aeaaf65fa5"},"vehicle_type_id":"4","last_reported":1693429621,"current_range_meters":31200,"station_id":"ce4bgt12rcd13ifvqcd0","pricing_plan_id":"free"},{"bike_id":"c2a76e91-45e9-4b88-86ad-a0ca0b0b38e2","system_id":"levelo_inurba_marseille","lat":43.309039,"lon":5.371797,"is_reserved":false,"is_disabled":false,"rental_uris":{"android":"levelo://app?vid=c2a76e91-45e9-4b88-86ad-a0ca0b0b38e2","ios":"levelo://app?vid=c2a76e91-45e9-4b88-86ad-a0ca0b0b38e2"},"vehicle_type_id":"4","last_reported":1693429621,"current_range_meters":19600,"station_id":"ce4bguh2rcd13ifvqckg","pricing_plan_id":"free"},{"bike_id":"0354b6b2-c3cc-4e0c-953b-c9d1db462164","system_id":"levelo_inurba_marseille","lat":43.309039,"lon":5.371797,"is_reserved":false,"is_disabled":false,"rental_uris":{"android":"levelo://app?vid=0354b6b2-c3cc-4e0c-953b-c9d1db462164","ios":"levelo://app?vid=0354b6b2-c3cc-4e0c-953b-c9d1db462164"},"vehicle_type_id":"4","last_reported":1693429621,"current_range_meters":14000,"station_id":"ce4bguh2rcd13ifvqckg","pricing_plan_id":"free"},{"bike_id":"06d710d9-7c8e-48aa-8438-d95a2532a766","system_id":"levelo_inurba_marseille","lat":43.309039,"lon":5.371797,"is_reserved":false,"is_disabled":false,"rental_uris":{"android":"levelo://app?vid=06d710d9-7c8e-48aa-8438-d95a2532a766","ios":"levelo://app?vid=06d710d9-7c8e-48aa-8438-d95a2532a766"},"vehicle_type_id":"4","last_reported":1693429621,"current_range_meters":0,"station_id":"ce4bguh2rcd13ifvqckg","pricing_plan_id":"free"},{"bike_id":"abff0330-0a8e-4bfc-8339-464f6405e79c","system_id":"levelo_inurba_marseille","lat":43.309039,"lon":5.371797,"is_reserved":false,"is_disabled":false,"rental_uris":{"android":"levelo://app?vid=abff0330-0a8e-4bfc-8339-464f6405e79c","ios":"levelo://app?vid=abff0330-0a8e-4bfc-8339-464f6405e79c"},"vehicle_type_id":"4","last_reported":1693429621,"current_range_meters":21200,"station_id":"ce4bguh2rcd13ifvqckg","pricing_plan_id":"free"},{"bike_id":"1b67c926-66b8-481f-b6c5-e4e97b5d1e14","system_id":"levelo_inurba_marseille","lat":43.31537,"lon":5.37322,"is_reserved":false,"is_disabled":false,"rental_uris":{"android":"levelo://app?vid=1b67c926-66b8-481f-b6c5-e4e97b5d1e14","ios":"levelo://app?vid=1b67c926-66b8-481f-b6c5-e4e97b5d1e14"},"vehicle_type_id":"4","last_reported":1693429621,"current_range_meters":2400,"station_id":"","pricing_plan_id":"free"},{"bike_id":"4ac73cdb-5879-4537-afea-a492c3459488","system_id":"levelo_inurba_marseille","lat":43.30886,"lon":5.37198,"is_reserved":false,"is_disabled":false,"rental_uris":{"android":"levelo://app?vid=4ac73cdb-5879-4537-afea-a492c3459488","ios":"levelo://app?vid=4ac73cdb-5879-4537-afea-a492c3459488"},"vehicle_type_id":"4","last_reported":1693429621,"current_range_meters":27200,"station_id":"ce4bguh2rcd13ifvqckg","pricing_plan_id":"free"},{"bike_id":"4ec9ec22-9a37-42b4-8cb3-de3ff44cfd73","system_id":"levelo_inurba_marseille","lat":43.30549,"lon":5.36557,"is_reserved":false,"is_disabled":false,"rental_uris":{"android":"levelo://app?vid=4ec9ec22-9a37-42b4-8cb3-de3ff44cfd73","ios":"levelo://app?vid=4ec9ec22-9a37-42b4-8cb3-de3ff44cfd73"},"vehicle_type_id":"4","last_reported":1693429621,"current_range_meters":6000,"station_id":"ce4bgs12rcd13ifvqcag","pricing_plan_id":"free"},{"bike_id":"e2692736-6538-4f4e-8690-41fbbff275b7","system_id":"levelo_inurba_marseille","lat":43.30541,"lon":5.36546,"is_reserved":false,"is_disabled":false,"rental_uris":{"android":"levelo://app?vid=e2692736-6538-4f4e-8690-41fbbff275b7","ios":"levelo://app?vid=e2692736-6538-4f4e-8690-41fbbff275b7"},"vehicle_type_id":"4","last_reported":1693429621,"current_range_meters":2800,"station_id":"ce4bgs12rcd13ifvqcag","pricing_plan_id":"free"},{"bike_id":"4e32aa63-d179-4d2b-b452-7941123c1307","system_id":"levelo_inurba_marseille","lat":43.30538,"lon":5.36539,"is_reserved":false,"is_disabled":false,"rental_uris":{"android":"levelo://app?vid=4e32aa63-d179-4d2b-b452-7941123c1307","ios":"levelo://app?vid=4e32aa63-d179-4d2b-b452-7941123c1307"},"vehicle_type_id":"4","last_reported":1693429621,"current_range_meters":0,"station_id":"ce4bgs12rcd13ifvqcag","pricing_plan_id":"free"},{"bike_id":"78eb7d83-abb6-467f-a3fa-fc386120789b","system_id":"levelo_inurba_marseille","lat":43.305706,"lon":5.365654,"is_reserved":false,"is_disabled":false,"rental_uris":{"android":"levelo://app?vid=78eb7d83-abb6-467f-a3fa-fc386120789b","ios":"levelo://app?vid=78eb7d83-abb6-467f-a3fa-fc386120789b"},"vehicle_type_id":"4","last_reported":1693429621,"current_range_meters":11200,"station_id":"ce4bgs12rcd13ifvqcag","pricing_plan_id":"free"},{"bike_id":"685b8011-e193-4681-8841-f4b3a822430b","system_id":"levelo_inurba_marseille","lat":43.305706,"lon":5.365654,"is_reserved":false,"is_disabled":false,"rental_uris":{"android":"levelo://app?vid=685b8011-e193-4681-8841-f4b3a822430b","ios":"levelo://app?vid=685b8011-e193-4681-8841-f4b3a822430b"},"vehicle_type_id":"4","last_reported":1693429621,"current_range_meters":22000,"station_id":"ce4bgs12rcd13ifvqcag","pricing_plan_id":"free"},{"bike_id":"df81cdfb-0d71-4c81-9688-37ddcc56df2d","system_id":"levelo_inurba_marseille","lat":43.311131,"lon":5.377651,"is_reserved":false,"is_disabled":false,"rental_uris":{"android":"levelo://app?vid=df81cdfb-0d71-4c81-9688-37ddcc56df2d","ios":"levelo://app?vid=df81cdfb-0d71-4c81-9688-37ddcc56df2d"},"vehicle_type_id":"4","last_reported":1693429621,"current_range_meters":19200,"station_id":"ce4bgt92rcd13ifvqcg0","pricing_plan_id":"free"},{"bike_id":"203fbd9d-f1d5-4bd1-bcfb-f8b506236419","system_id":"levelo_inurba_marseille","lat":43.311131,"lon":5.377651,"is_reserved":false,"is_disabled":false,"rental_uris":{"android":"levelo://app?vid=203fbd9d-f1d5-4bd1-bcfb-f8b506236419","ios":"levelo://app?vid=203fbd9d-f1d5-4bd1-bcfb-f8b506236419"},"vehicle_type_id":"4","last_reported":1693429621,"current_range_meters":31200,"station_id":"ce4bgt92rcd13ifvqcg0","pricing_plan_id":"free"},{"bike_id":"b1670387-3cc7-4328-b01e-282294db5d8b","system_id":"levelo_inurba_marseille","lat":43.311131,"lon":5.377651,"is_reserved":false,"is_disabled":false,"rental_uris":{"android":"levelo://app?vid=b1670387-3cc7-4328-b01e-282294db5d8b","ios":"levelo://app?vid=b1670387-3cc7-4328-b01e-282294db5d8b"},"vehicle_type_id":"4","last_reported":1693429621,"current_range_meters":24000,"station_id":"ce4bgt92rcd13ifvqcg0","pricing_plan_id":"free"},{"bike_id":"ad3ec10f-737e-4c7f-b007-175da4febc17","system_id":"levelo_inurba_marseille","lat":43.311131,"lon":5.377651,"is_reserved":false,"is_disabled":false,"rental_uris":{"android":"levelo://app?vid=ad3ec10f-737e-4c7f-b007-175da4febc17","ios":"levelo://app?vid=ad3ec10f-737e-4c7f-b007-175da4febc17"},"vehicle_type_id":"4","last_reported":1693429621,"current_range_meters":14000,"station_id":"ce4bgt92rcd13ifvqcg0","pricing_plan_id":"free"},{"bike_id":"6d577261-eef6-4e71-8251-afee62f66935","system_id":"levelo_inurba_marseille","lat":43.311125,"lon":5.377624,"is_reserved":false,"is_disabled":false,"rental_uris":{"android":"levelo://app?vid=6d577261-eef6-4e71-8251-afee62f66935","ios":"levelo://app?vid=6d577261-eef6-4e71-8251-afee62f66935"},"vehicle_type_id":"4","last_reported":1693429621,"current_range_meters":15200,"station_id":"ce4bgt92rcd13ifvqcg0","pricing_plan_id":"free"},{"bike_id":"b12816dd-38fe-46b4-a764-7a31fefc8ad9","system_id":"levelo_inurba_marseille","lat":43.311131,"lon":5.377651,"is_reserved":false,"is_disabled":false,"rental_uris":{"android":"levelo://app?vid=b12816dd-38fe-46b4-a764-7a31fefc8ad9","ios":"levelo://app?vid=b12816dd-38fe-46b4-a764-7a31fefc8ad9"},"vehicle_type_id":"4","last_reported":1693429621,"current_range_meters":22400,"station_id":"ce4bgt92rcd13ifvqcg0","pricing_plan_id":"free"},{"bike_id":"65749c36-8409-4b4f-b998-2a0ee35ff955","system_id":"levelo_inurba_marseille","lat":43.3061,"lon":5.37344,"is_reserved":false,"is_disabled":false,"rental_uris":{"android":"levelo://app?vid=65749c36-8409-4b4f-b998-2a0ee35ff955","ios":"levelo://app?vid=65749c36-8409-4b4f-b998-2a0ee35ff955"},"vehicle_type_id":"4","last_reported":1693429621,"current_range_meters":2000,"station_id":"ce4bgqh2rcd13ifvqc4g","pricing_plan_id":"free"},{"bike_id":"44daac98-424c-49f1-97c8-e4c9ae340d96","system_id":"levelo_inurba_marseille","lat":43.30778,"lon":5.37657,"is_reserved":false,"is_disabled":false,"rental_uris":{"android":"levelo://app?vid=44daac98-424c-49f1-97c8-e4c9ae340d96","ios":"levelo://app?vid=44daac98-424c-49f1-97c8-e4c9ae340d96"},"vehicle_type_id":"4","last_reported":1693429621,"current_range_meters":4000,"station_id":"ce4bgv92rcd13ifvqcq0","pricing_plan_id":"free"},{"bike_id":"e0b15867-13f3-47d8-920e-d17442fcfa08","system_id":"levelo_inurba_marseille","lat":43.317075,"lon":5.377367,"is_reserved":false,"is_disabled":false,"rental_uris":{"android":"levelo://app?vid=e0b15867-13f3-47d8-920e-d17442fcfa08","ios":"levelo://app?vid=e0b15867-13f3-47d8-920e-d17442fcfa08"},"vehicle_type_id":"4","last_reported":1693429621,"current_range_meters":28400,"station_id":"ce4bgth2rcd13ifvqch0","pricing_plan_id":"free"},{"bike_id":"537a927d-8a1c-43e0-871b-ee68f3239d6e","system_id":"levelo_inurba_marseille","lat":43.317075,"lon":5.377367,"is_reserved":false,"is_disabled":false,"rental_uris":{"android":"levelo://app?vid=537a927d-8a1c-43e0-871b-ee68f3239d6e","ios":"levelo://app?vid=537a927d-8a1c-43e0-871b-ee68f3239d6e"},"vehicle_type_id":"4","last_reported":1693429621,"current_range_meters":31200,"station_id":"ce4bgth2rcd13ifvqch0","pricing_plan_id":"free"},{"bike_id":"cd3d548f-bd59-45ea-a76c-bcaa7c22f274","system_id":"levelo_inurba_marseille","lat":43.317075,"lon":5.377367,"is_reserved":false,"is_disabled":false,"rental_uris":{"android":"levelo://app?vid=cd3d548f-bd59-45ea-a76c-bcaa7c22f274","ios":"levelo://app?vid=cd3d548f-bd59-45ea-a76c-bcaa7c22f274"},"vehicle_type_id":"4","last_reported":1693429621,"current_range_meters":31200,"station_id":"ce4bgth2rcd13ifvqch0","pricing_plan_id":"free"},{"bike_id":"55a16d96-17ad-4995-9695-ddc03f7c70a2","system_id":"levelo_inurba_marseille","lat":43.317075,"lon":5.377367,"is_reserved":false,"is_disabled":false,"rental_uris":{"android":"levelo://app?vid=55a16d96-17ad-4995-9695-ddc03f7c70a2","ios":"levelo://app?vid=55a16d96-17ad-4995-9695-ddc03f7c70a2"},"vehicle_type_id":"4","last_reported":1693429621,"current_range_meters":31200,"station_id":"ce4bgth2rcd13ifvqch0","pricing_plan_id":"free"},{"bike_id":"d05e16ab-43f8-4dea-bccc-0dcd73398faa","system_id":"levelo_inurba_marseille","lat":43.317075,"lon":5.377367,"is_reserved":false,"is_disabled":false,"rental_uris":{"android":"levelo://app?vid=d05e16ab-43f8-4dea-bccc-0dcd73398faa","ios":"levelo://app?vid=d05e16ab-43f8-4dea-bccc-0dcd73398faa"},"vehicle_type_id":"4","last_reported":1693429621,"current_range_meters":29200,"station_id":"ce4bgth2rcd13ifvqch0","pricing_plan_id":"free"},{"bike_id":"85029175-769d-4c4a-9a1f-348dd03f763c","system_id":"levelo_inurba_marseille","lat":43.317075,"lon":5.377367,"is_reserved":false,"is_disabled":false,"rental_uris":{"android":"levelo://app?vid=85029175-769d-4c4a-9a1f-348dd03f763c","ios":"levelo://app?vid=85029175-769d-4c4a-9a1f-348dd03f763c"},"vehicle_type_id":"4","last_reported":1693429621,"current_range_meters":29600,"station_id":"ce4bgth2rcd13ifvqch0","pricing_plan_id":"free"},{"bike_id":"b923a8fe-5169-466a-8007-4deabfba45b9","system_id":"levelo_inurba_marseille","lat":43.303046,"lon":5.368981,"is_reserved":false,"is_disabled":false,"rental_uris":{"android":"levelo://app?vid=b923a8fe-5169-466a-8007-4deabfba45b9","ios":"levelo://app?vid=b923a8fe-5169-466a-8007-4deabfba45b9"},"vehicle_type_id":"4","last_reported":1693429621,"current_range_meters":6800,"station_id":"ce4bgqh2rcd13ifvqc5g","pricing_plan_id":"free"},{"bike_id":"b29528a1-64cf-4b52-a383-b97ff51da9dc","system_id":"levelo_inurba_marseille","lat":43.303046,"lon":5.368981,"is_reserved":false,"is_disabled":false,"rental_uris":{"android":"levelo://app?vid=b29528a1-64cf-4b52-a383-b97ff51da9dc","ios":"levelo://app?vid=b29528a1-64cf-4b52-a383-b97ff51da9dc"},"vehicle_type_id":"4","last_reported":1693429621,"current_range_meters":4400,"station_id":"ce4bgqh2rcd13ifvqc5g","pricing_plan_id":"free"},{"bike_id":"126ce01e-6ae5-4dd7-973e-4eec6edfef8e","system_id":"levelo_inurba_marseille","lat":43.303046,"lon":5.368981,"is_reserved":false,"is_disabled":false,"rental_uris":{"android":"levelo://app?vid=126ce01e-6ae5-4dd7-973e-4eec6edfef8e","ios":"levelo://app?vid=126ce01e-6ae5-4dd7-973e-4eec6edfef8e"},"vehicle_type_id":"4","last_reported":1693429621,"current_range_meters":4000,"station_id":"ce4bgqh2rcd13ifvqc5g","pricing_plan_id":"free"},{"bike_id":"84007a70-0a1b-416a-a71a-c7b8196ae997","system_id":"levelo_inurba_marseille","lat":43.301939,"lon":5.366286,"is_reserved":false,"is_disabled":false,"rental_uris":{"android":"levelo://app?vid=84007a70-0a1b-416a-a71a-c7b8196ae997","ios":"levelo://app?vid=84007a70-0a1b-416a-a71a-c7b8196ae997"},"vehicle_type_id":"4","last_reported":1693429621,"current_range_meters":800,"station_id":"ce4bgrh2rcd13ifvqc8g","pricing_plan_id":"free"},{"bike_id":"af5bd159-e63b-454a-bd3c-e6209511aef0","system_id":"levelo_inurba_marseille","lat":43.30802,"lon":5.38154,"is_reserved":false,"is_disabled":false,"rental_uris":{"android":"levelo://app?vid=af5bd159-e63b-454a-bd3c-e6209511aef0","ios":"levelo://app?vid=af5bd159-e63b-454a-bd3c-e6209511aef0"},"vehicle_type_id":"4","last_reported":1693429621,"current_range_meters":1600,"station_id":"ce4bgt12rcd13ifvqce0","pricing_plan_id":"free"},{"bike_id":"11dd5800-c8b1-4aaa-b7f5-d2f7b17291e6","system_id":"levelo_inurba_marseille","lat":43.30281,"lon":5.37695,"is_reserved":false,"is_disabled":false,"rental_uris":{"android":"levelo://app?vid=11dd5800-c8b1-4aaa-b7f5-d2f7b17291e6","ios":"levelo://app?vid=11dd5800-c8b1-4aaa-b7f5-d2f7b17291e6"},"vehicle_type_id":"4","last_reported":1693429621,"current_range_meters":26000,"station_id":"ce4bguh2rcd13ifvqcj0","pricing_plan_id":"free"},{"bike_id":"0bf6e52e-4e7d-433d-a178-2dfcfd3fafe2","system_id":"levelo_inurba_marseille","lat":43.302784,"lon":5.377158,"is_reserved":false,"is_disabled":false,"rental_uris":{"android":"levelo://app?vid=0bf6e52e-4e7d-433d-a178-2dfcfd3fafe2","ios":"levelo://app?vid=0bf6e52e-4e7d-433d-a178-2dfcfd3fafe2"},"vehicle_type_id":"4","last_reported":1693429621,"current_range_meters":1200,"station_id":"ce4bguh2rcd13ifvqcj0","pricing_plan_id":"free"},{"bike_id":"f1165090-0bd7-4c33-88d1-259806efd42c","system_id":"levelo_inurba_marseille","lat":43.3014,"lon":5.37414,"is_reserved":false,"is_disabled":false,"rental_uris":{"android":"levelo://app?vid=f1165090-0bd7-4c33-88d1-259806efd42c","ios":"levelo://app?vid=f1165090-0bd7-4c33-88d1-259806efd42c"},"vehicle_type_id":"4","last_reported":1693429621,"current_range_meters":17200,"station_id":"ce4bgs92rcd13ifvqcc0","pricing_plan_id":"free"},{"bike_id":"c6df9afa-07a0-47a5-b298-34a4dba76881","system_id":"levelo_inurba_marseille","lat":43.31646,"lon":5.38346,"is_reserved":false,"is_disabled":false,"rental_uris":{"android":"levelo://app?vid=c6df9afa-07a0-47a5-b298-34a4dba76881","ios":"levelo://app?vid=c6df9afa-07a0-47a5-b298-34a4dba76881"},"vehicle_type_id":"4","last_reported":1693429621,"current_range_meters":5600,"station_id":"","pricing_plan_id":"free"},{"bike_id":"e2ff008f-3dbd-4302-8b05-adc744b70d09","system_id":"levelo_inurba_marseille","lat":43.31658,"lon":5.38361,"is_reserved":false,"is_disabled":false,"rental_uris":{"android":"levelo://app?vid=e2ff008f-3dbd-4302-8b05-adc744b70d09","ios":"levelo://app?vid=e2ff008f-3dbd-4302-8b05-adc744b70d09"},"vehicle_type_id":"4","last_reported":1693429621,"current_range_meters":0,"station_id":"","pricing_plan_id":"free"},{"bike_id":"4e021917-f93c-461b-bc8c-f802e7467545","system_id":"levelo_inurba_marseille","lat":43.3166,"lon":5.38365,"is_reserved":false,"is_disabled":false,"rental_uris":{"android":"levelo://app?vid=4e021917-f93c-461b-bc8c-f802e7467545","ios":"levelo://app?vid=4e021917-f93c-461b-bc8c-f802e7467545"},"vehicle_type_id":"4","last_reported":1693429621,"current_range_meters":10000,"station_id":"","pricing_plan_id":"free"},{"bike_id":"ecb1ea6c-7edd-46e8-b2b9-49af481e2b5e","system_id":"levelo_inurba_marseille","lat":43.31995,"lon":5.38155,"is_reserved":false,"is_disabled":false,"rental_uris":{"android":"levelo://app?vid=ecb1ea6c-7edd-46e8-b2b9-49af481e2b5e","ios":"levelo://app?vid=ecb1ea6c-7edd-46e8-b2b9-49af481e2b5e"},"vehicle_type_id":"4","last_reported":1693429621,"current_range_meters":0,"station_id":"ce4bhr12rcd13ifvqhpg","pricing_plan_id":"free"},{"bike_id":"bf1c28b7-887d-44d3-b899-fb92afb7f069","system_id":"levelo_inurba_marseille","lat":43.31423,"lon":5.38451,"is_reserved":false,"is_disabled":false,"rental_uris":{"android":"levelo://app?vid=bf1c28b7-887d-44d3-b899-fb92afb7f069","ios":"levelo://app?vid=bf1c28b7-887d-44d3-b899-fb92afb7f069"},"vehicle_type_id":"4","last_reported":1693429621,"current_range_meters":22000,"station_id":"","pricing_plan_id":"free"},{"bike_id":"39395b1a-82f5-49c5-b766-48fe72169758","system_id":"levelo_inurba_marseille","lat":43.313571,"lon":5.384829,"is_reserved":false,"is_disabled":false,"rental_uris":{"android":"levelo://app?vid=39395b1a-82f5-49c5-b766-48fe72169758","ios":"levelo://app?vid=39395b1a-82f5-49c5-b766-48fe72169758"},"vehicle_type_id":"4","last_reported":1693429621,"current_range_meters":12400,"station_id":"ce4bgt92rcd13ifvqcf0","pricing_plan_id":"free"},{"bike_id":"3e3d40cd-b045-450f-9e33-d1375e2d4b3c","system_id":"levelo_inurba_marseille","lat":43.29969,"lon":5.3718,"is_reserved":false,"is_disabled":false,"rental_uris":{"android":"levelo://app?vid=3e3d40cd-b045-450f-9e33-d1375e2d4b3c","ios":"levelo://app?vid=3e3d40cd-b045-450f-9e33-d1375e2d4b3c"},"vehicle_type_id":"4","last_reported":1693429621,"current_range_meters":31200,"station_id":"ce4bgr92rcd13ifvqc7g","pricing_plan_id":"free"},{"bike_id":"2f2e0384-3bec-4bcb-8f56-274c820c961a","system_id":"levelo_inurba_marseille","lat":43.29963,"lon":5.37157,"is_reserved":false,"is_disabled":false,"rental_uris":{"android":"levelo://app?vid=2f2e0384-3bec-4bcb-8f56-274c820c961a","ios":"levelo://app?vid=2f2e0384-3bec-4bcb-8f56-274c820c961a"},"vehicle_type_id":"4","last_reported":1693429621,"current_range_meters":22800,"station_id":"ce4bgr92rcd13ifvqc7g","pricing_plan_id":"free"},{"bike_id":"36166a4f-7f28-41c2-894a-85c342a5acd5","system_id":"levelo_inurba_marseille","lat":43.298433,"lon":5.362774,"is_reserved":false,"is_disabled":false,"rental_uris":{"android":"levelo://app?vid=36166a4f-7f28-41c2-894a-85c342a5acd5","ios":"levelo://app?vid=36166a4f-7f28-41c2-894a-85c342a5acd5"},"vehicle_type_id":"4","last_reported":1693429621,"current_range_meters":20800,"station_id":"ce4bgpp2rcd13ifvqc3g","pricing_plan_id":"free"},{"bike_id":"37eef222-fedf-4732-be4e-e82433eaece0","system_id":"levelo_inurba_marseille","lat":43.305364,"lon":5.384119,"is_reserved":false,"is_disabled":false,"rental_uris":{"android":"levelo://app?vid=37eef222-fedf-4732-be4e-e82433eaece0","ios":"levelo://app?vid=37eef222-fedf-4732-be4e-e82433eaece0"},"vehicle_type_id":"4","last_reported":1693429621,"current_range_meters":31200,"station_id":"ce4bgg92rcd13ifvqb30","pricing_plan_id":"free"},{"bike_id":"c1e361dd-098c-4e12-9d3c-fa5e44f1490c","system_id":"levelo_inurba_marseille","lat":43.299243,"lon":5.37481,"is_reserved":false,"is_disabled":false,"rental_uris":{"android":"levelo://app?vid=c1e361dd-098c-4e12-9d3c-fa5e44f1490c","ios":"levelo://app?vid=c1e361dd-098c-4e12-9d3c-fa5e44f1490c"},"vehicle_type_id":"4","last_reported":1693429621,"current_range_meters":1600,"station_id":"ce4bgjh2rcd13ifvqbg0","pricing_plan_id":"free"},{"bike_id":"08c24a8b-9d23-4524-9e15-5516be4c2578","system_id":"levelo_inurba_marseille","lat":43.299243,"lon":5.37481,"is_reserved":false,"is_disabled":false,"rental_uris":{"android":"levelo://app?vid=08c24a8b-9d23-4524-9e15-5516be4c2578","ios":"levelo://app?vid=08c24a8b-9d23-4524-9e15-5516be4c2578"},"vehicle_type_id":"4","last_reported":1693429621,"current_range_meters":15600,"station_id":"ce4bgjh2rcd13ifvqbg0","pricing_plan_id":"free"},{"bike_id":"5e0b65a3-4830-4efe-8df2-f90e6871cc74","system_id":"levelo_inurba_marseille","lat":43.311722,"lon":5.387247,"is_reserved":false,"is_disabled":false,"rental_uris":{"android":"levelo://app?vid=5e0b65a3-4830-4efe-8df2-f90e6871cc74","ios":"levelo://app?vid=5e0b65a3-4830-4efe-8df2-f90e6871cc74"},"vehicle_type_id":"4","last_reported":1693429621,"current_range_meters":30400,"station_id":"ce4bgv12rcd13ifvqcp0","pricing_plan_id":"free"},{"bike_id":"2f9e2def-2173-4eb4-a460-9a385f59debe","system_id":"levelo_inurba_marseille","lat":43.299243,"lon":5.37481,"is_reserved":false,"is_disabled":false,"rental_uris":{"android":"levelo://app?vid=2f9e2def-2173-4eb4-a460-9a385f59debe","ios":"levelo://app?vid=2f9e2def-2173-4eb4-a460-9a385f59debe"},"vehicle_type_id":"4","last_reported":1693429621,"current_range_meters":31200,"station_id":"ce4bgjh2rcd13ifvqbg0","pricing_plan_id":"free"},{"bike_id":"39f47d20-3ae2-4c1c-8b52-380f91259e76","system_id":"levelo_inurba_marseille","lat":43.299243,"lon":5.37481,"is_reserved":false,"is_disabled":false,"rental_uris":{"android":"levelo://app?vid=39f47d20-3ae2-4c1c-8b52-380f91259e76","ios":"levelo://app?vid=39f47d20-3ae2-4c1c-8b52-380f91259e76"},"vehicle_type_id":"4","last_reported":1693429621,"current_range_meters":0,"station_id":"ce4bgjh2rcd13ifvqbg0","pricing_plan_id":"free"},{"bike_id":"924d6452-f7f7-4baa-af9a-49926af70474","system_id":"levelo_inurba_marseille","lat":43.297774,"lon":5.370875,"is_reserved":false,"is_disabled":false,"rental_uris":{"android":"levelo://app?vid=924d6452-f7f7-4baa-af9a-49926af70474","ios":"levelo://app?vid=924d6452-f7f7-4baa-af9a-49926af70474"},"vehicle_type_id":"4","last_reported":1693429621,"current_range_meters":28800,"station_id":"ce4bgop2rcd13ifvqc1g","pricing_plan_id":"free"},{"bike_id":"8143ebd5-c5c5-467f-a353-1c0066f90341","system_id":"levelo_inurba_marseille","lat":43.297794,"lon":5.370888,"is_reserved":false,"is_disabled":false,"rental_uris":{"android":"levelo://app?vid=8143ebd5-c5c5-467f-a353-1c0066f90341","ios":"levelo://app?vid=8143ebd5-c5c5-467f-a353-1c0066f90341"},"vehicle_type_id":"4","last_reported":1693429621,"current_range_meters":31200,"station_id":"ce4bgop2rcd13ifvqc1g","pricing_plan_id":"free"},{"bike_id":"e6d587de-8098-492d-ac54-ee4080e5be91","system_id":"levelo_inurba_marseille","lat":43.322872,"lon":5.382756,"is_reserved":false,"is_disabled":false,"rental_uris":{"android":"levelo://app?vid=e6d587de-8098-492d-ac54-ee4080e5be91","ios":"levelo://app?vid=e6d587de-8098-492d-ac54-ee4080e5be91"},"vehicle_type_id":"4","last_reported":1693429621,"current_range_meters":16000,"station_id":"ce4bhr12rcd13ifvqhqg","pricing_plan_id":"free"},{"bike_id":"ee5fb558-bde4-4922-bb25-19dc705955e4","system_id":"levelo_inurba_marseille","lat":43.32288,"lon":5.38274,"is_reserved":false,"is_disabled":false,"rental_uris":{"android":"levelo://app?vid=ee5fb558-bde4-4922-bb25-19dc705955e4","ios":"levelo://app?vid=ee5fb558-bde4-4922-bb25-19dc705955e4"},"vehicle_type_id":"4","last_reported":1693429621,"current_range_meters":7200,"station_id":"ce4bhr12rcd13ifvqhqg","pricing_plan_id":"free"},{"bike_id":"23cd11c4-e68a-4a38-86cb-897216ee74f6","system_id":"levelo_inurba_marseille","lat":43.3229,"lon":5.38274,"is_reserved":false,"is_disabled":false,"rental_uris":{"android":"levelo://app?vid=23cd11c4-e68a-4a38-86cb-897216ee74f6","ios":"levelo://app?vid=23cd11c4-e68a-4a38-86cb-897216ee74f6"},"vehicle_type_id":"4","last_reported":1693429621,"current_range_meters":800,"station_id":"ce4bhr12rcd13ifvqhqg","pricing_plan_id":"free"},{"bike_id":"e624cfdf-66ef-4fb5-809b-3dd7af06874f","system_id":"levelo_inurba_marseille","lat":43.3229,"lon":5.38277,"is_reserved":false,"is_disabled":false,"rental_uris":{"android":"levelo://app?vid=e624cfdf-66ef-4fb5-809b-3dd7af06874f","ios":"levelo://app?vid=e624cfdf-66ef-4fb5-809b-3dd7af06874f"},"vehicle_type_id":"4","last_reported":1693429621,"current_range_meters":25200,"station_id":"ce4bhr12rcd13ifvqhqg","pricing_plan_id":"free"},{"bike_id":"96966b3b-0920-4d76-afff-a8fe90340661","system_id":"levelo_inurba_marseille","lat":43.32288,"lon":5.3828,"is_reserved":false,"is_disabled":false,"rental_uris":{"android":"levelo://app?vid=96966b3b-0920-4d76-afff-a8fe90340661","ios":"levelo://app?vid=96966b3b-0920-4d76-afff-a8fe90340661"},"vehicle_type_id":"4","last_reported":1693429621,"current_range_meters":7600,"station_id":"ce4bhr12rcd13ifvqhqg","pricing_plan_id":"free"},{"bike_id":"1c783fb8-ba9c-45f5-abd5-a36b1f6db2a2","system_id":"levelo_inurba_marseille","lat":43.32824,"lon":5.3668,"is_reserved":false,"is_disabled":false,"rental_uris":{"android":"levelo://app?vid=1c783fb8-ba9c-45f5-abd5-a36b1f6db2a2","ios":"levelo://app?vid=1c783fb8-ba9c-45f5-abd5-a36b1f6db2a2"},"vehicle_type_id":"4","last_reported":1693429621,"current_range_meters":26800,"station_id":"ce4bhs92rcd13ifvqi0g","pricing_plan_id":"free"},{"bike_id":"31b6a3c0-0240-44a0-b884-d8305caf4c60","system_id":"levelo_inurba_marseille","lat":43.32826,"lon":5.36681,"is_reserved":false,"is_disabled":false,"rental_uris":{"android":"levelo://app?vid=31b6a3c0-0240-44a0-b884-d8305caf4c60","ios":"levelo://app?vid=31b6a3c0-0240-44a0-b884-d8305caf4c60"},"vehicle_type_id":"4","last_reported":1693429621,"current_range_meters":14400,"station_id":"ce4bhs92rcd13ifvqi0g","pricing_plan_id":"free"},{"bike_id":"a639971c-aba3-45af-9f9c-673e19e2bf25","system_id":"levelo_inurba_marseille","lat":43.32828,"lon":5.36686,"is_reserved":false,"is_disabled":false,"rental_uris":{"android":"levelo://app?vid=a639971c-aba3-45af-9f9c-673e19e2bf25","ios":"levelo://app?vid=a639971c-aba3-45af-9f9c-673e19e2bf25"},"vehicle_type_id":"4","last_reported":1693429621,"current_range_meters":25600,"station_id":"ce4bhs92rcd13ifvqi0g","pricing_plan_id":"free"},{"bike_id":"5cc19eab-bc7a-4c03-a1b5-dc85d2ffe9cd","system_id":"levelo_inurba_marseille","lat":43.32831,"lon":5.36696,"is_reserved":false,"is_disabled":false,"rental_uris":{"android":"levelo://app?vid=5cc19eab-bc7a-4c03-a1b5-dc85d2ffe9cd","ios":"levelo://app?vid=5cc19eab-bc7a-4c03-a1b5-dc85d2ffe9cd"},"vehicle_type_id":"4","last_reported":1693429621,"current_range_meters":20400,"station_id":"ce4bhs92rcd13ifvqi0g","pricing_plan_id":"free"},{"bike_id":"dd789220-e7b5-42c1-b9dc-dc4243148021","system_id":"levelo_inurba_marseille","lat":43.29717,"lon":5.36612,"is_reserved":false,"is_disabled":false,"rental_uris":{"android":"levelo://app?vid=dd789220-e7b5-42c1-b9dc-dc4243148021","ios":"levelo://app?vid=dd789220-e7b5-42c1-b9dc-dc4243148021"},"vehicle_type_id":"4","last_reported":1693429621,"current_range_meters":31200,"station_id":"ce4bgn12rcd13ifvqbt0","pricing_plan_id":"free"},{"bike_id":"bd0bd295-6ecc-40c4-a4d0-89f645593756","system_id":"levelo_inurba_marseille","lat":43.297163,"lon":5.365866,"is_reserved":false,"is_disabled":false,"rental_uris":{"android":"levelo://app?vid=bd0bd295-6ecc-40c4-a4d0-89f645593756","ios":"levelo://app?vid=bd0bd295-6ecc-40c4-a4d0-89f645593756"},"vehicle_type_id":"4","last_reported":1693429621,"current_range_meters":21600,"station_id":"ce4bgn12rcd13ifvqbt0","pricing_plan_id":"free"},{"bike_id":"8a6d9c35-8ebb-41dc-a26c-59dc480d5879","system_id":"levelo_inurba_marseille","lat":43.29721,"lon":5.37336,"is_reserved":false,"is_disabled":false,"rental_uris":{"android":"levelo://app?vid=8a6d9c35-8ebb-41dc-a26c-59dc480d5879","ios":"levelo://app?vid=8a6d9c35-8ebb-41dc-a26c-59dc480d5879"},"vehicle_type_id":"4","last_reported":1693429621,"current_range_meters":25600,"station_id":"","pricing_plan_id":"free"},{"bike_id":"2d38d843-9501-4a8b-8d1e-e53e054245cc","system_id":"levelo_inurba_marseille","lat":43.32164,"lon":5.38573,"is_reserved":false,"is_disabled":false,"rental_uris":{"android":"levelo://app?vid=2d38d843-9501-4a8b-8d1e-e53e054245cc","ios":"levelo://app?vid=2d38d843-9501-4a8b-8d1e-e53e054245cc"},"vehicle_type_id":"4","last_reported":1693429621,"current_range_meters":31200,"station_id":"","pricing_plan_id":"free"},{"bike_id":"bd330de6-48d0-4728-9963-e54865c5455c","system_id":"levelo_inurba_marseille","lat":43.2964,"lon":5.37123,"is_reserved":false,"is_disabled":false,"rental_uris":{"android":"levelo://app?vid=bd330de6-48d0-4728-9963-e54865c5455c","ios":"levelo://app?vid=bd330de6-48d0-4728-9963-e54865c5455c"},"vehicle_type_id":"4","last_reported":1693429621,"current_range_meters":0,"station_id":"","pricing_plan_id":"free"},{"bike_id":"65d934c8-ea94-404c-b991-a012f59c0b64","system_id":"levelo_inurba_marseille","lat":43.29624,"lon":5.37166,"is_reserved":false,"is_disabled":false,"rental_uris":{"android":"levelo://app?vid=65d934c8-ea94-404c-b991-a012f59c0b64","ios":"levelo://app?vid=65d934c8-ea94-404c-b991-a012f59c0b64"},"vehicle_type_id":"4","last_reported":1693429621,"current_range_meters":26400,"station_id":"","pricing_plan_id":"free"},{"bike_id":"d3139180-8ba9-4c91-b6e4-8baae3c22113","system_id":"levelo_inurba_marseille","lat":43.296129,"lon":5.370777,"is_reserved":false,"is_disabled":false,"rental_uris":{"android":"levelo://app?vid=d3139180-8ba9-4c91-b6e4-8baae3c22113","ios":"levelo://app?vid=d3139180-8ba9-4c91-b6e4-8baae3c22113"},"vehicle_type_id":"4","last_reported":1693429621,"current_range_meters":31200,"station_id":"ce4bgnh2rcd13ifvqc0g","pricing_plan_id":"free"},{"bike_id":"b14858f4-4fcd-440f-bbec-f8c16ca5b29e","system_id":"levelo_inurba_marseille","lat":43.29925,"lon":5.38144,"is_reserved":false,"is_disabled":false,"rental_uris":{"android":"levelo://app?vid=b14858f4-4fcd-440f-bbec-f8c16ca5b29e","ios":"levelo://app?vid=b14858f4-4fcd-440f-bbec-f8c16ca5b29e"},"vehicle_type_id":"4","last_reported":1693429621,"current_range_meters":29200,"station_id":"","pricing_plan_id":"free"},{"bike_id":"4c6e440d-4878-4ceb-a1a0-8c759d12f33b","system_id":"levelo_inurba_marseille","lat":43.30943,"lon":5.39034,"is_reserved":false,"is_disabled":false,"rental_uris":{"android":"levelo://app?vid=4c6e440d-4878-4ceb-a1a0-8c759d12f33b","ios":"levelo://app?vid=4c6e440d-4878-4ceb-a1a0-8c759d12f33b"},"vehicle_type_id":"4","last_reported":1693429621,"current_range_meters":27600,"station_id":"ce4bgup2rcd13ifvqco0","pricing_plan_id":"free"},{"bike_id":"2c93ce6f-c5e1-4ec9-9941-ebb7469bb8f2","system_id":"levelo_inurba_marseille","lat":43.31763,"lon":5.39005,"is_reserved":false,"is_disabled":false,"rental_uris":{"android":"levelo://app?vid=2c93ce6f-c5e1-4ec9-9941-ebb7469bb8f2","ios":"levelo://app?vid=2c93ce6f-c5e1-4ec9-9941-ebb7469bb8f2"},"vehicle_type_id":"4","last_reported":1693429621,"current_range_meters":26400,"station_id":"ce4bhqp2rcd13ifvqhng","pricing_plan_id":"free"},{"bike_id":"c52b5dfe-c4ee-41c6-93c7-13b1bfae41f0","system_id":"levelo_inurba_marseille","lat":43.317557,"lon":5.390173,"is_reserved":false,"is_disabled":false,"rental_uris":{"android":"levelo://app?vid=c52b5dfe-c4ee-41c6-93c7-13b1bfae41f0","ios":"levelo://app?vid=c52b5dfe-c4ee-41c6-93c7-13b1bfae41f0"},"vehicle_type_id":"4","last_reported":1693429621,"current_range_meters":15200,"station_id":"ce4bhqp2rcd13ifvqhng","pricing_plan_id":"free"},{"bike_id":"46715e26-a81d-4d86-832c-413a438463af","system_id":"levelo_inurba_marseille","lat":43.31756,"lon":5.3902,"is_reserved":false,"is_disabled":false,"rental_uris":{"android":"levelo://app?vid=46715e26-a81d-4d86-832c-413a438463af","ios":"levelo://app?vid=46715e26-a81d-4d86-832c-413a438463af"},"vehicle_type_id":"4","last_reported":1693429621,"current_range_meters":30400,"station_id":"ce4bhqp2rcd13ifvqhng","pricing_plan_id":"free"},{"bike_id":"1879c324-b274-4998-ab09-b78fb4501698","system_id":"levelo_inurba_marseille","lat":43.31753,"lon":5.39022,"is_reserved":false,"is_disabled":false,"rental_uris":{"android":"levelo://app?vid=1879c324-b274-4998-ab09-b78fb4501698","ios":"levelo://app?vid=1879c324-b274-4998-ab09-b78fb4501698"},"vehicle_type_id":"4","last_reported":1693429621,"current_range_meters":0,"station_id":"ce4bhqp2rcd13ifvqhng","pricing_plan_id":"free"},{"bike_id":"86d37462-6f2c-4ee1-b5e1-16f3e9285866","system_id":"levelo_inurba_marseille","lat":43.31755,"lon":5.39023,"is_reserved":false,"is_disabled":false,"rental_uris":{"android":"levelo://app?vid=86d37462-6f2c-4ee1-b5e1-16f3e9285866","ios":"levelo://app?vid=86d37462-6f2c-4ee1-b5e1-16f3e9285866"},"vehicle_type_id":"4","last_reported":1693429621,"current_range_meters":26800,"station_id":"ce4bhqp2rcd13ifvqhng","pricing_plan_id":"free"},{"bike_id":"1971da8d-f667-4105-b114-ffeec0b92ef2","system_id":"levelo_inurba_marseille","lat":43.3175,"lon":5.39028,"is_reserved":false,"is_disabled":false,"rental_uris":{"android":"levelo://app?vid=1971da8d-f667-4105-b114-ffeec0b92ef2","ios":"levelo://app?vid=1971da8d-f667-4105-b114-ffeec0b92ef2"},"vehicle_type_id":"4","last_reported":1693429621,"current_range_meters":30000,"station_id":"ce4bhqp2rcd13ifvqhng","pricing_plan_id":"free"},{"bike_id":"0f7658c7-eaca-4096-a48d-63acd57cc125","system_id":"levelo_inurba_marseille","lat":43.31753,"lon":5.39028,"is_reserved":false,"is_disabled":false,"rental_uris":{"android":"levelo://app?vid=0f7658c7-eaca-4096-a48d-63acd57cc125","ios":"levelo://app?vid=0f7658c7-eaca-4096-a48d-63acd57cc125"},"vehicle_type_id":"4","last_reported":1693429621,"current_range_meters":28400,"station_id":"ce4bhqp2rcd13ifvqhng","pricing_plan_id":"free"},{"bike_id":"90a6c397-82b7-4631-a45b-b7e3c6c92441","system_id":"levelo_inurba_marseille","lat":43.3175,"lon":5.3903,"is_reserved":false,"is_disabled":false,"rental_uris":{"android":"levelo://app?vid=90a6c397-82b7-4631-a45b-b7e3c6c92441","ios":"levelo://app?vid=90a6c397-82b7-4631-a45b-b7e3c6c92441"},"vehicle_type_id":"4","last_reported":1693429621,"current_range_meters":30000,"station_id":"ce4bhqp2rcd13ifvqhng","pricing_plan_id":"free"},{"bike_id":"c32c6481-d7da-4a10-9f81-72daf0f22fe9","system_id":"levelo_inurba_marseille","lat":43.298037,"lon":5.381066,"is_reserved":false,"is_disabled":false,"rental_uris":{"android":"levelo://app?vid=c32c6481-d7da-4a10-9f81-72daf0f22fe9","ios":"levelo://app?vid=c32c6481-d7da-4a10-9f81-72daf0f22fe9"},"vehicle_type_id":"4","last_reported":1693429621,"current_range_meters":17200,"station_id":"ce4bgip2rcd13ifvqbb0","pricing_plan_id":"free"},{"bike_id":"fd744b88-fafc-414d-828f-4b26aeedfd14","system_id":"levelo_inurba_marseille","lat":43.30428,"lon":5.38886,"is_reserved":false,"is_disabled":false,"rental_uris":{"android":"levelo://app?vid=fd744b88-fafc-414d-828f-4b26aeedfd14","ios":"levelo://app?vid=fd744b88-fafc-414d-828f-4b26aeedfd14"},"vehicle_type_id":"4","last_reported":1693429621,"current_range_meters":15200,"station_id":"ce4bgk12rcd13ifvqbi0","pricing_plan_id":"free"},{"bike_id":"0f503003-3fc2-4d5a-be64-9354ae367b7a","system_id":"levelo_inurba_marseille","lat":43.29543,"lon":5.37497,"is_reserved":false,"is_disabled":false,"rental_uris":{"android":"levelo://app?vid=0f503003-3fc2-4d5a-be64-9354ae367b7a","ios":"levelo://app?vid=0f503003-3fc2-4d5a-be64-9354ae367b7a"},"vehicle_type_id":"4","last_reported":1693429621,"current_range_meters":5600,"station_id":"ce4bgkp2rcd13ifvqbmg","pricing_plan_id":"free"},{"bike_id":"952a19e7-6602-41c3-942f-79cfb514366f","system_id":"levelo_inurba_marseille","lat":43.296277,"lon":5.377108,"is_reserved":false,"is_disabled":false,"rental_uris":{"android":"levelo://app?vid=952a19e7-6602-41c3-942f-79cfb514366f","ios":"levelo://app?vid=952a19e7-6602-41c3-942f-79cfb514366f"},"vehicle_type_id":"4","last_reported":1693429621,"current_range_meters":29200,"station_id":"ce4bgi92rcd13ifvqb90","pricing_plan_id":"free"},{"bike_id":"79f0f202-2132-4d94-a277-37b3a172a72d","system_id":"levelo_inurba_marseille","lat":43.32367,"lon":5.388836,"is_reserved":false,"is_disabled":false,"rental_uris":{"android":"levelo://app?vid=79f0f202-2132-4d94-a277-37b3a172a72d","ios":"levelo://app?vid=79f0f202-2132-4d94-a277-37b3a172a72d"},"vehicle_type_id":"4","last_reported":1693429621,"current_range_meters":29600,"station_id":"ce4bhqp2rcd13ifvqhog","pricing_plan_id":"free"},{"bike_id":"da789c4d-2789-467a-86ce-05c40a474da0","system_id":"levelo_inurba_marseille","lat":43.32361,"lon":5.38889,"is_reserved":false,"is_disabled":false,"rental_uris":{"android":"levelo://app?vid=da789c4d-2789-467a-86ce-05c40a474da0","ios":"levelo://app?vid=da789c4d-2789-467a-86ce-05c40a474da0"},"vehicle_type_id":"4","last_reported":1693429621,"current_range_meters":28800,"station_id":"ce4bhqp2rcd13ifvqhog","pricing_plan_id":"free"},{"bike_id":"cf33fd20-f3d3-4b17-afc7-bfcdfa63fef7","system_id":"levelo_inurba_marseille","lat":43.32365,"lon":5.38888,"is_reserved":false,"is_disabled":false,"rental_uris":{"android":"levelo://app?vid=cf33fd20-f3d3-4b17-afc7-bfcdfa63fef7","ios":"levelo://app?vid=cf33fd20-f3d3-4b17-afc7-bfcdfa63fef7"},"vehicle_type_id":"4","last_reported":1693429621,"current_range_meters":8400,"station_id":"ce4bhqp2rcd13ifvqhog","pricing_plan_id":"free"},{"bike_id":"865bfca0-73f6-4acc-b69b-232a1e521899","system_id":"levelo_inurba_marseille","lat":43.32367,"lon":5.388836,"is_reserved":false,"is_disabled":false,"rental_uris":{"android":"levelo://app?vid=865bfca0-73f6-4acc-b69b-232a1e521899","ios":"levelo://app?vid=865bfca0-73f6-4acc-b69b-232a1e521899"},"vehicle_type_id":"4","last_reported":1693429621,"current_range_meters":30800,"station_id":"ce4bhqp2rcd13ifvqhog","pricing_plan_id":"free"},{"bike_id":"8703cfe1-da2a-4f5d-9a09-0a4c1b2058c6","system_id":"levelo_inurba_marseille","lat":43.32367,"lon":5.388836,"is_reserved":false,"is_disabled":false,"rental_uris":{"android":"levelo://app?vid=8703cfe1-da2a-4f5d-9a09-0a4c1b2058c6","ios":"levelo://app?vid=8703cfe1-da2a-4f5d-9a09-0a4c1b2058c6"},"vehicle_type_id":"4","last_reported":1693429621,"current_range_meters":31200,"station_id":"ce4bhqp2rcd13ifvqhog","pricing_plan_id":"free"},{"bike_id":"360e53f0-83ba-46ba-8ee0-4bf425fc869a","system_id":"levelo_inurba_marseille","lat":43.32365,"lon":5.38892,"is_reserved":false,"is_disabled":false,"rental_uris":{"android":"levelo://app?vid=360e53f0-83ba-46ba-8ee0-4bf425fc869a","ios":"levelo://app?vid=360e53f0-83ba-46ba-8ee0-4bf425fc869a"},"vehicle_type_id":"4","last_reported":1693429621,"current_range_meters":30000,"station_id":"ce4bhqp2rcd13ifvqhog","pricing_plan_id":"free"},{"bike_id":"0cbbf0e0-677b-4729-8443-eb5f8a351726","system_id":"levelo_inurba_marseille","lat":43.29275,"lon":5.3684,"is_reserved":false,"is_disabled":false,"rental_uris":{"android":"levelo://app?vid=0cbbf0e0-677b-4729-8443-eb5f8a351726","ios":"levelo://app?vid=0cbbf0e0-677b-4729-8443-eb5f8a351726"},"vehicle_type_id":"4","last_reported":1693429621,"current_range_meters":22400,"station_id":"ce4bhbp2rcd13ifvqesg","pricing_plan_id":"free"},{"bike_id":"4fbf1282-7dab-493f-9c4f-c80e3294501c","system_id":"levelo_inurba_marseille","lat":43.32342,"lon":5.39024,"is_reserved":false,"is_disabled":false,"rental_uris":{"android":"levelo://app?vid=4fbf1282-7dab-493f-9c4f-c80e3294501c","ios":"levelo://app?vid=4fbf1282-7dab-493f-9c4f-c80e3294501c"},"vehicle_type_id":"4","last_reported":1693429621,"current_range_meters":12800,"station_id":"","pricing_plan_id":"free"},{"bike_id":"b08328f3-99bc-4ef5-927d-4e857a458020","system_id":"levelo_inurba_marseille","lat":43.32341,"lon":5.39045,"is_reserved":false,"is_disabled":false,"rental_uris":{"android":"levelo://app?vid=b08328f3-99bc-4ef5-927d-4e857a458020","ios":"levelo://app?vid=b08328f3-99bc-4ef5-927d-4e857a458020"},"vehicle_type_id":"4","last_reported":1693429621,"current_range_meters":30800,"station_id":"","pricing_plan_id":"free"},{"bike_id":"af378848-4ab5-4a0c-a75c-c290cd6c3483","system_id":"levelo_inurba_marseille","lat":43.32503,"lon":5.38923,"is_reserved":false,"is_disabled":false,"rental_uris":{"android":"levelo://app?vid=af378848-4ab5-4a0c-a75c-c290cd6c3483","ios":"levelo://app?vid=af378848-4ab5-4a0c-a75c-c290cd6c3483"},"vehicle_type_id":"4","last_reported":1693429621,"current_range_meters":8400,"station_id":"","pricing_plan_id":"free"},{"bike_id":"38fef587-7cc5-4800-b069-87b8f296a10a","system_id":"levelo_inurba_marseille","lat":43.293009,"lon":5.374584,"is_reserved":false,"is_disabled":false,"rental_uris":{"android":"levelo://app?vid=38fef587-7cc5-4800-b069-87b8f296a10a","ios":"levelo://app?vid=38fef587-7cc5-4800-b069-87b8f296a10a"},"vehicle_type_id":"4","last_reported":1693429621,"current_range_meters":31200,"station_id":"ce4bgi12rcd13ifvqb70","pricing_plan_id":"free"},{"bike_id":"6533c646-1091-4458-9ef2-bc9d36dce22d","system_id":"levelo_inurba_marseille","lat":43.293009,"lon":5.374584,"is_reserved":false,"is_disabled":false,"rental_uris":{"android":"levelo://app?vid=6533c646-1091-4458-9ef2-bc9d36dce22d","ios":"levelo://app?vid=6533c646-1091-4458-9ef2-bc9d36dce22d"},"vehicle_type_id":"4","last_reported":1693429621,"current_range_meters":31200,"station_id":"ce4bgi12rcd13ifvqb70","pricing_plan_id":"free"},{"bike_id":"59d4a7cc-c4d8-47e1-a63f-2e26b5d209c3","system_id":"levelo_inurba_marseille","lat":43.2936,"lon":5.37835,"is_reserved":false,"is_disabled":false,"rental_uris":{"android":"levelo://app?vid=59d4a7cc-c4d8-47e1-a63f-2e26b5d209c3","ios":"levelo://app?vid=59d4a7cc-c4d8-47e1-a63f-2e26b5d209c3"},"vehicle_type_id":"4","last_reported":1693429621,"current_range_meters":31200,"station_id":"ce4bgjh2rcd13ifvqbf0","pricing_plan_id":"free"},{"bike_id":"0724f352-a262-45b7-9b71-9a09ff17d945","system_id":"levelo_inurba_marseille","lat":43.30302,"lon":5.39229,"is_reserved":false,"is_disabled":false,"rental_uris":{"android":"levelo://app?vid=0724f352-a262-45b7-9b71-9a09ff17d945","ios":"levelo://app?vid=0724f352-a262-45b7-9b71-9a09ff17d945"},"vehicle_type_id":"4","last_reported":1693429621,"current_range_meters":12400,"station_id":"ce4bgkh2rcd13ifvqbk0","pricing_plan_id":"free"},{"bike_id":"017ca40c-202d-4961-ac14-f076ad677c72","system_id":"levelo_inurba_marseille","lat":43.30085,"lon":5.390856,"is_reserved":false,"is_disabled":false,"rental_uris":{"android":"levelo://app?vid=017ca40c-202d-4961-ac14-f076ad677c72","ios":"levelo://app?vid=017ca40c-202d-4961-ac14-f076ad677c72"},"vehicle_type_id":"4","last_reported":1693429621,"current_range_meters":400,"station_id":"ce4bh192rcd13ifvqdb0","pricing_plan_id":"free"},{"bike_id":"ad4a84e9-1c0f-4336-8bae-e64754a6cd3d","system_id":"levelo_inurba_marseille","lat":43.292198,"lon":5.360601,"is_reserved":false,"is_disabled":false,"rental_uris":{"android":"levelo://app?vid=ad4a84e9-1c0f-4336-8bae-e64754a6cd3d","ios":"levelo://app?vid=ad4a84e9-1c0f-4336-8bae-e64754a6cd3d"},"vehicle_type_id":"4","last_reported":1693429621,"current_range_meters":21600,"station_id":"ce4bhbh2rcd13ifvqeqg","pricing_plan_id":"free"},{"bike_id":"85326bdc-9675-4433-9fd9-b89460df3395","system_id":"levelo_inurba_marseille","lat":43.298764,"lon":5.388973,"is_reserved":false,"is_disabled":false,"rental_uris":{"android":"levelo://app?vid=85326bdc-9675-4433-9fd9-b89460df3395","ios":"levelo://app?vid=85326bdc-9675-4433-9fd9-b89460df3395"},"vehicle_type_id":"4","last_reported":1693429621,"current_range_meters":22800,"station_id":"ce4bh392rcd13ifvqdl0","pricing_plan_id":"free"},{"bike_id":"909a67e3-0a19-4a1b-a74b-06d75dd1bb68","system_id":"levelo_inurba_marseille","lat":43.298764,"lon":5.388973,"is_reserved":false,"is_disabled":false,"rental_uris":{"android":"levelo://app?vid=909a67e3-0a19-4a1b-a74b-06d75dd1bb68","ios":"levelo://app?vid=909a67e3-0a19-4a1b-a74b-06d75dd1bb68"},"vehicle_type_id":"4","last_reported":1693429621,"current_range_meters":1200,"station_id":"ce4bh392rcd13ifvqdl0","pricing_plan_id":"free"},{"bike_id":"17cd1f44-2e7a-46e6-bf47-3a44a51aa68d","system_id":"levelo_inurba_marseille","lat":43.298764,"lon":5.388973,"is_reserved":false,"is_disabled":false,"rental_uris":{"android":"levelo://app?vid=17cd1f44-2e7a-46e6-bf47-3a44a51aa68d","ios":"levelo://app?vid=17cd1f44-2e7a-46e6-bf47-3a44a51aa68d"},"vehicle_type_id":"4","last_reported":1693429621,"current_range_meters":31200,"station_id":"ce4bh392rcd13ifvqdl0","pricing_plan_id":"free"},{"bike_id":"f2384dcf-17bb-472e-bbd3-6d11457768da","system_id":"levelo_inurba_marseille","lat":43.309038,"lon":5.396546,"is_reserved":false,"is_disabled":false,"rental_uris":{"android":"levelo://app?vid=f2384dcf-17bb-472e-bbd3-6d11457768da","ios":"levelo://app?vid=f2384dcf-17bb-472e-bbd3-6d11457768da"},"vehicle_type_id":"4","last_reported":1693429621,"current_range_meters":7200,"station_id":"ce4bh012rcd13ifvqcv0","pricing_plan_id":"free"},{"bike_id":"73c2e0c0-a939-4bc3-943a-e52094180bff","system_id":"levelo_inurba_marseille","lat":43.29192,"lon":5.358,"is_reserved":false,"is_disabled":false,"rental_uris":{"android":"levelo://app?vid=73c2e0c0-a939-4bc3-943a-e52094180bff","ios":"levelo://app?vid=73c2e0c0-a939-4bc3-943a-e52094180bff"},"vehicle_type_id":"4","last_reported":1693429621,"current_range_meters":30400,"station_id":"ce4bhb12rcd13ifvqel0","pricing_plan_id":"free"},{"bike_id":"a6583ed8-a063-49ce-9ea0-a740ebab961c","system_id":"levelo_inurba_marseille","lat":43.30884,"lon":5.39643,"is_reserved":false,"is_disabled":false,"rental_uris":{"android":"levelo://app?vid=a6583ed8-a063-49ce-9ea0-a740ebab961c","ios":"levelo://app?vid=a6583ed8-a063-49ce-9ea0-a740ebab961c"},"vehicle_type_id":"4","last_reported":1693429621,"current_range_meters":29600,"station_id":"ce4bh012rcd13ifvqcv0","pricing_plan_id":"free"},{"bike_id":"86273639-51f0-403b-82cd-e03685ecc9ac","system_id":"levelo_inurba_marseille","lat":43.31331,"lon":5.39693,"is_reserved":false,"is_disabled":false,"rental_uris":{"android":"levelo://app?vid=86273639-51f0-403b-82cd-e03685ecc9ac","ios":"levelo://app?vid=86273639-51f0-403b-82cd-e03685ecc9ac"},"vehicle_type_id":"4","last_reported":1693429621,"current_range_meters":15200,"station_id":"ce4bgvp2rcd13ifvqcu0","pricing_plan_id":"free"},{"bike_id":"e7854f1b-b27d-4e3f-a337-424c74c3257d","system_id":"levelo_inurba_marseille","lat":43.31324,"lon":5.39694,"is_reserved":false,"is_disabled":false,"rental_uris":{"android":"levelo://app?vid=e7854f1b-b27d-4e3f-a337-424c74c3257d","ios":"levelo://app?vid=e7854f1b-b27d-4e3f-a337-424c74c3257d"},"vehicle_type_id":"4","last_reported":1693429621,"current_range_meters":8000,"station_id":"ce4bgvp2rcd13ifvqcu0","pricing_plan_id":"free"},{"bike_id":"c4ba6f1c-5dd2-45fa-8b43-e0dd048f6531","system_id":"levelo_inurba_marseille","lat":43.30881,"lon":5.39647,"is_reserved":false,"is_disabled":false,"rental_uris":{"android":"levelo://app?vid=c4ba6f1c-5dd2-45fa-8b43-e0dd048f6531","ios":"levelo://app?vid=c4ba6f1c-5dd2-45fa-8b43-e0dd048f6531"},"vehicle_type_id":"4","last_reported":1693429621,"current_range_meters":3200,"station_id":"ce4bh012rcd13ifvqcv0","pricing_plan_id":"free"},{"bike_id":"b1a5e919-e1bd-4bbb-a86f-5b7d0154382e","system_id":"levelo_inurba_marseille","lat":43.313291,"lon":5.396838,"is_reserved":false,"is_disabled":false,"rental_uris":{"android":"levelo://app?vid=b1a5e919-e1bd-4bbb-a86f-5b7d0154382e","ios":"levelo://app?vid=b1a5e919-e1bd-4bbb-a86f-5b7d0154382e"},"vehicle_type_id":"4","last_reported":1693429621,"current_range_meters":22800,"station_id":"ce4bgvp2rcd13ifvqcu0","pricing_plan_id":"free"},{"bike_id":"aa0c0c75-15bb-489c-95a3-620c05085b0e","system_id":"levelo_inurba_marseille","lat":43.309038,"lon":5.396546,"is_reserved":false,"is_disabled":false,"rental_uris":{"android":"levelo://app?vid=aa0c0c75-15bb-489c-95a3-620c05085b0e","ios":"levelo://app?vid=aa0c0c75-15bb-489c-95a3-620c05085b0e"},"vehicle_type_id":"4","last_reported":1693429621,"current_range_meters":6000,"station_id":"ce4bh012rcd13ifvqcv0","pricing_plan_id":"free"},{"bike_id":"0d962e12-b732-4464-bc89-f40845207671","system_id":"levelo_inurba_marseille","lat":43.33235,"lon":5.38036,"is_reserved":false,"is_disabled":false,"rental_uris":{"android":"levelo://app?vid=0d962e12-b732-4464-bc89-f40845207671","ios":"levelo://app?vid=0d962e12-b732-4464-bc89-f40845207671"},"vehicle_type_id":"4","last_reported":1693429621,"current_range_meters":19200,"station_id":"","pricing_plan_id":"free"},{"bike_id":"76ecf3cf-38e2-4e04-871e-2eaa7e43d644","system_id":"levelo_inurba_marseille","lat":43.309038,"lon":5.396546,"is_reserved":false,"is_disabled":false,"rental_uris":{"android":"levelo://app?vid=76ecf3cf-38e2-4e04-871e-2eaa7e43d644","ios":"levelo://app?vid=76ecf3cf-38e2-4e04-871e-2eaa7e43d644"},"vehicle_type_id":"4","last_reported":1693429621,"current_range_meters":14800,"station_id":"ce4bh012rcd13ifvqcv0","pricing_plan_id":"free"},{"bike_id":"a59bbf23-4cd0-48c8-afe9-e0425c378276","system_id":"levelo_inurba_marseille","lat":43.29529,"lon":5.385581,"is_reserved":false,"is_disabled":false,"rental_uris":{"android":"levelo://app?vid=a59bbf23-4cd0-48c8-afe9-e0425c378276","ios":"levelo://app?vid=a59bbf23-4cd0-48c8-afe9-e0425c378276"},"vehicle_type_id":"4","last_reported":1693429621,"current_range_meters":16000,"station_id":"ce4bgih2rcd13ifvqba0","pricing_plan_id":"free"},{"bike_id":"f66e7165-ac9b-4198-b5d1-e32e743af600","system_id":"levelo_inurba_marseille","lat":43.29529,"lon":5.385581,"is_reserved":false,"is_disabled":false,"rental_uris":{"android":"levelo://app?vid=f66e7165-ac9b-4198-b5d1-e32e743af600","ios":"levelo://app?vid=f66e7165-ac9b-4198-b5d1-e32e743af600"},"vehicle_type_id":"4","last_reported":1693429621,"current_range_meters":25200,"station_id":"ce4bgih2rcd13ifvqba0","pricing_plan_id":"free"},{"bike_id":"7b8ef5bf-962b-4c11-845d-48d448d6b715","system_id":"levelo_inurba_marseille","lat":43.290779,"lon":5.371482,"is_reserved":false,"is_disabled":false,"rental_uris":{"android":"levelo://app?vid=7b8ef5bf-962b-4c11-845d-48d448d6b715","ios":"levelo://app?vid=7b8ef5bf-962b-4c11-845d-48d448d6b715"},"vehicle_type_id":"4","last_reported":1693429621,"current_range_meters":13200,"station_id":"ce4bh5p2rcd13ifvqe4g","pricing_plan_id":"free"},{"bike_id":"ad1c9e70-5033-49b0-a3f9-55ee35db4099","system_id":"levelo_inurba_marseille","lat":43.302008,"lon":5.394694,"is_reserved":false,"is_disabled":false,"rental_uris":{"android":"levelo://app?vid=ad1c9e70-5033-49b0-a3f9-55ee35db4099","ios":"levelo://app?vid=ad1c9e70-5033-49b0-a3f9-55ee35db4099"},"vehicle_type_id":"4","last_reported":1693429621,"current_range_meters":12800,"station_id":"ce4bh0p2rcd13ifvqd70","pricing_plan_id":"free"},{"bike_id":"cca9bfc6-f0a5-45e8-b2ca-3f5c95a6131d","system_id":"levelo_inurba_marseille","lat":43.290631,"lon":5.359244,"is_reserved":false,"is_disabled":false,"rental_uris":{"android":"levelo://app?vid=cca9bfc6-f0a5-45e8-b2ca-3f5c95a6131d","ios":"levelo://app?vid=cca9bfc6-f0a5-45e8-b2ca-3f5c95a6131d"},"vehicle_type_id":"4","last_reported":1693429621,"current_range_meters":24400,"station_id":"ce4bha92rcd13ifvqeg0","pricing_plan_id":"free"},{"bike_id":"ea81fc87-ae0d-4117-a8bc-5fc20b2bb9b3","system_id":"levelo_inurba_marseille","lat":43.302008,"lon":5.394694,"is_reserved":false,"is_disabled":false,"rental_uris":{"android":"levelo://app?vid=ea81fc87-ae0d-4117-a8bc-5fc20b2bb9b3","ios":"levelo://app?vid=ea81fc87-ae0d-4117-a8bc-5fc20b2bb9b3"},"vehicle_type_id":"4","last_reported":1693429621,"current_range_meters":800,"station_id":"ce4bh0p2rcd13ifvqd70","pricing_plan_id":"free"},{"bike_id":"5aeae72b-fbbd-4eb4-b8e8-da3ce0b35dad","system_id":"levelo_inurba_marseille","lat":43.290624,"lon":5.359245,"is_reserved":false,"is_disabled":false,"rental_uris":{"android":"levelo://app?vid=5aeae72b-fbbd-4eb4-b8e8-da3ce0b35dad","ios":"levelo://app?vid=5aeae72b-fbbd-4eb4-b8e8-da3ce0b35dad"},"vehicle_type_id":"4","last_reported":1693429621,"current_range_meters":30000,"station_id":"ce4bha92rcd13ifvqeg0","pricing_plan_id":"free"},{"bike_id":"5a4bd601-3a14-4e21-a98d-2fc2f9485486","system_id":"levelo_inurba_marseille","lat":43.290631,"lon":5.359244,"is_reserved":false,"is_disabled":false,"rental_uris":{"android":"levelo://app?vid=5a4bd601-3a14-4e21-a98d-2fc2f9485486","ios":"levelo://app?vid=5a4bd601-3a14-4e21-a98d-2fc2f9485486"},"vehicle_type_id":"4","last_reported":1693429621,"current_range_meters":13200,"station_id":"ce4bha92rcd13ifvqeg0","pricing_plan_id":"free"},{"bike_id":"9d6e03c2-b588-488b-82b5-b30795c687b2","system_id":"levelo_inurba_marseille","lat":43.290624,"lon":5.359245,"is_reserved":false,"is_disabled":false,"rental_uris":{"android":"levelo://app?vid=9d6e03c2-b588-488b-82b5-b30795c687b2","ios":"levelo://app?vid=9d6e03c2-b588-488b-82b5-b30795c687b2"},"vehicle_type_id":"4","last_reported":1693429621,"current_range_meters":11600,"station_id":"ce4bha92rcd13ifvqeg0","pricing_plan_id":"free"},{"bike_id":"17459f18-9a4a-4d1e-96b4-9001dd910f53","system_id":"levelo_inurba_marseille","lat":43.289184,"lon":5.366408,"is_reserved":false,"is_disabled":false,"rental_uris":{"android":"levelo://app?vid=17459f18-9a4a-4d1e-96b4-9001dd910f53","ios":"levelo://app?vid=17459f18-9a4a-4d1e-96b4-9001dd910f53"},"vehicle_type_id":"4","last_reported":1693429621,"current_range_meters":800,"station_id":"ce4bhap2rcd13ifvqek0","pricing_plan_id":"free"},{"bike_id":"13b7a4ba-a774-46dc-8db2-123dc432b6d5","system_id":"levelo_inurba_marseille","lat":43.289468,"lon":5.363719,"is_reserved":false,"is_disabled":false,"rental_uris":{"android":"levelo://app?vid=13b7a4ba-a774-46dc-8db2-123dc432b6d5","ios":"levelo://app?vid=13b7a4ba-a774-46dc-8db2-123dc432b6d5"},"vehicle_type_id":"4","last_reported":1693429621,"current_range_meters":29600,"station_id":"ce4bhc92rcd13ifvqetg","pricing_plan_id":"free"},{"bike_id":"509df490-3ef2-4cdd-aaf2-8484295df699","system_id":"levelo_inurba_marseille","lat":43.28933,"lon":5.36637,"is_reserved":false,"is_disabled":false,"rental_uris":{"android":"levelo://app?vid=509df490-3ef2-4cdd-aaf2-8484295df699","ios":"levelo://app?vid=509df490-3ef2-4cdd-aaf2-8484295df699"},"vehicle_type_id":"4","last_reported":1693429621,"current_range_meters":18800,"station_id":"ce4bhap2rcd13ifvqek0","pricing_plan_id":"free"},{"bike_id":"c224b50b-f0cc-4252-8e3c-c0ebe3eba165","system_id":"levelo_inurba_marseille","lat":43.289468,"lon":5.363719,"is_reserved":false,"is_disabled":false,"rental_uris":{"android":"levelo://app?vid=c224b50b-f0cc-4252-8e3c-c0ebe3eba165","ios":"levelo://app?vid=c224b50b-f0cc-4252-8e3c-c0ebe3eba165"},"vehicle_type_id":"4","last_reported":1693429621,"current_range_meters":21200,"station_id":"ce4bhc92rcd13ifvqetg","pricing_plan_id":"free"},{"bike_id":"be09f781-a401-459c-8940-532da6f376c7","system_id":"levelo_inurba_marseille","lat":43.289468,"lon":5.363719,"is_reserved":false,"is_disabled":false,"rental_uris":{"android":"levelo://app?vid=be09f781-a401-459c-8940-532da6f376c7","ios":"levelo://app?vid=be09f781-a401-459c-8940-532da6f376c7"},"vehicle_type_id":"4","last_reported":1693429621,"current_range_meters":14400,"station_id":"ce4bhc92rcd13ifvqetg","pricing_plan_id":"free"},{"bike_id":"2f93318d-a393-4e93-88c9-60d3ec241b0e","system_id":"levelo_inurba_marseille","lat":43.289184,"lon":5.366408,"is_reserved":false,"is_disabled":false,"rental_uris":{"android":"levelo://app?vid=2f93318d-a393-4e93-88c9-60d3ec241b0e","ios":"levelo://app?vid=2f93318d-a393-4e93-88c9-60d3ec241b0e"},"vehicle_type_id":"4","last_reported":1693429621,"current_range_meters":31200,"station_id":"ce4bhap2rcd13ifvqek0","pricing_plan_id":"free"},{"bike_id":"525fd913-42a0-4aee-89f6-e39d75f4ad1f","system_id":"levelo_inurba_marseille","lat":43.289468,"lon":5.363719,"is_reserved":false,"is_disabled":false,"rental_uris":{"android":"levelo://app?vid=525fd913-42a0-4aee-89f6-e39d75f4ad1f","ios":"levelo://app?vid=525fd913-42a0-4aee-89f6-e39d75f4ad1f"},"vehicle_type_id":"4","last_reported":1693429621,"current_range_meters":18800,"station_id":"ce4bhc92rcd13ifvqetg","pricing_plan_id":"free"},{"bike_id":"439017cf-f707-4fc3-b081-400dca2904a4","system_id":"levelo_inurba_marseille","lat":43.289468,"lon":5.363719,"is_reserved":false,"is_disabled":false,"rental_uris":{"android":"levelo://app?vid=439017cf-f707-4fc3-b081-400dca2904a4","ios":"levelo://app?vid=439017cf-f707-4fc3-b081-400dca2904a4"},"vehicle_type_id":"4","last_reported":1693429621,"current_range_meters":22000,"station_id":"ce4bhc92rcd13ifvqetg","pricing_plan_id":"free"},{"bike_id":"b127cb02-a67f-4944-955b-2653cb69db42","system_id":"levelo_inurba_marseille","lat":43.28935,"lon":5.36401,"is_reserved":false,"is_disabled":false,"rental_uris":{"android":"levelo://app?vid=b127cb02-a67f-4944-955b-2653cb69db42","ios":"levelo://app?vid=b127cb02-a67f-4944-955b-2653cb69db42"},"vehicle_type_id":"4","last_reported":1693429621,"current_range_meters":25600,"station_id":"ce4bhc92rcd13ifvqetg","pricing_plan_id":"free"},{"bike_id":"a68cbc10-ef63-499c-bc6e-90ccd1643aff","system_id":"levelo_inurba_marseille","lat":43.289468,"lon":5.363719,"is_reserved":false,"is_disabled":false,"rental_uris":{"android":"levelo://app?vid=a68cbc10-ef63-499c-bc6e-90ccd1643aff","ios":"levelo://app?vid=a68cbc10-ef63-499c-bc6e-90ccd1643aff"},"vehicle_type_id":"4","last_reported":1693429621,"current_range_meters":16000,"station_id":"ce4bhc92rcd13ifvqetg","pricing_plan_id":"free"},{"bike_id":"d22c4e22-4115-4555-9dda-960a3825a6b7","system_id":"levelo_inurba_marseille","lat":43.304296,"lon":5.397513,"is_reserved":false,"is_disabled":false,"rental_uris":{"android":"levelo://app?vid=d22c4e22-4115-4555-9dda-960a3825a6b7","ios":"levelo://app?vid=d22c4e22-4115-4555-9dda-960a3825a6b7"},"vehicle_type_id":"4","last_reported":1693429621,"current_range_meters":13600,"station_id":"ce4bh092rcd13ifvqd20","pricing_plan_id":"free"},{"bike_id":"218312be-77a3-4529-b9b5-e5dd1c6d1ff5","system_id":"levelo_inurba_marseille","lat":43.304274,"lon":5.397513,"is_reserved":false,"is_disabled":false,"rental_uris":{"android":"levelo://app?vid=218312be-77a3-4529-b9b5-e5dd1c6d1ff5","ios":"levelo://app?vid=218312be-77a3-4529-b9b5-e5dd1c6d1ff5"},"vehicle_type_id":"4","last_reported":1693429621,"current_range_meters":6800,"station_id":"ce4bh092rcd13ifvqd20","pricing_plan_id":"free"},{"bike_id":"f0934a73-5521-47f3-b80b-982538cbddb7","system_id":"levelo_inurba_marseille","lat":43.304296,"lon":5.397513,"is_reserved":false,"is_disabled":false,"rental_uris":{"android":"levelo://app?vid=f0934a73-5521-47f3-b80b-982538cbddb7","ios":"levelo://app?vid=f0934a73-5521-47f3-b80b-982538cbddb7"},"vehicle_type_id":"4","last_reported":1693429621,"current_range_meters":23600,"station_id":"ce4bh092rcd13ifvqd20","pricing_plan_id":"free"},{"bike_id":"d11b89ea-03d9-4bd1-8d94-225f53817def","system_id":"levelo_inurba_marseille","lat":43.3304,"lon":5.3892,"is_reserved":false,"is_disabled":false,"rental_uris":{"android":"levelo://app?vid=d11b89ea-03d9-4bd1-8d94-225f53817def","ios":"levelo://app?vid=d11b89ea-03d9-4bd1-8d94-225f53817def"},"vehicle_type_id":"4","last_reported":1693429621,"current_range_meters":22000,"station_id":"ce4bhr92rcd13ifvqhrg","pricing_plan_id":"free"},{"bike_id":"80164406-e4cb-4c3c-bff1-ef3f2f004f8a","system_id":"levelo_inurba_marseille","lat":43.33046,"lon":5.38912,"is_reserved":false,"is_disabled":false,"rental_uris":{"android":"levelo://app?vid=80164406-e4cb-4c3c-bff1-ef3f2f004f8a","ios":"levelo://app?vid=80164406-e4cb-4c3c-bff1-ef3f2f004f8a"},"vehicle_type_id":"4","last_reported":1693429621,"current_range_meters":30000,"station_id":"ce4bhr92rcd13ifvqhrg","pricing_plan_id":"free"},{"bike_id":"c08c9b2c-b6e9-4e3e-9db7-c035a2c47355","system_id":"levelo_inurba_marseille","lat":43.33042,"lon":5.38921,"is_reserved":false,"is_disabled":false,"rental_uris":{"android":"levelo://app?vid=c08c9b2c-b6e9-4e3e-9db7-c035a2c47355","ios":"levelo://app?vid=c08c9b2c-b6e9-4e3e-9db7-c035a2c47355"},"vehicle_type_id":"4","last_reported":1693429621,"current_range_meters":30400,"station_id":"ce4bhr92rcd13ifvqhrg","pricing_plan_id":"free"},{"bike_id":"1f6855f2-5ce0-4004-a5b2-a14147e92639","system_id":"levelo_inurba_marseille","lat":43.33038,"lon":5.38928,"is_reserved":false,"is_disabled":false,"rental_uris":{"android":"levelo://app?vid=1f6855f2-5ce0-4004-a5b2-a14147e92639","ios":"levelo://app?vid=1f6855f2-5ce0-4004-a5b2-a14147e92639"},"vehicle_type_id":"4","last_reported":1693429621,"current_range_meters":27600,"station_id":"ce4bhr92rcd13ifvqhrg","pricing_plan_id":"free"},{"bike_id":"1895038e-acdb-4d35-aa35-e1291f23a30a","system_id":"levelo_inurba_marseille","lat":43.290104,"lon":5.356111,"is_reserved":false,"is_disabled":false,"rental_uris":{"android":"levelo://app?vid=1895038e-acdb-4d35-aa35-e1291f23a30a","ios":"levelo://app?vid=1895038e-acdb-4d35-aa35-e1291f23a30a"},"vehicle_type_id":"4","last_reported":1693429621,"current_range_meters":31200,"station_id":"ce4bhb92rcd13ifvqen0","pricing_plan_id":"free"},{"bike_id":"028b16b4-c861-455c-93e2-214442c48086","system_id":"levelo_inurba_marseille","lat":43.290103,"lon":5.356114,"is_reserved":false,"is_disabled":false,"rental_uris":{"android":"levelo://app?vid=028b16b4-c861-455c-93e2-214442c48086","ios":"levelo://app?vid=028b16b4-c861-455c-93e2-214442c48086"},"vehicle_type_id":"4","last_reported":1693429621,"current_range_meters":31200,"station_id":"ce4bhb92rcd13ifvqen0","pricing_plan_id":"free"},{"bike_id":"12ceef30-511b-4c13-a2b4-28e2146f00ef","system_id":"levelo_inurba_marseille","lat":43.297815,"lon":5.393548,"is_reserved":false,"is_disabled":false,"rental_uris":{"android":"levelo://app?vid=12ceef30-511b-4c13-a2b4-28e2146f00ef","ios":"levelo://app?vid=12ceef30-511b-4c13-a2b4-28e2146f00ef"},"vehicle_type_id":"4","last_reported":1693429621,"current_range_meters":26400,"station_id":"chh1huq6cuj3fo74tm60","pricing_plan_id":"free"},{"bike_id":"aceac2f2-0124-4662-91cb-e1b1fa950cec","system_id":"levelo_inurba_marseille","lat":43.297815,"lon":5.393548,"is_reserved":false,"is_disabled":false,"rental_uris":{"android":"levelo://app?vid=aceac2f2-0124-4662-91cb-e1b1fa950cec","ios":"levelo://app?vid=aceac2f2-0124-4662-91cb-e1b1fa950cec"},"vehicle_type_id":"4","last_reported":1693429621,"current_range_meters":29200,"station_id":"chh1huq6cuj3fo74tm60","pricing_plan_id":"free"},{"bike_id":"0c7a2359-a661-411d-80ee-7db6f9f83603","system_id":"levelo_inurba_marseille","lat":43.29786,"lon":5.39348,"is_reserved":false,"is_disabled":false,"rental_uris":{"android":"levelo://app?vid=0c7a2359-a661-411d-80ee-7db6f9f83603","ios":"levelo://app?vid=0c7a2359-a661-411d-80ee-7db6f9f83603"},"vehicle_type_id":"4","last_reported":1693429621,"current_range_meters":6400,"station_id":"chh1huq6cuj3fo74tm60","pricing_plan_id":"free"},{"bike_id":"dbbbf944-041b-493a-8d0b-921e9705744c","system_id":"levelo_inurba_marseille","lat":43.29787,"lon":5.39351,"is_reserved":false,"is_disabled":false,"rental_uris":{"android":"levelo://app?vid=dbbbf944-041b-493a-8d0b-921e9705744c","ios":"levelo://app?vid=dbbbf944-041b-493a-8d0b-921e9705744c"},"vehicle_type_id":"4","last_reported":1693429621,"current_range_meters":31200,"station_id":"chh1huq6cuj3fo74tm60","pricing_plan_id":"free"},{"bike_id":"2044c706-f528-49b0-92ec-b0045837b268","system_id":"levelo_inurba_marseille","lat":43.297815,"lon":5.393548,"is_reserved":false,"is_disabled":false,"rental_uris":{"android":"levelo://app?vid=2044c706-f528-49b0-92ec-b0045837b268","ios":"levelo://app?vid=2044c706-f528-49b0-92ec-b0045837b268"},"vehicle_type_id":"4","last_reported":1693429621,"current_range_meters":30400,"station_id":"chh1huq6cuj3fo74tm60","pricing_plan_id":"free"},{"bike_id":"e3286ce0-6fc0-4412-b8a3-86137fbb4a68","system_id":"levelo_inurba_marseille","lat":43.297815,"lon":5.393548,"is_reserved":false,"is_disabled":false,"rental_uris":{"android":"levelo://app?vid=e3286ce0-6fc0-4412-b8a3-86137fbb4a68","ios":"levelo://app?vid=e3286ce0-6fc0-4412-b8a3-86137fbb4a68"},"vehicle_type_id":"4","last_reported":1693429621,"current_range_meters":6000,"station_id":"chh1huq6cuj3fo74tm60","pricing_plan_id":"free"},{"bike_id":"1e3df0b3-b1df-4ce1-9402-dee412987a6f","system_id":"levelo_inurba_marseille","lat":43.295169,"lon":5.390426,"is_reserved":false,"is_disabled":false,"rental_uris":{"android":"levelo://app?vid=1e3df0b3-b1df-4ce1-9402-dee412987a6f","ios":"levelo://app?vid=1e3df0b3-b1df-4ce1-9402-dee412987a6f"},"vehicle_type_id":"4","last_reported":1693429621,"current_range_meters":9600,"station_id":"ce4bh3p2rcd13ifvqdp0","pricing_plan_id":"free"},{"bike_id":"f30e1125-f438-42f3-b525-74f63912b455","system_id":"levelo_inurba_marseille","lat":43.295169,"lon":5.390426,"is_reserved":false,"is_disabled":false,"rental_uris":{"android":"levelo://app?vid=f30e1125-f438-42f3-b525-74f63912b455","ios":"levelo://app?vid=f30e1125-f438-42f3-b525-74f63912b455"},"vehicle_type_id":"4","last_reported":1693429621,"current_range_meters":6000,"station_id":"ce4bh3p2rcd13ifvqdp0","pricing_plan_id":"free"},{"bike_id":"11656f04-3434-4075-8991-890d4b786dd9","system_id":"levelo_inurba_marseille","lat":43.295169,"lon":5.390426,"is_reserved":false,"is_disabled":false,"rental_uris":{"android":"levelo://app?vid=11656f04-3434-4075-8991-890d4b786dd9","ios":"levelo://app?vid=11656f04-3434-4075-8991-890d4b786dd9"},"vehicle_type_id":"4","last_reported":1693429621,"current_range_meters":28400,"station_id":"ce4bh3p2rcd13ifvqdp0","pricing_plan_id":"free"},{"bike_id":"d2c1bf91-452b-4184-bd3e-b2d82c12cb40","system_id":"levelo_inurba_marseille","lat":43.28856,"lon":5.358371,"is_reserved":false,"is_disabled":false,"rental_uris":{"android":"levelo://app?vid=d2c1bf91-452b-4184-bd3e-b2d82c12cb40","ios":"levelo://app?vid=d2c1bf91-452b-4184-bd3e-b2d82c12cb40"},"vehicle_type_id":"4","last_reported":1693429621,"current_range_meters":19600,"station_id":"ce4bhb12rcd13ifvqem0","pricing_plan_id":"free"},{"bike_id":"85f136c3-d5d6-4a3e-a590-8c1acf6a4329","system_id":"levelo_inurba_marseille","lat":43.28856,"lon":5.358371,"is_reserved":false,"is_disabled":false,"rental_uris":{"android":"levelo://app?vid=85f136c3-d5d6-4a3e-a590-8c1acf6a4329","ios":"levelo://app?vid=85f136c3-d5d6-4a3e-a590-8c1acf6a4329"},"vehicle_type_id":"4","last_reported":1693429621,"current_range_meters":24400,"station_id":"ce4bhb12rcd13ifvqem0","pricing_plan_id":"free"},{"bike_id":"27424126-1051-47d4-982f-aa19ebe70a67","system_id":"levelo_inurba_marseille","lat":43.33741,"lon":5.37468,"is_reserved":false,"is_disabled":false,"rental_uris":{"android":"levelo://app?vid=27424126-1051-47d4-982f-aa19ebe70a67","ios":"levelo://app?vid=27424126-1051-47d4-982f-aa19ebe70a67"},"vehicle_type_id":"4","last_reported":1693429621,"current_range_meters":8800,"station_id":"","pricing_plan_id":"free"},{"bike_id":"88f601d5-ef5d-4c47-a4b8-b176babc3785","system_id":"levelo_inurba_marseille","lat":43.33746,"lon":5.37467,"is_reserved":false,"is_disabled":false,"rental_uris":{"android":"levelo://app?vid=88f601d5-ef5d-4c47-a4b8-b176babc3785","ios":"levelo://app?vid=88f601d5-ef5d-4c47-a4b8-b176babc3785"},"vehicle_type_id":"4","last_reported":1693429621,"current_range_meters":25200,"station_id":"","pricing_plan_id":"free"},{"bike_id":"593aa583-da6d-46d8-8bb2-e8954977fa3e","system_id":"levelo_inurba_marseille","lat":43.31275,"lon":5.40181,"is_reserved":false,"is_disabled":false,"rental_uris":{"android":"levelo://app?vid=593aa583-da6d-46d8-8bb2-e8954977fa3e","ios":"levelo://app?vid=593aa583-da6d-46d8-8bb2-e8954977fa3e"},"vehicle_type_id":"4","last_reported":1693429621,"current_range_meters":0,"station_id":"ce4bh092rcd13ifvqd30","pricing_plan_id":"free"},{"bike_id":"3a1fe810-4c2e-4037-85fd-efefefeef050","system_id":"levelo_inurba_marseille","lat":43.306538,"lon":5.400845,"is_reserved":false,"is_disabled":false,"rental_uris":{"android":"levelo://app?vid=3a1fe810-4c2e-4037-85fd-efefefeef050","ios":"levelo://app?vid=3a1fe810-4c2e-4037-85fd-efefefeef050"},"vehicle_type_id":"4","last_reported":1693429621,"current_range_meters":23600,"station_id":"ce4bh112rcd13ifvqda0","pricing_plan_id":"free"},{"bike_id":"7102e662-0fdc-4c97-9a59-f86b3f19e7bb","system_id":"levelo_inurba_marseille","lat":43.306542,"lon":5.400897,"is_reserved":false,"is_disabled":false,"rental_uris":{"android":"levelo://app?vid=7102e662-0fdc-4c97-9a59-f86b3f19e7bb","ios":"levelo://app?vid=7102e662-0fdc-4c97-9a59-f86b3f19e7bb"},"vehicle_type_id":"4","last_reported":1693429621,"current_range_meters":18800,"station_id":"ce4bh112rcd13ifvqda0","pricing_plan_id":"free"},{"bike_id":"9ad61bcf-c01c-4662-90f2-6758409b80e9","system_id":"levelo_inurba_marseille","lat":43.30642,"lon":5.401031,"is_reserved":false,"is_disabled":false,"rental_uris":{"android":"levelo://app?vid=9ad61bcf-c01c-4662-90f2-6758409b80e9","ios":"levelo://app?vid=9ad61bcf-c01c-4662-90f2-6758409b80e9"},"vehicle_type_id":"4","last_reported":1693429621,"current_range_meters":30800,"station_id":"ce4bh112rcd13ifvqda0","pricing_plan_id":"free"},{"bike_id":"6f871e5c-bc4e-493a-939a-3ed6484e3bca","system_id":"levelo_inurba_marseille","lat":43.30642,"lon":5.401031,"is_reserved":false,"is_disabled":false,"rental_uris":{"android":"levelo://app?vid=6f871e5c-bc4e-493a-939a-3ed6484e3bca","ios":"levelo://app?vid=6f871e5c-bc4e-493a-939a-3ed6484e3bca"},"vehicle_type_id":"4","last_reported":1693429621,"current_range_meters":11600,"station_id":"ce4bh112rcd13ifvqda0","pricing_plan_id":"free"},{"bike_id":"53f03635-2ae8-498f-b28d-1b97014b1aa9","system_id":"levelo_inurba_marseille","lat":43.30644,"lon":5.400981,"is_reserved":false,"is_disabled":false,"rental_uris":{"android":"levelo://app?vid=53f03635-2ae8-498f-b28d-1b97014b1aa9","ios":"levelo://app?vid=53f03635-2ae8-498f-b28d-1b97014b1aa9"},"vehicle_type_id":"4","last_reported":1693429621,"current_range_meters":27200,"station_id":"ce4bh112rcd13ifvqda0","pricing_plan_id":"free"},{"bike_id":"5c9b930b-95ea-49ea-adff-c6c518c76088","system_id":"levelo_inurba_marseille","lat":43.3065,"lon":5.40106,"is_reserved":false,"is_disabled":false,"rental_uris":{"android":"levelo://app?vid=5c9b930b-95ea-49ea-adff-c6c518c76088","ios":"levelo://app?vid=5c9b930b-95ea-49ea-adff-c6c518c76088"},"vehicle_type_id":"4","last_reported":1693429621,"current_range_meters":13600,"station_id":"ce4bh112rcd13ifvqda0","pricing_plan_id":"free"},{"bike_id":"52641ae1-5b53-412e-9bec-b8a9db43bea3","system_id":"levelo_inurba_marseille","lat":43.30644,"lon":5.40106,"is_reserved":false,"is_disabled":false,"rental_uris":{"android":"levelo://app?vid=52641ae1-5b53-412e-9bec-b8a9db43bea3","ios":"levelo://app?vid=52641ae1-5b53-412e-9bec-b8a9db43bea3"},"vehicle_type_id":"4","last_reported":1693429621,"current_range_meters":29600,"station_id":"ce4bh112rcd13ifvqda0","pricing_plan_id":"free"},{"bike_id":"b6ef3d83-8fc5-4539-906e-d58aeb6eface","system_id":"levelo_inurba_marseille","lat":43.301117,"lon":5.398795,"is_reserved":false,"is_disabled":false,"rental_uris":{"android":"levelo://app?vid=b6ef3d83-8fc5-4539-906e-d58aeb6eface","ios":"levelo://app?vid=b6ef3d83-8fc5-4539-906e-d58aeb6eface"},"vehicle_type_id":"4","last_reported":1693429621,"current_range_meters":26000,"station_id":"ce4bh0h2rcd13ifvqd40","pricing_plan_id":"free"},{"bike_id":"3ecaec9d-34ff-4105-9727-f30f979a076b","system_id":"levelo_inurba_marseille","lat":43.30134,"lon":5.39862,"is_reserved":false,"is_disabled":false,"rental_uris":{"android":"levelo://app?vid=3ecaec9d-34ff-4105-9727-f30f979a076b","ios":"levelo://app?vid=3ecaec9d-34ff-4105-9727-f30f979a076b"},"vehicle_type_id":"4","last_reported":1693429621,"current_range_meters":6800,"station_id":"ce4bh0h2rcd13ifvqd40","pricing_plan_id":"free"},{"bike_id":"95350140-ace1-4f46-959a-548e19f002bc","system_id":"levelo_inurba_marseille","lat":43.301117,"lon":5.398795,"is_reserved":false,"is_disabled":false,"rental_uris":{"android":"levelo://app?vid=95350140-ace1-4f46-959a-548e19f002bc","ios":"levelo://app?vid=95350140-ace1-4f46-959a-548e19f002bc"},"vehicle_type_id":"4","last_reported":1693429621,"current_range_meters":29600,"station_id":"ce4bh0h2rcd13ifvqd40","pricing_plan_id":"free"},{"bike_id":"61399ede-d08a-42b2-80a2-de013bcbe793","system_id":"levelo_inurba_marseille","lat":43.33797,"lon":5.37524,"is_reserved":false,"is_disabled":false,"rental_uris":{"android":"levelo://app?vid=61399ede-d08a-42b2-80a2-de013bcbe793","ios":"levelo://app?vid=61399ede-d08a-42b2-80a2-de013bcbe793"},"vehicle_type_id":"4","last_reported":1693429621,"current_range_meters":31200,"station_id":"","pricing_plan_id":"free"},{"bike_id":"e92a5acf-1076-42e2-bf86-defa312e4086","system_id":"levelo_inurba_marseille","lat":43.28672,"lon":5.36353,"is_reserved":false,"is_disabled":false,"rental_uris":{"android":"levelo://app?vid=e92a5acf-1076-42e2-bf86-defa312e4086","ios":"levelo://app?vid=e92a5acf-1076-42e2-bf86-defa312e4086"},"vehicle_type_id":"4","last_reported":1693429621,"current_range_meters":12000,"station_id":"ce4bhah2rcd13ifvqej0","pricing_plan_id":"free"},{"bike_id":"69779ecb-c62f-4fc4-aca9-7895c1b63b3a","system_id":"levelo_inurba_marseille","lat":43.286593,"lon":5.363346,"is_reserved":false,"is_disabled":false,"rental_uris":{"android":"levelo://app?vid=69779ecb-c62f-4fc4-aca9-7895c1b63b3a","ios":"levelo://app?vid=69779ecb-c62f-4fc4-aca9-7895c1b63b3a"},"vehicle_type_id":"4","last_reported":1693429621,"current_range_meters":7600,"station_id":"ce4bhah2rcd13ifvqej0","pricing_plan_id":"free"},{"bike_id":"118f9707-9358-4fd7-a30e-dc44036e6a84","system_id":"levelo_inurba_marseille","lat":43.286591,"lon":5.363346,"is_reserved":false,"is_disabled":false,"rental_uris":{"android":"levelo://app?vid=118f9707-9358-4fd7-a30e-dc44036e6a84","ios":"levelo://app?vid=118f9707-9358-4fd7-a30e-dc44036e6a84"},"vehicle_type_id":"4","last_reported":1693429621,"current_range_meters":1200,"station_id":"ce4bhah2rcd13ifvqej0","pricing_plan_id":"free"},{"bike_id":"1dc21086-d1e4-4b7e-af4d-0c743ac2dae6","system_id":"levelo_inurba_marseille","lat":43.286961,"lon":5.373785,"is_reserved":false,"is_disabled":false,"rental_uris":{"android":"levelo://app?vid=1dc21086-d1e4-4b7e-af4d-0c743ac2dae6","ios":"levelo://app?vid=1dc21086-d1e4-4b7e-af4d-0c743ac2dae6"},"vehicle_type_id":"4","last_reported":1693429621,"current_range_meters":27200,"station_id":"ce4bh3p2rcd13ifvqdq0","pricing_plan_id":"free"},{"bike_id":"b7ff61b4-f5eb-4877-a994-c635e77bb003","system_id":"levelo_inurba_marseille","lat":43.28664,"lon":5.36358,"is_reserved":false,"is_disabled":false,"rental_uris":{"android":"levelo://app?vid=b7ff61b4-f5eb-4877-a994-c635e77bb003","ios":"levelo://app?vid=b7ff61b4-f5eb-4877-a994-c635e77bb003"},"vehicle_type_id":"4","last_reported":1693429621,"current_range_meters":13600,"station_id":"ce4bhah2rcd13ifvqej0","pricing_plan_id":"free"},{"bike_id":"d556c92a-4e5f-4b4d-9179-d8a372857acb","system_id":"levelo_inurba_marseille","lat":43.286961,"lon":5.373785,"is_reserved":false,"is_disabled":false,"rental_uris":{"android":"levelo://app?vid=d556c92a-4e5f-4b4d-9179-d8a372857acb","ios":"levelo://app?vid=d556c92a-4e5f-4b4d-9179-d8a372857acb"},"vehicle_type_id":"4","last_reported":1693429621,"current_range_meters":11200,"station_id":"ce4bh3p2rcd13ifvqdq0","pricing_plan_id":"free"},{"bike_id":"fbecac70-e377-4e9b-bb74-b204b404126e","system_id":"levelo_inurba_marseille","lat":43.286591,"lon":5.363346,"is_reserved":false,"is_disabled":false,"rental_uris":{"android":"levelo://app?vid=fbecac70-e377-4e9b-bb74-b204b404126e","ios":"levelo://app?vid=fbecac70-e377-4e9b-bb74-b204b404126e"},"vehicle_type_id":"4","last_reported":1693429621,"current_range_meters":0,"station_id":"ce4bhah2rcd13ifvqej0","pricing_plan_id":"free"},{"bike_id":"47d33cc2-faab-45c1-bd6b-b6d0a4eacc9a","system_id":"levelo_inurba_marseille","lat":43.298681,"lon":5.397225,"is_reserved":false,"is_disabled":false,"rental_uris":{"android":"levelo://app?vid=47d33cc2-faab-45c1-bd6b-b6d0a4eacc9a","ios":"levelo://app?vid=47d33cc2-faab-45c1-bd6b-b6d0a4eacc9a"},"vehicle_type_id":"4","last_reported":1693429621,"current_range_meters":27600,"station_id":"ce4bh0h2rcd13ifvqd50","pricing_plan_id":"free"},{"bike_id":"1f96be86-64fe-4ace-96e1-06dafcc56a83","system_id":"levelo_inurba_marseille","lat":43.286593,"lon":5.363346,"is_reserved":false,"is_disabled":false,"rental_uris":{"android":"levelo://app?vid=1f96be86-64fe-4ace-96e1-06dafcc56a83","ios":"levelo://app?vid=1f96be86-64fe-4ace-96e1-06dafcc56a83"},"vehicle_type_id":"4","last_reported":1693429621,"current_range_meters":0,"station_id":"ce4bhah2rcd13ifvqej0","pricing_plan_id":"free"},{"bike_id":"75199276-b705-4ad7-b6a9-49aeaa84628a","system_id":"levelo_inurba_marseille","lat":43.286591,"lon":5.363346,"is_reserved":false,"is_disabled":false,"rental_uris":{"android":"levelo://app?vid=75199276-b705-4ad7-b6a9-49aeaa84628a","ios":"levelo://app?vid=75199276-b705-4ad7-b6a9-49aeaa84628a"},"vehicle_type_id":"4","last_reported":1693429621,"current_range_meters":26800,"station_id":"ce4bhah2rcd13ifvqej0","pricing_plan_id":"free"},{"bike_id":"0a695885-3419-4d63-9fa8-8a95e43af806","system_id":"levelo_inurba_marseille","lat":43.286961,"lon":5.373785,"is_reserved":false,"is_disabled":false,"rental_uris":{"android":"levelo://app?vid=0a695885-3419-4d63-9fa8-8a95e43af806","ios":"levelo://app?vid=0a695885-3419-4d63-9fa8-8a95e43af806"},"vehicle_type_id":"4","last_reported":1693429621,"current_range_meters":28400,"station_id":"ce4bh3p2rcd13ifvqdq0","pricing_plan_id":"free"},{"bike_id":"6991067d-7acf-48a9-8ff2-f3f427265f50","system_id":"levelo_inurba_marseille","lat":43.286961,"lon":5.373785,"is_reserved":false,"is_disabled":false,"rental_uris":{"android":"levelo://app?vid=6991067d-7acf-48a9-8ff2-f3f427265f50","ios":"levelo://app?vid=6991067d-7acf-48a9-8ff2-f3f427265f50"},"vehicle_type_id":"4","last_reported":1693429621,"current_range_meters":19600,"station_id":"ce4bh3p2rcd13ifvqdq0","pricing_plan_id":"free"},{"bike_id":"2365150f-73ab-4507-aea4-76016e6109c8","system_id":"levelo_inurba_marseille","lat":43.286593,"lon":5.363346,"is_reserved":false,"is_disabled":false,"rental_uris":{"android":"levelo://app?vid=2365150f-73ab-4507-aea4-76016e6109c8","ios":"levelo://app?vid=2365150f-73ab-4507-aea4-76016e6109c8"},"vehicle_type_id":"4","last_reported":1693429621,"current_range_meters":31200,"station_id":"ce4bhah2rcd13ifvqej0","pricing_plan_id":"free"},{"bike_id":"e89a6915-105a-41fa-be17-bbf0b67cb070","system_id":"levelo_inurba_marseille","lat":43.298681,"lon":5.397225,"is_reserved":false,"is_disabled":false,"rental_uris":{"android":"levelo://app?vid=e89a6915-105a-41fa-be17-bbf0b67cb070","ios":"levelo://app?vid=e89a6915-105a-41fa-be17-bbf0b67cb070"},"vehicle_type_id":"4","last_reported":1693429621,"current_range_meters":30800,"station_id":"ce4bh0h2rcd13ifvqd50","pricing_plan_id":"free"},{"bike_id":"1e2dcca3-9268-4d4d-97c9-1314995f4c75","system_id":"levelo_inurba_marseille","lat":43.29863,"lon":5.39745,"is_reserved":false,"is_disabled":false,"rental_uris":{"android":"levelo://app?vid=1e2dcca3-9268-4d4d-97c9-1314995f4c75","ios":"levelo://app?vid=1e2dcca3-9268-4d4d-97c9-1314995f4c75"},"vehicle_type_id":"4","last_reported":1693429621,"current_range_meters":20800,"station_id":"ce4bh0h2rcd13ifvqd50","pricing_plan_id":"free"},{"bike_id":"5183a724-c7dc-44e0-8085-7047b4d2423b","system_id":"levelo_inurba_marseille","lat":43.29044,"lon":5.38613,"is_reserved":false,"is_disabled":false,"rental_uris":{"android":"levelo://app?vid=5183a724-c7dc-44e0-8085-7047b4d2423b","ios":"levelo://app?vid=5183a724-c7dc-44e0-8085-7047b4d2423b"},"vehicle_type_id":"4","last_reported":1693429621,"current_range_meters":20400,"station_id":"ce4bh4p2rcd13ifvqe0g","pricing_plan_id":"free"},{"bike_id":"8348fc02-5e1d-4a50-9eae-0a088958e16e","system_id":"levelo_inurba_marseille","lat":43.2869,"lon":5.37383,"is_reserved":false,"is_disabled":false,"rental_uris":{"android":"levelo://app?vid=8348fc02-5e1d-4a50-9eae-0a088958e16e","ios":"levelo://app?vid=8348fc02-5e1d-4a50-9eae-0a088958e16e"},"vehicle_type_id":"4","last_reported":1693429621,"current_range_meters":30800,"station_id":"ce4bh3p2rcd13ifvqdq0","pricing_plan_id":"free"},{"bike_id":"43104262-1ff4-409e-8c5e-128d37d1224b","system_id":"levelo_inurba_marseille","lat":43.286961,"lon":5.373785,"is_reserved":false,"is_disabled":false,"rental_uris":{"android":"levelo://app?vid=43104262-1ff4-409e-8c5e-128d37d1224b","ios":"levelo://app?vid=43104262-1ff4-409e-8c5e-128d37d1224b"},"vehicle_type_id":"4","last_reported":1693429621,"current_range_meters":31200,"station_id":"ce4bh3p2rcd13ifvqdq0","pricing_plan_id":"free"},{"bike_id":"30ff3f6f-bdfb-4906-bba7-424ccf45e209","system_id":"levelo_inurba_marseille","lat":43.295196,"lon":5.39397,"is_reserved":false,"is_disabled":false,"rental_uris":{"android":"levelo://app?vid=30ff3f6f-bdfb-4906-bba7-424ccf45e209","ios":"levelo://app?vid=30ff3f6f-bdfb-4906-bba7-424ccf45e209"},"vehicle_type_id":"4","last_reported":1693429621,"current_range_meters":22000,"station_id":"ce4bh292rcd13ifvqdf0","pricing_plan_id":"free"},{"bike_id":"b62da351-3eef-49ad-9aae-4bb66edb98f8","system_id":"levelo_inurba_marseille","lat":43.295196,"lon":5.39397,"is_reserved":false,"is_disabled":false,"rental_uris":{"android":"levelo://app?vid=b62da351-3eef-49ad-9aae-4bb66edb98f8","ios":"levelo://app?vid=b62da351-3eef-49ad-9aae-4bb66edb98f8"},"vehicle_type_id":"4","last_reported":1693429621,"current_range_meters":18800,"station_id":"ce4bh292rcd13ifvqdf0","pricing_plan_id":"free"},{"bike_id":"f030d674-a844-4bcb-b28c-e494a92321fd","system_id":"levelo_inurba_marseille","lat":43.286961,"lon":5.373785,"is_reserved":false,"is_disabled":false,"rental_uris":{"android":"levelo://app?vid=f030d674-a844-4bcb-b28c-e494a92321fd","ios":"levelo://app?vid=f030d674-a844-4bcb-b28c-e494a92321fd"},"vehicle_type_id":"4","last_reported":1693429621,"current_range_meters":17200,"station_id":"ce4bh3p2rcd13ifvqdq0","pricing_plan_id":"free"},{"bike_id":"93165260-28fe-488a-ab73-f6dfabc96202","system_id":"levelo_inurba_marseille","lat":43.295196,"lon":5.39397,"is_reserved":false,"is_disabled":false,"rental_uris":{"android":"levelo://app?vid=93165260-28fe-488a-ab73-f6dfabc96202","ios":"levelo://app?vid=93165260-28fe-488a-ab73-f6dfabc96202"},"vehicle_type_id":"4","last_reported":1693429621,"current_range_meters":16000,"station_id":"ce4bh292rcd13ifvqdf0","pricing_plan_id":"free"},{"bike_id":"cc84de1a-1083-4055-90b4-f751ed0524f2","system_id":"levelo_inurba_marseille","lat":43.295194,"lon":5.39397,"is_reserved":false,"is_disabled":false,"rental_uris":{"android":"levelo://app?vid=cc84de1a-1083-4055-90b4-f751ed0524f2","ios":"levelo://app?vid=cc84de1a-1083-4055-90b4-f751ed0524f2"},"vehicle_type_id":"4","last_reported":1693429621,"current_range_meters":6000,"station_id":"ce4bh292rcd13ifvqdf0","pricing_plan_id":"free"},{"bike_id":"4639a33d-ef55-44c8-b4bc-53b62385f09f","system_id":"levelo_inurba_marseille","lat":43.295194,"lon":5.39397,"is_reserved":false,"is_disabled":false,"rental_uris":{"android":"levelo://app?vid=4639a33d-ef55-44c8-b4bc-53b62385f09f","ios":"levelo://app?vid=4639a33d-ef55-44c8-b4bc-53b62385f09f"},"vehicle_type_id":"4","last_reported":1693429621,"current_range_meters":31200,"station_id":"ce4bh292rcd13ifvqdf0","pricing_plan_id":"free"},{"bike_id":"b8f3c6e2-f7ed-4d11-9fff-4282d7855e2c","system_id":"levelo_inurba_marseille","lat":43.29041,"lon":5.38661,"is_reserved":false,"is_disabled":false,"rental_uris":{"android":"levelo://app?vid=b8f3c6e2-f7ed-4d11-9fff-4282d7855e2c","ios":"levelo://app?vid=b8f3c6e2-f7ed-4d11-9fff-4282d7855e2c"},"vehicle_type_id":"4","last_reported":1693429621,"current_range_meters":27200,"station_id":"","pricing_plan_id":"free"},{"bike_id":"b8cd3b66-a072-4a45-ad4f-708bbef1326e","system_id":"levelo_inurba_marseille","lat":43.302759,"lon":5.400793,"is_reserved":false,"is_disabled":false,"rental_uris":{"android":"levelo://app?vid=b8cd3b66-a072-4a45-ad4f-708bbef1326e","ios":"levelo://app?vid=b8cd3b66-a072-4a45-ad4f-708bbef1326e"},"vehicle_type_id":"4","last_reported":1693429621,"current_range_meters":26000,"station_id":"ce4bgvh2rcd13ifvqcs0","pricing_plan_id":"free"},{"bike_id":"0fe2ea07-ec90-486d-b101-fa82820ec667","system_id":"levelo_inurba_marseille","lat":43.302759,"lon":5.400793,"is_reserved":false,"is_disabled":false,"rental_uris":{"android":"levelo://app?vid=0fe2ea07-ec90-486d-b101-fa82820ec667","ios":"levelo://app?vid=0fe2ea07-ec90-486d-b101-fa82820ec667"},"vehicle_type_id":"4","last_reported":1693429621,"current_range_meters":24000,"station_id":"ce4bgvh2rcd13ifvqcs0","pricing_plan_id":"free"},{"bike_id":"21606e51-d776-402b-ac6d-3ba8064b2355","system_id":"levelo_inurba_marseille","lat":43.3025,"lon":5.40072,"is_reserved":false,"is_disabled":false,"rental_uris":{"android":"levelo://app?vid=21606e51-d776-402b-ac6d-3ba8064b2355","ios":"levelo://app?vid=21606e51-d776-402b-ac6d-3ba8064b2355"},"vehicle_type_id":"4","last_reported":1693429621,"current_range_meters":19200,"station_id":"ce4bgvh2rcd13ifvqcs0","pricing_plan_id":"free"},{"bike_id":"3acf38a3-9f50-42db-9f08-eb52723b830c","system_id":"levelo_inurba_marseille","lat":43.302759,"lon":5.400793,"is_reserved":false,"is_disabled":false,"rental_uris":{"android":"levelo://app?vid=3acf38a3-9f50-42db-9f08-eb52723b830c","ios":"levelo://app?vid=3acf38a3-9f50-42db-9f08-eb52723b830c"},"vehicle_type_id":"4","last_reported":1693429621,"current_range_meters":8000,"station_id":"ce4bgvh2rcd13ifvqcs0","pricing_plan_id":"free"},{"bike_id":"66e555ba-349a-4f03-b518-ba7239a0bf6a","system_id":"levelo_inurba_marseille","lat":43.286039,"lon":5.370679,"is_reserved":false,"is_disabled":false,"rental_uris":{"android":"levelo://app?vid=66e555ba-349a-4f03-b518-ba7239a0bf6a","ios":"levelo://app?vid=66e555ba-349a-4f03-b518-ba7239a0bf6a"},"vehicle_type_id":"4","last_reported":1693429621,"current_range_meters":3600,"station_id":"ce4bht12rcd13ifvqi60","pricing_plan_id":"free"},{"bike_id":"b9462c69-7cce-4f24-b119-f4a2a9d6215e","system_id":"levelo_inurba_marseille","lat":43.286053,"lon":5.370599,"is_reserved":false,"is_disabled":false,"rental_uris":{"android":"levelo://app?vid=b9462c69-7cce-4f24-b119-f4a2a9d6215e","ios":"levelo://app?vid=b9462c69-7cce-4f24-b119-f4a2a9d6215e"},"vehicle_type_id":"4","last_reported":1693429621,"current_range_meters":20000,"station_id":"","pricing_plan_id":"free"},{"bike_id":"0ba7000f-400e-4e74-8bfc-2862806bbdb5","system_id":"levelo_inurba_marseille","lat":43.287185,"lon":5.379373,"is_reserved":false,"is_disabled":false,"rental_uris":{"android":"levelo://app?vid=0ba7000f-400e-4e74-8bfc-2862806bbdb5","ios":"levelo://app?vid=0ba7000f-400e-4e74-8bfc-2862806bbdb5"},"vehicle_type_id":"4","last_reported":1693429621,"current_range_meters":17600,"station_id":"ce4bh9p2rcd13ifvqec0","pricing_plan_id":"free"},{"bike_id":"e2089f9a-7b0d-43ed-9e88-800222ce2f70","system_id":"levelo_inurba_marseille","lat":43.287185,"lon":5.379373,"is_reserved":false,"is_disabled":false,"rental_uris":{"android":"levelo://app?vid=e2089f9a-7b0d-43ed-9e88-800222ce2f70","ios":"levelo://app?vid=e2089f9a-7b0d-43ed-9e88-800222ce2f70"},"vehicle_type_id":"4","last_reported":1693429621,"current_range_meters":24800,"station_id":"ce4bh9p2rcd13ifvqec0","pricing_plan_id":"free"},{"bike_id":"9ff6fb43-5a7c-4347-bb6c-0bdfd3a8f203","system_id":"levelo_inurba_marseille","lat":43.2871,"lon":5.37944,"is_reserved":false,"is_disabled":false,"rental_uris":{"android":"levelo://app?vid=9ff6fb43-5a7c-4347-bb6c-0bdfd3a8f203","ios":"levelo://app?vid=9ff6fb43-5a7c-4347-bb6c-0bdfd3a8f203"},"vehicle_type_id":"4","last_reported":1693429621,"current_range_meters":2400,"station_id":"ce4bh9p2rcd13ifvqec0","pricing_plan_id":"free"},{"bike_id":"d5bf2c0e-4352-47a3-98a7-418879f9f20e","system_id":"levelo_inurba_marseille","lat":43.28711,"lon":5.37951,"is_reserved":false,"is_disabled":false,"rental_uris":{"android":"levelo://app?vid=d5bf2c0e-4352-47a3-98a7-418879f9f20e","ios":"levelo://app?vid=d5bf2c0e-4352-47a3-98a7-418879f9f20e"},"vehicle_type_id":"4","last_reported":1693429621,"current_range_meters":9600,"station_id":"ce4bh9p2rcd13ifvqec0","pricing_plan_id":"free"},{"bike_id":"d09cd1e0-6ca5-43df-a561-2d07d85f6f78","system_id":"levelo_inurba_marseille","lat":43.28648,"lon":5.37765,"is_reserved":false,"is_disabled":false,"rental_uris":{"android":"levelo://app?vid=d09cd1e0-6ca5-43df-a561-2d07d85f6f78","ios":"levelo://app?vid=d09cd1e0-6ca5-43df-a561-2d07d85f6f78"},"vehicle_type_id":"4","last_reported":1693429621,"current_range_meters":25600,"station_id":"","pricing_plan_id":"free"},{"bike_id":"341e5e98-e5c8-4864-8239-e735408c5487","system_id":"levelo_inurba_marseille","lat":43.316479,"lon":5.404371,"is_reserved":false,"is_disabled":false,"rental_uris":{"android":"levelo://app?vid=341e5e98-e5c8-4864-8239-e735408c5487","ios":"levelo://app?vid=341e5e98-e5c8-4864-8239-e735408c5487"},"vehicle_type_id":"4","last_reported":1693429621,"current_range_meters":0,"station_id":"ce4bh012rcd13ifvqd00","pricing_plan_id":"free"},{"bike_id":"19031808-5c44-456d-b5f6-6d5d81a8ccc0","system_id":"levelo_inurba_marseille","lat":43.31646,"lon":5.40439,"is_reserved":false,"is_disabled":false,"rental_uris":{"android":"levelo://app?vid=19031808-5c44-456d-b5f6-6d5d81a8ccc0","ios":"levelo://app?vid=19031808-5c44-456d-b5f6-6d5d81a8ccc0"},"vehicle_type_id":"4","last_reported":1693429621,"current_range_meters":26800,"station_id":"ce4bh012rcd13ifvqd00","pricing_plan_id":"free"},{"bike_id":"e307881d-1773-42bb-959d-030b34ec3e2e","system_id":"levelo_inurba_marseille","lat":43.316517,"lon":5.404375,"is_reserved":false,"is_disabled":false,"rental_uris":{"android":"levelo://app?vid=e307881d-1773-42bb-959d-030b34ec3e2e","ios":"levelo://app?vid=e307881d-1773-42bb-959d-030b34ec3e2e"},"vehicle_type_id":"4","last_reported":1693429621,"current_range_meters":14000,"station_id":"ce4bh012rcd13ifvqd00","pricing_plan_id":"free"},{"bike_id":"d609ea12-87e2-45e9-9b75-8cee31a54b80","system_id":"levelo_inurba_marseille","lat":43.291994,"lon":5.392907,"is_reserved":false,"is_disabled":false,"rental_uris":{"android":"levelo://app?vid=d609ea12-87e2-45e9-9b75-8cee31a54b80","ios":"levelo://app?vid=d609ea12-87e2-45e9-9b75-8cee31a54b80"},"vehicle_type_id":"4","last_reported":1693429621,"current_range_meters":16400,"station_id":"ce4bh192rcd13ifvqdd0","pricing_plan_id":"free"},{"bike_id":"0ce58e2f-f5d3-42d5-a58c-6f33b051e60c","system_id":"levelo_inurba_marseille","lat":43.291994,"lon":5.392907,"is_reserved":false,"is_disabled":false,"rental_uris":{"android":"levelo://app?vid=0ce58e2f-f5d3-42d5-a58c-6f33b051e60c","ios":"levelo://app?vid=0ce58e2f-f5d3-42d5-a58c-6f33b051e60c"},"vehicle_type_id":"4","last_reported":1693429621,"current_range_meters":14400,"station_id":"ce4bh192rcd13ifvqdd0","pricing_plan_id":"free"},{"bike_id":"cc7f9c40-41b7-4b13-90c3-777af4cb2ff4","system_id":"levelo_inurba_marseille","lat":43.291994,"lon":5.392907,"is_reserved":false,"is_disabled":false,"rental_uris":{"android":"levelo://app?vid=cc7f9c40-41b7-4b13-90c3-777af4cb2ff4","ios":"levelo://app?vid=cc7f9c40-41b7-4b13-90c3-777af4cb2ff4"},"vehicle_type_id":"4","last_reported":1693429621,"current_range_meters":12000,"station_id":"ce4bh192rcd13ifvqdd0","pricing_plan_id":"free"},{"bike_id":"64a2b6c8-9378-4333-a31b-95bedb356bdd","system_id":"levelo_inurba_marseille","lat":43.29448,"lon":5.39721,"is_reserved":false,"is_disabled":false,"rental_uris":{"android":"levelo://app?vid=64a2b6c8-9378-4333-a31b-95bedb356bdd","ios":"levelo://app?vid=64a2b6c8-9378-4333-a31b-95bedb356bdd"},"vehicle_type_id":"4","last_reported":1693429621,"current_range_meters":18400,"station_id":"ce4bh3h2rcd13ifvqdo0","pricing_plan_id":"free"},{"bike_id":"563cbacc-2d5d-4799-b0ad-86940c59adcb","system_id":"levelo_inurba_marseille","lat":43.284538,"lon":5.358657,"is_reserved":false,"is_disabled":false,"rental_uris":{"android":"levelo://app?vid=563cbacc-2d5d-4799-b0ad-86940c59adcb","ios":"levelo://app?vid=563cbacc-2d5d-4799-b0ad-86940c59adcb"},"vehicle_type_id":"4","last_reported":1693429621,"current_range_meters":7600,"station_id":"ce4bhah2rcd13ifvqei0","pricing_plan_id":"free"},{"bike_id":"37738def-3b55-4cbd-ab04-3cb867c239d4","system_id":"levelo_inurba_marseille","lat":43.284538,"lon":5.358657,"is_reserved":false,"is_disabled":false,"rental_uris":{"android":"levelo://app?vid=37738def-3b55-4cbd-ab04-3cb867c239d4","ios":"levelo://app?vid=37738def-3b55-4cbd-ab04-3cb867c239d4"},"vehicle_type_id":"4","last_reported":1693429621,"current_range_meters":30800,"station_id":"ce4bhah2rcd13ifvqei0","pricing_plan_id":"free"},{"bike_id":"939098cc-7bca-45c9-857f-ccbff2aecf91","system_id":"levelo_inurba_marseille","lat":43.28463,"lon":5.35893,"is_reserved":false,"is_disabled":false,"rental_uris":{"android":"levelo://app?vid=939098cc-7bca-45c9-857f-ccbff2aecf91","ios":"levelo://app?vid=939098cc-7bca-45c9-857f-ccbff2aecf91"},"vehicle_type_id":"4","last_reported":1693429621,"current_range_meters":29600,"station_id":"ce4bhah2rcd13ifvqei0","pricing_plan_id":"free"},{"bike_id":"d23f0150-9b43-4f7e-ac83-d0cb60853925","system_id":"levelo_inurba_marseille","lat":43.284534,"lon":5.358662,"is_reserved":false,"is_disabled":false,"rental_uris":{"android":"levelo://app?vid=d23f0150-9b43-4f7e-ac83-d0cb60853925","ios":"levelo://app?vid=d23f0150-9b43-4f7e-ac83-d0cb60853925"},"vehicle_type_id":"4","last_reported":1693429621,"current_range_meters":11600,"station_id":"ce4bhah2rcd13ifvqei0","pricing_plan_id":"free"},{"bike_id":"2165c367-1137-4358-9f58-d6d0a2b13f13","system_id":"levelo_inurba_marseille","lat":43.28461,"lon":5.35895,"is_reserved":false,"is_disabled":false,"rental_uris":{"android":"levelo://app?vid=2165c367-1137-4358-9f58-d6d0a2b13f13","ios":"levelo://app?vid=2165c367-1137-4358-9f58-d6d0a2b13f13"},"vehicle_type_id":"4","last_reported":1693429621,"current_range_meters":1200,"station_id":"ce4bhah2rcd13ifvqei0","pricing_plan_id":"free"},{"bike_id":"46d7e9e3-0b6f-4b15-9fd8-6f2bf1012b6d","system_id":"levelo_inurba_marseille","lat":43.284538,"lon":5.358657,"is_reserved":false,"is_disabled":false,"rental_uris":{"android":"levelo://app?vid=46d7e9e3-0b6f-4b15-9fd8-6f2bf1012b6d","ios":"levelo://app?vid=46d7e9e3-0b6f-4b15-9fd8-6f2bf1012b6d"},"vehicle_type_id":"4","last_reported":1693429621,"current_range_meters":31200,"station_id":"ce4bhah2rcd13ifvqei0","pricing_plan_id":"free"},{"bike_id":"90e04641-15f0-4452-8978-f413e4581e55","system_id":"levelo_inurba_marseille","lat":43.284534,"lon":5.358662,"is_reserved":false,"is_disabled":false,"rental_uris":{"android":"levelo://app?vid=90e04641-15f0-4452-8978-f413e4581e55","ios":"levelo://app?vid=90e04641-15f0-4452-8978-f413e4581e55"},"vehicle_type_id":"4","last_reported":1693429621,"current_range_meters":8400,"station_id":"ce4bhah2rcd13ifvqei0","pricing_plan_id":"free"},{"bike_id":"e57e3ed3-1190-4291-b5d5-77244a2a78f4","system_id":"levelo_inurba_marseille","lat":43.284538,"lon":5.358657,"is_reserved":false,"is_disabled":false,"rental_uris":{"android":"levelo://app?vid=e57e3ed3-1190-4291-b5d5-77244a2a78f4","ios":"levelo://app?vid=e57e3ed3-1190-4291-b5d5-77244a2a78f4"},"vehicle_type_id":"4","last_reported":1693429621,"current_range_meters":31600,"station_id":"ce4bhah2rcd13ifvqei0","pricing_plan_id":"free"},{"bike_id":"03960b40-24f9-413b-865e-b4f2f4d55cf5","system_id":"levelo_inurba_marseille","lat":43.2846,"lon":5.35893,"is_reserved":false,"is_disabled":false,"rental_uris":{"android":"levelo://app?vid=03960b40-24f9-413b-865e-b4f2f4d55cf5","ios":"levelo://app?vid=03960b40-24f9-413b-865e-b4f2f4d55cf5"},"vehicle_type_id":"4","last_reported":1693429621,"current_range_meters":4800,"station_id":"ce4bhah2rcd13ifvqei0","pricing_plan_id":"free"},{"bike_id":"13825485-ad60-4a6c-9907-37078d8305ba","system_id":"levelo_inurba_marseille","lat":43.28459,"lon":5.35898,"is_reserved":false,"is_disabled":false,"rental_uris":{"android":"levelo://app?vid=13825485-ad60-4a6c-9907-37078d8305ba","ios":"levelo://app?vid=13825485-ad60-4a6c-9907-37078d8305ba"},"vehicle_type_id":"4","last_reported":1693429621,"current_range_meters":18000,"station_id":"ce4bhah2rcd13ifvqei0","pricing_plan_id":"free"},{"bike_id":"93a13305-ee19-4544-93b4-b43e5dc82092","system_id":"levelo_inurba_marseille","lat":43.28459,"lon":5.35897,"is_reserved":false,"is_disabled":false,"rental_uris":{"android":"levelo://app?vid=93a13305-ee19-4544-93b4-b43e5dc82092","ios":"levelo://app?vid=93a13305-ee19-4544-93b4-b43e5dc82092"},"vehicle_type_id":"4","last_reported":1693429621,"current_range_meters":30400,"station_id":"ce4bhah2rcd13ifvqei0","pricing_plan_id":"free"},{"bike_id":"51317c3e-755c-42ec-959a-e515783dc80f","system_id":"levelo_inurba_marseille","lat":43.284538,"lon":5.358657,"is_reserved":false,"is_disabled":false,"rental_uris":{"android":"levelo://app?vid=51317c3e-755c-42ec-959a-e515783dc80f","ios":"levelo://app?vid=51317c3e-755c-42ec-959a-e515783dc80f"},"vehicle_type_id":"4","last_reported":1693429621,"current_range_meters":28000,"station_id":"ce4bhah2rcd13ifvqei0","pricing_plan_id":"free"},{"bike_id":"50088031-ec8c-4c2f-97b5-11f9a3763018","system_id":"levelo_inurba_marseille","lat":43.284538,"lon":5.358657,"is_reserved":false,"is_disabled":false,"rental_uris":{"android":"levelo://app?vid=50088031-ec8c-4c2f-97b5-11f9a3763018","ios":"levelo://app?vid=50088031-ec8c-4c2f-97b5-11f9a3763018"},"vehicle_type_id":"4","last_reported":1693429621,"current_range_meters":15600,"station_id":"ce4bhah2rcd13ifvqei0","pricing_plan_id":"free"},{"bike_id":"94643bdd-616c-4191-bee5-c017414b0e25","system_id":"levelo_inurba_marseille","lat":43.28458,"lon":5.35887,"is_reserved":false,"is_disabled":false,"rental_uris":{"android":"levelo://app?vid=94643bdd-616c-4191-bee5-c017414b0e25","ios":"levelo://app?vid=94643bdd-616c-4191-bee5-c017414b0e25"},"vehicle_type_id":"4","last_reported":1693429621,"current_range_meters":11200,"station_id":"ce4bhah2rcd13ifvqei0","pricing_plan_id":"free"},{"bike_id":"4d5de402-71b7-4d48-8c3f-2eb1e9be418f","system_id":"levelo_inurba_marseille","lat":43.284534,"lon":5.358662,"is_reserved":false,"is_disabled":false,"rental_uris":{"android":"levelo://app?vid=4d5de402-71b7-4d48-8c3f-2eb1e9be418f","ios":"levelo://app?vid=4d5de402-71b7-4d48-8c3f-2eb1e9be418f"},"vehicle_type_id":"4","last_reported":1693429621,"current_range_meters":30400,"station_id":"ce4bhah2rcd13ifvqei0","pricing_plan_id":"free"},{"bike_id":"129a22e3-e626-45fc-8d63-0974e4941b3e","system_id":"levelo_inurba_marseille","lat":43.284534,"lon":5.358662,"is_reserved":false,"is_disabled":false,"rental_uris":{"android":"levelo://app?vid=129a22e3-e626-45fc-8d63-0974e4941b3e","ios":"levelo://app?vid=129a22e3-e626-45fc-8d63-0974e4941b3e"},"vehicle_type_id":"4","last_reported":1693429621,"current_range_meters":29600,"station_id":"ce4bhah2rcd13ifvqei0","pricing_plan_id":"free"},{"bike_id":"462530a5-ee06-4975-a530-91e6f9fb3fba","system_id":"levelo_inurba_marseille","lat":43.284534,"lon":5.358662,"is_reserved":false,"is_disabled":false,"rental_uris":{"android":"levelo://app?vid=462530a5-ee06-4975-a530-91e6f9fb3fba","ios":"levelo://app?vid=462530a5-ee06-4975-a530-91e6f9fb3fba"},"vehicle_type_id":"4","last_reported":1693429621,"current_range_meters":31600,"station_id":"ce4bhah2rcd13ifvqei0","pricing_plan_id":"free"},{"bike_id":"e2d40385-9d4a-4fca-ba12-69416f859d64","system_id":"levelo_inurba_marseille","lat":43.286166,"lon":5.351096,"is_reserved":false,"is_disabled":false,"rental_uris":{"android":"levelo://app?vid=e2d40385-9d4a-4fca-ba12-69416f859d64","ios":"levelo://app?vid=e2d40385-9d4a-4fca-ba12-69416f859d64"},"vehicle_type_id":"4","last_reported":1693429621,"current_range_meters":31200,"station_id":"ce4bhch2rcd13ifvqeug","pricing_plan_id":"free"},