{"last_updated":1730681293,"ttl":60,"version":"2.2","data":{"bikes":[{"bike_id":"18db7a38-fb1c-4f2b-a7d3-41ca5532cc0b","system_id":"levelo_inurba_marseille","lat":43.32333,"lon":5.40622,"is_reserved":false,"is_disabled":false,"rental_uris":{"android":"levelo://app?vid=18db7a38-fb1c-4f2b-a7d3-41ca5532cc0b","ios":"levelo://app?vid=18db7a38-fb1c-4f2b-a7d3-41ca5532cc0b"},"vehicle_type_id":"4","last_reported":1730681293,"current_range_meters":16400,"station_id":"ce4bhq92rcd13ifvqhjg","pricing_plan_id":"cebpf4jnsgd1na2vs0mg"},{"bike_id":"d254042f-2a34-494c-99c1-5a16d0a8e631","system_id":"levelo_inurba_marseille","lat":43.26502,"lon":5.39548,"is_reserved":false,"is_disabled":false,"rental_uris":{"android":"levelo://app?vid=d254042f-2a34-494c-99c1-5a16d0a8e631","ios":"levelo://app?vid=d254042f-2a34-494c-99c1-5a16d0a8e631"},"vehicle_type_id":"4","last_reported":1730681293,"current_range_meters":29600,"station_id":"ce4bhi12rcd13ifvqfq0","pricing_plan_id":"cebpf4jnsgd1na2vs0mg"},{"bike_id":"cb5dd090-9b16-4336-9b85-e93aadf03b23","system_id":"levelo_inurba_marseille","lat":43.30255,"lon":5.40089,"is_reserved":false,"is_disabled":false,"rental_uris":{"android":"levelo://app?vid=cb5dd090-9b16-4336-9b85-e93aadf03b23","ios":"levelo://app?vid=cb5dd090-9b16-4336-9b85-e93aadf03b23"},"vehicle_type_id":"4","last_reported":1730681293,"current_range_meters":37600,"station_id":"ce4bgvh2rcd13ifvqcs0","pricing_plan_id":"cebpf4jnsgd1na2vs0mg"},{"bike_id":"d00abb61-0e57-498d-9b2a-8beda63b6fef","system_id":"levelo_inurba_marseille","lat":43.30888,"lon":5.3965,"is_reserved":false,"is_disabled":false,"rental_uris":{"android":"levelo://app?vid=d00abb61-0e57-498d-9b2a-8beda63b6fef","ios":"levelo://app?vid=d00abb61-0e57-498d-9b2a-8beda63b6fef"},"vehicle_type_id":"4","last_reported":1730681293,"current_range_meters":38800,"station_id":"ce4bh012rcd13ifvqcv0","pricing_plan_id":"cebpf4jnsgd1na2vs0mg"},{"bike_id":"e1a738f4-d190-4319-951b-0640d9a57607","system_id":"levelo_inurba_marseille","lat":43.3302,"lon":5.39036,"is_reserved":false,"is_disabled":false,"rental_uris":{"android":"levelo://app?vid=e1a738f4-d190-4319-951b-0640d9a57607","ios":"levelo://app?vid=e1a738f4-d190-4319-951b-0640d9a57607"},"vehicle_type_id":"4","last_reported":1730681293,"current_range_meters":8000,"station_id":"ce4bhr92rcd13ifvqhrg","pricing_plan_id":"cebpf4jnsgd1na2vs0mg"},{"bike_id":"2406ce02-b72b-4986-942d-52a2e7d62ca3","system_id":"levelo_inurba_marseille","lat":43.30429,"lon":5.38899,"is_reserved":false,"is_disabled":false,"rental_uris":{"android":"levelo://app?vid=2406ce02-b72b-4986-942d-52a2e7d62ca3","ios":"levelo://app?vid=2406ce02-b72b-4986-942d-52a2e7d62ca3"},"vehicle_type_id":"4","last_reported":1730681293,"current_range_meters":38800,"station_id":"ce4bgk12rcd13ifvqbi0","pricing_plan_id":"cebpf4jnsgd1na2vs0mg"},{"bike_id":"f2f2c9b8-7f0b-411b-830a-ca250fa7128b","system_id":"levelo_inurba_marseille","lat":43.29196,"lon":5.39315,"is_reserved":false,"is_disabled":false,"rental_uris":{"android":"levelo://app?vid=f2f2c9b8-7f0b-411b-830a-ca250fa7128b","ios":"levelo://app?vid=f2f2c9b8-7f0b-411b-830a-ca250fa7128b"},"vehicle_type_id":"4","last_reported":1730681293,"current_range_meters":36400,"station_id":"ce4bh192rcd13ifvqdd0","pricing_plan_id":"cebpf4jnsgd1na2vs0mg"},{"bike_id":"84cd346e-b95a-41f9-83f2-f8ac21466dd6","system_id":"levelo_inurba_marseille","lat":43.29516,"lon":5.39416,"is_reserved":false,"is_disabled":false,"rental_uris":{"android":"levelo://app?vid=84cd346e-b95a-41f9-83f2-f8ac21466dd6","ios":"levelo://app?vid=84cd346e-b95a-41f9-83f2-f8ac21466dd6"},"vehicle_type_id":"4","last_reported":1730681293,"current_range_meters":38800,"station_id":"ce4bh292rcd13ifvqdf0","pricing_plan_id":"cebpf4jnsgd1na2vs0mg"},{"bike_id":"1400481a-d64a-45f2-94ac-6b422dab62e4","system_id":"levelo_inurba_marseille","lat":43.31329,"lon":5.39698,"is_reserved":false,"is_disabled":false,"rental_uris":{"android":"levelo://app?vid=1400481a-d64a-45f2-94ac-6b422dab62e4","ios":"levelo://app?vid=1400481a-d64a-45f2-94ac-6b422dab62e4"},"vehicle_type_id":"4","last_reported":1730681293,"current_range_meters":38800,"station_id":"ce4bgvp2rcd13ifvqcu0","pricing_plan_id":"cebpf4jnsgd1na2vs0mg"},{"bike_id":"f43d4415-80e9-4e60-9a34-d8b68f1c11c9","system_id":"levelo_inurba_marseille","lat":43.2835,"lon":5.38107,"is_reserved":false,"is_disabled":false,"rental_uris":{"android":"levelo://app?vid=f43d4415-80e9-4e60-9a34-d8b68f1c11c9","ios":"levelo://app?vid=f43d4415-80e9-4e60-9a34-d8b68f1c11c9"},"vehicle_type_id":"4","last_reported":1730681293,"current_range_meters":38800,"station_id":"ce4bh412rcd13ifvqdr0","pricing_plan_id":"cebpf4jnsgd1na2vs0mg"},{"bike_id":"3da35dce-79f8-44c4-8e97-0069b09975e5","system_id":"levelo_inurba_marseille","lat":43.28697,"lon":5.3998,"is_reserved":false,"is_disabled":false,"rental_uris":{"android":"levelo://app?vid=3da35dce-79f8-44c4-8e97-0069b09975e5","ios":"levelo://app?vid=3da35dce-79f8-44c4-8e97-0069b09975e5"},"vehicle_type_id":"4","last_reported":1730681293,"current_range_meters":38800,"station_id":"ce4bho92rcd13ifvqh3g","pricing_plan_id":"cebpf4jnsgd1na2vs0mg"},{"bike_id":"fcd81767-2dc7-4408-b5a4-0eadcf4a175a","system_id":"levelo_inurba_marseille","lat":43.31757,"lon":5.39025,"is_reserved":false,"is_disabled":false,"rental_uris":{"android":"levelo://app?vid=fcd81767-2dc7-4408-b5a4-0eadcf4a175a","ios":"levelo://app?vid=fcd81767-2dc7-4408-b5a4-0eadcf4a175a"},"vehicle_type_id":"4","last_reported":1730681293,"current_range_meters":38000,"station_id":"ce4bhqp2rcd13ifvqhng","pricing_plan_id":"cebpf4jnsgd1na2vs0mg"},{"bike_id":"66985a72-6dec-4528-bb13-5a4a46a040b6","system_id":"levelo_inurba_marseille","lat":43.25724,"lon":5.41107,"is_reserved":false,"is_disabled":false,"rental_uris":{"android":"levelo://app?vid=66985a72-6dec-4528-bb13-5a4a46a040b6","ios":"levelo://app?vid=66985a72-6dec-4528-bb13-5a4a46a040b6"},"vehicle_type_id":"4","last_reported":1730681293,"current_range_meters":30000,"station_id":"ce4bhkp2rcd13ifvqgd0","pricing_plan_id":"cebpf4jnsgd1na2vs0mg"},{"bike_id":"d91c7ac8-e5af-41dc-abe1-e6c25aa004df","system_id":"levelo_inurba_marseille","lat":43.28849,"lon":5.39305,"is_reserved":false,"is_disabled":false,"rental_uris":{"android":"levelo://app?vid=d91c7ac8-e5af-41dc-abe1-e6c25aa004df","ios":"levelo://app?vid=d91c7ac8-e5af-41dc-abe1-e6c25aa004df"},"vehicle_type_id":"4","last_reported":1730681293,"current_range_meters":22400,"station_id":"ce4bh2p2rcd13ifvqdi0","pricing_plan_id":"cebpf4jnsgd1na2vs0mg"},{"bike_id":"f000d6ee-3311-4e0f-8f93-4332274a3604","system_id":"levelo_inurba_marseille","lat":43.25826,"lon":5.39437,"is_reserved":false,"is_disabled":false,"rental_uris":{"android":"levelo://app?vid=f000d6ee-3311-4e0f-8f93-4332274a3604","ios":"levelo://app?vid=f000d6ee-3311-4e0f-8f93-4332274a3604"},"vehicle_type_id":"4","last_reported":1730681293,"current_range_meters":38800,"station_id":"ce4bhip2rcd13ifvqft0","pricing_plan_id":"cebpf4jnsgd1na2vs0mg"},{"bike_id":"ac6007e9-3662-42df-bfad-f48b7dd146f0","system_id":"levelo_inurba_marseille","lat":43.2648,"lon":5.39558,"is_reserved":false,"is_disabled":false,"rental_uris":{"android":"levelo://app?vid=ac6007e9-3662-42df-bfad-f48b7dd146f0","ios":"levelo://app?vid=ac6007e9-3662-42df-bfad-f48b7dd146f0"},"vehicle_type_id":"4","last_reported":1730681293,"current_range_meters":24400,"station_id":"ce4bhi12rcd13ifvqfq0","pricing_plan_id":"cebpf4jnsgd1na2vs0mg"},{"bike_id":"9d595e5c-d7f5-4c7a-bb7a-8c04bcf3ac7b","system_id":"levelo_inurba_marseille","lat":43.30884,"lon":5.39641,"is_reserved":false,"is_disabled":false,"rental_uris":{"android":"levelo://app?vid=9d595e5c-d7f5-4c7a-bb7a-8c04bcf3ac7b","ios":"levelo://app?vid=9d595e5c-d7f5-4c7a-bb7a-8c04bcf3ac7b"},"vehicle_type_id":"4","last_reported":1730681293,"current_range_meters":25600,"station_id":"ce4bh012rcd13ifvqcv0","pricing_plan_id":"cebpf4jnsgd1na2vs0mg"},{"bike_id":"205a086c-8a81-42da-b9f6-fee8e745f8ed","system_id":"levelo_inurba_marseille","lat":43.25721,"lon":5.41116,"is_reserved":false,"is_disabled":false,"rental_uris":{"android":"levelo://app?vid=205a086c-8a81-42da-b9f6-fee8e745f8ed","ios":"levelo://app?vid=205a086c-8a81-42da-b9f6-fee8e745f8ed"},"vehicle_type_id":"4","last_reported":1730681293,"current_range_meters":36400,"station_id":"ce4bhkp2rcd13ifvqgd0","pricing_plan_id":"cebpf4jnsgd1na2vs0mg"},{"bike_id":"38e520d4-7fa0-4038-8595-0c1445c11904","system_id":"levelo_inurba_marseille","lat":43.28031,"lon":5.36949,"is_reserved":false,"is_disabled":false,"rental_uris":{"android":"levelo://app?vid=38e520d4-7fa0-4038-8595-0c1445c11904","ios":"levelo://app?vid=38e520d4-7fa0-4038-8595-0c1445c11904"},"vehicle_type_id":"4","last_reported":1730681293,"current_range_meters":38800,"station_id":"ce4bha12rcd13ifvqef0","pricing_plan_id":"cebpf4jnsgd1na2vs0mg"},{"bike_id":"27493541-d07e-4a7d-b6d5-0bb3b0d5dd24","system_id":"levelo_inurba_marseille","lat":43.27991,"lon":5.40004,"is_reserved":false,"is_disabled":false,"rental_uris":{"android":"levelo://app?vid=27493541-d07e-4a7d-b6d5-0bb3b0d5dd24","ios":"levelo://app?vid=27493541-d07e-4a7d-b6d5-0bb3b0d5dd24"},"vehicle_type_id":"4","last_reported":1730681293,"current_range_meters":33600,"station_id":"ce4bho92rcd13ifvqh4g","pricing_plan_id":"cebpf4jnsgd1na2vs0mg"},{"bike_id":"721971d4-8baf-40a2-96cb-944e0c652d93","system_id":"levelo_inurba_marseille","lat":43.28699,"lon":5.39989,"is_reserved":false,"is_disabled":false,"rental_uris":{"android":"levelo://app?vid=721971d4-8baf-40a2-96cb-944e0c652d93","ios":"levelo://app?vid=721971d4-8baf-40a2-96cb-944e0c652d93"},"vehicle_type_id":"4","last_reported":1730681293,"current_range_meters":38800,"station_id":"ce4bho92rcd13ifvqh3g","pricing_plan_id":"cebpf4jnsgd1na2vs0mg"},{"bike_id":"ce1e8619-04ff-405b-9be9-ec52eaf05b76","system_id":"levelo_inurba_marseille","lat":43.3096,"lon":5.39053,"is_reserved":false,"is_disabled":false,"rental_uris":{"android":"levelo://app?vid=ce1e8619-04ff-405b-9be9-ec52eaf05b76","ios":"levelo://app?vid=ce1e8619-04ff-405b-9be9-ec52eaf05b76"},"vehicle_type_id":"4","last_reported":1730681293,"current_range_meters":30400,"station_id":"ce4bgup2rcd13ifvqco0","pricing_plan_id":"cebpf4jnsgd1na2vs0mg"},{"bike_id":"1ba580c9-3fb0-4129-84ee-aeea1e5c3f92","system_id":"levelo_inurba_marseille","lat":43.31998,"lon":5.38155,"is_reserved":false,"is_disabled":false,"rental_uris":{"android":"levelo://app?vid=1ba580c9-3fb0-4129-84ee-aeea1e5c3f92","ios":"levelo://app?vid=1ba580c9-3fb0-4129-84ee-aeea1e5c3f92"},"vehicle_type_id":"4","last_reported":1730681293,"current_range_meters":30000,"station_id":"ce4bhr12rcd13ifvqhpg","pricing_plan_id":"cebpf4jnsgd1na2vs0mg"},{"bike_id":"4147bbfb-4b14-4aca-b782-8ec6c0473609","system_id":"levelo_inurba_marseille","lat":43.23599,"lon":5.40346,"is_reserved":false,"is_disabled":false,"rental_uris":{"android":"levelo://app?vid=4147bbfb-4b14-4aca-b782-8ec6c0473609","ios":"levelo://app?vid=4147bbfb-4b14-4aca-b782-8ec6c0473609"},"vehicle_type_id":"4","last_reported":1730681293,"current_range_meters":18000,"station_id":"","pricing_plan_id":"cebpf4jnsgd1na2vs0mg"},{"bike_id":"1bdcf973-ef00-411e-850c-3aa168aad64d","system_id":"levelo_inurba_marseille","lat":43.27961,"lon":5.38706,"is_reserved":false,"is_disabled":false,"rental_uris":{"android":"levelo://app?vid=1bdcf973-ef00-411e-850c-3aa168aad64d","ios":"levelo://app?vid=1bdcf973-ef00-411e-850c-3aa168aad64d"},"vehicle_type_id":"4","last_reported":1730681293,"current_range_meters":36800,"station_id":"ce4bhg12rcd13ifvqf80","pricing_plan_id":"cebpf4jnsgd1na2vs0mg"},{"bike_id":"ca570bd7-4199-494b-b048-822d5f86f8d2","system_id":"levelo_inurba_marseille","lat":43.28703,"lon":5.37946,"is_reserved":false,"is_disabled":false,"rental_uris":{"android":"levelo://app?vid=ca570bd7-4199-494b-b048-822d5f86f8d2","ios":"levelo://app?vid=ca570bd7-4199-494b-b048-822d5f86f8d2"},"vehicle_type_id":"4","last_reported":1730681293,"current_range_meters":37600,"station_id":"ce4bh9p2rcd13ifvqec0","pricing_plan_id":"cebpf4jnsgd1na2vs0mg"},{"bike_id":"e34cb0e5-64fe-41ba-a20c-7021cdc7697f","system_id":"levelo_inurba_marseille","lat":43.28004,"lon":5.40017,"is_reserved":false,"is_disabled":false,"rental_uris":{"android":"levelo://app?vid=e34cb0e5-64fe-41ba-a20c-7021cdc7697f","ios":"levelo://app?vid=e34cb0e5-64fe-41ba-a20c-7021cdc7697f"},"vehicle_type_id":"4","last_reported":1730681293,"current_range_meters":38800,"station_id":"ce4bho92rcd13ifvqh4g","pricing_plan_id":"cebpf4jnsgd1na2vs0mg"},{"bike_id":"951a86b0-34d7-49cf-8185-35e052067ac1","system_id":"levelo_inurba_marseille","lat":43.28656,"lon":5.38672,"is_reserved":false,"is_disabled":false,"rental_uris":{"android":"levelo://app?vid=951a86b0-34d7-49cf-8185-35e052067ac1","ios":"levelo://app?vid=951a86b0-34d7-49cf-8185-35e052067ac1"},"vehicle_type_id":"4","last_reported":1730681293,"current_range_meters":38800,"station_id":"ce4bh492rcd13ifvqdug","pricing_plan_id":"cebpf4jnsgd1na2vs0mg"},{"bike_id":"085e82ad-9804-47b6-9ba5-6bbb40aaef5b","system_id":"levelo_inurba_marseille","lat":43.30888,"lon":5.39641,"is_reserved":false,"is_disabled":false,"rental_uris":{"android":"levelo://app?vid=085e82ad-9804-47b6-9ba5-6bbb40aaef5b","ios":"levelo://app?vid=085e82ad-9804-47b6-9ba5-6bbb40aaef5b"},"vehicle_type_id":"4","last_reported":1730681293,"current_range_meters":38400,"station_id":"ce4bh012rcd13ifvqcv0","pricing_plan_id":"cebpf4jnsgd1na2vs0mg"},{"bike_id":"e03c317c-2ae8-4330-8bba-2fd17b1d627f","system_id":"levelo_inurba_marseille","lat":43.29051,"lon":5.35912,"is_reserved":false,"is_disabled":false,"rental_uris":{"android":"levelo://app?vid=e03c317c-2ae8-4330-8bba-2fd17b1d627f","ios":"levelo://app?vid=e03c317c-2ae8-4330-8bba-2fd17b1d627f"},"vehicle_type_id":"4","last_reported":1730681293,"current_range_meters":38000,"station_id":"ce4bha92rcd13ifvqeg0","pricing_plan_id":"cebpf4jnsgd1na2vs0mg"},{"bike_id":"b97d9adc-ce60-4c39-8afd-921a04111eb6","system_id":"levelo_inurba_marseille","lat":43.34138,"lon":5.40896,"is_reserved":false,"is_disabled":false,"rental_uris":{"android":"levelo://app?vid=b97d9adc-ce60-4c39-8afd-921a04111eb6","ios":"levelo://app?vid=b97d9adc-ce60-4c39-8afd-921a04111eb6"},"vehicle_type_id":"4","last_reported":1730681293,"current_range_meters":27200,"station_id":"ce4bhqh2rcd13ifvqhlg","pricing_plan_id":"cebpf4jnsgd1na2vs0mg"},{"bike_id":"588baee5-4692-419b-a9d4-4fe9fc60747a","system_id":"levelo_inurba_marseille","lat":43.31355,"lon":5.38502,"is_reserved":false,"is_disabled":false,"rental_uris":{"android":"levelo://app?vid=588baee5-4692-419b-a9d4-4fe9fc60747a","ios":"levelo://app?vid=588baee5-4692-419b-a9d4-4fe9fc60747a"},"vehicle_type_id":"4","last_reported":1730681293,"current_range_meters":14000,"station_id":"ce4bgt92rcd13ifvqcf0","pricing_plan_id":"cebpf4jnsgd1na2vs0mg"},{"bike_id":"7a58bdc6-5db2-4543-b33d-6202d289b688","system_id":"levelo_inurba_marseille","lat":43.33732,"lon":5.39189,"is_reserved":false,"is_disabled":false,"rental_uris":{"android":"levelo://app?vid=7a58bdc6-5db2-4543-b33d-6202d289b688","ios":"levelo://app?vid=7a58bdc6-5db2-4543-b33d-6202d289b688"},"vehicle_type_id":"4","last_reported":1730681293,"current_range_meters":25600,"station_id":"ce4bhr92rcd13ifvqhsg","pricing_plan_id":"cebpf4jnsgd1na2vs0mg"},{"bike_id":"199d375f-a68b-4b66-abb5-ba773fd75a7c","system_id":"levelo_inurba_marseille","lat":43.31693,"lon":5.40469,"is_reserved":false,"is_disabled":false,"rental_uris":{"android":"levelo://app?vid=199d375f-a68b-4b66-abb5-ba773fd75a7c","ios":"levelo://app?vid=199d375f-a68b-4b66-abb5-ba773fd75a7c"},"vehicle_type_id":"4","last_reported":1730681293,"current_range_meters":38800,"station_id":"ce4bh012rcd13ifvqd00","pricing_plan_id":"cebpf4jnsgd1na2vs0mg"},{"bike_id":"bda216a2-3893-41a6-9f78-0b1e26f9cb98","system_id":"levelo_inurba_marseille","lat":43.33612,"lon":5.41022,"is_reserved":false,"is_disabled":false,"rental_uris":{"android":"levelo://app?vid=bda216a2-3893-41a6-9f78-0b1e26f9cb98","ios":"levelo://app?vid=bda216a2-3893-41a6-9f78-0b1e26f9cb98"},"vehicle_type_id":"4","last_reported":1730681293,"current_range_meters":37600,"station_id":"ce4bhqh2rcd13ifvqhmg","pricing_plan_id":"cebpf4jnsgd1na2vs0mg"},{"bike_id":"eea79599-d46e-4d38-be2e-99a55dbf7709","system_id":"levelo_inurba_marseille","lat":43.2873,"lon":5.36091,"is_reserved":false,"is_disabled":false,"rental_uris":{"android":"levelo://app?vid=eea79599-d46e-4d38-be2e-99a55dbf7709","ios":"levelo://app?vid=eea79599-d46e-4d38-be2e-99a55dbf7709"},"vehicle_type_id":"4","last_reported":1730681293,"current_range_meters":32800,"station_id":"cki0cbj6b192h4jlfktg","pricing_plan_id":"cebpf4jnsgd1na2vs0mg"},{"bike_id":"2d7d7ecc-157d-4001-bd5a-e06f67808551","system_id":"levelo_inurba_marseille","lat":43.29305,"lon":5.3719,"is_reserved":false,"is_disabled":false,"rental_uris":{"android":"levelo://app?vid=2d7d7ecc-157d-4001-bd5a-e06f67808551","ios":"levelo://app?vid=2d7d7ecc-157d-4001-bd5a-e06f67808551"},"vehicle_type_id":"4","last_reported":1730681293,"current_range_meters":38800,"station_id":"ce4bgh92rcd13ifvqb40","pricing_plan_id":"cebpf4jnsgd1na2vs0mg"},{"bike_id":"ec807c85-2764-4f7b-b1c2-966d59778a5a","system_id":"levelo_inurba_marseille","lat":43.25121,"lon":5.40323,"is_reserved":false,"is_disabled":false,"rental_uris":{"android":"levelo://app?vid=ec807c85-2764-4f7b-b1c2-966d59778a5a","ios":"levelo://app?vid=ec807c85-2764-4f7b-b1c2-966d59778a5a"},"vehicle_type_id":"4","last_reported":1730681293,"current_range_meters":6800,"station_id":"ce4bhlh2rcd13ifvqgig","pricing_plan_id":"cebpf4jnsgd1na2vs0mg"},{"bike_id":"baea6945-ac3f-4195-a6a4-4b887db0844f","system_id":"levelo_inurba_marseille","lat":43.2707,"lon":5.42284,"is_reserved":false,"is_disabled":false,"rental_uris":{"android":"levelo://app?vid=baea6945-ac3f-4195-a6a4-4b887db0844f","ios":"levelo://app?vid=baea6945-ac3f-4195-a6a4-4b887db0844f"},"vehicle_type_id":"4","last_reported":1730681293,"current_range_meters":38000,"station_id":"ce4bhk92rcd13ifvqgb0","pricing_plan_id":"cebpf4jnsgd1na2vs0mg"},{"bike_id":"598535da-1e32-42e0-bd65-4ba25549dd70","system_id":"levelo_inurba_marseille","lat":43.31456,"lon":5.37374,"is_reserved":false,"is_disabled":false,"rental_uris":{"android":"levelo://app?vid=598535da-1e32-42e0-bd65-4ba25549dd70","ios":"levelo://app?vid=598535da-1e32-42e0-bd65-4ba25549dd70"},"vehicle_type_id":"4","last_reported":1730681293,"current_range_meters":28000,"station_id":"","pricing_plan_id":"cebpf4jnsgd1na2vs0mg"},{"bike_id":"2378f453-72a7-4eb2-ab3b-946285d406fd","system_id":"levelo_inurba_marseille","lat":43.29226,"lon":5.37729,"is_reserved":false,"is_disabled":false,"rental_uris":{"android":"levelo://app?vid=2378f453-72a7-4eb2-ab3b-946285d406fd","ios":"levelo://app?vid=2378f453-72a7-4eb2-ab3b-946285d406fd"},"vehicle_type_id":"4","last_reported":1730681293,"current_range_meters":10000,"station_id":"","pricing_plan_id":"cebpf4jnsgd1na2vs0mg"},{"bike_id":"69c5828b-16b5-4e21-9a89-eb78828b437f","system_id":"levelo_inurba_marseille","lat":43.27069,"lon":5.42274,"is_reserved":false,"is_disabled":false,"rental_uris":{"android":"levelo://app?vid=69c5828b-16b5-4e21-9a89-eb78828b437f","ios":"levelo://app?vid=69c5828b-16b5-4e21-9a89-eb78828b437f"},"vehicle_type_id":"4","last_reported":1730681293,"current_range_meters":36400,"station_id":"ce4bhk92rcd13ifvqgb0","pricing_plan_id":"cebpf4jnsgd1na2vs0mg"},{"bike_id":"bf60aa80-0486-4083-bd1a-16520d557172","system_id":"levelo_inurba_marseille","lat":43.28156,"lon":5.4265,"is_reserved":false,"is_disabled":false,"rental_uris":{"android":"levelo://app?vid=bf60aa80-0486-4083-bd1a-16520d557172","ios":"levelo://app?vid=bf60aa80-0486-4083-bd1a-16520d557172"},"vehicle_type_id":"4","last_reported":1730681293,"current_range_meters":28000,"station_id":"ce4bhnh2rcd13ifvqgug","pricing_plan_id":"cebpf4jnsgd1na2vs0mg"},{"bike_id":"45e37847-060c-4fbe-958a-f63e7f57fa30","system_id":"levelo_inurba_marseille","lat":43.27072,"lon":5.42289,"is_reserved":false,"is_disabled":false,"rental_uris":{"android":"levelo://app?vid=45e37847-060c-4fbe-958a-f63e7f57fa30","ios":"levelo://app?vid=45e37847-060c-4fbe-958a-f63e7f57fa30"},"vehicle_type_id":"4","last_reported":1730681293,"current_range_meters":22000,"station_id":"ce4bhk92rcd13ifvqgb0","pricing_plan_id":"cebpf4jnsgd1na2vs0mg"},{"bike_id":"9f223478-460e-4c61-b4f2-20e23bd73f46","system_id":"levelo_inurba_marseille","lat":43.2951,"lon":5.3941,"is_reserved":false,"is_disabled":false,"rental_uris":{"android":"levelo://app?vid=9f223478-460e-4c61-b4f2-20e23bd73f46","ios":"levelo://app?vid=9f223478-460e-4c61-b4f2-20e23bd73f46"},"vehicle_type_id":"4","last_reported":1730681293,"current_range_meters":38000,"station_id":"ce4bh292rcd13ifvqdf0","pricing_plan_id":"cebpf4jnsgd1na2vs0mg"},{"bike_id":"9c6a4c09-d997-448d-8062-9335e03a26ba","system_id":"levelo_inurba_marseille","lat":43.29217,"lon":5.37736,"is_reserved":false,"is_disabled":false,"rental_uris":{"android":"levelo://app?vid=9c6a4c09-d997-448d-8062-9335e03a26ba","ios":"levelo://app?vid=9c6a4c09-d997-448d-8062-9335e03a26ba"},"vehicle_type_id":"4","last_reported":1730681293,"current_range_meters":37600,"station_id":"ce4bgi12rcd13ifvqb70","pricing_plan_id":"cebpf4jnsgd1na2vs0mg"},{"bike_id":"8c0eb2b5-3b07-4476-8d7b-9509e4791f89","system_id":"levelo_inurba_marseille","lat":43.30304,"lon":5.39224,"is_reserved":false,"is_disabled":false,"rental_uris":{"android":"levelo://app?vid=8c0eb2b5-3b07-4476-8d7b-9509e4791f89","ios":"levelo://app?vid=8c0eb2b5-3b07-4476-8d7b-9509e4791f89"},"vehicle_type_id":"4","last_reported":1730681293,"current_range_meters":38800,"station_id":"ce4bgkh2rcd13ifvqbk0","pricing_plan_id":"cebpf4jnsgd1na2vs0mg"},{"bike_id":"dd105dd8-b39f-49ec-92dc-116c2db421f0","system_id":"levelo_inurba_marseille","lat":43.24184,"lon":5.39723,"is_reserved":false,"is_disabled":false,"rental_uris":{"android":"levelo://app?vid=dd105dd8-b39f-49ec-92dc-116c2db421f0","ios":"levelo://app?vid=dd105dd8-b39f-49ec-92dc-116c2db421f0"},"vehicle_type_id":"4","last_reported":1730681293,"current_range_meters":19200,"station_id":"ce4bhn12rcd13ifvqgpg","pricing_plan_id":"cebpf4jnsgd1na2vs0mg"},{"bike_id":"005d849f-748c-4390-bdee-56bc7065924a","system_id":"levelo_inurba_marseille","lat":43.29801,"lon":5.39326,"is_reserved":false,"is_disabled":false,"rental_uris":{"android":"levelo://app?vid=005d849f-748c-4390-bdee-56bc7065924a","ios":"levelo://app?vid=005d849f-748c-4390-bdee-56bc7065924a"},"vehicle_type_id":"4","last_reported":1730681293,"current_range_meters":30400,"station_id":"chh1huq6cuj3fo74tm60","pricing_plan_id":"cebpf4jnsgd1na2vs0mg"},{"bike_id":"acdc64f2-12f9-4086-9b0a-da9f545a5540","system_id":"levelo_inurba_marseille","lat":43.29188,"lon":5.39324,"is_reserved":false,"is_disabled":false,"rental_uris":{"android":"levelo://app?vid=acdc64f2-12f9-4086-9b0a-da9f545a5540","ios":"levelo://app?vid=acdc64f2-12f9-4086-9b0a-da9f545a5540"},"vehicle_type_id":"4","last_reported":1730681293,"current_range_meters":33600,"station_id":"ce4bh192rcd13ifvqdd0","pricing_plan_id":"cebpf4jnsgd1na2vs0mg"},{"bike_id":"59162c60-9807-4c04-8bfc-19d5ec55cbc8","system_id":"levelo_inurba_marseille","lat":43.231799,"lon":5.399842,"is_reserved":false,"is_disabled":false,"rental_uris":{"android":"levelo://app?vid=59162c60-9807-4c04-8bfc-19d5ec55cbc8","ios":"levelo://app?vid=59162c60-9807-4c04-8bfc-19d5ec55cbc8"},"vehicle_type_id":"4","last_reported":1730681293,"current_range_meters":29600,"station_id":"ce4bhn12rcd13ifvqgqg","pricing_plan_id":"cebpf4jnsgd1na2vs0mg"},{"bike_id":"7fbbb263-97ef-46d1-a15d-d64cb575f7b7","system_id":"levelo_inurba_marseille","lat":43.28939,"lon":5.36641,"is_reserved":false,"is_disabled":false,"rental_uris":{"android":"levelo://app?vid=7fbbb263-97ef-46d1-a15d-d64cb575f7b7","ios":"levelo://app?vid=7fbbb263-97ef-46d1-a15d-d64cb575f7b7"},"vehicle_type_id":"4","last_reported":1730681293,"current_range_meters":36000,"station_id":"ce4bhap2rcd13ifvqek0","pricing_plan_id":"cebpf4jnsgd1na2vs0mg"},{"bike_id":"6ed71df9-9717-4ae2-92c9-2a4bddd7b946","system_id":"levelo_inurba_marseille","lat":43.33612,"lon":5.4103,"is_reserved":false,"is_disabled":false,"rental_uris":{"android":"levelo://app?vid=6ed71df9-9717-4ae2-92c9-2a4bddd7b946","ios":"levelo://app?vid=6ed71df9-9717-4ae2-92c9-2a4bddd7b946"},"vehicle_type_id":"4","last_reported":1730681293,"current_range_meters":38800,"station_id":"ce4bhqh2rcd13ifvqhmg","pricing_plan_id":"cebpf4jnsgd1na2vs0mg"},{"bike_id":"7fbf8144-3771-4c80-933c-e46773d31661","system_id":"levelo_inurba_marseille","lat":43.29447,"lon":5.3975,"is_reserved":false,"is_disabled":false,"rental_uris":{"android":"levelo://app?vid=7fbf8144-3771-4c80-933c-e46773d31661","ios":"levelo://app?vid=7fbf8144-3771-4c80-933c-e46773d31661"},"vehicle_type_id":"4","last_reported":1730681293,"current_range_meters":39200,"station_id":"ce4bh3h2rcd13ifvqdo0","pricing_plan_id":"cebpf4jnsgd1na2vs0mg"},{"bike_id":"a70c5b6a-99aa-4284-b650-968af180e27b","system_id":"levelo_inurba_marseille","lat":43.32358,"lon":5.38878,"is_reserved":false,"is_disabled":false,"rental_uris":{"android":"levelo://app?vid=a70c5b6a-99aa-4284-b650-968af180e27b","ios":"levelo://app?vid=a70c5b6a-99aa-4284-b650-968af180e27b"},"vehicle_type_id":"4","last_reported":1730681293,"current_range_meters":17600,"station_id":"ce4bhqp2rcd13ifvqhog","pricing_plan_id":"cebpf4jnsgd1na2vs0mg"},{"bike_id":"047362bd-7c7c-45cc-bfff-d326090a847d","system_id":"levelo_inurba_marseille","lat":43.30324,"lon":5.40444,"is_reserved":false,"is_disabled":false,"rental_uris":{"android":"levelo://app?vid=047362bd-7c7c-45cc-bfff-d326090a847d","ios":"levelo://app?vid=047362bd-7c7c-45cc-bfff-d326090a847d"},"vehicle_type_id":"4","last_reported":1730681293,"current_range_meters":7200,"station_id":"ce4bh012rcd13ifvqd10","pricing_plan_id":"cebpf4jnsgd1na2vs0mg"},{"bike_id":"38b565ed-5d08-48c3-9ce1-dbb1f149c678","system_id":"levelo_inurba_marseille","lat":43.30134,"lon":5.38781,"is_reserved":false,"is_disabled":false,"rental_uris":{"android":"levelo://app?vid=38b565ed-5d08-48c3-9ce1-dbb1f149c678","ios":"levelo://app?vid=38b565ed-5d08-48c3-9ce1-dbb1f149c678"},"vehicle_type_id":"4","last_reported":1730681293,"current_range_meters":21600,"station_id":"ce4bghh2rcd13ifvqb60","pricing_plan_id":"cebpf4jnsgd1na2vs0mg"},{"bike_id":"7eda7bfe-0c5b-4987-9da0-a8aaf18a280a","system_id":"levelo_inurba_marseille","lat":43.27996,"lon":5.41658,"is_reserved":false,"is_disabled":false,"rental_uris":{"android":"levelo://app?vid=7eda7bfe-0c5b-4987-9da0-a8aaf18a280a","ios":"levelo://app?vid=7eda7bfe-0c5b-4987-9da0-a8aaf18a280a"},"vehicle_type_id":"4","last_reported":1730681293,"current_range_meters":34800,"station_id":"ce4bho12rcd13ifvqh1g","pricing_plan_id":"cebpf4jnsgd1na2vs0mg"},{"bike_id":"ebcfb78a-de02-4f73-b55b-f01aeb9a484d","system_id":"levelo_inurba_marseille","lat":43.29282,"lon":5.40124,"is_reserved":false,"is_disabled":false,"rental_uris":{"android":"levelo://app?vid=ebcfb78a-de02-4f73-b55b-f01aeb9a484d","ios":"levelo://app?vid=ebcfb78a-de02-4f73-b55b-f01aeb9a484d"},"vehicle_type_id":"4","last_reported":1730681293,"current_range_meters":38800,"station_id":"ce4bh312rcd13ifvqdk0","pricing_plan_id":"cebpf4jnsgd1na2vs0mg"},{"bike_id":"75576e24-6890-4288-9aa5-db2804891d6f","system_id":"levelo_inurba_marseille","lat":43.26949,"lon":5.40251,"is_reserved":false,"is_disabled":false,"rental_uris":{"android":"levelo://app?vid=75576e24-6890-4288-9aa5-db2804891d6f","ios":"levelo://app?vid=75576e24-6890-4288-9aa5-db2804891d6f"},"vehicle_type_id":"4","last_reported":1730681293,"current_range_meters":36400,"station_id":"cjm6bp8fraef2m0cb0m0","pricing_plan_id":"cebpf4jnsgd1na2vs0mg"},{"bike_id":"bc06a247-2a81-4abe-ae86-31e66b2eeccb","system_id":"levelo_inurba_marseille","lat":43.298996,"lon":5.436625,"is_reserved":false,"is_disabled":false,"rental_uris":{"android":"levelo://app?vid=bc06a247-2a81-4abe-ae86-31e66b2eeccb","ios":"levelo://app?vid=bc06a247-2a81-4abe-ae86-31e66b2eeccb"},"vehicle_type_id":"4","last_reported":1730681293,"current_range_meters":12400,"station_id":"ce4bhpp2rcd13ifvqhfg","pricing_plan_id":"cebpf4jnsgd1na2vs0mg"},{"bike_id":"7734ac1f-e3e2-40a7-804c-21c609783572","system_id":"levelo_inurba_marseille","lat":43.30893,"lon":5.39636,"is_reserved":false,"is_disabled":false,"rental_uris":{"android":"levelo://app?vid=7734ac1f-e3e2-40a7-804c-21c609783572","ios":"levelo://app?vid=7734ac1f-e3e2-40a7-804c-21c609783572"},"vehicle_type_id":"4","last_reported":1730681293,"current_range_meters":34800,"station_id":"ce4bh012rcd13ifvqcv0","pricing_plan_id":"cebpf4jnsgd1na2vs0mg"},{"bike_id":"4b837655-8b63-404b-87df-4dd61789f22d","system_id":"levelo_inurba_marseille","lat":43.29861,"lon":5.39751,"is_reserved":false,"is_disabled":false,"rental_uris":{"android":"levelo://app?vid=4b837655-8b63-404b-87df-4dd61789f22d","ios":"levelo://app?vid=4b837655-8b63-404b-87df-4dd61789f22d"},"vehicle_type_id":"4","last_reported":1730681293,"current_range_meters":28400,"station_id":"ce4bh0h2rcd13ifvqd50","pricing_plan_id":"cebpf4jnsgd1na2vs0mg"},{"bike_id":"6f9e3484-9ace-4011-863c-3ca421279854","system_id":"levelo_inurba_marseille","lat":43.30802,"lon":5.38149,"is_reserved":false,"is_disabled":false,"rental_uris":{"android":"levelo://app?vid=6f9e3484-9ace-4011-863c-3ca421279854","ios":"levelo://app?vid=6f9e3484-9ace-4011-863c-3ca421279854"},"vehicle_type_id":"4","last_reported":1730681293,"current_range_meters":30800,"station_id":"ce4bgt12rcd13ifvqce0","pricing_plan_id":"cebpf4jnsgd1na2vs0mg"},{"bike_id":"272c9abf-a133-4324-9208-08b126787068","system_id":"levelo_inurba_marseille","lat":43.27901,"lon":5.38019,"is_reserved":false,"is_disabled":false,"rental_uris":{"android":"levelo://app?vid=272c9abf-a133-4324-9208-08b126787068","ios":"levelo://app?vid=272c9abf-a133-4324-9208-08b126787068"},"vehicle_type_id":"4","last_reported":1730681293,"current_range_meters":38800,"station_id":"ce4bhf92rcd13ifvqf50","pricing_plan_id":"cebpf4jnsgd1na2vs0mg"},{"bike_id":"931c7ce7-0b8e-45c8-b8c4-2e528c075a18","system_id":"levelo_inurba_marseille","lat":43.308,"lon":5.38154,"is_reserved":false,"is_disabled":false,"rental_uris":{"android":"levelo://app?vid=931c7ce7-0b8e-45c8-b8c4-2e528c075a18","ios":"levelo://app?vid=931c7ce7-0b8e-45c8-b8c4-2e528c075a18"},"vehicle_type_id":"4","last_reported":1730681293,"current_range_meters":36800,"station_id":"ce4bgt12rcd13ifvqce0","pricing_plan_id":"cebpf4jnsgd1na2vs0mg"},{"bike_id":"b8b8e78b-55ed-4a91-b7d6-8216533cb204","system_id":"levelo_inurba_marseille","lat":43.29674,"lon":5.37292,"is_reserved":false,"is_disabled":false,"rental_uris":{"android":"levelo://app?vid=b8b8e78b-55ed-4a91-b7d6-8216533cb204","ios":"levelo://app?vid=b8b8e78b-55ed-4a91-b7d6-8216533cb204"},"vehicle_type_id":"4","last_reported":1730681293,"current_range_meters":18000,"station_id":"ce4bgk12rcd13ifvqbj0","pricing_plan_id":"cebpf4jnsgd1na2vs0mg"},{"bike_id":"16f80d5a-857a-4485-a2d3-ea2e0a422bbb","system_id":"levelo_inurba_marseille","lat":43.30929,"lon":5.40154,"is_reserved":false,"is_disabled":false,"rental_uris":{"android":"levelo://app?vid=16f80d5a-857a-4485-a2d3-ea2e0a422bbb","ios":"levelo://app?vid=16f80d5a-857a-4485-a2d3-ea2e0a422bbb"},"vehicle_type_id":"4","last_reported":1730681293,"current_range_meters":38800,"station_id":"ce4bgvp2rcd13ifvqct0","pricing_plan_id":"cebpf4jnsgd1na2vs0mg"},{"bike_id":"7fa9e0db-d5db-4e00-9bab-71088473e9a3","system_id":"levelo_inurba_marseille","lat":43.28346,"lon":5.38105,"is_reserved":false,"is_disabled":false,"rental_uris":{"android":"levelo://app?vid=7fa9e0db-d5db-4e00-9bab-71088473e9a3","ios":"levelo://app?vid=7fa9e0db-d5db-4e00-9bab-71088473e9a3"},"vehicle_type_id":"4","last_reported":1730681293,"current_range_meters":32800,"station_id":"ce4bh412rcd13ifvqdr0","pricing_plan_id":"cebpf4jnsgd1na2vs0mg"},{"bike_id":"0e3f3d26-b0db-4d54-bd82-673b75f3ab95","system_id":"levelo_inurba_marseille","lat":43.24669,"lon":5.38168,"is_reserved":false,"is_disabled":false,"rental_uris":{"android":"levelo://app?vid=0e3f3d26-b0db-4d54-bd82-673b75f3ab95","ios":"levelo://app?vid=0e3f3d26-b0db-4d54-bd82-673b75f3ab95"},"vehicle_type_id":"4","last_reported":1730681293,"current_range_meters":38400,"station_id":"ce4bhih2rcd13ifvqfr0","pricing_plan_id":"cebpf4jnsgd1na2vs0mg"},{"bike_id":"5af32b3b-d3c5-4761-95bd-a51ac5c29c07","system_id":"levelo_inurba_marseille","lat":43.308938,"lon":5.371954,"is_reserved":false,"is_disabled":false,"rental_uris":{"android":"levelo://app?vid=5af32b3b-d3c5-4761-95bd-a51ac5c29c07","ios":"levelo://app?vid=5af32b3b-d3c5-4761-95bd-a51ac5c29c07"},"vehicle_type_id":"4","last_reported":1730681293,"current_range_meters":38800,"station_id":"ce4bguh2rcd13ifvqckg","pricing_plan_id":"cebpf4jnsgd1na2vs0mg"},{"bike_id":"46cc84b6-5106-496e-9a47-aacabc15ce01","system_id":"levelo_inurba_marseille","lat":43.27962,"lon":5.38724,"is_reserved":false,"is_disabled":false,"rental_uris":{"android":"levelo://app?vid=46cc84b6-5106-496e-9a47-aacabc15ce01","ios":"levelo://app?vid=46cc84b6-5106-496e-9a47-aacabc15ce01"},"vehicle_type_id":"4","last_reported":1730681293,"current_range_meters":28800,"station_id":"ce4bhg12rcd13ifvqf80","pricing_plan_id":"cebpf4jnsgd1na2vs0mg"},{"bike_id":"4e93fd09-23f1-4573-bd06-9d1abc868d68","system_id":"levelo_inurba_marseille","lat":43.25867,"lon":5.3991,"is_reserved":false,"is_disabled":false,"rental_uris":{"android":"levelo://app?vid=4e93fd09-23f1-4573-bd06-9d1abc868d68","ios":"levelo://app?vid=4e93fd09-23f1-4573-bd06-9d1abc868d68"},"vehicle_type_id":"4","last_reported":1730681293,"current_range_meters":20800,"station_id":"ce4bhl92rcd13ifvqghg","pricing_plan_id":"cebpf4jnsgd1na2vs0mg"},{"bike_id":"f453d8a2-14e2-497a-a14a-49c40244a6ee","system_id":"levelo_inurba_marseille","lat":43.258662,"lon":5.399015,"is_reserved":false,"is_disabled":false,"rental_uris":{"android":"levelo://app?vid=f453d8a2-14e2-497a-a14a-49c40244a6ee","ios":"levelo://app?vid=f453d8a2-14e2-497a-a14a-49c40244a6ee"},"vehicle_type_id":"4","last_reported":1730681293,"current_range_meters":18800,"station_id":"ce4bhl92rcd13ifvqghg","pricing_plan_id":"cebpf4jnsgd1na2vs0mg"},{"bike_id":"1eeb5c5c-a3a6-4ef6-a852-f083a9363eab","system_id":"levelo_inurba_marseille","lat":43.27068,"lon":5.42275,"is_reserved":false,"is_disabled":false,"rental_uris":{"android":"levelo://app?vid=1eeb5c5c-a3a6-4ef6-a852-f083a9363eab","ios":"levelo://app?vid=1eeb5c5c-a3a6-4ef6-a852-f083a9363eab"},"vehicle_type_id":"4","last_reported":1730681293,"current_range_meters":8400,"station_id":"ce4bhk92rcd13ifvqgb0","pricing_plan_id":"cebpf4jnsgd1na2vs0mg"},{"bike_id":"977254f4-e990-4046-8082-ba0f870797dd","system_id":"levelo_inurba_marseille","lat":43.26681,"lon":5.38272,"is_reserved":false,"is_disabled":false,"rental_uris":{"android":"levelo://app?vid=977254f4-e990-4046-8082-ba0f870797dd","ios":"levelo://app?vid=977254f4-e990-4046-8082-ba0f870797dd"},"vehicle_type_id":"4","last_reported":1730681293,"current_range_meters":29600,"station_id":"ce4bhg92rcd13ifvqf90","pricing_plan_id":"cebpf4jnsgd1na2vs0mg"},{"bike_id":"4e317739-b20f-4f8d-987b-ba9b04b0c4a9","system_id":"levelo_inurba_marseille","lat":43.2861,"lon":5.37064,"is_reserved":false,"is_disabled":false,"rental_uris":{"android":"levelo://app?vid=4e317739-b20f-4f8d-987b-ba9b04b0c4a9","ios":"levelo://app?vid=4e317739-b20f-4f8d-987b-ba9b04b0c4a9"},"vehicle_type_id":"4","last_reported":1730681293,"current_range_meters":38800,"station_id":"ce4bht12rcd13ifvqi60","pricing_plan_id":"cebpf4jnsgd1na2vs0mg"},{"bike_id":"7ce77be2-28e6-467f-9494-16f057502bba","system_id":"levelo_inurba_marseille","lat":43.281517,"lon":5.426418,"is_reserved":false,"is_disabled":false,"rental_uris":{"android":"levelo://app?vid=7ce77be2-28e6-467f-9494-16f057502bba","ios":"levelo://app?vid=7ce77be2-28e6-467f-9494-16f057502bba"},"vehicle_type_id":"4","last_reported":1730681293,"current_range_meters":31200,"station_id":"ce4bhnh2rcd13ifvqgug","pricing_plan_id":"cebpf4jnsgd1na2vs0mg"},{"bike_id":"05eb30eb-e1eb-49c6-9a81-32e25fb4f263","system_id":"levelo_inurba_marseille","lat":43.26953,"lon":5.38647,"is_reserved":false,"is_disabled":false,"rental_uris":{"android":"levelo://app?vid=05eb30eb-e1eb-49c6-9a81-32e25fb4f263","ios":"levelo://app?vid=05eb30eb-e1eb-49c6-9a81-32e25fb4f263"},"vehicle_type_id":"4","last_reported":1730681293,"current_range_meters":31200,"station_id":"ce4bhh92rcd13ifvqfh0","pricing_plan_id":"cebpf4jnsgd1na2vs0mg"},{"bike_id":"e50fd69d-8268-4029-bf65-400af74520b3","system_id":"levelo_inurba_marseille","lat":43.28004,"lon":5.41668,"is_reserved":false,"is_disabled":false,"rental_uris":{"android":"levelo://app?vid=e50fd69d-8268-4029-bf65-400af74520b3","ios":"levelo://app?vid=e50fd69d-8268-4029-bf65-400af74520b3"},"vehicle_type_id":"4","last_reported":1730681293,"current_range_meters":11200,"station_id":"ce4bho12rcd13ifvqh1g","pricing_plan_id":"cebpf4jnsgd1na2vs0mg"},{"bike_id":"b47db502-b289-427b-ba51-c1f8ea668e98","system_id":"levelo_inurba_marseille","lat":43.31354,"lon":5.38503,"is_reserved":false,"is_disabled":false,"rental_uris":{"android":"levelo://app?vid=b47db502-b289-427b-ba51-c1f8ea668e98","ios":"levelo://app?vid=b47db502-b289-427b-ba51-c1f8ea668e98"},"vehicle_type_id":"4","last_reported":1730681293,"current_range_meters":30800,"station_id":"ce4bgt92rcd13ifvqcf0","pricing_plan_id":"cebpf4jnsgd1na2vs0mg"},{"bike_id":"8da279a8-814d-45a9-8c6d-35bc493d6faf","system_id":"levelo_inurba_marseille","lat":43.30444,"lon":5.38894,"is_reserved":false,"is_disabled":false,"rental_uris":{"android":"levelo://app?vid=8da279a8-814d-45a9-8c6d-35bc493d6faf","ios":"levelo://app?vid=8da279a8-814d-45a9-8c6d-35bc493d6faf"},"vehicle_type_id":"4","last_reported":1730681293,"current_range_meters":37600,"station_id":"ce4bgk12rcd13ifvqbi0","pricing_plan_id":"cebpf4jnsgd1na2vs0mg"},{"bike_id":"f3542a6b-3eaa-46f0-b4d2-58992c330d1f","system_id":"levelo_inurba_marseille","lat":43.29891,"lon":5.43664,"is_reserved":false,"is_disabled":false,"rental_uris":{"android":"levelo://app?vid=f3542a6b-3eaa-46f0-b4d2-58992c330d1f","ios":"levelo://app?vid=f3542a6b-3eaa-46f0-b4d2-58992c330d1f"},"vehicle_type_id":"4","last_reported":1730681293,"current_range_meters":38800,"station_id":"ce4bhpp2rcd13ifvqhfg","pricing_plan_id":"cebpf4jnsgd1na2vs0mg"},{"bike_id":"3cdad684-1947-405c-bc67-ba936517febd","system_id":"levelo_inurba_marseille","lat":43.3133,"lon":5.39704,"is_reserved":false,"is_disabled":false,"rental_uris":{"android":"levelo://app?vid=3cdad684-1947-405c-bc67-ba936517febd","ios":"levelo://app?vid=3cdad684-1947-405c-bc67-ba936517febd"},"vehicle_type_id":"4","last_reported":1730681293,"current_range_meters":38800,"station_id":"ce4bgvp2rcd13ifvqcu0","pricing_plan_id":"cebpf4jnsgd1na2vs0mg"},{"bike_id":"8ef158e4-3d34-40e6-ad97-e822b8230791","system_id":"levelo_inurba_marseille","lat":43.27915,"lon":5.39587,"is_reserved":false,"is_disabled":false,"rental_uris":{"android":"levelo://app?vid=8ef158e4-3d34-40e6-ad97-e822b8230791","ios":"levelo://app?vid=8ef158e4-3d34-40e6-ad97-e822b8230791"},"vehicle_type_id":"4","last_reported":1730681293,"current_range_meters":34800,"station_id":"ce4bhf92rcd13ifvqf40","pricing_plan_id":"cebpf4jnsgd1na2vs0mg"},{"bike_id":"9dc3374b-0b85-4a8b-88a8-db8ad8f687c8","system_id":"levelo_inurba_marseille","lat":43.24077,"lon":5.377525,"is_reserved":false,"is_disabled":false,"rental_uris":{"android":"levelo://app?vid=9dc3374b-0b85-4a8b-88a8-db8ad8f687c8","ios":"levelo://app?vid=9dc3374b-0b85-4a8b-88a8-db8ad8f687c8"},"vehicle_type_id":"4","last_reported":1730681293,"current_range_meters":14400,"station_id":"ce4bhnp2rcd13ifvqgvg","pricing_plan_id":"cebpf4jnsgd1na2vs0mg"},{"bike_id":"33f6555c-2637-4d7c-9ff9-8a6e91a19910","system_id":"levelo_inurba_marseille","lat":43.27178,"lon":5.40993,"is_reserved":false,"is_disabled":false,"rental_uris":{"android":"levelo://app?vid=33f6555c-2637-4d7c-9ff9-8a6e91a19910","ios":"levelo://app?vid=33f6555c-2637-4d7c-9ff9-8a6e91a19910"},"vehicle_type_id":"4","last_reported":1730681293,"current_range_meters":12800,"station_id":"ce4bhl12rcd13ifvqgf0","pricing_plan_id":"cebpf4jnsgd1na2vs0mg"},{"bike_id":"6c20a18b-216a-4270-a4c6-31da88c38be1","system_id":"levelo_inurba_marseille","lat":43.24182,"lon":5.3973,"is_reserved":false,"is_disabled":false,"rental_uris":{"android":"levelo://app?vid=6c20a18b-216a-4270-a4c6-31da88c38be1","ios":"levelo://app?vid=6c20a18b-216a-4270-a4c6-31da88c38be1"},"vehicle_type_id":"4","last_reported":1730681293,"current_range_meters":36000,"station_id":"ce4bhn12rcd13ifvqgpg","pricing_plan_id":"cebpf4jnsgd1na2vs0mg"},{"bike_id":"b3ec251f-24f4-482a-b204-71972a8c9fa0","system_id":"levelo_inurba_marseille","lat":43.3096,"lon":5.39042,"is_reserved":false,"is_disabled":false,"rental_uris":{"android":"levelo://app?vid=b3ec251f-24f4-482a-b204-71972a8c9fa0","ios":"levelo://app?vid=b3ec251f-24f4-482a-b204-71972a8c9fa0"},"vehicle_type_id":"4","last_reported":1730681293,"current_range_meters":37600,"station_id":"ce4bgup2rcd13ifvqco0","pricing_plan_id":"cebpf4jnsgd1na2vs0mg"},{"bike_id":"5145bf55-02c3-4ba4-99d0-1c276f90d766","system_id":"levelo_inurba_marseille","lat":43.29571,"lon":5.39978,"is_reserved":false,"is_disabled":false,"rental_uris":{"android":"levelo://app?vid=5145bf55-02c3-4ba4-99d0-1c276f90d766","ios":"levelo://app?vid=5145bf55-02c3-4ba4-99d0-1c276f90d766"},"vehicle_type_id":"4","last_reported":1730681293,"current_range_meters":38800,"station_id":"ce4bh312rcd13ifvqdj0","pricing_plan_id":"cebpf4jnsgd1na2vs0mg"},{"bike_id":"371e5b99-9c2f-4bd5-9223-2e3aa9113025","system_id":"levelo_inurba_marseille","lat":43.28703,"lon":5.39987,"is_reserved":false,"is_disabled":false,"rental_uris":{"android":"levelo://app?vid=371e5b99-9c2f-4bd5-9223-2e3aa9113025","ios":"levelo://app?vid=371e5b99-9c2f-4bd5-9223-2e3aa9113025"},"vehicle_type_id":"4","last_reported":1730681293,"current_range_meters":24800,"station_id":"ce4bho92rcd13ifvqh3g","pricing_plan_id":"cebpf4jnsgd1na2vs0mg"},{"bike_id":"4d916b62-8bbd-40bf-8461-f3dd3e4562e6","system_id":"levelo_inurba_marseille","lat":43.31174,"lon":5.3872,"is_reserved":false,"is_disabled":false,"rental_uris":{"android":"levelo://app?vid=4d916b62-8bbd-40bf-8461-f3dd3e4562e6","ios":"levelo://app?vid=4d916b62-8bbd-40bf-8461-f3dd3e4562e6"},"vehicle_type_id":"4","last_reported":1730681293,"current_range_meters":38000,"station_id":"ce4bgv12rcd13ifvqcp0","pricing_plan_id":"cebpf4jnsgd1na2vs0mg"},{"bike_id":"814839fe-87a9-4caa-bb01-21a240d7f396","system_id":"levelo_inurba_marseille","lat":43.288507,"lon":5.358505,"is_reserved":false,"is_disabled":false,"rental_uris":{"android":"levelo://app?vid=814839fe-87a9-4caa-bb01-21a240d7f396","ios":"levelo://app?vid=814839fe-87a9-4caa-bb01-21a240d7f396"},"vehicle_type_id":"4","last_reported":1730681293,"current_range_meters":36400,"station_id":"ce4bhb12rcd13ifvqem0","pricing_plan_id":"cebpf4jnsgd1na2vs0mg"},{"bike_id":"12e2a17d-b267-46ea-b046-7d399d7c3544","system_id":"levelo_inurba_marseille","lat":43.33724,"lon":5.39186,"is_reserved":false,"is_disabled":false,"rental_uris":{"android":"levelo://app?vid=12e2a17d-b267-46ea-b046-7d399d7c3544","ios":"levelo://app?vid=12e2a17d-b267-46ea-b046-7d399d7c3544"},"vehicle_type_id":"4","last_reported":1730681293,"current_range_meters":38800,"station_id":"ce4bhr92rcd13ifvqhsg","pricing_plan_id":"cebpf4jnsgd1na2vs0mg"},{"bike_id":"ba58b731-f187-4881-b0b1-6ef9d12dd0ca","system_id":"levelo_inurba_marseille","lat":43.28409,"lon":5.37521,"is_reserved":false,"is_disabled":false,"rental_uris":{"android":"levelo://app?vid=ba58b731-f187-4881-b0b1-6ef9d12dd0ca","ios":"levelo://app?vid=ba58b731-f187-4881-b0b1-6ef9d12dd0ca"},"vehicle_type_id":"4","last_reported":1730681293,"current_range_meters":28000,"station_id":"ce4bh412rcd13ifvqds0","pricing_plan_id":"cebpf4jnsgd1na2vs0mg"},{"bike_id":"c0ebe450-9030-4e51-8924-ad0c358a4408","system_id":"levelo_inurba_marseille","lat":43.33607,"lon":5.41026,"is_reserved":false,"is_disabled":false,"rental_uris":{"android":"levelo://app?vid=c0ebe450-9030-4e51-8924-ad0c358a4408","ios":"levelo://app?vid=c0ebe450-9030-4e51-8924-ad0c358a4408"},"vehicle_type_id":"4","last_reported":1730681293,"current_range_meters":22000,"station_id":"ce4bhqh2rcd13ifvqhmg","pricing_plan_id":"cebpf4jnsgd1na2vs0mg"},{"bike_id":"5fa27586-f34f-4ff1-8387-34dccd4fbe37","system_id":"levelo_inurba_marseille","lat":43.2925,"lon":5.40909,"is_reserved":false,"is_disabled":false,"rental_uris":{"android":"levelo://app?vid=5fa27586-f34f-4ff1-8387-34dccd4fbe37","ios":"levelo://app?vid=5fa27586-f34f-4ff1-8387-34dccd4fbe37"},"vehicle_type_id":"4","last_reported":1730681293,"current_range_meters":33200,"station_id":"ce4bh192rcd13ifvqdc0","pricing_plan_id":"cebpf4jnsgd1na2vs0mg"},{"bike_id":"6d602f47-10fe-4ea6-b66b-af913516f4a0","system_id":"levelo_inurba_marseille","lat":43.29194,"lon":5.35809,"is_reserved":false,"is_disabled":false,"rental_uris":{"android":"levelo://app?vid=6d602f47-10fe-4ea6-b66b-af913516f4a0","ios":"levelo://app?vid=6d602f47-10fe-4ea6-b66b-af913516f4a0"},"vehicle_type_id":"4","last_reported":1730681293,"current_range_meters":38000,"station_id":"ce4bhb12rcd13ifvqel0","pricing_plan_id":"cebpf4jnsgd1na2vs0mg"},{"bike_id":"25bd32bb-494a-4771-a736-a4858e5fd359","system_id":"levelo_inurba_marseille","lat":43.28863,"lon":5.39319,"is_reserved":false,"is_disabled":false,"rental_uris":{"android":"levelo://app?vid=25bd32bb-494a-4771-a736-a4858e5fd359","ios":"levelo://app?vid=25bd32bb-494a-4771-a736-a4858e5fd359"},"vehicle_type_id":"4","last_reported":1730681293,"current_range_meters":22000,"station_id":"ce4bh2p2rcd13ifvqdi0","pricing_plan_id":"cebpf4jnsgd1na2vs0mg"},{"bike_id":"d4472d20-9c4b-4c70-ad00-3a005519a429","system_id":"levelo_inurba_marseille","lat":43.35392,"lon":5.35737,"is_reserved":false,"is_disabled":false,"rental_uris":{"android":"levelo://app?vid=d4472d20-9c4b-4c70-ad00-3a005519a429","ios":"levelo://app?vid=d4472d20-9c4b-4c70-ad00-3a005519a429"},"vehicle_type_id":"4","last_reported":1730681293,"current_range_meters":11600,"station_id":"","pricing_plan_id":"cebpf4jnsgd1na2vs0mg"},{"bike_id":"6338020e-474a-4c99-b365-eea26fe54739","system_id":"levelo_inurba_marseille","lat":43.32278,"lon":5.383,"is_reserved":false,"is_disabled":false,"rental_uris":{"android":"levelo://app?vid=6338020e-474a-4c99-b365-eea26fe54739","ios":"levelo://app?vid=6338020e-474a-4c99-b365-eea26fe54739"},"vehicle_type_id":"4","last_reported":1730681293,"current_range_meters":38800,"station_id":"ce4bhr12rcd13ifvqhqg","pricing_plan_id":"cebpf4jnsgd1na2vs0mg"},{"bike_id":"aab37159-3519-4266-8afc-5756bb8754bf","system_id":"levelo_inurba_marseille","lat":43.29545,"lon":5.39015,"is_reserved":false,"is_disabled":false,"rental_uris":{"android":"levelo://app?vid=aab37159-3519-4266-8afc-5756bb8754bf","ios":"levelo://app?vid=aab37159-3519-4266-8afc-5756bb8754bf"},"vehicle_type_id":"4","last_reported":1730681293,"current_range_meters":33200,"station_id":"ce4bh3p2rcd13ifvqdp0","pricing_plan_id":"cebpf4jnsgd1na2vs0mg"},{"bike_id":"d654e893-cc06-4152-b5e1-480855c6d7d0","system_id":"levelo_inurba_marseille","lat":43.29548,"lon":5.42289,"is_reserved":false,"is_disabled":false,"rental_uris":{"android":"levelo://app?vid=d654e893-cc06-4152-b5e1-480855c6d7d0","ios":"levelo://app?vid=d654e893-cc06-4152-b5e1-480855c6d7d0"},"vehicle_type_id":"4","last_reported":1730681293,"current_range_meters":37600,"station_id":"ce4bhph2rcd13ifvqhdg","pricing_plan_id":"cebpf4jnsgd1na2vs0mg"},{"bike_id":"e0264856-e14a-41f0-af41-882e8ca479c9","system_id":"levelo_inurba_marseille","lat":43.28402,"lon":5.37508,"is_reserved":false,"is_disabled":false,"rental_uris":{"android":"levelo://app?vid=e0264856-e14a-41f0-af41-882e8ca479c9","ios":"levelo://app?vid=e0264856-e14a-41f0-af41-882e8ca479c9"},"vehicle_type_id":"4","last_reported":1730681293,"current_range_meters":36000,"station_id":"ce4bh412rcd13ifvqds0","pricing_plan_id":"cebpf4jnsgd1na2vs0mg"},{"bike_id":"35a5c27a-56fa-4d21-909b-ef5000574c71","system_id":"levelo_inurba_marseille","lat":43.29572,"lon":5.39995,"is_reserved":false,"is_disabled":false,"rental_uris":{"android":"levelo://app?vid=35a5c27a-56fa-4d21-909b-ef5000574c71","ios":"levelo://app?vid=35a5c27a-56fa-4d21-909b-ef5000574c71"},"vehicle_type_id":"4","last_reported":1730681293,"current_range_meters":28400,"station_id":"ce4bh312rcd13ifvqdj0","pricing_plan_id":"cebpf4jnsgd1na2vs0mg"},{"bike_id":"6b972431-0a1f-4954-84cd-1a28b691ec6a","system_id":"levelo_inurba_marseille","lat":43.26065,"lon":5.39395,"is_reserved":false,"is_disabled":false,"rental_uris":{"android":"levelo://app?vid=6b972431-0a1f-4954-84cd-1a28b691ec6a","ios":"levelo://app?vid=6b972431-0a1f-4954-84cd-1a28b691ec6a"},"vehicle_type_id":"4","last_reported":1730681293,"current_range_meters":18800,"station_id":"ce4bhh92rcd13ifvqfj0","pricing_plan_id":"cebpf4jnsgd1na2vs0mg"},{"bike_id":"f8833f7b-49c8-440c-b671-beb72799bdec","system_id":"levelo_inurba_marseille","lat":43.24978,"lon":5.37506,"is_reserved":false,"is_disabled":false,"rental_uris":{"android":"levelo://app?vid=f8833f7b-49c8-440c-b671-beb72799bdec","ios":"levelo://app?vid=f8833f7b-49c8-440c-b671-beb72799bdec"},"vehicle_type_id":"4","last_reported":1730681293,"current_range_meters":28400,"station_id":"","pricing_plan_id":"cebpf4jnsgd1na2vs0mg"},{"bike_id":"b4c26404-be14-4de0-97fe-975ad815c2aa","system_id":"levelo_inurba_marseille","lat":43.255,"lon":5.37653,"is_reserved":false,"is_disabled":false,"rental_uris":{"android":"levelo://app?vid=b4c26404-be14-4de0-97fe-975ad815c2aa","ios":"levelo://app?vid=b4c26404-be14-4de0-97fe-975ad815c2aa"},"vehicle_type_id":"4","last_reported":1730681293,"current_range_meters":38800,"station_id":"ce4bhh12rcd13ifvqff0","pricing_plan_id":"cebpf4jnsgd1na2vs0mg"},{"bike_id":"de5079f1-2c2f-48a7-b865-a7bda2777ad1","system_id":"levelo_inurba_marseille","lat":43.28944,"lon":5.36633,"is_reserved":false,"is_disabled":false,"rental_uris":{"android":"levelo://app?vid=de5079f1-2c2f-48a7-b865-a7bda2777ad1","ios":"levelo://app?vid=de5079f1-2c2f-48a7-b865-a7bda2777ad1"},"vehicle_type_id":"4","last_reported":1730681293,"current_range_meters":38800,"station_id":"ce4bhap2rcd13ifvqek0","pricing_plan_id":"cebpf4jnsgd1na2vs0mg"},{"bike_id":"e7453847-165d-4e50-a796-bedc702cb92c","system_id":"levelo_inurba_marseille","lat":43.29441,"lon":5.39767,"is_reserved":false,"is_disabled":false,"rental_uris":{"android":"levelo://app?vid=e7453847-165d-4e50-a796-bedc702cb92c","ios":"levelo://app?vid=e7453847-165d-4e50-a796-bedc702cb92c"},"vehicle_type_id":"4","last_reported":1730681293,"current_range_meters":38800,"station_id":"ce4bh3h2rcd13ifvqdo0","pricing_plan_id":"cebpf4jnsgd1na2vs0mg"},{"bike_id":"0d325674-1265-4898-b788-3f204d50c915","system_id":"levelo_inurba_marseille","lat":43.28452,"lon":5.35906,"is_reserved":false,"is_disabled":false,"rental_uris":{"android":"levelo://app?vid=0d325674-1265-4898-b788-3f204d50c915","ios":"levelo://app?vid=0d325674-1265-4898-b788-3f204d50c915"},"vehicle_type_id":"4","last_reported":1730681293,"current_range_meters":38800,"station_id":"ce4bhah2rcd13ifvqei0","pricing_plan_id":"cebpf4jnsgd1na2vs0mg"},{"bike_id":"6f4a8ffe-6831-4c72-84ba-8997e71f68b9","system_id":"levelo_inurba_marseille","lat":43.30135,"lon":5.38781,"is_reserved":false,"is_disabled":false,"rental_uris":{"android":"levelo://app?vid=6f4a8ffe-6831-4c72-84ba-8997e71f68b9","ios":"levelo://app?vid=6f4a8ffe-6831-4c72-84ba-8997e71f68b9"},"vehicle_type_id":"4","last_reported":1730681293,"current_range_meters":36800,"station_id":"ce4bghh2rcd13ifvqb60","pricing_plan_id":"cebpf4jnsgd1na2vs0mg"},{"bike_id":"fa2a27a6-55f5-437e-b34f-36cec3817bad","system_id":"levelo_inurba_marseille","lat":43.31724,"lon":5.42404,"is_reserved":false,"is_disabled":false,"rental_uris":{"android":"levelo://app?vid=fa2a27a6-55f5-437e-b34f-36cec3817bad","ios":"levelo://app?vid=fa2a27a6-55f5-437e-b34f-36cec3817bad"},"vehicle_type_id":"4","last_reported":1730681293,"current_range_meters":15200,"station_id":"ce4bhp92rcd13ifvqhbg","pricing_plan_id":"cebpf4jnsgd1na2vs0mg"},{"bike_id":"6343cda6-6330-478c-8080-96c31f72a038","system_id":"levelo_inurba_marseille","lat":43.295537,"lon":5.422804,"is_reserved":false,"is_disabled":false,"rental_uris":{"android":"levelo://app?vid=6343cda6-6330-478c-8080-96c31f72a038","ios":"levelo://app?vid=6343cda6-6330-478c-8080-96c31f72a038"},"vehicle_type_id":"4","last_reported":1730681293,"current_range_meters":37600,"station_id":"ce4bhph2rcd13ifvqhdg","pricing_plan_id":"cebpf4jnsgd1na2vs0mg"},{"bike_id":"4c539fc3-030d-47f5-bc3f-71d2ca4b026e","system_id":"levelo_inurba_marseille","lat":43.25722,"lon":5.41111,"is_reserved":false,"is_disabled":false,"rental_uris":{"android":"levelo://app?vid=4c539fc3-030d-47f5-bc3f-71d2ca4b026e","ios":"levelo://app?vid=4c539fc3-030d-47f5-bc3f-71d2ca4b026e"},"vehicle_type_id":"4","last_reported":1730681293,"current_range_meters":3200,"station_id":"ce4bhkp2rcd13ifvqgd0","pricing_plan_id":"cebpf4jnsgd1na2vs0mg"},{"bike_id":"2b4bbfed-255f-4cd0-bf8b-80e072c9cbe9","system_id":"levelo_inurba_marseille","lat":43.32108,"lon":5.36778,"is_reserved":false,"is_disabled":false,"rental_uris":{"android":"levelo://app?vid=2b4bbfed-255f-4cd0-bf8b-80e072c9cbe9","ios":"levelo://app?vid=2b4bbfed-255f-4cd0-bf8b-80e072c9cbe9"},"vehicle_type_id":"4","last_reported":1730681293,"current_range_meters":8000,"station_id":"ce4bhrh2rcd13ifvqhug","pricing_plan_id":"cebpf4jnsgd1na2vs0mg"},{"bike_id":"b5cc074e-2188-459d-8e7c-27bf21e159cd","system_id":"levelo_inurba_marseille","lat":43.28666,"lon":5.36358,"is_reserved":false,"is_disabled":false,"rental_uris":{"android":"levelo://app?vid=b5cc074e-2188-459d-8e7c-27bf21e159cd","ios":"levelo://app?vid=b5cc074e-2188-459d-8e7c-27bf21e159cd"},"vehicle_type_id":"4","last_reported":1730681293,"current_range_meters":39200,"station_id":"ce4bhah2rcd13ifvqej0","pricing_plan_id":"cebpf4jnsgd1na2vs0mg"},{"bike_id":"11d22786-63f7-4b18-ad62-6661f08d85c5","system_id":"levelo_inurba_marseille","lat":43.31114,"lon":5.37773,"is_reserved":false,"is_disabled":false,"rental_uris":{"android":"levelo://app?vid=11d22786-63f7-4b18-ad62-6661f08d85c5","ios":"levelo://app?vid=11d22786-63f7-4b18-ad62-6661f08d85c5"},"vehicle_type_id":"4","last_reported":1730681293,"current_range_meters":10000,"station_id":"ce4bgt92rcd13ifvqcg0","pricing_plan_id":"cebpf4jnsgd1na2vs0mg"},{"bike_id":"346be306-157d-487e-befd-c6ca98fd2aa8","system_id":"levelo_inurba_marseille","lat":43.2991,"lon":5.37473,"is_reserved":false,"is_disabled":false,"rental_uris":{"android":"levelo://app?vid=346be306-157d-487e-befd-c6ca98fd2aa8","ios":"levelo://app?vid=346be306-157d-487e-befd-c6ca98fd2aa8"},"vehicle_type_id":"4","last_reported":1730681293,"current_range_meters":36800,"station_id":"ce4bgjh2rcd13ifvqbg0","pricing_plan_id":"cebpf4jnsgd1na2vs0mg"},{"bike_id":"c8e7a5a8-858f-4c17-b7b6-720302ccb146","system_id":"levelo_inurba_marseille","lat":43.28031,"lon":5.36963,"is_reserved":false,"is_disabled":false,"rental_uris":{"android":"levelo://app?vid=c8e7a5a8-858f-4c17-b7b6-720302ccb146","ios":"levelo://app?vid=c8e7a5a8-858f-4c17-b7b6-720302ccb146"},"vehicle_type_id":"4","last_reported":1730681293,"current_range_meters":30000,"station_id":"ce4bha12rcd13ifvqef0","pricing_plan_id":"cebpf4jnsgd1na2vs0mg"},{"bike_id":"637b35ac-7a4d-45dd-9f5f-2038a30d836a","system_id":"levelo_inurba_marseille","lat":43.28563,"lon":5.39516,"is_reserved":false,"is_disabled":false,"rental_uris":{"android":"levelo://app?vid=637b35ac-7a4d-45dd-9f5f-2038a30d836a","ios":"levelo://app?vid=637b35ac-7a4d-45dd-9f5f-2038a30d836a"},"vehicle_type_id":"4","last_reported":1730681293,"current_range_meters":38800,"station_id":"ce4bh292rcd13ifvqdg0","pricing_plan_id":"cebpf4jnsgd1na2vs0mg"},{"bike_id":"f21348a8-a761-4ca5-8ad0-efb009b4de77","system_id":"levelo_inurba_marseille","lat":43.24539,"lon":5.39531,"is_reserved":false,"is_disabled":false,"rental_uris":{"android":"levelo://app?vid=f21348a8-a761-4ca5-8ad0-efb009b4de77","ios":"levelo://app?vid=f21348a8-a761-4ca5-8ad0-efb009b4de77"},"vehicle_type_id":"4","last_reported":1730681293,"current_range_meters":26000,"station_id":"ce4bhlp2rcd13ifvqgjg","pricing_plan_id":"cebpf4jnsgd1na2vs0mg"},{"bike_id":"81cbfe91-68c9-4a60-b933-5430cf549ffb","system_id":"levelo_inurba_marseille","lat":43.27988,"lon":5.41662,"is_reserved":false,"is_disabled":false,"rental_uris":{"android":"levelo://app?vid=81cbfe91-68c9-4a60-b933-5430cf549ffb","ios":"levelo://app?vid=81cbfe91-68c9-4a60-b933-5430cf549ffb"},"vehicle_type_id":"4","last_reported":1730681293,"current_range_meters":36000,"station_id":"ce4bho12rcd13ifvqh1g","pricing_plan_id":"cebpf4jnsgd1na2vs0mg"},{"bike_id":"60b44956-9029-465b-bff1-e2638a9b3ec0","system_id":"levelo_inurba_marseille","lat":43.28101,"lon":5.37846,"is_reserved":false,"is_disabled":false,"rental_uris":{"android":"levelo://app?vid=60b44956-9029-465b-bff1-e2638a9b3ec0","ios":"levelo://app?vid=60b44956-9029-465b-bff1-e2638a9b3ec0"},"vehicle_type_id":"4","last_reported":1730681293,"current_range_meters":36400,"station_id":"ce4bha12rcd13ifvqee0","pricing_plan_id":"cebpf4jnsgd1na2vs0mg"},{"bike_id":"c556f04d-a5be-4d49-ad15-6cb970cca7df","system_id":"levelo_inurba_marseille","lat":43.31723,"lon":5.4239,"is_reserved":false,"is_disabled":false,"rental_uris":{"android":"levelo://app?vid=c556f04d-a5be-4d49-ad15-6cb970cca7df","ios":"levelo://app?vid=c556f04d-a5be-4d49-ad15-6cb970cca7df"},"vehicle_type_id":"4","last_reported":1730681293,"current_range_meters":38800,"station_id":"ce4bhp92rcd13ifvqhbg","pricing_plan_id":"cebpf4jnsgd1na2vs0mg"},{"bike_id":"e11d5255-2ce6-4a68-8d0c-4cc6508d90bb","system_id":"levelo_inurba_marseille","lat":43.25725,"lon":5.41107,"is_reserved":false,"is_disabled":false,"rental_uris":{"android":"levelo://app?vid=e11d5255-2ce6-4a68-8d0c-4cc6508d90bb","ios":"levelo://app?vid=e11d5255-2ce6-4a68-8d0c-4cc6508d90bb"},"vehicle_type_id":"4","last_reported":1730681293,"current_range_meters":7200,"station_id":"ce4bhkp2rcd13ifvqgd0","pricing_plan_id":"cebpf4jnsgd1na2vs0mg"},{"bike_id":"ea6a1160-752a-4400-b955-26c70fd82b3f","system_id":"levelo_inurba_marseille","lat":43.30087,"lon":5.39081,"is_reserved":false,"is_disabled":false,"rental_uris":{"android":"levelo://app?vid=ea6a1160-752a-4400-b955-26c70fd82b3f","ios":"levelo://app?vid=ea6a1160-752a-4400-b955-26c70fd82b3f"},"vehicle_type_id":"4","last_reported":1730681293,"current_range_meters":37600,"station_id":"ce4bh192rcd13ifvqdb0","pricing_plan_id":"cebpf4jnsgd1na2vs0mg"},{"bike_id":"8cfaeee4-83ba-4e88-9988-60508bc012ff","system_id":"levelo_inurba_marseille","lat":43.29036,"lon":5.37567,"is_reserved":false,"is_disabled":false,"rental_uris":{"android":"levelo://app?vid=8cfaeee4-83ba-4e88-9988-60508bc012ff","ios":"levelo://app?vid=8cfaeee4-83ba-4e88-9988-60508bc012ff"},"vehicle_type_id":"4","last_reported":1730681293,"current_range_meters":32800,"station_id":"ce4bh692rcd13ifvqe90","pricing_plan_id":"cebpf4jnsgd1na2vs0mg"},{"bike_id":"58937cbf-ce81-4e79-a196-4b6daa35f3e4","system_id":"levelo_inurba_marseille","lat":43.3149,"lon":5.37304,"is_reserved":false,"is_disabled":false,"rental_uris":{"android":"levelo://app?vid=58937cbf-ce81-4e79-a196-4b6daa35f3e4","ios":"levelo://app?vid=58937cbf-ce81-4e79-a196-4b6daa35f3e4"},"vehicle_type_id":"4","last_reported":1730681293,"current_range_meters":24400,"station_id":"ce4bgt12rcd13ifvqcd0","pricing_plan_id":"cebpf4jnsgd1na2vs0mg"},{"bike_id":"3dd46dbd-b1d1-47c8-a63a-3f5d34e36643","system_id":"levelo_inurba_marseille","lat":43.27986,"lon":5.41659,"is_reserved":false,"is_disabled":false,"rental_uris":{"android":"levelo://app?vid=3dd46dbd-b1d1-47c8-a63a-3f5d34e36643","ios":"levelo://app?vid=3dd46dbd-b1d1-47c8-a63a-3f5d34e36643"},"vehicle_type_id":"4","last_reported":1730681293,"current_range_meters":36800,"station_id":"ce4bho12rcd13ifvqh1g","pricing_plan_id":"cebpf4jnsgd1na2vs0mg"},{"bike_id":"eb7b04b8-0272-4ee7-b30c-d75b0bbdd44c","system_id":"levelo_inurba_marseille","lat":43.24805,"lon":5.37456,"is_reserved":false,"is_disabled":false,"rental_uris":{"android":"levelo://app?vid=eb7b04b8-0272-4ee7-b30c-d75b0bbdd44c","ios":"levelo://app?vid=eb7b04b8-0272-4ee7-b30c-d75b0bbdd44c"},"vehicle_type_id":"4","last_reported":1730681293,"current_range_meters":38800,"station_id":"ce4bhgh2rcd13ifvqfb0","pricing_plan_id":"cebpf4jnsgd1na2vs0mg"},{"bike_id":"35b13398-104a-4231-8e32-46092601ae4e","system_id":"levelo_inurba_marseille","lat":43.27942,"lon":5.41048,"is_reserved":false,"is_disabled":false,"rental_uris":{"android":"levelo://app?vid=35b13398-104a-4231-8e32-46092601ae4e","ios":"levelo://app?vid=35b13398-104a-4231-8e32-46092601ae4e"},"vehicle_type_id":"4","last_reported":1730681293,"current_range_meters":6400,"station_id":"ce4bhnp2rcd13ifvqh0g","pricing_plan_id":"cebpf4jnsgd1na2vs0mg"},{"bike_id":"52c87382-fa2b-4b96-89a5-f73605f11272","system_id":"levelo_inurba_marseille","lat":43.23855,"lon":5.38964,"is_reserved":false,"is_disabled":false,"rental_uris":{"android":"levelo://app?vid=52c87382-fa2b-4b96-89a5-f73605f11272","ios":"levelo://app?vid=52c87382-fa2b-4b96-89a5-f73605f11272"},"vehicle_type_id":"4","last_reported":1730681293,"current_range_meters":24800,"station_id":"","pricing_plan_id":"cebpf4jnsgd1na2vs0mg"},{"bike_id":"cb4481be-7a6d-46fa-8d3b-34e0418df02d","system_id":"levelo_inurba_marseille","lat":43.29252,"lon":5.40904,"is_reserved":false,"is_disabled":false,"rental_uris":{"android":"levelo://app?vid=cb4481be-7a6d-46fa-8d3b-34e0418df02d","ios":"levelo://app?vid=cb4481be-7a6d-46fa-8d3b-34e0418df02d"},"vehicle_type_id":"4","last_reported":1730681293,"current_range_meters":29600,"station_id":"ce4bh192rcd13ifvqdc0","pricing_plan_id":"cebpf4jnsgd1na2vs0mg"},{"bike_id":"d9dc8537-c347-484e-85bf-922b9e13a4cd","system_id":"levelo_inurba_marseille","lat":43.29281,"lon":5.40131,"is_reserved":false,"is_disabled":false,"rental_uris":{"android":"levelo://app?vid=d9dc8537-c347-484e-85bf-922b9e13a4cd","ios":"levelo://app?vid=d9dc8537-c347-484e-85bf-922b9e13a4cd"},"vehicle_type_id":"4","last_reported":1730681293,"current_range_meters":27200,"station_id":"ce4bh312rcd13ifvqdk0","pricing_plan_id":"cebpf4jnsgd1na2vs0mg"},{"bike_id":"a43019a8-a760-4309-a043-c8c927a99dee","system_id":"levelo_inurba_marseille","lat":43.31064,"lon":5.38345,"is_reserved":false,"is_disabled":false,"rental_uris":{"android":"levelo://app?vid=a43019a8-a760-4309-a043-c8c927a99dee","ios":"levelo://app?vid=a43019a8-a760-4309-a043-c8c927a99dee"},"vehicle_type_id":"4","last_reported":1730681293,"current_range_meters":27200,"station_id":"ce4bgv92rcd13ifvqcr0","pricing_plan_id":"cebpf4jnsgd1na2vs0mg"},{"bike_id":"4adb7e65-e18e-4ef1-be00-3ea3c7f6dd44","system_id":"levelo_inurba_marseille","lat":43.2408,"lon":5.37743,"is_reserved":false,"is_disabled":false,"rental_uris":{"android":"levelo://app?vid=4adb7e65-e18e-4ef1-be00-3ea3c7f6dd44","ios":"levelo://app?vid=4adb7e65-e18e-4ef1-be00-3ea3c7f6dd44"},"vehicle_type_id":"4","last_reported":1730681293,"current_range_meters":28800,"station_id":"ce4bhnp2rcd13ifvqgvg","pricing_plan_id":"cebpf4jnsgd1na2vs0mg"},{"bike_id":"739c9dca-9415-4b03-859b-1606e5caa095","system_id":"levelo_inurba_marseille","lat":43.34142,"lon":5.4091,"is_reserved":false,"is_disabled":false,"rental_uris":{"android":"levelo://app?vid=739c9dca-9415-4b03-859b-1606e5caa095","ios":"levelo://app?vid=739c9dca-9415-4b03-859b-1606e5caa095"},"vehicle_type_id":"4","last_reported":1730681293,"current_range_meters":37600,"station_id":"ce4bhqh2rcd13ifvqhlg","pricing_plan_id":"cebpf4jnsgd1na2vs0mg"},{"bike_id":"729acc0b-6cd7-4487-ac77-d8aa02bdfe11","system_id":"levelo_inurba_marseille","lat":43.31067,"lon":5.38352,"is_reserved":false,"is_disabled":false,"rental_uris":{"android":"levelo://app?vid=729acc0b-6cd7-4487-ac77-d8aa02bdfe11","ios":"levelo://app?vid=729acc0b-6cd7-4487-ac77-d8aa02bdfe11"},"vehicle_type_id":"4","last_reported":1730681293,"current_range_meters":28000,"station_id":"ce4bgv92rcd13ifvqcr0","pricing_plan_id":"cebpf4jnsgd1na2vs0mg"},{"bike_id":"fcfab836-9abe-4972-97b8-684dd5a14828","system_id":"levelo_inurba_marseille","lat":43.27967,"lon":5.3876,"is_reserved":false,"is_disabled":false,"rental_uris":{"android":"levelo://app?vid=fcfab836-9abe-4972-97b8-684dd5a14828","ios":"levelo://app?vid=fcfab836-9abe-4972-97b8-684dd5a14828"},"vehicle_type_id":"4","last_reported":1730681293,"current_range_meters":38000,"station_id":"ce4bhg12rcd13ifvqf80","pricing_plan_id":"cebpf4jnsgd1na2vs0mg"},{"bike_id":"19d770eb-633f-4209-a035-5adc3eaa96d7","system_id":"levelo_inurba_marseille","lat":43.29055,"lon":5.39909,"is_reserved":false,"is_disabled":false,"rental_uris":{"android":"levelo://app?vid=19d770eb-633f-4209-a035-5adc3eaa96d7","ios":"levelo://app?vid=19d770eb-633f-4209-a035-5adc3eaa96d7"},"vehicle_type_id":"4","last_reported":1730681293,"current_range_meters":38800,"station_id":"ce4bh392rcd13ifvqdm0","pricing_plan_id":"cebpf4jnsgd1na2vs0mg"},{"bike_id":"1b80601b-8be3-4b0b-bcc4-eebb89de1629","system_id":"levelo_inurba_marseille","lat":43.25832,"lon":5.39442,"is_reserved":false,"is_disabled":false,"rental_uris":{"android":"levelo://app?vid=1b80601b-8be3-4b0b-bcc4-eebb89de1629","ios":"levelo://app?vid=1b80601b-8be3-4b0b-bcc4-eebb89de1629"},"vehicle_type_id":"4","last_reported":1730681293,"current_range_meters":32400,"station_id":"ce4bhip2rcd13ifvqft0","pricing_plan_id":"cebpf4jnsgd1na2vs0mg"},{"bike_id":"dd65bf1a-59fa-4bab-90e0-a371c903a900","system_id":"levelo_inurba_marseille","lat":43.28078,"lon":5.39664,"is_reserved":false,"is_disabled":false,"rental_uris":{"android":"levelo://app?vid=dd65bf1a-59fa-4bab-90e0-a371c903a900","ios":"levelo://app?vid=dd65bf1a-59fa-4bab-90e0-a371c903a900"},"vehicle_type_id":"4","last_reported":1730681293,"current_range_meters":38000,"station_id":"ce4bho12rcd13ifvqh2g","pricing_plan_id":"cebpf4jnsgd1na2vs0mg"},{"bike_id":"fc01ac91-958f-424a-99ad-0c74a70e91dc","system_id":"levelo_inurba_marseille","lat":43.28408,"lon":5.37522,"is_reserved":false,"is_disabled":false,"rental_uris":{"android":"levelo://app?vid=fc01ac91-958f-424a-99ad-0c74a70e91dc","ios":"levelo://app?vid=fc01ac91-958f-424a-99ad-0c74a70e91dc"},"vehicle_type_id":"4","last_reported":1730681293,"current_range_meters":38000,"station_id":"ce4bh412rcd13ifvqds0","pricing_plan_id":"cebpf4jnsgd1na2vs0mg"},{"bike_id":"168886e7-81ac-4e64-ac55-a569484d654b","system_id":"levelo_inurba_marseille","lat":43.2681,"lon":5.40277,"is_reserved":false,"is_disabled":false,"rental_uris":{"android":"levelo://app?vid=168886e7-81ac-4e64-ac55-a569484d654b","ios":"levelo://app?vid=168886e7-81ac-4e64-ac55-a569484d654b"},"vehicle_type_id":"4","last_reported":1730681293,"current_range_meters":34000,"station_id":"ce501612rcd8frsf0b60","pricing_plan_id":"cebpf4jnsgd1na2vs0mg"},{"bike_id":"95e3f851-48ae-4212-a71d-5b0ac6a0798d","system_id":"levelo_inurba_marseille","lat":43.28665,"lon":5.38672,"is_reserved":false,"is_disabled":false,"rental_uris":{"android":"levelo://app?vid=95e3f851-48ae-4212-a71d-5b0ac6a0798d","ios":"levelo://app?vid=95e3f851-48ae-4212-a71d-5b0ac6a0798d"},"vehicle_type_id":"4","last_reported":1730681293,"current_range_meters":38800,"station_id":"ce4bh492rcd13ifvqdug","pricing_plan_id":"cebpf4jnsgd1na2vs0mg"},{"bike_id":"2df6f291-096d-459d-b928-e87b0c0efefb","system_id":"levelo_inurba_marseille","lat":43.26681,"lon":5.38272,"is_reserved":false,"is_disabled":false,"rental_uris":{"android":"levelo://app?vid=2df6f291-096d-459d-b928-e87b0c0efefb","ios":"levelo://app?vid=2df6f291-096d-459d-b928-e87b0c0efefb"},"vehicle_type_id":"4","last_reported":1730681293,"current_range_meters":38800,"station_id":"ce4bhg92rcd13ifvqf90","pricing_plan_id":"cebpf4jnsgd1na2vs0mg"},{"bike_id":"c8ff769d-3de8-4ba5-b126-ee1befb95d70","system_id":"levelo_inurba_marseille","lat":43.2386,"lon":5.38979,"is_reserved":false,"is_disabled":false,"rental_uris":{"android":"levelo://app?vid=c8ff769d-3de8-4ba5-b126-ee1befb95d70","ios":"levelo://app?vid=c8ff769d-3de8-4ba5-b126-ee1befb95d70"},"vehicle_type_id":"4","last_reported":1730681293,"current_range_meters":10800,"station_id":"","pricing_plan_id":"cebpf4jnsgd1na2vs0mg"},{"bike_id":"8c67d340-801d-46e5-b910-2f8aff3ff078","system_id":"levelo_inurba_marseille","lat":43.33322,"lon":5.37072,"is_reserved":false,"is_disabled":false,"rental_uris":{"android":"levelo://app?vid=8c67d340-801d-46e5-b910-2f8aff3ff078","ios":"levelo://app?vid=8c67d340-801d-46e5-b910-2f8aff3ff078"},"vehicle_type_id":"4","last_reported":1730681293,"current_range_meters":3200,"station_id":"","pricing_plan_id":"cebpf4jnsgd1na2vs0mg"},{"bike_id":"25100a09-57ed-4168-9d8e-21ca7605f21f","system_id":"levelo_inurba_marseille","lat":43.27907,"lon":5.39581,"is_reserved":false,"is_disabled":false,"rental_uris":{"android":"levelo://app?vid=25100a09-57ed-4168-9d8e-21ca7605f21f","ios":"levelo://app?vid=25100a09-57ed-4168-9d8e-21ca7605f21f"},"vehicle_type_id":"4","last_reported":1730681293,"current_range_meters":38400,"station_id":"ce4bhf92rcd13ifvqf40","pricing_plan_id":"cebpf4jnsgd1na2vs0mg"},{"bike_id":"9d4fef8a-b9eb-4375-a8e9-7f26c81a4ac1","system_id":"levelo_inurba_marseille","lat":43.30643,"lon":5.40076,"is_reserved":false,"is_disabled":false,"rental_uris":{"android":"levelo://app?vid=9d4fef8a-b9eb-4375-a8e9-7f26c81a4ac1","ios":"levelo://app?vid=9d4fef8a-b9eb-4375-a8e9-7f26c81a4ac1"},"vehicle_type_id":"4","last_reported":1730681293,"current_range_meters":38800,"station_id":"ce4bh112rcd13ifvqda0","pricing_plan_id":"cebpf4jnsgd1na2vs0mg"},{"bike_id":"55058f14-9ca9-431e-be66-1c549b35234d","system_id":"levelo_inurba_marseille","lat":43.29257,"lon":5.40907,"is_reserved":false,"is_disabled":false,"rental_uris":{"android":"levelo://app?vid=55058f14-9ca9-431e-be66-1c549b35234d","ios":"levelo://app?vid=55058f14-9ca9-431e-be66-1c549b35234d"},"vehicle_type_id":"4","last_reported":1730681293,"current_range_meters":38800,"station_id":"ce4bh192rcd13ifvqdc0","pricing_plan_id":"cebpf4jnsgd1na2vs0mg"},{"bike_id":"8a6622b3-8d8a-4745-9a4e-f0dd34eaf266","system_id":"levelo_inurba_marseille","lat":43.27986,"lon":5.40014,"is_reserved":false,"is_disabled":false,"rental_uris":{"android":"levelo://app?vid=8a6622b3-8d8a-4745-9a4e-f0dd34eaf266","ios":"levelo://app?vid=8a6622b3-8d8a-4745-9a4e-f0dd34eaf266"},"vehicle_type_id":"4","last_reported":1730681293,"current_range_meters":38400,"station_id":"ce4bho92rcd13ifvqh4g","pricing_plan_id":"cebpf4jnsgd1na2vs0mg"},{"bike_id":"79f5032c-4427-40bb-bbad-7f35acb21ebc","system_id":"levelo_inurba_marseille","lat":43.32278,"lon":5.38272,"is_reserved":false,"is_disabled":false,"rental_uris":{"android":"levelo://app?vid=79f5032c-4427-40bb-bbad-7f35acb21ebc","ios":"levelo://app?vid=79f5032c-4427-40bb-bbad-7f35acb21ebc"},"vehicle_type_id":"4","last_reported":1730681293,"current_range_meters":38000,"station_id":"ce4bhr12rcd13ifvqhqg","pricing_plan_id":"cebpf4jnsgd1na2vs0mg"},{"bike_id":"488a49df-c9c8-4124-a350-5f746b788f43","system_id":"levelo_inurba_marseille","lat":43.2795,"lon":5.41047,"is_reserved":false,"is_disabled":false,"rental_uris":{"android":"levelo://app?vid=488a49df-c9c8-4124-a350-5f746b788f43","ios":"levelo://app?vid=488a49df-c9c8-4124-a350-5f746b788f43"},"vehicle_type_id":"4","last_reported":1730681293,"current_range_meters":24000,"station_id":"ce4bhnp2rcd13ifvqh0g","pricing_plan_id":"cebpf4jnsgd1na2vs0mg"},{"bike_id":"1eee0c52-58c9-4f46-883f-87a5297b494b","system_id":"levelo_inurba_marseille","lat":43.30793,"lon":5.38164,"is_reserved":false,"is_disabled":false,"rental_uris":{"android":"levelo://app?vid=1eee0c52-58c9-4f46-883f-87a5297b494b","ios":"levelo://app?vid=1eee0c52-58c9-4f46-883f-87a5297b494b"},"vehicle_type_id":"4","last_reported":1730681293,"current_range_meters":38000,"station_id":"ce4bgt12rcd13ifvqce0","pricing_plan_id":"cebpf4jnsgd1na2vs0mg"},{"bike_id":"a22693e4-0adf-4f9e-bba6-8cb69985560f","system_id":"levelo_inurba_marseille","lat":43.28455,"lon":5.35881,"is_reserved":false,"is_disabled":false,"rental_uris":{"android":"levelo://app?vid=a22693e4-0adf-4f9e-bba6-8cb69985560f","ios":"levelo://app?vid=a22693e4-0adf-4f9e-bba6-8cb69985560f"},"vehicle_type_id":"4","last_reported":1730681293,"current_range_meters":38800,"station_id":"ce4bhah2rcd13ifvqei0","pricing_plan_id":"cebpf4jnsgd1na2vs0mg"},{"bike_id":"55a5ca7c-6af1-429c-9c94-9fa3bccda2bb","system_id":"levelo_inurba_marseille","lat":43.28348,"lon":5.38113,"is_reserved":false,"is_disabled":false,"rental_uris":{"android":"levelo://app?vid=55a5ca7c-6af1-429c-9c94-9fa3bccda2bb","ios":"levelo://app?vid=55a5ca7c-6af1-429c-9c94-9fa3bccda2bb"},"vehicle_type_id":"4","last_reported":1730681293,"current_range_meters":29600,"station_id":"ce4bh412rcd13ifvqdr0","pricing_plan_id":"cebpf4jnsgd1na2vs0mg"},{"bike_id":"7a8975a1-c523-47ba-83a1-459b86ea01d9","system_id":"levelo_inurba_marseille","lat":43.29189,"lon":5.3934,"is_reserved":false,"is_disabled":false,"rental_uris":{"android":"levelo://app?vid=7a8975a1-c523-47ba-83a1-459b86ea01d9","ios":"levelo://app?vid=7a8975a1-c523-47ba-83a1-459b86ea01d9"},"vehicle_type_id":"4","last_reported":1730681293,"current_range_meters":38800,"station_id":"ce4bh192rcd13ifvqdd0","pricing_plan_id":"cebpf4jnsgd1na2vs0mg"},{"bike_id":"45c7a3c0-af85-4364-867b-3d9ff6d0ca07","system_id":"levelo_inurba_marseille","lat":43.28081,"lon":5.39667,"is_reserved":false,"is_disabled":false,"rental_uris":{"android":"levelo://app?vid=45c7a3c0-af85-4364-867b-3d9ff6d0ca07","ios":"levelo://app?vid=45c7a3c0-af85-4364-867b-3d9ff6d0ca07"},"vehicle_type_id":"4","last_reported":1730681293,"current_range_meters":22800,"station_id":"ce4bho12rcd13ifvqh2g","pricing_plan_id":"cebpf4jnsgd1na2vs0mg"},{"bike_id":"737e9747-c831-402d-a747-149225195082","system_id":"levelo_inurba_marseille","lat":43.31327,"lon":5.39696,"is_reserved":false,"is_disabled":false,"rental_uris":{"android":"levelo://app?vid=737e9747-c831-402d-a747-149225195082","ios":"levelo://app?vid=737e9747-c831-402d-a747-149225195082"},"vehicle_type_id":"4","last_reported":1730681293,"current_range_meters":28800,"station_id":"ce4bgvp2rcd13ifvqcu0","pricing_plan_id":"cebpf4jnsgd1na2vs0mg"},{"bike_id":"b0bb1aca-3f7a-47c2-897d-4da2ff5b79d7","system_id":"levelo_inurba_marseille","lat":43.30893,"lon":5.37202,"is_reserved":false,"is_disabled":false,"rental_uris":{"android":"levelo://app?vid=b0bb1aca-3f7a-47c2-897d-4da2ff5b79d7","ios":"levelo://app?vid=b0bb1aca-3f7a-47c2-897d-4da2ff5b79d7"},"vehicle_type_id":"4","last_reported":1730681293,"current_range_meters":27600,"station_id":"ce4bguh2rcd13ifvqckg","pricing_plan_id":"cebpf4jnsgd1na2vs0mg"},{"bike_id":"9f291bd9-d215-48e7-b0f9-b9b731b7acd8","system_id":"levelo_inurba_marseille","lat":43.25114,"lon":5.40319,"is_reserved":false,"is_disabled":false,"rental_uris":{"android":"levelo://app?vid=9f291bd9-d215-48e7-b0f9-b9b731b7acd8","ios":"levelo://app?vid=9f291bd9-d215-48e7-b0f9-b9b731b7acd8"},"vehicle_type_id":"4","last_reported":1730681293,"current_range_meters":35200,"station_id":"ce4bhlh2rcd13ifvqgig","pricing_plan_id":"cebpf4jnsgd1na2vs0mg"},{"bike_id":"d5324ca5-5a3a-4892-bb8c-7dbf331e6ea6","system_id":"levelo_inurba_marseille","lat":43.32482,"lon":5.36569,"is_reserved":false,"is_disabled":false,"rental_uris":{"android":"levelo://app?vid=d5324ca5-5a3a-4892-bb8c-7dbf331e6ea6","ios":"levelo://app?vid=d5324ca5-5a3a-4892-bb8c-7dbf331e6ea6"},"vehicle_type_id":"4","last_reported":1730681293,"current_range_meters":40000,"station_id":"ce4bhs12rcd13ifvqhvg","pricing_plan_id":"cebpf4jnsgd1na2vs0mg"},{"bike_id":"c54935ee-488e-4fdd-aad9-1f8526d80882","system_id":"levelo_inurba_marseille","lat":43.29435,"lon":5.39759,"is_reserved":false,"is_disabled":false,"rental_uris":{"android":"levelo://app?vid=c54935ee-488e-4fdd-aad9-1f8526d80882","ios":"levelo://app?vid=c54935ee-488e-4fdd-aad9-1f8526d80882"},"vehicle_type_id":"4","last_reported":1730681293,"current_range_meters":26800,"station_id":"ce4bh3h2rcd13ifvqdo0","pricing_plan_id":"cebpf4jnsgd1na2vs0mg"},{"bike_id":"5cc1b89a-20d6-49a0-91d5-f05de96f3f6e","system_id":"levelo_inurba_marseille","lat":43.23182,"lon":5.39986,"is_reserved":false,"is_disabled":false,"rental_uris":{"android":"levelo://app?vid=5cc1b89a-20d6-49a0-91d5-f05de96f3f6e","ios":"levelo://app?vid=5cc1b89a-20d6-49a0-91d5-f05de96f3f6e"},"vehicle_type_id":"4","last_reported":1730681293,"current_range_meters":39200,"station_id":"ce4bhn12rcd13ifvqgqg","pricing_plan_id":"cebpf4jnsgd1na2vs0mg"},{"bike_id":"8dd34c4c-080b-4b8d-9354-a5ff234c1b19","system_id":"levelo_inurba_marseille","lat":43.29281,"lon":5.40115,"is_reserved":false,"is_disabled":false,"rental_uris":{"android":"levelo://app?vid=8dd34c4c-080b-4b8d-9354-a5ff234c1b19","ios":"levelo://app?vid=8dd34c4c-080b-4b8d-9354-a5ff234c1b19"},"vehicle_type_id":"4","last_reported":1730681293,"current_range_meters":37600,"station_id":"ce4bh312rcd13ifvqdk0","pricing_plan_id":"cebpf4jnsgd1na2vs0mg"},{"bike_id":"7b8934ab-1a6b-4c2d-b5fa-40771c000556","system_id":"levelo_inurba_marseille","lat":43.27072,"lon":5.42277,"is_reserved":false,"is_disabled":false,"rental_uris":{"android":"levelo://app?vid=7b8934ab-1a6b-4c2d-b5fa-40771c000556","ios":"levelo://app?vid=7b8934ab-1a6b-4c2d-b5fa-40771c000556"},"vehicle_type_id":"4","last_reported":1730681293,"current_range_meters":19600,"station_id":"ce4bhk92rcd13ifvqgb0","pricing_plan_id":"cebpf4jnsgd1na2vs0mg"},{"bike_id":"cb8cbe74-bf02-4189-810a-cbe7a5df91d3","system_id":"levelo_inurba_marseille","lat":43.2836,"lon":5.38631,"is_reserved":false,"is_disabled":false,"rental_uris":{"android":"levelo://app?vid=cb8cbe74-bf02-4189-810a-cbe7a5df91d3","ios":"levelo://app?vid=cb8cbe74-bf02-4189-810a-cbe7a5df91d3"},"vehicle_type_id":"4","last_reported":1730681293,"current_range_meters":38400,"station_id":"ce4bh492rcd13ifvqdvg","pricing_plan_id":"cebpf4jnsgd1na2vs0mg"},{"bike_id":"832b60bc-0d06-41a3-b29c-3ff7d0f476e1","system_id":"levelo_inurba_marseille","lat":43.23187,"lon":5.3556,"is_reserved":false,"is_disabled":false,"rental_uris":{"android":"levelo://app?vid=832b60bc-0d06-41a3-b29c-3ff7d0f476e1","ios":"levelo://app?vid=832b60bc-0d06-41a3-b29c-3ff7d0f476e1"},"vehicle_type_id":"4","last_reported":1730681293,"current_range_meters":38000,"station_id":"ce4bhu92rcd13ifvqi70","pricing_plan_id":"cebpf4jnsgd1na2vs0mg"},{"bike_id":"f9fb44a8-1b67-4c9c-ab5a-c47ed3b4d290","system_id":"levelo_inurba_marseille","lat":43.28699,"lon":5.39986,"is_reserved":false,"is_disabled":false,"rental_uris":{"android":"levelo://app?vid=f9fb44a8-1b67-4c9c-ab5a-c47ed3b4d290","ios":"levelo://app?vid=f9fb44a8-1b67-4c9c-ab5a-c47ed3b4d290"},"vehicle_type_id":"4","last_reported":1730681293,"current_range_meters":38800,"station_id":"ce4bho92rcd13ifvqh3g","pricing_plan_id":"cebpf4jnsgd1na2vs0mg"},{"bike_id":"7580d83e-3d7c-46be-82b1-25f013a114af","system_id":"levelo_inurba_marseille","lat":43.31062,"lon":5.40116,"is_reserved":false,"is_disabled":false,"rental_uris":{"android":"levelo://app?vid=7580d83e-3d7c-46be-82b1-25f013a114af","ios":"levelo://app?vid=7580d83e-3d7c-46be-82b1-25f013a114af"},"vehicle_type_id":"4","last_reported":1730681293,"current_range_meters":22400,"station_id":"","pricing_plan_id":"cebpf4jnsgd1na2vs0mg"},{"bike_id":"046263dc-738c-4976-bb84-bbcda5246b87","system_id":"levelo_inurba_marseille","lat":43.30445,"lon":5.38898,"is_reserved":false,"is_disabled":false,"rental_uris":{"android":"levelo://app?vid=046263dc-738c-4976-bb84-bbcda5246b87","ios":"levelo://app?vid=046263dc-738c-4976-bb84-bbcda5246b87"},"vehicle_type_id":"4","last_reported":1730681293,"current_range_meters":31200,"station_id":"ce4bgk12rcd13ifvqbi0","pricing_plan_id":"cebpf4jnsgd1na2vs0mg"},{"bike_id":"95176e65-2057-4dd1-bdba-201dc08b6b3e","system_id":"levelo_inurba_marseille","lat":43.26804,"lon":5.40265,"is_reserved":false,"is_disabled":false,"rental_uris":{"android":"levelo://app?vid=95176e65-2057-4dd1-bdba-201dc08b6b3e","ios":"levelo://app?vid=95176e65-2057-4dd1-bdba-201dc08b6b3e"},"vehicle_type_id":"4","last_reported":1730681293,"current_range_meters":38800,"station_id":"ce501612rcd8frsf0b60","pricing_plan_id":"cebpf4jnsgd1na2vs0mg"},{"bike_id":"c36500d8-3c1b-40b4-b412-de69c457b9cb","system_id":"levelo_inurba_marseille","lat":43.28096,"lon":5.41035,"is_reserved":false,"is_disabled":false,"rental_uris":{"android":"levelo://app?vid=c36500d8-3c1b-40b4-b412-de69c457b9cb","ios":"levelo://app?vid=c36500d8-3c1b-40b4-b412-de69c457b9cb"},"vehicle_type_id":"4","last_reported":1730681293,"current_range_meters":8000,"station_id":"","pricing_plan_id":"cebpf4jnsgd1na2vs0mg"},{"bike_id":"95296791-a591-4ff0-afa8-95caf4a09725","system_id":"levelo_inurba_marseille","lat":43.30963,"lon":5.39041,"is_reserved":false,"is_disabled":false,"rental_uris":{"android":"levelo://app?vid=95296791-a591-4ff0-afa8-95caf4a09725","ios":"levelo://app?vid=95296791-a591-4ff0-afa8-95caf4a09725"},"vehicle_type_id":"4","last_reported":1730681293,"current_range_meters":39200,"station_id":"ce4bgup2rcd13ifvqco0","pricing_plan_id":"cebpf4jnsgd1na2vs0mg"},{"bike_id":"6e1fbd51-13a4-4793-a06b-fac9c5d733fb","system_id":"levelo_inurba_marseille","lat":43.27947,"lon":5.4105,"is_reserved":false,"is_disabled":false,"rental_uris":{"android":"levelo://app?vid=6e1fbd51-13a4-4793-a06b-fac9c5d733fb","ios":"levelo://app?vid=6e1fbd51-13a4-4793-a06b-fac9c5d733fb"},"vehicle_type_id":"4","last_reported":1730681293,"current_range_meters":38800,"station_id":"ce4bhnp2rcd13ifvqh0g","pricing_plan_id":"cebpf4jnsgd1na2vs0mg"},{"bike_id":"6a48fc1d-4569-4e20-a32c-a78fecac1fce","system_id":"levelo_inurba_marseille","lat":43.30892,"lon":5.37215,"is_reserved":false,"is_disabled":false,"rental_uris":{"android":"levelo://app?vid=6a48fc1d-4569-4e20-a32c-a78fecac1fce","ios":"levelo://app?vid=6a48fc1d-4569-4e20-a32c-a78fecac1fce"},"vehicle_type_id":"4","last_reported":1730681293,"current_range_meters":38800,"station_id":"ce4bguh2rcd13ifvqckg","pricing_plan_id":"cebpf4jnsgd1na2vs0mg"},{"bike_id":"24f1eb47-eb3e-41ef-a7ab-52d326ab4d91","system_id":"levelo_inurba_marseille","lat":43.31084,"lon":5.42436,"is_reserved":false,"is_disabled":false,"rental_uris":{"android":"levelo://app?vid=24f1eb47-eb3e-41ef-a7ab-52d326ab4d91","ios":"levelo://app?vid=24f1eb47-eb3e-41ef-a7ab-52d326ab4d91"},"vehicle_type_id":"4","last_reported":1730681293,"current_range_meters":23200,"station_id":"ce4bhp92rcd13ifvqhag","pricing_plan_id":"cebpf4jnsgd1na2vs0mg"},{"bike_id":"2f198e17-c1d9-44a9-a2a2-6c2ed86edf11","system_id":"levelo_inurba_marseille","lat":43.25121,"lon":5.40325,"is_reserved":false,"is_disabled":false,"rental_uris":{"android":"levelo://app?vid=2f198e17-c1d9-44a9-a2a2-6c2ed86edf11","ios":"levelo://app?vid=2f198e17-c1d9-44a9-a2a2-6c2ed86edf11"},"vehicle_type_id":"4","last_reported":1730681293,"current_range_meters":4400,"station_id":"ce4bhlh2rcd13ifvqgig","pricing_plan_id":"cebpf4jnsgd1na2vs0mg"},{"bike_id":"3a735f4a-9486-422a-b719-6ba035a5a00f","system_id":"levelo_inurba_marseille","lat":43.27175,"lon":5.4099,"is_reserved":false,"is_disabled":false,"rental_uris":{"android":"levelo://app?vid=3a735f4a-9486-422a-b719-6ba035a5a00f","ios":"levelo://app?vid=3a735f4a-9486-422a-b719-6ba035a5a00f"},"vehicle_type_id":"4","last_reported":1730681293,"current_range_meters":8400,"station_id":"ce4bhl12rcd13ifvqgf0","pricing_plan_id":"cebpf4jnsgd1na2vs0mg"},{"bike_id":"c076fd1a-7c4f-40f3-9e0f-eb299ba402af","system_id":"levelo_inurba_marseille","lat":43.313267,"lon":5.39696,"is_reserved":false,"is_disabled":false,"rental_uris":{"android":"levelo://app?vid=c076fd1a-7c4f-40f3-9e0f-eb299ba402af","ios":"levelo://app?vid=c076fd1a-7c4f-40f3-9e0f-eb299ba402af"},"vehicle_type_id":"4","last_reported":1730681293,"current_range_meters":16400,"station_id":"ce4bgvp2rcd13ifvqcu0","pricing_plan_id":"cebpf4jnsgd1na2vs0mg"},{"bike_id":"580c00db-6f10-43b4-adc7-c7bc72e50856","system_id":"levelo_inurba_marseille","lat":43.30324,"lon":5.40456,"is_reserved":false,"is_disabled":false,"rental_uris":{"android":"levelo://app?vid=580c00db-6f10-43b4-adc7-c7bc72e50856","ios":"levelo://app?vid=580c00db-6f10-43b4-adc7-c7bc72e50856"},"vehicle_type_id":"4","last_reported":1730681293,"current_range_meters":38000,"station_id":"ce4bh012rcd13ifvqd10","pricing_plan_id":"cebpf4jnsgd1na2vs0mg"},{"bike_id":"84826187-31ec-4949-bd9b-654531a44675","system_id":"levelo_inurba_marseille","lat":43.23159,"lon":5.43706,"is_reserved":false,"is_disabled":false,"rental_uris":{"android":"levelo://app?vid=84826187-31ec-4949-bd9b-654531a44675","ios":"levelo://app?vid=84826187-31ec-4949-bd9b-654531a44675"},"vehicle_type_id":"4","last_reported":1730681293,"current_range_meters":28000,"station_id":"ce4bhmp2rcd13ifvqgog","pricing_plan_id":"cebpf4jnsgd1na2vs0mg"},{"bike_id":"07e3742d-2161-4edf-9c5a-456e12ab7829","system_id":"levelo_inurba_marseille","lat":43.31121,"lon":5.37769,"is_reserved":false,"is_disabled":false,"rental_uris":{"android":"levelo://app?vid=07e3742d-2161-4edf-9c5a-456e12ab7829","ios":"levelo://app?vid=07e3742d-2161-4edf-9c5a-456e12ab7829"},"vehicle_type_id":"4","last_reported":1730681293,"current_range_meters":6800,"station_id":"ce4bgt92rcd13ifvqcg0","pricing_plan_id":"cebpf4jnsgd1na2vs0mg"},{"bike_id":"6405d5db-6f3f-4fe7-818a-ec58f48f8dd2","system_id":"levelo_inurba_marseille","lat":43.285009,"lon":5.38922,"is_reserved":false,"is_disabled":false,"rental_uris":{"android":"levelo://app?vid=6405d5db-6f3f-4fe7-818a-ec58f48f8dd2","ios":"levelo://app?vid=6405d5db-6f3f-4fe7-818a-ec58f48f8dd2"},"vehicle_type_id":"4","last_reported":1730681293,"current_range_meters":35600,"station_id":"ce4bhnh2rcd13ifvqgug","pricing_plan_id":"cebpf4jnsgd1na2vs0mg"},{"bike_id":"b2e6e4e5-7aca-47b0-be55-21652fd207f2","system_id":"levelo_inurba_marseille","lat":43.25717,"lon":5.41102,"is_reserved":false,"is_disabled":false,"rental_uris":{"android":"levelo://app?vid=b2e6e4e5-7aca-47b0-be55-21652fd207f2","ios":"levelo://app?vid=b2e6e4e5-7aca-47b0-be55-21652fd207f2"},"vehicle_type_id":"4","last_reported":1730681293,"current_range_meters":29600,"station_id":"ce4bhkp2rcd13ifvqgd0","pricing_plan_id":"cebpf4jnsgd1na2vs0mg"},{"bike_id":"f096c496-f8db-4185-9b36-b85c627b721a","system_id":"levelo_inurba_marseille","lat":43.33613,"lon":5.41031,"is_reserved":false,"is_disabled":false,"rental_uris":{"android":"levelo://app?vid=f096c496-f8db-4185-9b36-b85c627b721a","ios":"levelo://app?vid=f096c496-f8db-4185-9b36-b85c627b721a"},"vehicle_type_id":"4","last_reported":1730681293,"current_range_meters":10800,"station_id":"ce4bhqh2rcd13ifvqhmg","pricing_plan_id":"cebpf4jnsgd1na2vs0mg"},{"bike_id":"a778de2c-bbcf-4122-bcf3-2346f30d5dac","system_id":"levelo_inurba_marseille","lat":43.3089,"lon":5.39643,"is_reserved":false,"is_disabled":false,"rental_uris":{"android":"levelo://app?vid=a778de2c-bbcf-4122-bcf3-2346f30d5dac","ios":"levelo://app?vid=a778de2c-bbcf-4122-bcf3-2346f30d5dac"},"vehicle_type_id":"4","last_reported":1730681293,"current_range_meters":34000,"station_id":"ce4bh012rcd13ifvqcv0","pricing_plan_id":"cebpf4jnsgd1na2vs0mg"},{"bike_id":"d74200e6-8722-4834-ae0b-188969c02116","system_id":"levelo_inurba_marseille","lat":43.30432,"lon":5.38892,"is_reserved":false,"is_disabled":false,"rental_uris":{"android":"levelo://app?vid=d74200e6-8722-4834-ae0b-188969c02116","ios":"levelo://app?vid=d74200e6-8722-4834-ae0b-188969c02116"},"vehicle_type_id":"4","last_reported":1730681293,"current_range_meters":38800,"station_id":"ce4bgk12rcd13ifvqbi0","pricing_plan_id":"cebpf4jnsgd1na2vs0mg"},{"bike_id":"2d920c92-c11d-45a1-a4dc-ebe0cf8cfa59","system_id":"levelo_inurba_marseille","lat":43.284119,"lon":5.375078,"is_reserved":false,"is_disabled":false,"rental_uris":{"android":"levelo://app?vid=2d920c92-c11d-45a1-a4dc-ebe0cf8cfa59","ios":"levelo://app?vid=2d920c92-c11d-45a1-a4dc-ebe0cf8cfa59"},"vehicle_type_id":"4","last_reported":1730681293,"current_range_meters":30800,"station_id":"ce4bh412rcd13ifvqds0","pricing_plan_id":"cebpf4jnsgd1na2vs0mg"},{"bike_id":"5e6290e0-5cb9-4d1b-86fc-021dbdc70c67","system_id":"levelo_inurba_marseille","lat":43.31712,"lon":5.4371,"is_reserved":false,"is_disabled":false,"rental_uris":{"android":"levelo://app?vid=5e6290e0-5cb9-4d1b-86fc-021dbdc70c67","ios":"levelo://app?vid=5e6290e0-5cb9-4d1b-86fc-021dbdc70c67"},"vehicle_type_id":"4","last_reported":1730681293,"current_range_meters":20400,"station_id":"ce4bhp92rcd13ifvqhcg","pricing_plan_id":"cebpf4jnsgd1na2vs0mg"},{"bike_id":"fcdd5933-89bc-4fad-bfde-3a40e0572351","system_id":"levelo_inurba_marseille","lat":43.30316,"lon":5.4045,"is_reserved":false,"is_disabled":false,"rental_uris":{"android":"levelo://app?vid=fcdd5933-89bc-4fad-bfde-3a40e0572351","ios":"levelo://app?vid=fcdd5933-89bc-4fad-bfde-3a40e0572351"},"vehicle_type_id":"4","last_reported":1730681293,"current_range_meters":37600,"station_id":"ce4bh012rcd13ifvqd10","pricing_plan_id":"cebpf4jnsgd1na2vs0mg"},{"bike_id":"379405aa-f2fe-4f9b-86d8-0b5b3856508a","system_id":"levelo_inurba_marseille","lat":43.30088,"lon":5.3909,"is_reserved":false,"is_disabled":false,"rental_uris":{"android":"levelo://app?vid=379405aa-f2fe-4f9b-86d8-0b5b3856508a","ios":"levelo://app?vid=379405aa-f2fe-4f9b-86d8-0b5b3856508a"},"vehicle_type_id":"4","last_reported":1730681293,"current_range_meters":37600,"station_id":"ce4bh192rcd13ifvqdb0","pricing_plan_id":"cebpf4jnsgd1na2vs0mg"},{"bike_id":"d23ee90e-6a8d-4bf1-bc67-f062394dde4f","system_id":"levelo_inurba_marseille","lat":43.29195,"lon":5.39321,"is_reserved":false,"is_disabled":false,"rental_uris":{"android":"levelo://app?vid=d23ee90e-6a8d-4bf1-bc67-f062394dde4f","ios":"levelo://app?vid=d23ee90e-6a8d-4bf1-bc67-f062394dde4f"},"vehicle_type_id":"4","last_reported":1730681293,"current_range_meters":38400,"station_id":"ce4bh192rcd13ifvqdd0","pricing_plan_id":"cebpf4jnsgd1na2vs0mg"},{"bike_id":"86581e9f-e6ec-4e49-9654-0c0493b98dbc","system_id":"levelo_inurba_marseille","lat":43.30436,"lon":5.38896,"is_reserved":false,"is_disabled":false,"rental_uris":{"android":"levelo://app?vid=86581e9f-e6ec-4e49-9654-0c0493b98dbc","ios":"levelo://app?vid=86581e9f-e6ec-4e49-9654-0c0493b98dbc"},"vehicle_type_id":"4","last_reported":1730681293,"current_range_meters":35200,"station_id":"ce4bgk12rcd13ifvqbi0","pricing_plan_id":"cebpf4jnsgd1na2vs0mg"},{"bike_id":"fa649200-6745-4ffb-8508-e8297bb2a9dd","system_id":"levelo_inurba_marseille","lat":43.28938,"lon":5.36641,"is_reserved":false,"is_disabled":false,"rental_uris":{"android":"levelo://app?vid=fa649200-6745-4ffb-8508-e8297bb2a9dd","ios":"levelo://app?vid=fa649200-6745-4ffb-8508-e8297bb2a9dd"},"vehicle_type_id":"4","last_reported":1730681293,"current_range_meters":38000,"station_id":"ce4bhap2rcd13ifvqek0","pricing_plan_id":"cebpf4jnsgd1na2vs0mg"},{"bike_id":"643f0b74-3410-4b14-8f20-b5835e9acabc","system_id":"levelo_inurba_marseille","lat":43.28029,"lon":5.36962,"is_reserved":false,"is_disabled":false,"rental_uris":{"android":"levelo://app?vid=643f0b74-3410-4b14-8f20-b5835e9acabc","ios":"levelo://app?vid=643f0b74-3410-4b14-8f20-b5835e9acabc"},"vehicle_type_id":"4","last_reported":1730681293,"current_range_meters":38800,"station_id":"ce4bha12rcd13ifvqef0","pricing_plan_id":"cebpf4jnsgd1na2vs0mg"},{"bike_id":"92076b3b-01fa-412f-b9fe-8f2ce833c281","system_id":"levelo_inurba_marseille","lat":43.29199,"lon":5.39341,"is_reserved":false,"is_disabled":false,"rental_uris":{"android":"levelo://app?vid=92076b3b-01fa-412f-b9fe-8f2ce833c281","ios":"levelo://app?vid=92076b3b-01fa-412f-b9fe-8f2ce833c281"},"vehicle_type_id":"4","last_reported":1730681293,"current_range_meters":38800,"station_id":"ce4bh192rcd13ifvqdd0","pricing_plan_id":"cebpf4jnsgd1na2vs0mg"},{"bike_id":"ba241702-d2c4-491c-b905-3d1c07cf3659","system_id":"levelo_inurba_marseille","lat":43.30935,"lon":5.40155,"is_reserved":false,"is_disabled":false,"rental_uris":{"android":"levelo://app?vid=ba241702-d2c4-491c-b905-3d1c07cf3659","ios":"levelo://app?vid=ba241702-d2c4-491c-b905-3d1c07cf3659"},"vehicle_type_id":"4","last_reported":1730681293,"current_range_meters":33200,"station_id":"ce4bgvp2rcd13ifvqct0","pricing_plan_id":"cebpf4jnsgd1na2vs0mg"},{"bike_id":"b6c9e670-f3a4-44e1-9439-288521edc05e","system_id":"levelo_inurba_marseille","lat":43.26559,"lon":5.37285,"is_reserved":false,"is_disabled":false,"rental_uris":{"android":"levelo://app?vid=b6c9e670-f3a4-44e1-9439-288521edc05e","ios":"levelo://app?vid=b6c9e670-f3a4-44e1-9439-288521edc05e"},"vehicle_type_id":"4","last_reported":1730681293,"current_range_meters":14000,"station_id":"ce4bhg12rcd13ifvqf70","pricing_plan_id":"cebpf4jnsgd1na2vs0mg"},{"bike_id":"3060e12c-0318-48df-8b3d-466aa19dbff5","system_id":"levelo_inurba_marseille","lat":43.30328,"lon":5.40439,"is_reserved":false,"is_disabled":false,"rental_uris":{"android":"levelo://app?vid=3060e12c-0318-48df-8b3d-466aa19dbff5","ios":"levelo://app?vid=3060e12c-0318-48df-8b3d-466aa19dbff5"},"vehicle_type_id":"4","last_reported":1730681293,"current_range_meters":26800,"station_id":"ce4bh012rcd13ifvqd10","pricing_plan_id":"cebpf4jnsgd1na2vs0mg"},{"bike_id":"571da7e4-b5d4-4b07-b67c-7f557ad7bb12","system_id":"levelo_inurba_marseille","lat":43.28039,"lon":5.3695,"is_reserved":false,"is_disabled":false,"rental_uris":{"android":"levelo://app?vid=571da7e4-b5d4-4b07-b67c-7f557ad7bb12","ios":"levelo://app?vid=571da7e4-b5d4-4b07-b67c-7f557ad7bb12"},"vehicle_type_id":"4","last_reported":1730681293,"current_range_meters":38800,"station_id":"ce4bha12rcd13ifvqef0","pricing_plan_id":"cebpf4jnsgd1na2vs0mg"},{"bike_id":"e54a9e25-ac9f-47a2-b6ce-8e7088772790","system_id":"levelo_inurba_marseille","lat":43.33026,"lon":5.39044,"is_reserved":false,"is_disabled":false,"rental_uris":{"android":"levelo://app?vid=e54a9e25-ac9f-47a2-b6ce-8e7088772790","ios":"levelo://app?vid=e54a9e25-ac9f-47a2-b6ce-8e7088772790"},"vehicle_type_id":"4","last_reported":1730681293,"current_range_meters":14800,"station_id":"ce4bhr92rcd13ifvqhrg","pricing_plan_id":"cebpf4jnsgd1na2vs0mg"},{"bike_id":"4e8b3fec-139c-44ab-9f76-b39a65625f17","system_id":"levelo_inurba_marseille","lat":43.28938,"lon":5.36404,"is_reserved":false,"is_disabled":false,"rental_uris":{"android":"levelo://app?vid=4e8b3fec-139c-44ab-9f76-b39a65625f17","ios":"levelo://app?vid=4e8b3fec-139c-44ab-9f76-b39a65625f17"},"vehicle_type_id":"4","last_reported":1730681293,"current_range_meters":33200,"station_id":"ce4bhc92rcd13ifvqetg","pricing_plan_id":"cebpf4jnsgd1na2vs0mg"},{"bike_id":"329d0a9a-38c3-4530-98be-d74ad035c8be","system_id":"levelo_inurba_marseille","lat":43.24074,"lon":5.3777,"is_reserved":false,"is_disabled":false,"rental_uris":{"android":"levelo://app?vid=329d0a9a-38c3-4530-98be-d74ad035c8be","ios":"levelo://app?vid=329d0a9a-38c3-4530-98be-d74ad035c8be"},"vehicle_type_id":"4","last_reported":1730681293,"current_range_meters":13600,"station_id":"ce4bhnp2rcd13ifvqgvg","pricing_plan_id":"cebpf4jnsgd1na2vs0mg"},{"bike_id":"1f07448c-f7b3-4f54-b007-d5a6fbaabc71","system_id":"levelo_inurba_marseille","lat":43.25719,"lon":5.41115,"is_reserved":false,"is_disabled":false,"rental_uris":{"android":"levelo://app?vid=1f07448c-f7b3-4f54-b007-d5a6fbaabc71","ios":"levelo://app?vid=1f07448c-f7b3-4f54-b007-d5a6fbaabc71"},"vehicle_type_id":"4","last_reported":1730681293,"current_range_meters":28400,"station_id":"ce4bhkp2rcd13ifvqgd0","pricing_plan_id":"cebpf4jnsgd1na2vs0mg"},{"bike_id":"61864400-2b8e-4568-889d-c79c7cc8f788","system_id":"levelo_inurba_marseille","lat":43.2315,"lon":5.43707,"is_reserved":false,"is_disabled":false,"rental_uris":{"android":"levelo://app?vid=61864400-2b8e-4568-889d-c79c7cc8f788","ios":"levelo://app?vid=61864400-2b8e-4568-889d-c79c7cc8f788"},"vehicle_type_id":"4","last_reported":1730681293,"current_range_meters":10800,"station_id":"ce4bhmp2rcd13ifvqgog","pricing_plan_id":"cebpf4jnsgd1na2vs0mg"},{"bike_id":"45a1baec-7198-46b4-85ca-0ad25cd47826","system_id":"levelo_inurba_marseille","lat":43.24169,"lon":5.39689,"is_reserved":false,"is_disabled":false,"rental_uris":{"android":"levelo://app?vid=45a1baec-7198-46b4-85ca-0ad25cd47826","ios":"levelo://app?vid=45a1baec-7198-46b4-85ca-0ad25cd47826"},"vehicle_type_id":"4","last_reported":1730681293,"current_range_meters":33600,"station_id":"ce4bhn12rcd13ifvqgpg","pricing_plan_id":"cebpf4jnsgd1na2vs0mg"},{"bike_id":"3f021583-0e65-40bc-8201-d19e27615a6e","system_id":"levelo_inurba_marseille","lat":43.30248,"lon":5.40077,"is_reserved":false,"is_disabled":false,"rental_uris":{"android":"levelo://app?vid=3f021583-0e65-40bc-8201-d19e27615a6e","ios":"levelo://app?vid=3f021583-0e65-40bc-8201-d19e27615a6e"},"vehicle_type_id":"4","last_reported":1730681293,"current_range_meters":16800,"station_id":"ce4bgvh2rcd13ifvqcs0","pricing_plan_id":"cebpf4jnsgd1na2vs0mg"},{"bike_id":"2fbd6a30-32e8-46a3-aeec-07004af69821","system_id":"levelo_inurba_marseille","lat":43.32338,"lon":5.40626,"is_reserved":false,"is_disabled":false,"rental_uris":{"android":"levelo://app?vid=2fbd6a30-32e8-46a3-aeec-07004af69821","ios":"levelo://app?vid=2fbd6a30-32e8-46a3-aeec-07004af69821"},"vehicle_type_id":"4","last_reported":1730681293,"current_range_meters":24000,"station_id":"ce4bhq92rcd13ifvqhjg","pricing_plan_id":"cebpf4jnsgd1na2vs0mg"},{"bike_id":"a90aaece-4904-4f4d-bfd7-414f05c29807","system_id":"levelo_inurba_marseille","lat":43.3093,"lon":5.40148,"is_reserved":false,"is_disabled":false,"rental_uris":{"android":"levelo://app?vid=a90aaece-4904-4f4d-bfd7-414f05c29807","ios":"levelo://app?vid=a90aaece-4904-4f4d-bfd7-414f05c29807"},"vehicle_type_id":"4","last_reported":1730681293,"current_range_meters":19600,"station_id":"ce4bgvp2rcd13ifvqct0","pricing_plan_id":"cebpf4jnsgd1na2vs0mg"},{"bike_id":"b7025435-eb3f-456a-8fb2-f639e2f34d1f","system_id":"levelo_inurba_marseille","lat":43.23186,"lon":5.39989,"is_reserved":false,"is_disabled":false,"rental_uris":{"android":"levelo://app?vid=b7025435-eb3f-456a-8fb2-f639e2f34d1f","ios":"levelo://app?vid=b7025435-eb3f-456a-8fb2-f639e2f34d1f"},"vehicle_type_id":"4","last_reported":1730681293,"current_range_meters":22400,"station_id":"ce4bhn12rcd13ifvqgqg","pricing_plan_id":"cebpf4jnsgd1na2vs0mg"},{"bike_id":"c45bdead-0b4b-4bc3-ae8d-a3a1eeb7c5ba","system_id":"levelo_inurba_marseille","lat":43.28459,"lon":5.3589,"is_reserved":false,"is_disabled":false,"rental_uris":{"android":"levelo://app?vid=c45bdead-0b4b-4bc3-ae8d-a3a1eeb7c5ba","ios":"levelo://app?vid=c45bdead-0b4b-4bc3-ae8d-a3a1eeb7c5ba"},"vehicle_type_id":"4","last_reported":1730681293,"current_range_meters":38000,"station_id":"ce4bhah2rcd13ifvqei0","pricing_plan_id":"cebpf4jnsgd1na2vs0mg"},{"bike_id":"4c891a83-029b-4718-828e-846535ee78e1","system_id":"levelo_inurba_marseille","lat":43.28663,"lon":5.36365,"is_reserved":false,"is_disabled":false,"rental_uris":{"android":"levelo://app?vid=4c891a83-029b-4718-828e-846535ee78e1","ios":"levelo://app?vid=4c891a83-029b-4718-828e-846535ee78e1"},"vehicle_type_id":"4","last_reported":1730681293,"current_range_meters":38800,"station_id":"ce4bhah2rcd13ifvqej0","pricing_plan_id":"cebpf4jnsgd1na2vs0mg"},{"bike_id":"a3ae4c1b-8ed3-43f0-95b2-9f60ca274476","system_id":"levelo_inurba_marseille","lat":43.3247,"lon":5.36563,"is_reserved":false,"is_disabled":false,"rental_uris":{"android":"levelo://app?vid=a3ae4c1b-8ed3-43f0-95b2-9f60ca274476","ios":"levelo://app?vid=a3ae4c1b-8ed3-43f0-95b2-9f60ca274476"},"vehicle_type_id":"4","last_reported":1730681293,"current_range_meters":39200,"station_id":"ce4bhs12rcd13ifvqhvg","pricing_plan_id":"cebpf4jnsgd1na2vs0mg"},{"bike_id":"ab9173ec-0645-441d-90af-326a5e948990","system_id":"levelo_inurba_marseille","lat":43.2833,"lon":5.38108,"is_reserved":false,"is_disabled":false,"rental_uris":{"android":"levelo://app?vid=ab9173ec-0645-441d-90af-326a5e948990","ios":"levelo://app?vid=ab9173ec-0645-441d-90af-326a5e948990"},"vehicle_type_id":"4","last_reported":1730681293,"current_range_meters":30000,"station_id":"ce4bh412rcd13ifvqdr0","pricing_plan_id":"cebpf4jnsgd1na2vs0mg"},{"bike_id":"0d2305bf-cad7-4f51-a7f4-06f39ed0c63c","system_id":"levelo_inurba_marseille","lat":43.3117,"lon":5.38724,"is_reserved":false,"is_disabled":false,"rental_uris":{"android":"levelo://app?vid=0d2305bf-cad7-4f51-a7f4-06f39ed0c63c","ios":"levelo://app?vid=0d2305bf-cad7-4f51-a7f4-06f39ed0c63c"},"vehicle_type_id":"4","last_reported":1730681293,"current_range_meters":38800,"station_id":"ce4bgv12rcd13ifvqcp0","pricing_plan_id":"cebpf4jnsgd1na2vs0mg"},{"bike_id":"db26f5ad-b2ef-45e2-bcad-4925a1d4e797","system_id":"levelo_inurba_marseille","lat":43.30141,"lon":5.39869,"is_reserved":false,"is_disabled":false,"rental_uris":{"android":"levelo://app?vid=db26f5ad-b2ef-45e2-bcad-4925a1d4e797","ios":"levelo://app?vid=db26f5ad-b2ef-45e2-bcad-4925a1d4e797"},"vehicle_type_id":"4","last_reported":1730681293,"current_range_meters":11200,"station_id":"ce4bh0h2rcd13ifvqd40","pricing_plan_id":"cebpf4jnsgd1na2vs0mg"},