{"last_updated":1730408958,"ttl":60,"version":"2.2","data":{"bikes":[{"bike_id":"4619a927-69f6-4e40-aea7-50e83b0fe185","system_id":"levelo_inurba_marseille","lat":43.32487,"lon":5.36552,"is_reserved":false,"is_disabled":false,"rental_uris":{"android":"levelo://app?vid=4619a927-69f6-4e40-aea7-50e83b0fe185","ios":"levelo://app?vid=4619a927-69f6-4e40-aea7-50e83b0fe185"},"vehicle_type_id":"4","last_reported":1730408959,"current_range_meters":12800,"station_id":"ce4bhs12rcd13ifvqhvg","pricing_plan_id":"cebpf4jnsgd1na2vs0mg"},{"bike_id":"c09d6211-a761-4d74-b22a-b4f5b52eb9ff","system_id":"levelo_inurba_marseille","lat":43.24673,"lon":5.38151,"is_reserved":false,"is_disabled":false,"rental_uris":{"android":"levelo://app?vid=c09d6211-a761-4d74-b22a-b4f5b52eb9ff","ios":"levelo://app?vid=c09d6211-a761-4d74-b22a-b4f5b52eb9ff"},"vehicle_type_id":"4","last_reported":1730408959,"current_range_meters":37600,"station_id":"ce4bhih2rcd13ifvqfr0","pricing_plan_id":"cebpf4jnsgd1na2vs0mg"},{"bike_id":"9400d765-0dfe-43ca-a6b1-557131a0084e","system_id":"levelo_inurba_marseille","lat":43.299375,"lon":5.375638,"is_reserved":false,"is_disabled":false,"rental_uris":{"android":"levelo://app?vid=9400d765-0dfe-43ca-a6b1-557131a0084e","ios":"levelo://app?vid=9400d765-0dfe-43ca-a6b1-557131a0084e"},"vehicle_type_id":"4","last_reported":1730408959,"current_range_meters":31200,"station_id":"","pricing_plan_id":"cebpf4jnsgd1na2vs0mg"},{"bike_id":"7e60e73e-d7ec-4efb-b579-089d6a348eca","system_id":"levelo_inurba_marseille","lat":43.28717,"lon":5.37936,"is_reserved":false,"is_disabled":false,"rental_uris":{"android":"levelo://app?vid=7e60e73e-d7ec-4efb-b579-089d6a348eca","ios":"levelo://app?vid=7e60e73e-d7ec-4efb-b579-089d6a348eca"},"vehicle_type_id":"4","last_reported":1730408959,"current_range_meters":38800,"station_id":"ce4bh9p2rcd13ifvqec0","pricing_plan_id":"cebpf4jnsgd1na2vs0mg"},{"bike_id":"fdcf8f8f-9721-4758-81b9-44fb24c1f34a","system_id":"levelo_inurba_marseille","lat":43.2942,"lon":5.3863,"is_reserved":false,"is_disabled":false,"rental_uris":{"android":"levelo://app?vid=fdcf8f8f-9721-4758-81b9-44fb24c1f34a","ios":"levelo://app?vid=fdcf8f8f-9721-4758-81b9-44fb24c1f34a"},"vehicle_type_id":"4","last_reported":1730408959,"current_range_meters":38000,"station_id":"ce4bh2h2rcd13ifvqdh0","pricing_plan_id":"cebpf4jnsgd1na2vs0mg"},{"bike_id":"b564d8bc-2b59-43dd-ad25-39bd7cd1e42e","system_id":"levelo_inurba_marseille","lat":43.31716,"lon":5.3774,"is_reserved":false,"is_disabled":false,"rental_uris":{"android":"levelo://app?vid=b564d8bc-2b59-43dd-ad25-39bd7cd1e42e","ios":"levelo://app?vid=b564d8bc-2b59-43dd-ad25-39bd7cd1e42e"},"vehicle_type_id":"4","last_reported":1730408959,"current_range_meters":10000,"station_id":"ce4bgth2rcd13ifvqch0","pricing_plan_id":"cebpf4jnsgd1na2vs0mg"},{"bike_id":"067684a9-c3f5-4f44-8a42-ed26721f3c93","system_id":"levelo_inurba_marseille","lat":43.29022,"lon":5.38133,"is_reserved":false,"is_disabled":false,"rental_uris":{"android":"levelo://app?vid=067684a9-c3f5-4f44-8a42-ed26721f3c93","ios":"levelo://app?vid=067684a9-c3f5-4f44-8a42-ed26721f3c93"},"vehicle_type_id":"4","last_reported":1730408959,"current_range_meters":38800,"station_id":"ce4bh4p2rcd13ifvqe1g","pricing_plan_id":"cebpf4jnsgd1na2vs0mg"},{"bike_id":"c3be5043-a701-47b6-a4a8-6ff005ff82de","system_id":"levelo_inurba_marseille","lat":43.31703,"lon":5.43735,"is_reserved":false,"is_disabled":false,"rental_uris":{"android":"levelo://app?vid=c3be5043-a701-47b6-a4a8-6ff005ff82de","ios":"levelo://app?vid=c3be5043-a701-47b6-a4a8-6ff005ff82de"},"vehicle_type_id":"4","last_reported":1730408959,"current_range_meters":4800,"station_id":"ce4bhp92rcd13ifvqhcg","pricing_plan_id":"cebpf4jnsgd1na2vs0mg"},{"bike_id":"6d5f036e-7e12-430a-9fc6-8d070be6dbb4","system_id":"levelo_inurba_marseille","lat":43.2927,"lon":5.38434,"is_reserved":false,"is_disabled":false,"rental_uris":{"android":"levelo://app?vid=6d5f036e-7e12-430a-9fc6-8d070be6dbb4","ios":"levelo://app?vid=6d5f036e-7e12-430a-9fc6-8d070be6dbb4"},"vehicle_type_id":"4","last_reported":1730408959,"current_range_meters":4400,"station_id":"ce4bh692rcd13ifvqea0","pricing_plan_id":"cebpf4jnsgd1na2vs0mg"},{"bike_id":"a4627486-a087-47d1-bdea-e9476cd49986","system_id":"levelo_inurba_marseille","lat":43.23197,"lon":5.35546,"is_reserved":false,"is_disabled":false,"rental_uris":{"android":"levelo://app?vid=a4627486-a087-47d1-bdea-e9476cd49986","ios":"levelo://app?vid=a4627486-a087-47d1-bdea-e9476cd49986"},"vehicle_type_id":"4","last_reported":1730408959,"current_range_meters":35600,"station_id":"ce4bhu92rcd13ifvqi70","pricing_plan_id":"cebpf4jnsgd1na2vs0mg"},{"bike_id":"55dab1c5-8299-4ba5-b0e5-ab02ab9376bc","system_id":"levelo_inurba_marseille","lat":43.24177,"lon":5.3973,"is_reserved":false,"is_disabled":false,"rental_uris":{"android":"levelo://app?vid=55dab1c5-8299-4ba5-b0e5-ab02ab9376bc","ios":"levelo://app?vid=55dab1c5-8299-4ba5-b0e5-ab02ab9376bc"},"vehicle_type_id":"4","last_reported":1730408959,"current_range_meters":17200,"station_id":"ce4bhn12rcd13ifvqgpg","pricing_plan_id":"cebpf4jnsgd1na2vs0mg"},{"bike_id":"509a9bdc-ca48-4855-8040-748bb9b3087b","system_id":"levelo_inurba_marseille","lat":43.25936,"lon":5.40901,"is_reserved":false,"is_disabled":false,"rental_uris":{"android":"levelo://app?vid=509a9bdc-ca48-4855-8040-748bb9b3087b","ios":"levelo://app?vid=509a9bdc-ca48-4855-8040-748bb9b3087b"},"vehicle_type_id":"4","last_reported":1730408959,"current_range_meters":38400,"station_id":"ce4bhm92rcd13ifvqglg","pricing_plan_id":"cebpf4jnsgd1na2vs0mg"},{"bike_id":"209a2144-1436-4891-b7dd-3a92718302e8","system_id":"levelo_inurba_marseille","lat":43.29451,"lon":5.37428,"is_reserved":false,"is_disabled":false,"rental_uris":{"android":"levelo://app?vid=209a2144-1436-4891-b7dd-3a92718302e8","ios":"levelo://app?vid=209a2144-1436-4891-b7dd-3a92718302e8"},"vehicle_type_id":"4","last_reported":1730408959,"current_range_meters":25200,"station_id":"","pricing_plan_id":"cebpf4jnsgd1na2vs0mg"},{"bike_id":"cf851bc5-77be-4d48-9a32-b5c7071a3e42","system_id":"levelo_inurba_marseille","lat":43.24069,"lon":5.37462,"is_reserved":false,"is_disabled":false,"rental_uris":{"android":"levelo://app?vid=cf851bc5-77be-4d48-9a32-b5c7071a3e42","ios":"levelo://app?vid=cf851bc5-77be-4d48-9a32-b5c7071a3e42"},"vehicle_type_id":"4","last_reported":1730408959,"current_range_meters":27600,"station_id":"","pricing_plan_id":"cebpf4jnsgd1na2vs0mg"},{"bike_id":"61a17217-866a-45e4-ad7d-ed917d0d9903","system_id":"levelo_inurba_marseille","lat":43.29535,"lon":5.38541,"is_reserved":false,"is_disabled":false,"rental_uris":{"android":"levelo://app?vid=61a17217-866a-45e4-ad7d-ed917d0d9903","ios":"levelo://app?vid=61a17217-866a-45e4-ad7d-ed917d0d9903"},"vehicle_type_id":"4","last_reported":1730408959,"current_range_meters":36800,"station_id":"ce4bgih2rcd13ifvqba0","pricing_plan_id":"cebpf4jnsgd1na2vs0mg"},{"bike_id":"efbe383f-83c6-4df5-ac1f-ffa8f2e0197b","system_id":"levelo_inurba_marseille","lat":43.31329,"lon":5.39694,"is_reserved":false,"is_disabled":false,"rental_uris":{"android":"levelo://app?vid=efbe383f-83c6-4df5-ac1f-ffa8f2e0197b","ios":"levelo://app?vid=efbe383f-83c6-4df5-ac1f-ffa8f2e0197b"},"vehicle_type_id":"4","last_reported":1730408959,"current_range_meters":14000,"station_id":"ce4bgvp2rcd13ifvqcu0","pricing_plan_id":"cebpf4jnsgd1na2vs0mg"},{"bike_id":"346253b2-bc8a-459b-9780-8c87c73028fa","system_id":"levelo_inurba_marseille","lat":43.2668,"lon":5.38267,"is_reserved":false,"is_disabled":false,"rental_uris":{"android":"levelo://app?vid=346253b2-bc8a-459b-9780-8c87c73028fa","ios":"levelo://app?vid=346253b2-bc8a-459b-9780-8c87c73028fa"},"vehicle_type_id":"4","last_reported":1730408959,"current_range_meters":28000,"station_id":"ce4bhg92rcd13ifvqf90","pricing_plan_id":"cebpf4jnsgd1na2vs0mg"},{"bike_id":"f117175c-fe0e-410a-b4d0-8d5ab3935436","system_id":"levelo_inurba_marseille","lat":43.28461,"lon":5.35892,"is_reserved":false,"is_disabled":false,"rental_uris":{"android":"levelo://app?vid=f117175c-fe0e-410a-b4d0-8d5ab3935436","ios":"levelo://app?vid=f117175c-fe0e-410a-b4d0-8d5ab3935436"},"vehicle_type_id":"4","last_reported":1730408959,"current_range_meters":32400,"station_id":"ce4bhah2rcd13ifvqei0","pricing_plan_id":"cebpf4jnsgd1na2vs0mg"},{"bike_id":"c877f25d-7701-4526-b4eb-1b351133f6e9","system_id":"levelo_inurba_marseille","lat":43.29517,"lon":5.38529,"is_reserved":false,"is_disabled":false,"rental_uris":{"android":"levelo://app?vid=c877f25d-7701-4526-b4eb-1b351133f6e9","ios":"levelo://app?vid=c877f25d-7701-4526-b4eb-1b351133f6e9"},"vehicle_type_id":"4","last_reported":1730408959,"current_range_meters":20400,"station_id":"ce4bgih2rcd13ifvqba0","pricing_plan_id":"cebpf4jnsgd1na2vs0mg"},{"bike_id":"457f63bb-18be-4c7e-ac29-be5c176166ad","system_id":"levelo_inurba_marseille","lat":43.29415,"lon":5.38628,"is_reserved":false,"is_disabled":false,"rental_uris":{"android":"levelo://app?vid=457f63bb-18be-4c7e-ac29-be5c176166ad","ios":"levelo://app?vid=457f63bb-18be-4c7e-ac29-be5c176166ad"},"vehicle_type_id":"4","last_reported":1730408959,"current_range_meters":36800,"station_id":"ce4bh2h2rcd13ifvqdh0","pricing_plan_id":"cebpf4jnsgd1na2vs0mg"},{"bike_id":"a4561a61-ee97-45a5-a70b-270b8842816f","system_id":"levelo_inurba_marseille","lat":43.29978,"lon":5.38483,"is_reserved":false,"is_disabled":false,"rental_uris":{"android":"levelo://app?vid=a4561a61-ee97-45a5-a70b-270b8842816f","ios":"levelo://app?vid=a4561a61-ee97-45a5-a70b-270b8842816f"},"vehicle_type_id":"4","last_reported":1730408959,"current_range_meters":8800,"station_id":"ce4bgj92rcd13ifvqbd0","pricing_plan_id":"cebpf4jnsgd1na2vs0mg"},{"bike_id":"9ec06832-24ee-497b-b43a-c22e221cee6d","system_id":"levelo_inurba_marseille","lat":43.29527,"lon":5.38544,"is_reserved":false,"is_disabled":false,"rental_uris":{"android":"levelo://app?vid=9ec06832-24ee-497b-b43a-c22e221cee6d","ios":"levelo://app?vid=9ec06832-24ee-497b-b43a-c22e221cee6d"},"vehicle_type_id":"4","last_reported":1730408959,"current_range_meters":21600,"station_id":"ce4bgih2rcd13ifvqba0","pricing_plan_id":"cebpf4jnsgd1na2vs0mg"},{"bike_id":"9f70f100-cb02-48e5-aa00-19794584caaa","system_id":"levelo_inurba_marseille","lat":43.26678,"lon":5.38261,"is_reserved":false,"is_disabled":false,"rental_uris":{"android":"levelo://app?vid=9f70f100-cb02-48e5-aa00-19794584caaa","ios":"levelo://app?vid=9f70f100-cb02-48e5-aa00-19794584caaa"},"vehicle_type_id":"4","last_reported":1730408959,"current_range_meters":2000,"station_id":"ce4bhg92rcd13ifvqf90","pricing_plan_id":"cebpf4jnsgd1na2vs0mg"},{"bike_id":"8d88c7eb-6edd-4af4-a561-987ac0a8b767","system_id":"levelo_inurba_marseille","lat":43.272,"lon":5.39187,"is_reserved":false,"is_disabled":false,"rental_uris":{"android":"levelo://app?vid=8d88c7eb-6edd-4af4-a561-987ac0a8b767","ios":"levelo://app?vid=8d88c7eb-6edd-4af4-a561-987ac0a8b767"},"vehicle_type_id":"4","last_reported":1730408959,"current_range_meters":24800,"station_id":"ce4bhhp2rcd13ifvqfm0","pricing_plan_id":"cebpf4jnsgd1na2vs0mg"},{"bike_id":"43611269-a215-477e-8054-74e6555c43fe","system_id":"levelo_inurba_marseille","lat":43.2762,"lon":5.36109,"is_reserved":false,"is_disabled":false,"rental_uris":{"android":"levelo://app?vid=43611269-a215-477e-8054-74e6555c43fe","ios":"levelo://app?vid=43611269-a215-477e-8054-74e6555c43fe"},"vehicle_type_id":"4","last_reported":1730408959,"current_range_meters":14400,"station_id":"ce4bgj92rcd13ifvqbe0","pricing_plan_id":"cebpf4jnsgd1na2vs0mg"},{"bike_id":"2ff296d5-7689-4f1c-9557-487d99cb311f","system_id":"levelo_inurba_marseille","lat":43.292979,"lon":5.374666,"is_reserved":false,"is_disabled":false,"rental_uris":{"android":"levelo://app?vid=2ff296d5-7689-4f1c-9557-487d99cb311f","ios":"levelo://app?vid=2ff296d5-7689-4f1c-9557-487d99cb311f"},"vehicle_type_id":"4","last_reported":1730408959,"current_range_meters":30400,"station_id":"ce4bh192rcd13ifvqdb0","pricing_plan_id":"cebpf4jnsgd1na2vs0mg"},{"bike_id":"3ab642d6-f0e7-4176-9513-7ca2a30a1c90","system_id":"levelo_inurba_marseille","lat":43.330261,"lon":5.390401,"is_reserved":false,"is_disabled":false,"rental_uris":{"android":"levelo://app?vid=3ab642d6-f0e7-4176-9513-7ca2a30a1c90","ios":"levelo://app?vid=3ab642d6-f0e7-4176-9513-7ca2a30a1c90"},"vehicle_type_id":"4","last_reported":1730408959,"current_range_meters":0,"station_id":"ce4bhr92rcd13ifvqhrg","pricing_plan_id":"cebpf4jnsgd1na2vs0mg"},{"bike_id":"cacaf0ee-9b15-4895-833f-cf64407ef008","system_id":"levelo_inurba_marseille","lat":43.31486,"lon":5.37305,"is_reserved":false,"is_disabled":false,"rental_uris":{"android":"levelo://app?vid=cacaf0ee-9b15-4895-833f-cf64407ef008","ios":"levelo://app?vid=cacaf0ee-9b15-4895-833f-cf64407ef008"},"vehicle_type_id":"4","last_reported":1730408959,"current_range_meters":31200,"station_id":"ce4bgt12rcd13ifvqcd0","pricing_plan_id":"cebpf4jnsgd1na2vs0mg"},{"bike_id":"54330621-a1cd-4646-93bd-1272e444bc52","system_id":"levelo_inurba_marseille","lat":43.282627,"lon":5.35059,"is_reserved":false,"is_disabled":false,"rental_uris":{"android":"levelo://app?vid=54330621-a1cd-4646-93bd-1272e444bc52","ios":"levelo://app?vid=54330621-a1cd-4646-93bd-1272e444bc52"},"vehicle_type_id":"4","last_reported":1730408959,"current_range_meters":30000,"station_id":"ce4bhbp2rcd13ifvqerg","pricing_plan_id":"cebpf4jnsgd1na2vs0mg"},{"bike_id":"2cb602d5-ed98-459c-93ff-9d60d3f8a35e","system_id":"levelo_inurba_marseille","lat":43.29302,"lon":5.37177,"is_reserved":false,"is_disabled":false,"rental_uris":{"android":"levelo://app?vid=2cb602d5-ed98-459c-93ff-9d60d3f8a35e","ios":"levelo://app?vid=2cb602d5-ed98-459c-93ff-9d60d3f8a35e"},"vehicle_type_id":"4","last_reported":1730408959,"current_range_meters":39200,"station_id":"ce4bgh92rcd13ifvqb40","pricing_plan_id":"cebpf4jnsgd1na2vs0mg"},{"bike_id":"9ad5365c-7808-4050-99dd-4866ffe67424","system_id":"levelo_inurba_marseille","lat":43.27981,"lon":5.43167,"is_reserved":false,"is_disabled":false,"rental_uris":{"android":"levelo://app?vid=9ad5365c-7808-4050-99dd-4866ffe67424","ios":"levelo://app?vid=9ad5365c-7808-4050-99dd-4866ffe67424"},"vehicle_type_id":"4","last_reported":1730408959,"current_range_meters":5600,"station_id":"","pricing_plan_id":"cebpf4jnsgd1na2vs0mg"},{"bike_id":"58c66d11-8b2b-4d0a-a882-54b9396a568e","system_id":"levelo_inurba_marseille","lat":43.29021,"lon":5.38146,"is_reserved":false,"is_disabled":false,"rental_uris":{"android":"levelo://app?vid=58c66d11-8b2b-4d0a-a882-54b9396a568e","ios":"levelo://app?vid=58c66d11-8b2b-4d0a-a882-54b9396a568e"},"vehicle_type_id":"4","last_reported":1730408959,"current_range_meters":29600,"station_id":"ce4bh4p2rcd13ifvqe1g","pricing_plan_id":"cebpf4jnsgd1na2vs0mg"},{"bike_id":"90c8bee3-a2ea-46eb-8c14-97cd6e2414ca","system_id":"levelo_inurba_marseille","lat":43.26927,"lon":5.38907,"is_reserved":false,"is_disabled":false,"rental_uris":{"android":"levelo://app?vid=90c8bee3-a2ea-46eb-8c14-97cd6e2414ca","ios":"levelo://app?vid=90c8bee3-a2ea-46eb-8c14-97cd6e2414ca"},"vehicle_type_id":"4","last_reported":1730408959,"current_range_meters":24000,"station_id":"ce4bhhh2rcd13ifvqfl0","pricing_plan_id":"cebpf4jnsgd1na2vs0mg"},{"bike_id":"7dc92ad6-3be4-426e-9950-769ccd94cfcf","system_id":"levelo_inurba_marseille","lat":43.29593,"lon":5.381,"is_reserved":false,"is_disabled":false,"rental_uris":{"android":"levelo://app?vid=7dc92ad6-3be4-426e-9950-769ccd94cfcf","ios":"levelo://app?vid=7dc92ad6-3be4-426e-9950-769ccd94cfcf"},"vehicle_type_id":"4","last_reported":1730408959,"current_range_meters":28800,"station_id":"ce4bgl12rcd13ifvqbo0","pricing_plan_id":"cebpf4jnsgd1na2vs0mg"},{"bike_id":"9c9dea91-8da5-4b6e-ab5d-0e51d3b20b50","system_id":"levelo_inurba_marseille","lat":43.29779,"lon":5.37098,"is_reserved":false,"is_disabled":false,"rental_uris":{"android":"levelo://app?vid=9c9dea91-8da5-4b6e-ab5d-0e51d3b20b50","ios":"levelo://app?vid=9c9dea91-8da5-4b6e-ab5d-0e51d3b20b50"},"vehicle_type_id":"4","last_reported":1730408959,"current_range_meters":38000,"station_id":"ce4bgop2rcd13ifvqc1g","pricing_plan_id":"cebpf4jnsgd1na2vs0mg"},{"bike_id":"6d0518ae-8ff5-4f43-aabf-471cfe97e777","system_id":"levelo_inurba_marseille","lat":43.2942,"lon":5.38616,"is_reserved":false,"is_disabled":false,"rental_uris":{"android":"levelo://app?vid=6d0518ae-8ff5-4f43-aabf-471cfe97e777","ios":"levelo://app?vid=6d0518ae-8ff5-4f43-aabf-471cfe97e777"},"vehicle_type_id":"4","last_reported":1730408959,"current_range_meters":32800,"station_id":"ce4bh292rcd13ifvqdg0","pricing_plan_id":"cebpf4jnsgd1na2vs0mg"},{"bike_id":"b9748c4a-d4fd-4575-bdb4-d87ec7438bdc","system_id":"levelo_inurba_marseille","lat":43.29894,"lon":5.43665,"is_reserved":false,"is_disabled":false,"rental_uris":{"android":"levelo://app?vid=b9748c4a-d4fd-4575-bdb4-d87ec7438bdc","ios":"levelo://app?vid=b9748c4a-d4fd-4575-bdb4-d87ec7438bdc"},"vehicle_type_id":"4","last_reported":1730408959,"current_range_meters":10000,"station_id":"ce4bhpp2rcd13ifvqhfg","pricing_plan_id":"cebpf4jnsgd1na2vs0mg"},{"bike_id":"aeea1237-3887-42d7-be21-0e7463630790","system_id":"levelo_inurba_marseille","lat":43.23717,"lon":5.4019,"is_reserved":false,"is_disabled":false,"rental_uris":{"android":"levelo://app?vid=aeea1237-3887-42d7-be21-0e7463630790","ios":"levelo://app?vid=aeea1237-3887-42d7-be21-0e7463630790"},"vehicle_type_id":"4","last_reported":1730408959,"current_range_meters":18000,"station_id":"","pricing_plan_id":"cebpf4jnsgd1na2vs0mg"},{"bike_id":"89d995e6-dbe8-49eb-b963-bc7888742db5","system_id":"levelo_inurba_marseille","lat":43.25577,"lon":5.38222,"is_reserved":false,"is_disabled":false,"rental_uris":{"android":"levelo://app?vid=89d995e6-dbe8-49eb-b963-bc7888742db5","ios":"levelo://app?vid=89d995e6-dbe8-49eb-b963-bc7888742db5"},"vehicle_type_id":"4","last_reported":1730408959,"current_range_meters":38800,"station_id":"ce4bhih2rcd13ifvqfs0","pricing_plan_id":"cebpf4jnsgd1na2vs0mg"},{"bike_id":"4a5dd16c-1630-4870-bc38-9c0bc3dd4693","system_id":"levelo_inurba_marseille","lat":43.29971,"lon":5.37181,"is_reserved":false,"is_disabled":false,"rental_uris":{"android":"levelo://app?vid=4a5dd16c-1630-4870-bc38-9c0bc3dd4693","ios":"levelo://app?vid=4a5dd16c-1630-4870-bc38-9c0bc3dd4693"},"vehicle_type_id":"4","last_reported":1730408959,"current_range_meters":36800,"station_id":"ce4bgr92rcd13ifvqc7g","pricing_plan_id":"cebpf4jnsgd1na2vs0mg"},{"bike_id":"fbf552b3-8b90-4c94-a1d3-0f7d0cd207d6","system_id":"levelo_inurba_marseille","lat":43.29423,"lon":5.38603,"is_reserved":false,"is_disabled":false,"rental_uris":{"android":"levelo://app?vid=fbf552b3-8b90-4c94-a1d3-0f7d0cd207d6","ios":"levelo://app?vid=fbf552b3-8b90-4c94-a1d3-0f7d0cd207d6"},"vehicle_type_id":"4","last_reported":1730408959,"current_range_meters":38800,"station_id":"ce4bh2h2rcd13ifvqdh0","pricing_plan_id":"cebpf4jnsgd1na2vs0mg"},{"bike_id":"60b71c7c-4918-47ba-8287-329d23746782","system_id":"levelo_inurba_marseille","lat":43.29896,"lon":5.43662,"is_reserved":false,"is_disabled":false,"rental_uris":{"android":"levelo://app?vid=60b71c7c-4918-47ba-8287-329d23746782","ios":"levelo://app?vid=60b71c7c-4918-47ba-8287-329d23746782"},"vehicle_type_id":"4","last_reported":1730408959,"current_range_meters":36400,"station_id":"ce4bhpp2rcd13ifvqhfg","pricing_plan_id":"cebpf4jnsgd1na2vs0mg"},{"bike_id":"5644894c-cdce-4e76-94df-f900a3ab051d","system_id":"levelo_inurba_marseille","lat":43.27323,"lon":5.39086,"is_reserved":false,"is_disabled":false,"rental_uris":{"android":"levelo://app?vid=5644894c-cdce-4e76-94df-f900a3ab051d","ios":"levelo://app?vid=5644894c-cdce-4e76-94df-f900a3ab051d"},"vehicle_type_id":"4","last_reported":1730408959,"current_range_meters":25200,"station_id":"ce4bhgp2rcd13ifvqfe0","pricing_plan_id":"cebpf4jnsgd1na2vs0mg"},{"bike_id":"b0377714-7a30-49ee-b6c1-7ca6811d5925","system_id":"levelo_inurba_marseille","lat":43.298415,"lon":5.362661,"is_reserved":false,"is_disabled":false,"rental_uris":{"android":"levelo://app?vid=b0377714-7a30-49ee-b6c1-7ca6811d5925","ios":"levelo://app?vid=b0377714-7a30-49ee-b6c1-7ca6811d5925"},"vehicle_type_id":"4","last_reported":1730408959,"current_range_meters":28400,"station_id":"ce4bhs12rcd13ifvqhvg","pricing_plan_id":"cebpf4jnsgd1na2vs0mg"},{"bike_id":"a9b14aad-eedc-44c9-9f0a-8b43c86795fa","system_id":"levelo_inurba_marseille","lat":43.23081,"lon":5.40078,"is_reserved":false,"is_disabled":false,"rental_uris":{"android":"levelo://app?vid=a9b14aad-eedc-44c9-9f0a-8b43c86795fa","ios":"levelo://app?vid=a9b14aad-eedc-44c9-9f0a-8b43c86795fa"},"vehicle_type_id":"4","last_reported":1730408959,"current_range_meters":22800,"station_id":"","pricing_plan_id":"cebpf4jnsgd1na2vs0mg"},{"bike_id":"020b11d5-6358-46f9-9ffc-1747707bba78","system_id":"levelo_inurba_marseille","lat":43.31991,"lon":5.38158,"is_reserved":false,"is_disabled":false,"rental_uris":{"android":"levelo://app?vid=020b11d5-6358-46f9-9ffc-1747707bba78","ios":"levelo://app?vid=020b11d5-6358-46f9-9ffc-1747707bba78"},"vehicle_type_id":"4","last_reported":1730408959,"current_range_meters":36800,"station_id":"ce4bhr12rcd13ifvqhpg","pricing_plan_id":"cebpf4jnsgd1na2vs0mg"},{"bike_id":"eac6d106-015b-42d3-9a0f-a7559963694e","system_id":"levelo_inurba_marseille","lat":43.323402,"lon":5.406171,"is_reserved":false,"is_disabled":false,"rental_uris":{"android":"levelo://app?vid=eac6d106-015b-42d3-9a0f-a7559963694e","ios":"levelo://app?vid=eac6d106-015b-42d3-9a0f-a7559963694e"},"vehicle_type_id":"4","last_reported":1730408959,"current_range_meters":11200,"station_id":"ce4bhq92rcd13ifvqhjg","pricing_plan_id":"cebpf4jnsgd1na2vs0mg"},{"bike_id":"85477183-5881-4097-b586-788254261320","system_id":"levelo_inurba_marseille","lat":43.30131,"lon":5.38779,"is_reserved":false,"is_disabled":false,"rental_uris":{"android":"levelo://app?vid=85477183-5881-4097-b586-788254261320","ios":"levelo://app?vid=85477183-5881-4097-b586-788254261320"},"vehicle_type_id":"4","last_reported":1730408959,"current_range_meters":17200,"station_id":"ce4bghh2rcd13ifvqb60","pricing_plan_id":"cebpf4jnsgd1na2vs0mg"},{"bike_id":"fece2b4d-5fbc-4072-950a-5fe5acd29804","system_id":"levelo_inurba_marseille","lat":43.2953,"lon":5.38531,"is_reserved":false,"is_disabled":false,"rental_uris":{"android":"levelo://app?vid=fece2b4d-5fbc-4072-950a-5fe5acd29804","ios":"levelo://app?vid=fece2b4d-5fbc-4072-950a-5fe5acd29804"},"vehicle_type_id":"4","last_reported":1730408959,"current_range_meters":15200,"station_id":"ce4bgih2rcd13ifvqba0","pricing_plan_id":"cebpf4jnsgd1na2vs0mg"},{"bike_id":"84098211-d98e-4aba-a423-13b0ea038f67","system_id":"levelo_inurba_marseille","lat":43.29266,"lon":5.3844,"is_reserved":false,"is_disabled":false,"rental_uris":{"android":"levelo://app?vid=84098211-d98e-4aba-a423-13b0ea038f67","ios":"levelo://app?vid=84098211-d98e-4aba-a423-13b0ea038f67"},"vehicle_type_id":"4","last_reported":1730408959,"current_range_meters":38400,"station_id":"ce4bh692rcd13ifvqea0","pricing_plan_id":"cebpf4jnsgd1na2vs0mg"},{"bike_id":"8352e2df-f931-4940-b3be-4bedaea080dd","system_id":"levelo_inurba_marseille","lat":43.28107,"lon":5.37849,"is_reserved":false,"is_disabled":false,"rental_uris":{"android":"levelo://app?vid=8352e2df-f931-4940-b3be-4bedaea080dd","ios":"levelo://app?vid=8352e2df-f931-4940-b3be-4bedaea080dd"},"vehicle_type_id":"4","last_reported":1730408959,"current_range_meters":32400,"station_id":"ce4bha12rcd13ifvqee0","pricing_plan_id":"cebpf4jnsgd1na2vs0mg"},{"bike_id":"435ef0d4-4239-4021-9c0b-b9d7e16f8f03","system_id":"levelo_inurba_marseille","lat":43.29266,"lon":5.38439,"is_reserved":false,"is_disabled":false,"rental_uris":{"android":"levelo://app?vid=435ef0d4-4239-4021-9c0b-b9d7e16f8f03","ios":"levelo://app?vid=435ef0d4-4239-4021-9c0b-b9d7e16f8f03"},"vehicle_type_id":"4","last_reported":1730408959,"current_range_meters":29600,"station_id":"ce4bh692rcd13ifvqea0","pricing_plan_id":"cebpf4jnsgd1na2vs0mg"},{"bike_id":"ceb55059-2562-42a2-9035-244f2e2577c8","system_id":"levelo_inurba_marseille","lat":43.29267,"lon":5.38444,"is_reserved":false,"is_disabled":false,"rental_uris":{"android":"levelo://app?vid=ceb55059-2562-42a2-9035-244f2e2577c8","ios":"levelo://app?vid=ceb55059-2562-42a2-9035-244f2e2577c8"},"vehicle_type_id":"4","last_reported":1730408959,"current_range_meters":8400,"station_id":"ce4bh692rcd13ifvqea0","pricing_plan_id":"cebpf4jnsgd1na2vs0mg"},{"bike_id":"a9bbcbbe-e1bb-449c-adcd-34688245503d","system_id":"levelo_inurba_marseille","lat":43.29527,"lon":5.38532,"is_reserved":false,"is_disabled":false,"rental_uris":{"android":"levelo://app?vid=a9bbcbbe-e1bb-449c-adcd-34688245503d","ios":"levelo://app?vid=a9bbcbbe-e1bb-449c-adcd-34688245503d"},"vehicle_type_id":"4","last_reported":1730408959,"current_range_meters":38800,"station_id":"ce4bgih2rcd13ifvqba0","pricing_plan_id":"cebpf4jnsgd1na2vs0mg"},{"bike_id":"10dd4f0a-3352-467f-bdd2-7b7d82421551","system_id":"levelo_inurba_marseille","lat":43.25734,"lon":5.4111,"is_reserved":false,"is_disabled":false,"rental_uris":{"android":"levelo://app?vid=10dd4f0a-3352-467f-bdd2-7b7d82421551","ios":"levelo://app?vid=10dd4f0a-3352-467f-bdd2-7b7d82421551"},"vehicle_type_id":"4","last_reported":1730408959,"current_range_meters":39200,"station_id":"ce4bhkp2rcd13ifvqgd0","pricing_plan_id":"cebpf4jnsgd1na2vs0mg"},{"bike_id":"1d86639d-224e-4fba-8d73-2dfb4aa18a81","system_id":"levelo_inurba_marseille","lat":43.29785,"lon":5.37098,"is_reserved":false,"is_disabled":false,"rental_uris":{"android":"levelo://app?vid=1d86639d-224e-4fba-8d73-2dfb4aa18a81","ios":"levelo://app?vid=1d86639d-224e-4fba-8d73-2dfb4aa18a81"},"vehicle_type_id":"4","last_reported":1730408959,"current_range_meters":9600,"station_id":"ce4bgop2rcd13ifvqc1g","pricing_plan_id":"cebpf4jnsgd1na2vs0mg"},{"bike_id":"5c8a5bb5-a198-4a3b-92e7-8543db03156f","system_id":"levelo_inurba_marseille","lat":43.31717,"lon":5.37736,"is_reserved":false,"is_disabled":false,"rental_uris":{"android":"levelo://app?vid=5c8a5bb5-a198-4a3b-92e7-8543db03156f","ios":"levelo://app?vid=5c8a5bb5-a198-4a3b-92e7-8543db03156f"},"vehicle_type_id":"4","last_reported":1730408959,"current_range_meters":39200,"station_id":"ce4bgth2rcd13ifvqch0","pricing_plan_id":"cebpf4jnsgd1na2vs0mg"},{"bike_id":"3d762461-ddf0-42eb-9b6e-f26add914a1b","system_id":"levelo_inurba_marseille","lat":43.27562,"lon":5.38417,"is_reserved":false,"is_disabled":false,"rental_uris":{"android":"levelo://app?vid=3d762461-ddf0-42eb-9b6e-f26add914a1b","ios":"levelo://app?vid=3d762461-ddf0-42eb-9b6e-f26add914a1b"},"vehicle_type_id":"4","last_reported":1730408959,"current_range_meters":26000,"station_id":"ce4bhh92rcd13ifvqfi0","pricing_plan_id":"cebpf4jnsgd1na2vs0mg"},{"bike_id":"cb90cb28-0943-4148-9feb-e1baf5c66ca9","system_id":"levelo_inurba_marseille","lat":43.31479,"lon":5.37311,"is_reserved":false,"is_disabled":false,"rental_uris":{"android":"levelo://app?vid=cb90cb28-0943-4148-9feb-e1baf5c66ca9","ios":"levelo://app?vid=cb90cb28-0943-4148-9feb-e1baf5c66ca9"},"vehicle_type_id":"4","last_reported":1730408959,"current_range_meters":4800,"station_id":"ce4bgt12rcd13ifvqcd0","pricing_plan_id":"cebpf4jnsgd1na2vs0mg"},{"bike_id":"d5fcb897-e917-445f-b61e-614086c1444c","system_id":"levelo_inurba_marseille","lat":43.23182,"lon":5.39989,"is_reserved":false,"is_disabled":false,"rental_uris":{"android":"levelo://app?vid=d5fcb897-e917-445f-b61e-614086c1444c","ios":"levelo://app?vid=d5fcb897-e917-445f-b61e-614086c1444c"},"vehicle_type_id":"4","last_reported":1730408959,"current_range_meters":32800,"station_id":"ce4bhn12rcd13ifvqgqg","pricing_plan_id":"cebpf4jnsgd1na2vs0mg"},{"bike_id":"027dbace-9e9c-4d1d-ad0f-ff36fd69093e","system_id":"levelo_inurba_marseille","lat":43.295724,"lon":5.399749,"is_reserved":false,"is_disabled":false,"rental_uris":{"android":"levelo://app?vid=027dbace-9e9c-4d1d-ad0f-ff36fd69093e","ios":"levelo://app?vid=027dbace-9e9c-4d1d-ad0f-ff36fd69093e"},"vehicle_type_id":"4","last_reported":1730408959,"current_range_meters":37600,"station_id":"ce4bh312rcd13ifvqdj0","pricing_plan_id":"cebpf4jnsgd1na2vs0mg"},{"bike_id":"6f091c9c-e1f4-4df3-aa18-c140e4b15b86","system_id":"levelo_inurba_marseille","lat":43.28709,"lon":5.37946,"is_reserved":false,"is_disabled":false,"rental_uris":{"android":"levelo://app?vid=6f091c9c-e1f4-4df3-aa18-c140e4b15b86","ios":"levelo://app?vid=6f091c9c-e1f4-4df3-aa18-c140e4b15b86"},"vehicle_type_id":"4","last_reported":1730408959,"current_range_meters":36400,"station_id":"ce4bh9p2rcd13ifvqec0","pricing_plan_id":"cebpf4jnsgd1na2vs0mg"},{"bike_id":"ed9aa993-8003-4cbf-9aaf-8a3f2e010645","system_id":"levelo_inurba_marseille","lat":43.24167,"lon":5.36403,"is_reserved":false,"is_disabled":false,"rental_uris":{"android":"levelo://app?vid=ed9aa993-8003-4cbf-9aaf-8a3f2e010645","ios":"levelo://app?vid=ed9aa993-8003-4cbf-9aaf-8a3f2e010645"},"vehicle_type_id":"4","last_reported":1730408959,"current_range_meters":8800,"station_id":"cpo36qri1sfpv3e86is0","pricing_plan_id":"cebpf4jnsgd1na2vs0mg"},{"bike_id":"33a098b5-2f3f-4957-af96-675614306bdc","system_id":"levelo_inurba_marseille","lat":43.28285,"lon":5.39021,"is_reserved":false,"is_disabled":false,"rental_uris":{"android":"levelo://app?vid=33a098b5-2f3f-4957-af96-675614306bdc","ios":"levelo://app?vid=33a098b5-2f3f-4957-af96-675614306bdc"},"vehicle_type_id":"4","last_reported":1730408959,"current_range_meters":19600,"station_id":"","pricing_plan_id":"cebpf4jnsgd1na2vs0mg"},{"bike_id":"aa9601c0-622c-4ab6-a747-92657d1569b5","system_id":"levelo_inurba_marseille","lat":43.29257,"lon":5.38435,"is_reserved":false,"is_disabled":false,"rental_uris":{"android":"levelo://app?vid=aa9601c0-622c-4ab6-a747-92657d1569b5","ios":"levelo://app?vid=aa9601c0-622c-4ab6-a747-92657d1569b5"},"vehicle_type_id":"4","last_reported":1730408959,"current_range_meters":24000,"station_id":"ce4bh692rcd13ifvqea0","pricing_plan_id":"cebpf4jnsgd1na2vs0mg"},{"bike_id":"ec7997c3-bd39-41c3-81be-dd78887c8120","system_id":"levelo_inurba_marseille","lat":43.29032,"lon":5.38644,"is_reserved":false,"is_disabled":false,"rental_uris":{"android":"levelo://app?vid=ec7997c3-bd39-41c3-81be-dd78887c8120","ios":"levelo://app?vid=ec7997c3-bd39-41c3-81be-dd78887c8120"},"vehicle_type_id":"4","last_reported":1730408959,"current_range_meters":17600,"station_id":"ce4bh4p2rcd13ifvqe0g","pricing_plan_id":"cebpf4jnsgd1na2vs0mg"},{"bike_id":"5480739b-2a82-4f8e-a154-79b3f71124eb","system_id":"levelo_inurba_marseille","lat":43.29414,"lon":5.38615,"is_reserved":false,"is_disabled":false,"rental_uris":{"android":"levelo://app?vid=5480739b-2a82-4f8e-a154-79b3f71124eb","ios":"levelo://app?vid=5480739b-2a82-4f8e-a154-79b3f71124eb"},"vehicle_type_id":"4","last_reported":1730408959,"current_range_meters":17200,"station_id":"ce4bh2h2rcd13ifvqdh0","pricing_plan_id":"cebpf4jnsgd1na2vs0mg"},{"bike_id":"cd7754bc-8667-452f-9ddb-15623cac69e8","system_id":"levelo_inurba_marseille","lat":43.27943,"lon":5.4105,"is_reserved":false,"is_disabled":false,"rental_uris":{"android":"levelo://app?vid=cd7754bc-8667-452f-9ddb-15623cac69e8","ios":"levelo://app?vid=cd7754bc-8667-452f-9ddb-15623cac69e8"},"vehicle_type_id":"4","last_reported":1730408959,"current_range_meters":25200,"station_id":"ce4bhnp2rcd13ifvqh0g","pricing_plan_id":"cebpf4jnsgd1na2vs0mg"},{"bike_id":"56c6d29e-0277-45e0-bf65-07fce049d4a9","system_id":"levelo_inurba_marseille","lat":43.2743,"lon":5.39411,"is_reserved":false,"is_disabled":false,"rental_uris":{"android":"levelo://app?vid=56c6d29e-0277-45e0-bf65-07fce049d4a9","ios":"levelo://app?vid=56c6d29e-0277-45e0-bf65-07fce049d4a9"},"vehicle_type_id":"4","last_reported":1730408959,"current_range_meters":37600,"station_id":"ce4bhdp2rcd13ifvqf20","pricing_plan_id":"cebpf4jnsgd1na2vs0mg"},{"bike_id":"6493f964-309f-40e9-ba7e-e96a1a77e9da","system_id":"levelo_inurba_marseille","lat":43.27911,"lon":5.395712,"is_reserved":false,"is_disabled":false,"rental_uris":{"android":"levelo://app?vid=6493f964-309f-40e9-ba7e-e96a1a77e9da","ios":"levelo://app?vid=6493f964-309f-40e9-ba7e-e96a1a77e9da"},"vehicle_type_id":"4","last_reported":1730408959,"current_range_meters":38800,"station_id":"ce4bhf92rcd13ifvqf40","pricing_plan_id":"cebpf4jnsgd1na2vs0mg"},{"bike_id":"829a1e21-30a4-45f9-9040-0386b711a06e","system_id":"levelo_inurba_marseille","lat":43.29377,"lon":5.37835,"is_reserved":false,"is_disabled":false,"rental_uris":{"android":"levelo://app?vid=829a1e21-30a4-45f9-9040-0386b711a06e","ios":"levelo://app?vid=829a1e21-30a4-45f9-9040-0386b711a06e"},"vehicle_type_id":"4","last_reported":1730408959,"current_range_meters":38800,"station_id":"ce4bgjh2rcd13ifvqbf0","pricing_plan_id":"cebpf4jnsgd1na2vs0mg"},{"bike_id":"117ed658-abdf-47ff-b76b-ba7a131711a2","system_id":"levelo_inurba_marseille","lat":43.30792,"lon":5.38148,"is_reserved":false,"is_disabled":false,"rental_uris":{"android":"levelo://app?vid=117ed658-abdf-47ff-b76b-ba7a131711a2","ios":"levelo://app?vid=117ed658-abdf-47ff-b76b-ba7a131711a2"},"vehicle_type_id":"4","last_reported":1730408959,"current_range_meters":6000,"station_id":"ce4bgt12rcd13ifvqce0","pricing_plan_id":"cebpf4jnsgd1na2vs0mg"},{"bike_id":"500c9dd4-f799-42df-abf1-a2436d187ac0","system_id":"levelo_inurba_marseille","lat":43.3013,"lon":5.38776,"is_reserved":false,"is_disabled":false,"rental_uris":{"android":"levelo://app?vid=500c9dd4-f799-42df-abf1-a2436d187ac0","ios":"levelo://app?vid=500c9dd4-f799-42df-abf1-a2436d187ac0"},"vehicle_type_id":"4","last_reported":1730408959,"current_range_meters":36400,"station_id":"ce4bghh2rcd13ifvqb60","pricing_plan_id":"cebpf4jnsgd1na2vs0mg"},{"bike_id":"efd665fe-3f67-4672-bd33-c13b0c78fba1","system_id":"levelo_inurba_marseille","lat":43.28348,"lon":5.38108,"is_reserved":false,"is_disabled":false,"rental_uris":{"android":"levelo://app?vid=efd665fe-3f67-4672-bd33-c13b0c78fba1","ios":"levelo://app?vid=efd665fe-3f67-4672-bd33-c13b0c78fba1"},"vehicle_type_id":"4","last_reported":1730408959,"current_range_meters":39200,"station_id":"ce4bh412rcd13ifvqdr0","pricing_plan_id":"cebpf4jnsgd1na2vs0mg"},{"bike_id":"0eac5a1d-d684-45e0-be5d-a22f3e11c4ca","system_id":"levelo_inurba_marseille","lat":43.23966,"lon":5.36631,"is_reserved":false,"is_disabled":false,"rental_uris":{"android":"levelo://app?vid=0eac5a1d-d684-45e0-be5d-a22f3e11c4ca","ios":"levelo://app?vid=0eac5a1d-d684-45e0-be5d-a22f3e11c4ca"},"vehicle_type_id":"4","last_reported":1730408959,"current_range_meters":10000,"station_id":"ce4bhi12rcd13ifvqfp0","pricing_plan_id":"cebpf4jnsgd1na2vs0mg"},{"bike_id":"895211b2-f69a-47ed-8f91-1aa8ac3acb91","system_id":"levelo_inurba_marseille","lat":43.29524,"lon":5.39039,"is_reserved":false,"is_disabled":false,"rental_uris":{"android":"levelo://app?vid=895211b2-f69a-47ed-8f91-1aa8ac3acb91","ios":"levelo://app?vid=895211b2-f69a-47ed-8f91-1aa8ac3acb91"},"vehicle_type_id":"4","last_reported":1730408959,"current_range_meters":38800,"station_id":"ce4bh3p2rcd13ifvqdp0","pricing_plan_id":"cebpf4jnsgd1na2vs0mg"},{"bike_id":"2136c808-dbd5-4e9d-94e9-81dce9d2cc17","system_id":"levelo_inurba_marseille","lat":43.29538,"lon":5.38537,"is_reserved":false,"is_disabled":false,"rental_uris":{"android":"levelo://app?vid=2136c808-dbd5-4e9d-94e9-81dce9d2cc17","ios":"levelo://app?vid=2136c808-dbd5-4e9d-94e9-81dce9d2cc17"},"vehicle_type_id":"4","last_reported":1730408959,"current_range_meters":22400,"station_id":"ce4bgih2rcd13ifvqba0","pricing_plan_id":"cebpf4jnsgd1na2vs0mg"},{"bike_id":"d14308cc-43de-4fbe-90b5-f13f5c6c5281","system_id":"levelo_inurba_marseille","lat":43.29711,"lon":5.36617,"is_reserved":false,"is_disabled":false,"rental_uris":{"android":"levelo://app?vid=d14308cc-43de-4fbe-90b5-f13f5c6c5281","ios":"levelo://app?vid=d14308cc-43de-4fbe-90b5-f13f5c6c5281"},"vehicle_type_id":"4","last_reported":1730408959,"current_range_meters":36800,"station_id":"ce4bgn12rcd13ifvqbt0","pricing_plan_id":"cebpf4jnsgd1na2vs0mg"},{"bike_id":"e7b2be94-21fc-42ac-bdf7-d486710a5d9a","system_id":"levelo_inurba_marseille","lat":43.23191,"lon":5.3555,"is_reserved":false,"is_disabled":false,"rental_uris":{"android":"levelo://app?vid=e7b2be94-21fc-42ac-bdf7-d486710a5d9a","ios":"levelo://app?vid=e7b2be94-21fc-42ac-bdf7-d486710a5d9a"},"vehicle_type_id":"4","last_reported":1730408959,"current_range_meters":39200,"station_id":"ce4bhu92rcd13ifvqi70","pricing_plan_id":"cebpf4jnsgd1na2vs0mg"},{"bike_id":"cdb24575-62fb-4eb8-b18a-c038e60b7be5","system_id":"levelo_inurba_marseille","lat":43.29128,"lon":5.35904,"is_reserved":false,"is_disabled":false,"rental_uris":{"android":"levelo://app?vid=cdb24575-62fb-4eb8-b18a-c038e60b7be5","ios":"levelo://app?vid=cdb24575-62fb-4eb8-b18a-c038e60b7be5"},"vehicle_type_id":"4","last_reported":1730408959,"current_range_meters":29600,"station_id":"ce4bha92rcd13ifvqeg0","pricing_plan_id":"cebpf4jnsgd1na2vs0mg"},{"bike_id":"ce9125b4-2784-49e5-86f8-4920df44b4e6","system_id":"levelo_inurba_marseille","lat":43.29415,"lon":5.38615,"is_reserved":false,"is_disabled":false,"rental_uris":{"android":"levelo://app?vid=ce9125b4-2784-49e5-86f8-4920df44b4e6","ios":"levelo://app?vid=ce9125b4-2784-49e5-86f8-4920df44b4e6"},"vehicle_type_id":"4","last_reported":1730408959,"current_range_meters":35600,"station_id":"ce4bh2h2rcd13ifvqdh0","pricing_plan_id":"cebpf4jnsgd1na2vs0mg"},{"bike_id":"ddd61f92-90bb-4c96-bb29-cb24e60dddcf","system_id":"levelo_inurba_marseille","lat":43.29679,"lon":5.37287,"is_reserved":false,"is_disabled":false,"rental_uris":{"android":"levelo://app?vid=ddd61f92-90bb-4c96-bb29-cb24e60dddcf","ios":"levelo://app?vid=ddd61f92-90bb-4c96-bb29-cb24e60dddcf"},"vehicle_type_id":"4","last_reported":1730408959,"current_range_meters":40000,"station_id":"ce4bgk12rcd13ifvqbj0","pricing_plan_id":"cebpf4jnsgd1na2vs0mg"},{"bike_id":"dacaf0a1-652d-4a4b-ae67-ee7a01f2112c","system_id":"levelo_inurba_marseille","lat":43.23193,"lon":5.35552,"is_reserved":false,"is_disabled":false,"rental_uris":{"android":"levelo://app?vid=dacaf0a1-652d-4a4b-ae67-ee7a01f2112c","ios":"levelo://app?vid=dacaf0a1-652d-4a4b-ae67-ee7a01f2112c"},"vehicle_type_id":"4","last_reported":1730408959,"current_range_meters":20800,"station_id":"ce4bhu92rcd13ifvqi70","pricing_plan_id":"cebpf4jnsgd1na2vs0mg"},{"bike_id":"e917e1b0-18e8-4616-9fa1-08a15229ea23","system_id":"levelo_inurba_marseille","lat":43.29026,"lon":5.38135,"is_reserved":false,"is_disabled":false,"rental_uris":{"android":"levelo://app?vid=e917e1b0-18e8-4616-9fa1-08a15229ea23","ios":"levelo://app?vid=e917e1b0-18e8-4616-9fa1-08a15229ea23"},"vehicle_type_id":"4","last_reported":1730408959,"current_range_meters":38800,"station_id":"ce4bh4p2rcd13ifvqe1g","pricing_plan_id":"cebpf4jnsgd1na2vs0mg"},{"bike_id":"46f626a0-2501-4540-ba80-fb070c2b5759","system_id":"levelo_inurba_marseille","lat":43.29534,"lon":5.38541,"is_reserved":false,"is_disabled":false,"rental_uris":{"android":"levelo://app?vid=46f626a0-2501-4540-ba80-fb070c2b5759","ios":"levelo://app?vid=46f626a0-2501-4540-ba80-fb070c2b5759"},"vehicle_type_id":"4","last_reported":1730408959,"current_range_meters":38400,"station_id":"ce4bgih2rcd13ifvqba0","pricing_plan_id":"cebpf4jnsgd1na2vs0mg"},{"bike_id":"0c0d4548-c9f5-4b26-84f3-518a85e46544","system_id":"levelo_inurba_marseille","lat":43.27423,"lon":5.39402,"is_reserved":false,"is_disabled":false,"rental_uris":{"android":"levelo://app?vid=0c0d4548-c9f5-4b26-84f3-518a85e46544","ios":"levelo://app?vid=0c0d4548-c9f5-4b26-84f3-518a85e46544"},"vehicle_type_id":"4","last_reported":1730408959,"current_range_meters":32000,"station_id":"ce4bhdp2rcd13ifvqf20","pricing_plan_id":"cebpf4jnsgd1na2vs0mg"},{"bike_id":"d6570dca-baf7-46c8-8fe6-f64896384ef8","system_id":"levelo_inurba_marseille","lat":43.28599,"lon":5.37055,"is_reserved":false,"is_disabled":false,"rental_uris":{"android":"levelo://app?vid=d6570dca-baf7-46c8-8fe6-f64896384ef8","ios":"levelo://app?vid=d6570dca-baf7-46c8-8fe6-f64896384ef8"},"vehicle_type_id":"4","last_reported":1730408959,"current_range_meters":38800,"station_id":"ce4bht12rcd13ifvqi60","pricing_plan_id":"cebpf4jnsgd1na2vs0mg"},{"bike_id":"5505627b-8278-457b-9c63-9a16aac49a16","system_id":"levelo_inurba_marseille","lat":43.26926,"lon":5.38911,"is_reserved":false,"is_disabled":false,"rental_uris":{"android":"levelo://app?vid=5505627b-8278-457b-9c63-9a16aac49a16","ios":"levelo://app?vid=5505627b-8278-457b-9c63-9a16aac49a16"},"vehicle_type_id":"4","last_reported":1730408959,"current_range_meters":38800,"station_id":"ce4bhhh2rcd13ifvqfl0","pricing_plan_id":"cebpf4jnsgd1na2vs0mg"},{"bike_id":"a36d5fbe-424d-4b98-be10-874f96332ac3","system_id":"levelo_inurba_marseille","lat":43.29906,"lon":5.38159,"is_reserved":false,"is_disabled":false,"rental_uris":{"android":"levelo://app?vid=a36d5fbe-424d-4b98-be10-874f96332ac3","ios":"levelo://app?vid=a36d5fbe-424d-4b98-be10-874f96332ac3"},"vehicle_type_id":"4","last_reported":1730408959,"current_range_meters":38400,"station_id":"ce4bgj12rcd13ifvqbc0","pricing_plan_id":"cebpf4jnsgd1na2vs0mg"},{"bike_id":"6ebb58ed-1590-42c1-bd35-58362bfc1769","system_id":"levelo_inurba_marseille","lat":43.32376,"lon":5.38932,"is_reserved":false,"is_disabled":false,"rental_uris":{"android":"levelo://app?vid=6ebb58ed-1590-42c1-bd35-58362bfc1769","ios":"levelo://app?vid=6ebb58ed-1590-42c1-bd35-58362bfc1769"},"vehicle_type_id":"4","last_reported":1730408959,"current_range_meters":6800,"station_id":"ce4bhqp2rcd13ifvqhog","pricing_plan_id":"cebpf4jnsgd1na2vs0mg"},{"bike_id":"cd506133-45e2-421c-adbd-9501e6e43795","system_id":"levelo_inurba_marseille","lat":43.28032,"lon":5.36943,"is_reserved":false,"is_disabled":false,"rental_uris":{"android":"levelo://app?vid=cd506133-45e2-421c-adbd-9501e6e43795","ios":"levelo://app?vid=cd506133-45e2-421c-adbd-9501e6e43795"},"vehicle_type_id":"4","last_reported":1730408959,"current_range_meters":36400,"station_id":"ce4bha12rcd13ifvqef0","pricing_plan_id":"cebpf4jnsgd1na2vs0mg"},{"bike_id":"84eb234f-5cef-4e43-995c-c2a6c7272b1a","system_id":"levelo_inurba_marseille","lat":43.27944,"lon":5.41034,"is_reserved":false,"is_disabled":false,"rental_uris":{"android":"levelo://app?vid=84eb234f-5cef-4e43-995c-c2a6c7272b1a","ios":"levelo://app?vid=84eb234f-5cef-4e43-995c-c2a6c7272b1a"},"vehicle_type_id":"4","last_reported":1730408959,"current_range_meters":28400,"station_id":"ce4bhnp2rcd13ifvqh0g","pricing_plan_id":"cebpf4jnsgd1na2vs0mg"},{"bike_id":"d7ffa81d-2529-46b6-a8eb-e37e63999233","system_id":"levelo_inurba_marseille","lat":43.27425,"lon":5.39414,"is_reserved":false,"is_disabled":false,"rental_uris":{"android":"levelo://app?vid=d7ffa81d-2529-46b6-a8eb-e37e63999233","ios":"levelo://app?vid=d7ffa81d-2529-46b6-a8eb-e37e63999233"},"vehicle_type_id":"4","last_reported":1730408959,"current_range_meters":31200,"station_id":"ce4bhdp2rcd13ifvqf20","pricing_plan_id":"cebpf4jnsgd1na2vs0mg"},{"bike_id":"51839d7a-26e7-47a1-af1e-7744eba12fc5","system_id":"levelo_inurba_marseille","lat":43.27211,"lon":5.39173,"is_reserved":false,"is_disabled":false,"rental_uris":{"android":"levelo://app?vid=51839d7a-26e7-47a1-af1e-7744eba12fc5","ios":"levelo://app?vid=51839d7a-26e7-47a1-af1e-7744eba12fc5"},"vehicle_type_id":"4","last_reported":1730408959,"current_range_meters":27600,"station_id":"ce4bhhp2rcd13ifvqfm0","pricing_plan_id":"cebpf4jnsgd1na2vs0mg"},{"bike_id":"f76570ce-5b60-423e-8077-02792ea16182","system_id":"levelo_inurba_marseille","lat":43.24546,"lon":5.39519,"is_reserved":false,"is_disabled":false,"rental_uris":{"android":"levelo://app?vid=f76570ce-5b60-423e-8077-02792ea16182","ios":"levelo://app?vid=f76570ce-5b60-423e-8077-02792ea16182"},"vehicle_type_id":"4","last_reported":1730408959,"current_range_meters":28000,"station_id":"ce4bhlp2rcd13ifvqgjg","pricing_plan_id":"cebpf4jnsgd1na2vs0mg"},{"bike_id":"6badb0e3-569f-479f-ab58-214ac3d8e72a","system_id":"levelo_inurba_marseille","lat":43.29417,"lon":5.38623,"is_reserved":false,"is_disabled":false,"rental_uris":{"android":"levelo://app?vid=6badb0e3-569f-479f-ab58-214ac3d8e72a","ios":"levelo://app?vid=6badb0e3-569f-479f-ab58-214ac3d8e72a"},"vehicle_type_id":"4","last_reported":1730408959,"current_range_meters":38000,"station_id":"ce4bh2h2rcd13ifvqdh0","pricing_plan_id":"cebpf4jnsgd1na2vs0mg"},{"bike_id":"655e5c84-6957-4a22-898b-b606bb7480d4","system_id":"levelo_inurba_marseille","lat":43.2293,"lon":5.35381,"is_reserved":false,"is_disabled":false,"rental_uris":{"android":"levelo://app?vid=655e5c84-6957-4a22-898b-b606bb7480d4","ios":"levelo://app?vid=655e5c84-6957-4a22-898b-b606bb7480d4"},"vehicle_type_id":"4","last_reported":1730408959,"current_range_meters":29600,"station_id":"cpo3532slgdg3j2ikp40","pricing_plan_id":"cebpf4jnsgd1na2vs0mg"},{"bike_id":"265209af-4198-43e0-a274-b813f9677d0c","system_id":"levelo_inurba_marseille","lat":43.2732,"lon":5.39079,"is_reserved":false,"is_disabled":false,"rental_uris":{"android":"levelo://app?vid=265209af-4198-43e0-a274-b813f9677d0c","ios":"levelo://app?vid=265209af-4198-43e0-a274-b813f9677d0c"},"vehicle_type_id":"4","last_reported":1730408959,"current_range_meters":6800,"station_id":"ce4bhgp2rcd13ifvqfe0","pricing_plan_id":"cebpf4jnsgd1na2vs0mg"},{"bike_id":"8e973395-119d-4f25-8cfb-7ea2ffd90435","system_id":"levelo_inurba_marseille","lat":43.307979,"lon":5.381436,"is_reserved":false,"is_disabled":false,"rental_uris":{"android":"levelo://app?vid=8e973395-119d-4f25-8cfb-7ea2ffd90435","ios":"levelo://app?vid=8e973395-119d-4f25-8cfb-7ea2ffd90435"},"vehicle_type_id":"4","last_reported":1730408959,"current_range_meters":4000,"station_id":"ce4bh192rcd13ifvqdb0","pricing_plan_id":"cebpf4jnsgd1na2vs0mg"},{"bike_id":"fb2ec536-8180-42aa-b451-0d77a3863c7e","system_id":"levelo_inurba_marseille","lat":43.25085,"lon":5.39527,"is_reserved":false,"is_disabled":false,"rental_uris":{"android":"levelo://app?vid=fb2ec536-8180-42aa-b451-0d77a3863c7e","ios":"levelo://app?vid=fb2ec536-8180-42aa-b451-0d77a3863c7e"},"vehicle_type_id":"4","last_reported":1730408959,"current_range_meters":36800,"station_id":"ce4bhm12rcd13ifvqgkg","pricing_plan_id":"cebpf4jnsgd1na2vs0mg"},{"bike_id":"f648cb5e-68b5-4d7e-a486-244259ba290a","system_id":"levelo_inurba_marseille","lat":43.29984,"lon":5.3718,"is_reserved":false,"is_disabled":false,"rental_uris":{"android":"levelo://app?vid=f648cb5e-68b5-4d7e-a486-244259ba290a","ios":"levelo://app?vid=f648cb5e-68b5-4d7e-a486-244259ba290a"},"vehicle_type_id":"4","last_reported":1730408959,"current_range_meters":38800,"station_id":"ce4bgr92rcd13ifvqc7g","pricing_plan_id":"cebpf4jnsgd1na2vs0mg"},{"bike_id":"5219935a-3635-4658-bddd-3b3969f52580","system_id":"levelo_inurba_marseille","lat":43.29424,"lon":5.38605,"is_reserved":false,"is_disabled":false,"rental_uris":{"android":"levelo://app?vid=5219935a-3635-4658-bddd-3b3969f52580","ios":"levelo://app?vid=5219935a-3635-4658-bddd-3b3969f52580"},"vehicle_type_id":"4","last_reported":1730408959,"current_range_meters":36800,"station_id":"ce4bh2h2rcd13ifvqdh0","pricing_plan_id":"cebpf4jnsgd1na2vs0mg"},{"bike_id":"32595b1d-cd5c-4cc2-96ce-fdd8a0eb8452","system_id":"levelo_inurba_marseille","lat":43.29601,"lon":5.38093,"is_reserved":false,"is_disabled":false,"rental_uris":{"android":"levelo://app?vid=32595b1d-cd5c-4cc2-96ce-fdd8a0eb8452","ios":"levelo://app?vid=32595b1d-cd5c-4cc2-96ce-fdd8a0eb8452"},"vehicle_type_id":"4","last_reported":1730408959,"current_range_meters":37600,"station_id":"ce4bgl12rcd13ifvqbo0","pricing_plan_id":"cebpf4jnsgd1na2vs0mg"},{"bike_id":"6d58bf63-0344-4e01-b872-27a4ce914d16","system_id":"levelo_inurba_marseille","lat":43.29879,"lon":5.38911,"is_reserved":false,"is_disabled":false,"rental_uris":{"android":"levelo://app?vid=6d58bf63-0344-4e01-b872-27a4ce914d16","ios":"levelo://app?vid=6d58bf63-0344-4e01-b872-27a4ce914d16"},"vehicle_type_id":"4","last_reported":1730408959,"current_range_meters":33600,"station_id":"ce4bh392rcd13ifvqdl0","pricing_plan_id":"cebpf4jnsgd1na2vs0mg"},{"bike_id":"86396b6d-8412-46ae-a50b-e61b7adab7a0","system_id":"levelo_inurba_marseille","lat":43.24808,"lon":5.37461,"is_reserved":false,"is_disabled":false,"rental_uris":{"android":"levelo://app?vid=86396b6d-8412-46ae-a50b-e61b7adab7a0","ios":"levelo://app?vid=86396b6d-8412-46ae-a50b-e61b7adab7a0"},"vehicle_type_id":"4","last_reported":1730408959,"current_range_meters":18000,"station_id":"ce4bhgh2rcd13ifvqfb0","pricing_plan_id":"cebpf4jnsgd1na2vs0mg"},{"bike_id":"7dc07648-9fb1-4248-92f4-9aec012db4cc","system_id":"levelo_inurba_marseille","lat":43.27202,"lon":5.39177,"is_reserved":false,"is_disabled":false,"rental_uris":{"android":"levelo://app?vid=7dc07648-9fb1-4248-92f4-9aec012db4cc","ios":"levelo://app?vid=7dc07648-9fb1-4248-92f4-9aec012db4cc"},"vehicle_type_id":"4","last_reported":1730408959,"current_range_meters":4000,"station_id":"ce4bhhp2rcd13ifvqfm0","pricing_plan_id":"cebpf4jnsgd1na2vs0mg"},{"bike_id":"cf984b07-c06a-489f-a198-682f7019d2a4","system_id":"levelo_inurba_marseille","lat":43.25579,"lon":5.38233,"is_reserved":false,"is_disabled":false,"rental_uris":{"android":"levelo://app?vid=cf984b07-c06a-489f-a198-682f7019d2a4","ios":"levelo://app?vid=cf984b07-c06a-489f-a198-682f7019d2a4"},"vehicle_type_id":"4","last_reported":1730408959,"current_range_meters":38800,"station_id":"ce4bhih2rcd13ifvqfs0","pricing_plan_id":"cebpf4jnsgd1na2vs0mg"},{"bike_id":"8f55f6cc-0b54-4d5f-9029-aa15dfd6d9b0","system_id":"levelo_inurba_marseille","lat":43.31614,"lon":5.3906,"is_reserved":false,"is_disabled":false,"rental_uris":{"android":"levelo://app?vid=8f55f6cc-0b54-4d5f-9029-aa15dfd6d9b0","ios":"levelo://app?vid=8f55f6cc-0b54-4d5f-9029-aa15dfd6d9b0"},"vehicle_type_id":"4","last_reported":1730408959,"current_range_meters":12400,"station_id":"","pricing_plan_id":"cebpf4jnsgd1na2vs0mg"},{"bike_id":"8e4402d5-2389-439f-b571-a1bf55caf0b3","system_id":"levelo_inurba_marseille","lat":43.29265,"lon":5.38436,"is_reserved":false,"is_disabled":false,"rental_uris":{"android":"levelo://app?vid=8e4402d5-2389-439f-b571-a1bf55caf0b3","ios":"levelo://app?vid=8e4402d5-2389-439f-b571-a1bf55caf0b3"},"vehicle_type_id":"4","last_reported":1730408959,"current_range_meters":21600,"station_id":"ce4bh692rcd13ifvqea0","pricing_plan_id":"cebpf4jnsgd1na2vs0mg"},{"bike_id":"f43d672d-bc61-4cce-908b-d99b79faaa4f","system_id":"levelo_inurba_marseille","lat":43.29525,"lon":5.38533,"is_reserved":false,"is_disabled":false,"rental_uris":{"android":"levelo://app?vid=f43d672d-bc61-4cce-908b-d99b79faaa4f","ios":"levelo://app?vid=f43d672d-bc61-4cce-908b-d99b79faaa4f"},"vehicle_type_id":"4","last_reported":1730408959,"current_range_meters":12000,"station_id":"ce4bgih2rcd13ifvqba0","pricing_plan_id":"cebpf4jnsgd1na2vs0mg"},{"bike_id":"c70c168a-a194-4bdd-a91d-c90f62128f76","system_id":"levelo_inurba_marseille","lat":43.29781,"lon":5.37093,"is_reserved":false,"is_disabled":false,"rental_uris":{"android":"levelo://app?vid=c70c168a-a194-4bdd-a91d-c90f62128f76","ios":"levelo://app?vid=c70c168a-a194-4bdd-a91d-c90f62128f76"},"vehicle_type_id":"4","last_reported":1730408959,"current_range_meters":38800,"station_id":"ce4bgop2rcd13ifvqc1g","pricing_plan_id":"cebpf4jnsgd1na2vs0mg"},{"bike_id":"5ff74640-5d39-40f8-808a-e5695df59fd4","system_id":"levelo_inurba_marseille","lat":43.272,"lon":5.41026,"is_reserved":false,"is_disabled":false,"rental_uris":{"android":"levelo://app?vid=5ff74640-5d39-40f8-808a-e5695df59fd4","ios":"levelo://app?vid=5ff74640-5d39-40f8-808a-e5695df59fd4"},"vehicle_type_id":"4","last_reported":1730408959,"current_range_meters":6000,"station_id":"ce4bhl12rcd13ifvqgf0","pricing_plan_id":"cebpf4jnsgd1na2vs0mg"},{"bike_id":"63a9f77e-6a3d-43bd-9f91-df32e10ff01f","system_id":"levelo_inurba_marseille","lat":43.2927,"lon":5.38436,"is_reserved":false,"is_disabled":false,"rental_uris":{"android":"levelo://app?vid=63a9f77e-6a3d-43bd-9f91-df32e10ff01f","ios":"levelo://app?vid=63a9f77e-6a3d-43bd-9f91-df32e10ff01f"},"vehicle_type_id":"4","last_reported":1730408959,"current_range_meters":34000,"station_id":"ce4bh692rcd13ifvqea0","pricing_plan_id":"cebpf4jnsgd1na2vs0mg"},{"bike_id":"2f68864d-66e9-45d9-a30d-05d5d36f456e","system_id":"levelo_inurba_marseille","lat":43.30462,"lon":5.37902,"is_reserved":false,"is_disabled":false,"rental_uris":{"android":"levelo://app?vid=2f68864d-66e9-45d9-a30d-05d5d36f456e","ios":"levelo://app?vid=2f68864d-66e9-45d9-a30d-05d5d36f456e"},"vehicle_type_id":"4","last_reported":1730408959,"current_range_meters":32400,"station_id":"ce4bgup2rcd13ifvqcn0","pricing_plan_id":"cebpf4jnsgd1na2vs0mg"},{"bike_id":"2accbb02-681d-4e51-8823-f88be30dd042","system_id":"levelo_inurba_marseille","lat":43.29261,"lon":5.38437,"is_reserved":false,"is_disabled":false,"rental_uris":{"android":"levelo://app?vid=2accbb02-681d-4e51-8823-f88be30dd042","ios":"levelo://app?vid=2accbb02-681d-4e51-8823-f88be30dd042"},"vehicle_type_id":"4","last_reported":1730408959,"current_range_meters":8400,"station_id":"ce4bh692rcd13ifvqea0","pricing_plan_id":"cebpf4jnsgd1na2vs0mg"},{"bike_id":"b01f7fb7-581d-4a11-b1ff-60b1326781b9","system_id":"levelo_inurba_marseille","lat":43.29868,"lon":5.39738,"is_reserved":false,"is_disabled":false,"rental_uris":{"android":"levelo://app?vid=b01f7fb7-581d-4a11-b1ff-60b1326781b9","ios":"levelo://app?vid=b01f7fb7-581d-4a11-b1ff-60b1326781b9"},"vehicle_type_id":"4","last_reported":1730408959,"current_range_meters":38000,"station_id":"ce4bh0h2rcd13ifvqd50","pricing_plan_id":"cebpf4jnsgd1na2vs0mg"},{"bike_id":"038d7f97-e7cb-4c8e-87cb-4b6d069d9d28","system_id":"levelo_inurba_marseille","lat":43.28713,"lon":5.3794,"is_reserved":false,"is_disabled":false,"rental_uris":{"android":"levelo://app?vid=038d7f97-e7cb-4c8e-87cb-4b6d069d9d28","ios":"levelo://app?vid=038d7f97-e7cb-4c8e-87cb-4b6d069d9d28"},"vehicle_type_id":"4","last_reported":1730408959,"current_range_meters":20800,"station_id":"ce4bh9p2rcd13ifvqec0","pricing_plan_id":"cebpf4jnsgd1na2vs0mg"},{"bike_id":"a931e96c-2049-447b-83ac-c717bfca3d41","system_id":"levelo_inurba_marseille","lat":43.25581,"lon":5.38232,"is_reserved":false,"is_disabled":false,"rental_uris":{"android":"levelo://app?vid=a931e96c-2049-447b-83ac-c717bfca3d41","ios":"levelo://app?vid=a931e96c-2049-447b-83ac-c717bfca3d41"},"vehicle_type_id":"4","last_reported":1730408959,"current_range_meters":34800,"station_id":"ce4bhih2rcd13ifvqfs0","pricing_plan_id":"cebpf4jnsgd1na2vs0mg"},{"bike_id":"24690883-53ed-4e59-b93f-1b774333d011","system_id":"levelo_inurba_marseille","lat":43.29602,"lon":5.38103,"is_reserved":false,"is_disabled":false,"rental_uris":{"android":"levelo://app?vid=24690883-53ed-4e59-b93f-1b774333d011","ios":"levelo://app?vid=24690883-53ed-4e59-b93f-1b774333d011"},"vehicle_type_id":"4","last_reported":1730408959,"current_range_meters":35600,"station_id":"ce4bgl12rcd13ifvqbo0","pricing_plan_id":"cebpf4jnsgd1na2vs0mg"},{"bike_id":"f75768f4-6308-411e-b256-93cd010283c7","system_id":"levelo_inurba_marseille","lat":43.30302,"lon":5.36868,"is_reserved":false,"is_disabled":false,"rental_uris":{"android":"levelo://app?vid=f75768f4-6308-411e-b256-93cd010283c7","ios":"levelo://app?vid=f75768f4-6308-411e-b256-93cd010283c7"},"vehicle_type_id":"4","last_reported":1730408959,"current_range_meters":16800,"station_id":"ce4bgqh2rcd13ifvqc5g","pricing_plan_id":"cebpf4jnsgd1na2vs0mg"},{"bike_id":"47559785-93de-40ff-accd-0643c51db46c","system_id":"levelo_inurba_marseille","lat":43.27209,"lon":5.39173,"is_reserved":false,"is_disabled":false,"rental_uris":{"android":"levelo://app?vid=47559785-93de-40ff-accd-0643c51db46c","ios":"levelo://app?vid=47559785-93de-40ff-accd-0643c51db46c"},"vehicle_type_id":"4","last_reported":1730408959,"current_range_meters":25600,"station_id":"ce4bhhp2rcd13ifvqfm0","pricing_plan_id":"cebpf4jnsgd1na2vs0mg"},{"bike_id":"9125c06e-a999-402e-964e-74463a7d5f9e","system_id":"levelo_inurba_marseille","lat":43.2721,"lon":5.39179,"is_reserved":false,"is_disabled":false,"rental_uris":{"android":"levelo://app?vid=9125c06e-a999-402e-964e-74463a7d5f9e","ios":"levelo://app?vid=9125c06e-a999-402e-964e-74463a7d5f9e"},"vehicle_type_id":"4","last_reported":1730408959,"current_range_meters":39200,"station_id":"ce4bhhp2rcd13ifvqfm0","pricing_plan_id":"cebpf4jnsgd1na2vs0mg"},{"bike_id":"3a09ceaf-2e70-40df-b9b5-539e96d81463","system_id":"levelo_inurba_marseille","lat":43.26952,"lon":5.38633,"is_reserved":false,"is_disabled":false,"rental_uris":{"android":"levelo://app?vid=3a09ceaf-2e70-40df-b9b5-539e96d81463","ios":"levelo://app?vid=3a09ceaf-2e70-40df-b9b5-539e96d81463"},"vehicle_type_id":"4","last_reported":1730408959,"current_range_meters":30400,"station_id":"ce4bhh92rcd13ifvqfh0","pricing_plan_id":"cebpf4jnsgd1na2vs0mg"},{"bike_id":"5b1beb29-08c3-4517-96e1-89c4b727e0c3","system_id":"levelo_inurba_marseille","lat":43.2319,"lon":5.35547,"is_reserved":false,"is_disabled":false,"rental_uris":{"android":"levelo://app?vid=5b1beb29-08c3-4517-96e1-89c4b727e0c3","ios":"levelo://app?vid=5b1beb29-08c3-4517-96e1-89c4b727e0c3"},"vehicle_type_id":"4","last_reported":1730408959,"current_range_meters":32800,"station_id":"ce4bhu92rcd13ifvqi70","pricing_plan_id":"cebpf4jnsgd1na2vs0mg"},{"bike_id":"b8c309ac-2d71-44a4-9ec0-1d42458adc5a","system_id":"levelo_inurba_marseille","lat":43.29426,"lon":5.3861,"is_reserved":false,"is_disabled":false,"rental_uris":{"android":"levelo://app?vid=b8c309ac-2d71-44a4-9ec0-1d42458adc5a","ios":"levelo://app?vid=b8c309ac-2d71-44a4-9ec0-1d42458adc5a"},"vehicle_type_id":"4","last_reported":1730408959,"current_range_meters":8800,"station_id":"ce4bh2h2rcd13ifvqdh0","pricing_plan_id":"cebpf4jnsgd1na2vs0mg"},{"bike_id":"678bd49d-4e97-464a-9d6b-ff8f1a094f5f","system_id":"levelo_inurba_marseille","lat":43.29016,"lon":5.38624,"is_reserved":false,"is_disabled":false,"rental_uris":{"android":"levelo://app?vid=678bd49d-4e97-464a-9d6b-ff8f1a094f5f","ios":"levelo://app?vid=678bd49d-4e97-464a-9d6b-ff8f1a094f5f"},"vehicle_type_id":"4","last_reported":1730408959,"current_range_meters":39200,"station_id":"ce4bh4p2rcd13ifvqe0g","pricing_plan_id":"cebpf4jnsgd1na2vs0mg"},{"bike_id":"42dfebb6-ce28-46ba-90a1-c3a7dc77abdc","system_id":"levelo_inurba_marseille","lat":43.30424,"lon":5.39747,"is_reserved":false,"is_disabled":false,"rental_uris":{"android":"levelo://app?vid=42dfebb6-ce28-46ba-90a1-c3a7dc77abdc","ios":"levelo://app?vid=42dfebb6-ce28-46ba-90a1-c3a7dc77abdc"},"vehicle_type_id":"4","last_reported":1730408959,"current_range_meters":34800,"station_id":"ce4bh092rcd13ifvqd20","pricing_plan_id":"cebpf4jnsgd1na2vs0mg"},{"bike_id":"f99547b6-e0b7-4a86-b4bb-f600f8ca5cb2","system_id":"levelo_inurba_marseille","lat":43.24168,"lon":5.36401,"is_reserved":false,"is_disabled":false,"rental_uris":{"android":"levelo://app?vid=f99547b6-e0b7-4a86-b4bb-f600f8ca5cb2","ios":"levelo://app?vid=f99547b6-e0b7-4a86-b4bb-f600f8ca5cb2"},"vehicle_type_id":"4","last_reported":1730408959,"current_range_meters":9200,"station_id":"cpo36qri1sfpv3e86is0","pricing_plan_id":"cebpf4jnsgd1na2vs0mg"},{"bike_id":"592f4fc4-36f6-4068-ad0e-e5415fc9cbe7","system_id":"levelo_inurba_marseille","lat":43.24208,"lon":5.37943,"is_reserved":false,"is_disabled":false,"rental_uris":{"android":"levelo://app?vid=592f4fc4-36f6-4068-ad0e-e5415fc9cbe7","ios":"levelo://app?vid=592f4fc4-36f6-4068-ad0e-e5415fc9cbe7"},"vehicle_type_id":"4","last_reported":1730408959,"current_range_meters":8000,"station_id":"ce4bhnp2rcd13ifvqgvg","pricing_plan_id":"cebpf4jnsgd1na2vs0mg"},{"bike_id":"ad423d48-e9c3-49a3-8744-a69ab957b193","system_id":"levelo_inurba_marseille","lat":43.29255,"lon":5.38421,"is_reserved":false,"is_disabled":false,"rental_uris":{"android":"levelo://app?vid=ad423d48-e9c3-49a3-8744-a69ab957b193","ios":"levelo://app?vid=ad423d48-e9c3-49a3-8744-a69ab957b193"},"vehicle_type_id":"4","last_reported":1730408959,"current_range_meters":16800,"station_id":"ce4bh692rcd13ifvqea0","pricing_plan_id":"cebpf4jnsgd1na2vs0mg"},{"bike_id":"32a7b847-ca99-48d0-8695-b92bf6f9b7c4","system_id":"levelo_inurba_marseille","lat":43.30415,"lon":5.41275,"is_reserved":false,"is_disabled":false,"rental_uris":{"android":"levelo://app?vid=32a7b847-ca99-48d0-8695-b92bf6f9b7c4","ios":"levelo://app?vid=32a7b847-ca99-48d0-8695-b92bf6f9b7c4"},"vehicle_type_id":"4","last_reported":1730408959,"current_range_meters":25200,"station_id":"ce4bhop2rcd13ifvqh8g","pricing_plan_id":"cebpf4jnsgd1na2vs0mg"},{"bike_id":"794d23c0-def7-4557-a69a-112ea268f585","system_id":"levelo_inurba_marseille","lat":43.23191,"lon":5.35558,"is_reserved":false,"is_disabled":false,"rental_uris":{"android":"levelo://app?vid=794d23c0-def7-4557-a69a-112ea268f585","ios":"levelo://app?vid=794d23c0-def7-4557-a69a-112ea268f585"},"vehicle_type_id":"4","last_reported":1730408959,"current_range_meters":39200,"station_id":"ce4bhu92rcd13ifvqi70","pricing_plan_id":"cebpf4jnsgd1na2vs0mg"},{"bike_id":"dac6762c-94b7-4dd1-b71d-e9658456adb7","system_id":"levelo_inurba_marseille","lat":43.28271,"lon":5.35074,"is_reserved":false,"is_disabled":false,"rental_uris":{"android":"levelo://app?vid=dac6762c-94b7-4dd1-b71d-e9658456adb7","ios":"levelo://app?vid=dac6762c-94b7-4dd1-b71d-e9658456adb7"},"vehicle_type_id":"4","last_reported":1730408959,"current_range_meters":38800,"station_id":"ce4bhbp2rcd13ifvqerg","pricing_plan_id":"cebpf4jnsgd1na2vs0mg"},{"bike_id":"6ab001f8-ade9-4a08-855b-f0798362e601","system_id":"levelo_inurba_marseille","lat":43.27175,"lon":5.41,"is_reserved":false,"is_disabled":false,"rental_uris":{"android":"levelo://app?vid=6ab001f8-ade9-4a08-855b-f0798362e601","ios":"levelo://app?vid=6ab001f8-ade9-4a08-855b-f0798362e601"},"vehicle_type_id":"4","last_reported":1730408959,"current_range_meters":20000,"station_id":"ce4bhl12rcd13ifvqgf0","pricing_plan_id":"cebpf4jnsgd1na2vs0mg"},{"bike_id":"d843627f-14fd-4686-94e3-ce47a963fbbd","system_id":"levelo_inurba_marseille","lat":43.29255,"lon":5.38431,"is_reserved":false,"is_disabled":false,"rental_uris":{"android":"levelo://app?vid=d843627f-14fd-4686-94e3-ce47a963fbbd","ios":"levelo://app?vid=d843627f-14fd-4686-94e3-ce47a963fbbd"},"vehicle_type_id":"4","last_reported":1730408959,"current_range_meters":38800,"station_id":"ce4bh692rcd13ifvqea0","pricing_plan_id":"cebpf4jnsgd1na2vs0mg"},{"bike_id":"c9fe9305-e5b5-403a-8ac6-ee784523647c","system_id":"levelo_inurba_marseille","lat":43.23424,"lon":5.35944,"is_reserved":false,"is_disabled":false,"rental_uris":{"android":"levelo://app?vid=c9fe9305-e5b5-403a-8ac6-ee784523647c","ios":"levelo://app?vid=c9fe9305-e5b5-403a-8ac6-ee784523647c"},"vehicle_type_id":"4","last_reported":1730408959,"current_range_meters":32400,"station_id":"","pricing_plan_id":"cebpf4jnsgd1na2vs0mg"},{"bike_id":"3762b5b7-778d-4d2e-9b34-ac4ef4125c24","system_id":"levelo_inurba_marseille","lat":43.27617,"lon":5.36109,"is_reserved":false,"is_disabled":false,"rental_uris":{"android":"levelo://app?vid=3762b5b7-778d-4d2e-9b34-ac4ef4125c24","ios":"levelo://app?vid=3762b5b7-778d-4d2e-9b34-ac4ef4125c24"},"vehicle_type_id":"4","last_reported":1730408959,"current_range_meters":39200,"station_id":"ce4bgj92rcd13ifvqbe0","pricing_plan_id":"cebpf4jnsgd1na2vs0mg"},{"bike_id":"e1f38475-1a5f-460f-8d3a-c2ed01dbd393","system_id":"levelo_inurba_marseille","lat":43.29021,"lon":5.38638,"is_reserved":false,"is_disabled":false,"rental_uris":{"android":"levelo://app?vid=e1f38475-1a5f-460f-8d3a-c2ed01dbd393","ios":"levelo://app?vid=e1f38475-1a5f-460f-8d3a-c2ed01dbd393"},"vehicle_type_id":"4","last_reported":1730408959,"current_range_meters":9200,"station_id":"ce4bh4p2rcd13ifvqe0g","pricing_plan_id":"cebpf4jnsgd1na2vs0mg"},{"bike_id":"f7174baa-fe68-4a72-9bc8-13b21ba9e26d","system_id":"levelo_inurba_marseille","lat":43.29966,"lon":5.37167,"is_reserved":false,"is_disabled":false,"rental_uris":{"android":"levelo://app?vid=f7174baa-fe68-4a72-9bc8-13b21ba9e26d","ios":"levelo://app?vid=f7174baa-fe68-4a72-9bc8-13b21ba9e26d"},"vehicle_type_id":"4","last_reported":1730408959,"current_range_meters":11600,"station_id":"ce4bgr92rcd13ifvqc7g","pricing_plan_id":"cebpf4jnsgd1na2vs0mg"},{"bike_id":"5b65c998-a70a-4147-a5ad-cfde4a53ff4d","system_id":"levelo_inurba_marseille","lat":43.29022,"lon":5.38643,"is_reserved":false,"is_disabled":false,"rental_uris":{"android":"levelo://app?vid=5b65c998-a70a-4147-a5ad-cfde4a53ff4d","ios":"levelo://app?vid=5b65c998-a70a-4147-a5ad-cfde4a53ff4d"},"vehicle_type_id":"4","last_reported":1730408959,"current_range_meters":27600,"station_id":"ce4bh4p2rcd13ifvqe0g","pricing_plan_id":"cebpf4jnsgd1na2vs0mg"},{"bike_id":"d4247ed7-9f1e-4c56-9be6-367fdf0ad3b2","system_id":"levelo_inurba_marseille","lat":43.29531,"lon":5.38534,"is_reserved":false,"is_disabled":false,"rental_uris":{"android":"levelo://app?vid=d4247ed7-9f1e-4c56-9be6-367fdf0ad3b2","ios":"levelo://app?vid=d4247ed7-9f1e-4c56-9be6-367fdf0ad3b2"},"vehicle_type_id":"4","last_reported":1730408959,"current_range_meters":30800,"station_id":"ce4bgih2rcd13ifvqba0","pricing_plan_id":"cebpf4jnsgd1na2vs0mg"},{"bike_id":"7f3cd860-b878-4799-8f27-58f120448f3f","system_id":"levelo_inurba_marseille","lat":43.27675,"lon":5.38888,"is_reserved":false,"is_disabled":false,"rental_uris":{"android":"levelo://app?vid=7f3cd860-b878-4799-8f27-58f120448f3f","ios":"levelo://app?vid=7f3cd860-b878-4799-8f27-58f120448f3f"},"vehicle_type_id":"4","last_reported":1730408959,"current_range_meters":24000,"station_id":"ce4bhi12rcd13ifvqfo0","pricing_plan_id":"cebpf4jnsgd1na2vs0mg"},{"bike_id":"149cd22b-8024-4817-867e-76a6390627be","system_id":"levelo_inurba_marseille","lat":43.307892,"lon":5.381532,"is_reserved":false,"is_disabled":false,"rental_uris":{"android":"levelo://app?vid=149cd22b-8024-4817-867e-76a6390627be","ios":"levelo://app?vid=149cd22b-8024-4817-867e-76a6390627be"},"vehicle_type_id":"4","last_reported":1730408959,"current_range_meters":22400,"station_id":"ce4bgg92rcd13ifvqb30","pricing_plan_id":"cebpf4jnsgd1na2vs0mg"},{"bike_id":"128e004d-d866-4629-b9a8-0ef62bb11b68","system_id":"levelo_inurba_marseille","lat":43.29899,"lon":5.43669,"is_reserved":false,"is_disabled":false,"rental_uris":{"android":"levelo://app?vid=128e004d-d866-4629-b9a8-0ef62bb11b68","ios":"levelo://app?vid=128e004d-d866-4629-b9a8-0ef62bb11b68"},"vehicle_type_id":"4","last_reported":1730408959,"current_range_meters":12000,"station_id":"ce4bhpp2rcd13ifvqhfg","pricing_plan_id":"cebpf4jnsgd1na2vs0mg"},{"bike_id":"a170b4cb-3e23-4249-961a-c8b3c67a8011","system_id":"levelo_inurba_marseille","lat":43.29531,"lon":5.38536,"is_reserved":false,"is_disabled":false,"rental_uris":{"android":"levelo://app?vid=a170b4cb-3e23-4249-961a-c8b3c67a8011","ios":"levelo://app?vid=a170b4cb-3e23-4249-961a-c8b3c67a8011"},"vehicle_type_id":"4","last_reported":1730408959,"current_range_meters":12400,"station_id":"ce4bgih2rcd13ifvqba0","pricing_plan_id":"cebpf4jnsgd1na2vs0mg"},{"bike_id":"b019a3db-d3dc-4eb2-99df-c13cffd04fab","system_id":"levelo_inurba_marseille","lat":43.27925,"lon":5.39629,"is_reserved":false,"is_disabled":false,"rental_uris":{"android":"levelo://app?vid=b019a3db-d3dc-4eb2-99df-c13cffd04fab","ios":"levelo://app?vid=b019a3db-d3dc-4eb2-99df-c13cffd04fab"},"vehicle_type_id":"4","last_reported":1730408959,"current_range_meters":38800,"station_id":"ce4bhf92rcd13ifvqf40","pricing_plan_id":"cebpf4jnsgd1na2vs0mg"},{"bike_id":"f64780b2-1768-4481-bc9c-3c6d67099c9d","system_id":"levelo_inurba_marseille","lat":43.30087,"lon":5.39088,"is_reserved":false,"is_disabled":false,"rental_uris":{"android":"levelo://app?vid=f64780b2-1768-4481-bc9c-3c6d67099c9d","ios":"levelo://app?vid=f64780b2-1768-4481-bc9c-3c6d67099c9d"},"vehicle_type_id":"4","last_reported":1730408959,"current_range_meters":38400,"station_id":"ce4bh192rcd13ifvqdb0","pricing_plan_id":"cebpf4jnsgd1na2vs0mg"},{"bike_id":"cd3d1088-15a2-4c47-9e0b-bf2fe31281d2","system_id":"levelo_inurba_marseille","lat":43.330261,"lon":5.390401,"is_reserved":false,"is_disabled":false,"rental_uris":{"android":"levelo://app?vid=cd3d1088-15a2-4c47-9e0b-bf2fe31281d2","ios":"levelo://app?vid=cd3d1088-15a2-4c47-9e0b-bf2fe31281d2"},"vehicle_type_id":"4","last_reported":1730408959,"current_range_meters":16400,"station_id":"ce4bhr92rcd13ifvqhrg","pricing_plan_id":"cebpf4jnsgd1na2vs0mg"},{"bike_id":"de7b4a6c-9496-4f36-bcc1-9c8445fe76e6","system_id":"levelo_inurba_marseille","lat":43.28841,"lon":5.39313,"is_reserved":false,"is_disabled":false,"rental_uris":{"android":"levelo://app?vid=de7b4a6c-9496-4f36-bcc1-9c8445fe76e6","ios":"levelo://app?vid=de7b4a6c-9496-4f36-bcc1-9c8445fe76e6"},"vehicle_type_id":"4","last_reported":1730408959,"current_range_meters":32800,"station_id":"ce4bh2p2rcd13ifvqdi0","pricing_plan_id":"cebpf4jnsgd1na2vs0mg"},{"bike_id":"30cd3637-5231-4451-8b17-3902824e2d98","system_id":"levelo_inurba_marseille","lat":43.31428,"lon":5.39289,"is_reserved":false,"is_disabled":false,"rental_uris":{"android":"levelo://app?vid=30cd3637-5231-4451-8b17-3902824e2d98","ios":"levelo://app?vid=30cd3637-5231-4451-8b17-3902824e2d98"},"vehicle_type_id":"4","last_reported":1730408959,"current_range_meters":20400,"station_id":"","pricing_plan_id":"cebpf4jnsgd1na2vs0mg"},{"bike_id":"43593456-1fc7-466e-9966-4e71827096d2","system_id":"levelo_inurba_marseille","lat":43.29268,"lon":5.38445,"is_reserved":false,"is_disabled":false,"rental_uris":{"android":"levelo://app?vid=43593456-1fc7-466e-9966-4e71827096d2","ios":"levelo://app?vid=43593456-1fc7-466e-9966-4e71827096d2"},"vehicle_type_id":"4","last_reported":1730408959,"current_range_meters":38800,"station_id":"ce4bh692rcd13ifvqea0","pricing_plan_id":"cebpf4jnsgd1na2vs0mg"},{"bike_id":"fcf7d5e1-5e15-4cd5-be50-f2a2a1d661b1","system_id":"levelo_inurba_marseille","lat":43.28671,"lon":5.38661,"is_reserved":false,"is_disabled":false,"rental_uris":{"android":"levelo://app?vid=fcf7d5e1-5e15-4cd5-be50-f2a2a1d661b1","ios":"levelo://app?vid=fcf7d5e1-5e15-4cd5-be50-f2a2a1d661b1"},"vehicle_type_id":"4","last_reported":1730408959,"current_range_meters":19600,"station_id":"ce4bh492rcd13ifvqdug","pricing_plan_id":"cebpf4jnsgd1na2vs0mg"},{"bike_id":"35c2f2da-8a4f-48ec-ab0d-e734ea149953","system_id":"levelo_inurba_marseille","lat":43.28154,"lon":5.42644,"is_reserved":false,"is_disabled":false,"rental_uris":{"android":"levelo://app?vid=35c2f2da-8a4f-48ec-ab0d-e734ea149953","ios":"levelo://app?vid=35c2f2da-8a4f-48ec-ab0d-e734ea149953"},"vehicle_type_id":"4","last_reported":1730408959,"current_range_meters":1600,"station_id":"ce4bhnh2rcd13ifvqgug","pricing_plan_id":"cebpf4jnsgd1na2vs0mg"},{"bike_id":"fc1955b4-7d62-40c9-86a0-00ce35b0e7e9","system_id":"levelo_inurba_marseille","lat":43.287,"lon":5.39971,"is_reserved":false,"is_disabled":false,"rental_uris":{"android":"levelo://app?vid=fc1955b4-7d62-40c9-86a0-00ce35b0e7e9","ios":"levelo://app?vid=fc1955b4-7d62-40c9-86a0-00ce35b0e7e9"},"vehicle_type_id":"4","last_reported":1730408959,"current_range_meters":2800,"station_id":"ce4bho92rcd13ifvqh3g","pricing_plan_id":"cebpf4jnsgd1na2vs0mg"},{"bike_id":"146c8f51-2eee-40f1-a8a2-510d1d3cee4f","system_id":"levelo_inurba_marseille","lat":43.29843,"lon":5.36273,"is_reserved":false,"is_disabled":false,"rental_uris":{"android":"levelo://app?vid=146c8f51-2eee-40f1-a8a2-510d1d3cee4f","ios":"levelo://app?vid=146c8f51-2eee-40f1-a8a2-510d1d3cee4f"},"vehicle_type_id":"4","last_reported":1730408959,"current_range_meters":20000,"station_id":"ce4bgpp2rcd13ifvqc3g","pricing_plan_id":"cebpf4jnsgd1na2vs0mg"},{"bike_id":"986b6553-d4b7-4852-a65d-435be156308b","system_id":"levelo_inurba_marseille","lat":43.28023,"lon":5.36956,"is_reserved":false,"is_disabled":false,"rental_uris":{"android":"levelo://app?vid=986b6553-d4b7-4852-a65d-435be156308b","ios":"levelo://app?vid=986b6553-d4b7-4852-a65d-435be156308b"},"vehicle_type_id":"4","last_reported":1730408959,"current_range_meters":8000,"station_id":"ce4bha12rcd13ifvqef0","pricing_plan_id":"cebpf4jnsgd1na2vs0mg"},{"bike_id":"28d3908a-af05-463f-ba89-60bb7ec0116a","system_id":"levelo_inurba_marseille","lat":43.29535,"lon":5.38546,"is_reserved":false,"is_disabled":false,"rental_uris":{"android":"levelo://app?vid=28d3908a-af05-463f-ba89-60bb7ec0116a","ios":"levelo://app?vid=28d3908a-af05-463f-ba89-60bb7ec0116a"},"vehicle_type_id":"4","last_reported":1730408959,"current_range_meters":36400,"station_id":"ce4bgih2rcd13ifvqba0","pricing_plan_id":"cebpf4jnsgd1na2vs0mg"},{"bike_id":"8e63b503-778b-42f4-ae04-a1cee9c5ac08","system_id":"levelo_inurba_marseille","lat":43.29414,"lon":5.3864,"is_reserved":false,"is_disabled":false,"rental_uris":{"android":"levelo://app?vid=8e63b503-778b-42f4-ae04-a1cee9c5ac08","ios":"levelo://app?vid=8e63b503-778b-42f4-ae04-a1cee9c5ac08"},"vehicle_type_id":"4","last_reported":1730408959,"current_range_meters":24400,"station_id":"ce4bh2h2rcd13ifvqdh0","pricing_plan_id":"cebpf4jnsgd1na2vs0mg"},{"bike_id":"2e67f7b6-01c2-4ccc-9d96-369af4546414","system_id":"levelo_inurba_marseille","lat":43.295373,"lon":5.385458,"is_reserved":false,"is_disabled":false,"rental_uris":{"android":"levelo://app?vid=2e67f7b6-01c2-4ccc-9d96-369af4546414","ios":"levelo://app?vid=2e67f7b6-01c2-4ccc-9d96-369af4546414"},"vehicle_type_id":"4","last_reported":1730408959,"current_range_meters":38800,"station_id":"ce4bgih2rcd13ifvqba0","pricing_plan_id":"cebpf4jnsgd1na2vs0mg"},{"bike_id":"58748d2a-dff2-4bfe-ba69-a9beed25e62c","system_id":"levelo_inurba_marseille","lat":43.27098,"lon":5.39441,"is_reserved":false,"is_disabled":false,"rental_uris":{"android":"levelo://app?vid=58748d2a-dff2-4bfe-ba69-a9beed25e62c","ios":"levelo://app?vid=58748d2a-dff2-4bfe-ba69-a9beed25e62c"},"vehicle_type_id":"4","last_reported":1730408959,"current_range_meters":26800,"station_id":"","pricing_plan_id":"cebpf4jnsgd1na2vs0mg"},{"bike_id":"a46989d1-40cb-4edc-a303-ea27515b4f17","system_id":"levelo_inurba_marseille","lat":43.27818,"lon":5.40706,"is_reserved":false,"is_disabled":false,"rental_uris":{"android":"levelo://app?vid=a46989d1-40cb-4edc-a303-ea27515b4f17","ios":"levelo://app?vid=a46989d1-40cb-4edc-a303-ea27515b4f17"},"vehicle_type_id":"4","last_reported":1730408959,"current_range_meters":34000,"station_id":"ce4bhnh2rcd13ifvqgtg","pricing_plan_id":"cebpf4jnsgd1na2vs0mg"},{"bike_id":"fb536a03-1f45-4685-8473-f3f23d542b83","system_id":"levelo_inurba_marseille","lat":43.27314,"lon":5.39074,"is_reserved":false,"is_disabled":false,"rental_uris":{"android":"levelo://app?vid=fb536a03-1f45-4685-8473-f3f23d542b83","ios":"levelo://app?vid=fb536a03-1f45-4685-8473-f3f23d542b83"},"vehicle_type_id":"4","last_reported":1730408959,"current_range_meters":23200,"station_id":"ce4bhgp2rcd13ifvqfe0","pricing_plan_id":"cebpf4jnsgd1na2vs0mg"},{"bike_id":"f18644e1-9807-4135-8673-9bb76f429715","system_id":"levelo_inurba_marseille","lat":43.30934,"lon":5.4014,"is_reserved":false,"is_disabled":false,"rental_uris":{"android":"levelo://app?vid=f18644e1-9807-4135-8673-9bb76f429715","ios":"levelo://app?vid=f18644e1-9807-4135-8673-9bb76f429715"},"vehicle_type_id":"4","last_reported":1730408959,"current_range_meters":14000,"station_id":"ce4bgvp2rcd13ifvqct0","pricing_plan_id":"cebpf4jnsgd1na2vs0mg"},{"bike_id":"a8bf15a2-3da0-456e-bd97-081c5a518dd1","system_id":"levelo_inurba_marseille","lat":43.27375,"lon":5.36249,"is_reserved":false,"is_disabled":false,"rental_uris":{"android":"levelo://app?vid=a8bf15a2-3da0-456e-bd97-081c5a518dd1","ios":"levelo://app?vid=a8bf15a2-3da0-456e-bd97-081c5a518dd1"},"vehicle_type_id":"4","last_reported":1730408959,"current_range_meters":38800,"station_id":"ce4bhbh2rcd13ifvqeo0","pricing_plan_id":"cebpf4jnsgd1na2vs0mg"},{"bike_id":"ea860d18-d5bb-4b0e-a22b-25a2ca231534","system_id":"levelo_inurba_marseille","lat":43.29021,"lon":5.38633,"is_reserved":false,"is_disabled":false,"rental_uris":{"android":"levelo://app?vid=ea860d18-d5bb-4b0e-a22b-25a2ca231534","ios":"levelo://app?vid=ea860d18-d5bb-4b0e-a22b-25a2ca231534"},"vehicle_type_id":"4","last_reported":1730408959,"current_range_meters":7200,"station_id":"ce4bh4p2rcd13ifvqe0g","pricing_plan_id":"cebpf4jnsgd1na2vs0mg"},{"bike_id":"4748c607-e231-4758-abac-4ae44466df2c","system_id":"levelo_inurba_marseille","lat":43.29269,"lon":5.38451,"is_reserved":false,"is_disabled":false,"rental_uris":{"android":"levelo://app?vid=4748c607-e231-4758-abac-4ae44466df2c","ios":"levelo://app?vid=4748c607-e231-4758-abac-4ae44466df2c"},"vehicle_type_id":"4","last_reported":1730408959,"current_range_meters":14800,"station_id":"ce4bh692rcd13ifvqea0","pricing_plan_id":"cebpf4jnsgd1na2vs0mg"},{"bike_id":"94279a57-03c0-47b7-abe3-7226e86fd3b0","system_id":"levelo_inurba_marseille","lat":43.27619,"lon":5.36101,"is_reserved":false,"is_disabled":false,"rental_uris":{"android":"levelo://app?vid=94279a57-03c0-47b7-abe3-7226e86fd3b0","ios":"levelo://app?vid=94279a57-03c0-47b7-abe3-7226e86fd3b0"},"vehicle_type_id":"4","last_reported":1730408959,"current_range_meters":28000,"station_id":"ce4bgj92rcd13ifvqbe0","pricing_plan_id":"cebpf4jnsgd1na2vs0mg"},{"bike_id":"e4578546-19d3-4d2c-9701-34a0fb5f0a6c","system_id":"levelo_inurba_marseille","lat":43.23957,"lon":5.36625,"is_reserved":false,"is_disabled":false,"rental_uris":{"android":"levelo://app?vid=e4578546-19d3-4d2c-9701-34a0fb5f0a6c","ios":"levelo://app?vid=e4578546-19d3-4d2c-9701-34a0fb5f0a6c"},"vehicle_type_id":"4","last_reported":1730408959,"current_range_meters":4400,"station_id":"ce4bhi12rcd13ifvqfp0","pricing_plan_id":"cebpf4jnsgd1na2vs0mg"},{"bike_id":"1c03b1dd-0784-49b8-889b-839041fa077d","system_id":"levelo_inurba_marseille","lat":43.27617,"lon":5.36113,"is_reserved":false,"is_disabled":false,"rental_uris":{"android":"levelo://app?vid=1c03b1dd-0784-49b8-889b-839041fa077d","ios":"levelo://app?vid=1c03b1dd-0784-49b8-889b-839041fa077d"},"vehicle_type_id":"4","last_reported":1730408959,"current_range_meters":35600,"station_id":"ce4bgj92rcd13ifvqbe0","pricing_plan_id":"cebpf4jnsgd1na2vs0mg"},{"bike_id":"6ed6a989-9445-42cb-88f4-17f899a86427","system_id":"levelo_inurba_marseille","lat":43.255808,"lon":5.382384,"is_reserved":false,"is_disabled":false,"rental_uris":{"android":"levelo://app?vid=6ed6a989-9445-42cb-88f4-17f899a86427","ios":"levelo://app?vid=6ed6a989-9445-42cb-88f4-17f899a86427"},"vehicle_type_id":"4","last_reported":1730408959,"current_range_meters":35200,"station_id":"ce4bhih2rcd13ifvqfs0","pricing_plan_id":"cebpf4jnsgd1na2vs0mg"},{"bike_id":"41b99f31-d63f-4657-8e25-3da1aa90ff56","system_id":"levelo_inurba_marseille","lat":43.29679,"lon":5.37292,"is_reserved":false,"is_disabled":false,"rental_uris":{"android":"levelo://app?vid=41b99f31-d63f-4657-8e25-3da1aa90ff56","ios":"levelo://app?vid=41b99f31-d63f-4657-8e25-3da1aa90ff56"},"vehicle_type_id":"4","last_reported":1730408959,"current_range_meters":37600,"station_id":"ce4bgk12rcd13ifvqbj0","pricing_plan_id":"cebpf4jnsgd1na2vs0mg"},{"bike_id":"2eb82092-ae8b-414b-88ae-13ea4f6ef981","system_id":"levelo_inurba_marseille","lat":43.29278,"lon":5.36851,"is_reserved":false,"is_disabled":false,"rental_uris":{"android":"levelo://app?vid=2eb82092-ae8b-414b-88ae-13ea4f6ef981","ios":"levelo://app?vid=2eb82092-ae8b-414b-88ae-13ea4f6ef981"},"vehicle_type_id":"4","last_reported":1730408959,"current_range_meters":11600,"station_id":"ce4bhbp2rcd13ifvqesg","pricing_plan_id":"cebpf4jnsgd1na2vs0mg"},{"bike_id":"742e3b39-99d0-477f-8dff-13676bdb1f4a","system_id":"levelo_inurba_marseille","lat":43.27065,"lon":5.42273,"is_reserved":false,"is_disabled":false,"rental_uris":{"android":"levelo://app?vid=742e3b39-99d0-477f-8dff-13676bdb1f4a","ios":"levelo://app?vid=742e3b39-99d0-477f-8dff-13676bdb1f4a"},"vehicle_type_id":"4","last_reported":1730408959,"current_range_meters":38800,"station_id":"ce4bhk92rcd13ifvqgb0","pricing_plan_id":"cebpf4jnsgd1na2vs0mg"},{"bike_id":"1e118e6b-ca08-4a1f-82dd-7bc52207365a","system_id":"levelo_inurba_marseille","lat":43.29422,"lon":5.38608,"is_reserved":false,"is_disabled":false,"rental_uris":{"android":"levelo://app?vid=1e118e6b-ca08-4a1f-82dd-7bc52207365a","ios":"levelo://app?vid=1e118e6b-ca08-4a1f-82dd-7bc52207365a"},"vehicle_type_id":"4","last_reported":1730408959,"current_range_meters":30000,"station_id":"ce4bh2h2rcd13ifvqdh0","pricing_plan_id":"cebpf4jnsgd1na2vs0mg"},{"bike_id":"c7936528-f0d6-432c-b4b2-f4e983a8cb2d","system_id":"levelo_inurba_marseille","lat":43.29976,"lon":5.37181,"is_reserved":false,"is_disabled":false,"rental_uris":{"android":"levelo://app?vid=c7936528-f0d6-432c-b4b2-f4e983a8cb2d","ios":"levelo://app?vid=c7936528-f0d6-432c-b4b2-f4e983a8cb2d"},"vehicle_type_id":"4","last_reported":1730408959,"current_range_meters":25600,"station_id":"ce4bgr92rcd13ifvqc7g","pricing_plan_id":"cebpf4jnsgd1na2vs0mg"},{"bike_id":"98b6d671-73be-4e9f-9eb5-4e9410e42c9d","system_id":"levelo_inurba_marseille","lat":43.27619,"lon":5.36108,"is_reserved":false,"is_disabled":false,"rental_uris":{"android":"levelo://app?vid=98b6d671-73be-4e9f-9eb5-4e9410e42c9d","ios":"levelo://app?vid=98b6d671-73be-4e9f-9eb5-4e9410e42c9d"},"vehicle_type_id":"4","last_reported":1730408959,"current_range_meters":37600,"station_id":"ce4bgj92rcd13ifvqbe0","pricing_plan_id":"cebpf4jnsgd1na2vs0mg"},{"bike_id":"a3126011-34ea-44f9-8739-4e0b0ad74aa0","system_id":"levelo_inurba_marseille","lat":43.23965,"lon":5.36633,"is_reserved":false,"is_disabled":false,"rental_uris":{"android":"levelo://app?vid=a3126011-34ea-44f9-8739-4e0b0ad74aa0","ios":"levelo://app?vid=a3126011-34ea-44f9-8739-4e0b0ad74aa0"},"vehicle_type_id":"4","last_reported":1730408959,"current_range_meters":14000,"station_id":"ce4bhi12rcd13ifvqfp0","pricing_plan_id":"cebpf4jnsgd1na2vs0mg"},{"bike_id":"2d045039-c52b-4a5d-b80a-fd1aec0a23ec","system_id":"levelo_inurba_marseille","lat":43.29267,"lon":5.38443,"is_reserved":false,"is_disabled":false,"rental_uris":{"android":"levelo://app?vid=2d045039-c52b-4a5d-b80a-fd1aec0a23ec","ios":"levelo://app?vid=2d045039-c52b-4a5d-b80a-fd1aec0a23ec"},"vehicle_type_id":"4","last_reported":1730408959,"current_range_meters":38000,"station_id":"ce4bh692rcd13ifvqea0","pricing_plan_id":"cebpf4jnsgd1na2vs0mg"},{"bike_id":"520d7620-1a41-49eb-a5bd-081d166abba1","system_id":"levelo_inurba_marseille","lat":43.276789,"lon":5.38891,"is_reserved":false,"is_disabled":false,"rental_uris":{"android":"levelo://app?vid=520d7620-1a41-49eb-a5bd-081d166abba1","ios":"levelo://app?vid=520d7620-1a41-49eb-a5bd-081d166abba1"},"vehicle_type_id":"4","last_reported":1730408959,"current_range_meters":38800,"station_id":"ce4bhi12rcd13ifvqfo0","pricing_plan_id":"cebpf4jnsgd1na2vs0mg"},{"bike_id":"160c3125-d109-49e3-a687-ede78b99dea2","system_id":"levelo_inurba_marseille","lat":43.23204,"lon":5.35549,"is_reserved":false,"is_disabled":false,"rental_uris":{"android":"levelo://app?vid=160c3125-d109-49e3-a687-ede78b99dea2","ios":"levelo://app?vid=160c3125-d109-49e3-a687-ede78b99dea2"},"vehicle_type_id":"4","last_reported":1730408959,"current_range_meters":33200,"station_id":"ce4bhu92rcd13ifvqi70","pricing_plan_id":"cebpf4jnsgd1na2vs0mg"},{"bike_id":"0e664c17-da14-4dad-904a-bfe1e659c0e3","system_id":"levelo_inurba_marseille","lat":43.29423,"lon":5.38611,"is_reserved":false,"is_disabled":false,"rental_uris":{"android":"levelo://app?vid=0e664c17-da14-4dad-904a-bfe1e659c0e3","ios":"levelo://app?vid=0e664c17-da14-4dad-904a-bfe1e659c0e3"},"vehicle_type_id":"4","last_reported":1730408959,"current_range_meters":30400,"station_id":"ce4bh2h2rcd13ifvqdh0","pricing_plan_id":"cebpf4jnsgd1na2vs0mg"},{"bike_id":"ae31f7aa-ec14-4090-9ea9-479b30ff0ee5","system_id":"levelo_inurba_marseille","lat":43.3368,"lon":5.40729,"is_reserved":false,"is_disabled":false,"rental_uris":{"android":"levelo://app?vid=ae31f7aa-ec14-4090-9ea9-479b30ff0ee5","ios":"levelo://app?vid=ae31f7aa-ec14-4090-9ea9-479b30ff0ee5"},"vehicle_type_id":"4","last_reported":1730408959,"current_range_meters":25200,"station_id":"ce4bhqh2rcd13ifvqhmg","pricing_plan_id":"cebpf4jnsgd1na2vs0mg"},{"bike_id":"7912a811-4053-414e-a928-edaa77f54fa0","system_id":"levelo_inurba_marseille","lat":43.27816,"lon":5.407,"is_reserved":false,"is_disabled":false,"rental_uris":{"android":"levelo://app?vid=7912a811-4053-414e-a928-edaa77f54fa0","ios":"levelo://app?vid=7912a811-4053-414e-a928-edaa77f54fa0"},"vehicle_type_id":"4","last_reported":1730408959,"current_range_meters":20800,"station_id":"ce4bhnh2rcd13ifvqgtg","pricing_plan_id":"cebpf4jnsgd1na2vs0mg"},{"bike_id":"9f4b3ed9-8fdf-49ee-82b0-52062da6c3cd","system_id":"levelo_inurba_marseille","lat":43.29419,"lon":5.38609,"is_reserved":false,"is_disabled":false,"rental_uris":{"android":"levelo://app?vid=9f4b3ed9-8fdf-49ee-82b0-52062da6c3cd","ios":"levelo://app?vid=9f4b3ed9-8fdf-49ee-82b0-52062da6c3cd"},"vehicle_type_id":"4","last_reported":1730408959,"current_range_meters":14800,"station_id":"ce4bh2h2rcd13ifvqdh0","pricing_plan_id":"cebpf4jnsgd1na2vs0mg"},{"bike_id":"4c61f11b-de49-4664-8246-0fd92e617235","system_id":"levelo_inurba_marseille","lat":43.27817,"lon":5.40717,"is_reserved":false,"is_disabled":false,"rental_uris":{"android":"levelo://app?vid=4c61f11b-de49-4664-8246-0fd92e617235","ios":"levelo://app?vid=4c61f11b-de49-4664-8246-0fd92e617235"},"vehicle_type_id":"4","last_reported":1730408959,"current_range_meters":24800,"station_id":"ce4bhnh2rcd13ifvqgtg","pricing_plan_id":"cebpf4jnsgd1na2vs0mg"},{"bike_id":"71d10f41-2ffe-4394-bc10-bfa4bb58be1e","system_id":"levelo_inurba_marseille","lat":43.323397,"lon":5.40624,"is_reserved":false,"is_disabled":false,"rental_uris":{"android":"levelo://app?vid=71d10f41-2ffe-4394-bc10-bfa4bb58be1e","ios":"levelo://app?vid=71d10f41-2ffe-4394-bc10-bfa4bb58be1e"},"vehicle_type_id":"4","last_reported":1730408959,"current_range_meters":27200,"station_id":"ce4bhq92rcd13ifvqhjg","pricing_plan_id":"cebpf4jnsgd1na2vs0mg"},{"bike_id":"6bdedc30-2698-4234-b144-a06adc28aeba","system_id":"levelo_inurba_marseille","lat":43.28562,"lon":5.39501,"is_reserved":false,"is_disabled":false,"rental_uris":{"android":"levelo://app?vid=6bdedc30-2698-4234-b144-a06adc28aeba","ios":"levelo://app?vid=6bdedc30-2698-4234-b144-a06adc28aeba"},"vehicle_type_id":"4","last_reported":1730408959,"current_range_meters":36000,"station_id":"ce4bh292rcd13ifvqdg0","pricing_plan_id":"cebpf4jnsgd1na2vs0mg"},{"bike_id":"6599bb62-e3ef-4407-b42d-8cffac7798a8","system_id":"levelo_inurba_marseille","lat":43.31073,"lon":5.38351,"is_reserved":false,"is_disabled":false,"rental_uris":{"android":"levelo://app?vid=6599bb62-e3ef-4407-b42d-8cffac7798a8","ios":"levelo://app?vid=6599bb62-e3ef-4407-b42d-8cffac7798a8"},"vehicle_type_id":"4","last_reported":1730408959,"current_range_meters":25200,"station_id":"ce4bgv92rcd13ifvqcr0","pricing_plan_id":"cebpf4jnsgd1na2vs0mg"},{"bike_id":"56bf23b5-b89b-4068-aa80-4548df17eb67","system_id":"levelo_inurba_marseille","lat":43.28076,"lon":5.39643,"is_reserved":false,"is_disabled":false,"rental_uris":{"android":"levelo://app?vid=56bf23b5-b89b-4068-aa80-4548df17eb67","ios":"levelo://app?vid=56bf23b5-b89b-4068-aa80-4548df17eb67"},"vehicle_type_id":"4","last_reported":1730408959,"current_range_meters":34800,"station_id":"ce4bho12rcd13ifvqh2g","pricing_plan_id":"cebpf4jnsgd1na2vs0mg"},{"bike_id":"988fcbf0-b108-436c-9575-e303232a8ee9","system_id":"levelo_inurba_marseille","lat":43.29899,"lon":5.38137,"is_reserved":false,"is_disabled":false,"rental_uris":{"android":"levelo://app?vid=988fcbf0-b108-436c-9575-e303232a8ee9","ios":"levelo://app?vid=988fcbf0-b108-436c-9575-e303232a8ee9"},"vehicle_type_id":"4","last_reported":1730408959,"current_range_meters":17200,"station_id":"ce4bgj12rcd13ifvqbc0","pricing_plan_id":"cebpf4jnsgd1na2vs0mg"},{"bike_id":"c99dfe37-61dd-4f4b-8981-1c568a8063d5","system_id":"levelo_inurba_marseille","lat":43.27934,"lon":5.41044,"is_reserved":false,"is_disabled":false,"rental_uris":{"android":"levelo://app?vid=c99dfe37-61dd-4f4b-8981-1c568a8063d5","ios":"levelo://app?vid=c99dfe37-61dd-4f4b-8981-1c568a8063d5"},"vehicle_type_id":"4","last_reported":1730408959,"current_range_meters":24000,"station_id":"ce4bhnp2rcd13ifvqh0g","pricing_plan_id":"cebpf4jnsgd1na2vs0mg"},{"bike_id":"a4e1ca50-ded6-4271-a5da-c67edd55fc27","system_id":"levelo_inurba_marseille","lat":43.27918,"lon":5.39582,"is_reserved":false,"is_disabled":false,"rental_uris":{"android":"levelo://app?vid=a4e1ca50-ded6-4271-a5da-c67edd55fc27","ios":"levelo://app?vid=a4e1ca50-ded6-4271-a5da-c67edd55fc27"},"vehicle_type_id":"4","last_reported":1730408959,"current_range_meters":32400,"station_id":"ce4bhf92rcd13ifvqf40","pricing_plan_id":"cebpf4jnsgd1na2vs0mg"},{"bike_id":"9c0ce7c2-266b-456a-b600-aad012ecaf01","system_id":"levelo_inurba_marseille","lat":43.26193,"lon":5.37923,"is_reserved":false,"is_disabled":false,"rental_uris":{"android":"levelo://app?vid=9c0ce7c2-266b-456a-b600-aad012ecaf01","ios":"levelo://app?vid=9c0ce7c2-266b-456a-b600-aad012ecaf01"},"vehicle_type_id":"4","last_reported":1730408959,"current_range_meters":39200,"station_id":"ce4bhjp2rcd13ifvqg90","pricing_plan_id":"cebpf4jnsgd1na2vs0mg"},{"bike_id":"9cdb3e9e-6038-4a8a-8be4-8228e259b6d3","system_id":"levelo_inurba_marseille","lat":43.31535,"lon":5.38031,"is_reserved":false,"is_disabled":false,"rental_uris":{"android":"levelo://app?vid=9cdb3e9e-6038-4a8a-8be4-8228e259b6d3","ios":"levelo://app?vid=9cdb3e9e-6038-4a8a-8be4-8228e259b6d3"},"vehicle_type_id":"4","last_reported":1730408959,"current_range_meters":11600,"station_id":"ce4bhsp2rcd13ifvqi50","pricing_plan_id":"cebpf4jnsgd1na2vs0mg"},{"bike_id":"abbaacca-0578-46bc-b5b0-302119ef6e33","system_id":"levelo_inurba_marseille","lat":43.29413,"lon":5.38637,"is_reserved":false,"is_disabled":false,"rental_uris":{"android":"levelo://app?vid=abbaacca-0578-46bc-b5b0-302119ef6e33","ios":"levelo://app?vid=abbaacca-0578-46bc-b5b0-302119ef6e33"},"vehicle_type_id":"4","last_reported":1730408959,"current_range_meters":4000,"station_id":"ce4bh2h2rcd13ifvqdh0","pricing_plan_id":"cebpf4jnsgd1na2vs0mg"},{"bike_id":"e4c19075-3604-42d9-a1de-c122e14701db","system_id":"levelo_inurba_marseille","lat":43.28074,"lon":5.39653,"is_reserved":false,"is_disabled":false,"rental_uris":{"android":"levelo://app?vid=e4c19075-3604-42d9-a1de-c122e14701db","ios":"levelo://app?vid=e4c19075-3604-42d9-a1de-c122e14701db"},"vehicle_type_id":"4","last_reported":1730408959,"current_range_meters":38000,"station_id":"ce4bho12rcd13ifvqh2g","pricing_plan_id":"cebpf4jnsgd1na2vs0mg"},{"bike_id":"b36f3116-94b3-46f0-9279-2db73c9a7ede","system_id":"levelo_inurba_marseille","lat":43.26776,"lon":5.39416,"is_reserved":false,"is_disabled":false,"rental_uris":{"android":"levelo://app?vid=b36f3116-94b3-46f0-9279-2db73c9a7ede","ios":"levelo://app?vid=b36f3116-94b3-46f0-9279-2db73c9a7ede"},"vehicle_type_id":"4","last_reported":1730408959,"current_range_meters":24800,"station_id":"ce4bhh12rcd13ifvqfg0","pricing_plan_id":"cebpf4jnsgd1na2vs0mg"},{"bike_id":"13faadfd-34f8-47c2-a836-b4264e266fb2","system_id":"levelo_inurba_marseille","lat":43.29955,"lon":5.37173,"is_reserved":false,"is_disabled":false,"rental_uris":{"android":"levelo://app?vid=13faadfd-34f8-47c2-a836-b4264e266fb2","ios":"levelo://app?vid=13faadfd-34f8-47c2-a836-b4264e266fb2"},"vehicle_type_id":"4","last_reported":1730408959,"current_range_meters":38000,"station_id":"ce4bgr92rcd13ifvqc7g","pricing_plan_id":"cebpf4jnsgd1na2vs0mg"},{"bike_id":"6fe95313-e873-4982-8420-95fec21f0b5f","system_id":"levelo_inurba_marseille","lat":43.31991,"lon":5.38153,"is_reserved":false,"is_disabled":false,"rental_uris":{"android":"levelo://app?vid=6fe95313-e873-4982-8420-95fec21f0b5f","ios":"levelo://app?vid=6fe95313-e873-4982-8420-95fec21f0b5f"},"vehicle_type_id":"4","last_reported":1730408959,"current_range_meters":23200,"station_id":"ce4bhr12rcd13ifvqhpg","pricing_plan_id":"cebpf4jnsgd1na2vs0mg"},{"bike_id":"e8293b4e-059a-4396-9bed-846c599622d5","system_id":"levelo_inurba_marseille","lat":43.27176,"lon":5.4098,"is_reserved":false,"is_disabled":false,"rental_uris":{"android":"levelo://app?vid=e8293b4e-059a-4396-9bed-846c599622d5","ios":"levelo://app?vid=e8293b4e-059a-4396-9bed-846c599622d5"},"vehicle_type_id":"4","last_reported":1730408959,"current_range_meters":39200,"station_id":"ce4bhl12rcd13ifvqgf0","pricing_plan_id":"cebpf4jnsgd1na2vs0mg"},{"bike_id":"ca6834ed-f61e-4abe-85e5-7c3aa33c14e3","system_id":"levelo_inurba_marseille","lat":43.29538,"lon":5.39069,"is_reserved":false,"is_disabled":false,"rental_uris":{"android":"levelo://app?vid=ca6834ed-f61e-4abe-85e5-7c3aa33c14e3","ios":"levelo://app?vid=ca6834ed-f61e-4abe-85e5-7c3aa33c14e3"},"vehicle_type_id":"4","last_reported":1730408959,"current_range_meters":19200,"station_id":"ce4bh3p2rcd13ifvqdp0","pricing_plan_id":"cebpf4jnsgd1na2vs0mg"},{"bike_id":"646971bd-7b4e-417e-a986-35e42b284858","system_id":"levelo_inurba_marseille","lat":43.27314,"lon":5.39092,"is_reserved":false,"is_disabled":false,"rental_uris":{"android":"levelo://app?vid=646971bd-7b4e-417e-a986-35e42b284858","ios":"levelo://app?vid=646971bd-7b4e-417e-a986-35e42b284858"},"vehicle_type_id":"4","last_reported":1730408959,"current_range_meters":24400,"station_id":"ce4bhgp2rcd13ifvqfe0","pricing_plan_id":"cebpf4jnsgd1na2vs0mg"},{"bike_id":"2f7edda4-3192-4e3a-b35b-1447a9544e5a","system_id":"levelo_inurba_marseille","lat":43.29266,"lon":5.38431,"is_reserved":false,"is_disabled":false,"rental_uris":{"android":"levelo://app?vid=2f7edda4-3192-4e3a-b35b-1447a9544e5a","ios":"levelo://app?vid=2f7edda4-3192-4e3a-b35b-1447a9544e5a"},"vehicle_type_id":"4","last_reported":1730408959,"current_range_meters":6400,"station_id":"ce4bh692rcd13ifvqea0","pricing_plan_id":"cebpf4jnsgd1na2vs0mg"},{"bike_id":"2e679aa2-6222-4666-94d2-8febbbac34cf","system_id":"levelo_inurba_marseille","lat":43.28931,"lon":5.48058,"is_reserved":false,"is_disabled":false,"rental_uris":{"android":"levelo://app?vid=2e679aa2-6222-4666-94d2-8febbbac34cf","ios":"levelo://app?vid=2e679aa2-6222-4666-94d2-8febbbac34cf"},"vehicle_type_id":"4","last_reported":1730408959,"current_range_meters":10000,"station_id":"ce4bgvp2rcd13ifvqct0","pricing_plan_id":"cebpf4jnsgd1na2vs0mg"},{"bike_id":"b8ae1d1b-9f47-4983-bfdf-dd4ce03f3447","system_id":"levelo_inurba_marseille","lat":43.2929,"lon":5.37441,"is_reserved":false,"is_disabled":false,"rental_uris":{"android":"levelo://app?vid=b8ae1d1b-9f47-4983-bfdf-dd4ce03f3447","ios":"levelo://app?vid=b8ae1d1b-9f47-4983-bfdf-dd4ce03f3447"},"vehicle_type_id":"4","last_reported":1730408959,"current_range_meters":38800,"station_id":"ce4bgi12rcd13ifvqb70","pricing_plan_id":"cebpf4jnsgd1na2vs0mg"},{"bike_id":"0483bfa3-11fd-4a1f-8173-f5ded1239110","system_id":"levelo_inurba_marseille","lat":43.23967,"lon":5.36627,"is_reserved":false,"is_disabled":false,"rental_uris":{"android":"levelo://app?vid=0483bfa3-11fd-4a1f-8173-f5ded1239110","ios":"levelo://app?vid=0483bfa3-11fd-4a1f-8173-f5ded1239110"},"vehicle_type_id":"4","last_reported":1730408959,"current_range_meters":38800,"station_id":"ce4bhi12rcd13ifvqfp0","pricing_plan_id":"cebpf4jnsgd1na2vs0mg"},{"bike_id":"b88053c0-3809-4101-8975-e0f82a1bcb5d","system_id":"levelo_inurba_marseille","lat":43.30876,"lon":5.39707,"is_reserved":false,"is_disabled":false,"rental_uris":{"android":"levelo://app?vid=b88053c0-3809-4101-8975-e0f82a1bcb5d","ios":"levelo://app?vid=b88053c0-3809-4101-8975-e0f82a1bcb5d"},"vehicle_type_id":"4","last_reported":1730408959,"current_range_meters":14400,"station_id":"","pricing_plan_id":"cebpf4jnsgd1na2vs0mg"},{"bike_id":"29f92c8b-8ec1-4088-aca1-e98f3f81596e","system_id":"levelo_inurba_marseille","lat":43.29969,"lon":5.37173,"is_reserved":false,"is_disabled":false,"rental_uris":{"android":"levelo://app?vid=29f92c8b-8ec1-4088-aca1-e98f3f81596e","ios":"levelo://app?vid=29f92c8b-8ec1-4088-aca1-e98f3f81596e"},"vehicle_type_id":"4","last_reported":1730408959,"current_range_meters":10800,"station_id":"ce4bgr92rcd13ifvqc7g","pricing_plan_id":"cebpf4jnsgd1na2vs0mg"},{"bike_id":"387bab51-ba9b-43a4-a6c6-76941e2ed3d4","system_id":"levelo_inurba_marseille","lat":43.28744,"lon":5.38885,"is_reserved":false,"is_disabled":false,"rental_uris":{"android":"levelo://app?vid=387bab51-ba9b-43a4-a6c6-76941e2ed3d4","ios":"levelo://app?vid=387bab51-ba9b-43a4-a6c6-76941e2ed3d4"},"vehicle_type_id":"4","last_reported":1730408959,"current_range_meters":24400,"station_id":"","pricing_plan_id":"cebpf4jnsgd1na2vs0mg"},{"bike_id":"9f1cdd3f-af35-4b6f-9e2b-d6ad2275c7bb","system_id":"levelo_inurba_marseille","lat":43.29702,"lon":5.36612,"is_reserved":false,"is_disabled":false,"rental_uris":{"android":"levelo://app?vid=9f1cdd3f-af35-4b6f-9e2b-d6ad2275c7bb","ios":"levelo://app?vid=9f1cdd3f-af35-4b6f-9e2b-d6ad2275c7bb"},"vehicle_type_id":"4","last_reported":1730408959,"current_range_meters":38800,"station_id":"ce4bgn12rcd13ifvqbt0","pricing_plan_id":"cebpf4jnsgd1na2vs0mg"},{"bike_id":"c6bf5478-8cbd-4f9f-84c9-d44a8b59f18f","system_id":"levelo_inurba_marseille","lat":43.27425,"lon":5.39409,"is_reserved":false,"is_disabled":false,"rental_uris":{"android":"levelo://app?vid=c6bf5478-8cbd-4f9f-84c9-d44a8b59f18f","ios":"levelo://app?vid=c6bf5478-8cbd-4f9f-84c9-d44a8b59f18f"},"vehicle_type_id":"4","last_reported":1730408959,"current_range_meters":18000,"station_id":"ce4bhdp2rcd13ifvqf20","pricing_plan_id":"cebpf4jnsgd1na2vs0mg"},{"bike_id":"f5beaaad-8417-4e05-9e45-532f96b8c7bf","system_id":"levelo_inurba_marseille","lat":43.30413,"lon":5.4128,"is_reserved":false,"is_disabled":false,"rental_uris":{"android":"levelo://app?vid=f5beaaad-8417-4e05-9e45-532f96b8c7bf","ios":"levelo://app?vid=f5beaaad-8417-4e05-9e45-532f96b8c7bf"},"vehicle_type_id":"4","last_reported":1730408959,"current_range_meters":39200,"station_id":"ce4bhop2rcd13ifvqh8g","pricing_plan_id":"cebpf4jnsgd1na2vs0mg"},{"bike_id":"d340b87d-120d-4b31-a661-4c0f2830defb","system_id":"levelo_inurba_marseille","lat":43.26953,"lon":5.38623,"is_reserved":false,"is_disabled":false,"rental_uris":{"android":"levelo://app?vid=d340b87d-120d-4b31-a661-4c0f2830defb","ios":"levelo://app?vid=d340b87d-120d-4b31-a661-4c0f2830defb"},"vehicle_type_id":"4","last_reported":1730408959,"current_range_meters":24000,"station_id":"ce4bhh92rcd13ifvqfh0","pricing_plan_id":"cebpf4jnsgd1na2vs0mg"},{"bike_id":"39254036-8dab-42d4-a48c-ef03b45f29f6","system_id":"levelo_inurba_marseille","lat":43.2942,"lon":5.38609,"is_reserved":false,"is_disabled":false,"rental_uris":{"android":"levelo://app?vid=39254036-8dab-42d4-a48c-ef03b45f29f6","ios":"levelo://app?vid=39254036-8dab-42d4-a48c-ef03b45f29f6"},"vehicle_type_id":"4","last_reported":1730408959,"current_range_meters":30800,"station_id":"ce4bh2h2rcd13ifvqdh0","pricing_plan_id":"cebpf4jnsgd1na2vs0mg"},{"bike_id":"e9d3150f-98f4-4575-b054-4356898d307f","system_id":"levelo_inurba_marseille","lat":43.29268,"lon":5.36843,"is_reserved":false,"is_disabled":false,"rental_uris":{"android":"levelo://app?vid=e9d3150f-98f4-4575-b054-4356898d307f","ios":"levelo://app?vid=e9d3150f-98f4-4575-b054-4356898d307f"},"vehicle_type_id":"4","last_reported":1730408959,"current_range_meters":15200,"station_id":"ce4bhbp2rcd13ifvqesg","pricing_plan_id":"cebpf4jnsgd1na2vs0mg"},{"bike_id":"d847b23d-1904-4659-9268-325fc36a5e1d","system_id":"levelo_inurba_marseille","lat":43.29521,"lon":5.39041,"is_reserved":false,"is_disabled":false,"rental_uris":{"android":"levelo://app?vid=d847b23d-1904-4659-9268-325fc36a5e1d","ios":"levelo://app?vid=d847b23d-1904-4659-9268-325fc36a5e1d"},"vehicle_type_id":"4","last_reported":1730408959,"current_range_meters":36000,"station_id":"ce4bh3p2rcd13ifvqdp0","pricing_plan_id":"cebpf4jnsgd1na2vs0mg"},{"bike_id":"788398bf-d68b-495e-9f23-a708ccb9a0e1","system_id":"levelo_inurba_marseille","lat":43.27428,"lon":5.39412,"is_reserved":false,"is_disabled":false,"rental_uris":{"android":"levelo://app?vid=788398bf-d68b-495e-9f23-a708ccb9a0e1","ios":"levelo://app?vid=788398bf-d68b-495e-9f23-a708ccb9a0e1"},"vehicle_type_id":"4","last_reported":1730408959,"current_range_meters":10800,"station_id":"ce4bhdp2rcd13ifvqf20","pricing_plan_id":"cebpf4jnsgd1na2vs0mg"},{"bike_id":"66d4c408-af87-49f5-a33c-fbbbea3067df","system_id":"levelo_inurba_marseille","lat":43.3006,"lon":5.38086,"is_reserved":false,"is_disabled":false,"rental_uris":{"android":"levelo://app?vid=66d4c408-af87-49f5-a33c-fbbbea3067df","ios":"levelo://app?vid=66d4c408-af87-49f5-a33c-fbbbea3067df"},"vehicle_type_id":"4","last_reported":1730408959,"current_range_meters":2800,"station_id":"","pricing_plan_id":"cebpf4jnsgd1na2vs0mg"},{"bike_id":"ed279d38-b7eb-4b14-96b9-94c615824290","system_id":"levelo_inurba_marseille","lat":43.23189,"lon":5.35545,"is_reserved":false,"is_disabled":false,"rental_uris":{"android":"levelo://app?vid=ed279d38-b7eb-4b14-96b9-94c615824290","ios":"levelo://app?vid=ed279d38-b7eb-4b14-96b9-94c615824290"},"vehicle_type_id":"4","last_reported":1730408959,"current_range_meters":18800,"station_id":"ce4bhu92rcd13ifvqi70","pricing_plan_id":"cebpf4jnsgd1na2vs0mg"},