{"last_updated":1702364805,"ttl":30,"version":"2.2","data":{"bikes":[{"bike_id":"225995f4-8a71-478f-a276-8977d37a3f7c","system_id":"levelo_inurba_marseille","lat":43.313391,"lon":5.36706,"is_reserved":false,"is_disabled":false,"rental_uris":{"android":"levelo://app?vid=225995f4-8a71-478f-a276-8977d37a3f7c","ios":"levelo://app?vid=225995f4-8a71-478f-a276-8977d37a3f7c"},"vehicle_type_id":"4","last_reported":1702364806,"current_range_meters":25600,"station_id":"ce4bgr92rcd13ifvqc6g","pricing_plan_id":"free"},{"bike_id":"91a6ad9b-fb43-467f-8fb1-c151b8833ea0","system_id":"levelo_inurba_marseille","lat":43.31341,"lon":5.367098,"is_reserved":false,"is_disabled":false,"rental_uris":{"android":"levelo://app?vid=91a6ad9b-fb43-467f-8fb1-c151b8833ea0","ios":"levelo://app?vid=91a6ad9b-fb43-467f-8fb1-c151b8833ea0"},"vehicle_type_id":"4","last_reported":1702364806,"current_range_meters":25200,"station_id":"ce4bgr92rcd13ifvqc6g","pricing_plan_id":"free"},{"bike_id":"002cfb12-6112-4936-a860-5e8ece7463a3","system_id":"levelo_inurba_marseille","lat":43.31341,"lon":5.367098,"is_reserved":false,"is_disabled":false,"rental_uris":{"android":"levelo://app?vid=002cfb12-6112-4936-a860-5e8ece7463a3","ios":"levelo://app?vid=002cfb12-6112-4936-a860-5e8ece7463a3"},"vehicle_type_id":"4","last_reported":1702364806,"current_range_meters":28400,"station_id":"ce4bgr92rcd13ifvqc6g","pricing_plan_id":"free"},{"bike_id":"4ec64812-5165-45fe-8267-26b564a468c1","system_id":"levelo_inurba_marseille","lat":43.312239,"lon":5.368562,"is_reserved":false,"is_disabled":false,"rental_uris":{"android":"levelo://app?vid=4ec64812-5165-45fe-8267-26b564a468c1","ios":"levelo://app?vid=4ec64812-5165-45fe-8267-26b564a468c1"},"vehicle_type_id":"4","last_reported":1702364806,"current_range_meters":28000,"station_id":"ce4bgl92rcd13ifvqbq0","pricing_plan_id":"free"},{"bike_id":"219abbba-eb24-4bc8-9e62-03493abfac90","system_id":"levelo_inurba_marseille","lat":43.309076,"lon":5.368465,"is_reserved":false,"is_disabled":false,"rental_uris":{"android":"levelo://app?vid=219abbba-eb24-4bc8-9e62-03493abfac90","ios":"levelo://app?vid=219abbba-eb24-4bc8-9e62-03493abfac90"},"vehicle_type_id":"4","last_reported":1702364806,"current_range_meters":22800,"station_id":"ce4bgn92rcd13ifvqbvg","pricing_plan_id":"free"},{"bike_id":"e6d78cf9-efe4-4352-90d8-877c8aa34277","system_id":"levelo_inurba_marseille","lat":43.309039,"lon":5.371797,"is_reserved":false,"is_disabled":false,"rental_uris":{"android":"levelo://app?vid=e6d78cf9-efe4-4352-90d8-877c8aa34277","ios":"levelo://app?vid=e6d78cf9-efe4-4352-90d8-877c8aa34277"},"vehicle_type_id":"4","last_reported":1702364806,"current_range_meters":27600,"station_id":"ce4bguh2rcd13ifvqckg","pricing_plan_id":"free"},{"bike_id":"f36debdb-6bea-4678-967a-886219dbe8b9","system_id":"levelo_inurba_marseille","lat":43.305393,"lon":5.36699,"is_reserved":false,"is_disabled":false,"rental_uris":{"android":"levelo://app?vid=f36debdb-6bea-4678-967a-886219dbe8b9","ios":"levelo://app?vid=f36debdb-6bea-4678-967a-886219dbe8b9"},"vehicle_type_id":"4","last_reported":1702364806,"current_range_meters":400,"station_id":"ce4bgrp2rcd13ifvqc9g","pricing_plan_id":"free"},{"bike_id":"d8f7381c-759f-4f1a-810e-4cefc259f41c","system_id":"levelo_inurba_marseille","lat":43.303046,"lon":5.368981,"is_reserved":false,"is_disabled":false,"rental_uris":{"android":"levelo://app?vid=d8f7381c-759f-4f1a-810e-4cefc259f41c","ios":"levelo://app?vid=d8f7381c-759f-4f1a-810e-4cefc259f41c"},"vehicle_type_id":"4","last_reported":1702364806,"current_range_meters":27200,"station_id":"ce4bgqh2rcd13ifvqc5g","pricing_plan_id":"free"},{"bike_id":"e7955019-68bc-4994-92b1-4ced93107a44","system_id":"levelo_inurba_marseille","lat":43.303046,"lon":5.368981,"is_reserved":false,"is_disabled":false,"rental_uris":{"android":"levelo://app?vid=e7955019-68bc-4994-92b1-4ced93107a44","ios":"levelo://app?vid=e7955019-68bc-4994-92b1-4ced93107a44"},"vehicle_type_id":"4","last_reported":1702364806,"current_range_meters":22800,"station_id":"ce4bgqh2rcd13ifvqc5g","pricing_plan_id":"free"},{"bike_id":"a85301cc-bf4e-4ff5-9bd1-dec0877e1300","system_id":"levelo_inurba_marseille","lat":43.30304,"lon":5.368987,"is_reserved":false,"is_disabled":false,"rental_uris":{"android":"levelo://app?vid=a85301cc-bf4e-4ff5-9bd1-dec0877e1300","ios":"levelo://app?vid=a85301cc-bf4e-4ff5-9bd1-dec0877e1300"},"vehicle_type_id":"4","last_reported":1702364806,"current_range_meters":30400,"station_id":"ce4bgqh2rcd13ifvqc5g","pricing_plan_id":"free"},{"bike_id":"b5a3a01d-23f4-4f3d-bc45-2b474cf15b05","system_id":"levelo_inurba_marseille","lat":43.303046,"lon":5.368981,"is_reserved":false,"is_disabled":false,"rental_uris":{"android":"levelo://app?vid=b5a3a01d-23f4-4f3d-bc45-2b474cf15b05","ios":"levelo://app?vid=b5a3a01d-23f4-4f3d-bc45-2b474cf15b05"},"vehicle_type_id":"4","last_reported":1702364806,"current_range_meters":13200,"station_id":"ce4bgqh2rcd13ifvqc5g","pricing_plan_id":"free"},{"bike_id":"ecd17677-d03c-474b-a8e1-e1e08a75ccbb","system_id":"levelo_inurba_marseille","lat":43.315293,"lon":5.380349,"is_reserved":false,"is_disabled":false,"rental_uris":{"android":"levelo://app?vid=ecd17677-d03c-474b-a8e1-e1e08a75ccbb","ios":"levelo://app?vid=ecd17677-d03c-474b-a8e1-e1e08a75ccbb"},"vehicle_type_id":"4","last_reported":1702364806,"current_range_meters":23200,"station_id":"ce4bhsp2rcd13ifvqi50","pricing_plan_id":"free"},{"bike_id":"befd3a4b-b7ef-49be-abca-3f175ca7482b","system_id":"levelo_inurba_marseille","lat":43.301939,"lon":5.366286,"is_reserved":false,"is_disabled":false,"rental_uris":{"android":"levelo://app?vid=befd3a4b-b7ef-49be-abca-3f175ca7482b","ios":"levelo://app?vid=befd3a4b-b7ef-49be-abca-3f175ca7482b"},"vehicle_type_id":"4","last_reported":1702364806,"current_range_meters":22400,"station_id":"ce4bgrh2rcd13ifvqc8g","pricing_plan_id":"free"},{"bike_id":"27ca4643-898d-4953-adb5-82dc04113679","system_id":"levelo_inurba_marseille","lat":43.304606,"lon":5.379026,"is_reserved":false,"is_disabled":false,"rental_uris":{"android":"levelo://app?vid=27ca4643-898d-4953-adb5-82dc04113679","ios":"levelo://app?vid=27ca4643-898d-4953-adb5-82dc04113679"},"vehicle_type_id":"4","last_reported":1702364806,"current_range_meters":25200,"station_id":"ce4bgup2rcd13ifvqcn0","pricing_plan_id":"free"},{"bike_id":"911e8dc9-a87e-4f38-bac3-17dc37d0133a","system_id":"levelo_inurba_marseille","lat":43.304809,"lon":5.379011,"is_reserved":false,"is_disabled":false,"rental_uris":{"android":"levelo://app?vid=911e8dc9-a87e-4f38-bac3-17dc37d0133a","ios":"levelo://app?vid=911e8dc9-a87e-4f38-bac3-17dc37d0133a"},"vehicle_type_id":"4","last_reported":1702364806,"current_range_meters":25600,"station_id":"ce4bgup2rcd13ifvqcn0","pricing_plan_id":"free"},{"bike_id":"9e95db9f-c5c5-481b-895c-b18043ba8ff8","system_id":"levelo_inurba_marseille","lat":43.304606,"lon":5.379026,"is_reserved":false,"is_disabled":false,"rental_uris":{"android":"levelo://app?vid=9e95db9f-c5c5-481b-895c-b18043ba8ff8","ios":"levelo://app?vid=9e95db9f-c5c5-481b-895c-b18043ba8ff8"},"vehicle_type_id":"4","last_reported":1702364806,"current_range_meters":24400,"station_id":"ce4bgup2rcd13ifvqcn0","pricing_plan_id":"free"},{"bike_id":"1e64d7b0-f3b4-45d6-925b-ae157ff51089","system_id":"levelo_inurba_marseille","lat":43.30464,"lon":5.37902,"is_reserved":false,"is_disabled":false,"rental_uris":{"android":"levelo://app?vid=1e64d7b0-f3b4-45d6-925b-ae157ff51089","ios":"levelo://app?vid=1e64d7b0-f3b4-45d6-925b-ae157ff51089"},"vehicle_type_id":"4","last_reported":1702364806,"current_range_meters":6400,"station_id":"ce4bgup2rcd13ifvqcn0","pricing_plan_id":"free"},{"bike_id":"b2b5dcc9-6699-402a-bccd-ca4069e41154","system_id":"levelo_inurba_marseille","lat":43.304606,"lon":5.379026,"is_reserved":false,"is_disabled":false,"rental_uris":{"android":"levelo://app?vid=b2b5dcc9-6699-402a-bccd-ca4069e41154","ios":"levelo://app?vid=b2b5dcc9-6699-402a-bccd-ca4069e41154"},"vehicle_type_id":"4","last_reported":1702364806,"current_range_meters":17200,"station_id":"ce4bgup2rcd13ifvqcn0","pricing_plan_id":"free"},{"bike_id":"85932e06-8b89-44e9-a9a2-e10e4f68998e","system_id":"levelo_inurba_marseille","lat":43.304606,"lon":5.379026,"is_reserved":false,"is_disabled":false,"rental_uris":{"android":"levelo://app?vid=85932e06-8b89-44e9-a9a2-e10e4f68998e","ios":"levelo://app?vid=85932e06-8b89-44e9-a9a2-e10e4f68998e"},"vehicle_type_id":"4","last_reported":1702364806,"current_range_meters":2000,"station_id":"ce4bgup2rcd13ifvqcn0","pricing_plan_id":"free"},{"bike_id":"dde576eb-e7df-4296-843a-b445a493cc96","system_id":"levelo_inurba_marseille","lat":43.304606,"lon":5.379026,"is_reserved":false,"is_disabled":false,"rental_uris":{"android":"levelo://app?vid=dde576eb-e7df-4296-843a-b445a493cc96","ios":"levelo://app?vid=dde576eb-e7df-4296-843a-b445a493cc96"},"vehicle_type_id":"4","last_reported":1702364806,"current_range_meters":18800,"station_id":"ce4bgup2rcd13ifvqcn0","pricing_plan_id":"free"},{"bike_id":"f5c15af1-3f9d-4473-9ad7-de87aa774007","system_id":"levelo_inurba_marseille","lat":43.304606,"lon":5.379026,"is_reserved":false,"is_disabled":false,"rental_uris":{"android":"levelo://app?vid=f5c15af1-3f9d-4473-9ad7-de87aa774007","ios":"levelo://app?vid=f5c15af1-3f9d-4473-9ad7-de87aa774007"},"vehicle_type_id":"4","last_reported":1702364806,"current_range_meters":28400,"station_id":"ce4bgup2rcd13ifvqcn0","pricing_plan_id":"free"},{"bike_id":"872b2ecb-bc0b-43b8-ae42-a0174018d0d8","system_id":"levelo_inurba_marseille","lat":43.324771,"lon":5.36557,"is_reserved":false,"is_disabled":false,"rental_uris":{"android":"levelo://app?vid=872b2ecb-bc0b-43b8-ae42-a0174018d0d8","ios":"levelo://app?vid=872b2ecb-bc0b-43b8-ae42-a0174018d0d8"},"vehicle_type_id":"4","last_reported":1702364806,"current_range_meters":10000,"station_id":"ce4bhs12rcd13ifvqhvg","pricing_plan_id":"free"},{"bike_id":"0e5c40e8-ebed-4931-83fe-85dba49e1364","system_id":"levelo_inurba_marseille","lat":43.302784,"lon":5.377158,"is_reserved":false,"is_disabled":false,"rental_uris":{"android":"levelo://app?vid=0e5c40e8-ebed-4931-83fe-85dba49e1364","ios":"levelo://app?vid=0e5c40e8-ebed-4931-83fe-85dba49e1364"},"vehicle_type_id":"4","last_reported":1702364806,"current_range_meters":24400,"station_id":"ce4bguh2rcd13ifvqcj0","pricing_plan_id":"free"},{"bike_id":"bf328cdb-3616-4bbc-9a86-5e6722baa687","system_id":"levelo_inurba_marseille","lat":43.299222,"lon":5.365554,"is_reserved":false,"is_disabled":false,"rental_uris":{"android":"levelo://app?vid=bf328cdb-3616-4bbc-9a86-5e6722baa687","ios":"levelo://app?vid=bf328cdb-3616-4bbc-9a86-5e6722baa687"},"vehicle_type_id":"4","last_reported":1702364806,"current_range_meters":26000,"station_id":"ce4bgm92rcd13ifvqbr0","pricing_plan_id":"free"},{"bike_id":"dab1af27-edcd-472f-826d-1218f0a3a71c","system_id":"levelo_inurba_marseille","lat":43.32826,"lon":5.36687,"is_reserved":false,"is_disabled":false,"rental_uris":{"android":"levelo://app?vid=dab1af27-edcd-472f-826d-1218f0a3a71c","ios":"levelo://app?vid=dab1af27-edcd-472f-826d-1218f0a3a71c"},"vehicle_type_id":"4","last_reported":1702364806,"current_range_meters":10800,"station_id":"ce4bhs92rcd13ifvqi0g","pricing_plan_id":"free"},{"bike_id":"39ee9a89-500c-428a-984f-632f4eb66c7b","system_id":"levelo_inurba_marseille","lat":43.328371,"lon":5.366909,"is_reserved":false,"is_disabled":false,"rental_uris":{"android":"levelo://app?vid=39ee9a89-500c-428a-984f-632f4eb66c7b","ios":"levelo://app?vid=39ee9a89-500c-428a-984f-632f4eb66c7b"},"vehicle_type_id":"4","last_reported":1702364806,"current_range_meters":17600,"station_id":"ce4bhs92rcd13ifvqi0g","pricing_plan_id":"free"},{"bike_id":"236e90fe-0390-4322-aa62-124d371d9448","system_id":"levelo_inurba_marseille","lat":43.31517,"lon":5.38926,"is_reserved":false,"is_disabled":false,"rental_uris":{"android":"levelo://app?vid=236e90fe-0390-4322-aa62-124d371d9448","ios":"levelo://app?vid=236e90fe-0390-4322-aa62-124d371d9448"},"vehicle_type_id":"4","last_reported":1702364806,"current_range_meters":31200,"station_id":"","pricing_plan_id":"free"},{"bike_id":"fac79c9c-20dc-428c-82b6-e71d1be5d73e","system_id":"levelo_inurba_marseille","lat":43.2981,"lon":5.38093,"is_reserved":false,"is_disabled":false,"rental_uris":{"android":"levelo://app?vid=fac79c9c-20dc-428c-82b6-e71d1be5d73e","ios":"levelo://app?vid=fac79c9c-20dc-428c-82b6-e71d1be5d73e"},"vehicle_type_id":"4","last_reported":1702364806,"current_range_meters":3200,"station_id":"ce4bgip2rcd13ifvqbb0","pricing_plan_id":"free"},{"bike_id":"5b9b59a4-f40b-49dd-94cd-96b64e319ee1","system_id":"levelo_inurba_marseille","lat":43.298037,"lon":5.381066,"is_reserved":false,"is_disabled":false,"rental_uris":{"android":"levelo://app?vid=5b9b59a4-f40b-49dd-94cd-96b64e319ee1","ios":"levelo://app?vid=5b9b59a4-f40b-49dd-94cd-96b64e319ee1"},"vehicle_type_id":"4","last_reported":1702364806,"current_range_meters":17200,"station_id":"ce4bgip2rcd13ifvqbb0","pricing_plan_id":"free"},{"bike_id":"db80219d-4acb-4e81-8d44-5a065f680ecd","system_id":"levelo_inurba_marseille","lat":43.298037,"lon":5.381066,"is_reserved":false,"is_disabled":false,"rental_uris":{"android":"levelo://app?vid=db80219d-4acb-4e81-8d44-5a065f680ecd","ios":"levelo://app?vid=db80219d-4acb-4e81-8d44-5a065f680ecd"},"vehicle_type_id":"4","last_reported":1702364806,"current_range_meters":31200,"station_id":"ce4bgip2rcd13ifvqbb0","pricing_plan_id":"free"},{"bike_id":"d3e0c626-36cc-4a1a-ba7a-066a67bf1f49","system_id":"levelo_inurba_marseille","lat":43.295279,"lon":5.375048,"is_reserved":false,"is_disabled":false,"rental_uris":{"android":"levelo://app?vid=d3e0c626-36cc-4a1a-ba7a-066a67bf1f49","ios":"levelo://app?vid=d3e0c626-36cc-4a1a-ba7a-066a67bf1f49"},"vehicle_type_id":"4","last_reported":1702364806,"current_range_meters":26800,"station_id":"ce4bgkp2rcd13ifvqbmg","pricing_plan_id":"free"},{"bike_id":"77a6c46d-d898-4e4f-8846-efa91689c7f0","system_id":"levelo_inurba_marseille","lat":43.295503,"lon":5.379268,"is_reserved":false,"is_disabled":false,"rental_uris":{"android":"levelo://app?vid=77a6c46d-d898-4e4f-8846-efa91689c7f0","ios":"levelo://app?vid=77a6c46d-d898-4e4f-8846-efa91689c7f0"},"vehicle_type_id":"4","last_reported":1702364806,"current_range_meters":0,"station_id":"","pricing_plan_id":"free"},{"bike_id":"c3aa20f8-4df5-4be0-a190-304ef886da1e","system_id":"levelo_inurba_marseille","lat":43.29277,"lon":5.36841,"is_reserved":false,"is_disabled":false,"rental_uris":{"android":"levelo://app?vid=c3aa20f8-4df5-4be0-a190-304ef886da1e","ios":"levelo://app?vid=c3aa20f8-4df5-4be0-a190-304ef886da1e"},"vehicle_type_id":"4","last_reported":1702364806,"current_range_meters":16400,"station_id":"ce4bhbp2rcd13ifvqesg","pricing_plan_id":"free"},{"bike_id":"993e3663-8aa8-4c89-a3b8-bda99d4f15d6","system_id":"levelo_inurba_marseille","lat":43.30604,"lon":5.39352,"is_reserved":false,"is_disabled":false,"rental_uris":{"android":"levelo://app?vid=993e3663-8aa8-4c89-a3b8-bda99d4f15d6","ios":"levelo://app?vid=993e3663-8aa8-4c89-a3b8-bda99d4f15d6"},"vehicle_type_id":"4","last_reported":1702364806,"current_range_meters":30400,"station_id":"ce4bh0p2rcd13ifvqd80","pricing_plan_id":"free"},{"bike_id":"567fa8c3-68f9-45dc-94bb-492f8c45fc9f","system_id":"levelo_inurba_marseille","lat":43.293009,"lon":5.374584,"is_reserved":false,"is_disabled":false,"rental_uris":{"android":"levelo://app?vid=567fa8c3-68f9-45dc-94bb-492f8c45fc9f","ios":"levelo://app?vid=567fa8c3-68f9-45dc-94bb-492f8c45fc9f"},"vehicle_type_id":"4","last_reported":1702364806,"current_range_meters":22800,"station_id":"ce4bgi12rcd13ifvqb70","pricing_plan_id":"free"},{"bike_id":"066657c7-0b26-4492-918f-497b80218928","system_id":"levelo_inurba_marseille","lat":43.30602,"lon":5.3936,"is_reserved":false,"is_disabled":false,"rental_uris":{"android":"levelo://app?vid=066657c7-0b26-4492-918f-497b80218928","ios":"levelo://app?vid=066657c7-0b26-4492-918f-497b80218928"},"vehicle_type_id":"4","last_reported":1702364806,"current_range_meters":25600,"station_id":"ce4bh0p2rcd13ifvqd80","pricing_plan_id":"free"},{"bike_id":"79f36a7a-c67e-49d9-8621-9a5e25641ac8","system_id":"levelo_inurba_marseille","lat":43.292311,"lon":5.360731,"is_reserved":false,"is_disabled":false,"rental_uris":{"android":"levelo://app?vid=79f36a7a-c67e-49d9-8621-9a5e25641ac8","ios":"levelo://app?vid=79f36a7a-c67e-49d9-8621-9a5e25641ac8"},"vehicle_type_id":"4","last_reported":1702364806,"current_range_meters":27200,"station_id":"ce4bhbh2rcd13ifvqeqg","pricing_plan_id":"free"},{"bike_id":"ca4e135c-886c-4148-ae09-abe9471e060c","system_id":"levelo_inurba_marseille","lat":43.292311,"lon":5.360731,"is_reserved":false,"is_disabled":false,"rental_uris":{"android":"levelo://app?vid=ca4e135c-886c-4148-ae09-abe9471e060c","ios":"levelo://app?vid=ca4e135c-886c-4148-ae09-abe9471e060c"},"vehicle_type_id":"4","last_reported":1702364806,"current_range_meters":30800,"station_id":"ce4bhbh2rcd13ifvqeqg","pricing_plan_id":"free"},{"bike_id":"cd52e4d8-55b2-4cf6-8bde-24811ac4dfa2","system_id":"levelo_inurba_marseille","lat":43.292663,"lon":5.376394,"is_reserved":false,"is_disabled":false,"rental_uris":{"android":"levelo://app?vid=cd52e4d8-55b2-4cf6-8bde-24811ac4dfa2","ios":"levelo://app?vid=cd52e4d8-55b2-4cf6-8bde-24811ac4dfa2"},"vehicle_type_id":"4","last_reported":1702364806,"current_range_meters":5200,"station_id":"ce4bgi12rcd13ifvqb80","pricing_plan_id":"free"},{"bike_id":"68b56337-401a-4e1e-9f69-7b6fcdf075b4","system_id":"levelo_inurba_marseille","lat":43.291671,"lon":5.371575,"is_reserved":false,"is_disabled":false,"rental_uris":{"android":"levelo://app?vid=68b56337-401a-4e1e-9f69-7b6fcdf075b4","ios":"levelo://app?vid=68b56337-401a-4e1e-9f69-7b6fcdf075b4"},"vehicle_type_id":"4","last_reported":1702364806,"current_range_meters":28000,"station_id":"ce4bha92rcd13ifvqeh0","pricing_plan_id":"free"},{"bike_id":"369c96ba-9372-435f-a773-d7d916c7a3c1","system_id":"levelo_inurba_marseille","lat":43.29164,"lon":5.37153,"is_reserved":false,"is_disabled":false,"rental_uris":{"android":"levelo://app?vid=369c96ba-9372-435f-a773-d7d916c7a3c1","ios":"levelo://app?vid=369c96ba-9372-435f-a773-d7d916c7a3c1"},"vehicle_type_id":"4","last_reported":1702364806,"current_range_meters":22800,"station_id":"ce4bha92rcd13ifvqeh0","pricing_plan_id":"free"},{"bike_id":"c9db6af3-0a9e-4ba2-8e4e-eb12c2738226","system_id":"levelo_inurba_marseille","lat":43.29195,"lon":5.3581,"is_reserved":false,"is_disabled":false,"rental_uris":{"android":"levelo://app?vid=c9db6af3-0a9e-4ba2-8e4e-eb12c2738226","ios":"levelo://app?vid=c9db6af3-0a9e-4ba2-8e4e-eb12c2738226"},"vehicle_type_id":"4","last_reported":1702364806,"current_range_meters":28400,"station_id":"ce4bhb12rcd13ifvqel0","pricing_plan_id":"free"},{"bike_id":"26b02188-8df0-4457-af35-d16766a967e8","system_id":"levelo_inurba_marseille","lat":43.29529,"lon":5.385581,"is_reserved":false,"is_disabled":false,"rental_uris":{"android":"levelo://app?vid=26b02188-8df0-4457-af35-d16766a967e8","ios":"levelo://app?vid=26b02188-8df0-4457-af35-d16766a967e8"},"vehicle_type_id":"4","last_reported":1702364806,"current_range_meters":800,"station_id":"ce4bgih2rcd13ifvqba0","pricing_plan_id":"free"},{"bike_id":"c66444ab-5f60-4436-9fd6-c05e5a55e8c4","system_id":"levelo_inurba_marseille","lat":43.290779,"lon":5.371482,"is_reserved":false,"is_disabled":false,"rental_uris":{"android":"levelo://app?vid=c66444ab-5f60-4436-9fd6-c05e5a55e8c4","ios":"levelo://app?vid=c66444ab-5f60-4436-9fd6-c05e5a55e8c4"},"vehicle_type_id":"4","last_reported":1702364806,"current_range_meters":21600,"station_id":"ce4bh5p2rcd13ifvqe4g","pricing_plan_id":"free"},{"bike_id":"c8233256-9c5b-47de-a8aa-5a30c6528a46","system_id":"levelo_inurba_marseille","lat":43.302193,"lon":5.394347,"is_reserved":false,"is_disabled":false,"rental_uris":{"android":"levelo://app?vid=c8233256-9c5b-47de-a8aa-5a30c6528a46","ios":"levelo://app?vid=c8233256-9c5b-47de-a8aa-5a30c6528a46"},"vehicle_type_id":"4","last_reported":1702364806,"current_range_meters":22000,"station_id":"ce4bh0p2rcd13ifvqd70","pricing_plan_id":"free"},{"bike_id":"0ae5c055-3e0c-44b0-a3a3-cdfe042b2148","system_id":"levelo_inurba_marseille","lat":43.302157,"lon":5.394639,"is_reserved":false,"is_disabled":false,"rental_uris":{"android":"levelo://app?vid=0ae5c055-3e0c-44b0-a3a3-cdfe042b2148","ios":"levelo://app?vid=0ae5c055-3e0c-44b0-a3a3-cdfe042b2148"},"vehicle_type_id":"4","last_reported":1702364806,"current_range_meters":29600,"station_id":"ce4bh0p2rcd13ifvqd70","pricing_plan_id":"free"},{"bike_id":"f2e74fc9-815b-4465-a078-ef5cc4775cca","system_id":"levelo_inurba_marseille","lat":43.302008,"lon":5.394694,"is_reserved":false,"is_disabled":false,"rental_uris":{"android":"levelo://app?vid=f2e74fc9-815b-4465-a078-ef5cc4775cca","ios":"levelo://app?vid=f2e74fc9-815b-4465-a078-ef5cc4775cca"},"vehicle_type_id":"4","last_reported":1702364806,"current_range_meters":12400,"station_id":"ce4bh0p2rcd13ifvqd70","pricing_plan_id":"free"},{"bike_id":"795d84d9-2703-456c-bad2-cff7c853dc76","system_id":"levelo_inurba_marseille","lat":43.30213,"lon":5.39469,"is_reserved":false,"is_disabled":false,"rental_uris":{"android":"levelo://app?vid=795d84d9-2703-456c-bad2-cff7c853dc76","ios":"levelo://app?vid=795d84d9-2703-456c-bad2-cff7c853dc76"},"vehicle_type_id":"4","last_reported":1702364806,"current_range_meters":6800,"station_id":"ce4bh0p2rcd13ifvqd70","pricing_plan_id":"free"},{"bike_id":"de1b65e4-37d7-42ff-aac6-851b697b01bb","system_id":"levelo_inurba_marseille","lat":43.289384,"lon":5.363978,"is_reserved":false,"is_disabled":false,"rental_uris":{"android":"levelo://app?vid=de1b65e4-37d7-42ff-aac6-851b697b01bb","ios":"levelo://app?vid=de1b65e4-37d7-42ff-aac6-851b697b01bb"},"vehicle_type_id":"4","last_reported":1702364806,"current_range_meters":28800,"station_id":"ce4bhc92rcd13ifvqetg","pricing_plan_id":"free"},{"bike_id":"0fb0a0c5-2505-42b4-8c2d-4ff5980ebea4","system_id":"levelo_inurba_marseille","lat":43.292644,"lon":5.384257,"is_reserved":false,"is_disabled":false,"rental_uris":{"android":"levelo://app?vid=0fb0a0c5-2505-42b4-8c2d-4ff5980ebea4","ios":"levelo://app?vid=0fb0a0c5-2505-42b4-8c2d-4ff5980ebea4"},"vehicle_type_id":"4","last_reported":1702364806,"current_range_meters":28400,"station_id":"ce4bh692rcd13ifvqea0","pricing_plan_id":"free"},{"bike_id":"02248679-509f-4b57-97bb-e9d71f1470fa","system_id":"levelo_inurba_marseille","lat":43.290103,"lon":5.356114,"is_reserved":false,"is_disabled":false,"rental_uris":{"android":"levelo://app?vid=02248679-509f-4b57-97bb-e9d71f1470fa","ios":"levelo://app?vid=02248679-509f-4b57-97bb-e9d71f1470fa"},"vehicle_type_id":"4","last_reported":1702364806,"current_range_meters":28800,"station_id":"ce4bhb92rcd13ifvqen0","pricing_plan_id":"free"},{"bike_id":"fd38a37e-7b7e-4309-91f2-038e24eb6f70","system_id":"levelo_inurba_marseille","lat":43.289741,"lon":5.378306,"is_reserved":false,"is_disabled":false,"rental_uris":{"android":"levelo://app?vid=fd38a37e-7b7e-4309-91f2-038e24eb6f70","ios":"levelo://app?vid=fd38a37e-7b7e-4309-91f2-038e24eb6f70"},"vehicle_type_id":"4","last_reported":1702364806,"current_range_meters":26400,"station_id":"ce4bh9p2rcd13ifvqed0","pricing_plan_id":"free"},{"bike_id":"76242541-0986-4026-8972-32d53f9e5c1b","system_id":"levelo_inurba_marseille","lat":43.295169,"lon":5.390426,"is_reserved":false,"is_disabled":false,"rental_uris":{"android":"levelo://app?vid=76242541-0986-4026-8972-32d53f9e5c1b","ios":"levelo://app?vid=76242541-0986-4026-8972-32d53f9e5c1b"},"vehicle_type_id":"4","last_reported":1702364806,"current_range_meters":19200,"station_id":"ce4bh3p2rcd13ifvqdp0","pricing_plan_id":"free"},{"bike_id":"01995af3-24ee-44af-98bd-0bb3d571ac31","system_id":"levelo_inurba_marseille","lat":43.28859,"lon":5.35863,"is_reserved":false,"is_disabled":false,"rental_uris":{"android":"levelo://app?vid=01995af3-24ee-44af-98bd-0bb3d571ac31","ios":"levelo://app?vid=01995af3-24ee-44af-98bd-0bb3d571ac31"},"vehicle_type_id":"4","last_reported":1702364806,"current_range_meters":17200,"station_id":"ce4bhb12rcd13ifvqem0","pricing_plan_id":"free"},{"bike_id":"9b6d28cd-ee0d-49c3-8499-c26c5fd7c4cd","system_id":"levelo_inurba_marseille","lat":43.2901,"lon":5.381269,"is_reserved":false,"is_disabled":false,"rental_uris":{"android":"levelo://app?vid=9b6d28cd-ee0d-49c3-8499-c26c5fd7c4cd","ios":"levelo://app?vid=9b6d28cd-ee0d-49c3-8499-c26c5fd7c4cd"},"vehicle_type_id":"4","last_reported":1702364806,"current_range_meters":26400,"station_id":"ce4bh4p2rcd13ifvqe1g","pricing_plan_id":"free"},{"bike_id":"e1115d16-a177-4b09-99f4-d84a7f0a9df4","system_id":"levelo_inurba_marseille","lat":43.337451,"lon":5.374669,"is_reserved":false,"is_disabled":false,"rental_uris":{"android":"levelo://app?vid=e1115d16-a177-4b09-99f4-d84a7f0a9df4","ios":"levelo://app?vid=e1115d16-a177-4b09-99f4-d84a7f0a9df4"},"vehicle_type_id":"4","last_reported":1702364806,"current_range_meters":24800,"station_id":"","pricing_plan_id":"free"},{"bike_id":"1ffa6cab-2192-4490-9617-61044011c6b1","system_id":"levelo_inurba_marseille","lat":43.337459,"lon":5.374687,"is_reserved":false,"is_disabled":false,"rental_uris":{"android":"levelo://app?vid=1ffa6cab-2192-4490-9617-61044011c6b1","ios":"levelo://app?vid=1ffa6cab-2192-4490-9617-61044011c6b1"},"vehicle_type_id":"4","last_reported":1702364806,"current_range_meters":17200,"station_id":"","pricing_plan_id":"free"},{"bike_id":"1a9123ca-1ac0-4cbb-b622-534f88bcae20","system_id":"levelo_inurba_marseille","lat":43.337513,"lon":5.374637,"is_reserved":false,"is_disabled":false,"rental_uris":{"android":"levelo://app?vid=1a9123ca-1ac0-4cbb-b622-534f88bcae20","ios":"levelo://app?vid=1a9123ca-1ac0-4cbb-b622-534f88bcae20"},"vehicle_type_id":"4","last_reported":1702364806,"current_range_meters":28000,"station_id":"","pricing_plan_id":"free"},{"bike_id":"d047cbcd-40e8-4493-9700-a648cf295fe1","system_id":"levelo_inurba_marseille","lat":43.337665,"lon":5.374295,"is_reserved":false,"is_disabled":false,"rental_uris":{"android":"levelo://app?vid=d047cbcd-40e8-4493-9700-a648cf295fe1","ios":"levelo://app?vid=d047cbcd-40e8-4493-9700-a648cf295fe1"},"vehicle_type_id":"4","last_reported":1702364806,"current_range_meters":26000,"station_id":"","pricing_plan_id":"free"},{"bike_id":"60f84eb0-2206-4e1b-94df-fd8c129930f0","system_id":"levelo_inurba_marseille","lat":43.337668,"lon":5.374343,"is_reserved":false,"is_disabled":false,"rental_uris":{"android":"levelo://app?vid=60f84eb0-2206-4e1b-94df-fd8c129930f0","ios":"levelo://app?vid=60f84eb0-2206-4e1b-94df-fd8c129930f0"},"vehicle_type_id":"4","last_reported":1702364806,"current_range_meters":12800,"station_id":"","pricing_plan_id":"free"},{"bike_id":"7bf6d96a-5372-4b84-9d8f-08f519dc2c0f","system_id":"levelo_inurba_marseille","lat":43.301117,"lon":5.398795,"is_reserved":false,"is_disabled":false,"rental_uris":{"android":"levelo://app?vid=7bf6d96a-5372-4b84-9d8f-08f519dc2c0f","ios":"levelo://app?vid=7bf6d96a-5372-4b84-9d8f-08f519dc2c0f"},"vehicle_type_id":"4","last_reported":1702364806,"current_range_meters":0,"station_id":"ce4bh0h2rcd13ifvqd40","pricing_plan_id":"free"},{"bike_id":"f885baa4-7246-424e-9229-28968d5f3bd3","system_id":"levelo_inurba_marseille","lat":43.301117,"lon":5.398795,"is_reserved":false,"is_disabled":false,"rental_uris":{"android":"levelo://app?vid=f885baa4-7246-424e-9229-28968d5f3bd3","ios":"levelo://app?vid=f885baa4-7246-424e-9229-28968d5f3bd3"},"vehicle_type_id":"4","last_reported":1702364806,"current_range_meters":29200,"station_id":"ce4bh0h2rcd13ifvqd40","pricing_plan_id":"free"},{"bike_id":"17a3fc3d-4b9f-4858-97cd-29323e5ef5a7","system_id":"levelo_inurba_marseille","lat":43.286591,"lon":5.363346,"is_reserved":false,"is_disabled":false,"rental_uris":{"android":"levelo://app?vid=17a3fc3d-4b9f-4858-97cd-29323e5ef5a7","ios":"levelo://app?vid=17a3fc3d-4b9f-4858-97cd-29323e5ef5a7"},"vehicle_type_id":"4","last_reported":1702364806,"current_range_meters":31200,"station_id":"ce4bhah2rcd13ifvqej0","pricing_plan_id":"free"},{"bike_id":"5ff2ce23-174a-47ff-b0fc-a63cfa86c4a9","system_id":"levelo_inurba_marseille","lat":43.298681,"lon":5.397225,"is_reserved":false,"is_disabled":false,"rental_uris":{"android":"levelo://app?vid=5ff2ce23-174a-47ff-b0fc-a63cfa86c4a9","ios":"levelo://app?vid=5ff2ce23-174a-47ff-b0fc-a63cfa86c4a9"},"vehicle_type_id":"4","last_reported":1702364806,"current_range_meters":24800,"station_id":"ce4bh0h2rcd13ifvqd50","pricing_plan_id":"free"},{"bike_id":"a18f4fdc-27db-463a-816d-7a4bbdba1d64","system_id":"levelo_inurba_marseille","lat":43.302759,"lon":5.400793,"is_reserved":false,"is_disabled":false,"rental_uris":{"android":"levelo://app?vid=a18f4fdc-27db-463a-816d-7a4bbdba1d64","ios":"levelo://app?vid=a18f4fdc-27db-463a-816d-7a4bbdba1d64"},"vehicle_type_id":"4","last_reported":1702364806,"current_range_meters":16800,"station_id":"ce4bgvh2rcd13ifvqcs0","pricing_plan_id":"free"},{"bike_id":"46986306-6a5a-4347-902b-0004becb20ae","system_id":"levelo_inurba_marseille","lat":43.290345,"lon":5.38646,"is_reserved":false,"is_disabled":false,"rental_uris":{"android":"levelo://app?vid=46986306-6a5a-4347-902b-0004becb20ae","ios":"levelo://app?vid=46986306-6a5a-4347-902b-0004becb20ae"},"vehicle_type_id":"4","last_reported":1702364806,"current_range_meters":14000,"station_id":"ce4bh4p2rcd13ifvqe0g","pricing_plan_id":"free"},{"bike_id":"994fc9a3-2669-436b-bcc3-57fcb3d2a429","system_id":"levelo_inurba_marseille","lat":43.302759,"lon":5.400793,"is_reserved":false,"is_disabled":false,"rental_uris":{"android":"levelo://app?vid=994fc9a3-2669-436b-bcc3-57fcb3d2a429","ios":"levelo://app?vid=994fc9a3-2669-436b-bcc3-57fcb3d2a429"},"vehicle_type_id":"4","last_reported":1702364806,"current_range_meters":24800,"station_id":"ce4bgvh2rcd13ifvqcs0","pricing_plan_id":"free"},{"bike_id":"e6267564-c97a-4583-9684-3ab5697378a4","system_id":"levelo_inurba_marseille","lat":43.290345,"lon":5.38646,"is_reserved":false,"is_disabled":false,"rental_uris":{"android":"levelo://app?vid=e6267564-c97a-4583-9684-3ab5697378a4","ios":"levelo://app?vid=e6267564-c97a-4583-9684-3ab5697378a4"},"vehicle_type_id":"4","last_reported":1702364806,"current_range_meters":19600,"station_id":"ce4bh4p2rcd13ifvqe0g","pricing_plan_id":"free"},{"bike_id":"f1365573-b45f-4a76-867f-2e350b80a4fb","system_id":"levelo_inurba_marseille","lat":43.290336,"lon":5.386425,"is_reserved":false,"is_disabled":false,"rental_uris":{"android":"levelo://app?vid=f1365573-b45f-4a76-867f-2e350b80a4fb","ios":"levelo://app?vid=f1365573-b45f-4a76-867f-2e350b80a4fb"},"vehicle_type_id":"4","last_reported":1702364806,"current_range_meters":24800,"station_id":"ce4bh4p2rcd13ifvqe0g","pricing_plan_id":"free"},{"bike_id":"acdea7b9-251c-4d97-94bd-ca5292513ab1","system_id":"levelo_inurba_marseille","lat":43.28722,"lon":5.37934,"is_reserved":false,"is_disabled":false,"rental_uris":{"android":"levelo://app?vid=acdea7b9-251c-4d97-94bd-ca5292513ab1","ios":"levelo://app?vid=acdea7b9-251c-4d97-94bd-ca5292513ab1"},"vehicle_type_id":"4","last_reported":1702364806,"current_range_meters":27600,"station_id":"ce4bh9p2rcd13ifvqec0","pricing_plan_id":"free"},{"bike_id":"11a33d85-3275-4dbe-a281-53f96f5ea4e9","system_id":"levelo_inurba_marseille","lat":43.29652,"lon":5.39785,"is_reserved":false,"is_disabled":false,"rental_uris":{"android":"levelo://app?vid=11a33d85-3275-4dbe-a281-53f96f5ea4e9","ios":"levelo://app?vid=11a33d85-3275-4dbe-a281-53f96f5ea4e9"},"vehicle_type_id":"4","last_reported":1702364806,"current_range_meters":0,"station_id":"","pricing_plan_id":"free"},{"bike_id":"7d76914a-164b-4587-9131-05b6d4181c0a","system_id":"levelo_inurba_marseille","lat":43.291994,"lon":5.392907,"is_reserved":false,"is_disabled":false,"rental_uris":{"android":"levelo://app?vid=7d76914a-164b-4587-9131-05b6d4181c0a","ios":"levelo://app?vid=7d76914a-164b-4587-9131-05b6d4181c0a"},"vehicle_type_id":"4","last_reported":1702364806,"current_range_meters":26800,"station_id":"ce4bh192rcd13ifvqdd0","pricing_plan_id":"free"},{"bike_id":"97d8fcc7-4aef-45da-b019-c3d5381f038e","system_id":"levelo_inurba_marseille","lat":43.28614,"lon":5.35107,"is_reserved":false,"is_disabled":false,"rental_uris":{"android":"levelo://app?vid=97d8fcc7-4aef-45da-b019-c3d5381f038e","ios":"levelo://app?vid=97d8fcc7-4aef-45da-b019-c3d5381f038e"},"vehicle_type_id":"4","last_reported":1702364806,"current_range_meters":27600,"station_id":"ce4bhch2rcd13ifvqeug","pricing_plan_id":"free"},{"bike_id":"5092e05d-338d-4a3b-86e5-a8d4b7961db8","system_id":"levelo_inurba_marseille","lat":43.283998,"lon":5.375062,"is_reserved":false,"is_disabled":false,"rental_uris":{"android":"levelo://app?vid=5092e05d-338d-4a3b-86e5-a8d4b7961db8","ios":"levelo://app?vid=5092e05d-338d-4a3b-86e5-a8d4b7961db8"},"vehicle_type_id":"4","last_reported":1702364806,"current_range_meters":20000,"station_id":"ce4bh412rcd13ifvqds0","pricing_plan_id":"free"},{"bike_id":"f6b4511f-57c0-4f21-a26c-79f19fcf2363","system_id":"levelo_inurba_marseille","lat":43.319179,"lon":5.407725,"is_reserved":false,"is_disabled":false,"rental_uris":{"android":"levelo://app?vid=f6b4511f-57c0-4f21-a26c-79f19fcf2363","ios":"levelo://app?vid=f6b4511f-57c0-4f21-a26c-79f19fcf2363"},"vehicle_type_id":"4","last_reported":1702364806,"current_range_meters":14800,"station_id":"ce4bhq12rcd13ifvqhig","pricing_plan_id":"free"},{"bike_id":"0c38c3ff-f5fd-47c8-98fe-054c4bec6455","system_id":"levelo_inurba_marseille","lat":43.323464,"lon":5.406297,"is_reserved":false,"is_disabled":false,"rental_uris":{"android":"levelo://app?vid=0c38c3ff-f5fd-47c8-98fe-054c4bec6455","ios":"levelo://app?vid=0c38c3ff-f5fd-47c8-98fe-054c4bec6455"},"vehicle_type_id":"4","last_reported":1702364806,"current_range_meters":23600,"station_id":"ce4bhq92rcd13ifvqhjg","pricing_plan_id":"free"},{"bike_id":"d092b962-729c-4796-addd-b16011be4a7c","system_id":"levelo_inurba_marseille","lat":43.283494,"lon":5.380945,"is_reserved":false,"is_disabled":false,"rental_uris":{"android":"levelo://app?vid=d092b962-729c-4796-addd-b16011be4a7c","ios":"levelo://app?vid=d092b962-729c-4796-addd-b16011be4a7c"},"vehicle_type_id":"4","last_reported":1702364806,"current_range_meters":30800,"station_id":"ce4bh412rcd13ifvqdr0","pricing_plan_id":"free"},{"bike_id":"6018a5f0-fdd3-439e-a69b-e23f86708666","system_id":"levelo_inurba_marseille","lat":43.283494,"lon":5.380945,"is_reserved":false,"is_disabled":false,"rental_uris":{"android":"levelo://app?vid=6018a5f0-fdd3-439e-a69b-e23f86708666","ios":"levelo://app?vid=6018a5f0-fdd3-439e-a69b-e23f86708666"},"vehicle_type_id":"4","last_reported":1702364806,"current_range_meters":24400,"station_id":"ce4bh412rcd13ifvqdr0","pricing_plan_id":"free"},{"bike_id":"4f7e38fe-5f60-4585-a16d-18afc38aa6b5","system_id":"levelo_inurba_marseille","lat":43.28275,"lon":5.35068,"is_reserved":false,"is_disabled":false,"rental_uris":{"android":"levelo://app?vid=4f7e38fe-5f60-4585-a16d-18afc38aa6b5","ios":"levelo://app?vid=4f7e38fe-5f60-4585-a16d-18afc38aa6b5"},"vehicle_type_id":"4","last_reported":1702364806,"current_range_meters":28400,"station_id":"ce4bhbp2rcd13ifvqerg","pricing_plan_id":"free"},{"bike_id":"4ee53fc3-95fe-4ec3-ae50-b9a8cd12442e","system_id":"levelo_inurba_marseille","lat":43.280376,"lon":5.369456,"is_reserved":false,"is_disabled":false,"rental_uris":{"android":"levelo://app?vid=4ee53fc3-95fe-4ec3-ae50-b9a8cd12442e","ios":"levelo://app?vid=4ee53fc3-95fe-4ec3-ae50-b9a8cd12442e"},"vehicle_type_id":"4","last_reported":1702364806,"current_range_meters":27600,"station_id":"ce4bha12rcd13ifvqef0","pricing_plan_id":"free"},{"bike_id":"a9087632-d97b-4295-ac27-f172913e6205","system_id":"levelo_inurba_marseille","lat":43.280342,"lon":5.369489,"is_reserved":false,"is_disabled":false,"rental_uris":{"android":"levelo://app?vid=a9087632-d97b-4295-ac27-f172913e6205","ios":"levelo://app?vid=a9087632-d97b-4295-ac27-f172913e6205"},"vehicle_type_id":"4","last_reported":1702364806,"current_range_meters":26800,"station_id":"ce4bha12rcd13ifvqef0","pricing_plan_id":"free"},{"bike_id":"dbb32c68-89ea-42d5-9bbd-5de5751b5866","system_id":"levelo_inurba_marseille","lat":43.280382,"lon":5.369291,"is_reserved":false,"is_disabled":false,"rental_uris":{"android":"levelo://app?vid=dbb32c68-89ea-42d5-9bbd-5de5751b5866","ios":"levelo://app?vid=dbb32c68-89ea-42d5-9bbd-5de5751b5866"},"vehicle_type_id":"4","last_reported":1702364806,"current_range_meters":30800,"station_id":"ce4bha12rcd13ifvqef0","pricing_plan_id":"free"},{"bike_id":"40b91c6a-a7e1-4e5a-a4a7-fcdd769cbd3c","system_id":"levelo_inurba_marseille","lat":43.296263,"lon":5.40601,"is_reserved":false,"is_disabled":false,"rental_uris":{"android":"levelo://app?vid=40b91c6a-a7e1-4e5a-a4a7-fcdd769cbd3c","ios":"levelo://app?vid=40b91c6a-a7e1-4e5a-a4a7-fcdd769cbd3c"},"vehicle_type_id":"4","last_reported":1702364806,"current_range_meters":21600,"station_id":"ce4bh0h2rcd13ifvqd60","pricing_plan_id":"free"},{"bike_id":"0dd255ef-4b3d-47cf-a762-0dd0e9c0af2c","system_id":"levelo_inurba_marseille","lat":43.285669,"lon":5.395013,"is_reserved":false,"is_disabled":false,"rental_uris":{"android":"levelo://app?vid=0dd255ef-4b3d-47cf-a762-0dd0e9c0af2c","ios":"levelo://app?vid=0dd255ef-4b3d-47cf-a762-0dd0e9c0af2c"},"vehicle_type_id":"4","last_reported":1702364806,"current_range_meters":1600,"station_id":"ce4bh292rcd13ifvqdg0","pricing_plan_id":"free"},{"bike_id":"1b161a53-c26f-4492-b9ee-06f2795d9ccc","system_id":"levelo_inurba_marseille","lat":43.287154,"lon":5.399979,"is_reserved":false,"is_disabled":false,"rental_uris":{"android":"levelo://app?vid=1b161a53-c26f-4492-b9ee-06f2795d9ccc","ios":"levelo://app?vid=1b161a53-c26f-4492-b9ee-06f2795d9ccc"},"vehicle_type_id":"4","last_reported":1702364806,"current_range_meters":24400,"station_id":"ce4bho92rcd13ifvqh3g","pricing_plan_id":"free"},{"bike_id":"4b4fea6b-03c8-4142-91e1-0d5cb090fb64","system_id":"levelo_inurba_marseille","lat":43.299579,"lon":5.413255,"is_reserved":false,"is_disabled":false,"rental_uris":{"android":"levelo://app?vid=4b4fea6b-03c8-4142-91e1-0d5cb090fb64","ios":"levelo://app?vid=4b4fea6b-03c8-4142-91e1-0d5cb090fb64"},"vehicle_type_id":"4","last_reported":1702364806,"current_range_meters":25200,"station_id":"ce4bhp12rcd13ifvqh9g","pricing_plan_id":"free"},{"bike_id":"7de5a092-fd86-44de-9e59-be4e563eb240","system_id":"levelo_inurba_marseille","lat":43.320045,"lon":5.415046,"is_reserved":false,"is_disabled":false,"rental_uris":{"android":"levelo://app?vid=7de5a092-fd86-44de-9e59-be4e563eb240","ios":"levelo://app?vid=7de5a092-fd86-44de-9e59-be4e563eb240"},"vehicle_type_id":"4","last_reported":1702364806,"current_range_meters":31200,"station_id":"ce4bhq92rcd13ifvqhkg","pricing_plan_id":"free"},{"bike_id":"37ee48a7-36d1-4b6a-b01d-79c94e9a988c","system_id":"levelo_inurba_marseille","lat":43.325233,"lon":5.414318,"is_reserved":false,"is_disabled":false,"rental_uris":{"android":"levelo://app?vid=37ee48a7-36d1-4b6a-b01d-79c94e9a988c","ios":"levelo://app?vid=37ee48a7-36d1-4b6a-b01d-79c94e9a988c"},"vehicle_type_id":"4","last_reported":1702364806,"current_range_meters":17200,"station_id":"ce4bhq12rcd13ifvqhhg","pricing_plan_id":"free"},{"bike_id":"d5ea5ccc-606f-4e22-9e31-95152b58dc5c","system_id":"levelo_inurba_marseille","lat":43.325243,"lon":5.414326,"is_reserved":false,"is_disabled":false,"rental_uris":{"android":"levelo://app?vid=d5ea5ccc-606f-4e22-9e31-95152b58dc5c","ios":"levelo://app?vid=d5ea5ccc-606f-4e22-9e31-95152b58dc5c"},"vehicle_type_id":"4","last_reported":1702364806,"current_range_meters":1600,"station_id":"ce4bhq12rcd13ifvqhhg","pricing_plan_id":"free"},{"bike_id":"7cddd4cc-2c7d-4381-9bfa-f684cdc32fa0","system_id":"levelo_inurba_marseille","lat":43.28009,"lon":5.39022,"is_reserved":false,"is_disabled":false,"rental_uris":{"android":"levelo://app?vid=7cddd4cc-2c7d-4381-9bfa-f684cdc32fa0","ios":"levelo://app?vid=7cddd4cc-2c7d-4381-9bfa-f684cdc32fa0"},"vehicle_type_id":"4","last_reported":1702364806,"current_range_meters":16400,"station_id":"","pricing_plan_id":"free"},{"bike_id":"d2d1a980-81d0-4b43-a286-ebecc7be733a","system_id":"levelo_inurba_marseille","lat":43.276181,"lon":5.361079,"is_reserved":false,"is_disabled":false,"rental_uris":{"android":"levelo://app?vid=d2d1a980-81d0-4b43-a286-ebecc7be733a","ios":"levelo://app?vid=d2d1a980-81d0-4b43-a286-ebecc7be733a"},"vehicle_type_id":"4","last_reported":1702364806,"current_range_meters":22800,"station_id":"ce4bgj92rcd13ifvqbe0","pricing_plan_id":"free"},{"bike_id":"0affd34a-26a3-4b23-9979-f74eada3d752","system_id":"levelo_inurba_marseille","lat":43.276172,"lon":5.361185,"is_reserved":false,"is_disabled":false,"rental_uris":{"android":"levelo://app?vid=0affd34a-26a3-4b23-9979-f74eada3d752","ios":"levelo://app?vid=0affd34a-26a3-4b23-9979-f74eada3d752"},"vehicle_type_id":"4","last_reported":1702364806,"current_range_meters":13600,"station_id":"ce4bgj92rcd13ifvqbe0","pricing_plan_id":"free"},{"bike_id":"f1b5931d-d3b9-4483-b874-4227e70f363c","system_id":"levelo_inurba_marseille","lat":43.276148,"lon":5.361147,"is_reserved":false,"is_disabled":false,"rental_uris":{"android":"levelo://app?vid=f1b5931d-d3b9-4483-b874-4227e70f363c","ios":"levelo://app?vid=f1b5931d-d3b9-4483-b874-4227e70f363c"},"vehicle_type_id":"4","last_reported":1702364806,"current_range_meters":30800,"station_id":"ce4bgj92rcd13ifvqbe0","pricing_plan_id":"free"},{"bike_id":"81d596eb-8c73-49fc-b52b-43413cf55be6","system_id":"levelo_inurba_marseille","lat":43.27613,"lon":5.36107,"is_reserved":false,"is_disabled":false,"rental_uris":{"android":"levelo://app?vid=81d596eb-8c73-49fc-b52b-43413cf55be6","ios":"levelo://app?vid=81d596eb-8c73-49fc-b52b-43413cf55be6"},"vehicle_type_id":"4","last_reported":1702364806,"current_range_meters":15200,"station_id":"ce4bgj92rcd13ifvqbe0","pricing_plan_id":"free"},{"bike_id":"5ec0f610-67d6-4362-9fee-eee9426eb4cf","system_id":"levelo_inurba_marseille","lat":43.303837,"lon":5.418724,"is_reserved":false,"is_disabled":false,"rental_uris":{"android":"levelo://app?vid=5ec0f610-67d6-4362-9fee-eee9426eb4cf","ios":"levelo://app?vid=5ec0f610-67d6-4362-9fee-eee9426eb4cf"},"vehicle_type_id":"4","last_reported":1702364806,"current_range_meters":30000,"station_id":"ce4bhop2rcd13ifvqh7g","pricing_plan_id":"free"},{"bike_id":"f763e54d-5215-4eb1-9294-2cf58722503f","system_id":"levelo_inurba_marseille","lat":43.273609,"lon":5.362708,"is_reserved":false,"is_disabled":false,"rental_uris":{"android":"levelo://app?vid=f763e54d-5215-4eb1-9294-2cf58722503f","ios":"levelo://app?vid=f763e54d-5215-4eb1-9294-2cf58722503f"},"vehicle_type_id":"4","last_reported":1702364806,"current_range_meters":28000,"station_id":"ce4bhbh2rcd13ifvqeo0","pricing_plan_id":"free"},{"bike_id":"9ea10af0-3940-4224-a189-633a8d8b6409","system_id":"levelo_inurba_marseille","lat":43.273613,"lon":5.362705,"is_reserved":false,"is_disabled":false,"rental_uris":{"android":"levelo://app?vid=9ea10af0-3940-4224-a189-633a8d8b6409","ios":"levelo://app?vid=9ea10af0-3940-4224-a189-633a8d8b6409"},"vehicle_type_id":"4","last_reported":1702364806,"current_range_meters":29200,"station_id":"ce4bhbh2rcd13ifvqeo0","pricing_plan_id":"free"},{"bike_id":"5b672c33-fef6-4b47-be71-6dce3ae2040f","system_id":"levelo_inurba_marseille","lat":43.33612,"lon":5.410321,"is_reserved":false,"is_disabled":false,"rental_uris":{"android":"levelo://app?vid=5b672c33-fef6-4b47-be71-6dce3ae2040f","ios":"levelo://app?vid=5b672c33-fef6-4b47-be71-6dce3ae2040f"},"vehicle_type_id":"4","last_reported":1702364806,"current_range_meters":31200,"station_id":"ce4bhqh2rcd13ifvqhmg","pricing_plan_id":"free"},{"bike_id":"dc2a09e9-e7f9-430f-a0d6-d528f616b272","system_id":"levelo_inurba_marseille","lat":43.276771,"lon":5.388799,"is_reserved":false,"is_disabled":false,"rental_uris":{"android":"levelo://app?vid=dc2a09e9-e7f9-430f-a0d6-d528f616b272","ios":"levelo://app?vid=dc2a09e9-e7f9-430f-a0d6-d528f616b272"},"vehicle_type_id":"4","last_reported":1702364806,"current_range_meters":22000,"station_id":"ce4bhi12rcd13ifvqfo0","pricing_plan_id":"free"},{"bike_id":"fa144363-95dc-4089-803b-79941147b3eb","system_id":"levelo_inurba_marseille","lat":43.276769,"lon":5.388787,"is_reserved":false,"is_disabled":false,"rental_uris":{"android":"levelo://app?vid=fa144363-95dc-4089-803b-79941147b3eb","ios":"levelo://app?vid=fa144363-95dc-4089-803b-79941147b3eb"},"vehicle_type_id":"4","last_reported":1702364806,"current_range_meters":14800,"station_id":"ce4bhi12rcd13ifvqfo0","pricing_plan_id":"free"},{"bike_id":"a3c7606a-ba3d-4829-a2d1-1fb14a046ad5","system_id":"levelo_inurba_marseille","lat":43.279975,"lon":5.40009,"is_reserved":false,"is_disabled":false,"rental_uris":{"android":"levelo://app?vid=a3c7606a-ba3d-4829-a2d1-1fb14a046ad5","ios":"levelo://app?vid=a3c7606a-ba3d-4829-a2d1-1fb14a046ad5"},"vehicle_type_id":"4","last_reported":1702364806,"current_range_meters":27200,"station_id":"ce4bho92rcd13ifvqh4g","pricing_plan_id":"free"},{"bike_id":"b1c028eb-0fe1-4afa-b35c-b9783a0e9537","system_id":"levelo_inurba_marseille","lat":43.31723,"lon":5.42405,"is_reserved":false,"is_disabled":false,"rental_uris":{"android":"levelo://app?vid=b1c028eb-0fe1-4afa-b35c-b9783a0e9537","ios":"levelo://app?vid=b1c028eb-0fe1-4afa-b35c-b9783a0e9537"},"vehicle_type_id":"4","last_reported":1702364806,"current_range_meters":6800,"station_id":"ce4bhp92rcd13ifvqhbg","pricing_plan_id":"free"},{"bike_id":"ccae5672-66ae-4b22-92f5-dec42e5c62fa","system_id":"levelo_inurba_marseille","lat":43.340804,"lon":5.410219,"is_reserved":false,"is_disabled":false,"rental_uris":{"android":"levelo://app?vid=ccae5672-66ae-4b22-92f5-dec42e5c62fa","ios":"levelo://app?vid=ccae5672-66ae-4b22-92f5-dec42e5c62fa"},"vehicle_type_id":"4","last_reported":1702364806,"current_range_meters":21600,"station_id":"ce4bhqh2rcd13ifvqhlg","pricing_plan_id":"free"},{"bike_id":"4378c76b-5101-4117-9bad-9190a28da998","system_id":"levelo_inurba_marseille","lat":43.34146,"lon":5.40914,"is_reserved":false,"is_disabled":false,"rental_uris":{"android":"levelo://app?vid=4378c76b-5101-4117-9bad-9190a28da998","ios":"levelo://app?vid=4378c76b-5101-4117-9bad-9190a28da998"},"vehicle_type_id":"4","last_reported":1702364806,"current_range_meters":0,"station_id":"ce4bhqh2rcd13ifvqhlg","pricing_plan_id":"free"},{"bike_id":"11540731-1802-4aa6-a00d-3a3658abefc8","system_id":"levelo_inurba_marseille","lat":43.340804,"lon":5.410219,"is_reserved":false,"is_disabled":false,"rental_uris":{"android":"levelo://app?vid=11540731-1802-4aa6-a00d-3a3658abefc8","ios":"levelo://app?vid=11540731-1802-4aa6-a00d-3a3658abefc8"},"vehicle_type_id":"4","last_reported":1702364806,"current_range_meters":22000,"station_id":"ce4bhqh2rcd13ifvqhlg","pricing_plan_id":"free"},{"bike_id":"39d97672-d16b-4564-a8c1-c19169d1ed00","system_id":"levelo_inurba_marseille","lat":43.273158,"lon":5.390965,"is_reserved":false,"is_disabled":false,"rental_uris":{"android":"levelo://app?vid=39d97672-d16b-4564-a8c1-c19169d1ed00","ios":"levelo://app?vid=39d97672-d16b-4564-a8c1-c19169d1ed00"},"vehicle_type_id":"4","last_reported":1702364806,"current_range_meters":0,"station_id":"ce4bhgp2rcd13ifvqfe0","pricing_plan_id":"free"},{"bike_id":"98cf643d-a505-48eb-89c6-1b1788dc9b6d","system_id":"levelo_inurba_marseille","lat":43.304096,"lon":5.425385,"is_reserved":false,"is_disabled":false,"rental_uris":{"android":"levelo://app?vid=98cf643d-a505-48eb-89c6-1b1788dc9b6d","ios":"levelo://app?vid=98cf643d-a505-48eb-89c6-1b1788dc9b6d"},"vehicle_type_id":"4","last_reported":1702364806,"current_range_meters":20400,"station_id":"ce4bhoh2rcd13ifvqh6g","pricing_plan_id":"free"},{"bike_id":"114ed9a0-f405-4e5a-8abc-a36515ad57b3","system_id":"levelo_inurba_marseille","lat":43.272144,"lon":5.392312,"is_reserved":false,"is_disabled":false,"rental_uris":{"android":"levelo://app?vid=114ed9a0-f405-4e5a-8abc-a36515ad57b3","ios":"levelo://app?vid=114ed9a0-f405-4e5a-8abc-a36515ad57b3"},"vehicle_type_id":"4","last_reported":1702364806,"current_range_meters":20800,"station_id":"ce4bhhp2rcd13ifvqfm0","pricing_plan_id":"free"},{"bike_id":"075af69d-d29d-4e72-9efd-a651f1afe17c","system_id":"levelo_inurba_marseille","lat":43.27816,"lon":5.40705,"is_reserved":false,"is_disabled":false,"rental_uris":{"android":"levelo://app?vid=075af69d-d29d-4e72-9efd-a651f1afe17c","ios":"levelo://app?vid=075af69d-d29d-4e72-9efd-a651f1afe17c"},"vehicle_type_id":"4","last_reported":1702364806,"current_range_meters":29600,"station_id":"ce4bhnh2rcd13ifvqgtg","pricing_plan_id":"free"},{"bike_id":"e34d02d6-e57a-4281-ad04-6cfa4be4a17a","system_id":"levelo_inurba_marseille","lat":43.278128,"lon":5.407195,"is_reserved":false,"is_disabled":false,"rental_uris":{"android":"levelo://app?vid=e34d02d6-e57a-4281-ad04-6cfa4be4a17a","ios":"levelo://app?vid=e34d02d6-e57a-4281-ad04-6cfa4be4a17a"},"vehicle_type_id":"4","last_reported":1702364806,"current_range_meters":22800,"station_id":"ce4bhnh2rcd13ifvqgtg","pricing_plan_id":"free"},{"bike_id":"2c09c865-c64e-47f8-97f7-9d13ac5d2d50","system_id":"levelo_inurba_marseille","lat":43.269467,"lon":5.386439,"is_reserved":false,"is_disabled":false,"rental_uris":{"android":"levelo://app?vid=2c09c865-c64e-47f8-97f7-9d13ac5d2d50","ios":"levelo://app?vid=2c09c865-c64e-47f8-97f7-9d13ac5d2d50"},"vehicle_type_id":"4","last_reported":1702364806,"current_range_meters":9600,"station_id":"ce4bhh92rcd13ifvqfh0","pricing_plan_id":"free"},{"bike_id":"8a65debc-4eb5-4ca5-9000-63b81e3752f1","system_id":"levelo_inurba_marseille","lat":43.269467,"lon":5.386439,"is_reserved":false,"is_disabled":false,"rental_uris":{"android":"levelo://app?vid=8a65debc-4eb5-4ca5-9000-63b81e3752f1","ios":"levelo://app?vid=8a65debc-4eb5-4ca5-9000-63b81e3752f1"},"vehicle_type_id":"4","last_reported":1702364806,"current_range_meters":30800,"station_id":"ce4bhh92rcd13ifvqfh0","pricing_plan_id":"free"},{"bike_id":"e355444f-467d-4d19-965f-416ab15b4237","system_id":"levelo_inurba_marseille","lat":43.279556,"lon":5.410438,"is_reserved":false,"is_disabled":false,"rental_uris":{"android":"levelo://app?vid=e355444f-467d-4d19-965f-416ab15b4237","ios":"levelo://app?vid=e355444f-467d-4d19-965f-416ab15b4237"},"vehicle_type_id":"4","last_reported":1702364806,"current_range_meters":18400,"station_id":"ce4bhnp2rcd13ifvqh0g","pricing_plan_id":"free"},{"bike_id":"048a7c17-97c6-4e8b-b365-1d7721c101c5","system_id":"levelo_inurba_marseille","lat":43.279465,"lon":5.410561,"is_reserved":false,"is_disabled":false,"rental_uris":{"android":"levelo://app?vid=048a7c17-97c6-4e8b-b365-1d7721c101c5","ios":"levelo://app?vid=048a7c17-97c6-4e8b-b365-1d7721c101c5"},"vehicle_type_id":"4","last_reported":1702364806,"current_range_meters":29200,"station_id":"ce4bhnp2rcd13ifvqh0g","pricing_plan_id":"free"},{"bike_id":"d0bb7721-703f-4b53-8c77-0679f283277c","system_id":"levelo_inurba_marseille","lat":43.279505,"lon":5.41044,"is_reserved":false,"is_disabled":false,"rental_uris":{"android":"levelo://app?vid=d0bb7721-703f-4b53-8c77-0679f283277c","ios":"levelo://app?vid=d0bb7721-703f-4b53-8c77-0679f283277c"},"vehicle_type_id":"4","last_reported":1702364806,"current_range_meters":30800,"station_id":"ce4bhnp2rcd13ifvqh0g","pricing_plan_id":"free"},{"bike_id":"9ea0c1aa-5915-4219-bc6d-32d8d559f269","system_id":"levelo_inurba_marseille","lat":43.26681,"lon":5.382694,"is_reserved":false,"is_disabled":false,"rental_uris":{"android":"levelo://app?vid=9ea0c1aa-5915-4219-bc6d-32d8d559f269","ios":"levelo://app?vid=9ea0c1aa-5915-4219-bc6d-32d8d559f269"},"vehicle_type_id":"4","last_reported":1702364806,"current_range_meters":31200,"station_id":"ce4bhg92rcd13ifvqf90","pricing_plan_id":"free"},{"bike_id":"618ab94a-31d3-49d5-8238-c36f733e2f97","system_id":"levelo_inurba_marseille","lat":43.26682,"lon":5.38266,"is_reserved":false,"is_disabled":false,"rental_uris":{"android":"levelo://app?vid=618ab94a-31d3-49d5-8238-c36f733e2f97","ios":"levelo://app?vid=618ab94a-31d3-49d5-8238-c36f733e2f97"},"vehicle_type_id":"4","last_reported":1702364806,"current_range_meters":24400,"station_id":"ce4bhg92rcd13ifvqf90","pricing_plan_id":"free"},{"bike_id":"afbe6453-4082-4cc7-a9ed-7f96e9609a56","system_id":"levelo_inurba_marseille","lat":43.26681,"lon":5.38264,"is_reserved":false,"is_disabled":false,"rental_uris":{"android":"levelo://app?vid=afbe6453-4082-4cc7-a9ed-7f96e9609a56","ios":"levelo://app?vid=afbe6453-4082-4cc7-a9ed-7f96e9609a56"},"vehicle_type_id":"4","last_reported":1702364806,"current_range_meters":28000,"station_id":"ce4bhg92rcd13ifvqf90","pricing_plan_id":"free"},{"bike_id":"fa2c8774-c50e-4ee1-b2f0-6158142ea9f6","system_id":"levelo_inurba_marseille","lat":43.26677,"lon":5.38269,"is_reserved":false,"is_disabled":false,"rental_uris":{"android":"levelo://app?vid=fa2c8774-c50e-4ee1-b2f0-6158142ea9f6","ios":"levelo://app?vid=fa2c8774-c50e-4ee1-b2f0-6158142ea9f6"},"vehicle_type_id":"4","last_reported":1702364806,"current_range_meters":25200,"station_id":"ce4bhg92rcd13ifvqf90","pricing_plan_id":"free"},{"bike_id":"89174b6c-7157-464f-821e-2b2484992d0c","system_id":"levelo_inurba_marseille","lat":43.277237,"lon":5.4114,"is_reserved":false,"is_disabled":false,"rental_uris":{"android":"levelo://app?vid=89174b6c-7157-464f-821e-2b2484992d0c","ios":"levelo://app?vid=89174b6c-7157-464f-821e-2b2484992d0c"},"vehicle_type_id":"4","last_reported":1702364806,"current_range_meters":16000,"station_id":"","pricing_plan_id":"free"},{"bike_id":"08ed5f37-9e93-4866-a9f6-342d45816e13","system_id":"levelo_inurba_marseille","lat":43.265714,"lon":5.372891,"is_reserved":false,"is_disabled":false,"rental_uris":{"android":"levelo://app?vid=08ed5f37-9e93-4866-a9f6-342d45816e13","ios":"levelo://app?vid=08ed5f37-9e93-4866-a9f6-342d45816e13"},"vehicle_type_id":"4","last_reported":1702364806,"current_range_meters":26800,"station_id":"ce4bhg12rcd13ifvqf70","pricing_plan_id":"free"},{"bike_id":"49e9b9e3-3e84-42a2-808d-19ca1f71dcef","system_id":"levelo_inurba_marseille","lat":43.265714,"lon":5.372891,"is_reserved":false,"is_disabled":false,"rental_uris":{"android":"levelo://app?vid=49e9b9e3-3e84-42a2-808d-19ca1f71dcef","ios":"levelo://app?vid=49e9b9e3-3e84-42a2-808d-19ca1f71dcef"},"vehicle_type_id":"4","last_reported":1702364806,"current_range_meters":28000,"station_id":"ce4bhg12rcd13ifvqf70","pricing_plan_id":"free"},{"bike_id":"7e8c3b03-2f58-4c3f-b653-2d4361618766","system_id":"levelo_inurba_marseille","lat":43.265714,"lon":5.372891,"is_reserved":false,"is_disabled":false,"rental_uris":{"android":"levelo://app?vid=7e8c3b03-2f58-4c3f-b653-2d4361618766","ios":"levelo://app?vid=7e8c3b03-2f58-4c3f-b653-2d4361618766"},"vehicle_type_id":"4","last_reported":1702364806,"current_range_meters":26000,"station_id":"ce4bhg12rcd13ifvqf70","pricing_plan_id":"free"},{"bike_id":"751fd2bc-5e37-47a7-8881-dc1925d5a9a0","system_id":"levelo_inurba_marseille","lat":43.267966,"lon":5.393976,"is_reserved":false,"is_disabled":false,"rental_uris":{"android":"levelo://app?vid=751fd2bc-5e37-47a7-8881-dc1925d5a9a0","ios":"levelo://app?vid=751fd2bc-5e37-47a7-8881-dc1925d5a9a0"},"vehicle_type_id":"4","last_reported":1702364806,"current_range_meters":26400,"station_id":"ce4bhh12rcd13ifvqfg0","pricing_plan_id":"free"},{"bike_id":"a77c85a6-e831-4ce5-b867-6a6fe59e88b8","system_id":"levelo_inurba_marseille","lat":43.26949,"lon":5.40262,"is_reserved":false,"is_disabled":false,"rental_uris":{"android":"levelo://app?vid=a77c85a6-e831-4ce5-b867-6a6fe59e88b8","ios":"levelo://app?vid=a77c85a6-e831-4ce5-b867-6a6fe59e88b8"},"vehicle_type_id":"4","last_reported":1702364806,"current_range_meters":25200,"station_id":"cjm6bp8fraef2m0cb0m0","pricing_plan_id":"free"},{"bike_id":"37645cb8-5c24-41ba-b0d3-f9e32e3bff51","system_id":"levelo_inurba_marseille","lat":43.317104,"lon":5.436818,"is_reserved":false,"is_disabled":false,"rental_uris":{"android":"levelo://app?vid=37645cb8-5c24-41ba-b0d3-f9e32e3bff51","ios":"levelo://app?vid=37645cb8-5c24-41ba-b0d3-f9e32e3bff51"},"vehicle_type_id":"4","last_reported":1702364806,"current_range_meters":31200,"station_id":"ce4bhp92rcd13ifvqhcg","pricing_plan_id":"free"},{"bike_id":"cdd036f6-7ea5-4424-b6f3-3af93ebb2fa0","system_id":"levelo_inurba_marseille","lat":43.317104,"lon":5.436818,"is_reserved":false,"is_disabled":false,"rental_uris":{"android":"levelo://app?vid=cdd036f6-7ea5-4424-b6f3-3af93ebb2fa0","ios":"levelo://app?vid=cdd036f6-7ea5-4424-b6f3-3af93ebb2fa0"},"vehicle_type_id":"4","last_reported":1702364806,"current_range_meters":30400,"station_id":"ce4bhp92rcd13ifvqhcg","pricing_plan_id":"free"},{"bike_id":"1acf6805-7adc-4d3c-b52b-7b0895430b1f","system_id":"levelo_inurba_marseille","lat":43.26202,"lon":5.379299,"is_reserved":false,"is_disabled":false,"rental_uris":{"android":"levelo://app?vid=1acf6805-7adc-4d3c-b52b-7b0895430b1f","ios":"levelo://app?vid=1acf6805-7adc-4d3c-b52b-7b0895430b1f"},"vehicle_type_id":"4","last_reported":1702364806,"current_range_meters":27600,"station_id":"ce4bhjp2rcd13ifvqg90","pricing_plan_id":"free"},{"bike_id":"86d32356-ee02-46e0-aeee-92909091ac36","system_id":"levelo_inurba_marseille","lat":43.281548,"lon":5.42643,"is_reserved":false,"is_disabled":false,"rental_uris":{"android":"levelo://app?vid=86d32356-ee02-46e0-aeee-92909091ac36","ios":"levelo://app?vid=86d32356-ee02-46e0-aeee-92909091ac36"},"vehicle_type_id":"4","last_reported":1702364806,"current_range_meters":3200,"station_id":"ce4bhnh2rcd13ifvqgug","pricing_plan_id":"free"},{"bike_id":"b93170e5-0d66-4771-86b8-7b2b65ab1044","system_id":"levelo_inurba_marseille","lat":43.281548,"lon":5.42643,"is_reserved":false,"is_disabled":false,"rental_uris":{"android":"levelo://app?vid=b93170e5-0d66-4771-86b8-7b2b65ab1044","ios":"levelo://app?vid=b93170e5-0d66-4771-86b8-7b2b65ab1044"},"vehicle_type_id":"4","last_reported":1702364806,"current_range_meters":14400,"station_id":"ce4bhnh2rcd13ifvqgug","pricing_plan_id":"free"},{"bike_id":"180bf347-93f7-4d14-a727-4021a2dbeb7d","system_id":"levelo_inurba_marseille","lat":43.281408,"lon":5.42996,"is_reserved":false,"is_disabled":false,"rental_uris":{"android":"levelo://app?vid=180bf347-93f7-4d14-a727-4021a2dbeb7d","ios":"levelo://app?vid=180bf347-93f7-4d14-a727-4021a2dbeb7d"},"vehicle_type_id":"4","last_reported":1702364806,"current_range_meters":13200,"station_id":"","pricing_plan_id":"free"},{"bike_id":"01274612-b6ca-4c62-b217-d3c00f10189e","system_id":"levelo_inurba_marseille","lat":43.275003,"lon":5.424504,"is_reserved":false,"is_disabled":false,"rental_uris":{"android":"levelo://app?vid=01274612-b6ca-4c62-b217-d3c00f10189e","ios":"levelo://app?vid=01274612-b6ca-4c62-b217-d3c00f10189e"},"vehicle_type_id":"4","last_reported":1702364806,"current_range_meters":26400,"station_id":"","pricing_plan_id":"free"},{"bike_id":"577a97cb-4f59-4cd1-a29d-1d657ac4c0ea","system_id":"levelo_inurba_marseille","lat":43.275028,"lon":5.424534,"is_reserved":false,"is_disabled":false,"rental_uris":{"android":"levelo://app?vid=577a97cb-4f59-4cd1-a29d-1d657ac4c0ea","ios":"levelo://app?vid=577a97cb-4f59-4cd1-a29d-1d657ac4c0ea"},"vehicle_type_id":"4","last_reported":1702364806,"current_range_meters":28800,"station_id":"ce4bhn92rcd13ifvqgrg","pricing_plan_id":"free"},{"bike_id":"85d55389-78ad-4b5c-a35e-24834617397b","system_id":"levelo_inurba_marseille","lat":43.275028,"lon":5.424534,"is_reserved":false,"is_disabled":false,"rental_uris":{"android":"levelo://app?vid=85d55389-78ad-4b5c-a35e-24834617397b","ios":"levelo://app?vid=85d55389-78ad-4b5c-a35e-24834617397b"},"vehicle_type_id":"4","last_reported":1702364806,"current_range_meters":24000,"station_id":"ce4bhn92rcd13ifvqgrg","pricing_plan_id":"free"},{"bike_id":"8e4ea7b9-6989-43e4-8549-d14cdefcbd68","system_id":"levelo_inurba_marseille","lat":43.275028,"lon":5.424534,"is_reserved":false,"is_disabled":false,"rental_uris":{"android":"levelo://app?vid=8e4ea7b9-6989-43e4-8549-d14cdefcbd68","ios":"levelo://app?vid=8e4ea7b9-6989-43e4-8549-d14cdefcbd68"},"vehicle_type_id":"4","last_reported":1702364806,"current_range_meters":21200,"station_id":"ce4bhn92rcd13ifvqgrg","pricing_plan_id":"free"},{"bike_id":"bde24fe8-8aa9-4e3d-828f-87958916caef","system_id":"levelo_inurba_marseille","lat":43.275028,"lon":5.424534,"is_reserved":false,"is_disabled":false,"rental_uris":{"android":"levelo://app?vid=bde24fe8-8aa9-4e3d-828f-87958916caef","ios":"levelo://app?vid=bde24fe8-8aa9-4e3d-828f-87958916caef"},"vehicle_type_id":"4","last_reported":1702364806,"current_range_meters":26000,"station_id":"ce4bhn92rcd13ifvqgrg","pricing_plan_id":"free"},{"bike_id":"c51d16be-6729-4d09-978b-9b4e7f7a9fbe","system_id":"levelo_inurba_marseille","lat":43.275028,"lon":5.424534,"is_reserved":false,"is_disabled":false,"rental_uris":{"android":"levelo://app?vid=c51d16be-6729-4d09-978b-9b4e7f7a9fbe","ios":"levelo://app?vid=c51d16be-6729-4d09-978b-9b4e7f7a9fbe"},"vehicle_type_id":"4","last_reported":1702364806,"current_range_meters":28000,"station_id":"ce4bhn92rcd13ifvqgrg","pricing_plan_id":"free"},{"bike_id":"d803fc21-943d-4911-a406-b02fbfaf249e","system_id":"levelo_inurba_marseille","lat":43.275028,"lon":5.424534,"is_reserved":false,"is_disabled":false,"rental_uris":{"android":"levelo://app?vid=d803fc21-943d-4911-a406-b02fbfaf249e","ios":"levelo://app?vid=d803fc21-943d-4911-a406-b02fbfaf249e"},"vehicle_type_id":"4","last_reported":1702364806,"current_range_meters":30000,"station_id":"ce4bhn92rcd13ifvqgrg","pricing_plan_id":"free"},{"bike_id":"0dda4808-002f-4a15-88cd-8bd85bd87743","system_id":"levelo_inurba_marseille","lat":43.275028,"lon":5.424534,"is_reserved":false,"is_disabled":false,"rental_uris":{"android":"levelo://app?vid=0dda4808-002f-4a15-88cd-8bd85bd87743","ios":"levelo://app?vid=0dda4808-002f-4a15-88cd-8bd85bd87743"},"vehicle_type_id":"4","last_reported":1702364806,"current_range_meters":28800,"station_id":"ce4bhn92rcd13ifvqgrg","pricing_plan_id":"free"},{"bike_id":"7a975cf4-4ff4-4662-8b90-b3a06a58e38e","system_id":"levelo_inurba_marseille","lat":43.275028,"lon":5.424534,"is_reserved":false,"is_disabled":false,"rental_uris":{"android":"levelo://app?vid=7a975cf4-4ff4-4662-8b90-b3a06a58e38e","ios":"levelo://app?vid=7a975cf4-4ff4-4662-8b90-b3a06a58e38e"},"vehicle_type_id":"4","last_reported":1702364806,"current_range_meters":20400,"station_id":"ce4bhn92rcd13ifvqgrg","pricing_plan_id":"free"},{"bike_id":"0e5509cc-88fe-4461-8aeb-72ce783dbe39","system_id":"levelo_inurba_marseille","lat":43.275028,"lon":5.424534,"is_reserved":false,"is_disabled":false,"rental_uris":{"android":"levelo://app?vid=0e5509cc-88fe-4461-8aeb-72ce783dbe39","ios":"levelo://app?vid=0e5509cc-88fe-4461-8aeb-72ce783dbe39"},"vehicle_type_id":"4","last_reported":1702364806,"current_range_meters":28400,"station_id":"ce4bhn92rcd13ifvqgrg","pricing_plan_id":"free"},{"bike_id":"2904fadb-7bd9-4958-ab41-36e416d618b9","system_id":"levelo_inurba_marseille","lat":43.275028,"lon":5.424534,"is_reserved":false,"is_disabled":false,"rental_uris":{"android":"levelo://app?vid=2904fadb-7bd9-4958-ab41-36e416d618b9","ios":"levelo://app?vid=2904fadb-7bd9-4958-ab41-36e416d618b9"},"vehicle_type_id":"4","last_reported":1702364806,"current_range_meters":28400,"station_id":"ce4bhn92rcd13ifvqgrg","pricing_plan_id":"free"},{"bike_id":"87407f55-800b-402f-9fbb-7ad1f671006a","system_id":"levelo_inurba_marseille","lat":43.275028,"lon":5.424534,"is_reserved":false,"is_disabled":false,"rental_uris":{"android":"levelo://app?vid=87407f55-800b-402f-9fbb-7ad1f671006a","ios":"levelo://app?vid=87407f55-800b-402f-9fbb-7ad1f671006a"},"vehicle_type_id":"4","last_reported":1702364806,"current_range_meters":26400,"station_id":"ce4bhn92rcd13ifvqgrg","pricing_plan_id":"free"},{"bike_id":"463668ea-b294-4421-824a-c4df85b1e87b","system_id":"levelo_inurba_marseille","lat":43.270721,"lon":5.422764,"is_reserved":false,"is_disabled":false,"rental_uris":{"android":"levelo://app?vid=463668ea-b294-4421-824a-c4df85b1e87b","ios":"levelo://app?vid=463668ea-b294-4421-824a-c4df85b1e87b"},"vehicle_type_id":"4","last_reported":1702364806,"current_range_meters":14400,"station_id":"ce4bhk92rcd13ifvqgb0","pricing_plan_id":"free"},{"bike_id":"04df2b66-e127-454f-ba4f-78b12241ffa8","system_id":"levelo_inurba_marseille","lat":43.270721,"lon":5.422764,"is_reserved":false,"is_disabled":false,"rental_uris":{"android":"levelo://app?vid=04df2b66-e127-454f-ba4f-78b12241ffa8","ios":"levelo://app?vid=04df2b66-e127-454f-ba4f-78b12241ffa8"},"vehicle_type_id":"4","last_reported":1702364806,"current_range_meters":27600,"station_id":"ce4bhk92rcd13ifvqgb0","pricing_plan_id":"free"},{"bike_id":"85d425b8-b62c-46e2-b410-d1d916c709fb","system_id":"levelo_inurba_marseille","lat":43.257079,"lon":5.411051,"is_reserved":false,"is_disabled":false,"rental_uris":{"android":"levelo://app?vid=85d425b8-b62c-46e2-b410-d1d916c709fb","ios":"levelo://app?vid=85d425b8-b62c-46e2-b410-d1d916c709fb"},"vehicle_type_id":"4","last_reported":1702364806,"current_range_meters":28400,"station_id":"ce4bhkp2rcd13ifvqgd0","pricing_plan_id":"free"},{"bike_id":"aa67a292-423b-4672-99dd-a73c4b0b0dcf","system_id":"levelo_inurba_marseille","lat":43.250009,"lon":5.389195,"is_reserved":false,"is_disabled":false,"rental_uris":{"android":"levelo://app?vid=aa67a292-423b-4672-99dd-a73c4b0b0dcf","ios":"levelo://app?vid=aa67a292-423b-4672-99dd-a73c4b0b0dcf"},"vehicle_type_id":"4","last_reported":1702364806,"current_range_meters":16000,"station_id":"ce4bhgp2rcd13ifvqfd0","pricing_plan_id":"free"},{"bike_id":"19da614e-648f-43a5-a5c2-17f270f03c75","system_id":"levelo_inurba_marseille","lat":43.250023,"lon":5.38919,"is_reserved":false,"is_disabled":false,"rental_uris":{"android":"levelo://app?vid=19da614e-648f-43a5-a5c2-17f270f03c75","ios":"levelo://app?vid=19da614e-648f-43a5-a5c2-17f270f03c75"},"vehicle_type_id":"4","last_reported":1702364806,"current_range_meters":19200,"station_id":"ce4bhgp2rcd13ifvqfd0","pricing_plan_id":"free"},{"bike_id":"7b1dcc65-6944-46cf-9ca1-3e89160ccad1","system_id":"levelo_inurba_marseille","lat":43.250023,"lon":5.38919,"is_reserved":false,"is_disabled":false,"rental_uris":{"android":"levelo://app?vid=7b1dcc65-6944-46cf-9ca1-3e89160ccad1","ios":"levelo://app?vid=7b1dcc65-6944-46cf-9ca1-3e89160ccad1"},"vehicle_type_id":"4","last_reported":1702364806,"current_range_meters":17200,"station_id":"ce4bhgp2rcd13ifvqfd0","pricing_plan_id":"free"},{"bike_id":"312b26c2-d340-4d7d-a1e8-ef9b00c0b5bb","system_id":"levelo_inurba_marseille","lat":43.2479,"lon":5.374457,"is_reserved":false,"is_disabled":false,"rental_uris":{"android":"levelo://app?vid=312b26c2-d340-4d7d-a1e8-ef9b00c0b5bb","ios":"levelo://app?vid=312b26c2-d340-4d7d-a1e8-ef9b00c0b5bb"},"vehicle_type_id":"4","last_reported":1702364806,"current_range_meters":24000,"station_id":"ce4bhgh2rcd13ifvqfb0","pricing_plan_id":"free"},{"bike_id":"84d6c278-4edd-4037-868a-e46982744fda","system_id":"levelo_inurba_marseille","lat":43.2479,"lon":5.374457,"is_reserved":false,"is_disabled":false,"rental_uris":{"android":"levelo://app?vid=84d6c278-4edd-4037-868a-e46982744fda","ios":"levelo://app?vid=84d6c278-4edd-4037-868a-e46982744fda"},"vehicle_type_id":"4","last_reported":1702364806,"current_range_meters":24400,"station_id":"ce4bhgh2rcd13ifvqfb0","pricing_plan_id":"free"},{"bike_id":"ff95f949-96f7-4d50-a203-02281d595779","system_id":"levelo_inurba_marseille","lat":43.25102,"lon":5.403214,"is_reserved":false,"is_disabled":false,"rental_uris":{"android":"levelo://app?vid=ff95f949-96f7-4d50-a203-02281d595779","ios":"levelo://app?vid=ff95f949-96f7-4d50-a203-02281d595779"},"vehicle_type_id":"4","last_reported":1702364806,"current_range_meters":5200,"station_id":"ce4bhlh2rcd13ifvqgig","pricing_plan_id":"free"},{"bike_id":"daec8c37-899b-439c-ad23-156ecf35ffda","system_id":"levelo_inurba_marseille","lat":43.25102,"lon":5.403214,"is_reserved":false,"is_disabled":false,"rental_uris":{"android":"levelo://app?vid=daec8c37-899b-439c-ad23-156ecf35ffda","ios":"levelo://app?vid=daec8c37-899b-439c-ad23-156ecf35ffda"},"vehicle_type_id":"4","last_reported":1702364806,"current_range_meters":18800,"station_id":"ce4bhlh2rcd13ifvqgig","pricing_plan_id":"free"},{"bike_id":"846961d7-979a-4ad3-956d-a81bed603614","system_id":"levelo_inurba_marseille","lat":43.24642,"lon":5.396454,"is_reserved":false,"is_disabled":false,"rental_uris":{"android":"levelo://app?vid=846961d7-979a-4ad3-956d-a81bed603614","ios":"levelo://app?vid=846961d7-979a-4ad3-956d-a81bed603614"},"vehicle_type_id":"4","last_reported":1702364806,"current_range_meters":0,"station_id":"","pricing_plan_id":"free"},{"bike_id":"33e3c66b-117b-40cd-b0a4-f4afe95cfd9f","system_id":"levelo_inurba_marseille","lat":43.245581,"lon":5.395069,"is_reserved":false,"is_disabled":false,"rental_uris":{"android":"levelo://app?vid=33e3c66b-117b-40cd-b0a4-f4afe95cfd9f","ios":"levelo://app?vid=33e3c66b-117b-40cd-b0a4-f4afe95cfd9f"},"vehicle_type_id":"4","last_reported":1702364806,"current_range_meters":24400,"station_id":"ce4bhlp2rcd13ifvqgjg","pricing_plan_id":"free"},{"bike_id":"99108e9e-b101-48ba-89f3-017eb2df901b","system_id":"levelo_inurba_marseille","lat":43.24076,"lon":5.37755,"is_reserved":false,"is_disabled":false,"rental_uris":{"android":"levelo://app?vid=99108e9e-b101-48ba-89f3-017eb2df901b","ios":"levelo://app?vid=99108e9e-b101-48ba-89f3-017eb2df901b"},"vehicle_type_id":"4","last_reported":1702364806,"current_range_meters":24400,"station_id":"ce4bhnp2rcd13ifvqgvg","pricing_plan_id":"free"},{"bike_id":"464c96cd-14b5-47b4-9d31-8c4009b9d5ee","system_id":"levelo_inurba_marseille","lat":43.24075,"lon":5.37758,"is_reserved":false,"is_disabled":false,"rental_uris":{"android":"levelo://app?vid=464c96cd-14b5-47b4-9d31-8c4009b9d5ee","ios":"levelo://app?vid=464c96cd-14b5-47b4-9d31-8c4009b9d5ee"},"vehicle_type_id":"4","last_reported":1702364806,"current_range_meters":4400,"station_id":"ce4bhnp2rcd13ifvqgvg","pricing_plan_id":"free"},{"bike_id":"8adc57dc-5f99-4b7f-82a8-97089dc07b4b","system_id":"levelo_inurba_marseille","lat":43.240623,"lon":5.377642,"is_reserved":false,"is_disabled":false,"rental_uris":{"android":"levelo://app?vid=8adc57dc-5f99-4b7f-82a8-97089dc07b4b","ios":"levelo://app?vid=8adc57dc-5f99-4b7f-82a8-97089dc07b4b"},"vehicle_type_id":"4","last_reported":1702364806,"current_range_meters":31200,"station_id":"ce4bhnp2rcd13ifvqgvg","pricing_plan_id":"free"},{"bike_id":"26fc98a1-421b-40f6-9946-f321a92baa03","system_id":"levelo_inurba_marseille","lat":43.24074,"lon":5.37758,"is_reserved":false,"is_disabled":false,"rental_uris":{"android":"levelo://app?vid=26fc98a1-421b-40f6-9946-f321a92baa03","ios":"levelo://app?vid=26fc98a1-421b-40f6-9946-f321a92baa03"},"vehicle_type_id":"4","last_reported":1702364806,"current_range_meters":14800,"station_id":"ce4bhnp2rcd13ifvqgvg","pricing_plan_id":"free"},{"bike_id":"a3f40776-8dd6-4022-8335-efe1518c8066","system_id":"levelo_inurba_marseille","lat":43.24074,"lon":5.37762,"is_reserved":false,"is_disabled":false,"rental_uris":{"android":"levelo://app?vid=a3f40776-8dd6-4022-8335-efe1518c8066","ios":"levelo://app?vid=a3f40776-8dd6-4022-8335-efe1518c8066"},"vehicle_type_id":"4","last_reported":1702364806,"current_range_meters":22400,"station_id":"ce4bhnp2rcd13ifvqgvg","pricing_plan_id":"free"},{"bike_id":"05ec0b93-1679-48dc-82fa-b08f10a72be7","system_id":"levelo_inurba_marseille","lat":43.24073,"lon":5.37757,"is_reserved":false,"is_disabled":false,"rental_uris":{"android":"levelo://app?vid=05ec0b93-1679-48dc-82fa-b08f10a72be7","ios":"levelo://app?vid=05ec0b93-1679-48dc-82fa-b08f10a72be7"},"vehicle_type_id":"4","last_reported":1702364806,"current_range_meters":21600,"station_id":"ce4bhnp2rcd13ifvqgvg","pricing_plan_id":"free"},{"bike_id":"732b290c-5fd1-459a-984c-aeaf25be65b9","system_id":"levelo_inurba_marseille","lat":43.24073,"lon":5.37759,"is_reserved":false,"is_disabled":false,"rental_uris":{"android":"levelo://app?vid=732b290c-5fd1-459a-984c-aeaf25be65b9","ios":"levelo://app?vid=732b290c-5fd1-459a-984c-aeaf25be65b9"},"vehicle_type_id":"4","last_reported":1702364806,"current_range_meters":26000,"station_id":"ce4bhnp2rcd13ifvqgvg","pricing_plan_id":"free"},{"bike_id":"51e06b0d-efe5-4c12-b96b-c631cd280870","system_id":"levelo_inurba_marseille","lat":43.240623,"lon":5.377642,"is_reserved":false,"is_disabled":false,"rental_uris":{"android":"levelo://app?vid=51e06b0d-efe5-4c12-b96b-c631cd280870","ios":"levelo://app?vid=51e06b0d-efe5-4c12-b96b-c631cd280870"},"vehicle_type_id":"4","last_reported":1702364806,"current_range_meters":21200,"station_id":"ce4bhnp2rcd13ifvqgvg","pricing_plan_id":"free"},{"bike_id":"1d5e96fd-0097-48bb-9c6f-3d215f63b432","system_id":"levelo_inurba_marseille","lat":43.240623,"lon":5.377642,"is_reserved":false,"is_disabled":false,"rental_uris":{"android":"levelo://app?vid=1d5e96fd-0097-48bb-9c6f-3d215f63b432","ios":"levelo://app?vid=1d5e96fd-0097-48bb-9c6f-3d215f63b432"},"vehicle_type_id":"4","last_reported":1702364806,"current_range_meters":24800,"station_id":"ce4bhnp2rcd13ifvqgvg","pricing_plan_id":"free"},{"bike_id":"f13172df-4239-479f-ab97-810f25e7e79c","system_id":"levelo_inurba_marseille","lat":43.240623,"lon":5.377642,"is_reserved":false,"is_disabled":false,"rental_uris":{"android":"levelo://app?vid=f13172df-4239-479f-ab97-810f25e7e79c","ios":"levelo://app?vid=f13172df-4239-479f-ab97-810f25e7e79c"},"vehicle_type_id":"4","last_reported":1702364806,"current_range_meters":24000,"station_id":"ce4bhnp2rcd13ifvqgvg","pricing_plan_id":"free"},{"bike_id":"aeaea911-810f-49ff-a654-a790e30c0bc1","system_id":"levelo_inurba_marseille","lat":43.240623,"lon":5.377642,"is_reserved":false,"is_disabled":false,"rental_uris":{"android":"levelo://app?vid=aeaea911-810f-49ff-a654-a790e30c0bc1","ios":"levelo://app?vid=aeaea911-810f-49ff-a654-a790e30c0bc1"},"vehicle_type_id":"4","last_reported":1702364806,"current_range_meters":16400,"station_id":"ce4bhnp2rcd13ifvqgvg","pricing_plan_id":"free"},{"bike_id":"6ed1aa78-92c9-420b-8a27-4a6cb2f0340f","system_id":"levelo_inurba_marseille","lat":43.240623,"lon":5.377642,"is_reserved":false,"is_disabled":false,"rental_uris":{"android":"levelo://app?vid=6ed1aa78-92c9-420b-8a27-4a6cb2f0340f","ios":"levelo://app?vid=6ed1aa78-92c9-420b-8a27-4a6cb2f0340f"},"vehicle_type_id":"4","last_reported":1702364806,"current_range_meters":30800,"station_id":"ce4bhnp2rcd13ifvqgvg","pricing_plan_id":"free"},{"bike_id":"41c222ef-5285-44fd-8b20-90e35a9cb7a1","system_id":"levelo_inurba_marseille","lat":43.240623,"lon":5.377642,"is_reserved":false,"is_disabled":false,"rental_uris":{"android":"levelo://app?vid=41c222ef-5285-44fd-8b20-90e35a9cb7a1","ios":"levelo://app?vid=41c222ef-5285-44fd-8b20-90e35a9cb7a1"},"vehicle_type_id":"4","last_reported":1702364806,"current_range_meters":26000,"station_id":"ce4bhnp2rcd13ifvqgvg","pricing_plan_id":"free"},{"bike_id":"136296a4-26d4-4d38-8af7-65fdb17eedec","system_id":"levelo_inurba_marseille","lat":43.240503,"lon":5.377561,"is_reserved":false,"is_disabled":false,"rental_uris":{"android":"levelo://app?vid=136296a4-26d4-4d38-8af7-65fdb17eedec","ios":"levelo://app?vid=136296a4-26d4-4d38-8af7-65fdb17eedec"},"vehicle_type_id":"4","last_reported":1702364806,"current_range_meters":11600,"station_id":"ce4bhnp2rcd13ifvqgvg","pricing_plan_id":"free"},{"bike_id":"e5f8a3f9-ad33-4c96-8f80-c9bb436ceb1b","system_id":"levelo_inurba_marseille","lat":43.235792,"lon":5.410528,"is_reserved":false,"is_disabled":false,"rental_uris":{"android":"levelo://app?vid=e5f8a3f9-ad33-4c96-8f80-c9bb436ceb1b","ios":"levelo://app?vid=e5f8a3f9-ad33-4c96-8f80-c9bb436ceb1b"},"vehicle_type_id":"4","last_reported":1702364806,"current_range_meters":16800,"station_id":"","pricing_plan_id":"free"},{"bike_id":"d4216b28-6573-4e3c-9c6e-b1f827f4d9da","system_id":"levelo_inurba_marseille","lat":43.23189,"lon":5.399751,"is_reserved":false,"is_disabled":false,"rental_uris":{"android":"levelo://app?vid=d4216b28-6573-4e3c-9c6e-b1f827f4d9da","ios":"levelo://app?vid=d4216b28-6573-4e3c-9c6e-b1f827f4d9da"},"vehicle_type_id":"4","last_reported":1702364806,"current_range_meters":30000,"station_id":"ce4bhn12rcd13ifvqgqg","pricing_plan_id":"free"},{"bike_id":"5c5d811b-920e-4dc2-8b5a-a33a7df9bc05","system_id":"levelo_inurba_marseille","lat":43.231562,"lon":5.436933,"is_reserved":false,"is_disabled":false,"rental_uris":{"android":"levelo://app?vid=5c5d811b-920e-4dc2-8b5a-a33a7df9bc05","ios":"levelo://app?vid=5c5d811b-920e-4dc2-8b5a-a33a7df9bc05"},"vehicle_type_id":"4","last_reported":1702364806,"current_range_meters":15200,"station_id":"ce4bhmp2rcd13ifvqgog","pricing_plan_id":"free"}]}}