{"last_updated":1691157989,"ttl":30,"version":"2.2","data":{"bikes":[{"bike_id":"192555f1-9f30-49a0-853c-b92b4a7532c4","system_id":"levelo_inurba_marseille","lat":43.31338,"lon":5.36732,"is_reserved":false,"is_disabled":false,"rental_uris":{"android":"levelo://app?vid=192555f1-9f30-49a0-853c-b92b4a7532c4","ios":"levelo://app?vid=192555f1-9f30-49a0-853c-b92b4a7532c4"},"vehicle_type_id":"4","last_reported":1691157990,"current_range_meters":23600,"station_id":"ce4bgr92rcd13ifvqc6g","pricing_plan_id":"free"},{"bike_id":"63ed756a-1473-4cdf-8ba0-7998be66af20","system_id":"levelo_inurba_marseille","lat":43.31341,"lon":5.367098,"is_reserved":false,"is_disabled":false,"rental_uris":{"android":"levelo://app?vid=63ed756a-1473-4cdf-8ba0-7998be66af20","ios":"levelo://app?vid=63ed756a-1473-4cdf-8ba0-7998be66af20"},"vehicle_type_id":"4","last_reported":1691157990,"current_range_meters":31600,"station_id":"ce4bgr92rcd13ifvqc6g","pricing_plan_id":"free"},{"bike_id":"9205c172-124c-45f0-81ac-fe956897bf66","system_id":"levelo_inurba_marseille","lat":43.31359,"lon":5.36712,"is_reserved":false,"is_disabled":false,"rental_uris":{"android":"levelo://app?vid=9205c172-124c-45f0-81ac-fe956897bf66","ios":"levelo://app?vid=9205c172-124c-45f0-81ac-fe956897bf66"},"vehicle_type_id":"4","last_reported":1691157990,"current_range_meters":31200,"station_id":"ce4bgr92rcd13ifvqc6g","pricing_plan_id":"free"},{"bike_id":"2b8d978f-efd8-4097-8689-b35619aeca4b","system_id":"levelo_inurba_marseille","lat":43.3136,"lon":5.36716,"is_reserved":false,"is_disabled":false,"rental_uris":{"android":"levelo://app?vid=2b8d978f-efd8-4097-8689-b35619aeca4b","ios":"levelo://app?vid=2b8d978f-efd8-4097-8689-b35619aeca4b"},"vehicle_type_id":"4","last_reported":1691157990,"current_range_meters":31200,"station_id":"ce4bgr92rcd13ifvqc6g","pricing_plan_id":"free"},{"bike_id":"87f783dc-bd5a-41b5-996e-c836cbf1209c","system_id":"levelo_inurba_marseille","lat":43.31365,"lon":5.36719,"is_reserved":false,"is_disabled":false,"rental_uris":{"android":"levelo://app?vid=87f783dc-bd5a-41b5-996e-c836cbf1209c","ios":"levelo://app?vid=87f783dc-bd5a-41b5-996e-c836cbf1209c"},"vehicle_type_id":"4","last_reported":1691157990,"current_range_meters":28000,"station_id":"ce4bgr92rcd13ifvqc6g","pricing_plan_id":"free"},{"bike_id":"a4c188dd-aa44-4fa8-b699-7923c5622a7a","system_id":"levelo_inurba_marseille","lat":43.312239,"lon":5.368562,"is_reserved":false,"is_disabled":false,"rental_uris":{"android":"levelo://app?vid=a4c188dd-aa44-4fa8-b699-7923c5622a7a","ios":"levelo://app?vid=a4c188dd-aa44-4fa8-b699-7923c5622a7a"},"vehicle_type_id":"4","last_reported":1691157990,"current_range_meters":28400,"station_id":"ce4bgl92rcd13ifvqbq0","pricing_plan_id":"free"},{"bike_id":"b11f3a95-4c24-40ba-977e-575a32521cfb","system_id":"levelo_inurba_marseille","lat":43.312239,"lon":5.368562,"is_reserved":false,"is_disabled":false,"rental_uris":{"android":"levelo://app?vid=b11f3a95-4c24-40ba-977e-575a32521cfb","ios":"levelo://app?vid=b11f3a95-4c24-40ba-977e-575a32521cfb"},"vehicle_type_id":"4","last_reported":1691157990,"current_range_meters":22400,"station_id":"ce4bgl92rcd13ifvqbq0","pricing_plan_id":"free"},{"bike_id":"6cfe7a37-4b3f-4a44-ab0f-b05d9e382b4d","system_id":"levelo_inurba_marseille","lat":43.31212,"lon":5.36873,"is_reserved":false,"is_disabled":false,"rental_uris":{"android":"levelo://app?vid=6cfe7a37-4b3f-4a44-ab0f-b05d9e382b4d","ios":"levelo://app?vid=6cfe7a37-4b3f-4a44-ab0f-b05d9e382b4d"},"vehicle_type_id":"4","last_reported":1691157990,"current_range_meters":8800,"station_id":"ce4bgl92rcd13ifvqbq0","pricing_plan_id":"free"},{"bike_id":"07e61941-96e4-4a51-a6be-fcd745de004a","system_id":"levelo_inurba_marseille","lat":43.312239,"lon":5.368562,"is_reserved":false,"is_disabled":false,"rental_uris":{"android":"levelo://app?vid=07e61941-96e4-4a51-a6be-fcd745de004a","ios":"levelo://app?vid=07e61941-96e4-4a51-a6be-fcd745de004a"},"vehicle_type_id":"4","last_reported":1691157990,"current_range_meters":31200,"station_id":"ce4bgl92rcd13ifvqbq0","pricing_plan_id":"free"},{"bike_id":"b473b15c-5f8c-4c45-abe4-dbe21548f98f","system_id":"levelo_inurba_marseille","lat":43.309076,"lon":5.368465,"is_reserved":false,"is_disabled":false,"rental_uris":{"android":"levelo://app?vid=b473b15c-5f8c-4c45-abe4-dbe21548f98f","ios":"levelo://app?vid=b473b15c-5f8c-4c45-abe4-dbe21548f98f"},"vehicle_type_id":"4","last_reported":1691157990,"current_range_meters":6400,"station_id":"ce4bgn92rcd13ifvqbvg","pricing_plan_id":"free"},{"bike_id":"4bda77d8-b0c9-4fd3-96dd-d1b2c8836775","system_id":"levelo_inurba_marseille","lat":43.314811,"lon":5.373103,"is_reserved":false,"is_disabled":false,"rental_uris":{"android":"levelo://app?vid=4bda77d8-b0c9-4fd3-96dd-d1b2c8836775","ios":"levelo://app?vid=4bda77d8-b0c9-4fd3-96dd-d1b2c8836775"},"vehicle_type_id":"4","last_reported":1691157990,"current_range_meters":17600,"station_id":"ce4bgt12rcd13ifvqcd0","pricing_plan_id":"free"},{"bike_id":"bb15548e-155a-41d4-9858-933c1a3f7107","system_id":"levelo_inurba_marseille","lat":43.314811,"lon":5.373103,"is_reserved":false,"is_disabled":false,"rental_uris":{"android":"levelo://app?vid=bb15548e-155a-41d4-9858-933c1a3f7107","ios":"levelo://app?vid=bb15548e-155a-41d4-9858-933c1a3f7107"},"vehicle_type_id":"4","last_reported":1691157990,"current_range_meters":29600,"station_id":"ce4bgt12rcd13ifvqcd0","pricing_plan_id":"free"},{"bike_id":"a7e43bf6-bd08-4061-a3f0-43db00c10148","system_id":"levelo_inurba_marseille","lat":43.314811,"lon":5.373104,"is_reserved":false,"is_disabled":false,"rental_uris":{"android":"levelo://app?vid=a7e43bf6-bd08-4061-a3f0-43db00c10148","ios":"levelo://app?vid=a7e43bf6-bd08-4061-a3f0-43db00c10148"},"vehicle_type_id":"4","last_reported":1691157990,"current_range_meters":0,"station_id":"ce4bgt12rcd13ifvqcd0","pricing_plan_id":"free"},{"bike_id":"7cfb81a3-fd7f-41d1-987d-c1037b7c6b4a","system_id":"levelo_inurba_marseille","lat":43.31424,"lon":5.37458,"is_reserved":false,"is_disabled":false,"rental_uris":{"android":"levelo://app?vid=7cfb81a3-fd7f-41d1-987d-c1037b7c6b4a","ios":"levelo://app?vid=7cfb81a3-fd7f-41d1-987d-c1037b7c6b4a"},"vehicle_type_id":"4","last_reported":1691157990,"current_range_meters":18400,"station_id":"","pricing_plan_id":"free"},{"bike_id":"defb462a-7c65-43ad-ad19-24a0e83d1042","system_id":"levelo_inurba_marseille","lat":43.30542,"lon":5.36732,"is_reserved":false,"is_disabled":false,"rental_uris":{"android":"levelo://app?vid=defb462a-7c65-43ad-ad19-24a0e83d1042","ios":"levelo://app?vid=defb462a-7c65-43ad-ad19-24a0e83d1042"},"vehicle_type_id":"4","last_reported":1691157990,"current_range_meters":30400,"station_id":"ce4bgrp2rcd13ifvqc9g","pricing_plan_id":"free"},{"bike_id":"2879253c-cdc7-469a-ae9d-168aa8c9394b","system_id":"levelo_inurba_marseille","lat":43.305368,"lon":5.367343,"is_reserved":false,"is_disabled":false,"rental_uris":{"android":"levelo://app?vid=2879253c-cdc7-469a-ae9d-168aa8c9394b","ios":"levelo://app?vid=2879253c-cdc7-469a-ae9d-168aa8c9394b"},"vehicle_type_id":"4","last_reported":1691157990,"current_range_meters":25200,"station_id":"ce4bgrp2rcd13ifvqc9g","pricing_plan_id":"free"},{"bike_id":"825c5d59-77fd-47c5-9e70-c65a0b9cf9eb","system_id":"levelo_inurba_marseille","lat":43.305714,"lon":5.365633,"is_reserved":false,"is_disabled":false,"rental_uris":{"android":"levelo://app?vid=825c5d59-77fd-47c5-9e70-c65a0b9cf9eb","ios":"levelo://app?vid=825c5d59-77fd-47c5-9e70-c65a0b9cf9eb"},"vehicle_type_id":"4","last_reported":1691157990,"current_range_meters":18400,"station_id":"ce4bgs12rcd13ifvqcag","pricing_plan_id":"free"},{"bike_id":"495037f8-d31e-4c25-9c38-c220bfdd2696","system_id":"levelo_inurba_marseille","lat":43.30536,"lon":5.36537,"is_reserved":false,"is_disabled":false,"rental_uris":{"android":"levelo://app?vid=495037f8-d31e-4c25-9c38-c220bfdd2696","ios":"levelo://app?vid=495037f8-d31e-4c25-9c38-c220bfdd2696"},"vehicle_type_id":"4","last_reported":1691157990,"current_range_meters":4800,"station_id":"ce4bgs12rcd13ifvqcag","pricing_plan_id":"free"},{"bike_id":"6c69be1c-f272-4d96-9e46-845384c8ede6","system_id":"levelo_inurba_marseille","lat":43.305706,"lon":5.365654,"is_reserved":false,"is_disabled":false,"rental_uris":{"android":"levelo://app?vid=6c69be1c-f272-4d96-9e46-845384c8ede6","ios":"levelo://app?vid=6c69be1c-f272-4d96-9e46-845384c8ede6"},"vehicle_type_id":"4","last_reported":1691157990,"current_range_meters":10800,"station_id":"ce4bgs12rcd13ifvqcag","pricing_plan_id":"free"},{"bike_id":"dcb45eb4-a648-46cc-a272-a05b471590c7","system_id":"levelo_inurba_marseille","lat":43.305989,"lon":5.37225,"is_reserved":false,"is_disabled":false,"rental_uris":{"android":"levelo://app?vid=dcb45eb4-a648-46cc-a272-a05b471590c7","ios":"levelo://app?vid=dcb45eb4-a648-46cc-a272-a05b471590c7"},"vehicle_type_id":"4","last_reported":1691157990,"current_range_meters":26400,"station_id":"ce4bgqh2rcd13ifvqc4g","pricing_plan_id":"free"},{"bike_id":"f20ea888-8740-440b-bfeb-8eb2a7c1f652","system_id":"levelo_inurba_marseille","lat":43.305989,"lon":5.37225,"is_reserved":false,"is_disabled":false,"rental_uris":{"android":"levelo://app?vid=f20ea888-8740-440b-bfeb-8eb2a7c1f652","ios":"levelo://app?vid=f20ea888-8740-440b-bfeb-8eb2a7c1f652"},"vehicle_type_id":"4","last_reported":1691157990,"current_range_meters":31200,"station_id":"ce4bgqh2rcd13ifvqc4g","pricing_plan_id":"free"},{"bike_id":"ff4b992f-95d3-4611-a39e-62daeb0493bb","system_id":"levelo_inurba_marseille","lat":43.305989,"lon":5.37225,"is_reserved":false,"is_disabled":false,"rental_uris":{"android":"levelo://app?vid=ff4b992f-95d3-4611-a39e-62daeb0493bb","ios":"levelo://app?vid=ff4b992f-95d3-4611-a39e-62daeb0493bb"},"vehicle_type_id":"4","last_reported":1691157990,"current_range_meters":10400,"station_id":"ce4bgqh2rcd13ifvqc4g","pricing_plan_id":"free"},{"bike_id":"415ff21c-d69f-4e87-8411-e250a98f8955","system_id":"levelo_inurba_marseille","lat":43.30783,"lon":5.3765,"is_reserved":false,"is_disabled":false,"rental_uris":{"android":"levelo://app?vid=415ff21c-d69f-4e87-8411-e250a98f8955","ios":"levelo://app?vid=415ff21c-d69f-4e87-8411-e250a98f8955"},"vehicle_type_id":"4","last_reported":1691157990,"current_range_meters":20400,"station_id":"ce4bgv92rcd13ifvqcq0","pricing_plan_id":"free"},{"bike_id":"ccb33e66-3f35-4daa-8cff-5192e804e231","system_id":"levelo_inurba_marseille","lat":43.30781,"lon":5.37659,"is_reserved":false,"is_disabled":false,"rental_uris":{"android":"levelo://app?vid=ccb33e66-3f35-4daa-8cff-5192e804e231","ios":"levelo://app?vid=ccb33e66-3f35-4daa-8cff-5192e804e231"},"vehicle_type_id":"4","last_reported":1691157990,"current_range_meters":22000,"station_id":"ce4bgv92rcd13ifvqcq0","pricing_plan_id":"free"},{"bike_id":"6ec4bb7e-8606-49b4-a556-2cb681532bba","system_id":"levelo_inurba_marseille","lat":43.317075,"lon":5.377367,"is_reserved":false,"is_disabled":false,"rental_uris":{"android":"levelo://app?vid=6ec4bb7e-8606-49b4-a556-2cb681532bba","ios":"levelo://app?vid=6ec4bb7e-8606-49b4-a556-2cb681532bba"},"vehicle_type_id":"4","last_reported":1691157990,"current_range_meters":31200,"station_id":"ce4bgth2rcd13ifvqch0","pricing_plan_id":"free"},{"bike_id":"0f49f018-3a14-42ac-bbca-da8f5845e6ae","system_id":"levelo_inurba_marseille","lat":43.304606,"lon":5.379026,"is_reserved":false,"is_disabled":false,"rental_uris":{"android":"levelo://app?vid=0f49f018-3a14-42ac-bbca-da8f5845e6ae","ios":"levelo://app?vid=0f49f018-3a14-42ac-bbca-da8f5845e6ae"},"vehicle_type_id":"4","last_reported":1691157990,"current_range_meters":31200,"station_id":"ce4bgup2rcd13ifvqcn0","pricing_plan_id":"free"},{"bike_id":"3cc83de7-3edc-4769-b6de-6a17680728e1","system_id":"levelo_inurba_marseille","lat":43.304606,"lon":5.379026,"is_reserved":false,"is_disabled":false,"rental_uris":{"android":"levelo://app?vid=3cc83de7-3edc-4769-b6de-6a17680728e1","ios":"levelo://app?vid=3cc83de7-3edc-4769-b6de-6a17680728e1"},"vehicle_type_id":"4","last_reported":1691157990,"current_range_meters":28800,"station_id":"ce4bgup2rcd13ifvqcn0","pricing_plan_id":"free"},{"bike_id":"95773c25-a801-4df4-b70d-e9a8d6825233","system_id":"levelo_inurba_marseille","lat":43.304606,"lon":5.379026,"is_reserved":false,"is_disabled":false,"rental_uris":{"android":"levelo://app?vid=95773c25-a801-4df4-b70d-e9a8d6825233","ios":"levelo://app?vid=95773c25-a801-4df4-b70d-e9a8d6825233"},"vehicle_type_id":"4","last_reported":1691157990,"current_range_meters":11600,"station_id":"ce4bgup2rcd13ifvqcn0","pricing_plan_id":"free"},{"bike_id":"389a863e-68f3-4853-aa27-553e6f45edf1","system_id":"levelo_inurba_marseille","lat":43.304606,"lon":5.379026,"is_reserved":false,"is_disabled":false,"rental_uris":{"android":"levelo://app?vid=389a863e-68f3-4853-aa27-553e6f45edf1","ios":"levelo://app?vid=389a863e-68f3-4853-aa27-553e6f45edf1"},"vehicle_type_id":"4","last_reported":1691157990,"current_range_meters":31200,"station_id":"ce4bgup2rcd13ifvqcn0","pricing_plan_id":"free"},{"bike_id":"55e8acb8-477a-4dbc-99a2-c0ae217a7cfb","system_id":"levelo_inurba_marseille","lat":43.304606,"lon":5.379026,"is_reserved":false,"is_disabled":false,"rental_uris":{"android":"levelo://app?vid=55e8acb8-477a-4dbc-99a2-c0ae217a7cfb","ios":"levelo://app?vid=55e8acb8-477a-4dbc-99a2-c0ae217a7cfb"},"vehicle_type_id":"4","last_reported":1691157990,"current_range_meters":31200,"station_id":"ce4bgup2rcd13ifvqcn0","pricing_plan_id":"free"},{"bike_id":"4e3b7e64-ed15-45e2-a6d6-8d4ce521bf15","system_id":"levelo_inurba_marseille","lat":43.304606,"lon":5.379026,"is_reserved":false,"is_disabled":false,"rental_uris":{"android":"levelo://app?vid=4e3b7e64-ed15-45e2-a6d6-8d4ce521bf15","ios":"levelo://app?vid=4e3b7e64-ed15-45e2-a6d6-8d4ce521bf15"},"vehicle_type_id":"4","last_reported":1691157990,"current_range_meters":21600,"station_id":"ce4bgup2rcd13ifvqcn0","pricing_plan_id":"free"},{"bike_id":"5e582a53-78c9-45d7-a68b-706833b3e930","system_id":"levelo_inurba_marseille","lat":43.304606,"lon":5.379026,"is_reserved":false,"is_disabled":false,"rental_uris":{"android":"levelo://app?vid=5e582a53-78c9-45d7-a68b-706833b3e930","ios":"levelo://app?vid=5e582a53-78c9-45d7-a68b-706833b3e930"},"vehicle_type_id":"4","last_reported":1691157990,"current_range_meters":13600,"station_id":"ce4bgup2rcd13ifvqcn0","pricing_plan_id":"free"},{"bike_id":"61bfeafd-dc38-4dab-8ec1-d42c8e0ed592","system_id":"levelo_inurba_marseille","lat":43.304606,"lon":5.379026,"is_reserved":false,"is_disabled":false,"rental_uris":{"android":"levelo://app?vid=61bfeafd-dc38-4dab-8ec1-d42c8e0ed592","ios":"levelo://app?vid=61bfeafd-dc38-4dab-8ec1-d42c8e0ed592"},"vehicle_type_id":"4","last_reported":1691157990,"current_range_meters":32000,"station_id":"ce4bgup2rcd13ifvqcn0","pricing_plan_id":"free"},{"bike_id":"13c094a1-4937-48f3-8e9a-e2540c40d5b6","system_id":"levelo_inurba_marseille","lat":43.304606,"lon":5.379026,"is_reserved":false,"is_disabled":false,"rental_uris":{"android":"levelo://app?vid=13c094a1-4937-48f3-8e9a-e2540c40d5b6","ios":"levelo://app?vid=13c094a1-4937-48f3-8e9a-e2540c40d5b6"},"vehicle_type_id":"4","last_reported":1691157990,"current_range_meters":14400,"station_id":"ce4bgup2rcd13ifvqcn0","pricing_plan_id":"free"},{"bike_id":"58a2fb21-7673-4d61-a369-188b066f33bc","system_id":"levelo_inurba_marseille","lat":43.304606,"lon":5.379026,"is_reserved":false,"is_disabled":false,"rental_uris":{"android":"levelo://app?vid=58a2fb21-7673-4d61-a369-188b066f33bc","ios":"levelo://app?vid=58a2fb21-7673-4d61-a369-188b066f33bc"},"vehicle_type_id":"4","last_reported":1691157990,"current_range_meters":29600,"station_id":"ce4bgup2rcd13ifvqcn0","pricing_plan_id":"free"},{"bike_id":"f1590960-18f2-454a-b63b-d63404eb2164","system_id":"levelo_inurba_marseille","lat":43.304606,"lon":5.379026,"is_reserved":false,"is_disabled":false,"rental_uris":{"android":"levelo://app?vid=f1590960-18f2-454a-b63b-d63404eb2164","ios":"levelo://app?vid=f1590960-18f2-454a-b63b-d63404eb2164"},"vehicle_type_id":"4","last_reported":1691157990,"current_range_meters":22400,"station_id":"ce4bgup2rcd13ifvqcn0","pricing_plan_id":"free"},{"bike_id":"bf581ea2-210f-4c8e-a74f-750ccb98b051","system_id":"levelo_inurba_marseille","lat":43.304606,"lon":5.379026,"is_reserved":false,"is_disabled":false,"rental_uris":{"android":"levelo://app?vid=bf581ea2-210f-4c8e-a74f-750ccb98b051","ios":"levelo://app?vid=bf581ea2-210f-4c8e-a74f-750ccb98b051"},"vehicle_type_id":"4","last_reported":1691157990,"current_range_meters":20800,"station_id":"ce4bgup2rcd13ifvqcn0","pricing_plan_id":"free"},{"bike_id":"d0bf9e4d-c53d-4448-9e63-26139de0bbdf","system_id":"levelo_inurba_marseille","lat":43.304606,"lon":5.379026,"is_reserved":false,"is_disabled":false,"rental_uris":{"android":"levelo://app?vid=d0bf9e4d-c53d-4448-9e63-26139de0bbdf","ios":"levelo://app?vid=d0bf9e4d-c53d-4448-9e63-26139de0bbdf"},"vehicle_type_id":"4","last_reported":1691157990,"current_range_meters":31200,"station_id":"ce4bgup2rcd13ifvqcn0","pricing_plan_id":"free"},{"bike_id":"9d2d41b2-88c9-48ec-8359-1395036c3f29","system_id":"levelo_inurba_marseille","lat":43.302784,"lon":5.377158,"is_reserved":false,"is_disabled":false,"rental_uris":{"android":"levelo://app?vid=9d2d41b2-88c9-48ec-8359-1395036c3f29","ios":"levelo://app?vid=9d2d41b2-88c9-48ec-8359-1395036c3f29"},"vehicle_type_id":"4","last_reported":1691157990,"current_range_meters":30000,"station_id":"ce4bguh2rcd13ifvqcj0","pricing_plan_id":"free"},{"bike_id":"2208a58c-1020-400d-b1a8-35ecb6a180a5","system_id":"levelo_inurba_marseille","lat":43.302784,"lon":5.377158,"is_reserved":false,"is_disabled":false,"rental_uris":{"android":"levelo://app?vid=2208a58c-1020-400d-b1a8-35ecb6a180a5","ios":"levelo://app?vid=2208a58c-1020-400d-b1a8-35ecb6a180a5"},"vehicle_type_id":"4","last_reported":1691157990,"current_range_meters":8400,"station_id":"ce4bguh2rcd13ifvqcj0","pricing_plan_id":"free"},{"bike_id":"250d1433-a0b5-4630-a1f5-7829efd1efb0","system_id":"levelo_inurba_marseille","lat":43.31991,"lon":5.38137,"is_reserved":false,"is_disabled":false,"rental_uris":{"android":"levelo://app?vid=250d1433-a0b5-4630-a1f5-7829efd1efb0","ios":"levelo://app?vid=250d1433-a0b5-4630-a1f5-7829efd1efb0"},"vehicle_type_id":"4","last_reported":1691157990,"current_range_meters":27200,"station_id":"ce4bhr12rcd13ifvqhpg","pricing_plan_id":"free"},{"bike_id":"e45a538e-1e90-44b2-9c95-32280928a357","system_id":"levelo_inurba_marseille","lat":43.319935,"lon":5.381699,"is_reserved":false,"is_disabled":false,"rental_uris":{"android":"levelo://app?vid=e45a538e-1e90-44b2-9c95-32280928a357","ios":"levelo://app?vid=e45a538e-1e90-44b2-9c95-32280928a357"},"vehicle_type_id":"4","last_reported":1691157990,"current_range_meters":18400,"station_id":"ce4bhr12rcd13ifvqhpg","pricing_plan_id":"free"},{"bike_id":"f19fd436-6164-486d-acb2-87371dbe082f","system_id":"levelo_inurba_marseille","lat":43.31994,"lon":5.38166,"is_reserved":false,"is_disabled":false,"rental_uris":{"android":"levelo://app?vid=f19fd436-6164-486d-acb2-87371dbe082f","ios":"levelo://app?vid=f19fd436-6164-486d-acb2-87371dbe082f"},"vehicle_type_id":"4","last_reported":1691157990,"current_range_meters":400,"station_id":"ce4bhr12rcd13ifvqhpg","pricing_plan_id":"free"},{"bike_id":"a0dfb91f-0118-419d-b6ff-34a857b2df55","system_id":"levelo_inurba_marseille","lat":43.313571,"lon":5.384829,"is_reserved":false,"is_disabled":false,"rental_uris":{"android":"levelo://app?vid=a0dfb91f-0118-419d-b6ff-34a857b2df55","ios":"levelo://app?vid=a0dfb91f-0118-419d-b6ff-34a857b2df55"},"vehicle_type_id":"4","last_reported":1691157990,"current_range_meters":22800,"station_id":"ce4bgt92rcd13ifvqcf0","pricing_plan_id":"free"},{"bike_id":"1b9f7d8b-7564-469f-9f17-c98ea15ef4e6","system_id":"levelo_inurba_marseille","lat":43.313571,"lon":5.384829,"is_reserved":false,"is_disabled":false,"rental_uris":{"android":"levelo://app?vid=1b9f7d8b-7564-469f-9f17-c98ea15ef4e6","ios":"levelo://app?vid=1b9f7d8b-7564-469f-9f17-c98ea15ef4e6"},"vehicle_type_id":"4","last_reported":1691157990,"current_range_meters":31200,"station_id":"ce4bgt92rcd13ifvqcf0","pricing_plan_id":"free"},{"bike_id":"33bf7e71-04d9-4685-98b5-168c93fd5f00","system_id":"levelo_inurba_marseille","lat":43.313571,"lon":5.384829,"is_reserved":false,"is_disabled":false,"rental_uris":{"android":"levelo://app?vid=33bf7e71-04d9-4685-98b5-168c93fd5f00","ios":"levelo://app?vid=33bf7e71-04d9-4685-98b5-168c93fd5f00"},"vehicle_type_id":"4","last_reported":1691157990,"current_range_meters":22000,"station_id":"ce4bgt92rcd13ifvqcf0","pricing_plan_id":"free"},{"bike_id":"98d0f659-ba7a-4ec0-abfd-345cd91133ce","system_id":"levelo_inurba_marseille","lat":43.299724,"lon":5.371829,"is_reserved":false,"is_disabled":false,"rental_uris":{"android":"levelo://app?vid=98d0f659-ba7a-4ec0-abfd-345cd91133ce","ios":"levelo://app?vid=98d0f659-ba7a-4ec0-abfd-345cd91133ce"},"vehicle_type_id":"4","last_reported":1691157990,"current_range_meters":13600,"station_id":"ce4bgr92rcd13ifvqc7g","pricing_plan_id":"free"},{"bike_id":"3cb7fd70-121e-4eb5-9a01-ecc8718aa1bb","system_id":"levelo_inurba_marseille","lat":43.29932,"lon":5.36544,"is_reserved":false,"is_disabled":false,"rental_uris":{"android":"levelo://app?vid=3cb7fd70-121e-4eb5-9a01-ecc8718aa1bb","ios":"levelo://app?vid=3cb7fd70-121e-4eb5-9a01-ecc8718aa1bb"},"vehicle_type_id":"4","last_reported":1691157990,"current_range_meters":27600,"station_id":"ce4bgm92rcd13ifvqbr0","pricing_plan_id":"free"},{"bike_id":"713239d4-9eaa-4c54-b4a7-c790ac9dd677","system_id":"levelo_inurba_marseille","lat":43.299724,"lon":5.371829,"is_reserved":false,"is_disabled":false,"rental_uris":{"android":"levelo://app?vid=713239d4-9eaa-4c54-b4a7-c790ac9dd677","ios":"levelo://app?vid=713239d4-9eaa-4c54-b4a7-c790ac9dd677"},"vehicle_type_id":"4","last_reported":1691157990,"current_range_meters":15200,"station_id":"ce4bgr92rcd13ifvqc7g","pricing_plan_id":"free"},{"bike_id":"af642cf3-88ae-4be9-bb1a-7e501cd03cd0","system_id":"levelo_inurba_marseille","lat":43.29857,"lon":5.36293,"is_reserved":false,"is_disabled":false,"rental_uris":{"android":"levelo://app?vid=af642cf3-88ae-4be9-bb1a-7e501cd03cd0","ios":"levelo://app?vid=af642cf3-88ae-4be9-bb1a-7e501cd03cd0"},"vehicle_type_id":"4","last_reported":1691157990,"current_range_meters":21200,"station_id":"ce4bgpp2rcd13ifvqc3g","pricing_plan_id":"free"},{"bike_id":"cf5c3032-36fb-47f0-8946-896f31ec659b","system_id":"levelo_inurba_marseille","lat":43.29854,"lon":5.36289,"is_reserved":false,"is_disabled":false,"rental_uris":{"android":"levelo://app?vid=cf5c3032-36fb-47f0-8946-896f31ec659b","ios":"levelo://app?vid=cf5c3032-36fb-47f0-8946-896f31ec659b"},"vehicle_type_id":"4","last_reported":1691157990,"current_range_meters":9200,"station_id":"ce4bgpp2rcd13ifvqc3g","pricing_plan_id":"free"},{"bike_id":"30537d43-af02-4a10-b928-7b9b8cf633d2","system_id":"levelo_inurba_marseille","lat":43.30542,"lon":5.38425,"is_reserved":false,"is_disabled":false,"rental_uris":{"android":"levelo://app?vid=30537d43-af02-4a10-b928-7b9b8cf633d2","ios":"levelo://app?vid=30537d43-af02-4a10-b928-7b9b8cf633d2"},"vehicle_type_id":"4","last_reported":1691157990,"current_range_meters":29600,"station_id":"ce4bgg92rcd13ifvqb30","pricing_plan_id":"free"},{"bike_id":"8d732a0b-0a88-48d6-bd74-2bf3b22c0d29","system_id":"levelo_inurba_marseille","lat":43.29843,"lon":5.36265,"is_reserved":false,"is_disabled":false,"rental_uris":{"android":"levelo://app?vid=8d732a0b-0a88-48d6-bd74-2bf3b22c0d29","ios":"levelo://app?vid=8d732a0b-0a88-48d6-bd74-2bf3b22c0d29"},"vehicle_type_id":"4","last_reported":1691157990,"current_range_meters":31200,"station_id":"ce4bgpp2rcd13ifvqc3g","pricing_plan_id":"free"},{"bike_id":"eb1411da-4683-4bba-937c-ecd048789163","system_id":"levelo_inurba_marseille","lat":43.305364,"lon":5.384119,"is_reserved":false,"is_disabled":false,"rental_uris":{"android":"levelo://app?vid=eb1411da-4683-4bba-937c-ecd048789163","ios":"levelo://app?vid=eb1411da-4683-4bba-937c-ecd048789163"},"vehicle_type_id":"4","last_reported":1691157990,"current_range_meters":30000,"station_id":"ce4bgg92rcd13ifvqb30","pricing_plan_id":"free"},{"bike_id":"0c1a3ed9-79f1-4b42-ad67-ca369b176001","system_id":"levelo_inurba_marseille","lat":43.29837,"lon":5.36263,"is_reserved":false,"is_disabled":false,"rental_uris":{"android":"levelo://app?vid=0c1a3ed9-79f1-4b42-ad67-ca369b176001","ios":"levelo://app?vid=0c1a3ed9-79f1-4b42-ad67-ca369b176001"},"vehicle_type_id":"4","last_reported":1691157990,"current_range_meters":31200,"station_id":"ce4bgpp2rcd13ifvqc3g","pricing_plan_id":"free"},{"bike_id":"dc5047f2-5f01-4fe9-b815-ae27e2b05db3","system_id":"levelo_inurba_marseille","lat":43.29919,"lon":5.37488,"is_reserved":false,"is_disabled":false,"rental_uris":{"android":"levelo://app?vid=dc5047f2-5f01-4fe9-b815-ae27e2b05db3","ios":"levelo://app?vid=dc5047f2-5f01-4fe9-b815-ae27e2b05db3"},"vehicle_type_id":"4","last_reported":1691157990,"current_range_meters":15200,"station_id":"ce4bgjh2rcd13ifvqbg0","pricing_plan_id":"free"},{"bike_id":"44212510-9264-4974-8d02-b973746327b4","system_id":"levelo_inurba_marseille","lat":43.299243,"lon":5.374807,"is_reserved":false,"is_disabled":false,"rental_uris":{"android":"levelo://app?vid=44212510-9264-4974-8d02-b973746327b4","ios":"levelo://app?vid=44212510-9264-4974-8d02-b973746327b4"},"vehicle_type_id":"4","last_reported":1691157990,"current_range_meters":31200,"station_id":"ce4bgjh2rcd13ifvqbg0","pricing_plan_id":"free"},{"bike_id":"150f3e1b-c966-4d5d-a4d3-f8ff6b217a57","system_id":"levelo_inurba_marseille","lat":43.311722,"lon":5.387247,"is_reserved":false,"is_disabled":false,"rental_uris":{"android":"levelo://app?vid=150f3e1b-c966-4d5d-a4d3-f8ff6b217a57","ios":"levelo://app?vid=150f3e1b-c966-4d5d-a4d3-f8ff6b217a57"},"vehicle_type_id":"4","last_reported":1691157990,"current_range_meters":20400,"station_id":"ce4bgv12rcd13ifvqcp0","pricing_plan_id":"free"},{"bike_id":"91da7ce0-87ca-4763-af52-1dd60beba688","system_id":"levelo_inurba_marseille","lat":43.311722,"lon":5.387247,"is_reserved":false,"is_disabled":false,"rental_uris":{"android":"levelo://app?vid=91da7ce0-87ca-4763-af52-1dd60beba688","ios":"levelo://app?vid=91da7ce0-87ca-4763-af52-1dd60beba688"},"vehicle_type_id":"4","last_reported":1691157990,"current_range_meters":21600,"station_id":"ce4bgv12rcd13ifvqcp0","pricing_plan_id":"free"},{"bike_id":"760bb108-0899-46dd-8c5e-45e701053058","system_id":"levelo_inurba_marseille","lat":43.297794,"lon":5.370888,"is_reserved":false,"is_disabled":false,"rental_uris":{"android":"levelo://app?vid=760bb108-0899-46dd-8c5e-45e701053058","ios":"levelo://app?vid=760bb108-0899-46dd-8c5e-45e701053058"},"vehicle_type_id":"4","last_reported":1691157990,"current_range_meters":28800,"station_id":"ce4bgop2rcd13ifvqc1g","pricing_plan_id":"free"},{"bike_id":"fc5a3b45-8f3c-491d-8053-5c6793d930a1","system_id":"levelo_inurba_marseille","lat":43.297794,"lon":5.370888,"is_reserved":false,"is_disabled":false,"rental_uris":{"android":"levelo://app?vid=fc5a3b45-8f3c-491d-8053-5c6793d930a1","ios":"levelo://app?vid=fc5a3b45-8f3c-491d-8053-5c6793d930a1"},"vehicle_type_id":"4","last_reported":1691157990,"current_range_meters":29200,"station_id":"ce4bgop2rcd13ifvqc1g","pricing_plan_id":"free"},{"bike_id":"cbb017a8-24bf-4ab9-8007-443ec38604e9","system_id":"levelo_inurba_marseille","lat":43.297163,"lon":5.365866,"is_reserved":false,"is_disabled":false,"rental_uris":{"android":"levelo://app?vid=cbb017a8-24bf-4ab9-8007-443ec38604e9","ios":"levelo://app?vid=cbb017a8-24bf-4ab9-8007-443ec38604e9"},"vehicle_type_id":"4","last_reported":1691157990,"current_range_meters":15600,"station_id":"ce4bgn12rcd13ifvqbt0","pricing_plan_id":"free"},{"bike_id":"1d465be4-84fa-4f5d-a27f-82ed52625d7b","system_id":"levelo_inurba_marseille","lat":43.297163,"lon":5.365866,"is_reserved":false,"is_disabled":false,"rental_uris":{"android":"levelo://app?vid=1d465be4-84fa-4f5d-a27f-82ed52625d7b","ios":"levelo://app?vid=1d465be4-84fa-4f5d-a27f-82ed52625d7b"},"vehicle_type_id":"4","last_reported":1691157990,"current_range_meters":31200,"station_id":"ce4bgn12rcd13ifvqbt0","pricing_plan_id":"free"},{"bike_id":"570acc81-c16a-4e90-9263-ea3349f85444","system_id":"levelo_inurba_marseille","lat":43.297163,"lon":5.365866,"is_reserved":false,"is_disabled":false,"rental_uris":{"android":"levelo://app?vid=570acc81-c16a-4e90-9263-ea3349f85444","ios":"levelo://app?vid=570acc81-c16a-4e90-9263-ea3349f85444"},"vehicle_type_id":"4","last_reported":1691157990,"current_range_meters":21600,"station_id":"ce4bgn12rcd13ifvqbt0","pricing_plan_id":"free"},{"bike_id":"3d8f763a-2773-4d40-9c46-c5b574a80b5e","system_id":"levelo_inurba_marseille","lat":43.29706,"lon":5.36616,"is_reserved":false,"is_disabled":false,"rental_uris":{"android":"levelo://app?vid=3d8f763a-2773-4d40-9c46-c5b574a80b5e","ios":"levelo://app?vid=3d8f763a-2773-4d40-9c46-c5b574a80b5e"},"vehicle_type_id":"4","last_reported":1691157990,"current_range_meters":11200,"station_id":"ce4bgn12rcd13ifvqbt0","pricing_plan_id":"free"},{"bike_id":"dd789220-e7b5-42c1-b9dc-dc4243148021","system_id":"levelo_inurba_marseille","lat":43.297163,"lon":5.365866,"is_reserved":false,"is_disabled":false,"rental_uris":{"android":"levelo://app?vid=dd789220-e7b5-42c1-b9dc-dc4243148021","ios":"levelo://app?vid=dd789220-e7b5-42c1-b9dc-dc4243148021"},"vehicle_type_id":"4","last_reported":1691157990,"current_range_meters":31200,"station_id":"ce4bgn12rcd13ifvqbt0","pricing_plan_id":"free"},{"bike_id":"337dcb60-0c60-4c16-8d36-037de0e035da","system_id":"levelo_inurba_marseille","lat":43.296131,"lon":5.370791,"is_reserved":false,"is_disabled":false,"rental_uris":{"android":"levelo://app?vid=337dcb60-0c60-4c16-8d36-037de0e035da","ios":"levelo://app?vid=337dcb60-0c60-4c16-8d36-037de0e035da"},"vehicle_type_id":"4","last_reported":1691157990,"current_range_meters":1200,"station_id":"ce4bgnh2rcd13ifvqc0g","pricing_plan_id":"free"},{"bike_id":"9d2b396f-a797-4f3a-8f45-b8e22f6ee4e6","system_id":"levelo_inurba_marseille","lat":43.29909,"lon":5.38115,"is_reserved":false,"is_disabled":false,"rental_uris":{"android":"levelo://app?vid=9d2b396f-a797-4f3a-8f45-b8e22f6ee4e6","ios":"levelo://app?vid=9d2b396f-a797-4f3a-8f45-b8e22f6ee4e6"},"vehicle_type_id":"4","last_reported":1691157990,"current_range_meters":5200,"station_id":"ce4bgj12rcd13ifvqbc0","pricing_plan_id":"free"},{"bike_id":"b653b91d-edf7-4a2e-afaa-d13a533a9620","system_id":"levelo_inurba_marseille","lat":43.296935,"lon":5.376544,"is_reserved":false,"is_disabled":false,"rental_uris":{"android":"levelo://app?vid=b653b91d-edf7-4a2e-afaa-d13a533a9620","ios":"levelo://app?vid=b653b91d-edf7-4a2e-afaa-d13a533a9620"},"vehicle_type_id":"4","last_reported":1691157990,"current_range_meters":22800,"station_id":"ce4bgkh2rcd13ifvqbl0","pricing_plan_id":"free"},{"bike_id":"375feb34-2e6b-42d2-a561-67799e9bd02f","system_id":"levelo_inurba_marseille","lat":43.299028,"lon":5.381509,"is_reserved":false,"is_disabled":false,"rental_uris":{"android":"levelo://app?vid=375feb34-2e6b-42d2-a561-67799e9bd02f","ios":"levelo://app?vid=375feb34-2e6b-42d2-a561-67799e9bd02f"},"vehicle_type_id":"4","last_reported":1691157990,"current_range_meters":4000,"station_id":"ce4bgj12rcd13ifvqbc0","pricing_plan_id":"free"},{"bike_id":"34900dea-89f1-4772-a18b-19f7074521ab","system_id":"levelo_inurba_marseille","lat":43.299028,"lon":5.381509,"is_reserved":false,"is_disabled":false,"rental_uris":{"android":"levelo://app?vid=34900dea-89f1-4772-a18b-19f7074521ab","ios":"levelo://app?vid=34900dea-89f1-4772-a18b-19f7074521ab"},"vehicle_type_id":"4","last_reported":1691157990,"current_range_meters":11200,"station_id":"ce4bgj12rcd13ifvqbc0","pricing_plan_id":"free"},{"bike_id":"df5f1029-ecbd-43f5-8589-0ce45d3ffae5","system_id":"levelo_inurba_marseille","lat":43.29908,"lon":5.38136,"is_reserved":false,"is_disabled":false,"rental_uris":{"android":"levelo://app?vid=df5f1029-ecbd-43f5-8589-0ce45d3ffae5","ios":"levelo://app?vid=df5f1029-ecbd-43f5-8589-0ce45d3ffae5"},"vehicle_type_id":"4","last_reported":1691157990,"current_range_meters":22400,"station_id":"ce4bgj12rcd13ifvqbc0","pricing_plan_id":"free"},{"bike_id":"16aadf78-d698-49eb-98e5-28462b91caa1","system_id":"levelo_inurba_marseille","lat":43.296935,"lon":5.376544,"is_reserved":false,"is_disabled":false,"rental_uris":{"android":"levelo://app?vid=16aadf78-d698-49eb-98e5-28462b91caa1","ios":"levelo://app?vid=16aadf78-d698-49eb-98e5-28462b91caa1"},"vehicle_type_id":"4","last_reported":1691157990,"current_range_meters":20800,"station_id":"ce4bgkh2rcd13ifvqbl0","pricing_plan_id":"free"},{"bike_id":"e9904f72-0459-468e-8a76-5f3c4c13938f","system_id":"levelo_inurba_marseille","lat":43.296921,"lon":5.376579,"is_reserved":false,"is_disabled":false,"rental_uris":{"android":"levelo://app?vid=e9904f72-0459-468e-8a76-5f3c4c13938f","ios":"levelo://app?vid=e9904f72-0459-468e-8a76-5f3c4c13938f"},"vehicle_type_id":"4","last_reported":1691157990,"current_range_meters":7600,"station_id":"ce4bgkh2rcd13ifvqbl0","pricing_plan_id":"free"},{"bike_id":"f0b1921d-8fc5-42f6-8214-26455e772ce5","system_id":"levelo_inurba_marseille","lat":43.309589,"lon":5.390258,"is_reserved":false,"is_disabled":false,"rental_uris":{"android":"levelo://app?vid=f0b1921d-8fc5-42f6-8214-26455e772ce5","ios":"levelo://app?vid=f0b1921d-8fc5-42f6-8214-26455e772ce5"},"vehicle_type_id":"4","last_reported":1691157990,"current_range_meters":26000,"station_id":"ce4bgup2rcd13ifvqco0","pricing_plan_id":"free"},{"bike_id":"c070a522-6c17-4333-a9ee-bbef4dc643ed","system_id":"levelo_inurba_marseille","lat":43.317557,"lon":5.390173,"is_reserved":false,"is_disabled":false,"rental_uris":{"android":"levelo://app?vid=c070a522-6c17-4333-a9ee-bbef4dc643ed","ios":"levelo://app?vid=c070a522-6c17-4333-a9ee-bbef4dc643ed"},"vehicle_type_id":"4","last_reported":1691157990,"current_range_meters":30400,"station_id":"ce4bhqp2rcd13ifvqhng","pricing_plan_id":"free"},{"bike_id":"90569ba5-8bb9-4d2d-b876-dc35e42f9a0c","system_id":"levelo_inurba_marseille","lat":43.317557,"lon":5.390173,"is_reserved":false,"is_disabled":false,"rental_uris":{"android":"levelo://app?vid=90569ba5-8bb9-4d2d-b876-dc35e42f9a0c","ios":"levelo://app?vid=90569ba5-8bb9-4d2d-b876-dc35e42f9a0c"},"vehicle_type_id":"4","last_reported":1691157990,"current_range_meters":15600,"station_id":"ce4bhqp2rcd13ifvqhng","pricing_plan_id":"free"},{"bike_id":"fb5d1b63-b2f2-4d34-b700-b062bf6b4e69","system_id":"levelo_inurba_marseille","lat":43.317557,"lon":5.390173,"is_reserved":false,"is_disabled":false,"rental_uris":{"android":"levelo://app?vid=fb5d1b63-b2f2-4d34-b700-b062bf6b4e69","ios":"levelo://app?vid=fb5d1b63-b2f2-4d34-b700-b062bf6b4e69"},"vehicle_type_id":"4","last_reported":1691157990,"current_range_meters":31200,"station_id":"ce4bhqp2rcd13ifvqhng","pricing_plan_id":"free"},{"bike_id":"1035ed13-b6d1-4490-ad8e-993f1c686aa3","system_id":"levelo_inurba_marseille","lat":43.296263,"lon":5.377094,"is_reserved":false,"is_disabled":false,"rental_uris":{"android":"levelo://app?vid=1035ed13-b6d1-4490-ad8e-993f1c686aa3","ios":"levelo://app?vid=1035ed13-b6d1-4490-ad8e-993f1c686aa3"},"vehicle_type_id":"4","last_reported":1691157990,"current_range_meters":800,"station_id":"ce4bgi92rcd13ifvqb90","pricing_plan_id":"free"},{"bike_id":"cd24fc59-daa0-44c3-a5c9-884e80eed479","system_id":"levelo_inurba_marseille","lat":43.296263,"lon":5.377094,"is_reserved":false,"is_disabled":false,"rental_uris":{"android":"levelo://app?vid=cd24fc59-daa0-44c3-a5c9-884e80eed479","ios":"levelo://app?vid=cd24fc59-daa0-44c3-a5c9-884e80eed479"},"vehicle_type_id":"4","last_reported":1691157990,"current_range_meters":7600,"station_id":"ce4bgi92rcd13ifvqb90","pricing_plan_id":"free"},{"bike_id":"33f61278-1c6c-4988-9902-ab2c7fd5bf2b","system_id":"levelo_inurba_marseille","lat":43.296263,"lon":5.377094,"is_reserved":false,"is_disabled":false,"rental_uris":{"android":"levelo://app?vid=33f61278-1c6c-4988-9902-ab2c7fd5bf2b","ios":"levelo://app?vid=33f61278-1c6c-4988-9902-ab2c7fd5bf2b"},"vehicle_type_id":"4","last_reported":1691157990,"current_range_meters":12400,"station_id":"ce4bgi92rcd13ifvqb90","pricing_plan_id":"free"},{"bike_id":"0fb467b5-6511-47ad-8ab8-a25b941c8907","system_id":"levelo_inurba_marseille","lat":43.296277,"lon":5.377108,"is_reserved":false,"is_disabled":false,"rental_uris":{"android":"levelo://app?vid=0fb467b5-6511-47ad-8ab8-a25b941c8907","ios":"levelo://app?vid=0fb467b5-6511-47ad-8ab8-a25b941c8907"},"vehicle_type_id":"4","last_reported":1691157990,"current_range_meters":30800,"station_id":"ce4bgi92rcd13ifvqb90","pricing_plan_id":"free"},{"bike_id":"c7a69a43-03c8-42e7-b6b3-a3cf10493950","system_id":"levelo_inurba_marseille","lat":43.295279,"lon":5.375048,"is_reserved":false,"is_disabled":false,"rental_uris":{"android":"levelo://app?vid=c7a69a43-03c8-42e7-b6b3-a3cf10493950","ios":"levelo://app?vid=c7a69a43-03c8-42e7-b6b3-a3cf10493950"},"vehicle_type_id":"4","last_reported":1691157990,"current_range_meters":22800,"station_id":"ce4bgkp2rcd13ifvqbmg","pricing_plan_id":"free"},{"bike_id":"715f61f6-fc72-40f6-a5f3-6b1b9922c23c","system_id":"levelo_inurba_marseille","lat":43.295279,"lon":5.375048,"is_reserved":false,"is_disabled":false,"rental_uris":{"android":"levelo://app?vid=715f61f6-fc72-40f6-a5f3-6b1b9922c23c","ios":"levelo://app?vid=715f61f6-fc72-40f6-a5f3-6b1b9922c23c"},"vehicle_type_id":"4","last_reported":1691157990,"current_range_meters":1200,"station_id":"ce4bgkp2rcd13ifvqbmg","pricing_plan_id":"free"},{"bike_id":"d6b23a53-92eb-45bf-869f-e2282f41ade9","system_id":"levelo_inurba_marseille","lat":43.299707,"lon":5.384859,"is_reserved":false,"is_disabled":false,"rental_uris":{"android":"levelo://app?vid=d6b23a53-92eb-45bf-869f-e2282f41ade9","ios":"levelo://app?vid=d6b23a53-92eb-45bf-869f-e2282f41ade9"},"vehicle_type_id":"4","last_reported":1691157990,"current_range_meters":19200,"station_id":"ce4bgj92rcd13ifvqbd0","pricing_plan_id":"free"},{"bike_id":"ee373f4b-d04e-43ef-92b8-3105e264ba5d","system_id":"levelo_inurba_marseille","lat":43.32367,"lon":5.388836,"is_reserved":false,"is_disabled":false,"rental_uris":{"android":"levelo://app?vid=ee373f4b-d04e-43ef-92b8-3105e264ba5d","ios":"levelo://app?vid=ee373f4b-d04e-43ef-92b8-3105e264ba5d"},"vehicle_type_id":"4","last_reported":1691157990,"current_range_meters":26800,"station_id":"ce4bhqp2rcd13ifvqhog","pricing_plan_id":"free"},{"bike_id":"bcab87f8-4000-4f0d-8af8-06c7cdaa4ad4","system_id":"levelo_inurba_marseille","lat":43.32362,"lon":5.38882,"is_reserved":false,"is_disabled":false,"rental_uris":{"android":"levelo://app?vid=bcab87f8-4000-4f0d-8af8-06c7cdaa4ad4","ios":"levelo://app?vid=bcab87f8-4000-4f0d-8af8-06c7cdaa4ad4"},"vehicle_type_id":"4","last_reported":1691157990,"current_range_meters":13200,"station_id":"ce4bhqp2rcd13ifvqhog","pricing_plan_id":"free"},{"bike_id":"5f1c231d-5549-420b-a974-1b1406435a60","system_id":"levelo_inurba_marseille","lat":43.32367,"lon":5.388836,"is_reserved":false,"is_disabled":false,"rental_uris":{"android":"levelo://app?vid=5f1c231d-5549-420b-a974-1b1406435a60","ios":"levelo://app?vid=5f1c231d-5549-420b-a974-1b1406435a60"},"vehicle_type_id":"4","last_reported":1691157990,"current_range_meters":26000,"station_id":"ce4bhqp2rcd13ifvqhog","pricing_plan_id":"free"},{"bike_id":"b0c7ca86-ee56-4d5b-8ef5-0c1132701ee5","system_id":"levelo_inurba_marseille","lat":43.32361,"lon":5.38884,"is_reserved":false,"is_disabled":false,"rental_uris":{"android":"levelo://app?vid=b0c7ca86-ee56-4d5b-8ef5-0c1132701ee5","ios":"levelo://app?vid=b0c7ca86-ee56-4d5b-8ef5-0c1132701ee5"},"vehicle_type_id":"4","last_reported":1691157990,"current_range_meters":27600,"station_id":"ce4bhqp2rcd13ifvqhog","pricing_plan_id":"free"},{"bike_id":"3205d0e9-dc07-44ba-8cfe-0b5a882e32d0","system_id":"levelo_inurba_marseille","lat":43.32366,"lon":5.3888,"is_reserved":false,"is_disabled":false,"rental_uris":{"android":"levelo://app?vid=3205d0e9-dc07-44ba-8cfe-0b5a882e32d0","ios":"levelo://app?vid=3205d0e9-dc07-44ba-8cfe-0b5a882e32d0"},"vehicle_type_id":"4","last_reported":1691157990,"current_range_meters":26400,"station_id":"ce4bhqp2rcd13ifvqhog","pricing_plan_id":"free"},{"bike_id":"153806a9-c106-4acb-8efe-f81ba29b58d3","system_id":"levelo_inurba_marseille","lat":43.32363,"lon":5.38883,"is_reserved":false,"is_disabled":false,"rental_uris":{"android":"levelo://app?vid=153806a9-c106-4acb-8efe-f81ba29b58d3","ios":"levelo://app?vid=153806a9-c106-4acb-8efe-f81ba29b58d3"},"vehicle_type_id":"4","last_reported":1691157990,"current_range_meters":28800,"station_id":"ce4bhqp2rcd13ifvqhog","pricing_plan_id":"free"},{"bike_id":"ea8035d1-28fe-43e1-9f00-12a102f9e97f","system_id":"levelo_inurba_marseille","lat":43.3236,"lon":5.38887,"is_reserved":false,"is_disabled":false,"rental_uris":{"android":"levelo://app?vid=ea8035d1-28fe-43e1-9f00-12a102f9e97f","ios":"levelo://app?vid=ea8035d1-28fe-43e1-9f00-12a102f9e97f"},"vehicle_type_id":"4","last_reported":1691157990,"current_range_meters":24000,"station_id":"ce4bhqp2rcd13ifvqhog","pricing_plan_id":"free"},{"bike_id":"8302eeba-1a7c-4b0b-af87-29f1cf9b8a06","system_id":"levelo_inurba_marseille","lat":43.32367,"lon":5.388836,"is_reserved":false,"is_disabled":false,"rental_uris":{"android":"levelo://app?vid=8302eeba-1a7c-4b0b-af87-29f1cf9b8a06","ios":"levelo://app?vid=8302eeba-1a7c-4b0b-af87-29f1cf9b8a06"},"vehicle_type_id":"4","last_reported":1691157990,"current_range_meters":27600,"station_id":"ce4bhqp2rcd13ifvqhog","pricing_plan_id":"free"},{"bike_id":"02623514-c61e-4999-b4e9-bc9b02d98e9a","system_id":"levelo_inurba_marseille","lat":43.32362,"lon":5.38886,"is_reserved":false,"is_disabled":false,"rental_uris":{"android":"levelo://app?vid=02623514-c61e-4999-b4e9-bc9b02d98e9a","ios":"levelo://app?vid=02623514-c61e-4999-b4e9-bc9b02d98e9a"},"vehicle_type_id":"4","last_reported":1691157990,"current_range_meters":30000,"station_id":"ce4bhqp2rcd13ifvqhog","pricing_plan_id":"free"},{"bike_id":"be3b9c7a-ef73-47f2-8a40-38431e709cbe","system_id":"levelo_inurba_marseille","lat":43.32361,"lon":5.38887,"is_reserved":false,"is_disabled":false,"rental_uris":{"android":"levelo://app?vid=be3b9c7a-ef73-47f2-8a40-38431e709cbe","ios":"levelo://app?vid=be3b9c7a-ef73-47f2-8a40-38431e709cbe"},"vehicle_type_id":"4","last_reported":1691157990,"current_range_meters":28800,"station_id":"ce4bhqp2rcd13ifvqhog","pricing_plan_id":"free"},{"bike_id":"83e40035-5ae5-4bb2-89ae-adf2ef147026","system_id":"levelo_inurba_marseille","lat":43.323676,"lon":5.388816,"is_reserved":false,"is_disabled":false,"rental_uris":{"android":"levelo://app?vid=83e40035-5ae5-4bb2-89ae-adf2ef147026","ios":"levelo://app?vid=83e40035-5ae5-4bb2-89ae-adf2ef147026"},"vehicle_type_id":"4","last_reported":1691157990,"current_range_meters":11200,"station_id":"","pricing_plan_id":"free"},{"bike_id":"3d2edb57-516f-41bc-985e-42a721904578","system_id":"levelo_inurba_marseille","lat":43.32367,"lon":5.388836,"is_reserved":false,"is_disabled":false,"rental_uris":{"android":"levelo://app?vid=3d2edb57-516f-41bc-985e-42a721904578","ios":"levelo://app?vid=3d2edb57-516f-41bc-985e-42a721904578"},"vehicle_type_id":"4","last_reported":1691157990,"current_range_meters":25600,"station_id":"ce4bhqp2rcd13ifvqhog","pricing_plan_id":"free"},{"bike_id":"0096218a-32f1-4ad1-a7f6-a83210e4e020","system_id":"levelo_inurba_marseille","lat":43.32364,"lon":5.38892,"is_reserved":false,"is_disabled":false,"rental_uris":{"android":"levelo://app?vid=0096218a-32f1-4ad1-a7f6-a83210e4e020","ios":"levelo://app?vid=0096218a-32f1-4ad1-a7f6-a83210e4e020"},"vehicle_type_id":"4","last_reported":1691157990,"current_range_meters":30800,"station_id":"ce4bhqp2rcd13ifvqhog","pricing_plan_id":"free"},{"bike_id":"34ef5601-8765-4b80-bdc1-e9818152ffab","system_id":"levelo_inurba_marseille","lat":43.32373,"lon":5.38886,"is_reserved":false,"is_disabled":false,"rental_uris":{"android":"levelo://app?vid=34ef5601-8765-4b80-bdc1-e9818152ffab","ios":"levelo://app?vid=34ef5601-8765-4b80-bdc1-e9818152ffab"},"vehicle_type_id":"4","last_reported":1691157990,"current_range_meters":29200,"station_id":"ce4bhqp2rcd13ifvqhog","pricing_plan_id":"free"},{"bike_id":"660de016-7b00-4735-9d75-3ae99d5de62d","system_id":"levelo_inurba_marseille","lat":43.32367,"lon":5.38892,"is_reserved":false,"is_disabled":false,"rental_uris":{"android":"levelo://app?vid=660de016-7b00-4735-9d75-3ae99d5de62d","ios":"levelo://app?vid=660de016-7b00-4735-9d75-3ae99d5de62d"},"vehicle_type_id":"4","last_reported":1691157990,"current_range_meters":26400,"station_id":"ce4bhqp2rcd13ifvqhog","pricing_plan_id":"free"},{"bike_id":"6be534a9-96c6-4989-b3bb-e9dea76376c4","system_id":"levelo_inurba_marseille","lat":43.32367,"lon":5.388836,"is_reserved":false,"is_disabled":false,"rental_uris":{"android":"levelo://app?vid=6be534a9-96c6-4989-b3bb-e9dea76376c4","ios":"levelo://app?vid=6be534a9-96c6-4989-b3bb-e9dea76376c4"},"vehicle_type_id":"4","last_reported":1691157990,"current_range_meters":11600,"station_id":"ce4bhqp2rcd13ifvqhog","pricing_plan_id":"free"},{"bike_id":"598db2f9-9adf-45fe-9704-f33e8d349e83","system_id":"levelo_inurba_marseille","lat":43.292749,"lon":5.368398,"is_reserved":false,"is_disabled":false,"rental_uris":{"android":"levelo://app?vid=598db2f9-9adf-45fe-9704-f33e8d349e83","ios":"levelo://app?vid=598db2f9-9adf-45fe-9704-f33e8d349e83"},"vehicle_type_id":"4","last_reported":1691157990,"current_range_meters":19600,"station_id":"ce4bhbp2rcd13ifvqesg","pricing_plan_id":"free"},{"bike_id":"936f8fcc-47f5-4017-8ec7-18e4067848fe","system_id":"levelo_inurba_marseille","lat":43.293009,"lon":5.374584,"is_reserved":false,"is_disabled":false,"rental_uris":{"android":"levelo://app?vid=936f8fcc-47f5-4017-8ec7-18e4067848fe","ios":"levelo://app?vid=936f8fcc-47f5-4017-8ec7-18e4067848fe"},"vehicle_type_id":"4","last_reported":1691157990,"current_range_meters":24800,"station_id":"ce4bgi12rcd13ifvqb70","pricing_plan_id":"free"},{"bike_id":"f5c06393-7ebe-4d40-95f4-4a078afbb24a","system_id":"levelo_inurba_marseille","lat":43.305994,"lon":5.393687,"is_reserved":false,"is_disabled":false,"rental_uris":{"android":"levelo://app?vid=f5c06393-7ebe-4d40-95f4-4a078afbb24a","ios":"levelo://app?vid=f5c06393-7ebe-4d40-95f4-4a078afbb24a"},"vehicle_type_id":"4","last_reported":1691157990,"current_range_meters":1200,"station_id":"ce4bh0p2rcd13ifvqd80","pricing_plan_id":"free"},{"bike_id":"3ae73946-8c85-4329-b4d2-b8c353874963","system_id":"levelo_inurba_marseille","lat":43.2936,"lon":5.37835,"is_reserved":false,"is_disabled":false,"rental_uris":{"android":"levelo://app?vid=3ae73946-8c85-4329-b4d2-b8c353874963","ios":"levelo://app?vid=3ae73946-8c85-4329-b4d2-b8c353874963"},"vehicle_type_id":"4","last_reported":1691157990,"current_range_meters":12800,"station_id":"ce4bgjh2rcd13ifvqbf0","pricing_plan_id":"free"},{"bike_id":"8dc551b4-d26a-4299-bb59-73e3aa3cafdb","system_id":"levelo_inurba_marseille","lat":43.2936,"lon":5.37835,"is_reserved":false,"is_disabled":false,"rental_uris":{"android":"levelo://app?vid=8dc551b4-d26a-4299-bb59-73e3aa3cafdb","ios":"levelo://app?vid=8dc551b4-d26a-4299-bb59-73e3aa3cafdb"},"vehicle_type_id":"4","last_reported":1691157990,"current_range_meters":19600,"station_id":"ce4bgjh2rcd13ifvqbf0","pricing_plan_id":"free"},{"bike_id":"ddffcdff-2e31-4301-a68d-c5aebe65b23b","system_id":"levelo_inurba_marseille","lat":43.30084,"lon":5.39078,"is_reserved":false,"is_disabled":false,"rental_uris":{"android":"levelo://app?vid=ddffcdff-2e31-4301-a68d-c5aebe65b23b","ios":"levelo://app?vid=ddffcdff-2e31-4301-a68d-c5aebe65b23b"},"vehicle_type_id":"4","last_reported":1691157990,"current_range_meters":13200,"station_id":"ce4bh192rcd13ifvqdb0","pricing_plan_id":"free"},{"bike_id":"94e29bcd-31fb-4003-805c-8e508ac12065","system_id":"levelo_inurba_marseille","lat":43.292663,"lon":5.376394,"is_reserved":false,"is_disabled":false,"rental_uris":{"android":"levelo://app?vid=94e29bcd-31fb-4003-805c-8e508ac12065","ios":"levelo://app?vid=94e29bcd-31fb-4003-805c-8e508ac12065"},"vehicle_type_id":"4","last_reported":1691157990,"current_range_meters":28800,"station_id":"ce4bgi12rcd13ifvqb80","pricing_plan_id":"free"},{"bike_id":"7a22c719-8ca3-4449-85f1-054eb5a911f8","system_id":"levelo_inurba_marseille","lat":43.292663,"lon":5.376394,"is_reserved":false,"is_disabled":false,"rental_uris":{"android":"levelo://app?vid=7a22c719-8ca3-4449-85f1-054eb5a911f8","ios":"levelo://app?vid=7a22c719-8ca3-4449-85f1-054eb5a911f8"},"vehicle_type_id":"4","last_reported":1691157990,"current_range_meters":13200,"station_id":"ce4bgi12rcd13ifvqb80","pricing_plan_id":"free"},{"bike_id":"5a1a93f0-37e1-453d-8d3f-399a88266484","system_id":"levelo_inurba_marseille","lat":43.292663,"lon":5.376394,"is_reserved":false,"is_disabled":false,"rental_uris":{"android":"levelo://app?vid=5a1a93f0-37e1-453d-8d3f-399a88266484","ios":"levelo://app?vid=5a1a93f0-37e1-453d-8d3f-399a88266484"},"vehicle_type_id":"4","last_reported":1691157990,"current_range_meters":21200,"station_id":"ce4bgi12rcd13ifvqb80","pricing_plan_id":"free"},{"bike_id":"1b9b27ed-5a54-4384-b479-324404d97af7","system_id":"levelo_inurba_marseille","lat":43.291994,"lon":5.357886,"is_reserved":false,"is_disabled":false,"rental_uris":{"android":"levelo://app?vid=1b9b27ed-5a54-4384-b479-324404d97af7","ios":"levelo://app?vid=1b9b27ed-5a54-4384-b479-324404d97af7"},"vehicle_type_id":"4","last_reported":1691157990,"current_range_meters":17200,"station_id":"ce4bhb12rcd13ifvqel0","pricing_plan_id":"free"},{"bike_id":"1c5417c3-4baf-4a19-b313-dff1424485d5","system_id":"levelo_inurba_marseille","lat":43.29193,"lon":5.35805,"is_reserved":false,"is_disabled":false,"rental_uris":{"android":"levelo://app?vid=1c5417c3-4baf-4a19-b313-dff1424485d5","ios":"levelo://app?vid=1c5417c3-4baf-4a19-b313-dff1424485d5"},"vehicle_type_id":"4","last_reported":1691157990,"current_range_meters":11600,"station_id":"ce4bhb12rcd13ifvqel0","pricing_plan_id":"free"},{"bike_id":"4657e5e3-b0a7-4d34-b921-1332482caae8","system_id":"levelo_inurba_marseille","lat":43.29187,"lon":5.35815,"is_reserved":false,"is_disabled":false,"rental_uris":{"android":"levelo://app?vid=4657e5e3-b0a7-4d34-b921-1332482caae8","ios":"levelo://app?vid=4657e5e3-b0a7-4d34-b921-1332482caae8"},"vehicle_type_id":"4","last_reported":1691157990,"current_range_meters":6400,"station_id":"ce4bhb12rcd13ifvqel0","pricing_plan_id":"free"},{"bike_id":"aa3bd1e8-007c-4b65-83d7-c704fc1eaa9d","system_id":"levelo_inurba_marseille","lat":43.30887,"lon":5.39654,"is_reserved":false,"is_disabled":false,"rental_uris":{"android":"levelo://app?vid=aa3bd1e8-007c-4b65-83d7-c704fc1eaa9d","ios":"levelo://app?vid=aa3bd1e8-007c-4b65-83d7-c704fc1eaa9d"},"vehicle_type_id":"4","last_reported":1691157990,"current_range_meters":12000,"station_id":"ce4bh012rcd13ifvqcv0","pricing_plan_id":"free"},{"bike_id":"1120db6d-6f7c-4cef-9fac-75f2dadc6db1","system_id":"levelo_inurba_marseille","lat":43.290327,"lon":5.375711,"is_reserved":false,"is_disabled":false,"rental_uris":{"android":"levelo://app?vid=1120db6d-6f7c-4cef-9fac-75f2dadc6db1","ios":"levelo://app?vid=1120db6d-6f7c-4cef-9fac-75f2dadc6db1"},"vehicle_type_id":"4","last_reported":1691157990,"current_range_meters":12800,"station_id":"ce4bh692rcd13ifvqe90","pricing_plan_id":"free"},{"bike_id":"6af5a7e8-6e80-403f-ae9d-e6d555b20616","system_id":"levelo_inurba_marseille","lat":43.294162,"lon":5.386292,"is_reserved":false,"is_disabled":false,"rental_uris":{"android":"levelo://app?vid=6af5a7e8-6e80-403f-ae9d-e6d555b20616","ios":"levelo://app?vid=6af5a7e8-6e80-403f-ae9d-e6d555b20616"},"vehicle_type_id":"4","last_reported":1691157990,"current_range_meters":24400,"station_id":"ce4bh2h2rcd13ifvqdh0","pricing_plan_id":"free"},{"bike_id":"9fe851ba-cf41-4c69-9eac-2895981cfc68","system_id":"levelo_inurba_marseille","lat":43.294162,"lon":5.386292,"is_reserved":false,"is_disabled":false,"rental_uris":{"android":"levelo://app?vid=9fe851ba-cf41-4c69-9eac-2895981cfc68","ios":"levelo://app?vid=9fe851ba-cf41-4c69-9eac-2895981cfc68"},"vehicle_type_id":"4","last_reported":1691157990,"current_range_meters":22800,"station_id":"ce4bh2h2rcd13ifvqdh0","pricing_plan_id":"free"},{"bike_id":"6033ce3f-352b-4e35-980c-8e86ef7068f9","system_id":"levelo_inurba_marseille","lat":43.294153,"lon":5.386305,"is_reserved":false,"is_disabled":false,"rental_uris":{"android":"levelo://app?vid=6033ce3f-352b-4e35-980c-8e86ef7068f9","ios":"levelo://app?vid=6033ce3f-352b-4e35-980c-8e86ef7068f9"},"vehicle_type_id":"4","last_reported":1691157990,"current_range_meters":6800,"station_id":"ce4bh2h2rcd13ifvqdh0","pricing_plan_id":"free"},{"bike_id":"250cf233-5fec-4628-838c-e0250edb5d9d","system_id":"levelo_inurba_marseille","lat":43.294162,"lon":5.386292,"is_reserved":false,"is_disabled":false,"rental_uris":{"android":"levelo://app?vid=250cf233-5fec-4628-838c-e0250edb5d9d","ios":"levelo://app?vid=250cf233-5fec-4628-838c-e0250edb5d9d"},"vehicle_type_id":"4","last_reported":1691157990,"current_range_meters":18800,"station_id":"ce4bh2h2rcd13ifvqdh0","pricing_plan_id":"free"},{"bike_id":"8c028078-95a3-4d58-96d7-d195d7aeb85d","system_id":"levelo_inurba_marseille","lat":43.294162,"lon":5.386292,"is_reserved":false,"is_disabled":false,"rental_uris":{"android":"levelo://app?vid=8c028078-95a3-4d58-96d7-d195d7aeb85d","ios":"levelo://app?vid=8c028078-95a3-4d58-96d7-d195d7aeb85d"},"vehicle_type_id":"4","last_reported":1691157990,"current_range_meters":31200,"station_id":"ce4bh2h2rcd13ifvqdh0","pricing_plan_id":"free"},{"bike_id":"d1d928bb-61e0-4d4e-9dfc-60f8804a3a72","system_id":"levelo_inurba_marseille","lat":43.294162,"lon":5.386292,"is_reserved":false,"is_disabled":false,"rental_uris":{"android":"levelo://app?vid=d1d928bb-61e0-4d4e-9dfc-60f8804a3a72","ios":"levelo://app?vid=d1d928bb-61e0-4d4e-9dfc-60f8804a3a72"},"vehicle_type_id":"4","last_reported":1691157990,"current_range_meters":30400,"station_id":"ce4bh2h2rcd13ifvqdh0","pricing_plan_id":"free"},{"bike_id":"44695351-bca1-4abf-8105-07800f3c264d","system_id":"levelo_inurba_marseille","lat":43.294162,"lon":5.386292,"is_reserved":false,"is_disabled":false,"rental_uris":{"android":"levelo://app?vid=44695351-bca1-4abf-8105-07800f3c264d","ios":"levelo://app?vid=44695351-bca1-4abf-8105-07800f3c264d"},"vehicle_type_id":"4","last_reported":1691157990,"current_range_meters":22000,"station_id":"ce4bh2h2rcd13ifvqdh0","pricing_plan_id":"free"},{"bike_id":"692f8fb0-7611-4880-9cd1-000ea0af44e0","system_id":"levelo_inurba_marseille","lat":43.29416,"lon":5.3863,"is_reserved":false,"is_disabled":false,"rental_uris":{"android":"levelo://app?vid=692f8fb0-7611-4880-9cd1-000ea0af44e0","ios":"levelo://app?vid=692f8fb0-7611-4880-9cd1-000ea0af44e0"},"vehicle_type_id":"4","last_reported":1691157990,"current_range_meters":22000,"station_id":"ce4bh2h2rcd13ifvqdh0","pricing_plan_id":"free"},{"bike_id":"a0f9f37b-a059-4596-9956-b28d810ba213","system_id":"levelo_inurba_marseille","lat":43.294162,"lon":5.386292,"is_reserved":false,"is_disabled":false,"rental_uris":{"android":"levelo://app?vid=a0f9f37b-a059-4596-9956-b28d810ba213","ios":"levelo://app?vid=a0f9f37b-a059-4596-9956-b28d810ba213"},"vehicle_type_id":"4","last_reported":1691157990,"current_range_meters":28000,"station_id":"ce4bh2h2rcd13ifvqdh0","pricing_plan_id":"free"},{"bike_id":"86be2fa5-7188-489d-ab0e-91e057fc4452","system_id":"levelo_inurba_marseille","lat":43.289184,"lon":5.366408,"is_reserved":false,"is_disabled":false,"rental_uris":{"android":"levelo://app?vid=86be2fa5-7188-489d-ab0e-91e057fc4452","ios":"levelo://app?vid=86be2fa5-7188-489d-ab0e-91e057fc4452"},"vehicle_type_id":"4","last_reported":1691157990,"current_range_meters":12400,"station_id":"ce4bhap2rcd13ifvqek0","pricing_plan_id":"free"},{"bike_id":"6c712cb0-1e73-4bb0-a2cd-e5bd51f4f954","system_id":"levelo_inurba_marseille","lat":43.294162,"lon":5.386292,"is_reserved":false,"is_disabled":false,"rental_uris":{"android":"levelo://app?vid=6c712cb0-1e73-4bb0-a2cd-e5bd51f4f954","ios":"levelo://app?vid=6c712cb0-1e73-4bb0-a2cd-e5bd51f4f954"},"vehicle_type_id":"4","last_reported":1691157990,"current_range_meters":27600,"station_id":"ce4bh2h2rcd13ifvqdh0","pricing_plan_id":"free"},{"bike_id":"959eb173-1c1a-45f3-a503-e4b252155ac5","system_id":"levelo_inurba_marseille","lat":43.304292,"lon":5.397516,"is_reserved":false,"is_disabled":false,"rental_uris":{"android":"levelo://app?vid=959eb173-1c1a-45f3-a503-e4b252155ac5","ios":"levelo://app?vid=959eb173-1c1a-45f3-a503-e4b252155ac5"},"vehicle_type_id":"4","last_reported":1691157990,"current_range_meters":26800,"station_id":"","pricing_plan_id":"free"},{"bike_id":"16bb14ed-7d88-467c-ab3f-857c5a303700","system_id":"levelo_inurba_marseille","lat":43.3304,"lon":5.38914,"is_reserved":false,"is_disabled":false,"rental_uris":{"android":"levelo://app?vid=16bb14ed-7d88-467c-ab3f-857c5a303700","ios":"levelo://app?vid=16bb14ed-7d88-467c-ab3f-857c5a303700"},"vehicle_type_id":"4","last_reported":1691157990,"current_range_meters":31200,"station_id":"ce4bhr92rcd13ifvqhrg","pricing_plan_id":"free"},{"bike_id":"f67edc25-bcc7-41fb-8431-1add679b0933","system_id":"levelo_inurba_marseille","lat":43.33044,"lon":5.38915,"is_reserved":false,"is_disabled":false,"rental_uris":{"android":"levelo://app?vid=f67edc25-bcc7-41fb-8431-1add679b0933","ios":"levelo://app?vid=f67edc25-bcc7-41fb-8431-1add679b0933"},"vehicle_type_id":"4","last_reported":1691157990,"current_range_meters":20800,"station_id":"ce4bhr92rcd13ifvqhrg","pricing_plan_id":"free"},{"bike_id":"98f910d2-52f4-4465-977e-10142d8cca43","system_id":"levelo_inurba_marseille","lat":43.33042,"lon":5.38919,"is_reserved":false,"is_disabled":false,"rental_uris":{"android":"levelo://app?vid=98f910d2-52f4-4465-977e-10142d8cca43","ios":"levelo://app?vid=98f910d2-52f4-4465-977e-10142d8cca43"},"vehicle_type_id":"4","last_reported":1691157990,"current_range_meters":21200,"station_id":"ce4bhr92rcd13ifvqhrg","pricing_plan_id":"free"},{"bike_id":"e6c6e4e8-edee-449e-8936-76c8ef3752c4","system_id":"levelo_inurba_marseille","lat":43.33042,"lon":5.38919,"is_reserved":false,"is_disabled":false,"rental_uris":{"android":"levelo://app?vid=e6c6e4e8-edee-449e-8936-76c8ef3752c4","ios":"levelo://app?vid=e6c6e4e8-edee-449e-8936-76c8ef3752c4"},"vehicle_type_id":"4","last_reported":1691157990,"current_range_meters":23600,"station_id":"ce4bhr92rcd13ifvqhrg","pricing_plan_id":"free"},{"bike_id":"2f2d42a2-8de0-405f-9429-d3eae654394c","system_id":"levelo_inurba_marseille","lat":43.33044,"lon":5.38916,"is_reserved":false,"is_disabled":false,"rental_uris":{"android":"levelo://app?vid=2f2d42a2-8de0-405f-9429-d3eae654394c","ios":"levelo://app?vid=2f2d42a2-8de0-405f-9429-d3eae654394c"},"vehicle_type_id":"4","last_reported":1691157990,"current_range_meters":22000,"station_id":"ce4bhr92rcd13ifvqhrg","pricing_plan_id":"free"},{"bike_id":"38c1adea-6867-4940-9699-a628b1958570","system_id":"levelo_inurba_marseille","lat":43.33044,"lon":5.38916,"is_reserved":false,"is_disabled":false,"rental_uris":{"android":"levelo://app?vid=38c1adea-6867-4940-9699-a628b1958570","ios":"levelo://app?vid=38c1adea-6867-4940-9699-a628b1958570"},"vehicle_type_id":"4","last_reported":1691157990,"current_range_meters":31200,"station_id":"ce4bhr92rcd13ifvqhrg","pricing_plan_id":"free"},{"bike_id":"976f718a-bfdb-4480-a757-e5b9a5d1a5d6","system_id":"levelo_inurba_marseille","lat":43.33046,"lon":5.38913,"is_reserved":false,"is_disabled":false,"rental_uris":{"android":"levelo://app?vid=976f718a-bfdb-4480-a757-e5b9a5d1a5d6","ios":"levelo://app?vid=976f718a-bfdb-4480-a757-e5b9a5d1a5d6"},"vehicle_type_id":"4","last_reported":1691157990,"current_range_meters":29600,"station_id":"ce4bhr92rcd13ifvqhrg","pricing_plan_id":"free"},{"bike_id":"cedbc9c4-3cd8-4974-be60-104359550a71","system_id":"levelo_inurba_marseille","lat":43.33048,"lon":5.38911,"is_reserved":false,"is_disabled":false,"rental_uris":{"android":"levelo://app?vid=cedbc9c4-3cd8-4974-be60-104359550a71","ios":"levelo://app?vid=cedbc9c4-3cd8-4974-be60-104359550a71"},"vehicle_type_id":"4","last_reported":1691157990,"current_range_meters":13200,"station_id":"ce4bhr92rcd13ifvqhrg","pricing_plan_id":"free"},{"bike_id":"20cf3f6d-acf4-4653-bf24-baa04253f77a","system_id":"levelo_inurba_marseille","lat":43.33046,"lon":5.38915,"is_reserved":false,"is_disabled":false,"rental_uris":{"android":"levelo://app?vid=20cf3f6d-acf4-4653-bf24-baa04253f77a","ios":"levelo://app?vid=20cf3f6d-acf4-4653-bf24-baa04253f77a"},"vehicle_type_id":"4","last_reported":1691157990,"current_range_meters":18800,"station_id":"ce4bhr92rcd13ifvqhrg","pricing_plan_id":"free"},{"bike_id":"00b2dcdc-2882-40a1-9132-89c3ec15cf18","system_id":"levelo_inurba_marseille","lat":43.33045,"lon":5.38918,"is_reserved":false,"is_disabled":false,"rental_uris":{"android":"levelo://app?vid=00b2dcdc-2882-40a1-9132-89c3ec15cf18","ios":"levelo://app?vid=00b2dcdc-2882-40a1-9132-89c3ec15cf18"},"vehicle_type_id":"4","last_reported":1691157990,"current_range_meters":19200,"station_id":"ce4bhr92rcd13ifvqhrg","pricing_plan_id":"free"},{"bike_id":"87a91d50-b0ca-4c64-94ae-7cf78dbb050f","system_id":"levelo_inurba_marseille","lat":43.33041,"lon":5.38924,"is_reserved":false,"is_disabled":false,"rental_uris":{"android":"levelo://app?vid=87a91d50-b0ca-4c64-94ae-7cf78dbb050f","ios":"levelo://app?vid=87a91d50-b0ca-4c64-94ae-7cf78dbb050f"},"vehicle_type_id":"4","last_reported":1691157990,"current_range_meters":18000,"station_id":"ce4bhr92rcd13ifvqhrg","pricing_plan_id":"free"},{"bike_id":"94034cfb-c5ff-40da-bf65-62588b99f5e1","system_id":"levelo_inurba_marseille","lat":43.33047,"lon":5.38916,"is_reserved":false,"is_disabled":false,"rental_uris":{"android":"levelo://app?vid=94034cfb-c5ff-40da-bf65-62588b99f5e1","ios":"levelo://app?vid=94034cfb-c5ff-40da-bf65-62588b99f5e1"},"vehicle_type_id":"4","last_reported":1691157990,"current_range_meters":18000,"station_id":"ce4bhr92rcd13ifvqhrg","pricing_plan_id":"free"},{"bike_id":"34fc0bae-b089-42d1-99d0-10d5b39f2b41","system_id":"levelo_inurba_marseille","lat":43.33039,"lon":5.3893,"is_reserved":false,"is_disabled":false,"rental_uris":{"android":"levelo://app?vid=34fc0bae-b089-42d1-99d0-10d5b39f2b41","ios":"levelo://app?vid=34fc0bae-b089-42d1-99d0-10d5b39f2b41"},"vehicle_type_id":"4","last_reported":1691157990,"current_range_meters":26400,"station_id":"ce4bhr92rcd13ifvqhrg","pricing_plan_id":"free"},{"bike_id":"9ce62819-7d94-47c9-aff2-f56e39f0ba59","system_id":"levelo_inurba_marseille","lat":43.33044,"lon":5.38925,"is_reserved":false,"is_disabled":false,"rental_uris":{"android":"levelo://app?vid=9ce62819-7d94-47c9-aff2-f56e39f0ba59","ios":"levelo://app?vid=9ce62819-7d94-47c9-aff2-f56e39f0ba59"},"vehicle_type_id":"4","last_reported":1691157990,"current_range_meters":30800,"station_id":"ce4bhr92rcd13ifvqhrg","pricing_plan_id":"free"},{"bike_id":"1477c3f7-6354-42a9-8f9e-fd46cd7a0a9d","system_id":"levelo_inurba_marseille","lat":43.290995,"lon":5.381361,"is_reserved":false,"is_disabled":false,"rental_uris":{"android":"levelo://app?vid=1477c3f7-6354-42a9-8f9e-fd46cd7a0a9d","ios":"levelo://app?vid=1477c3f7-6354-42a9-8f9e-fd46cd7a0a9d"},"vehicle_type_id":"4","last_reported":1691157990,"current_range_meters":8000,"station_id":"ce4bh512rcd13ifvqe2g","pricing_plan_id":"free"},{"bike_id":"eb586032-15a0-4c1e-9596-9bc541690800","system_id":"levelo_inurba_marseille","lat":43.290995,"lon":5.381361,"is_reserved":false,"is_disabled":false,"rental_uris":{"android":"levelo://app?vid=eb586032-15a0-4c1e-9596-9bc541690800","ios":"levelo://app?vid=eb586032-15a0-4c1e-9596-9bc541690800"},"vehicle_type_id":"4","last_reported":1691157990,"current_range_meters":4800,"station_id":"ce4bh512rcd13ifvqe2g","pricing_plan_id":"free"},{"bike_id":"05bf2cc0-c80b-4d3b-9303-5cea93148e89","system_id":"levelo_inurba_marseille","lat":43.290995,"lon":5.381361,"is_reserved":false,"is_disabled":false,"rental_uris":{"android":"levelo://app?vid=05bf2cc0-c80b-4d3b-9303-5cea93148e89","ios":"levelo://app?vid=05bf2cc0-c80b-4d3b-9303-5cea93148e89"},"vehicle_type_id":"4","last_reported":1691157990,"current_range_meters":31200,"station_id":"ce4bh512rcd13ifvqe2g","pricing_plan_id":"free"},{"bike_id":"02fe1416-2b68-4f03-9c63-d1130bd6be76","system_id":"levelo_inurba_marseille","lat":43.28856,"lon":5.358371,"is_reserved":false,"is_disabled":false,"rental_uris":{"android":"levelo://app?vid=02fe1416-2b68-4f03-9c63-d1130bd6be76","ios":"levelo://app?vid=02fe1416-2b68-4f03-9c63-d1130bd6be76"},"vehicle_type_id":"4","last_reported":1691157990,"current_range_meters":16800,"station_id":"ce4bhb12rcd13ifvqem0","pricing_plan_id":"free"},{"bike_id":"1c5db441-46ba-4cc5-9f24-2d038b39e9df","system_id":"levelo_inurba_marseille","lat":43.2902,"lon":5.38134,"is_reserved":false,"is_disabled":false,"rental_uris":{"android":"levelo://app?vid=1c5db441-46ba-4cc5-9f24-2d038b39e9df","ios":"levelo://app?vid=1c5db441-46ba-4cc5-9f24-2d038b39e9df"},"vehicle_type_id":"4","last_reported":1691157990,"current_range_meters":2000,"station_id":"ce4bh4p2rcd13ifvqe1g","pricing_plan_id":"free"},{"bike_id":"75d55784-b18c-4daf-a655-bf5db46c0b9e","system_id":"levelo_inurba_marseille","lat":43.28856,"lon":5.358371,"is_reserved":false,"is_disabled":false,"rental_uris":{"android":"levelo://app?vid=75d55784-b18c-4daf-a655-bf5db46c0b9e","ios":"levelo://app?vid=75d55784-b18c-4daf-a655-bf5db46c0b9e"},"vehicle_type_id":"4","last_reported":1691157990,"current_range_meters":2000,"station_id":"ce4bhb12rcd13ifvqem0","pricing_plan_id":"free"},{"bike_id":"d280b0ad-4198-44f3-ad49-6bc0f7d18df5","system_id":"levelo_inurba_marseille","lat":43.309361,"lon":5.401392,"is_reserved":false,"is_disabled":false,"rental_uris":{"android":"levelo://app?vid=d280b0ad-4198-44f3-ad49-6bc0f7d18df5","ios":"levelo://app?vid=d280b0ad-4198-44f3-ad49-6bc0f7d18df5"},"vehicle_type_id":"4","last_reported":1691157990,"current_range_meters":0,"station_id":"","pricing_plan_id":"free"},{"bike_id":"24c1cd0e-bb3f-4fa9-aecd-111528d0d2a0","system_id":"levelo_inurba_marseille","lat":43.309145,"lon":5.401431,"is_reserved":false,"is_disabled":false,"rental_uris":{"android":"levelo://app?vid=24c1cd0e-bb3f-4fa9-aecd-111528d0d2a0","ios":"levelo://app?vid=24c1cd0e-bb3f-4fa9-aecd-111528d0d2a0"},"vehicle_type_id":"4","last_reported":1691157990,"current_range_meters":16800,"station_id":"ce4bgvp2rcd13ifvqct0","pricing_plan_id":"free"},{"bike_id":"a856a9bf-2914-4d99-b110-0ae70d1373ec","system_id":"levelo_inurba_marseille","lat":43.33749,"lon":5.37498,"is_reserved":false,"is_disabled":false,"rental_uris":{"android":"levelo://app?vid=a856a9bf-2914-4d99-b110-0ae70d1373ec","ios":"levelo://app?vid=a856a9bf-2914-4d99-b110-0ae70d1373ec"},"vehicle_type_id":"4","last_reported":1691157990,"current_range_meters":24000,"station_id":"","pricing_plan_id":"free"},{"bike_id":"75199276-b705-4ad7-b6a9-49aeaa84628a","system_id":"levelo_inurba_marseille","lat":43.286591,"lon":5.363346,"is_reserved":false,"is_disabled":false,"rental_uris":{"android":"levelo://app?vid=75199276-b705-4ad7-b6a9-49aeaa84628a","ios":"levelo://app?vid=75199276-b705-4ad7-b6a9-49aeaa84628a"},"vehicle_type_id":"4","last_reported":1691157990,"current_range_meters":31200,"station_id":"ce4bhah2rcd13ifvqej0","pricing_plan_id":"free"},{"bike_id":"7b9e2d57-7c2f-4652-8ec0-ee4d147afe24","system_id":"levelo_inurba_marseille","lat":43.302548,"lon":5.400568,"is_reserved":false,"is_disabled":false,"rental_uris":{"android":"levelo://app?vid=7b9e2d57-7c2f-4652-8ec0-ee4d147afe24","ios":"levelo://app?vid=7b9e2d57-7c2f-4652-8ec0-ee4d147afe24"},"vehicle_type_id":"4","last_reported":1691157990,"current_range_meters":14400,"station_id":"","pricing_plan_id":"free"},{"bike_id":"fb10f6c4-5bdb-4616-9975-34fb379fc4db","system_id":"levelo_inurba_marseille","lat":43.29023,"lon":5.38632,"is_reserved":false,"is_disabled":false,"rental_uris":{"android":"levelo://app?vid=fb10f6c4-5bdb-4616-9975-34fb379fc4db","ios":"levelo://app?vid=fb10f6c4-5bdb-4616-9975-34fb379fc4db"},"vehicle_type_id":"4","last_reported":1691157990,"current_range_meters":0,"station_id":"ce4bh4p2rcd13ifvqe0g","pricing_plan_id":"free"},{"bike_id":"1ff56fe0-1501-4c41-9474-66cb2f3126bd","system_id":"levelo_inurba_marseille","lat":43.28612,"lon":5.37061,"is_reserved":false,"is_disabled":false,"rental_uris":{"android":"levelo://app?vid=1ff56fe0-1501-4c41-9474-66cb2f3126bd","ios":"levelo://app?vid=1ff56fe0-1501-4c41-9474-66cb2f3126bd"},"vehicle_type_id":"4","last_reported":1691157990,"current_range_meters":26000,"station_id":"","pricing_plan_id":"free"},{"bike_id":"0eec8b1c-8c3d-43c2-ade4-dab3902c07e9","system_id":"levelo_inurba_marseille","lat":43.286039,"lon":5.370679,"is_reserved":false,"is_disabled":false,"rental_uris":{"android":"levelo://app?vid=0eec8b1c-8c3d-43c2-ade4-dab3902c07e9","ios":"levelo://app?vid=0eec8b1c-8c3d-43c2-ade4-dab3902c07e9"},"vehicle_type_id":"4","last_reported":1691157990,"current_range_meters":26000,"station_id":"ce4bht12rcd13ifvqi60","pricing_plan_id":"free"},{"bike_id":"2505ec1e-c8d9-40d9-9a56-b5650062f6ff","system_id":"levelo_inurba_marseille","lat":43.286039,"lon":5.370679,"is_reserved":false,"is_disabled":false,"rental_uris":{"android":"levelo://app?vid=2505ec1e-c8d9-40d9-9a56-b5650062f6ff","ios":"levelo://app?vid=2505ec1e-c8d9-40d9-9a56-b5650062f6ff"},"vehicle_type_id":"4","last_reported":1691157990,"current_range_meters":13200,"station_id":"ce4bht12rcd13ifvqi60","pricing_plan_id":"free"},{"bike_id":"27446e63-ee9a-4e88-926b-a0ec151943d5","system_id":"levelo_inurba_marseille","lat":43.31643,"lon":5.4043,"is_reserved":false,"is_disabled":false,"rental_uris":{"android":"levelo://app?vid=27446e63-ee9a-4e88-926b-a0ec151943d5","ios":"levelo://app?vid=27446e63-ee9a-4e88-926b-a0ec151943d5"},"vehicle_type_id":"4","last_reported":1691157990,"current_range_meters":3200,"station_id":"ce4bh012rcd13ifvqd00","pricing_plan_id":"free"},{"bike_id":"9085b157-4fc1-4a28-9c96-4e287a090f55","system_id":"levelo_inurba_marseille","lat":43.316477,"lon":5.404318,"is_reserved":false,"is_disabled":false,"rental_uris":{"android":"levelo://app?vid=9085b157-4fc1-4a28-9c96-4e287a090f55","ios":"levelo://app?vid=9085b157-4fc1-4a28-9c96-4e287a090f55"},"vehicle_type_id":"4","last_reported":1691157990,"current_range_meters":23200,"station_id":"ce4bh012rcd13ifvqd00","pricing_plan_id":"free"},{"bike_id":"44b40dc2-62c1-496c-9a25-23a06fe905fd","system_id":"levelo_inurba_marseille","lat":43.31654,"lon":5.40432,"is_reserved":false,"is_disabled":false,"rental_uris":{"android":"levelo://app?vid=44b40dc2-62c1-496c-9a25-23a06fe905fd","ios":"levelo://app?vid=44b40dc2-62c1-496c-9a25-23a06fe905fd"},"vehicle_type_id":"4","last_reported":1691157990,"current_range_meters":5200,"station_id":"ce4bh012rcd13ifvqd00","pricing_plan_id":"free"},{"bike_id":"912011a3-9f3c-4468-8f0a-ce50ae738301","system_id":"levelo_inurba_marseille","lat":43.316517,"lon":5.404375,"is_reserved":false,"is_disabled":false,"rental_uris":{"android":"levelo://app?vid=912011a3-9f3c-4468-8f0a-ce50ae738301","ios":"levelo://app?vid=912011a3-9f3c-4468-8f0a-ce50ae738301"},"vehicle_type_id":"4","last_reported":1691157990,"current_range_meters":29600,"station_id":"ce4bh012rcd13ifvqd00","pricing_plan_id":"free"},{"bike_id":"46197ab9-a113-4ee1-877f-f81ac61b14fa","system_id":"levelo_inurba_marseille","lat":43.316459,"lon":5.404337,"is_reserved":false,"is_disabled":false,"rental_uris":{"android":"levelo://app?vid=46197ab9-a113-4ee1-877f-f81ac61b14fa","ios":"levelo://app?vid=46197ab9-a113-4ee1-877f-f81ac61b14fa"},"vehicle_type_id":"4","last_reported":1691157990,"current_range_meters":2400,"station_id":"","pricing_plan_id":"free"},{"bike_id":"fee323e6-71f0-4707-8a85-d22df841e717","system_id":"levelo_inurba_marseille","lat":43.31649,"lon":5.40437,"is_reserved":false,"is_disabled":false,"rental_uris":{"android":"levelo://app?vid=fee323e6-71f0-4707-8a85-d22df841e717","ios":"levelo://app?vid=fee323e6-71f0-4707-8a85-d22df841e717"},"vehicle_type_id":"4","last_reported":1691157990,"current_range_meters":21600,"station_id":"ce4bh012rcd13ifvqd00","pricing_plan_id":"free"},{"bike_id":"c8428019-34ed-4fa0-ab6b-d0660ab7d830","system_id":"levelo_inurba_marseille","lat":43.31645,"lon":5.40438,"is_reserved":false,"is_disabled":false,"rental_uris":{"android":"levelo://app?vid=c8428019-34ed-4fa0-ab6b-d0660ab7d830","ios":"levelo://app?vid=c8428019-34ed-4fa0-ab6b-d0660ab7d830"},"vehicle_type_id":"4","last_reported":1691157990,"current_range_meters":30800,"station_id":"ce4bh012rcd13ifvqd00","pricing_plan_id":"free"},{"bike_id":"ec8bda11-3690-452d-a81e-b921098ea70b","system_id":"levelo_inurba_marseille","lat":43.31649,"lon":5.40438,"is_reserved":false,"is_disabled":false,"rental_uris":{"android":"levelo://app?vid=ec8bda11-3690-452d-a81e-b921098ea70b","ios":"levelo://app?vid=ec8bda11-3690-452d-a81e-b921098ea70b"},"vehicle_type_id":"4","last_reported":1691157990,"current_range_meters":25600,"station_id":"ce4bh012rcd13ifvqd00","pricing_plan_id":"free"},{"bike_id":"95a0a858-65ac-41a3-9c14-52d3591e1d36","system_id":"levelo_inurba_marseille","lat":43.316517,"lon":5.404375,"is_reserved":false,"is_disabled":false,"rental_uris":{"android":"levelo://app?vid=95a0a858-65ac-41a3-9c14-52d3591e1d36","ios":"levelo://app?vid=95a0a858-65ac-41a3-9c14-52d3591e1d36"},"vehicle_type_id":"4","last_reported":1691157990,"current_range_meters":30400,"station_id":"ce4bh012rcd13ifvqd00","pricing_plan_id":"free"},{"bike_id":"7b78d55e-e99c-4fa7-968a-c672d6912f00","system_id":"levelo_inurba_marseille","lat":43.284538,"lon":5.358657,"is_reserved":false,"is_disabled":false,"rental_uris":{"android":"levelo://app?vid=7b78d55e-e99c-4fa7-968a-c672d6912f00","ios":"levelo://app?vid=7b78d55e-e99c-4fa7-968a-c672d6912f00"},"vehicle_type_id":"4","last_reported":1691157990,"current_range_meters":32000,"station_id":"ce4bhah2rcd13ifvqei0","pricing_plan_id":"free"},{"bike_id":"3c39cb35-7ad1-4c8b-b50c-78edc03bcc16","system_id":"levelo_inurba_marseille","lat":43.284538,"lon":5.358657,"is_reserved":false,"is_disabled":false,"rental_uris":{"android":"levelo://app?vid=3c39cb35-7ad1-4c8b-b50c-78edc03bcc16","ios":"levelo://app?vid=3c39cb35-7ad1-4c8b-b50c-78edc03bcc16"},"vehicle_type_id":"4","last_reported":1691157990,"current_range_meters":2800,"station_id":"ce4bhah2rcd13ifvqei0","pricing_plan_id":"free"},{"bike_id":"be467b2f-682b-41d8-b45b-26be4db71dc4","system_id":"levelo_inurba_marseille","lat":43.284538,"lon":5.358657,"is_reserved":false,"is_disabled":false,"rental_uris":{"android":"levelo://app?vid=be467b2f-682b-41d8-b45b-26be4db71dc4","ios":"levelo://app?vid=be467b2f-682b-41d8-b45b-26be4db71dc4"},"vehicle_type_id":"4","last_reported":1691157990,"current_range_meters":11200,"station_id":"ce4bhah2rcd13ifvqei0","pricing_plan_id":"free"},{"bike_id":"47e421d9-aa57-465a-88ae-e702bc346dc8","system_id":"levelo_inurba_marseille","lat":43.285848,"lon":5.350787,"is_reserved":false,"is_disabled":false,"rental_uris":{"android":"levelo://app?vid=47e421d9-aa57-465a-88ae-e702bc346dc8","ios":"levelo://app?vid=47e421d9-aa57-465a-88ae-e702bc346dc8"},"vehicle_type_id":"4","last_reported":1691157990,"current_range_meters":31200,"station_id":"ce4bhch2rcd13ifvqeug","pricing_plan_id":"free"},{"bike_id":"0e513e33-ee31-49cc-8759-659ab9120fdc","system_id":"levelo_inurba_marseille","lat":43.28617,"lon":5.35101,"is_reserved":false,"is_disabled":false,"rental_uris":{"android":"levelo://app?vid=0e513e33-ee31-49cc-8759-659ab9120fdc","ios":"levelo://app?vid=0e513e33-ee31-49cc-8759-659ab9120fdc"},"vehicle_type_id":"4","last_reported":1691157990,"current_range_meters":17600,"station_id":"ce4bhch2rcd13ifvqeug","pricing_plan_id":"free"},{"bike_id":"0a0a69fe-92e5-4012-834c-267e32afacc2","system_id":"levelo_inurba_marseille","lat":43.286124,"lon":5.351136,"is_reserved":false,"is_disabled":false,"rental_uris":{"android":"levelo://app?vid=0a0a69fe-92e5-4012-834c-267e32afacc2","ios":"levelo://app?vid=0a0a69fe-92e5-4012-834c-267e32afacc2"},"vehicle_type_id":"4","last_reported":1691157990,"current_range_meters":21600,"station_id":"ce4bhch2rcd13ifvqeug","pricing_plan_id":"free"},{"bike_id":"e88ce4db-1617-4559-83ce-e3543f0c7440","system_id":"levelo_inurba_marseille","lat":43.286134,"lon":5.351099,"is_reserved":false,"is_disabled":false,"rental_uris":{"android":"levelo://app?vid=e88ce4db-1617-4559-83ce-e3543f0c7440","ios":"levelo://app?vid=e88ce4db-1617-4559-83ce-e3543f0c7440"},"vehicle_type_id":"4","last_reported":1691157990,"current_range_meters":31200,"station_id":"ce4bhch2rcd13ifvqeug","pricing_plan_id":"free"},{"bike_id":"0831c029-c4fa-4121-80ff-7bdab63375af","system_id":"levelo_inurba_marseille","lat":43.286138,"lon":5.351073,"is_reserved":false,"is_disabled":false,"rental_uris":{"android":"levelo://app?vid=0831c029-c4fa-4121-80ff-7bdab63375af","ios":"levelo://app?vid=0831c029-c4fa-4121-80ff-7bdab63375af"},"vehicle_type_id":"4","last_reported":1691157990,"current_range_meters":30400,"station_id":"ce4bhch2rcd13ifvqeug","pricing_plan_id":"free"},{"bike_id":"783ac4a2-8853-4297-885c-25b6bd8fad42","system_id":"levelo_inurba_marseille","lat":43.28614,"lon":5.351063,"is_reserved":false,"is_disabled":false,"rental_uris":{"android":"levelo://app?vid=783ac4a2-8853-4297-885c-25b6bd8fad42","ios":"levelo://app?vid=783ac4a2-8853-4297-885c-25b6bd8fad42"},"vehicle_type_id":"4","last_reported":1691157990,"current_range_meters":30400,"station_id":"ce4bhch2rcd13ifvqeug","pricing_plan_id":"free"},{"bike_id":"319080f0-8af2-49ed-9660-710dd9f6b522","system_id":"levelo_inurba_marseille","lat":43.286136,"lon":5.351075,"is_reserved":false,"is_disabled":false,"rental_uris":{"android":"levelo://app?vid=319080f0-8af2-49ed-9660-710dd9f6b522","ios":"levelo://app?vid=319080f0-8af2-49ed-9660-710dd9f6b522"},"vehicle_type_id":"4","last_reported":1691157990,"current_range_meters":19200,"station_id":"ce4bhch2rcd13ifvqeug","pricing_plan_id":"free"},{"bike_id":"2b3c5eca-4c4a-47ca-98ce-4da798dfbc5d","system_id":"levelo_inurba_marseille","lat":43.286131,"lon":5.351091,"is_reserved":false,"is_disabled":false,"rental_uris":{"android":"levelo://app?vid=2b3c5eca-4c4a-47ca-98ce-4da798dfbc5d","ios":"levelo://app?vid=2b3c5eca-4c4a-47ca-98ce-4da798dfbc5d"},"vehicle_type_id":"4","last_reported":1691157990,"current_range_meters":17600,"station_id":"ce4bhch2rcd13ifvqeug","pricing_plan_id":"free"},{"bike_id":"dedfa9df-4c2f-47f3-b3e6-a2c0137e0859","system_id":"levelo_inurba_marseille","lat":43.286121,"lon":5.351105,"is_reserved":false,"is_disabled":false,"rental_uris":{"android":"levelo://app?vid=dedfa9df-4c2f-47f3-b3e6-a2c0137e0859","ios":"levelo://app?vid=dedfa9df-4c2f-47f3-b3e6-a2c0137e0859"},"vehicle_type_id":"4","last_reported":1691157990,"current_range_meters":24800,"station_id":"ce4bhch2rcd13ifvqeug","pricing_plan_id":"free"},{"bike_id":"63651cd5-5c13-4a6d-a0ea-975e23c412bb","system_id":"levelo_inurba_marseille","lat":43.286116,"lon":5.351121,"is_reserved":false,"is_disabled":false,"rental_uris":{"android":"levelo://app?vid=63651cd5-5c13-4a6d-a0ea-975e23c412bb","ios":"levelo://app?vid=63651cd5-5c13-4a6d-a0ea-975e23c412bb"},"vehicle_type_id":"4","last_reported":1691157990,"current_range_meters":17200,"station_id":"ce4bhch2rcd13ifvqeug","pricing_plan_id":"free"},{"bike_id":"92cdc47d-a2ef-4625-997a-e72a7110d532","system_id":"levelo_inurba_marseille","lat":43.286114,"lon":5.351125,"is_reserved":false,"is_disabled":false,"rental_uris":{"android":"levelo://app?vid=92cdc47d-a2ef-4625-997a-e72a7110d532","ios":"levelo://app?vid=92cdc47d-a2ef-4625-997a-e72a7110d532"},"vehicle_type_id":"4","last_reported":1691157990,"current_range_meters":30400,"station_id":"ce4bhch2rcd13ifvqeug","pricing_plan_id":"free"},{"bike_id":"2fc997a4-be97-4bb8-92de-2ff322d5472b","system_id":"levelo_inurba_marseille","lat":43.286134,"lon":5.351042,"is_reserved":false,"is_disabled":false,"rental_uris":{"android":"levelo://app?vid=2fc997a4-be97-4bb8-92de-2ff322d5472b","ios":"levelo://app?vid=2fc997a4-be97-4bb8-92de-2ff322d5472b"},"vehicle_type_id":"4","last_reported":1691157990,"current_range_meters":20800,"station_id":"","pricing_plan_id":"free"},{"bike_id":"c607841c-793c-4e99-ae28-75fdb75c32f4","system_id":"levelo_inurba_marseille","lat":43.285848,"lon":5.350787,"is_reserved":false,"is_disabled":false,"rental_uris":{"android":"levelo://app?vid=c607841c-793c-4e99-ae28-75fdb75c32f4","ios":"levelo://app?vid=c607841c-793c-4e99-ae28-75fdb75c32f4"},"vehicle_type_id":"4","last_reported":1691157990,"current_range_meters":28000,"station_id":"ce4bhch2rcd13ifvqeug","pricing_plan_id":"free"},{"bike_id":"01148116-62fa-4260-9506-3835be74f11b","system_id":"levelo_inurba_marseille","lat":43.295713,"lon":5.399639,"is_reserved":false,"is_disabled":false,"rental_uris":{"android":"levelo://app?vid=01148116-62fa-4260-9506-3835be74f11b","ios":"levelo://app?vid=01148116-62fa-4260-9506-3835be74f11b"},"vehicle_type_id":"4","last_reported":1691157990,"current_range_meters":29600,"station_id":"ce4bh312rcd13ifvqdj0","pricing_plan_id":"free"},{"bike_id":"eeb02a4a-fc34-4229-a72e-14ead8b86bb9","system_id":"levelo_inurba_marseille","lat":43.31889,"lon":5.40724,"is_reserved":false,"is_disabled":false,"rental_uris":{"android":"levelo://app?vid=eeb02a4a-fc34-4229-a72e-14ead8b86bb9","ios":"levelo://app?vid=eeb02a4a-fc34-4229-a72e-14ead8b86bb9"},"vehicle_type_id":"4","last_reported":1691157990,"current_range_meters":24800,"station_id":"","pricing_plan_id":"free"},{"bike_id":"8daabb4c-3541-4593-9b36-1eadeac41cae","system_id":"levelo_inurba_marseille","lat":43.319179,"lon":5.407725,"is_reserved":false,"is_disabled":false,"rental_uris":{"android":"levelo://app?vid=8daabb4c-3541-4593-9b36-1eadeac41cae","ios":"levelo://app?vid=8daabb4c-3541-4593-9b36-1eadeac41cae"},"vehicle_type_id":"4","last_reported":1691157990,"current_range_meters":16400,"station_id":"ce4bhq12rcd13ifvqhig","pricing_plan_id":"free"},{"bike_id":"fd8d2354-0817-4a67-af7d-23e5ee9f2c95","system_id":"levelo_inurba_marseille","lat":43.31888,"lon":5.40731,"is_reserved":false,"is_disabled":false,"rental_uris":{"android":"levelo://app?vid=fd8d2354-0817-4a67-af7d-23e5ee9f2c95","ios":"levelo://app?vid=fd8d2354-0817-4a67-af7d-23e5ee9f2c95"},"vehicle_type_id":"4","last_reported":1691157990,"current_range_meters":31200,"station_id":"ce4bhq12rcd13ifvqhig","pricing_plan_id":"free"},{"bike_id":"d7fe841c-6a0f-4218-8c73-d290e823f367","system_id":"levelo_inurba_marseille","lat":43.319179,"lon":5.407725,"is_reserved":false,"is_disabled":false,"rental_uris":{"android":"levelo://app?vid=d7fe841c-6a0f-4218-8c73-d290e823f367","ios":"levelo://app?vid=d7fe841c-6a0f-4218-8c73-d290e823f367"},"vehicle_type_id":"4","last_reported":1691157990,"current_range_meters":12400,"station_id":"ce4bhq12rcd13ifvqhig","pricing_plan_id":"free"},{"bike_id":"632d4045-2ba1-4d8b-8070-04923aafd128","system_id":"levelo_inurba_marseille","lat":43.319179,"lon":5.407725,"is_reserved":false,"is_disabled":false,"rental_uris":{"android":"levelo://app?vid=632d4045-2ba1-4d8b-8070-04923aafd128","ios":"levelo://app?vid=632d4045-2ba1-4d8b-8070-04923aafd128"},"vehicle_type_id":"4","last_reported":1691157990,"current_range_meters":5200,"station_id":"ce4bhq12rcd13ifvqhig","pricing_plan_id":"free"},{"bike_id":"430c2063-ded1-4339-9309-d962bc415bc7","system_id":"levelo_inurba_marseille","lat":43.31893,"lon":5.40738,"is_reserved":false,"is_disabled":false,"rental_uris":{"android":"levelo://app?vid=430c2063-ded1-4339-9309-d962bc415bc7","ios":"levelo://app?vid=430c2063-ded1-4339-9309-d962bc415bc7"},"vehicle_type_id":"4","last_reported":1691157990,"current_range_meters":31200,"station_id":"ce4bhq12rcd13ifvqhig","pricing_plan_id":"free"},{"bike_id":"fd72a39e-bfc1-44cc-97aa-4039744f5af5","system_id":"levelo_inurba_marseille","lat":43.28534,"lon":5.38422,"is_reserved":false,"is_disabled":false,"rental_uris":{"android":"levelo://app?vid=fd72a39e-bfc1-44cc-97aa-4039744f5af5","ios":"levelo://app?vid=fd72a39e-bfc1-44cc-97aa-4039744f5af5"},"vehicle_type_id":"4","last_reported":1691157990,"current_range_meters":21600,"station_id":"","pricing_plan_id":"free"},{"bike_id":"8e4ab4c7-b2dc-4e74-b07d-1ff49a416721","system_id":"levelo_inurba_marseille","lat":43.3371,"lon":5.39177,"is_reserved":false,"is_disabled":false,"rental_uris":{"android":"levelo://app?vid=8e4ab4c7-b2dc-4e74-b07d-1ff49a416721","ios":"levelo://app?vid=8e4ab4c7-b2dc-4e74-b07d-1ff49a416721"},"vehicle_type_id":"4","last_reported":1691157990,"current_range_meters":19200,"station_id":"ce4bhr92rcd13ifvqhsg","pricing_plan_id":"free"},{"bike_id":"3e563380-a985-451c-801d-2783d7714294","system_id":"levelo_inurba_marseille","lat":43.337168,"lon":5.391825,"is_reserved":false,"is_disabled":false,"rental_uris":{"android":"levelo://app?vid=3e563380-a985-451c-801d-2783d7714294","ios":"levelo://app?vid=3e563380-a985-451c-801d-2783d7714294"},"vehicle_type_id":"4","last_reported":1691157990,"current_range_meters":15200,"station_id":"ce4bhr92rcd13ifvqhsg","pricing_plan_id":"free"},{"bike_id":"c59f30af-b7c9-4762-b544-56156d6a8a97","system_id":"levelo_inurba_marseille","lat":43.3371,"lon":5.39179,"is_reserved":false,"is_disabled":false,"rental_uris":{"android":"levelo://app?vid=c59f30af-b7c9-4762-b544-56156d6a8a97","ios":"levelo://app?vid=c59f30af-b7c9-4762-b544-56156d6a8a97"},"vehicle_type_id":"4","last_reported":1691157990,"current_range_meters":21600,"station_id":"ce4bhr92rcd13ifvqhsg","pricing_plan_id":"free"},{"bike_id":"a3cf389b-f19c-4e75-9e92-40c9195ed245","system_id":"levelo_inurba_marseille","lat":43.33713,"lon":5.39178,"is_reserved":false,"is_disabled":false,"rental_uris":{"android":"levelo://app?vid=a3cf389b-f19c-4e75-9e92-40c9195ed245","ios":"levelo://app?vid=a3cf389b-f19c-4e75-9e92-40c9195ed245"},"vehicle_type_id":"4","last_reported":1691157990,"current_range_meters":0,"station_id":"ce4bhr92rcd13ifvqhsg","pricing_plan_id":"free"},{"bike_id":"df82d2f9-f688-4670-ac84-3e543122cedb","system_id":"levelo_inurba_marseille","lat":43.33712,"lon":5.39181,"is_reserved":false,"is_disabled":false,"rental_uris":{"android":"levelo://app?vid=df82d2f9-f688-4670-ac84-3e543122cedb","ios":"levelo://app?vid=df82d2f9-f688-4670-ac84-3e543122cedb"},"vehicle_type_id":"4","last_reported":1691157990,"current_range_meters":14400,"station_id":"ce4bhr92rcd13ifvqhsg","pricing_plan_id":"free"},{"bike_id":"939edbe6-adcc-4f97-ad69-99748df4073d","system_id":"levelo_inurba_marseille","lat":43.33716,"lon":5.39177,"is_reserved":false,"is_disabled":false,"rental_uris":{"android":"levelo://app?vid=939edbe6-adcc-4f97-ad69-99748df4073d","ios":"levelo://app?vid=939edbe6-adcc-4f97-ad69-99748df4073d"},"vehicle_type_id":"4","last_reported":1691157990,"current_range_meters":26000,"station_id":"ce4bhr92rcd13ifvqhsg","pricing_plan_id":"free"},{"bike_id":"1f5722b0-5667-43f6-9dad-3a3b818c5a69","system_id":"levelo_inurba_marseille","lat":43.33716,"lon":5.39178,"is_reserved":false,"is_disabled":false,"rental_uris":{"android":"levelo://app?vid=1f5722b0-5667-43f6-9dad-3a3b818c5a69","ios":"levelo://app?vid=1f5722b0-5667-43f6-9dad-3a3b818c5a69"},"vehicle_type_id":"4","last_reported":1691157990,"current_range_meters":30800,"station_id":"ce4bhr92rcd13ifvqhsg","pricing_plan_id":"free"},{"bike_id":"65e7209e-43de-4472-85bf-edccad84c81f","system_id":"levelo_inurba_marseille","lat":43.33717,"lon":5.39184,"is_reserved":false,"is_disabled":false,"rental_uris":{"android":"levelo://app?vid=65e7209e-43de-4472-85bf-edccad84c81f","ios":"levelo://app?vid=65e7209e-43de-4472-85bf-edccad84c81f"},"vehicle_type_id":"4","last_reported":1691157990,"current_range_meters":27600,"station_id":"ce4bhr92rcd13ifvqhsg","pricing_plan_id":"free"},{"bike_id":"a9671d69-2a62-4abb-9d98-78ee12b6b2d8","system_id":"levelo_inurba_marseille","lat":43.3372,"lon":5.3918,"is_reserved":false,"is_disabled":false,"rental_uris":{"android":"levelo://app?vid=a9671d69-2a62-4abb-9d98-78ee12b6b2d8","ios":"levelo://app?vid=a9671d69-2a62-4abb-9d98-78ee12b6b2d8"},"vehicle_type_id":"4","last_reported":1691157990,"current_range_meters":12000,"station_id":"ce4bhr92rcd13ifvqhsg","pricing_plan_id":"free"},{"bike_id":"f18b4051-8145-4f33-aee1-6f539e29d721","system_id":"levelo_inurba_marseille","lat":43.33721,"lon":5.39181,"is_reserved":false,"is_disabled":false,"rental_uris":{"android":"levelo://app?vid=f18b4051-8145-4f33-aee1-6f539e29d721","ios":"levelo://app?vid=f18b4051-8145-4f33-aee1-6f539e29d721"},"vehicle_type_id":"4","last_reported":1691157990,"current_range_meters":19200,"station_id":"ce4bhr92rcd13ifvqhsg","pricing_plan_id":"free"},{"bike_id":"9be39f6c-974f-4a4e-90c3-357a4d8fdcc8","system_id":"levelo_inurba_marseille","lat":43.323464,"lon":5.406297,"is_reserved":false,"is_disabled":false,"rental_uris":{"android":"levelo://app?vid=9be39f6c-974f-4a4e-90c3-357a4d8fdcc8","ios":"levelo://app?vid=9be39f6c-974f-4a4e-90c3-357a4d8fdcc8"},"vehicle_type_id":"4","last_reported":1691157990,"current_range_meters":31200,"station_id":"ce4bhq92rcd13ifvqhjg","pricing_plan_id":"free"},{"bike_id":"5fd6a347-0a02-4efa-ab4a-06802493ed56","system_id":"levelo_inurba_marseille","lat":43.33722,"lon":5.39184,"is_reserved":false,"is_disabled":false,"rental_uris":{"android":"levelo://app?vid=5fd6a347-0a02-4efa-ab4a-06802493ed56","ios":"levelo://app?vid=5fd6a347-0a02-4efa-ab4a-06802493ed56"},"vehicle_type_id":"4","last_reported":1691157990,"current_range_meters":16400,"station_id":"ce4bhr92rcd13ifvqhsg","pricing_plan_id":"free"},{"bike_id":"9ed5c8cd-5716-467d-9a0b-e5002dcb5a2c","system_id":"levelo_inurba_marseille","lat":43.33721,"lon":5.39186,"is_reserved":false,"is_disabled":false,"rental_uris":{"android":"levelo://app?vid=9ed5c8cd-5716-467d-9a0b-e5002dcb5a2c","ios":"levelo://app?vid=9ed5c8cd-5716-467d-9a0b-e5002dcb5a2c"},"vehicle_type_id":"4","last_reported":1691157990,"current_range_meters":30400,"station_id":"ce4bhr92rcd13ifvqhsg","pricing_plan_id":"free"},{"bike_id":"23dafe58-bc58-41ce-843c-2b5e651c84c2","system_id":"levelo_inurba_marseille","lat":43.32335,"lon":5.40617,"is_reserved":false,"is_disabled":false,"rental_uris":{"android":"levelo://app?vid=23dafe58-bc58-41ce-843c-2b5e651c84c2","ios":"levelo://app?vid=23dafe58-bc58-41ce-843c-2b5e651c84c2"},"vehicle_type_id":"4","last_reported":1691157990,"current_range_meters":30800,"station_id":"ce4bhq92rcd13ifvqhjg","pricing_plan_id":"free"},{"bike_id":"ed9797b8-d925-4a28-9a9e-5f5639c20314","system_id":"levelo_inurba_marseille","lat":43.33724,"lon":5.39182,"is_reserved":false,"is_disabled":false,"rental_uris":{"android":"levelo://app?vid=ed9797b8-d925-4a28-9a9e-5f5639c20314","ios":"levelo://app?vid=ed9797b8-d925-4a28-9a9e-5f5639c20314"},"vehicle_type_id":"4","last_reported":1691157990,"current_range_meters":14400,"station_id":"ce4bhr92rcd13ifvqhsg","pricing_plan_id":"free"},{"bike_id":"37dfae56-2a13-495c-9752-c992e0ad9ccf","system_id":"levelo_inurba_marseille","lat":43.32328,"lon":5.40622,"is_reserved":false,"is_disabled":false,"rental_uris":{"android":"levelo://app?vid=37dfae56-2a13-495c-9752-c992e0ad9ccf","ios":"levelo://app?vid=37dfae56-2a13-495c-9752-c992e0ad9ccf"},"vehicle_type_id":"4","last_reported":1691157990,"current_range_meters":29600,"station_id":"ce4bhq92rcd13ifvqhjg","pricing_plan_id":"free"},{"bike_id":"9d8dc018-8295-487e-aae9-79ce0f469cdf","system_id":"levelo_inurba_marseille","lat":43.33723,"lon":5.39186,"is_reserved":false,"is_disabled":false,"rental_uris":{"android":"levelo://app?vid=9d8dc018-8295-487e-aae9-79ce0f469cdf","ios":"levelo://app?vid=9d8dc018-8295-487e-aae9-79ce0f469cdf"},"vehicle_type_id":"4","last_reported":1691157990,"current_range_meters":26000,"station_id":"ce4bhr92rcd13ifvqhsg","pricing_plan_id":"free"},{"bike_id":"dbada9f9-e33c-4a7d-ab43-1cac4e571e70","system_id":"levelo_inurba_marseille","lat":43.28484,"lon":5.38431,"is_reserved":false,"is_disabled":false,"rental_uris":{"android":"levelo://app?vid=dbada9f9-e33c-4a7d-ab43-1cac4e571e70","ios":"levelo://app?vid=dbada9f9-e33c-4a7d-ab43-1cac4e571e70"},"vehicle_type_id":"4","last_reported":1691157990,"current_range_meters":28800,"station_id":"ce4bh512rcd13ifvqe3g","pricing_plan_id":"free"},{"bike_id":"765e88d0-fe2a-4c36-ae72-17b5a3cef0dc","system_id":"levelo_inurba_marseille","lat":43.284793,"lon":5.384113,"is_reserved":false,"is_disabled":false,"rental_uris":{"android":"levelo://app?vid=765e88d0-fe2a-4c36-ae72-17b5a3cef0dc","ios":"levelo://app?vid=765e88d0-fe2a-4c36-ae72-17b5a3cef0dc"},"vehicle_type_id":"4","last_reported":1691157990,"current_range_meters":20000,"station_id":"ce4bh512rcd13ifvqe3g","pricing_plan_id":"free"},{"bike_id":"891b750a-182f-4dfb-803c-ae781522a955","system_id":"levelo_inurba_marseille","lat":43.29795,"lon":5.40411,"is_reserved":false,"is_disabled":false,"rental_uris":{"android":"levelo://app?vid=891b750a-182f-4dfb-803c-ae781522a955","ios":"levelo://app?vid=891b750a-182f-4dfb-803c-ae781522a955"},"vehicle_type_id":"4","last_reported":1691157990,"current_range_meters":18800,"station_id":"","pricing_plan_id":"free"},{"bike_id":"d467766d-3512-465b-a791-caab20aea86b","system_id":"levelo_inurba_marseille","lat":43.28429,"lon":5.3499,"is_reserved":false,"is_disabled":false,"rental_uris":{"android":"levelo://app?vid=d467766d-3512-465b-a791-caab20aea86b","ios":"levelo://app?vid=d467766d-3512-465b-a791-caab20aea86b"},"vehicle_type_id":"4","last_reported":1691157990,"current_range_meters":12000,"station_id":"ce4bhbh2rcd13ifvqepg","pricing_plan_id":"free"},{"bike_id":"dd2b7e53-cee5-42a6-aae9-c2fc15d5e562","system_id":"levelo_inurba_marseille","lat":43.28422,"lon":5.34992,"is_reserved":false,"is_disabled":false,"rental_uris":{"android":"levelo://app?vid=dd2b7e53-cee5-42a6-aae9-c2fc15d5e562","ios":"levelo://app?vid=dd2b7e53-cee5-42a6-aae9-c2fc15d5e562"},"vehicle_type_id":"4","last_reported":1691157990,"current_range_meters":800,"station_id":"ce4bhbh2rcd13ifvqepg","pricing_plan_id":"free"},{"bike_id":"cc1e5e92-f88d-4aad-ab5d-2ac31992f744","system_id":"levelo_inurba_marseille","lat":43.28422,"lon":5.34992,"is_reserved":false,"is_disabled":false,"rental_uris":{"android":"levelo://app?vid=cc1e5e92-f88d-4aad-ab5d-2ac31992f744","ios":"levelo://app?vid=cc1e5e92-f88d-4aad-ab5d-2ac31992f744"},"vehicle_type_id":"4","last_reported":1691157990,"current_range_meters":19600,"station_id":"ce4bhbh2rcd13ifvqepg","pricing_plan_id":"free"},{"bike_id":"cbfeb36d-9040-477c-9b1c-9150d51f60cb","system_id":"levelo_inurba_marseille","lat":43.284217,"lon":5.349697,"is_reserved":false,"is_disabled":false,"rental_uris":{"android":"levelo://app?vid=cbfeb36d-9040-477c-9b1c-9150d51f60cb","ios":"levelo://app?vid=cbfeb36d-9040-477c-9b1c-9150d51f60cb"},"vehicle_type_id":"4","last_reported":1691157990,"current_range_meters":2000,"station_id":"ce4bhbh2rcd13ifvqepg","pricing_plan_id":"free"},{"bike_id":"1439854b-9146-46e8-b80d-9755787de961","system_id":"levelo_inurba_marseille","lat":43.28416,"lon":5.35003,"is_reserved":false,"is_disabled":false,"rental_uris":{"android":"levelo://app?vid=1439854b-9146-46e8-b80d-9755787de961","ios":"levelo://app?vid=1439854b-9146-46e8-b80d-9755787de961"},"vehicle_type_id":"4","last_reported":1691157990,"current_range_meters":22800,"station_id":"ce4bhbh2rcd13ifvqepg","pricing_plan_id":"free"},{"bike_id":"a0201101-4167-411b-8383-320c861bb236","system_id":"levelo_inurba_marseille","lat":43.28418,"lon":5.34996,"is_reserved":false,"is_disabled":false,"rental_uris":{"android":"levelo://app?vid=a0201101-4167-411b-8383-320c861bb236","ios":"levelo://app?vid=a0201101-4167-411b-8383-320c861bb236"},"vehicle_type_id":"4","last_reported":1691157990,"current_range_meters":20800,"station_id":"ce4bhbh2rcd13ifvqepg","pricing_plan_id":"free"},{"bike_id":"ad2e5448-3aef-4131-af85-6a76cf505b0f","system_id":"levelo_inurba_marseille","lat":43.284219,"lon":5.3497,"is_reserved":false,"is_disabled":false,"rental_uris":{"android":"levelo://app?vid=ad2e5448-3aef-4131-af85-6a76cf505b0f","ios":"levelo://app?vid=ad2e5448-3aef-4131-af85-6a76cf505b0f"},"vehicle_type_id":"4","last_reported":1691157990,"current_range_meters":24800,"station_id":"ce4bhbh2rcd13ifvqepg","pricing_plan_id":"free"},{"bike_id":"c8ad0af3-0516-4c01-88ff-a8cd3cc7b692","system_id":"levelo_inurba_marseille","lat":43.2842,"lon":5.34982,"is_reserved":false,"is_disabled":false,"rental_uris":{"android":"levelo://app?vid=c8ad0af3-0516-4c01-88ff-a8cd3cc7b692","ios":"levelo://app?vid=c8ad0af3-0516-4c01-88ff-a8cd3cc7b692"},"vehicle_type_id":"4","last_reported":1691157990,"current_range_meters":18000,"station_id":"ce4bhbh2rcd13ifvqepg","pricing_plan_id":"free"},{"bike_id":"1cd36677-ba42-48dc-8618-a23a2d946f87","system_id":"levelo_inurba_marseille","lat":43.28419,"lon":5.34985,"is_reserved":false,"is_disabled":false,"rental_uris":{"android":"levelo://app?vid=1cd36677-ba42-48dc-8618-a23a2d946f87","ios":"levelo://app?vid=1cd36677-ba42-48dc-8618-a23a2d946f87"},"vehicle_type_id":"4","last_reported":1691157990,"current_range_meters":25200,"station_id":"ce4bhbh2rcd13ifvqepg","pricing_plan_id":"free"},{"bike_id":"67a317f5-9abf-41e0-b0c0-cecc9f59c420","system_id":"levelo_inurba_marseille","lat":43.284219,"lon":5.3497,"is_reserved":false,"is_disabled":false,"rental_uris":{"android":"levelo://app?vid=67a317f5-9abf-41e0-b0c0-cecc9f59c420","ios":"levelo://app?vid=67a317f5-9abf-41e0-b0c0-cecc9f59c420"},"vehicle_type_id":"4","last_reported":1691157990,"current_range_meters":28800,"station_id":"ce4bhbh2rcd13ifvqepg","pricing_plan_id":"free"},{"bike_id":"eb4e3a60-54ee-4577-bc4a-d516ce6ca302","system_id":"levelo_inurba_marseille","lat":43.28418,"lon":5.34986,"is_reserved":false,"is_disabled":false,"rental_uris":{"android":"levelo://app?vid=eb4e3a60-54ee-4577-bc4a-d516ce6ca302","ios":"levelo://app?vid=eb4e3a60-54ee-4577-bc4a-d516ce6ca302"},"vehicle_type_id":"4","last_reported":1691157990,"current_range_meters":10400,"station_id":"ce4bhbh2rcd13ifvqepg","pricing_plan_id":"free"},{"bike_id":"01a0bcb6-eb2e-4c15-b7fc-739ca9687f6a","system_id":"levelo_inurba_marseille","lat":43.28416,"lon":5.34991,"is_reserved":false,"is_disabled":false,"rental_uris":{"android":"levelo://app?vid=01a0bcb6-eb2e-4c15-b7fc-739ca9687f6a","ios":"levelo://app?vid=01a0bcb6-eb2e-4c15-b7fc-739ca9687f6a"},"vehicle_type_id":"4","last_reported":1691157990,"current_range_meters":20400,"station_id":"ce4bhbh2rcd13ifvqepg","pricing_plan_id":"free"},{"bike_id":"33c7f28c-8bf0-4a12-a367-dbd734724f6e","system_id":"levelo_inurba_marseille","lat":43.28414,"lon":5.34996,"is_reserved":false,"is_disabled":false,"rental_uris":{"android":"levelo://app?vid=33c7f28c-8bf0-4a12-a367-dbd734724f6e","ios":"levelo://app?vid=33c7f28c-8bf0-4a12-a367-dbd734724f6e"},"vehicle_type_id":"4","last_reported":1691157990,"current_range_meters":26400,"station_id":"ce4bhbh2rcd13ifvqepg","pricing_plan_id":"free"},{"bike_id":"ccb9b454-bd0b-4b57-8e44-0baa695c0f77","system_id":"levelo_inurba_marseille","lat":43.28414,"lon":5.34995,"is_reserved":false,"is_disabled":false,"rental_uris":{"android":"levelo://app?vid=ccb9b454-bd0b-4b57-8e44-0baa695c0f77","ios":"levelo://app?vid=ccb9b454-bd0b-4b57-8e44-0baa695c0f77"},"vehicle_type_id":"4","last_reported":1691157990,"current_range_meters":26000,"station_id":"ce4bhbh2rcd13ifvqepg","pricing_plan_id":"free"},{"bike_id":"ef871ca1-d89c-4384-bc00-48ed2583bfe6","system_id":"levelo_inurba_marseille","lat":43.28418,"lon":5.34981,"is_reserved":false,"is_disabled":false,"rental_uris":{"android":"levelo://app?vid=ef871ca1-d89c-4384-bc00-48ed2583bfe6","ios":"levelo://app?vid=ef871ca1-d89c-4384-bc00-48ed2583bfe6"},"vehicle_type_id":"4","last_reported":1691157990,"current_range_meters":4400,"station_id":"ce4bhbh2rcd13ifvqepg","pricing_plan_id":"free"},{"bike_id":"237dc8b0-60e8-4978-bff0-f418fae22bf2","system_id":"levelo_inurba_marseille","lat":43.28415,"lon":5.34989,"is_reserved":false,"is_disabled":false,"rental_uris":{"android":"levelo://app?vid=237dc8b0-60e8-4978-bff0-f418fae22bf2","ios":"levelo://app?vid=237dc8b0-60e8-4978-bff0-f418fae22bf2"},"vehicle_type_id":"4","last_reported":1691157990,"current_range_meters":9600,"station_id":"ce4bhbh2rcd13ifvqepg","pricing_plan_id":"free"},{"bike_id":"3c636f52-d93a-406f-9228-8e6215e578cb","system_id":"levelo_inurba_marseille","lat":43.28416,"lon":5.34985,"is_reserved":false,"is_disabled":false,"rental_uris":{"android":"levelo://app?vid=3c636f52-d93a-406f-9228-8e6215e578cb","ios":"levelo://app?vid=3c636f52-d93a-406f-9228-8e6215e578cb"},"vehicle_type_id":"4","last_reported":1691157990,"current_range_meters":24800,"station_id":"ce4bhbh2rcd13ifvqepg","pricing_plan_id":"free"},{"bike_id":"9938a22f-106c-4f57-b942-e6b65ab2be54","system_id":"levelo_inurba_marseille","lat":43.28414,"lon":5.3499,"is_reserved":false,"is_disabled":false,"rental_uris":{"android":"levelo://app?vid=9938a22f-106c-4f57-b942-e6b65ab2be54","ios":"levelo://app?vid=9938a22f-106c-4f57-b942-e6b65ab2be54"},