{"last_updated":1699121279,"ttl":30,"version":"2.2","data":{"bikes":[{"bike_id":"18f9be09-acfe-4ff1-89f8-962406647b9d","system_id":"levelo_inurba_marseille","lat":43.312239,"lon":5.368562,"is_reserved":false,"is_disabled":false,"rental_uris":{"android":"levelo://app?vid=18f9be09-acfe-4ff1-89f8-962406647b9d","ios":"levelo://app?vid=18f9be09-acfe-4ff1-89f8-962406647b9d"},"vehicle_type_id":"4","last_reported":1699121280,"current_range_meters":28400,"station_id":"ce4bgl92rcd13ifvqbq0","pricing_plan_id":"free"},{"bike_id":"6e4bf242-732b-40fe-8500-c6d307875b50","system_id":"levelo_inurba_marseille","lat":43.312239,"lon":5.368562,"is_reserved":false,"is_disabled":false,"rental_uris":{"android":"levelo://app?vid=6e4bf242-732b-40fe-8500-c6d307875b50","ios":"levelo://app?vid=6e4bf242-732b-40fe-8500-c6d307875b50"},"vehicle_type_id":"4","last_reported":1699121280,"current_range_meters":1600,"station_id":"ce4bgl92rcd13ifvqbq0","pricing_plan_id":"free"},{"bike_id":"3d30e7cf-bbc7-49f6-b46d-c3ad8f3b4631","system_id":"levelo_inurba_marseille","lat":43.314811,"lon":5.373104,"is_reserved":false,"is_disabled":false,"rental_uris":{"android":"levelo://app?vid=3d30e7cf-bbc7-49f6-b46d-c3ad8f3b4631","ios":"levelo://app?vid=3d30e7cf-bbc7-49f6-b46d-c3ad8f3b4631"},"vehicle_type_id":"4","last_reported":1699121280,"current_range_meters":28400,"station_id":"ce4bgt12rcd13ifvqcd0","pricing_plan_id":"free"},{"bike_id":"f244a025-966f-476a-a9bd-5bbecb5420bf","system_id":"levelo_inurba_marseille","lat":43.314811,"lon":5.373103,"is_reserved":false,"is_disabled":false,"rental_uris":{"android":"levelo://app?vid=f244a025-966f-476a-a9bd-5bbecb5420bf","ios":"levelo://app?vid=f244a025-966f-476a-a9bd-5bbecb5420bf"},"vehicle_type_id":"4","last_reported":1699121280,"current_range_meters":28000,"station_id":"ce4bgt12rcd13ifvqcd0","pricing_plan_id":"free"},{"bike_id":"bb4108b0-d819-46d2-992a-e1506d7df631","system_id":"levelo_inurba_marseille","lat":43.314811,"lon":5.373103,"is_reserved":false,"is_disabled":false,"rental_uris":{"android":"levelo://app?vid=bb4108b0-d819-46d2-992a-e1506d7df631","ios":"levelo://app?vid=bb4108b0-d819-46d2-992a-e1506d7df631"},"vehicle_type_id":"4","last_reported":1699121280,"current_range_meters":800,"station_id":"ce4bgt12rcd13ifvqcd0","pricing_plan_id":"free"},{"bike_id":"99a71f7c-57b6-453d-8bb8-31db51ad0b47","system_id":"levelo_inurba_marseille","lat":43.314811,"lon":5.373103,"is_reserved":false,"is_disabled":false,"rental_uris":{"android":"levelo://app?vid=99a71f7c-57b6-453d-8bb8-31db51ad0b47","ios":"levelo://app?vid=99a71f7c-57b6-453d-8bb8-31db51ad0b47"},"vehicle_type_id":"4","last_reported":1699121280,"current_range_meters":20000,"station_id":"ce4bgt12rcd13ifvqcd0","pricing_plan_id":"free"},{"bike_id":"9af1e0af-a452-4cd2-a6c6-c7519ff300f4","system_id":"levelo_inurba_marseille","lat":43.309039,"lon":5.371797,"is_reserved":false,"is_disabled":false,"rental_uris":{"android":"levelo://app?vid=9af1e0af-a452-4cd2-a6c6-c7519ff300f4","ios":"levelo://app?vid=9af1e0af-a452-4cd2-a6c6-c7519ff300f4"},"vehicle_type_id":"4","last_reported":1699121280,"current_range_meters":8400,"station_id":"ce4bguh2rcd13ifvqckg","pricing_plan_id":"free"},{"bike_id":"ff3290ad-7c63-43a2-853b-eb4e03f15085","system_id":"levelo_inurba_marseille","lat":43.30884,"lon":5.372,"is_reserved":false,"is_disabled":false,"rental_uris":{"android":"levelo://app?vid=ff3290ad-7c63-43a2-853b-eb4e03f15085","ios":"levelo://app?vid=ff3290ad-7c63-43a2-853b-eb4e03f15085"},"vehicle_type_id":"4","last_reported":1699121280,"current_range_meters":0,"station_id":"ce4bguh2rcd13ifvqckg","pricing_plan_id":"free"},{"bike_id":"7654d496-15f6-460d-8aaa-7eaa097202e7","system_id":"levelo_inurba_marseille","lat":43.31839,"lon":5.36943,"is_reserved":false,"is_disabled":false,"rental_uris":{"android":"levelo://app?vid=7654d496-15f6-460d-8aaa-7eaa097202e7","ios":"levelo://app?vid=7654d496-15f6-460d-8aaa-7eaa097202e7"},"vehicle_type_id":"4","last_reported":1699121280,"current_range_meters":22400,"station_id":"","pricing_plan_id":"free"},{"bike_id":"9fbf07fa-0ea4-43d6-8ed6-82424e129746","system_id":"levelo_inurba_marseille","lat":43.318502,"lon":5.369424,"is_reserved":false,"is_disabled":false,"rental_uris":{"android":"levelo://app?vid=9fbf07fa-0ea4-43d6-8ed6-82424e129746","ios":"levelo://app?vid=9fbf07fa-0ea4-43d6-8ed6-82424e129746"},"vehicle_type_id":"4","last_reported":1699121280,"current_range_meters":5600,"station_id":"","pricing_plan_id":"free"},{"bike_id":"7f6d1821-d960-4aa5-81c2-8064a10d310c","system_id":"levelo_inurba_marseille","lat":43.31885,"lon":5.370823,"is_reserved":false,"is_disabled":false,"rental_uris":{"android":"levelo://app?vid=7f6d1821-d960-4aa5-81c2-8064a10d310c","ios":"levelo://app?vid=7f6d1821-d960-4aa5-81c2-8064a10d310c"},"vehicle_type_id":"4","last_reported":1699121280,"current_range_meters":8800,"station_id":"","pricing_plan_id":"free"},{"bike_id":"770aa8b0-74e4-477c-8cc4-fd5d552902a6","system_id":"levelo_inurba_marseille","lat":43.316691,"lon":5.375367,"is_reserved":false,"is_disabled":false,"rental_uris":{"android":"levelo://app?vid=770aa8b0-74e4-477c-8cc4-fd5d552902a6","ios":"levelo://app?vid=770aa8b0-74e4-477c-8cc4-fd5d552902a6"},"vehicle_type_id":"4","last_reported":1699121280,"current_range_meters":6000,"station_id":"","pricing_plan_id":"free"},{"bike_id":"f252b071-dddd-4e5f-ad07-506846af6d1a","system_id":"levelo_inurba_marseille","lat":43.305714,"lon":5.365633,"is_reserved":false,"is_disabled":false,"rental_uris":{"android":"levelo://app?vid=f252b071-dddd-4e5f-ad07-506846af6d1a","ios":"levelo://app?vid=f252b071-dddd-4e5f-ad07-506846af6d1a"},"vehicle_type_id":"4","last_reported":1699121280,"current_range_meters":30400,"station_id":"ce4bgs12rcd13ifvqcag","pricing_plan_id":"free"},{"bike_id":"82516422-17fa-474b-a897-5ced1d5ef14c","system_id":"levelo_inurba_marseille","lat":43.305368,"lon":5.367343,"is_reserved":false,"is_disabled":false,"rental_uris":{"android":"levelo://app?vid=82516422-17fa-474b-a897-5ced1d5ef14c","ios":"levelo://app?vid=82516422-17fa-474b-a897-5ced1d5ef14c"},"vehicle_type_id":"4","last_reported":1699121280,"current_range_meters":5600,"station_id":"ce4bgrp2rcd13ifvqc9g","pricing_plan_id":"free"},{"bike_id":"0886eee1-508a-4d6c-b25d-bec368e6b67b","system_id":"levelo_inurba_marseille","lat":43.305989,"lon":5.37225,"is_reserved":false,"is_disabled":false,"rental_uris":{"android":"levelo://app?vid=0886eee1-508a-4d6c-b25d-bec368e6b67b","ios":"levelo://app?vid=0886eee1-508a-4d6c-b25d-bec368e6b67b"},"vehicle_type_id":"4","last_reported":1699121280,"current_range_meters":1600,"station_id":"ce4bgqh2rcd13ifvqc4g","pricing_plan_id":"free"},{"bike_id":"1d5a2e68-7d86-42fe-ac28-20b3e9f186bf","system_id":"levelo_inurba_marseille","lat":43.305847,"lon":5.372239,"is_reserved":false,"is_disabled":false,"rental_uris":{"android":"levelo://app?vid=1d5a2e68-7d86-42fe-ac28-20b3e9f186bf","ios":"levelo://app?vid=1d5a2e68-7d86-42fe-ac28-20b3e9f186bf"},"vehicle_type_id":"4","last_reported":1699121280,"current_range_meters":31600,"station_id":"","pricing_plan_id":"free"},{"bike_id":"d7f34e97-6dd8-4b04-a66a-4c81474a63a5","system_id":"levelo_inurba_marseille","lat":43.31116,"lon":5.37781,"is_reserved":false,"is_disabled":false,"rental_uris":{"android":"levelo://app?vid=d7f34e97-6dd8-4b04-a66a-4c81474a63a5","ios":"levelo://app?vid=d7f34e97-6dd8-4b04-a66a-4c81474a63a5"},"vehicle_type_id":"4","last_reported":1699121280,"current_range_meters":23200,"station_id":"ce4bgt92rcd13ifvqcg0","pricing_plan_id":"free"},{"bike_id":"daf02106-0758-4172-a6ea-9efcce2395ae","system_id":"levelo_inurba_marseille","lat":43.317075,"lon":5.377367,"is_reserved":false,"is_disabled":false,"rental_uris":{"android":"levelo://app?vid=daf02106-0758-4172-a6ea-9efcce2395ae","ios":"levelo://app?vid=daf02106-0758-4172-a6ea-9efcce2395ae"},"vehicle_type_id":"4","last_reported":1699121280,"current_range_meters":30400,"station_id":"ce4bgth2rcd13ifvqch0","pricing_plan_id":"free"},{"bike_id":"babeaa6e-bb87-418a-b74f-a5cd75a1dfde","system_id":"levelo_inurba_marseille","lat":43.317053,"lon":5.377495,"is_reserved":false,"is_disabled":false,"rental_uris":{"android":"levelo://app?vid=babeaa6e-bb87-418a-b74f-a5cd75a1dfde","ios":"levelo://app?vid=babeaa6e-bb87-418a-b74f-a5cd75a1dfde"},"vehicle_type_id":"4","last_reported":1699121280,"current_range_meters":30800,"station_id":"ce4bgth2rcd13ifvqch0","pricing_plan_id":"free"},{"bike_id":"248a549d-598d-425c-8078-296bb67aafc6","system_id":"levelo_inurba_marseille","lat":43.303083,"lon":5.369072,"is_reserved":false,"is_disabled":false,"rental_uris":{"android":"levelo://app?vid=248a549d-598d-425c-8078-296bb67aafc6","ios":"levelo://app?vid=248a549d-598d-425c-8078-296bb67aafc6"},"vehicle_type_id":"4","last_reported":1699121280,"current_range_meters":28800,"station_id":"ce4bgqh2rcd13ifvqc5g","pricing_plan_id":"free"},{"bike_id":"1338affa-8f90-4ed1-bfa9-613dd2ee2d50","system_id":"levelo_inurba_marseille","lat":43.301939,"lon":5.366286,"is_reserved":false,"is_disabled":false,"rental_uris":{"android":"levelo://app?vid=1338affa-8f90-4ed1-bfa9-613dd2ee2d50","ios":"levelo://app?vid=1338affa-8f90-4ed1-bfa9-613dd2ee2d50"},"vehicle_type_id":"4","last_reported":1699121280,"current_range_meters":28800,"station_id":"ce4bgrh2rcd13ifvqc8g","pricing_plan_id":"free"},{"bike_id":"8d9c4905-f382-46ca-b21e-1d85d111f30f","system_id":"levelo_inurba_marseille","lat":43.301939,"lon":5.366286,"is_reserved":false,"is_disabled":false,"rental_uris":{"android":"levelo://app?vid=8d9c4905-f382-46ca-b21e-1d85d111f30f","ios":"levelo://app?vid=8d9c4905-f382-46ca-b21e-1d85d111f30f"},"vehicle_type_id":"4","last_reported":1699121280,"current_range_meters":8400,"station_id":"ce4bgrh2rcd13ifvqc8g","pricing_plan_id":"free"},{"bike_id":"bb8bacc7-96e2-4222-8bbf-88f35abe576b","system_id":"levelo_inurba_marseille","lat":43.323094,"lon":5.374529,"is_reserved":false,"is_disabled":false,"rental_uris":{"android":"levelo://app?vid=bb8bacc7-96e2-4222-8bbf-88f35abe576b","ios":"levelo://app?vid=bb8bacc7-96e2-4222-8bbf-88f35abe576b"},"vehicle_type_id":"4","last_reported":1699121280,"current_range_meters":400,"station_id":"","pricing_plan_id":"free"},{"bike_id":"1768a8ef-5840-41bd-bac1-e583e9cfbc2e","system_id":"levelo_inurba_marseille","lat":43.308012,"lon":5.381511,"is_reserved":false,"is_disabled":false,"rental_uris":{"android":"levelo://app?vid=1768a8ef-5840-41bd-bac1-e583e9cfbc2e","ios":"levelo://app?vid=1768a8ef-5840-41bd-bac1-e583e9cfbc2e"},"vehicle_type_id":"4","last_reported":1699121280,"current_range_meters":21600,"station_id":"ce4bgt12rcd13ifvqce0","pricing_plan_id":"free"},{"bike_id":"77382cf7-b186-4db7-b772-cb08cb29bb71","system_id":"levelo_inurba_marseille","lat":43.304705,"lon":5.379094,"is_reserved":false,"is_disabled":false,"rental_uris":{"android":"levelo://app?vid=77382cf7-b186-4db7-b772-cb08cb29bb71","ios":"levelo://app?vid=77382cf7-b186-4db7-b772-cb08cb29bb71"},"vehicle_type_id":"4","last_reported":1699121280,"current_range_meters":0,"station_id":"","pricing_plan_id":"free"},{"bike_id":"95247232-f17f-4d83-8fb4-d23909f9060f","system_id":"levelo_inurba_marseille","lat":43.324692,"lon":5.365638,"is_reserved":false,"is_disabled":false,"rental_uris":{"android":"levelo://app?vid=95247232-f17f-4d83-8fb4-d23909f9060f","ios":"levelo://app?vid=95247232-f17f-4d83-8fb4-d23909f9060f"},"vehicle_type_id":"4","last_reported":1699121280,"current_range_meters":21600,"station_id":"ce4bhs12rcd13ifvqhvg","pricing_plan_id":"free"},{"bike_id":"c8df806a-5d3f-4b41-be2d-2847e33e2fea","system_id":"levelo_inurba_marseille","lat":43.304605,"lon":5.379058,"is_reserved":false,"is_disabled":false,"rental_uris":{"android":"levelo://app?vid=c8df806a-5d3f-4b41-be2d-2847e33e2fea","ios":"levelo://app?vid=c8df806a-5d3f-4b41-be2d-2847e33e2fea"},"vehicle_type_id":"4","last_reported":1699121280,"current_range_meters":19200,"station_id":"ce4bgup2rcd13ifvqcn0","pricing_plan_id":"free"},{"bike_id":"4417582d-c2ca-40fe-a249-37e4da6d0b93","system_id":"levelo_inurba_marseille","lat":43.304606,"lon":5.379026,"is_reserved":false,"is_disabled":false,"rental_uris":{"android":"levelo://app?vid=4417582d-c2ca-40fe-a249-37e4da6d0b93","ios":"levelo://app?vid=4417582d-c2ca-40fe-a249-37e4da6d0b93"},"vehicle_type_id":"4","last_reported":1699121280,"current_range_meters":31600,"station_id":"ce4bgup2rcd13ifvqcn0","pricing_plan_id":"free"},{"bike_id":"8031783e-d16c-42c2-a5ec-b060b23606db","system_id":"levelo_inurba_marseille","lat":43.304606,"lon":5.379026,"is_reserved":false,"is_disabled":false,"rental_uris":{"android":"levelo://app?vid=8031783e-d16c-42c2-a5ec-b060b23606db","ios":"levelo://app?vid=8031783e-d16c-42c2-a5ec-b060b23606db"},"vehicle_type_id":"4","last_reported":1699121280,"current_range_meters":29200,"station_id":"ce4bgup2rcd13ifvqcn0","pricing_plan_id":"free"},{"bike_id":"d1098444-4521-44ef-b718-3808878a79a9","system_id":"levelo_inurba_marseille","lat":43.30458,"lon":5.37907,"is_reserved":false,"is_disabled":false,"rental_uris":{"android":"levelo://app?vid=d1098444-4521-44ef-b718-3808878a79a9","ios":"levelo://app?vid=d1098444-4521-44ef-b718-3808878a79a9"},"vehicle_type_id":"4","last_reported":1699121280,"current_range_meters":12800,"station_id":"ce4bgup2rcd13ifvqcn0","pricing_plan_id":"free"},{"bike_id":"e1fb9cb5-7800-48c3-9c1e-04e0402a52bd","system_id":"levelo_inurba_marseille","lat":43.324752,"lon":5.365647,"is_reserved":false,"is_disabled":false,"rental_uris":{"android":"levelo://app?vid=e1fb9cb5-7800-48c3-9c1e-04e0402a52bd","ios":"levelo://app?vid=e1fb9cb5-7800-48c3-9c1e-04e0402a52bd"},"vehicle_type_id":"4","last_reported":1699121280,"current_range_meters":23200,"station_id":"ce4bhs12rcd13ifvqhvg","pricing_plan_id":"free"},{"bike_id":"e8584f7f-3a22-4191-9ecd-5314ed574e4e","system_id":"levelo_inurba_marseille","lat":43.303586,"lon":5.377754,"is_reserved":false,"is_disabled":false,"rental_uris":{"android":"levelo://app?vid=e8584f7f-3a22-4191-9ecd-5314ed574e4e","ios":"levelo://app?vid=e8584f7f-3a22-4191-9ecd-5314ed574e4e"},"vehicle_type_id":"4","last_reported":1699121280,"current_range_meters":18400,"station_id":"","pricing_plan_id":"free"},{"bike_id":"c37a60ff-8992-4e74-8e8e-b094339c7ef0","system_id":"levelo_inurba_marseille","lat":43.324771,"lon":5.36557,"is_reserved":false,"is_disabled":false,"rental_uris":{"android":"levelo://app?vid=c37a60ff-8992-4e74-8e8e-b094339c7ef0","ios":"levelo://app?vid=c37a60ff-8992-4e74-8e8e-b094339c7ef0"},"vehicle_type_id":"4","last_reported":1699121280,"current_range_meters":18400,"station_id":"ce4bhs12rcd13ifvqhvg","pricing_plan_id":"free"},{"bike_id":"43b4afb6-742e-4852-9cfb-8c3678d7d688","system_id":"levelo_inurba_marseille","lat":43.302903,"lon":5.37698,"is_reserved":false,"is_disabled":false,"rental_uris":{"android":"levelo://app?vid=43b4afb6-742e-4852-9cfb-8c3678d7d688","ios":"levelo://app?vid=43b4afb6-742e-4852-9cfb-8c3678d7d688"},"vehicle_type_id":"4","last_reported":1699121280,"current_range_meters":29200,"station_id":"ce4bguh2rcd13ifvqcj0","pricing_plan_id":"free"},{"bike_id":"dedeec10-12af-4c64-810b-98a07f9219f8","system_id":"levelo_inurba_marseille","lat":43.302784,"lon":5.377158,"is_reserved":false,"is_disabled":false,"rental_uris":{"android":"levelo://app?vid=dedeec10-12af-4c64-810b-98a07f9219f8","ios":"levelo://app?vid=dedeec10-12af-4c64-810b-98a07f9219f8"},"vehicle_type_id":"4","last_reported":1699121280,"current_range_meters":29600,"station_id":"ce4bguh2rcd13ifvqcj0","pricing_plan_id":"free"},{"bike_id":"94319a43-77a3-4830-8a7a-d0d5ccc5f50e","system_id":"levelo_inurba_marseille","lat":43.30143,"lon":5.37413,"is_reserved":false,"is_disabled":false,"rental_uris":{"android":"levelo://app?vid=94319a43-77a3-4830-8a7a-d0d5ccc5f50e","ios":"levelo://app?vid=94319a43-77a3-4830-8a7a-d0d5ccc5f50e"},"vehicle_type_id":"4","last_reported":1699121280,"current_range_meters":30800,"station_id":"ce4bgs92rcd13ifvqcc0","pricing_plan_id":"free"},{"bike_id":"1183ab69-7cb4-443b-bba7-29a68b8e459c","system_id":"levelo_inurba_marseille","lat":43.302784,"lon":5.377158,"is_reserved":false,"is_disabled":false,"rental_uris":{"android":"levelo://app?vid=1183ab69-7cb4-443b-bba7-29a68b8e459c","ios":"levelo://app?vid=1183ab69-7cb4-443b-bba7-29a68b8e459c"},"vehicle_type_id":"4","last_reported":1699121280,"current_range_meters":27200,"station_id":"ce4bguh2rcd13ifvqcj0","pricing_plan_id":"free"},{"bike_id":"fc4742d5-1d60-4ac2-a9eb-51df4adde8ae","system_id":"levelo_inurba_marseille","lat":43.302784,"lon":5.377158,"is_reserved":false,"is_disabled":false,"rental_uris":{"android":"levelo://app?vid=fc4742d5-1d60-4ac2-a9eb-51df4adde8ae","ios":"levelo://app?vid=fc4742d5-1d60-4ac2-a9eb-51df4adde8ae"},"vehicle_type_id":"4","last_reported":1699121280,"current_range_meters":16400,"station_id":"ce4bguh2rcd13ifvqcj0","pricing_plan_id":"free"},{"bike_id":"cde09343-cb34-42b4-bd82-ba3dc99ca7a9","system_id":"levelo_inurba_marseille","lat":43.31541,"lon":5.38404,"is_reserved":false,"is_disabled":false,"rental_uris":{"android":"levelo://app?vid=cde09343-cb34-42b4-bd82-ba3dc99ca7a9","ios":"levelo://app?vid=cde09343-cb34-42b4-bd82-ba3dc99ca7a9"},"vehicle_type_id":"4","last_reported":1699121280,"current_range_meters":11600,"station_id":"ce4bhqp2rcd13ifvqhng","pricing_plan_id":"free"},{"bike_id":"3f2c2093-4a23-4121-b50d-71f37016ef76","system_id":"levelo_inurba_marseille","lat":43.314811,"lon":5.373103,"is_reserved":false,"is_disabled":false,"rental_uris":{"android":"levelo://app?vid=3f2c2093-4a23-4121-b50d-71f37016ef76","ios":"levelo://app?vid=3f2c2093-4a23-4121-b50d-71f37016ef76"},"vehicle_type_id":"4","last_reported":1699121280,"current_range_meters":22800,"station_id":"ce4bgt12rcd13ifvqcd0","pricing_plan_id":"free"},{"bike_id":"8060e252-2c91-4184-ab29-aa16d185b252","system_id":"levelo_inurba_marseille","lat":43.319941,"lon":5.381558,"is_reserved":false,"is_disabled":false,"rental_uris":{"android":"levelo://app?vid=8060e252-2c91-4184-ab29-aa16d185b252","ios":"levelo://app?vid=8060e252-2c91-4184-ab29-aa16d185b252"},"vehicle_type_id":"4","last_reported":1699121280,"current_range_meters":21600,"station_id":"ce4bhr12rcd13ifvqhpg","pricing_plan_id":"free"},{"bike_id":"d0bf0c20-045d-4510-9acb-20cf3c31dec1","system_id":"levelo_inurba_marseille","lat":43.31996,"lon":5.381568,"is_reserved":false,"is_disabled":false,"rental_uris":{"android":"levelo://app?vid=d0bf0c20-045d-4510-9acb-20cf3c31dec1","ios":"levelo://app?vid=d0bf0c20-045d-4510-9acb-20cf3c31dec1"},"vehicle_type_id":"4","last_reported":1699121280,"current_range_meters":26000,"station_id":"ce4bhr12rcd13ifvqhpg","pricing_plan_id":"free"},{"bike_id":"d344b570-bdb7-47d2-a664-10a6449e2519","system_id":"levelo_inurba_marseille","lat":43.31991,"lon":5.38164,"is_reserved":false,"is_disabled":false,"rental_uris":{"android":"levelo://app?vid=d344b570-bdb7-47d2-a664-10a6449e2519","ios":"levelo://app?vid=d344b570-bdb7-47d2-a664-10a6449e2519"},"vehicle_type_id":"4","last_reported":1699121280,"current_range_meters":30000,"station_id":"ce4bhr12rcd13ifvqhpg","pricing_plan_id":"free"},{"bike_id":"c8c194c7-7b53-4744-b607-d563a8d07b58","system_id":"levelo_inurba_marseille","lat":43.31995,"lon":5.38165,"is_reserved":false,"is_disabled":false,"rental_uris":{"android":"levelo://app?vid=c8c194c7-7b53-4744-b607-d563a8d07b58","ios":"levelo://app?vid=c8c194c7-7b53-4744-b607-d563a8d07b58"},"vehicle_type_id":"4","last_reported":1699121280,"current_range_meters":19200,"station_id":"ce4bhr12rcd13ifvqhpg","pricing_plan_id":"free"},{"bike_id":"0d775faa-6379-4d34-a519-c43c2a993974","system_id":"levelo_inurba_marseille","lat":43.32003,"lon":5.38158,"is_reserved":false,"is_disabled":false,"rental_uris":{"android":"levelo://app?vid=0d775faa-6379-4d34-a519-c43c2a993974","ios":"levelo://app?vid=0d775faa-6379-4d34-a519-c43c2a993974"},"vehicle_type_id":"4","last_reported":1699121280,"current_range_meters":12400,"station_id":"ce4bhr12rcd13ifvqhpg","pricing_plan_id":"free"},{"bike_id":"f346034f-43ac-419d-89cf-24d56685f417","system_id":"levelo_inurba_marseille","lat":43.313571,"lon":5.384829,"is_reserved":false,"is_disabled":false,"rental_uris":{"android":"levelo://app?vid=f346034f-43ac-419d-89cf-24d56685f417","ios":"levelo://app?vid=f346034f-43ac-419d-89cf-24d56685f417"},"vehicle_type_id":"4","last_reported":1699121280,"current_range_meters":17600,"station_id":"ce4bgt92rcd13ifvqcf0","pricing_plan_id":"free"},{"bike_id":"456d8363-2030-4d01-aadd-1b8196e74d13","system_id":"levelo_inurba_marseille","lat":43.313571,"lon":5.384829,"is_reserved":false,"is_disabled":false,"rental_uris":{"android":"levelo://app?vid=456d8363-2030-4d01-aadd-1b8196e74d13","ios":"levelo://app?vid=456d8363-2030-4d01-aadd-1b8196e74d13"},"vehicle_type_id":"4","last_reported":1699121280,"current_range_meters":22400,"station_id":"ce4bgt92rcd13ifvqcf0","pricing_plan_id":"free"},{"bike_id":"a229adbb-a3fa-4e90-a57a-b4e289f240d4","system_id":"levelo_inurba_marseille","lat":43.299852,"lon":5.371833,"is_reserved":false,"is_disabled":false,"rental_uris":{"android":"levelo://app?vid=a229adbb-a3fa-4e90-a57a-b4e289f240d4","ios":"levelo://app?vid=a229adbb-a3fa-4e90-a57a-b4e289f240d4"},"vehicle_type_id":"4","last_reported":1699121280,"current_range_meters":15600,"station_id":"ce4bgh92rcd13ifvqb50","pricing_plan_id":"free"},{"bike_id":"c5d7d5d5-ab2f-47f8-bc87-273c07dad543","system_id":"levelo_inurba_marseille","lat":43.29932,"lon":5.36559,"is_reserved":false,"is_disabled":false,"rental_uris":{"android":"levelo://app?vid=c5d7d5d5-ab2f-47f8-bc87-273c07dad543","ios":"levelo://app?vid=c5d7d5d5-ab2f-47f8-bc87-273c07dad543"},"vehicle_type_id":"4","last_reported":1699121280,"current_range_meters":23600,"station_id":"ce4bgm92rcd13ifvqbr0","pricing_plan_id":"free"},{"bike_id":"cffe800b-8e46-4367-92e9-d9a0f2cba0f2","system_id":"levelo_inurba_marseille","lat":43.299626,"lon":5.375372,"is_reserved":false,"is_disabled":false,"rental_uris":{"android":"levelo://app?vid=cffe800b-8e46-4367-92e9-d9a0f2cba0f2","ios":"levelo://app?vid=cffe800b-8e46-4367-92e9-d9a0f2cba0f2"},"vehicle_type_id":"4","last_reported":1699121280,"current_range_meters":25600,"station_id":"ce4bgjh2rcd13ifvqbg0","pricing_plan_id":"free"},{"bike_id":"1d053ccf-a907-4a6c-ab48-522d8e249baa","system_id":"levelo_inurba_marseille","lat":43.298433,"lon":5.362774,"is_reserved":false,"is_disabled":false,"rental_uris":{"android":"levelo://app?vid=1d053ccf-a907-4a6c-ab48-522d8e249baa","ios":"levelo://app?vid=1d053ccf-a907-4a6c-ab48-522d8e249baa"},"vehicle_type_id":"4","last_reported":1699121280,"current_range_meters":28000,"station_id":"ce4bgpp2rcd13ifvqc3g","pricing_plan_id":"free"},{"bike_id":"4bd3e6cb-a94c-42fc-be71-0599ff83bc19","system_id":"levelo_inurba_marseille","lat":43.305364,"lon":5.384119,"is_reserved":false,"is_disabled":false,"rental_uris":{"android":"levelo://app?vid=4bd3e6cb-a94c-42fc-be71-0599ff83bc19","ios":"levelo://app?vid=4bd3e6cb-a94c-42fc-be71-0599ff83bc19"},"vehicle_type_id":"4","last_reported":1699121280,"current_range_meters":24800,"station_id":"ce4bgg92rcd13ifvqb30","pricing_plan_id":"free"},{"bike_id":"ae2a5e55-5925-4721-9dc8-3fed01b2b9e2","system_id":"levelo_inurba_marseille","lat":43.299243,"lon":5.37481,"is_reserved":false,"is_disabled":false,"rental_uris":{"android":"levelo://app?vid=ae2a5e55-5925-4721-9dc8-3fed01b2b9e2","ios":"levelo://app?vid=ae2a5e55-5925-4721-9dc8-3fed01b2b9e2"},"vehicle_type_id":"4","last_reported":1699121280,"current_range_meters":12400,"station_id":"ce4bgjh2rcd13ifvqbg0","pricing_plan_id":"free"},{"bike_id":"e1c09e1d-610c-49ac-9f1e-435d61101f12","system_id":"levelo_inurba_marseille","lat":43.299243,"lon":5.374807,"is_reserved":false,"is_disabled":false,"rental_uris":{"android":"levelo://app?vid=e1c09e1d-610c-49ac-9f1e-435d61101f12","ios":"levelo://app?vid=e1c09e1d-610c-49ac-9f1e-435d61101f12"},"vehicle_type_id":"4","last_reported":1699121280,"current_range_meters":30800,"station_id":"ce4bgjh2rcd13ifvqbg0","pricing_plan_id":"free"},{"bike_id":"88508aa5-9586-42bc-9abe-3f5d368eea2e","system_id":"levelo_inurba_marseille","lat":43.299243,"lon":5.374807,"is_reserved":false,"is_disabled":false,"rental_uris":{"android":"levelo://app?vid=88508aa5-9586-42bc-9abe-3f5d368eea2e","ios":"levelo://app?vid=88508aa5-9586-42bc-9abe-3f5d368eea2e"},"vehicle_type_id":"4","last_reported":1699121280,"current_range_meters":30800,"station_id":"ce4bgjh2rcd13ifvqbg0","pricing_plan_id":"free"},{"bike_id":"a55e6ff7-5126-46e5-967d-e1d16cbef8c2","system_id":"levelo_inurba_marseille","lat":43.299243,"lon":5.37481,"is_reserved":false,"is_disabled":false,"rental_uris":{"android":"levelo://app?vid=a55e6ff7-5126-46e5-967d-e1d16cbef8c2","ios":"levelo://app?vid=a55e6ff7-5126-46e5-967d-e1d16cbef8c2"},"vehicle_type_id":"4","last_reported":1699121280,"current_range_meters":20800,"station_id":"ce4bgjh2rcd13ifvqbg0","pricing_plan_id":"free"},{"bike_id":"62a36822-f960-421c-87ff-6a7d6c9e1351","system_id":"levelo_inurba_marseille","lat":43.322872,"lon":5.382756,"is_reserved":false,"is_disabled":false,"rental_uris":{"android":"levelo://app?vid=62a36822-f960-421c-87ff-6a7d6c9e1351","ios":"levelo://app?vid=62a36822-f960-421c-87ff-6a7d6c9e1351"},"vehicle_type_id":"4","last_reported":1699121280,"current_range_meters":30800,"station_id":"ce4bhr12rcd13ifvqhqg","pricing_plan_id":"free"},{"bike_id":"ee04e5cc-451d-44b6-bca0-cfc749a45964","system_id":"levelo_inurba_marseille","lat":43.322872,"lon":5.382756,"is_reserved":false,"is_disabled":false,"rental_uris":{"android":"levelo://app?vid=ee04e5cc-451d-44b6-bca0-cfc749a45964","ios":"levelo://app?vid=ee04e5cc-451d-44b6-bca0-cfc749a45964"},"vehicle_type_id":"4","last_reported":1699121280,"current_range_meters":28000,"station_id":"ce4bhr12rcd13ifvqhqg","pricing_plan_id":"free"},{"bike_id":"04d0d730-0d72-4b77-bea7-5e49897a16f5","system_id":"levelo_inurba_marseille","lat":43.322872,"lon":5.382756,"is_reserved":false,"is_disabled":false,"rental_uris":{"android":"levelo://app?vid=04d0d730-0d72-4b77-bea7-5e49897a16f5","ios":"levelo://app?vid=04d0d730-0d72-4b77-bea7-5e49897a16f5"},"vehicle_type_id":"4","last_reported":1699121280,"current_range_meters":19200,"station_id":"ce4bhr12rcd13ifvqhqg","pricing_plan_id":"free"},{"bike_id":"47204df0-625f-459d-9d51-599ff2c30277","system_id":"levelo_inurba_marseille","lat":43.297774,"lon":5.370875,"is_reserved":false,"is_disabled":false,"rental_uris":{"android":"levelo://app?vid=47204df0-625f-459d-9d51-599ff2c30277","ios":"levelo://app?vid=47204df0-625f-459d-9d51-599ff2c30277"},"vehicle_type_id":"4","last_reported":1699121280,"current_range_meters":31200,"station_id":"ce4bgop2rcd13ifvqc1g","pricing_plan_id":"free"},{"bike_id":"3d07706a-9aac-42e1-baa4-4e129dd27e78","system_id":"levelo_inurba_marseille","lat":43.322872,"lon":5.382756,"is_reserved":false,"is_disabled":false,"rental_uris":{"android":"levelo://app?vid=3d07706a-9aac-42e1-baa4-4e129dd27e78","ios":"levelo://app?vid=3d07706a-9aac-42e1-baa4-4e129dd27e78"},"vehicle_type_id":"4","last_reported":1699121280,"current_range_meters":13200,"station_id":"ce4bhr12rcd13ifvqhqg","pricing_plan_id":"free"},{"bike_id":"7af947a6-cf45-4409-8f3d-3cecf979aa00","system_id":"levelo_inurba_marseille","lat":43.322872,"lon":5.382756,"is_reserved":false,"is_disabled":false,"rental_uris":{"android":"levelo://app?vid=7af947a6-cf45-4409-8f3d-3cecf979aa00","ios":"levelo://app?vid=7af947a6-cf45-4409-8f3d-3cecf979aa00"},"vehicle_type_id":"4","last_reported":1699121280,"current_range_meters":17600,"station_id":"ce4bhr12rcd13ifvqhqg","pricing_plan_id":"free"},{"bike_id":"c9428514-9197-4976-812b-d61139ef9187","system_id":"levelo_inurba_marseille","lat":43.318846,"lon":5.386473,"is_reserved":false,"is_disabled":false,"rental_uris":{"android":"levelo://app?vid=c9428514-9197-4976-812b-d61139ef9187","ios":"levelo://app?vid=c9428514-9197-4976-812b-d61139ef9187"},"vehicle_type_id":"4","last_reported":1699121280,"current_range_meters":8400,"station_id":"","pricing_plan_id":"free"},{"bike_id":"6b16d2be-585d-43cf-8fdc-d22349c28d9d","system_id":"levelo_inurba_marseille","lat":43.32829,"lon":5.3669,"is_reserved":false,"is_disabled":false,"rental_uris":{"android":"levelo://app?vid=6b16d2be-585d-43cf-8fdc-d22349c28d9d","ios":"levelo://app?vid=6b16d2be-585d-43cf-8fdc-d22349c28d9d"},"vehicle_type_id":"4","last_reported":1699121280,"current_range_meters":30400,"station_id":"ce4bhs92rcd13ifvqi0g","pricing_plan_id":"free"},{"bike_id":"8ff07958-6602-4c35-97a9-a7a4d9903e19","system_id":"levelo_inurba_marseille","lat":43.297163,"lon":5.365866,"is_reserved":false,"is_disabled":false,"rental_uris":{"android":"levelo://app?vid=8ff07958-6602-4c35-97a9-a7a4d9903e19","ios":"levelo://app?vid=8ff07958-6602-4c35-97a9-a7a4d9903e19"},"vehicle_type_id":"4","last_reported":1699121280,"current_range_meters":31600,"station_id":"ce4bgn12rcd13ifvqbt0","pricing_plan_id":"free"},{"bike_id":"573975f8-6fee-4a32-aac0-afe60af7e853","system_id":"levelo_inurba_marseille","lat":43.297163,"lon":5.365866,"is_reserved":false,"is_disabled":false,"rental_uris":{"android":"levelo://app?vid=573975f8-6fee-4a32-aac0-afe60af7e853","ios":"levelo://app?vid=573975f8-6fee-4a32-aac0-afe60af7e853"},"vehicle_type_id":"4","last_reported":1699121280,"current_range_meters":12800,"station_id":"ce4bgn12rcd13ifvqbt0","pricing_plan_id":"free"},{"bike_id":"c78586f7-3181-46df-bae4-b9e5b4664e27","system_id":"levelo_inurba_marseille","lat":43.297076,"lon":5.366128,"is_reserved":false,"is_disabled":false,"rental_uris":{"android":"levelo://app?vid=c78586f7-3181-46df-bae4-b9e5b4664e27","ios":"levelo://app?vid=c78586f7-3181-46df-bae4-b9e5b4664e27"},"vehicle_type_id":"4","last_reported":1699121280,"current_range_meters":8000,"station_id":"ce4bgn12rcd13ifvqbt0","pricing_plan_id":"free"},{"bike_id":"8ddce3be-8c56-444b-96e9-566f4ce84b5b","system_id":"levelo_inurba_marseille","lat":43.328509,"lon":5.366776,"is_reserved":false,"is_disabled":false,"rental_uris":{"android":"levelo://app?vid=8ddce3be-8c56-444b-96e9-566f4ce84b5b","ios":"levelo://app?vid=8ddce3be-8c56-444b-96e9-566f4ce84b5b"},"vehicle_type_id":"4","last_reported":1699121280,"current_range_meters":0,"station_id":"ce4bhs92rcd13ifvqi0g","pricing_plan_id":"free"},{"bike_id":"67bb7dbe-50ea-4249-bc98-d0ad4814b4a6","system_id":"levelo_inurba_marseille","lat":43.321453,"lon":5.385595,"is_reserved":false,"is_disabled":false,"rental_uris":{"android":"levelo://app?vid=67bb7dbe-50ea-4249-bc98-d0ad4814b4a6","ios":"levelo://app?vid=67bb7dbe-50ea-4249-bc98-d0ad4814b4a6"},"vehicle_type_id":"4","last_reported":1699121280,"current_range_meters":18000,"station_id":"","pricing_plan_id":"free"},{"bike_id":"099b240b-a40c-44e2-8de9-343aeaeffe8a","system_id":"levelo_inurba_marseille","lat":43.2968,"lon":5.37291,"is_reserved":false,"is_disabled":false,"rental_uris":{"android":"levelo://app?vid=099b240b-a40c-44e2-8de9-343aeaeffe8a","ios":"levelo://app?vid=099b240b-a40c-44e2-8de9-343aeaeffe8a"},"vehicle_type_id":"4","last_reported":1699121280,"current_range_meters":31200,"station_id":"ce4bgk12rcd13ifvqbj0","pricing_plan_id":"free"},{"bike_id":"5a646058-c5b3-4389-afbb-e2036cbcd329","system_id":"levelo_inurba_marseille","lat":43.2968,"lon":5.37291,"is_reserved":false,"is_disabled":false,"rental_uris":{"android":"levelo://app?vid=5a646058-c5b3-4389-afbb-e2036cbcd329","ios":"levelo://app?vid=5a646058-c5b3-4389-afbb-e2036cbcd329"},"vehicle_type_id":"4","last_reported":1699121280,"current_range_meters":16400,"station_id":"ce4bgk12rcd13ifvqbj0","pricing_plan_id":"free"},{"bike_id":"ac64cfce-5505-455a-9537-62af5dd3a90a","system_id":"levelo_inurba_marseille","lat":43.32355,"lon":5.38416,"is_reserved":false,"is_disabled":false,"rental_uris":{"android":"levelo://app?vid=ac64cfce-5505-455a-9537-62af5dd3a90a","ios":"levelo://app?vid=ac64cfce-5505-455a-9537-62af5dd3a90a"},"vehicle_type_id":"4","last_reported":1699121280,"current_range_meters":19600,"station_id":"","pricing_plan_id":"free"},{"bike_id":"8d7b4160-04ff-49a2-959b-e5d6a726646e","system_id":"levelo_inurba_marseille","lat":43.296206,"lon":5.371484,"is_reserved":false,"is_disabled":false,"rental_uris":{"android":"levelo://app?vid=8d7b4160-04ff-49a2-959b-e5d6a726646e","ios":"levelo://app?vid=8d7b4160-04ff-49a2-959b-e5d6a726646e"},"vehicle_type_id":"4","last_reported":1699121280,"current_range_meters":10400,"station_id":"ce4bgnh2rcd13ifvqc0g","pricing_plan_id":"free"},{"bike_id":"5a3e4389-a6dc-483b-abd6-709292f6e071","system_id":"levelo_inurba_marseille","lat":43.295859,"lon":5.367166,"is_reserved":false,"is_disabled":false,"rental_uris":{"android":"levelo://app?vid=5a3e4389-a6dc-483b-abd6-709292f6e071","ios":"levelo://app?vid=5a3e4389-a6dc-483b-abd6-709292f6e071"},"vehicle_type_id":"4","last_reported":1699121280,"current_range_meters":14400,"station_id":"ce4bgph2rcd13ifvqc2g","pricing_plan_id":"free"},{"bike_id":"f4f1112f-25d1-4f54-991e-442fac6eee83","system_id":"levelo_inurba_marseille","lat":43.296131,"lon":5.370791,"is_reserved":false,"is_disabled":false,"rental_uris":{"android":"levelo://app?vid=f4f1112f-25d1-4f54-991e-442fac6eee83","ios":"levelo://app?vid=f4f1112f-25d1-4f54-991e-442fac6eee83"},"vehicle_type_id":"4","last_reported":1699121280,"current_range_meters":19200,"station_id":"ce4bgnh2rcd13ifvqc0g","pricing_plan_id":"free"},{"bike_id":"016318c6-1661-412b-9814-0b646df2a183","system_id":"levelo_inurba_marseille","lat":43.29616,"lon":5.37154,"is_reserved":false,"is_disabled":false,"rental_uris":{"android":"levelo://app?vid=016318c6-1661-412b-9814-0b646df2a183","ios":"levelo://app?vid=016318c6-1661-412b-9814-0b646df2a183"},"vehicle_type_id":"4","last_reported":1699121280,"current_range_meters":19200,"station_id":"ce4bgqh2rcd13ifvqc4g","pricing_plan_id":"free"},{"bike_id":"2622b24f-20ad-4a99-81cf-296f26628985","system_id":"levelo_inurba_marseille","lat":43.29619,"lon":5.37175,"is_reserved":false,"is_disabled":false,"rental_uris":{"android":"levelo://app?vid=2622b24f-20ad-4a99-81cf-296f26628985","ios":"levelo://app?vid=2622b24f-20ad-4a99-81cf-296f26628985"},"vehicle_type_id":"4","last_reported":1699121280,"current_range_meters":14000,"station_id":"ce4bgnh2rcd13ifvqc0g","pricing_plan_id":"free"},{"bike_id":"ed9e664b-b66c-4e89-a647-eb7a982cf4c5","system_id":"levelo_inurba_marseille","lat":43.309589,"lon":5.390258,"is_reserved":false,"is_disabled":false,"rental_uris":{"android":"levelo://app?vid=ed9e664b-b66c-4e89-a647-eb7a982cf4c5","ios":"levelo://app?vid=ed9e664b-b66c-4e89-a647-eb7a982cf4c5"},"vehicle_type_id":"4","last_reported":1699121280,"current_range_meters":15600,"station_id":"ce4bgup2rcd13ifvqco0","pricing_plan_id":"free"},{"bike_id":"16010e9c-ea84-47e3-82d0-0257811ea360","system_id":"levelo_inurba_marseille","lat":43.29908,"lon":5.38147,"is_reserved":false,"is_disabled":false,"rental_uris":{"android":"levelo://app?vid=16010e9c-ea84-47e3-82d0-0257811ea360","ios":"levelo://app?vid=16010e9c-ea84-47e3-82d0-0257811ea360"},"vehicle_type_id":"4","last_reported":1699121280,"current_range_meters":0,"station_id":"ce4bgj12rcd13ifvqbc0","pricing_plan_id":"free"},{"bike_id":"c2a9dd42-6911-4d15-b66d-6098fbff20bb","system_id":"levelo_inurba_marseille","lat":43.317557,"lon":5.390173,"is_reserved":false,"is_disabled":false,"rental_uris":{"android":"levelo://app?vid=c2a9dd42-6911-4d15-b66d-6098fbff20bb","ios":"levelo://app?vid=c2a9dd42-6911-4d15-b66d-6098fbff20bb"},"vehicle_type_id":"4","last_reported":1699121280,"current_range_meters":25600,"station_id":"ce4bhqp2rcd13ifvqhng","pricing_plan_id":"free"},{"bike_id":"360a883d-e41c-4276-9d88-462619aeb83c","system_id":"levelo_inurba_marseille","lat":43.295748,"lon":5.37522,"is_reserved":false,"is_disabled":false,"rental_uris":{"android":"levelo://app?vid=360a883d-e41c-4276-9d88-462619aeb83c","ios":"levelo://app?vid=360a883d-e41c-4276-9d88-462619aeb83c"},"vehicle_type_id":"4","last_reported":1699121280,"current_range_meters":7200,"station_id":"ce4bgh92rcd13ifvqb50","pricing_plan_id":"free"},{"bike_id":"89d5be98-ea79-4f21-816c-08480b0c43ce","system_id":"levelo_inurba_marseille","lat":43.29573,"lon":5.37503,"is_reserved":false,"is_disabled":false,"rental_uris":{"android":"levelo://app?vid=89d5be98-ea79-4f21-816c-08480b0c43ce","ios":"levelo://app?vid=89d5be98-ea79-4f21-816c-08480b0c43ce"},"vehicle_type_id":"4","last_reported":1699121280,"current_range_meters":0,"station_id":"ce4bgh92rcd13ifvqb50","pricing_plan_id":"free"},{"bike_id":"b686f84d-6ae7-4c63-b770-cc73efccb402","system_id":"levelo_inurba_marseille","lat":43.304274,"lon":5.388873,"is_reserved":false,"is_disabled":false,"rental_uris":{"android":"levelo://app?vid=b686f84d-6ae7-4c63-b770-cc73efccb402","ios":"levelo://app?vid=b686f84d-6ae7-4c63-b770-cc73efccb402"},"vehicle_type_id":"4","last_reported":1699121280,"current_range_meters":0,"station_id":"ce4bgk12rcd13ifvqbi0","pricing_plan_id":"free"},{"bike_id":"a1639bb7-62dc-4424-a50c-1904fad351db","system_id":"levelo_inurba_marseille","lat":43.298037,"lon":5.381066,"is_reserved":false,"is_disabled":false,"rental_uris":{"android":"levelo://app?vid=a1639bb7-62dc-4424-a50c-1904fad351db","ios":"levelo://app?vid=a1639bb7-62dc-4424-a50c-1904fad351db"},"vehicle_type_id":"4","last_reported":1699121280,"current_range_meters":3200,"station_id":"ce4bgip2rcd13ifvqbb0","pricing_plan_id":"free"},{"bike_id":"f15e1017-fba3-4172-9d41-3808c46c3541","system_id":"levelo_inurba_marseille","lat":43.301429,"lon":5.37413,"is_reserved":false,"is_disabled":false,"rental_uris":{"android":"levelo://app?vid=f15e1017-fba3-4172-9d41-3808c46c3541","ios":"levelo://app?vid=f15e1017-fba3-4172-9d41-3808c46c3541"},"vehicle_type_id":"4","last_reported":1699121280,"current_range_meters":8800,"station_id":"ce4bgs92rcd13ifvqcc0","pricing_plan_id":"free"},{"bike_id":"947f12b7-c0e0-49a9-b0a8-3c4be6e45744","system_id":"levelo_inurba_marseille","lat":43.299707,"lon":5.384859,"is_reserved":false,"is_disabled":false,"rental_uris":{"android":"levelo://app?vid=947f12b7-c0e0-49a9-b0a8-3c4be6e45744","ios":"levelo://app?vid=947f12b7-c0e0-49a9-b0a8-3c4be6e45744"},"vehicle_type_id":"4","last_reported":1699121280,"current_range_meters":13200,"station_id":"ce4bgj92rcd13ifvqbd0","pricing_plan_id":"free"},{"bike_id":"0242d1c2-92c2-4ac1-9ba6-b6c9e720fa5b","system_id":"levelo_inurba_marseille","lat":43.2998,"lon":5.38489,"is_reserved":false,"is_disabled":false,"rental_uris":{"android":"levelo://app?vid=0242d1c2-92c2-4ac1-9ba6-b6c9e720fa5b","ios":"levelo://app?vid=0242d1c2-92c2-4ac1-9ba6-b6c9e720fa5b"},"vehicle_type_id":"4","last_reported":1699121280,"current_range_meters":1200,"station_id":"ce4bgj92rcd13ifvqbd0","pricing_plan_id":"free"},{"bike_id":"7f1a306e-7cca-468c-91d7-3e4b9964c7a9","system_id":"levelo_inurba_marseille","lat":43.29968,"lon":5.38494,"is_reserved":false,"is_disabled":false,"rental_uris":{"android":"levelo://app?vid=7f1a306e-7cca-468c-91d7-3e4b9964c7a9","ios":"levelo://app?vid=7f1a306e-7cca-468c-91d7-3e4b9964c7a9"},"vehicle_type_id":"4","last_reported":1699121280,"current_range_meters":18000,"station_id":"ce4bgj92rcd13ifvqbd0","pricing_plan_id":"free"},{"bike_id":"28d72855-443e-4e9b-ad6c-98384128a033","system_id":"levelo_inurba_marseille","lat":43.2996,"lon":5.38497,"is_reserved":false,"is_disabled":false,"rental_uris":{"android":"levelo://app?vid=28d72855-443e-4e9b-ad6c-98384128a033","ios":"levelo://app?vid=28d72855-443e-4e9b-ad6c-98384128a033"},"vehicle_type_id":"4","last_reported":1699121280,"current_range_meters":0,"station_id":"ce4bgj92rcd13ifvqbd0","pricing_plan_id":"free"},{"bike_id":"0a10b82a-09b6-4437-ac94-abecaf0bf151","system_id":"levelo_inurba_marseille","lat":43.299724,"lon":5.384848,"is_reserved":false,"is_disabled":false,"rental_uris":{"android":"levelo://app?vid=0a10b82a-09b6-4437-ac94-abecaf0bf151","ios":"levelo://app?vid=0a10b82a-09b6-4437-ac94-abecaf0bf151"},"vehicle_type_id":"4","last_reported":1699121280,"current_range_meters":16800,"station_id":"ce4bgj92rcd13ifvqbd0","pricing_plan_id":"free"},{"bike_id":"1f580447-7b2c-4630-9a51-33e28281b372","system_id":"levelo_inurba_marseille","lat":43.329065,"lon":5.379814,"is_reserved":false,"is_disabled":false,"rental_uris":{"android":"levelo://app?vid=1f580447-7b2c-4630-9a51-33e28281b372","ios":"levelo://app?vid=1f580447-7b2c-4630-9a51-33e28281b372"},"vehicle_type_id":"4","last_reported":1699121280,"current_range_meters":15200,"station_id":"","pricing_plan_id":"free"},{"bike_id":"8d31173f-e30d-4167-be38-8b9be32d0d09","system_id":"levelo_inurba_marseille","lat":43.299724,"lon":5.384848,"is_reserved":false,"is_disabled":false,"rental_uris":{"android":"levelo://app?vid=8d31173f-e30d-4167-be38-8b9be32d0d09","ios":"levelo://app?vid=8d31173f-e30d-4167-be38-8b9be32d0d09"},"vehicle_type_id":"4","last_reported":1699121280,"current_range_meters":10400,"station_id":"ce4bgj92rcd13ifvqbd0","pricing_plan_id":"free"},{"bike_id":"ecf94d7b-2238-4a61-8042-e3febbffae63","system_id":"levelo_inurba_marseille","lat":43.299323,"lon":5.385518,"is_reserved":false,"is_disabled":false,"rental_uris":{"android":"levelo://app?vid=ecf94d7b-2238-4a61-8042-e3febbffae63","ios":"levelo://app?vid=ecf94d7b-2238-4a61-8042-e3febbffae63"},"vehicle_type_id":"4","last_reported":1699121280,"current_range_meters":27200,"station_id":"","pricing_plan_id":"free"},{"bike_id":"eab5d605-eaca-4660-a5fd-3fd2b2fdfd03","system_id":"levelo_inurba_marseille","lat":43.29476,"lon":5.37582,"is_reserved":false,"is_disabled":false,"rental_uris":{"android":"levelo://app?vid=eab5d605-eaca-4660-a5fd-3fd2b2fdfd03","ios":"levelo://app?vid=eab5d605-eaca-4660-a5fd-3fd2b2fdfd03"},"vehicle_type_id":"4","last_reported":1699121280,"current_range_meters":0,"station_id":"","pricing_plan_id":"free"},{"bike_id":"44278700-4370-4f7e-955a-34cba2f251b7","system_id":"levelo_inurba_marseille","lat":43.323678,"lon":5.388837,"is_reserved":false,"is_disabled":false,"rental_uris":{"android":"levelo://app?vid=44278700-4370-4f7e-955a-34cba2f251b7","ios":"levelo://app?vid=44278700-4370-4f7e-955a-34cba2f251b7"},"vehicle_type_id":"4","last_reported":1699121280,"current_range_meters":12800,"station_id":"ce4bhqp2rcd13ifvqhog","pricing_plan_id":"free"},{"bike_id":"63431ec2-229a-4699-b315-44ffac446618","system_id":"levelo_inurba_marseille","lat":43.323671,"lon":5.388844,"is_reserved":false,"is_disabled":false,"rental_uris":{"android":"levelo://app?vid=63431ec2-229a-4699-b315-44ffac446618","ios":"levelo://app?vid=63431ec2-229a-4699-b315-44ffac446618"},"vehicle_type_id":"4","last_reported":1699121280,"current_range_meters":14400,"station_id":"ce4bhqp2rcd13ifvqhog","pricing_plan_id":"free"},{"bike_id":"09a80958-70a5-4215-944b-d26f719d0df0","system_id":"levelo_inurba_marseille","lat":43.32369,"lon":5.38884,"is_reserved":false,"is_disabled":false,"rental_uris":{"android":"levelo://app?vid=09a80958-70a5-4215-944b-d26f719d0df0","ios":"levelo://app?vid=09a80958-70a5-4215-944b-d26f719d0df0"},"vehicle_type_id":"4","last_reported":1699121280,"current_range_meters":18800,"station_id":"","pricing_plan_id":"free"},{"bike_id":"17ddbdfd-75e0-4d06-b463-0a6d75a8c4d9","system_id":"levelo_inurba_marseille","lat":43.302992,"lon":5.392136,"is_reserved":false,"is_disabled":false,"rental_uris":{"android":"levelo://app?vid=17ddbdfd-75e0-4d06-b463-0a6d75a8c4d9","ios":"levelo://app?vid=17ddbdfd-75e0-4d06-b463-0a6d75a8c4d9"},"vehicle_type_id":"4","last_reported":1699121280,"current_range_meters":21600,"station_id":"ce4bgkh2rcd13ifvqbk0","pricing_plan_id":"free"},{"bike_id":"c3bc6381-c956-464c-a632-68746f5612de","system_id":"levelo_inurba_marseille","lat":43.29601,"lon":5.381084,"is_reserved":false,"is_disabled":false,"rental_uris":{"android":"levelo://app?vid=c3bc6381-c956-464c-a632-68746f5612de","ios":"levelo://app?vid=c3bc6381-c956-464c-a632-68746f5612de"},"vehicle_type_id":"4","last_reported":1699121280,"current_range_meters":19200,"station_id":"ce4bgl12rcd13ifvqbo0","pricing_plan_id":"free"},{"bike_id":"4c1f509d-8d3e-4a7e-b29d-2643e4ed0630","system_id":"levelo_inurba_marseille","lat":43.29601,"lon":5.381084,"is_reserved":false,"is_disabled":false,"rental_uris":{"android":"levelo://app?vid=4c1f509d-8d3e-4a7e-b29d-2643e4ed0630","ios":"levelo://app?vid=4c1f509d-8d3e-4a7e-b29d-2643e4ed0630"},"vehicle_type_id":"4","last_reported":1699121280,"current_range_meters":8000,"station_id":"ce4bgl12rcd13ifvqbo0","pricing_plan_id":"free"},{"bike_id":"1b987d9c-b639-4fd5-95fc-eca953b69b34","system_id":"levelo_inurba_marseille","lat":43.29602,"lon":5.381084,"is_reserved":false,"is_disabled":false,"rental_uris":{"android":"levelo://app?vid=1b987d9c-b639-4fd5-95fc-eca953b69b34","ios":"levelo://app?vid=1b987d9c-b639-4fd5-95fc-eca953b69b34"},"vehicle_type_id":"4","last_reported":1699121280,"current_range_meters":8800,"station_id":"ce4bgl12rcd13ifvqbo0","pricing_plan_id":"free"},{"bike_id":"547a7cfc-5b52-446d-9105-ee3d3597290f","system_id":"levelo_inurba_marseille","lat":43.33055,"lon":5.37881,"is_reserved":false,"is_disabled":false,"rental_uris":{"android":"levelo://app?vid=547a7cfc-5b52-446d-9105-ee3d3597290f","ios":"levelo://app?vid=547a7cfc-5b52-446d-9105-ee3d3597290f"},"vehicle_type_id":"4","last_reported":1699121280,"current_range_meters":24000,"station_id":"","pricing_plan_id":"free"},{"bike_id":"b58b4918-4d9e-46f1-bb77-94aa343a5999","system_id":"levelo_inurba_marseille","lat":43.29282,"lon":5.3685,"is_reserved":false,"is_disabled":false,"rental_uris":{"android":"levelo://app?vid=b58b4918-4d9e-46f1-bb77-94aa343a5999","ios":"levelo://app?vid=b58b4918-4d9e-46f1-bb77-94aa343a5999"},"vehicle_type_id":"4","last_reported":1699121280,"current_range_meters":25600,"station_id":"ce4bhbp2rcd13ifvqesg","pricing_plan_id":"free"},{"bike_id":"86ea4aac-8817-4958-a6f7-6fafe962456b","system_id":"levelo_inurba_marseille","lat":43.29278,"lon":5.36845,"is_reserved":false,"is_disabled":false,"rental_uris":{"android":"levelo://app?vid=86ea4aac-8817-4958-a6f7-6fafe962456b","ios":"levelo://app?vid=86ea4aac-8817-4958-a6f7-6fafe962456b"},"vehicle_type_id":"4","last_reported":1699121280,"current_range_meters":24000,"station_id":"ce4bhbp2rcd13ifvqesg","pricing_plan_id":"free"},{"bike_id":"3c0c0476-af17-4e7d-a7ae-6da6f8f8e747","system_id":"levelo_inurba_marseille","lat":43.292749,"lon":5.368402,"is_reserved":false,"is_disabled":false,"rental_uris":{"android":"levelo://app?vid=3c0c0476-af17-4e7d-a7ae-6da6f8f8e747","ios":"levelo://app?vid=3c0c0476-af17-4e7d-a7ae-6da6f8f8e747"},"vehicle_type_id":"4","last_reported":1699121280,"current_range_meters":0,"station_id":"ce4bhbp2rcd13ifvqesg","pricing_plan_id":"free"},{"bike_id":"1c2c73ff-4601-4f33-b97f-da95bc589609","system_id":"levelo_inurba_marseille","lat":43.328968,"lon":5.383568,"is_reserved":false,"is_disabled":false,"rental_uris":{"android":"levelo://app?vid=1c2c73ff-4601-4f33-b97f-da95bc589609","ios":"levelo://app?vid=1c2c73ff-4601-4f33-b97f-da95bc589609"},"vehicle_type_id":"4","last_reported":1699121280,"current_range_meters":19200,"station_id":"","pricing_plan_id":"free"},{"bike_id":"95b38f76-361d-45af-93a5-4380100f8206","system_id":"levelo_inurba_marseille","lat":43.305994,"lon":5.393687,"is_reserved":false,"is_disabled":false,"rental_uris":{"android":"levelo://app?vid=95b38f76-361d-45af-93a5-4380100f8206","ios":"levelo://app?vid=95b38f76-361d-45af-93a5-4380100f8206"},"vehicle_type_id":"4","last_reported":1699121280,"current_range_meters":30800,"station_id":"ce4bh0p2rcd13ifvqd80","pricing_plan_id":"free"},{"bike_id":"765b0c74-9113-4cb6-87c1-939fc1a5636c","system_id":"levelo_inurba_marseille","lat":43.300852,"lon":5.390859,"is_reserved":false,"is_disabled":false,"rental_uris":{"android":"levelo://app?vid=765b0c74-9113-4cb6-87c1-939fc1a5636c","ios":"levelo://app?vid=765b0c74-9113-4cb6-87c1-939fc1a5636c"},"vehicle_type_id":"4","last_reported":1699121280,"current_range_meters":28800,"station_id":"ce4bh192rcd13ifvqdb0","pricing_plan_id":"free"},{"bike_id":"ecd5fcfb-e675-41c4-803e-df009ca85e60","system_id":"levelo_inurba_marseille","lat":43.309802,"lon":5.395484,"is_reserved":false,"is_disabled":false,"rental_uris":{"android":"levelo://app?vid=ecd5fcfb-e675-41c4-803e-df009ca85e60","ios":"levelo://app?vid=ecd5fcfb-e675-41c4-803e-df009ca85e60"},"vehicle_type_id":"4","last_reported":1699121280,"current_range_meters":12800,"station_id":"","pricing_plan_id":"free"},{"bike_id":"07ae50d9-2e61-41ba-bea4-c95e5032e086","system_id":"levelo_inurba_marseille","lat":43.300852,"lon":5.390859,"is_reserved":false,"is_disabled":false,"rental_uris":{"android":"levelo://app?vid=07ae50d9-2e61-41ba-bea4-c95e5032e086","ios":"levelo://app?vid=07ae50d9-2e61-41ba-bea4-c95e5032e086"},"vehicle_type_id":"4","last_reported":1699121280,"current_range_meters":22000,"station_id":"ce4bh192rcd13ifvqdb0","pricing_plan_id":"free"},{"bike_id":"1575422b-f99f-4525-ab00-681f712b3765","system_id":"levelo_inurba_marseille","lat":43.3331,"lon":5.35949,"is_reserved":false,"is_disabled":false,"rental_uris":{"android":"levelo://app?vid=1575422b-f99f-4525-ab00-681f712b3765","ios":"levelo://app?vid=1575422b-f99f-4525-ab00-681f712b3765"},"vehicle_type_id":"4","last_reported":1699121280,"current_range_meters":12400,"station_id":"","pricing_plan_id":"free"},{"bike_id":"285b356c-90df-4450-b675-b3273013103c","system_id":"levelo_inurba_marseille","lat":43.292311,"lon":5.360731,"is_reserved":false,"is_disabled":false,"rental_uris":{"android":"levelo://app?vid=285b356c-90df-4450-b675-b3273013103c","ios":"levelo://app?vid=285b356c-90df-4450-b675-b3273013103c"},"vehicle_type_id":"4","last_reported":1699121280,"current_range_meters":15200,"station_id":"ce4bhbh2rcd13ifvqeqg","pricing_plan_id":"free"},{"bike_id":"d797f1e6-f3ca-4ad7-8b56-5ed6191da53c","system_id":"levelo_inurba_marseille","lat":43.292663,"lon":5.376389,"is_reserved":false,"is_disabled":false,"rental_uris":{"android":"levelo://app?vid=d797f1e6-f3ca-4ad7-8b56-5ed6191da53c","ios":"levelo://app?vid=d797f1e6-f3ca-4ad7-8b56-5ed6191da53c"},"vehicle_type_id":"4","last_reported":1699121280,"current_range_meters":31200,"station_id":"ce4bgi12rcd13ifvqb80","pricing_plan_id":"free"},{"bike_id":"e829b0b7-fdb6-46b9-a92c-4e9d52f712e8","system_id":"levelo_inurba_marseille","lat":43.298764,"lon":5.388973,"is_reserved":false,"is_disabled":false,"rental_uris":{"android":"levelo://app?vid=e829b0b7-fdb6-46b9-a92c-4e9d52f712e8","ios":"levelo://app?vid=e829b0b7-fdb6-46b9-a92c-4e9d52f712e8"},"vehicle_type_id":"4","last_reported":1699121280,"current_range_meters":20000,"station_id":"ce4bh392rcd13ifvqdl0","pricing_plan_id":"free"},{"bike_id":"ca5634b3-3b98-41de-9743-65cbed295cdf","system_id":"levelo_inurba_marseille","lat":43.2988,"lon":5.38894,"is_reserved":false,"is_disabled":false,"rental_uris":{"android":"levelo://app?vid=ca5634b3-3b98-41de-9743-65cbed295cdf","ios":"levelo://app?vid=ca5634b3-3b98-41de-9743-65cbed295cdf"},"vehicle_type_id":"4","last_reported":1699121280,"current_range_meters":31200,"station_id":"ce4bh392rcd13ifvqdl0","pricing_plan_id":"free"},{"bike_id":"0e8233d2-0d57-470f-8c07-e9f753046a4f","system_id":"levelo_inurba_marseille","lat":43.33217,"lon":5.3788,"is_reserved":false,"is_disabled":false,"rental_uris":{"android":"levelo://app?vid=0e8233d2-0d57-470f-8c07-e9f753046a4f","ios":"levelo://app?vid=0e8233d2-0d57-470f-8c07-e9f753046a4f"},"vehicle_type_id":"4","last_reported":1699121280,"current_range_meters":12400,"station_id":"","pricing_plan_id":"free"},{"bike_id":"a4bc5c65-9df8-47a6-a20f-4dac0b0a4135","system_id":"levelo_inurba_marseille","lat":43.291675,"lon":5.371583,"is_reserved":false,"is_disabled":false,"rental_uris":{"android":"levelo://app?vid=a4bc5c65-9df8-47a6-a20f-4dac0b0a4135","ios":"levelo://app?vid=a4bc5c65-9df8-47a6-a20f-4dac0b0a4135"},"vehicle_type_id":"4","last_reported":1699121280,"current_range_meters":0,"station_id":"ce4bha92rcd13ifvqeh0","pricing_plan_id":"free"},{"bike_id":"bf378651-b063-4e47-bb91-9216dc54d943","system_id":"levelo_inurba_marseille","lat":43.298632,"lon":5.389138,"is_reserved":false,"is_disabled":false,"rental_uris":{"android":"levelo://app?vid=bf378651-b063-4e47-bb91-9216dc54d943","ios":"levelo://app?vid=bf378651-b063-4e47-bb91-9216dc54d943"},"vehicle_type_id":"4","last_reported":1699121280,"current_range_meters":13600,"station_id":"ce4bh392rcd13ifvqdl0","pricing_plan_id":"free"},{"bike_id":"260c645f-b280-4251-8fb9-e89c0f995509","system_id":"levelo_inurba_marseille","lat":43.332121,"lon":5.379996,"is_reserved":false,"is_disabled":false,"rental_uris":{"android":"levelo://app?vid=260c645f-b280-4251-8fb9-e89c0f995509","ios":"levelo://app?vid=260c645f-b280-4251-8fb9-e89c0f995509"},"vehicle_type_id":"4","last_reported":1699121280,"current_range_meters":10000,"station_id":"ce4bhs92rcd13ifvqi0g","pricing_plan_id":"free"},{"bike_id":"c61e9814-ddeb-4d02-b877-44315dd5fa14","system_id":"levelo_inurba_marseille","lat":43.295938,"lon":5.385949,"is_reserved":false,"is_disabled":false,"rental_uris":{"android":"levelo://app?vid=c61e9814-ddeb-4d02-b877-44315dd5fa14","ios":"levelo://app?vid=c61e9814-ddeb-4d02-b877-44315dd5fa14"},"vehicle_type_id":"4","last_reported":1699121280,"current_range_meters":22000,"station_id":"","pricing_plan_id":"free"},{"bike_id":"32f6f886-70dc-4de2-a62b-d614acaaecaa","system_id":"levelo_inurba_marseille","lat":43.313291,"lon":5.396838,"is_reserved":false,"is_disabled":false,"rental_uris":{"android":"levelo://app?vid=32f6f886-70dc-4de2-a62b-d614acaaecaa","ios":"levelo://app?vid=32f6f886-70dc-4de2-a62b-d614acaaecaa"},"vehicle_type_id":"4","last_reported":1699121280,"current_range_meters":14800,"station_id":"ce4bgvp2rcd13ifvqcu0","pricing_plan_id":"free"},{"bike_id":"c27bbe5d-63b6-4a57-b892-c6860a4ac5b4","system_id":"levelo_inurba_marseille","lat":43.309038,"lon":5.396546,"is_reserved":false,"is_disabled":false,"rental_uris":{"android":"levelo://app?vid=c27bbe5d-63b6-4a57-b892-c6860a4ac5b4","ios":"levelo://app?vid=c27bbe5d-63b6-4a57-b892-c6860a4ac5b4"},"vehicle_type_id":"4","last_reported":1699121280,"current_range_meters":10000,"station_id":"ce4bh012rcd13ifvqcv0","pricing_plan_id":"free"},{"bike_id":"fd55432a-71b5-4831-a1fc-e2a5c4ad41d9","system_id":"levelo_inurba_marseille","lat":43.29529,"lon":5.385581,"is_reserved":false,"is_disabled":false,"rental_uris":{"android":"levelo://app?vid=fd55432a-71b5-4831-a1fc-e2a5c4ad41d9","ios":"levelo://app?vid=fd55432a-71b5-4831-a1fc-e2a5c4ad41d9"},"vehicle_type_id":"4","last_reported":1699121280,"current_range_meters":23200,"station_id":"ce4bgih2rcd13ifvqba0","pricing_plan_id":"free"},{"bike_id":"6b0db7f2-c766-498b-ae8c-255c0ed256dc","system_id":"levelo_inurba_marseille","lat":43.2953,"lon":5.38541,"is_reserved":false,"is_disabled":false,"rental_uris":{"android":"levelo://app?vid=6b0db7f2-c766-498b-ae8c-255c0ed256dc","ios":"levelo://app?vid=6b0db7f2-c766-498b-ae8c-255c0ed256dc"},"vehicle_type_id":"4","last_reported":1699121280,"current_range_meters":0,"station_id":"ce4bgih2rcd13ifvqba0","pricing_plan_id":"free"},{"bike_id":"600d9831-1d2e-4a15-ba2f-c2e3af3728e1","system_id":"levelo_inurba_marseille","lat":43.29529,"lon":5.385581,"is_reserved":false,"is_disabled":false,"rental_uris":{"android":"levelo://app?vid=600d9831-1d2e-4a15-ba2f-c2e3af3728e1","ios":"levelo://app?vid=600d9831-1d2e-4a15-ba2f-c2e3af3728e1"},"vehicle_type_id":"4","last_reported":1699121280,"current_range_meters":21200,"station_id":"ce4bgih2rcd13ifvqba0","pricing_plan_id":"free"},{"bike_id":"b9d63742-d3c7-42d1-8bbb-65ab72632d70","system_id":"levelo_inurba_marseille","lat":43.29529,"lon":5.385581,"is_reserved":false,"is_disabled":false,"rental_uris":{"android":"levelo://app?vid=b9d63742-d3c7-42d1-8bbb-65ab72632d70","ios":"levelo://app?vid=b9d63742-d3c7-42d1-8bbb-65ab72632d70"},"vehicle_type_id":"4","last_reported":1699121280,"current_range_meters":20000,"station_id":"ce4bgih2rcd13ifvqba0","pricing_plan_id":"free"},{"bike_id":"21426a0d-604c-4933-9dde-aad2feebdc38","system_id":"levelo_inurba_marseille","lat":43.33274,"lon":5.37964,"is_reserved":false,"is_disabled":false,"rental_uris":{"android":"levelo://app?vid=21426a0d-604c-4933-9dde-aad2feebdc38","ios":"levelo://app?vid=21426a0d-604c-4933-9dde-aad2feebdc38"},"vehicle_type_id":"4","last_reported":1699121280,"current_range_meters":0,"station_id":"ce4bhs92rcd13ifvqi0g","pricing_plan_id":"free"},{"bike_id":"4ecba9f9-0d19-40f6-a0f5-5c22ccb0dc1c","system_id":"levelo_inurba_marseille","lat":43.302008,"lon":5.394694,"is_reserved":false,"is_disabled":false,"rental_uris":{"android":"levelo://app?vid=4ecba9f9-0d19-40f6-a0f5-5c22ccb0dc1c","ios":"levelo://app?vid=4ecba9f9-0d19-40f6-a0f5-5c22ccb0dc1c"},"vehicle_type_id":"4","last_reported":1699121280,"current_range_meters":22400,"station_id":"ce4bh0p2rcd13ifvqd70","pricing_plan_id":"free"},{"bike_id":"6590ca8e-2811-4635-af56-b4dfa5f7e85e","system_id":"levelo_inurba_marseille","lat":43.294153,"lon":5.386305,"is_reserved":false,"is_disabled":false,"rental_uris":{"android":"levelo://app?vid=6590ca8e-2811-4635-af56-b4dfa5f7e85e","ios":"levelo://app?vid=6590ca8e-2811-4635-af56-b4dfa5f7e85e"},"vehicle_type_id":"4","last_reported":1699121280,"current_range_meters":27200,"station_id":"ce4bh2h2rcd13ifvqdh0","pricing_plan_id":"free"},{"bike_id":"aa494dd2-397f-4cdc-85dc-846fb9c6b7ab","system_id":"levelo_inurba_marseille","lat":43.29419,"lon":5.38618,"is_reserved":false,"is_disabled":false,"rental_uris":{"android":"levelo://app?vid=aa494dd2-397f-4cdc-85dc-846fb9c6b7ab","ios":"levelo://app?vid=aa494dd2-397f-4cdc-85dc-846fb9c6b7ab"},"vehicle_type_id":"4","last_reported":1699121280,"current_range_meters":17200,"station_id":"ce4bh2h2rcd13ifvqdh0","pricing_plan_id":"free"},{"bike_id":"c63c5db0-f43f-49f4-b32e-0d23495b3bbd","system_id":"levelo_inurba_marseille","lat":43.29425,"lon":5.38632,"is_reserved":false,"is_disabled":false,"rental_uris":{"android":"levelo://app?vid=c63c5db0-f43f-49f4-b32e-0d23495b3bbd","ios":"levelo://app?vid=c63c5db0-f43f-49f4-b32e-0d23495b3bbd"},"vehicle_type_id":"4","last_reported":1699121280,"current_range_meters":25600,"station_id":"ce4bh2h2rcd13ifvqdh0","pricing_plan_id":"free"},{"bike_id":"4c5e724f-d4b0-4661-90f4-1666fe5b95cb","system_id":"levelo_inurba_marseille","lat":43.290327,"lon":5.375711,"is_reserved":false,"is_disabled":false,"rental_uris":{"android":"levelo://app?vid=4c5e724f-d4b0-4661-90f4-1666fe5b95cb","ios":"levelo://app?vid=4c5e724f-d4b0-4661-90f4-1666fe5b95cb"},"vehicle_type_id":"4","last_reported":1699121280,"current_range_meters":6000,"station_id":"ce4bh692rcd13ifvqe90","pricing_plan_id":"free"},{"bike_id":"c292e0b0-5f16-406d-8794-f90d3035dd48","system_id":"levelo_inurba_marseille","lat":43.294162,"lon":5.386292,"is_reserved":false,"is_disabled":false,"rental_uris":{"android":"levelo://app?vid=c292e0b0-5f16-406d-8794-f90d3035dd48","ios":"levelo://app?vid=c292e0b0-5f16-406d-8794-f90d3035dd48"},"vehicle_type_id":"4","last_reported":1699121280,"current_range_meters":12800,"station_id":"ce4bh2h2rcd13ifvqdh0","pricing_plan_id":"free"},{"bike_id":"0bc80ba1-f3f5-44cc-b2ec-01589360c9ee","system_id":"levelo_inurba_marseille","lat":43.289415,"lon":5.366437,"is_reserved":false,"is_disabled":false,"rental_uris":{"android":"levelo://app?vid=0bc80ba1-f3f5-44cc-b2ec-01589360c9ee","ios":"levelo://app?vid=0bc80ba1-f3f5-44cc-b2ec-01589360c9ee"},"vehicle_type_id":"4","last_reported":1699121280,"current_range_meters":5600,"station_id":"","pricing_plan_id":"free"},{"bike_id":"259415a2-abd3-4fdf-b975-615a06b3928a","system_id":"levelo_inurba_marseille","lat":43.294162,"lon":5.386292,"is_reserved":false,"is_disabled":false,"rental_uris":{"android":"levelo://app?vid=259415a2-abd3-4fdf-b975-615a06b3928a","ios":"levelo://app?vid=259415a2-abd3-4fdf-b975-615a06b3928a"},"vehicle_type_id":"4","last_reported":1699121280,"current_range_meters":17600,"station_id":"ce4bh2h2rcd13ifvqdh0","pricing_plan_id":"free"},{"bike_id":"2363caa1-60b1-477c-aaa2-e32a8282fcf6","system_id":"levelo_inurba_marseille","lat":43.294162,"lon":5.386292,"is_reserved":false,"is_disabled":false,"rental_uris":{"android":"levelo://app?vid=2363caa1-60b1-477c-aaa2-e32a8282fcf6","ios":"levelo://app?vid=2363caa1-60b1-477c-aaa2-e32a8282fcf6"},"vehicle_type_id":"4","last_reported":1699121280,"current_range_meters":19200,"station_id":"ce4bh2h2rcd13ifvqdh0","pricing_plan_id":"free"},{"bike_id":"9cae54c7-ade4-40df-88f1-3aa0d1f7b4d5","system_id":"levelo_inurba_marseille","lat":43.292642,"lon":5.384254,"is_reserved":false,"is_disabled":false,"rental_uris":{"android":"levelo://app?vid=9cae54c7-ade4-40df-88f1-3aa0d1f7b4d5","ios":"levelo://app?vid=9cae54c7-ade4-40df-88f1-3aa0d1f7b4d5"},"vehicle_type_id":"4","last_reported":1699121280,"current_range_meters":15600,"station_id":"ce4bh692rcd13ifvqea0","pricing_plan_id":"free"},{"bike_id":"5b8ff1c7-e01e-4acf-94ef-65153433ce47","system_id":"levelo_inurba_marseille","lat":43.304296,"lon":5.397513,"is_reserved":false,"is_disabled":false,"rental_uris":{"android":"levelo://app?vid=5b8ff1c7-e01e-4acf-94ef-65153433ce47","ios":"levelo://app?vid=5b8ff1c7-e01e-4acf-94ef-65153433ce47"},"vehicle_type_id":"4","last_reported":1699121280,"current_range_meters":21200,"station_id":"ce4bh092rcd13ifvqd20","pricing_plan_id":"free"},{"bike_id":"e80cc71f-4aff-4358-a05a-0710232bf361","system_id":"levelo_inurba_marseille","lat":43.292644,"lon":5.384257,"is_reserved":false,"is_disabled":false,"rental_uris":{"android":"levelo://app?vid=e80cc71f-4aff-4358-a05a-0710232bf361","ios":"levelo://app?vid=e80cc71f-4aff-4358-a05a-0710232bf361"},"vehicle_type_id":"4","last_reported":1699121280,"current_range_meters":28000,"station_id":"ce4bh692rcd13ifvqea0","pricing_plan_id":"free"},{"bike_id":"0e94af73-8768-4d32-86fa-27a7ca4f94a7","system_id":"levelo_inurba_marseille","lat":43.292642,"lon":5.384254,"is_reserved":false,"is_disabled":false,"rental_uris":{"android":"levelo://app?vid=0e94af73-8768-4d32-86fa-27a7ca4f94a7","ios":"levelo://app?vid=0e94af73-8768-4d32-86fa-27a7ca4f94a7"},"vehicle_type_id":"4","last_reported":1699121280,"current_range_meters":20000,"station_id":"ce4bh692rcd13ifvqea0","pricing_plan_id":"free"},{"bike_id":"af02c725-d24b-4a98-b28d-80a18560e0b9","system_id":"levelo_inurba_marseille","lat":43.292642,"lon":5.384254,"is_reserved":false,"is_disabled":false,"rental_uris":{"android":"levelo://app?vid=af02c725-d24b-4a98-b28d-80a18560e0b9","ios":"levelo://app?vid=af02c725-d24b-4a98-b28d-80a18560e0b9"},"vehicle_type_id":"4","last_reported":1699121280,"current_range_meters":13600,"station_id":"ce4bh692rcd13ifvqea0","pricing_plan_id":"free"},{"bike_id":"eb552d8c-bd7a-49d4-b02e-ff20e323dec2","system_id":"levelo_inurba_marseille","lat":43.292642,"lon":5.384254,"is_reserved":false,"is_disabled":false,"rental_uris":{"android":"levelo://app?vid=eb552d8c-bd7a-49d4-b02e-ff20e323dec2","ios":"levelo://app?vid=eb552d8c-bd7a-49d4-b02e-ff20e323dec2"},"vehicle_type_id":"4","last_reported":1699121280,"current_range_meters":18800,"station_id":"ce4bh692rcd13ifvqea0","pricing_plan_id":"free"},{"bike_id":"972bc82a-7075-438b-ae1c-55213dfde763","system_id":"levelo_inurba_marseille","lat":43.292644,"lon":5.384257,"is_reserved":false,"is_disabled":false,"rental_uris":{"android":"levelo://app?vid=972bc82a-7075-438b-ae1c-55213dfde763","ios":"levelo://app?vid=972bc82a-7075-438b-ae1c-55213dfde763"},"vehicle_type_id":"4","last_reported":1699121280,"current_range_meters":31600,"station_id":"ce4bh692rcd13ifvqea0","pricing_plan_id":"free"},{"bike_id":"a0cab17d-c275-4162-af8a-2c6e02206c37","system_id":"levelo_inurba_marseille","lat":43.292642,"lon":5.384254,"is_reserved":false,"is_disabled":false,"rental_uris":{"android":"levelo://app?vid=a0cab17d-c275-4162-af8a-2c6e02206c37","ios":"levelo://app?vid=a0cab17d-c275-4162-af8a-2c6e02206c37"},"vehicle_type_id":"4","last_reported":1699121280,"current_range_meters":3600,"station_id":"ce4bh692rcd13ifvqea0","pricing_plan_id":"free"},{"bike_id":"d25efbca-3e1c-48a9-99e6-535528c3e197","system_id":"levelo_inurba_marseille","lat":43.292642,"lon":5.384254,"is_reserved":false,"is_disabled":false,"rental_uris":{"android":"levelo://app?vid=d25efbca-3e1c-48a9-99e6-535528c3e197","ios":"levelo://app?vid=d25efbca-3e1c-48a9-99e6-535528c3e197"},"vehicle_type_id":"4","last_reported":1699121280,"current_range_meters":22800,"station_id":"ce4bh692rcd13ifvqea0","pricing_plan_id":"free"},{"bike_id":"79b645eb-4f91-4f34-921f-dcd9ee3d1be0","system_id":"levelo_inurba_marseille","lat":43.292644,"lon":5.384257,"is_reserved":false,"is_disabled":false,"rental_uris":{"android":"levelo://app?vid=79b645eb-4f91-4f34-921f-dcd9ee3d1be0","ios":"levelo://app?vid=79b645eb-4f91-4f34-921f-dcd9ee3d1be0"},"vehicle_type_id":"4","last_reported":1699121280,"current_range_meters":31600,"station_id":"ce4bh692rcd13ifvqea0","pricing_plan_id":"free"},{"bike_id":"bed3384f-c68c-4922-ad57-603daf428b78","system_id":"levelo_inurba_marseille","lat":43.292642,"lon":5.384254,"is_reserved":false,"is_disabled":false,"rental_uris":{"android":"levelo://app?vid=bed3384f-c68c-4922-ad57-603daf428b78","ios":"levelo://app?vid=bed3384f-c68c-4922-ad57-603daf428b78"},"vehicle_type_id":"4","last_reported":1699121280,"current_range_meters":18400,"station_id":"ce4bh692rcd13ifvqea0","pricing_plan_id":"free"},{"bike_id":"53388c62-223f-4925-8325-02406825fe99","system_id":"levelo_inurba_marseille","lat":43.292642,"lon":5.384254,"is_reserved":false,"is_disabled":false,"rental_uris":{"android":"levelo://app?vid=53388c62-223f-4925-8325-02406825fe99","ios":"levelo://app?vid=53388c62-223f-4925-8325-02406825fe99"},"vehicle_type_id":"4","last_reported":1699121280,"current_range_meters":13600,"station_id":"ce4bh692rcd13ifvqea0","pricing_plan_id":"free"},{"bike_id":"074e456c-b4e5-4be8-81ed-4fd2d7c553ca","system_id":"levelo_inurba_marseille","lat":43.292642,"lon":5.384254,"is_reserved":false,"is_disabled":false,"rental_uris":{"android":"levelo://app?vid=074e456c-b4e5-4be8-81ed-4fd2d7c553ca","ios":"levelo://app?vid=074e456c-b4e5-4be8-81ed-4fd2d7c553ca"},"vehicle_type_id":"4","last_reported":1699121280,"current_range_meters":24400,"station_id":"ce4bh692rcd13ifvqea0","pricing_plan_id":"free"},{"bike_id":"6d20a883-81db-4710-9031-61ead7a5aa9d","system_id":"levelo_inurba_marseille","lat":43.292644,"lon":5.384257,"is_reserved":false,"is_disabled":false,"rental_uris":{"android":"levelo://app?vid=6d20a883-81db-4710-9031-61ead7a5aa9d","ios":"levelo://app?vid=6d20a883-81db-4710-9031-61ead7a5aa9d"},"vehicle_type_id":"4","last_reported":1699121280,"current_range_meters":16000,"station_id":"ce4bh692rcd13ifvqea0","pricing_plan_id":"free"},{"bike_id":"467c8faa-25a8-4b14-ab0d-7e01b487aeba","system_id":"levelo_inurba_marseille","lat":43.292642,"lon":5.384254,"is_reserved":false,"is_disabled":false,"rental_uris":{"android":"levelo://app?vid=467c8faa-25a8-4b14-ab0d-7e01b487aeba","ios":"levelo://app?vid=467c8faa-25a8-4b14-ab0d-7e01b487aeba"},"vehicle_type_id":"4","last_reported":1699121280,"current_range_meters":30400,"station_id":"ce4bh692rcd13ifvqea0","pricing_plan_id":"free"},{"bike_id":"64015230-fcd2-4e6a-bcb9-4dcb1abddfeb","system_id":"levelo_inurba_marseille","lat":43.33051,"lon":5.38914,"is_reserved":false,"is_disabled":false,"rental_uris":{"android":"levelo://app?vid=64015230-fcd2-4e6a-bcb9-4dcb1abddfeb","ios":"levelo://app?vid=64015230-fcd2-4e6a-bcb9-4dcb1abddfeb"},"vehicle_type_id":"4","last_reported":1699121280,"current_range_meters":14800,"station_id":"ce4bhr92rcd13ifvqhrg","pricing_plan_id":"free"},{"bike_id":"e0d713cd-ec81-44ec-8ba4-571dd76a2b05","system_id":"levelo_inurba_marseille","lat":43.295169,"lon":5.390426,"is_reserved":false,"is_disabled":false,"rental_uris":{"android":"levelo://app?vid=e0d713cd-ec81-44ec-8ba4-571dd76a2b05","ios":"levelo://app?vid=e0d713cd-ec81-44ec-8ba4-571dd76a2b05"},"vehicle_type_id":"4","last_reported":1699121280,"current_range_meters":800,"station_id":"ce4bh3p2rcd13ifvqdp0","pricing_plan_id":"free"},{"bike_id":"8b20bd80-46ad-417a-beda-7089bbbb3d2e","system_id":"levelo_inurba_marseille","lat":43.289743,"lon":5.378304,"is_reserved":false,"is_disabled":false,"rental_uris":{"android":"levelo://app?vid=8b20bd80-46ad-417a-beda-7089bbbb3d2e","ios":"levelo://app?vid=8b20bd80-46ad-417a-beda-7089bbbb3d2e"},"vehicle_type_id":"4","last_reported":1699121280,"current_range_meters":3200,"station_id":"ce4bh9p2rcd13ifvqed0","pricing_plan_id":"free"},{"bike_id":"e777c28e-a241-4c77-b8a4-0503c2feb7c5","system_id":"levelo_inurba_marseille","lat":43.289741,"lon":5.378306,"is_reserved":false,"is_disabled":false,"rental_uris":{"android":"levelo://app?vid=e777c28e-a241-4c77-b8a4-0503c2feb7c5","ios":"levelo://app?vid=e777c28e-a241-4c77-b8a4-0503c2feb7c5"},"vehicle_type_id":"4","last_reported":1699121280,"current_range_meters":27200,"station_id":"ce4bh9p2rcd13ifvqed0","pricing_plan_id":"free"},{"bike_id":"14825da9-0dee-4b36-bb20-d9ee5e1ef026","system_id":"levelo_inurba_marseille","lat":43.295169,"lon":5.390426,"is_reserved":false,"is_disabled":false,"rental_uris":{"android":"levelo://app?vid=14825da9-0dee-4b36-bb20-d9ee5e1ef026","ios":"levelo://app?vid=14825da9-0dee-4b36-bb20-d9ee5e1ef026"},"vehicle_type_id":"4","last_reported":1699121280,"current_range_meters":28800,"station_id":"ce4bh3p2rcd13ifvqdp0","pricing_plan_id":"free"},{"bike_id":"70094d18-f9f9-47ce-b923-9aa43c2e5398","system_id":"levelo_inurba_marseille","lat":43.295169,"lon":5.390426,"is_reserved":false,"is_disabled":false,"rental_uris":{"android":"levelo://app?vid=70094d18-f9f9-47ce-b923-9aa43c2e5398","ios":"levelo://app?vid=70094d18-f9f9-47ce-b923-9aa43c2e5398"},"vehicle_type_id":"4","last_reported":1699121280,"current_range_meters":23200,"station_id":"ce4bh3p2rcd13ifvqdp0","pricing_plan_id":"free"},{"bike_id":"5738e24b-8388-471a-8997-a2c390958020","system_id":"levelo_inurba_marseille","lat":43.295169,"lon":5.390426,"is_reserved":false,"is_disabled":false,"rental_uris":{"android":"levelo://app?vid=5738e24b-8388-471a-8997-a2c390958020","ios":"levelo://app?vid=5738e24b-8388-471a-8997-a2c390958020"},"vehicle_type_id":"4","last_reported":1699121280,"current_range_meters":23200,"station_id":"ce4bh3p2rcd13ifvqdp0","pricing_plan_id":"free"},{"bike_id":"b786451a-7d21-4b2f-9aca-fb3380bc56be","system_id":"levelo_inurba_marseille","lat":43.290094,"lon":5.381264,"is_reserved":false,"is_disabled":false,"rental_uris":{"android":"levelo://app?vid=b786451a-7d21-4b2f-9aca-fb3380bc56be","ios":"levelo://app?vid=b786451a-7d21-4b2f-9aca-fb3380bc56be"},"vehicle_type_id":"4","last_reported":1699121280,"current_range_meters":20000,"station_id":"ce4bh4p2rcd13ifvqe1g","pricing_plan_id":"free"},{"bike_id":"dd614bde-ec95-4e2b-8d06-f5fc20dca492","system_id":"levelo_inurba_marseille","lat":43.28856,"lon":5.358371,"is_reserved":false,"is_disabled":false,"rental_uris":{"android":"levelo://app?vid=dd614bde-ec95-4e2b-8d06-f5fc20dca492","ios":"levelo://app?vid=dd614bde-ec95-4e2b-8d06-f5fc20dca492"},"vehicle_type_id":"4","last_reported":1699121280,"current_range_meters":4000,"station_id":"ce4bhb12rcd13ifvqem0","pricing_plan_id":"free"},{"bike_id":"01104e66-57e6-456f-835e-d245be0c1c8c","system_id":"levelo_inurba_marseille","lat":43.309284,"lon":5.401363,"is_reserved":false,"is_disabled":false,"rental_uris":{"android":"levelo://app?vid=01104e66-57e6-456f-835e-d245be0c1c8c","ios":"levelo://app?vid=01104e66-57e6-456f-835e-d245be0c1c8c"},"vehicle_type_id":"4","last_reported":1699121280,"current_range_meters":1200,"station_id":"ce4bgvp2rcd13ifvqct0","pricing_plan_id":"free"},{"bike_id":"e568b27b-02dc-434f-a306-5be043a06e7d","system_id":"levelo_inurba_marseille","lat":43.309371,"lon":5.401449,"is_reserved":false,"is_disabled":false,"rental_uris":{"android":"levelo://app?vid=e568b27b-02dc-434f-a306-5be043a06e7d","ios":"levelo://app?vid=e568b27b-02dc-434f-a306-5be043a06e7d"},"vehicle_type_id":"4","last_reported":1699121280,"current_range_meters":15200,"station_id":"ce4bgvp2rcd13ifvqct0","pricing_plan_id":"free"},{"bike_id":"21bbb98b-9256-415b-b50c-b6bd0ed46cc8","system_id":"levelo_inurba_marseille","lat":43.312609,"lon":5.401662,"is_reserved":false,"is_disabled":false,"rental_uris":{"android":"levelo://app?vid=21bbb98b-9256-415b-b50c-b6bd0ed46cc8","ios":"levelo://app?vid=21bbb98b-9256-415b-b50c-b6bd0ed46cc8"},"vehicle_type_id":"4","last_reported":1699121280,"current_range_meters":4800,"station_id":"ce4bh092rcd13ifvqd30","pricing_plan_id":"free"},{"bike_id":"3c572c3f-cc4c-4d3a-a0f0-73ed1ad39fef","system_id":"levelo_inurba_marseille","lat":43.33031,"lon":5.392311,"is_reserved":false,"is_disabled":false,"rental_uris":{"android":"levelo://app?vid=3c572c3f-cc4c-4d3a-a0f0-73ed1ad39fef","ios":"levelo://app?vid=3c572c3f-cc4c-4d3a-a0f0-73ed1ad39fef"},"vehicle_type_id":"4","last_reported":1699121280,"current_range_meters":8800,"station_id":"","pricing_plan_id":"free"},{"bike_id":"0fc5754b-0eb0-4195-92b9-3e1081eda4d8","system_id":"levelo_inurba_marseille","lat":43.30642,"lon":5.401031,"is_reserved":false,"is_disabled":false,"rental_uris":{"android":"levelo://app?vid=0fc5754b-0eb0-4195-92b9-3e1081eda4d8","ios":"levelo://app?vid=0fc5754b-0eb0-4195-92b9-3e1081eda4d8"},"vehicle_type_id":"4","last_reported":1699121280,"current_range_meters":0,"station_id":"ce4bh112rcd13ifvqda0","pricing_plan_id":"free"},{"bike_id":"9e645798-c6b5-4c60-b133-7d268b18a2c2","system_id":"levelo_inurba_marseille","lat":43.30642,"lon":5.401031,"is_reserved":false,"is_disabled":false,"rental_uris":{"android":"levelo://app?vid=9e645798-c6b5-4c60-b133-7d268b18a2c2","ios":"levelo://app?vid=9e645798-c6b5-4c60-b133-7d268b18a2c2"},"vehicle_type_id":"4","last_reported":1699121280,"current_range_meters":4800,"station_id":"ce4bh112rcd13ifvqda0","pricing_plan_id":"free"},{"bike_id":"dfad02b4-d892-4b4f-bdeb-aceb81e68046","system_id":"levelo_inurba_marseille","lat":43.306412,"lon":5.401035,"is_reserved":false,"is_disabled":false,"rental_uris":{"android":"levelo://app?vid=dfad02b4-d892-4b4f-bdeb-aceb81e68046","ios":"levelo://app?vid=dfad02b4-d892-4b4f-bdeb-aceb81e68046"},"vehicle_type_id":"4","last_reported":1699121280,"current_range_meters":24800,"station_id":"ce4bh112rcd13ifvqda0","pricing_plan_id":"free"},{"bike_id":"b14f4691-d559-4c28-89b4-54b47773526b","system_id":"levelo_inurba_marseille","lat":43.28727,"lon":5.36078,"is_reserved":false,"is_disabled":false,"rental_uris":{"android":"levelo://app?vid=b14f4691-d559-4c28-89b4-54b47773526b","ios":"levelo://app?vid=b14f4691-d559-4c28-89b4-54b47773526b"},"vehicle_type_id":"4","last_reported":1699121280,"current_range_meters":28400,"station_id":"cki0cbj6b192h4jlfktg","pricing_plan_id":"free"},{"bike_id":"07c4ead2-9916-49c8-87bf-3e1ac2884984","system_id":"levelo_inurba_marseille","lat":43.28727,"lon":5.36078,"is_reserved":false,"is_disabled":false,"rental_uris":{"android":"levelo://app?vid=07c4ead2-9916-49c8-87bf-3e1ac2884984","ios":"levelo://app?vid=07c4ead2-9916-49c8-87bf-3e1ac2884984"},"vehicle_type_id":"4","last_reported":1699121280,"current_range_meters":20000,"station_id":"cki0cbj6b192h4jlfktg","pricing_plan_id":"free"},{"bike_id":"16a7eba4-1bda-4b6d-9a0f-3c0bdff333b1","system_id":"levelo_inurba_marseille","lat":43.28727,"lon":5.36078,"is_reserved":false,"is_disabled":false,"rental_uris":{"android":"levelo://app?vid=16a7eba4-1bda-4b6d-9a0f-3c0bdff333b1","ios":"levelo://app?vid=16a7eba4-1bda-4b6d-9a0f-3c0bdff333b1"},"vehicle_type_id":"4","last_reported":1699121280,"current_range_meters":27600,"station_id":"cki0cbj6b192h4jlfktg","pricing_plan_id":"free"},{"bike_id":"830009c1-2b13-4260-91ba-2db310e5bb3e","system_id":"levelo_inurba_marseille","lat":43.295196,"lon":5.39397,"is_reserved":false,"is_disabled":false,"rental_uris":{"android":"levelo://app?vid=830009c1-2b13-4260-91ba-2db310e5bb3e","ios":"levelo://app?vid=830009c1-2b13-4260-91ba-2db310e5bb3e"},"vehicle_type_id":"4","last_reported":1699121280,"current_range_meters":800,"station_id":"ce4bh292rcd13ifvqdf0","pricing_plan_id":"free"},{"bike_id":"cf205391-7c8d-441e-8586-08877dd476e2","system_id":"levelo_inurba_marseille","lat":43.286591,"lon":5.363346,"is_reserved":false,"is_disabled":false,"rental_uris":{"android":"levelo://app?vid=cf205391-7c8d-441e-8586-08877dd476e2","ios":"levelo://app?vid=cf205391-7c8d-441e-8586-08877dd476e2"},"vehicle_type_id":"4","last_reported":1699121280,"current_range_meters":12000,"station_id":"ce4bhah2rcd13ifvqej0","pricing_plan_id":"free"},{"bike_id":"feb6247f-c712-4f80-a9ba-9e87bf50ba57","system_id":"levelo_inurba_marseille","lat":43.295196,"lon":5.39397,"is_reserved":false,"is_disabled":false,"rental_uris":{"android":"levelo://app?vid=feb6247f-c712-4f80-a9ba-9e87bf50ba57","ios":"levelo://app?vid=feb6247f-c712-4f80-a9ba-9e87bf50ba57"},"vehicle_type_id":"4","last_reported":1699121280,"current_range_meters":31600,"station_id":"ce4bh292rcd13ifvqdf0","pricing_plan_id":"free"},{"bike_id":"fa2dd961-0e7d-4304-bf9f-105ef8342ebb","system_id":"levelo_inurba_marseille","lat":43.289337,"lon":5.383954,"is_reserved":false,"is_disabled":false,"rental_uris":{"android":"levelo://app?vid=fa2dd961-0e7d-4304-bf9f-105ef8342ebb","ios":"levelo://app?vid=fa2dd961-0e7d-4304-bf9f-105ef8342ebb"},"vehicle_type_id":"4","last_reported":1699121280,"current_range_meters":31600,"station_id":"ce4bh612rcd13ifvqe6g","pricing_plan_id":"free"},{"bike_id":"5638ae2f-934a-40b7-b0bf-9efb31451b78","system_id":"levelo_inurba_marseille","lat":43.28928,"lon":5.38399,"is_reserved":false,"is_disabled":false,"rental_uris":{"android":"levelo://app?vid=5638ae2f-934a-40b7-b0bf-9efb31451b78","ios":"levelo://app?vid=5638ae2f-934a-40b7-b0bf-9efb31451b78"},"vehicle_type_id":"4","last_reported":1699121280,"current_range_meters":6000,"station_id":"ce4bh612rcd13ifvqe6g","pricing_plan_id":"free"},{"bike_id":"18febdf2-01bb-419f-b8fc-3c4abfe48eef","system_id":"levelo_inurba_marseille","lat":43.2893,"lon":5.38409,"is_reserved":false,"is_disabled":false,"rental_uris":{"android":"levelo://app?vid=18febdf2-01bb-419f-b8fc-3c4abfe48eef","ios":"levelo://app?vid=18febdf2-01bb-419f-b8fc-3c4abfe48eef"},"vehicle_type_id":"4","last_reported":1699121280,"current_range_meters":5600,"station_id":"ce4bh612rcd13ifvqe6g","pricing_plan_id":"free"},{"bike_id":"3cf200c6-82b1-40fc-a65f-f15a5eb78897","system_id":"levelo_inurba_marseille","lat":43.289307,"lon":5.38406,"is_reserved":false,"is_disabled":false,"rental_uris":{"android":"levelo://app?vid=3cf200c6-82b1-40fc-a65f-f15a5eb78897","ios":"levelo://app?vid=3cf200c6-82b1-40fc-a65f-f15a5eb78897"},"vehicle_type_id":"4","last_reported":1699121280,"current_range_meters":28400,"station_id":"ce4bh612rcd13ifvqe6g","pricing_plan_id":"free"},{"bike_id":"65497ddb-eabb-4301-9a4c-c9eff776b9da","system_id":"levelo_inurba_marseille","lat":43.302759,"lon":5.400793,"is_reserved":false,"is_disabled":false,"rental_uris":{"android":"levelo://app?vid=65497ddb-eabb-4301-9a4c-c9eff776b9da","ios":"levelo://app?vid=65497ddb-eabb-4301-9a4c-c9eff776b9da"},"vehicle_type_id":"4","last_reported":1699121280,"current_range_meters":0,"station_id":"ce4bgvh2rcd13ifvqcs0","pricing_plan_id":"free"},{"bike_id":"8e32b369-5cd8-4b6f-9611-6b507eb90dd8","system_id":"levelo_inurba_marseille","lat":43.290226,"lon":5.386621,"is_reserved":false,"is_disabled":false,"rental_uris":{"android":"levelo://app?vid=8e32b369-5cd8-4b6f-9611-6b507eb90dd8","ios":"levelo://app?vid=8e32b369-5cd8-4b6f-9611-6b507eb90dd8"},"vehicle_type_id":"4","last_reported":1699121280,"current_range_meters":22800,"station_id":"ce4bh4p2rcd13ifvqe0g","pricing_plan_id":"free"},{"bike_id":"ad800cdb-41b2-4052-b4c6-4576e75264b9","system_id":"levelo_inurba_marseille","lat":43.286039,"lon":5.370679,"is_reserved":false,"is_disabled":false,"rental_uris":{"android":"levelo://app?vid=ad800cdb-41b2-4052-b4c6-4576e75264b9","ios":"levelo://app?vid=ad800cdb-41b2-4052-b4c6-4576e75264b9"},"vehicle_type_id":"4","last_reported":1699121280,"current_range_meters":12400,"station_id":"ce4bht12rcd13ifvqi60","pricing_plan_id":"free"},{"bike_id":"a2db4786-2760-4a1c-9f86-940bee274e4e","system_id":"levelo_inurba_marseille","lat":43.286039,"lon":5.370679,"is_reserved":false,"is_disabled":false,"rental_uris":{"android":"levelo://app?vid=a2db4786-2760-4a1c-9f86-940bee274e4e","ios":"levelo://app?vid=a2db4786-2760-4a1c-9f86-940bee274e4e"},"vehicle_type_id":"4","last_reported":1699121280,"current_range_meters":31600,"station_id":"ce4bht12rcd13ifvqi60","pricing_plan_id":"free"},{"bike_id":"0f395e23-c73b-4e43-a3b9-0179f0029c73","system_id":"levelo_inurba_marseille","lat":43.2861,"lon":5.370698,"is_reserved":false,"is_disabled":false,"rental_uris":{"android":"levelo://app?vid=0f395e23-c73b-4e43-a3b9-0179f0029c73","ios":"levelo://app?vid=0f395e23-c73b-4e43-a3b9-0179f0029c73"},"vehicle_type_id":"4","last_reported":1699121280,"current_range_meters":22800,"station_id":"ce4bht12rcd13ifvqi60","pricing_plan_id":"free"},{"bike_id":"57f0cb67-6f1f-446d-aa6d-5d1175b89ba3","system_id":"levelo_inurba_marseille","lat":43.286053,"lon":5.370623,"is_reserved":false,"is_disabled":false,"rental_uris":{"android":"levelo://app?vid=57f0cb67-6f1f-446d-aa6d-5d1175b89ba3","ios":"levelo://app?vid=57f0cb67-6f1f-446d-aa6d-5d1175b89ba3"},"vehicle_type_id":"4","last_reported":1699121280,"current_range_meters":20800,"station_id":"ce4bht12rcd13ifvqi60","pricing_plan_id":"free"},{"bike_id":"7f6889d5-20f5-4cce-a39e-0833c9334c1c","system_id":"levelo_inurba_marseille","lat":43.28718,"lon":5.37941,"is_reserved":false,"is_disabled":false,"rental_uris":{"android":"levelo://app?vid=7f6889d5-20f5-4cce-a39e-0833c9334c1c","ios":"levelo://app?vid=7f6889d5-20f5-4cce-a39e-0833c9334c1c"},"vehicle_type_id":"4","last_reported":1699121280,"current_range_meters":19600,"station_id":"ce4bh9p2rcd13ifvqec0","pricing_plan_id":"free"},{"bike_id":"728cce84-f365-4e41-8d6a-7d4f384a27ef","system_id":"levelo_inurba_marseille","lat":43.31651,"lon":5.40435,"is_reserved":false,"is_disabled":false,"rental_uris":{"android":"levelo://app?vid=728cce84-f365-4e41-8d6a-7d4f384a27ef","ios":"levelo://app?vid=728cce84-f365-4e41-8d6a-7d4f384a27ef"},"vehicle_type_id":"4","last_reported":1699121280,"current_range_meters":13600,"station_id":"ce4bh012rcd13ifvqd00","pricing_plan_id":"free"},{"bike_id":"ccb8c974-7f1d-488e-ad6f-b8694d5c2aba","system_id":"levelo_inurba_marseille","lat":43.328576,"lon":5.398841,"is_reserved":false,"is_disabled":false,"rental_uris":{"android":"levelo://app?vid=ccb8c974-7f1d-488e-ad6f-b8694d5c2aba","ios":"levelo://app?vid=ccb8c974-7f1d-488e-ad6f-b8694d5c2aba"},"vehicle_type_id":"4","last_reported":1699121280,"current_range_meters":26800,"station_id":"","pricing_plan_id":"free"},{"bike_id":"ff18548b-a3c9-483a-a972-5a7f65baaa83","system_id":"levelo_inurba_marseille","lat":43.291994,"lon":5.392907,"is_reserved":false,"is_disabled":false,"rental_uris":{"android":"levelo://app?vid=ff18548b-a3c9-483a-a972-5a7f65baaa83","ios":"levelo://app?vid=ff18548b-a3c9-483a-a972-5a7f65baaa83"},"vehicle_type_id":"4","last_reported":1699121280,"current_range_meters":24800,"station_id":"ce4bh192rcd13ifvqdd0","pricing_plan_id":"free"},{"bike_id":"8eefd1c6-7f9c-4f5b-b881-0f2d0903785e","system_id":"levelo_inurba_marseille","lat":43.28467,"lon":5.35897,"is_reserved":false,"is_disabled":false,"rental_uris":{"android":"levelo://app?vid=8eefd1c6-7f9c-4f5b-b881-0f2d0903785e","ios":"levelo://app?vid=8eefd1c6-7f9c-4f5b-b881-0f2d0903785e"},"vehicle_type_id":"4","last_reported":1699121280,"current_range_meters":10400,"station_id":"ce4bhah2rcd13ifvqei0","pricing_plan_id":"free"},{"bike_id":"327160cf-930d-486a-8fdb-79441bc43ddd","system_id":"levelo_inurba_marseille","lat":43.28465,"lon":5.35892,"is_reserved":false,"is_disabled":false,"rental_uris":{"android":"levelo://app?vid=327160cf-930d-486a-8fdb-79441bc43ddd","ios":"levelo://app?vid=327160cf-930d-486a-8fdb-79441bc43ddd"},"vehicle_type_id":"4","last_reported":1699121280,"current_range_meters":11200,"station_id":"ce4bhah2rcd13ifvqei0","pricing_plan_id":"free"},{"bike_id":"4b503823-d7a2-4dca-93d5-33b6ccd33824","system_id":"levelo_inurba_marseille","lat":43.28463,"lon":5.35889,"is_reserved":false,"is_disabled":false,"rental_uris":{"android":"levelo://app?vid=4b503823-d7a2-4dca-93d5-33b6ccd33824","ios":"levelo://app?vid=4b503823-d7a2-4dca-93d5-33b6ccd33824"},"vehicle_type_id":"4","last_reported":1699121280,"current_range_meters":8400,"station_id":"ce4bhah2rcd13ifvqei0","pricing_plan_id":"free"},{"bike_id":"4ea60b31-70cc-425b-b8f1-a46892ac5ba8","system_id":"levelo_inurba_marseille","lat":43.284534,"lon":5.358662,"is_reserved":false,"is_disabled":false,"rental_uris":{"android":"levelo://app?vid=4ea60b31-70cc-425b-b8f1-a46892ac5ba8","ios":"levelo://app?vid=4ea60b31-70cc-425b-b8f1-a46892ac5ba8"},"vehicle_type_id":"4","last_reported":1699121280,"current_range_meters":31200,"station_id":"ce4bhah2rcd13ifvqei0","pricing_plan_id":"free"},{"bike_id":"0c21bb23-abbb-474a-a59d-c7797292f9f9","system_id":"levelo_inurba_marseille","lat":43.294314,"lon":5.397498,"is_reserved":false,"is_disabled":false,"rental_uris":{"android":"levelo://app?vid=0c21bb23-abbb-474a-a59d-c7797292f9f9","ios":"levelo://app?vid=0c21bb23-abbb-474a-a59d-c7797292f9f9"},"vehicle_type_id":"4","last_reported":1699121280,"current_range_meters":27200,"station_id":"ce4bh3h2rcd13ifvqdo0","pricing_plan_id":"free"},{"bike_id":"32119f72-3847-464f-ac98-ffd1073e0d8d","system_id":"levelo_inurba_marseille","lat":43.294314,"lon":5.397498,"is_reserved":false,"is_disabled":false,"rental_uris":{"android":"levelo://app?vid=32119f72-3847-464f-ac98-ffd1073e0d8d","ios":"levelo://app?vid=32119f72-3847-464f-ac98-ffd1073e0d8d"},"vehicle_type_id":"4","last_reported":1699121280,"current_range_meters":10400,"station_id":"ce4bh3h2rcd13ifvqdo0","pricing_plan_id":"free"},{"bike_id":"362084c3-725c-45f5-81ff-269219c4ee9f","system_id":"levelo_inurba_marseille","lat":43.284534,"lon":5.358662,"is_reserved":false,"is_disabled":false,"rental_uris":{"android":"levelo://app?vid=362084c3-725c-45f5-81ff-269219c4ee9f","ios":"levelo://app?vid=362084c3-725c-45f5-81ff-269219c4ee9f"},"vehicle_type_id":"4","last_reported":1699121280,"current_range_meters":16000,"station_id":"ce4bhah2rcd13ifvqei0","pricing_plan_id":"free"},{"bike_id":"70801a1b-bb85-47f0-b0b0-aca562d06c9a","system_id":"levelo_inurba_marseille","lat":43.294314,"lon":5.397498,"is_reserved":false,"is_disabled":false,"rental_uris":{"android":"levelo://app?vid=70801a1b-bb85-47f0-b0b0-aca562d06c9a","ios":"levelo://app?vid=70801a1b-bb85-47f0-b0b0-aca562d06c9a"},"vehicle_type_id":"4","last_reported":1699121280,"current_range_meters":31200,"station_id":"ce4bh3h2rcd13ifvqdo0","pricing_plan_id":"free"},{"bike_id":"8d13457f-5805-48ae-a2ed-7694369ca889","system_id":"levelo_inurba_marseille","lat":43.294314,"lon":5.397498,"is_reserved":false,"is_disabled":false,"rental_uris":{"android":"levelo://app?vid=8d13457f-5805-48ae-a2ed-7694369ca889","ios":"levelo://app?vid=8d13457f-5805-48ae-a2ed-7694369ca889"},"vehicle_type_id":"4","last_reported":1699121280,"current_range_meters":26400,"station_id":"ce4bh3h2rcd13ifvqdo0","pricing_plan_id":"free"},{"bike_id":"873e858c-2b83-4ab1-aa21-acde8c147fa5","system_id":"levelo_inurba_marseille","lat":43.295279,"lon":5.375048,"is_reserved":false,"is_disabled":false,"rental_uris":{"android":"levelo://app?vid=873e858c-2b83-4ab1-aa21-acde8c147fa5","ios":"levelo://app?vid=873e858c-2b83-4ab1-aa21-acde8c147fa5"},"vehicle_type_id":"4","last_reported":1699121280,"current_range_meters":17600,"station_id":"ce4bgkp2rcd13ifvqbmg","pricing_plan_id":"free"},{"bike_id":"070564e2-85ea-401a-98c3-47e9e3c18357","system_id":"levelo_inurba_marseille","lat":43.285848,"lon":5.350787,"is_reserved":false,"is_disabled":false,"rental_uris":{"android":"levelo://app?vid=070564e2-85ea-401a-98c3-47e9e3c18357","ios":"levelo://app?vid=070564e2-85ea-401a-98c3-47e9e3c18357"},"vehicle_type_id":"4","last_reported":1699121280,"current_range_meters":6800,"station_id":"ce4bhch2rcd13ifvqeug","pricing_plan_id":"free"},{"bike_id":"b53b4de8-7929-4a64-b67e-8acaef97cead","system_id":"levelo_inurba_marseille","lat":43.292749,"lon":5.368402,"is_reserved":false,"is_disabled":false,"rental_uris":{"android":"levelo://app?vid=b53b4de8-7929-4a64-b67e-8acaef97cead","ios":"levelo://app?vid=b53b4de8-7929-4a64-b67e-8acaef97cead"},"vehicle_type_id":"4","last_reported":1699121280,"current_range_meters":15200,"station_id":"ce4bhbp2rcd13ifvqesg","pricing_plan_id":"free"},{"bike_id":"5538d216-cdd5-4770-96a2-ae70956e59cf","system_id":"levelo_inurba_marseille","lat":43.28417,"lon":5.37514,"is_reserved":false,"is_disabled":false,"rental_uris":{"android":"levelo://app?vid=5538d216-cdd5-4770-96a2-ae70956e59cf","ios":"levelo://app?vid=5538d216-cdd5-4770-96a2-ae70956e59cf"},"vehicle_type_id":"4","last_reported":1699121280,"current_range_meters":22800,"station_id":"","pricing_plan_id":"free"},{"bike_id":"290780c9-78b7-4c45-9918-60459373e167","system_id":"levelo_inurba_marseille","lat":43.286595,"lon":5.386795,"is_reserved":false,"is_disabled":false,"rental_uris":{"android":"levelo://app?vid=290780c9-78b7-4c45-9918-60459373e167","ios":"levelo://app?vid=290780c9-78b7-4c45-9918-60459373e167"},"vehicle_type_id":"4","last_reported":1699121280,"current_range_meters":27200,"station_id":"ce4bh492rcd13ifvqdug","pricing_plan_id":"free"},{"bike_id":"0583d13f-29bc-4213-b66e-579e927f1a52","system_id":"levelo_inurba_marseille","lat":43.33717,"lon":5.391857,"is_reserved":false,"is_disabled":false,"rental_uris":{"android":"levelo://app?vid=0583d13f-29bc-4213-b66e-579e927f1a52","ios":"levelo://app?vid=0583d13f-29bc-4213-b66e-579e927f1a52"},"vehicle_type_id":"4","last_reported":1699121280,"current_range_meters":29600,"station_id":"ce4bhr92rcd13ifvqhsg","pricing_plan_id":"free"},{"bike_id":"00cdcca0-fb24-4099-a3f4-78c82ef40757","system_id":"levelo_inurba_marseille","lat":43.337168,"lon":5.391825,"is_reserved":false,"is_disabled":false,"rental_uris":{"android":"levelo://app?vid=00cdcca0-fb24-4099-a3f4-78c82ef40757","ios":"levelo://app?vid=00cdcca0-fb24-4099-a3f4-78c82ef40757"},"vehicle_type_id":"4","last_reported":1699121280,"current_range_meters":31200,"station_id":"ce4bhr92rcd13ifvqhsg","pricing_plan_id":"free"},{"bike_id":"4a0076e1-65de-4d33-a33b-f4a716e7808c","system_id":"levelo_inurba_marseille","lat":43.32335,"lon":5.40626,"is_reserved":false,"is_disabled":false,"rental_uris":{"android":"levelo://app?vid=4a0076e1-65de-4d33-a33b-f4a716e7808c","ios":"levelo://app?vid=4a0076e1-65de-4d33-a33b-f4a716e7808c"},"vehicle_type_id":"4","last_reported":1699121280,"current_range_meters":19600,"station_id":"ce4bhq92rcd13ifvqhjg","pricing_plan_id":"free"},{"bike_id":"05afcf73-56be-4827-9f90-a96fb1fe674d","system_id":"levelo_inurba_marseille","lat":43.284793,"lon":5.384113,"is_reserved":false,"is_disabled":false,"rental_uris":{"android":"levelo://app?vid=05afcf73-56be-4827-9f90-a96fb1fe674d","ios":"levelo://app?vid=05afcf73-56be-4827-9f90-a96fb1fe674d"},"vehicle_type_id":"4","last_reported":1699121280,"current_range_meters":13200,"station_id":"ce4bh512rcd13ifvqe3g","pricing_plan_id":"free"},{"bike_id":"f9a0e34b-a435-45a1-86a4-3eb35100fdfd","system_id":"levelo_inurba_marseille","lat":43.29795,"lon":5.404086,"is_reserved":false,"is_disabled":false,"rental_uris":{"android":"levelo://app?vid=f9a0e34b-a435-45a1-86a4-3eb35100fdfd","ios":"levelo://app?vid=f9a0e34b-a435-45a1-86a4-3eb35100fdfd"},"vehicle_type_id":"4","last_reported":1699121280,"current_range_meters":17200,"station_id":"ce4bh112rcd13ifvqd90","pricing_plan_id":"free"},{"bike_id":"d2f1865d-4035-44f3-b3a7-c9224211d60f","system_id":"levelo_inurba_marseille","lat":43.283494,"lon":5.380945,"is_reserved":false,"is_disabled":false,"rental_uris":{"android":"levelo://app?vid=d2f1865d-4035-44f3-b3a7-c9224211d60f","ios":"levelo://app?vid=d2f1865d-4035-44f3-b3a7-c9224211d60f"},"vehicle_type_id":"4","last_reported":1699121280,"current_range_meters":24400,"station_id":"ce4bh412rcd13ifvqdr0","pricing_plan_id":"free"},{"bike_id":"95f99425-bf1e-49a3-9efb-a5437ac89690","system_id":"levelo_inurba_marseille","lat":43.283494,"lon":5.380945,"is_reserved":false,"is_disabled":false,"rental_uris":{"android":"levelo://app?vid=95f99425-bf1e-49a3-9efb-a5437ac89690","ios":"levelo://app?vid=95f99425-bf1e-49a3-9efb-a5437ac89690"},"vehicle_type_id":"4","last_reported":1699121280,"current_range_meters":17600,"station_id":"ce4bh412rcd13ifvqdr0","pricing_plan_id":"free"},{"bike_id":"b01e4962-0683-4494-8495-0920cce63a9b","system_id":"levelo_inurba_marseille","lat":43.283498,"lon":5.380948,"is_reserved":false,"is_disabled":false,"rental_uris":{"android":"levelo://app?vid=b01e4962-0683-4494-8495-0920cce63a9b","ios":"levelo://app?vid=b01e4962-0683-4494-8495-0920cce63a9b"},"vehicle_type_id":"4","last_reported":1699121280,"current_range_meters":30400,"station_id":"ce4bh412rcd13ifvqdr0","pricing_plan_id":"free"},{"bike_id":"9f2bd97d-990b-4766-96d1-6a09db940b01","system_id":"levelo_inurba_marseille","lat":43.324113,"lon":5.406632,"is_reserved":false,"is_disabled":false,"rental_uris":{"android":"levelo://app?vid=9f2bd97d-990b-4766-96d1-6a09db940b01","ios":"levelo://app?vid=9f2bd97d-990b-4766-96d1-6a09db940b01"},"vehicle_type_id":"4","last_reported":1699121280,"current_range_meters":25200,"station_id":"","pricing_plan_id":"free"},{"bike_id":"e4d69506-0481-4fdf-ac75-dfb81d58f79f","system_id":"levelo_inurba_marseille","lat":43.284219,"lon":5.3497,"is_reserved":false,"is_disabled":false,"rental_uris":{"android":"levelo://app?vid=e4d69506-0481-4fdf-ac75-dfb81d58f79f","ios":"levelo://app?vid=e4d69506-0481-4fdf-ac75-dfb81d58f79f"},"vehicle_type_id":"4","last_reported":1699121280,"current_range_meters":29200,"station_id":"ce4bhbh2rcd13ifvqepg","pricing_plan_id":"free"},{"bike_id":"29a49342-a30a-4cef-bdc9-25ccd3c41c66","system_id":"levelo_inurba_marseille","lat":43.284217,"lon":5.349697,"is_reserved":false,"is_disabled":false,"rental_uris":{"android":"levelo://app?vid=29a49342-a30a-4cef-bdc9-25ccd3c41c66","ios":"levelo://app?vid=29a49342-a30a-4cef-bdc9-25ccd3c41c66"},"vehicle_type_id":"4","last_reported":1699121280,"current_range_meters":30800,"station_id":"ce4bhbh2rcd13ifvqepg","pricing_plan_id":"free"},{"bike_id":"2e649882-857d-4874-ae11-9d970698ac14","system_id":"levelo_inurba_marseille","lat":43.284219,"lon":5.3497,"is_reserved":false,"is_disabled":false,"rental_uris":{"android":"levelo://app?vid=2e649882-857d-4874-ae11-9d970698ac14","ios":"levelo://app?vid=2e649882-857d-4874-ae11-9d970698ac14"},"vehicle_type_id":"4","last_reported":1699121280,"current_range_meters":800,"station_id":"ce4bhbh2rcd13ifvqepg","pricing_plan_id":"free"},{"bike_id":"93e14c55-070b-410f-951b-7e7a437df939","system_id":"levelo_inurba_marseille","lat":43.284217,"lon":5.349697,"is_reserved":false,"is_disabled":false,"rental_uris":{"android":"levelo://app?vid=93e14c55-070b-410f-951b-7e7a437df939","ios":"levelo://app?vid=93e14c55-070b-410f-951b-7e7a437df939"},"vehicle_type_id":"4","last_reported":1699121280,"current_range_meters":8400,"station_id":"ce4bhbh2rcd13ifvqepg","pricing_plan_id":"free"},{"bike_id":"e16d222c-dc8f-431f-a507-fbaa0e2c2b47","system_id":"levelo_inurba_marseille","lat":43.289363,"lon":5.396322,"is_reserved":false,"is_disabled":false,"rental_uris":{"android":"levelo://app?vid=e16d222c-dc8f-431f-a507-fbaa0e2c2b47","ios":"levelo://app?vid=e16d222c-dc8f-431f-a507-fbaa0e2c2b47"},"vehicle_type_id":"4","last_reported":1699121280,"current_range_meters":5200,"station_id":"ce4bh3h2rcd13ifvqdn0","pricing_plan_id":"free"},{"bike_id":"a1db9aab-c72c-482d-a375-2d8876e736c1","system_id":"levelo_inurba_marseille","lat":43.283502,"lon":5.386471,"is_reserved":false,"is_disabled":false,"rental_uris":{"android":"levelo://app?vid=a1db9aab-c72c-482d-a375-2d8876e736c1","ios":"levelo://app?vid=a1db9aab-c72c-482d-a375-2d8876e736c1"},"vehicle_type_id":"4","last_reported":1699121280,"current_range_meters":28000,"station_id":"ce4bh492rcd13ifvqdvg","pricing_plan_id":"free"},{"bike_id":"7c86b76a-1082-41bc-a4c7-25508a114eea","system_id":"levelo_inurba_marseille","lat":43.2827,"lon":5.35072,"is_reserved":false,"is_disabled":false,"rental_uris":{"android":"levelo://app?vid=7c86b76a-1082-41bc-a4c7-25508a114eea","ios":"levelo://app?vid=7c86b76a-1082-41bc-a4c7-25508a114eea"},"vehicle_type_id":"4","last_reported":1699121280,"current_range_meters":20000,"station_id":"ce4bhbp2rcd13ifvqerg","pricing_plan_id":"free"},{"bike_id":"db0aa79d-a101-408a-8fd7-dfa7cd9518ca","system_id":"levelo_inurba_marseille","lat":43.283502,"lon":5.386471,"is_reserved":false,"is_disabled":false,"rental_uris":{"android":"levelo://app?vid=db0aa79d-a101-408a-8fd7-dfa7cd9518ca","ios":"levelo://app?vid=db0aa79d-a101-408a-8fd7-dfa7cd9518ca"},"vehicle_type_id":"4","last_reported":1699121280,"current_range_meters":22000,"station_id":"ce4bh492rcd13ifvqdvg","pricing_plan_id":"free"},{"bike_id":"1ca242fe-6084-4f9b-8b54-35d465872844","system_id":"levelo_inurba_marseille","lat":43.290412,"lon":5.399633,"is_reserved":false,"is_disabled":false,"rental_uris":{"android":"levelo://app?vid=1ca242fe-6084-4f9b-8b54-35d465872844","ios":"levelo://app?vid=1ca242fe-6084-4f9b-8b54-35d465872844"},"vehicle_type_id":"4","last_reported":1699121280,"current_range_meters":18000,"station_id":"ce4bh392rcd13ifvqdm0","pricing_plan_id":"free"},{"bike_id":"f38ebb0d-6b5d-45da-a5b5-43dfe28bb90b","system_id":"levelo_inurba_marseille","lat":43.28106,"lon":5.378388,"is_reserved":false,"is_disabled":false,"rental_uris":{"android":"levelo://app?vid=f38ebb0d-6b5d-45da-a5b5-43dfe28bb90b","ios":"levelo://app?vid=f38ebb0d-6b5d-45da-a5b5-43dfe28bb90b"},"vehicle_type_id":"4","last_reported":1699121280,"current_range_meters":19200,"station_id":"ce4bha12rcd13ifvqee0","pricing_plan_id":"free"},{"bike_id":"325ae4f7-0700-4da4-be43-d8ebe17711ee","system_id":"levelo_inurba_marseille","lat":43.28105,"lon":5.37842,"is_reserved":false,"is_disabled":false,"rental_uris":{"android":"levelo://app?vid=325ae4f7-0700-4da4-be43-d8ebe17711ee","ios":"levelo://app?vid=325ae4f7-0700-4da4-be43-d8ebe17711ee"},"vehicle_type_id":"4","last_reported":1699121280,"current_range_meters":3200,"station_id":"ce4bha12rcd13ifvqee0","pricing_plan_id":"free"},{"bike_id":"7705f903-041d-4de0-9cc2-d08486844894","system_id":"levelo_inurba_marseille","lat":43.296263,"lon":5.40601,"is_reserved":false,"is_disabled":false,"rental_uris":{"android":"levelo://app?vid=7705f903-041d-4de0-9cc2-d08486844894","ios":"levelo://app?vid=7705f903-041d-4de0-9cc2-d08486844894"},"vehicle_type_id":"4","last_reported":1699121280,"current_range_meters":1600,"station_id":"ce4bh0h2rcd13ifvqd60","pricing_plan_id":"free"},{"bike_id":"15aec13d-d0a4-4b53-b34a-67037e208fec","system_id":"levelo_inurba_marseille","lat":43.28102,"lon":5.37843,"is_reserved":false,"is_disabled":false,"rental_uris":{"android":"levelo://app?vid=15aec13d-d0a4-4b53-b34a-67037e208fec","ios":"levelo://app?vid=15aec13d-d0a4-4b53-b34a-67037e208fec"},"vehicle_type_id":"4","last_reported":1699121280,"current_range_meters":22400,"station_id":"ce4bha12rcd13ifvqee0","pricing_plan_id":"free"},{"bike_id":"743878a3-303f-4c36-981d-5bd900c78bfa","system_id":"levelo_inurba_marseille","lat":43.281044,"lon":5.378308,"is_reserved":false,"is_disabled":false,"rental_uris":{"android":"levelo://app?vid=743878a3-303f-4c36-981d-5bd900c78bfa","ios":"levelo://app?vid=743878a3-303f-4c36-981d-5bd900c78bfa"},"vehicle_type_id":"4","last_reported":1699121280,"current_range_meters":25600,"station_id":"ce4bha12rcd13ifvqee0","pricing_plan_id":"free"},{"bike_id":"a19fbc6a-06f5-4aa2-93ed-8283106c4a16","system_id":"levelo_inurba_marseille","lat":43.281,"lon":5.37836,"is_reserved":false,"is_disabled":false,"rental_uris":{"android":"levelo://app?vid=a19fbc6a-06f5-4aa2-93ed-8283106c4a16","ios":"levelo://app?vid=a19fbc6a-06f5-4aa2-93ed-8283106c4a16"},"vehicle_type_id":"4","last_reported":1699121280,"current_range_meters":5600,"station_id":"ce4bha12rcd13ifvqee0","pricing_plan_id":"free"},{"bike_id":"69c1cb88-31a5-41b0-9ce9-6e7a1ec57496","system_id":"levelo_inurba_marseille","lat":43.281044,"lon":5.378308,"is_reserved":false,"is_disabled":false,"rental_uris":{"android":"levelo://app?vid=69c1cb88-31a5-41b0-9ce9-6e7a1ec57496","ios":"levelo://app?vid=69c1cb88-31a5-41b0-9ce9-6e7a1ec57496"},"vehicle_type_id":"4","last_reported":1699121280,"current_range_meters":25200,"station_id":"ce4bha12rcd13ifvqee0","pricing_plan_id":"free"},{"bike_id":"1853d11f-a195-4cc3-9568-1feff6bc3658","system_id":"levelo_inurba_marseille","lat":43.28093,"lon":5.37835,"is_reserved":false,"is_disabled":false,"rental_uris":{"android":"levelo://app?vid=1853d11f-a195-4cc3-9568-1feff6bc3658","ios":"levelo://app?vid=1853d11f-a195-4cc3-9568-1feff6bc3658"},"vehicle_type_id":"4","last_reported":1699121280,"current_range_meters":9600,"station_id":"ce4bha12rcd13ifvqee0","pricing_plan_id":"free"},