{"last_updated":1745874489,"ttl":60,"version":"2.2","data":{"bikes":[{"bike_id":"5674d302-b792-449b-b03f-238b86a7cbeb","system_id":"levelo_inurba_marseille","lat":43.288452,"lon":5.392993,"is_reserved":false,"is_disabled":false,"rental_uris":{"android":"levelo://app?vid=5674d302-b792-449b-b03f-238b86a7cbeb","ios":"levelo://app?vid=5674d302-b792-449b-b03f-238b86a7cbeb"},"vehicle_type_id":"4","last_reported":1745874490,"current_range_meters":2800,"station_id":"ce4bh2p2rcd13ifvqdi0","pricing_plan_id":"cebpf4jnsgd1na2vs0mg"},{"bike_id":"957a0512-dcf1-4c9f-8a46-75042608e9f7","system_id":"levelo_inurba_marseille","lat":43.27661,"lon":5.38892,"is_reserved":false,"is_disabled":true,"rental_uris":{"android":"levelo://app?vid=957a0512-dcf1-4c9f-8a46-75042608e9f7","ios":"levelo://app?vid=957a0512-dcf1-4c9f-8a46-75042608e9f7"},"vehicle_type_id":"4","last_reported":1745874490,"current_range_meters":3200,"station_id":"ce4bhi12rcd13ifvqfo0","pricing_plan_id":"cebpf4jnsgd1na2vs0mg"},{"bike_id":"74677f28-3596-4c5b-98de-ba4120a70f9d","system_id":"levelo_inurba_marseille","lat":43.2562,"lon":5.41191,"is_reserved":false,"is_disabled":false,"rental_uris":{"android":"levelo://app?vid=74677f28-3596-4c5b-98de-ba4120a70f9d","ios":"levelo://app?vid=74677f28-3596-4c5b-98de-ba4120a70f9d"},"vehicle_type_id":"4","last_reported":1745874490,"current_range_meters":3200,"station_id":"","pricing_plan_id":"cebpf4jnsgd1na2vs0mg"},{"bike_id":"1a996e72-2408-43d0-86e3-0b9a2be1a5b4","system_id":"levelo_inurba_marseille","lat":43.307892,"lon":5.376371,"is_reserved":false,"is_disabled":false,"rental_uris":{"android":"levelo://app?vid=1a996e72-2408-43d0-86e3-0b9a2be1a5b4","ios":"levelo://app?vid=1a996e72-2408-43d0-86e3-0b9a2be1a5b4"},"vehicle_type_id":"4","last_reported":1745874490,"current_range_meters":3200,"station_id":"","pricing_plan_id":"cebpf4jnsgd1na2vs0mg"},{"bike_id":"a2a86ca1-65c9-460e-91d0-7de99ed83b62","system_id":"levelo_inurba_marseille","lat":43.26517,"lon":5.37307,"is_reserved":false,"is_disabled":true,"rental_uris":{"android":"levelo://app?vid=a2a86ca1-65c9-460e-91d0-7de99ed83b62","ios":"levelo://app?vid=a2a86ca1-65c9-460e-91d0-7de99ed83b62"},"vehicle_type_id":"4","last_reported":1745874490,"current_range_meters":3600,"station_id":"","pricing_plan_id":"cebpf4jnsgd1na2vs0mg"},{"bike_id":"525202d3-9abd-420b-aefd-dd54ac27ef04","system_id":"levelo_inurba_marseille","lat":43.24072,"lon":5.37764,"is_reserved":false,"is_disabled":false,"rental_uris":{"android":"levelo://app?vid=525202d3-9abd-420b-aefd-dd54ac27ef04","ios":"levelo://app?vid=525202d3-9abd-420b-aefd-dd54ac27ef04"},"vehicle_type_id":"4","last_reported":1745874490,"current_range_meters":4000,"station_id":"ce4bhnp2rcd13ifvqgvg","pricing_plan_id":"cebpf4jnsgd1na2vs0mg"},{"bike_id":"f62c08cd-4620-4739-a857-99492abdf253","system_id":"levelo_inurba_marseille","lat":43.26559,"lon":5.37284,"is_reserved":false,"is_disabled":false,"rental_uris":{"android":"levelo://app?vid=f62c08cd-4620-4739-a857-99492abdf253","ios":"levelo://app?vid=f62c08cd-4620-4739-a857-99492abdf253"},"vehicle_type_id":"4","last_reported":1745874490,"current_range_meters":4400,"station_id":"ce4bhg12rcd13ifvqf70","pricing_plan_id":"cebpf4jnsgd1na2vs0mg"},{"bike_id":"5c634152-8612-498f-bc6f-93b4d5da1eff","system_id":"levelo_inurba_marseille","lat":43.28038,"lon":5.36939,"is_reserved":false,"is_disabled":false,"rental_uris":{"android":"levelo://app?vid=5c634152-8612-498f-bc6f-93b4d5da1eff","ios":"levelo://app?vid=5c634152-8612-498f-bc6f-93b4d5da1eff"},"vehicle_type_id":"4","last_reported":1745874490,"current_range_meters":4400,"station_id":"ce4bha12rcd13ifvqef0","pricing_plan_id":"cebpf4jnsgd1na2vs0mg"},{"bike_id":"d9cd1294-5d0b-43d3-9258-deda946961d1","system_id":"levelo_inurba_marseille","lat":43.225006,"lon":5.347774,"is_reserved":false,"is_disabled":true,"rental_uris":{"android":"levelo://app?vid=d9cd1294-5d0b-43d3-9258-deda946961d1","ios":"levelo://app?vid=d9cd1294-5d0b-43d3-9258-deda946961d1"},"vehicle_type_id":"4","last_reported":1745874490,"current_range_meters":4800,"station_id":"st_cvj5dfep6f1abm77gieg","pricing_plan_id":"cebpf4jnsgd1na2vs0mg"},{"bike_id":"6edac4ea-a5ff-45f0-b8a9-d875dc168fcf","system_id":"levelo_inurba_marseille","lat":43.27497,"lon":5.42447,"is_reserved":false,"is_disabled":false,"rental_uris":{"android":"levelo://app?vid=6edac4ea-a5ff-45f0-b8a9-d875dc168fcf","ios":"levelo://app?vid=6edac4ea-a5ff-45f0-b8a9-d875dc168fcf"},"vehicle_type_id":"4","last_reported":1745874490,"current_range_meters":4800,"station_id":"ce4bhn92rcd13ifvqgrg","pricing_plan_id":"cebpf4jnsgd1na2vs0mg"},{"bike_id":"eabc659d-49bd-4061-af98-20052a80f1d8","system_id":"levelo_inurba_marseille","lat":43.24678,"lon":5.38203,"is_reserved":false,"is_disabled":false,"rental_uris":{"android":"levelo://app?vid=eabc659d-49bd-4061-af98-20052a80f1d8","ios":"levelo://app?vid=eabc659d-49bd-4061-af98-20052a80f1d8"},"vehicle_type_id":"4","last_reported":1745874490,"current_range_meters":4800,"station_id":"ce4bhih2rcd13ifvqfr0","pricing_plan_id":"cebpf4jnsgd1na2vs0mg"},{"bike_id":"ef5a622e-aa0a-4359-b3fd-ef466748c455","system_id":"levelo_inurba_marseille","lat":43.23189,"lon":5.3555,"is_reserved":false,"is_disabled":false,"rental_uris":{"android":"levelo://app?vid=ef5a622e-aa0a-4359-b3fd-ef466748c455","ios":"levelo://app?vid=ef5a622e-aa0a-4359-b3fd-ef466748c455"},"vehicle_type_id":"4","last_reported":1745874490,"current_range_meters":4800,"station_id":"ce4bhu92rcd13ifvqi70","pricing_plan_id":"cebpf4jnsgd1na2vs0mg"},{"bike_id":"81b30dc0-68af-42a2-9897-e4e4d480546e","system_id":"levelo_inurba_marseille","lat":43.29034,"lon":5.3997,"is_reserved":false,"is_disabled":false,"rental_uris":{"android":"levelo://app?vid=81b30dc0-68af-42a2-9897-e4e4d480546e","ios":"levelo://app?vid=81b30dc0-68af-42a2-9897-e4e4d480546e"},"vehicle_type_id":"4","last_reported":1745874490,"current_range_meters":4800,"station_id":"ce4bh392rcd13ifvqdm0","pricing_plan_id":"cebpf4jnsgd1na2vs0mg"},{"bike_id":"476d5457-f8ed-4790-ba4f-941ab585cf7b","system_id":"levelo_inurba_marseille","lat":43.26559,"lon":5.37283,"is_reserved":false,"is_disabled":false,"rental_uris":{"android":"levelo://app?vid=476d5457-f8ed-4790-ba4f-941ab585cf7b","ios":"levelo://app?vid=476d5457-f8ed-4790-ba4f-941ab585cf7b"},"vehicle_type_id":"4","last_reported":1745874490,"current_range_meters":4800,"station_id":"ce4bhg12rcd13ifvqf70","pricing_plan_id":"cebpf4jnsgd1na2vs0mg"},{"bike_id":"33e34365-f6ec-4def-9cdb-452c557ac295","system_id":"levelo_inurba_marseille","lat":43.30147,"lon":5.38075,"is_reserved":false,"is_disabled":false,"rental_uris":{"android":"levelo://app?vid=33e34365-f6ec-4def-9cdb-452c557ac295","ios":"levelo://app?vid=33e34365-f6ec-4def-9cdb-452c557ac295"},"vehicle_type_id":"4","last_reported":1745874490,"current_range_meters":4800,"station_id":"ce4bgjp2rcd13ifvqbh0","pricing_plan_id":"cebpf4jnsgd1na2vs0mg"},{"bike_id":"cbec0076-95d0-4f8f-8339-66de29997492","system_id":"levelo_inurba_marseille","lat":43.25571,"lon":5.38246,"is_reserved":false,"is_disabled":false,"rental_uris":{"android":"levelo://app?vid=cbec0076-95d0-4f8f-8339-66de29997492","ios":"levelo://app?vid=cbec0076-95d0-4f8f-8339-66de29997492"},"vehicle_type_id":"4","last_reported":1745874490,"current_range_meters":5600,"station_id":"ce4bhih2rcd13ifvqfs0","pricing_plan_id":"cebpf4jnsgd1na2vs0mg"},{"bike_id":"8ae79fb7-0582-444e-8dab-1d22e31e0f2e","system_id":"levelo_inurba_marseille","lat":43.23961,"lon":5.36627,"is_reserved":false,"is_disabled":false,"rental_uris":{"android":"levelo://app?vid=8ae79fb7-0582-444e-8dab-1d22e31e0f2e","ios":"levelo://app?vid=8ae79fb7-0582-444e-8dab-1d22e31e0f2e"},"vehicle_type_id":"4","last_reported":1745874490,"current_range_meters":6000,"station_id":"ce4bhi12rcd13ifvqfp0","pricing_plan_id":"cebpf4jnsgd1na2vs0mg"},{"bike_id":"4bedb4d8-0071-4dfb-a08a-28b6cf93bd3f","system_id":"levelo_inurba_marseille","lat":43.30438,"lon":5.38891,"is_reserved":false,"is_disabled":true,"rental_uris":{"android":"levelo://app?vid=4bedb4d8-0071-4dfb-a08a-28b6cf93bd3f","ios":"levelo://app?vid=4bedb4d8-0071-4dfb-a08a-28b6cf93bd3f"},"vehicle_type_id":"4","last_reported":1745874490,"current_range_meters":6000,"station_id":"ce4bgk12rcd13ifvqbi0","pricing_plan_id":"cebpf4jnsgd1na2vs0mg"},{"bike_id":"91559d40-e5ec-4b09-aee0-3dda98bb0b91","system_id":"levelo_inurba_marseille","lat":43.29689,"lon":5.37021,"is_reserved":false,"is_disabled":false,"rental_uris":{"android":"levelo://app?vid=91559d40-e5ec-4b09-aee0-3dda98bb0b91","ios":"levelo://app?vid=91559d40-e5ec-4b09-aee0-3dda98bb0b91"},"vehicle_type_id":"4","last_reported":1745874490,"current_range_meters":6400,"station_id":"","pricing_plan_id":"cebpf4jnsgd1na2vs0mg"},{"bike_id":"5cf37c7e-c3ed-4a02-b872-ba1b00adc3b4","system_id":"levelo_inurba_marseille","lat":43.24651,"lon":5.38904,"is_reserved":false,"is_disabled":false,"rental_uris":{"android":"levelo://app?vid=5cf37c7e-c3ed-4a02-b872-ba1b00adc3b4","ios":"levelo://app?vid=5cf37c7e-c3ed-4a02-b872-ba1b00adc3b4"},"vehicle_type_id":"4","last_reported":1745874490,"current_range_meters":6400,"station_id":"ce4bhg12rcd13ifvqf60","pricing_plan_id":"cebpf4jnsgd1na2vs0mg"},{"bike_id":"61ffaa74-f23c-450f-a9ee-eb45d749f9a5","system_id":"levelo_inurba_marseille","lat":43.24677,"lon":5.38169,"is_reserved":false,"is_disabled":false,"rental_uris":{"android":"levelo://app?vid=61ffaa74-f23c-450f-a9ee-eb45d749f9a5","ios":"levelo://app?vid=61ffaa74-f23c-450f-a9ee-eb45d749f9a5"},"vehicle_type_id":"4","last_reported":1745874490,"current_range_meters":6400,"station_id":"ce4bhih2rcd13ifvqfr0","pricing_plan_id":"cebpf4jnsgd1na2vs0mg"},{"bike_id":"63394ea2-f0f0-446d-b553-9ec5a23b2512","system_id":"levelo_inurba_marseille","lat":43.24391,"lon":5.37055,"is_reserved":false,"is_disabled":false,"rental_uris":{"android":"levelo://app?vid=63394ea2-f0f0-446d-b553-9ec5a23b2512","ios":"levelo://app?vid=63394ea2-f0f0-446d-b553-9ec5a23b2512"},"vehicle_type_id":"4","last_reported":1745874490,"current_range_meters":6800,"station_id":"ce4bhhh2rcd13ifvqfk0","pricing_plan_id":"cebpf4jnsgd1na2vs0mg"},{"bike_id":"2170e8a2-0b50-454a-a8c3-90edc68a4e7f","system_id":"levelo_inurba_marseille","lat":43.22925,"lon":5.35379,"is_reserved":false,"is_disabled":false,"rental_uris":{"android":"levelo://app?vid=2170e8a2-0b50-454a-a8c3-90edc68a4e7f","ios":"levelo://app?vid=2170e8a2-0b50-454a-a8c3-90edc68a4e7f"},"vehicle_type_id":"4","last_reported":1745874490,"current_range_meters":6800,"station_id":"cpo3532slgdg3j2ikp40","pricing_plan_id":"cebpf4jnsgd1na2vs0mg"},{"bike_id":"4141a4ac-c499-4bea-ac60-899e617d90d3","system_id":"levelo_inurba_marseille","lat":43.24381,"lon":5.37067,"is_reserved":false,"is_disabled":false,"rental_uris":{"android":"levelo://app?vid=4141a4ac-c499-4bea-ac60-899e617d90d3","ios":"levelo://app?vid=4141a4ac-c499-4bea-ac60-899e617d90d3"},"vehicle_type_id":"4","last_reported":1745874490,"current_range_meters":7200,"station_id":"ce4bhhh2rcd13ifvqfk0","pricing_plan_id":"cebpf4jnsgd1na2vs0mg"},{"bike_id":"aec336d6-9939-4bb1-9969-16430941df15","system_id":"levelo_inurba_marseille","lat":43.27915,"lon":5.39584,"is_reserved":false,"is_disabled":false,"rental_uris":{"android":"levelo://app?vid=aec336d6-9939-4bb1-9969-16430941df15","ios":"levelo://app?vid=aec336d6-9939-4bb1-9969-16430941df15"},"vehicle_type_id":"4","last_reported":1745874490,"current_range_meters":7200,"station_id":"ce4bhf92rcd13ifvqf40","pricing_plan_id":"cebpf4jnsgd1na2vs0mg"},{"bike_id":"a4c8a335-745b-4d95-97e0-7bac3cb18549","system_id":"levelo_inurba_marseille","lat":43.28106,"lon":5.39861,"is_reserved":false,"is_disabled":false,"rental_uris":{"android":"levelo://app?vid=a4c8a335-745b-4d95-97e0-7bac3cb18549","ios":"levelo://app?vid=a4c8a335-745b-4d95-97e0-7bac3cb18549"},"vehicle_type_id":"4","last_reported":1745874490,"current_range_meters":7200,"station_id":"","pricing_plan_id":"cebpf4jnsgd1na2vs0mg"},{"bike_id":"50ea80b7-7e0f-4531-adc0-e1c1627bd506","system_id":"levelo_inurba_marseille","lat":43.301483,"lon":5.380843,"is_reserved":false,"is_disabled":false,"rental_uris":{"android":"levelo://app?vid=50ea80b7-7e0f-4531-adc0-e1c1627bd506","ios":"levelo://app?vid=50ea80b7-7e0f-4531-adc0-e1c1627bd506"},"vehicle_type_id":"4","last_reported":1745874490,"current_range_meters":7200,"station_id":"ce4bgjp2rcd13ifvqbh0","pricing_plan_id":"cebpf4jnsgd1na2vs0mg"},{"bike_id":"1db14274-463d-4180-bece-00dba6656848","system_id":"levelo_inurba_marseille","lat":43.23962,"lon":5.36626,"is_reserved":false,"is_disabled":false,"rental_uris":{"android":"levelo://app?vid=1db14274-463d-4180-bece-00dba6656848","ios":"levelo://app?vid=1db14274-463d-4180-bece-00dba6656848"},"vehicle_type_id":"4","last_reported":1745874490,"current_range_meters":7200,"station_id":"ce4bhi12rcd13ifvqfp0","pricing_plan_id":"cebpf4jnsgd1na2vs0mg"},{"bike_id":"51c1adc9-7cd7-4ffb-971e-7b36309eb47d","system_id":"levelo_inurba_marseille","lat":43.3107,"lon":5.36762,"is_reserved":false,"is_disabled":false,"rental_uris":{"android":"levelo://app?vid=51c1adc9-7cd7-4ffb-971e-7b36309eb47d","ios":"levelo://app?vid=51c1adc9-7cd7-4ffb-971e-7b36309eb47d"},"vehicle_type_id":"4","last_reported":1745874490,"current_range_meters":7200,"station_id":"","pricing_plan_id":"cebpf4jnsgd1na2vs0mg"},{"bike_id":"59f6b8a5-9a4d-4f93-882c-fa6684eb7537","system_id":"levelo_inurba_marseille","lat":43.2768,"lon":5.38869,"is_reserved":false,"is_disabled":true,"rental_uris":{"android":"levelo://app?vid=59f6b8a5-9a4d-4f93-882c-fa6684eb7537","ios":"levelo://app?vid=59f6b8a5-9a4d-4f93-882c-fa6684eb7537"},"vehicle_type_id":"4","last_reported":1745874490,"current_range_meters":8000,"station_id":"ce4bhi12rcd13ifvqfo0","pricing_plan_id":"cebpf4jnsgd1na2vs0mg"},{"bike_id":"0fec8a14-9d02-46c1-bd6a-7bd8b25a08d8","system_id":"levelo_inurba_marseille","lat":43.28843,"lon":5.39341,"is_reserved":false,"is_disabled":false,"rental_uris":{"android":"levelo://app?vid=0fec8a14-9d02-46c1-bd6a-7bd8b25a08d8","ios":"levelo://app?vid=0fec8a14-9d02-46c1-bd6a-7bd8b25a08d8"},"vehicle_type_id":"4","last_reported":1745874490,"current_range_meters":8000,"station_id":"ce4bh2p2rcd13ifvqdi0","pricing_plan_id":"cebpf4jnsgd1na2vs0mg"},{"bike_id":"26deac1f-c435-40bc-9469-9ae0b266bb77","system_id":"levelo_inurba_marseille","lat":43.30198,"lon":5.38485,"is_reserved":false,"is_disabled":false,"rental_uris":{"android":"levelo://app?vid=26deac1f-c435-40bc-9469-9ae0b266bb77","ios":"levelo://app?vid=26deac1f-c435-40bc-9469-9ae0b266bb77"},"vehicle_type_id":"4","last_reported":1745874490,"current_range_meters":8000,"station_id":"","pricing_plan_id":"cebpf4jnsgd1na2vs0mg"},{"bike_id":"caa3c169-4893-4207-a47b-db2543c3e67f","system_id":"levelo_inurba_marseille","lat":43.27835,"lon":5.39206,"is_reserved":false,"is_disabled":false,"rental_uris":{"android":"levelo://app?vid=caa3c169-4893-4207-a47b-db2543c3e67f","ios":"levelo://app?vid=caa3c169-4893-4207-a47b-db2543c3e67f"},"vehicle_type_id":"4","last_reported":1745874490,"current_range_meters":8400,"station_id":"ce4bhjp2rcd13ifvqga0","pricing_plan_id":"cebpf4jnsgd1na2vs0mg"},{"bike_id":"c9a86ac7-7b19-40e0-8204-2ba2f18392ef","system_id":"levelo_inurba_marseille","lat":43.298635,"lon":5.397258,"is_reserved":false,"is_disabled":true,"rental_uris":{"android":"levelo://app?vid=c9a86ac7-7b19-40e0-8204-2ba2f18392ef","ios":"levelo://app?vid=c9a86ac7-7b19-40e0-8204-2ba2f18392ef"},"vehicle_type_id":"4","last_reported":1745874490,"current_range_meters":8400,"station_id":"","pricing_plan_id":"cebpf4jnsgd1na2vs0mg"},{"bike_id":"679a1104-bb2f-4313-81ae-490e909d7dd6","system_id":"levelo_inurba_marseille","lat":43.29612,"lon":5.37721,"is_reserved":false,"is_disabled":true,"rental_uris":{"android":"levelo://app?vid=679a1104-bb2f-4313-81ae-490e909d7dd6","ios":"levelo://app?vid=679a1104-bb2f-4313-81ae-490e909d7dd6"},"vehicle_type_id":"4","last_reported":1745874490,"current_range_meters":8400,"station_id":"ce4bgi92rcd13ifvqb90","pricing_plan_id":"cebpf4jnsgd1na2vs0mg"},{"bike_id":"57a41005-dba4-4995-a65d-3cc07a95ba9a","system_id":"levelo_inurba_marseille","lat":43.30196,"lon":5.3947,"is_reserved":false,"is_disabled":true,"rental_uris":{"android":"levelo://app?vid=57a41005-dba4-4995-a65d-3cc07a95ba9a","ios":"levelo://app?vid=57a41005-dba4-4995-a65d-3cc07a95ba9a"},"vehicle_type_id":"4","last_reported":1745874490,"current_range_meters":8400,"station_id":"ce4bh0p2rcd13ifvqd70","pricing_plan_id":"cebpf4jnsgd1na2vs0mg"},{"bike_id":"a927ad15-b129-4085-9072-8cc54f2c8cf2","system_id":"levelo_inurba_marseille","lat":43.32112,"lon":5.36772,"is_reserved":false,"is_disabled":false,"rental_uris":{"android":"levelo://app?vid=a927ad15-b129-4085-9072-8cc54f2c8cf2","ios":"levelo://app?vid=a927ad15-b129-4085-9072-8cc54f2c8cf2"},"vehicle_type_id":"4","last_reported":1745874490,"current_range_meters":8400,"station_id":"ce4bhrh2rcd13ifvqhug","pricing_plan_id":"cebpf4jnsgd1na2vs0mg"},{"bike_id":"1f60866e-1eaf-44dc-8e9a-4dca75cf6c04","system_id":"levelo_inurba_marseille","lat":43.32359,"lon":5.38859,"is_reserved":false,"is_disabled":false,"rental_uris":{"android":"levelo://app?vid=1f60866e-1eaf-44dc-8e9a-4dca75cf6c04","ios":"levelo://app?vid=1f60866e-1eaf-44dc-8e9a-4dca75cf6c04"},"vehicle_type_id":"4","last_reported":1745874490,"current_range_meters":8400,"station_id":"ce4bhqp2rcd13ifvqhog","pricing_plan_id":"cebpf4jnsgd1na2vs0mg"},{"bike_id":"af4f0c69-e62d-4155-b1d1-a67b45271ae1","system_id":"levelo_inurba_marseille","lat":43.24727,"lon":5.41167,"is_reserved":false,"is_disabled":false,"rental_uris":{"android":"levelo://app?vid=af4f0c69-e62d-4155-b1d1-a67b45271ae1","ios":"levelo://app?vid=af4f0c69-e62d-4155-b1d1-a67b45271ae1"},"vehicle_type_id":"4","last_reported":1745874490,"current_range_meters":8800,"station_id":"","pricing_plan_id":"cebpf4jnsgd1na2vs0mg"},{"bike_id":"37462fd3-bd44-40e0-8a59-f04677802edf","system_id":"levelo_inurba_marseille","lat":43.2467,"lon":5.38161,"is_reserved":false,"is_disabled":false,"rental_uris":{"android":"levelo://app?vid=37462fd3-bd44-40e0-8a59-f04677802edf","ios":"levelo://app?vid=37462fd3-bd44-40e0-8a59-f04677802edf"},"vehicle_type_id":"4","last_reported":1745874490,"current_range_meters":8800,"station_id":"ce4bhih2rcd13ifvqfr0","pricing_plan_id":"cebpf4jnsgd1na2vs0mg"},{"bike_id":"b9022854-efe3-4bc0-8b29-6580553b1d4b","system_id":"levelo_inurba_marseille","lat":43.26936,"lon":5.402537,"is_reserved":false,"is_disabled":false,"rental_uris":{"android":"levelo://app?vid=b9022854-efe3-4bc0-8b29-6580553b1d4b","ios":"levelo://app?vid=b9022854-efe3-4bc0-8b29-6580553b1d4b"},"vehicle_type_id":"4","last_reported":1745874490,"current_range_meters":8800,"station_id":"cjm6bp8fraef2m0cb0m0","pricing_plan_id":"cebpf4jnsgd1na2vs0mg"},{"bike_id":"e6d77530-cec4-4eb5-8c74-cac47d4adfa9","system_id":"levelo_inurba_marseille","lat":43.27944,"lon":5.4104,"is_reserved":false,"is_disabled":false,"rental_uris":{"android":"levelo://app?vid=e6d77530-cec4-4eb5-8c74-cac47d4adfa9","ios":"levelo://app?vid=e6d77530-cec4-4eb5-8c74-cac47d4adfa9"},"vehicle_type_id":"4","last_reported":1745874490,"current_range_meters":9200,"station_id":"ce4bhnp2rcd13ifvqh0g","pricing_plan_id":"cebpf4jnsgd1na2vs0mg"},{"bike_id":"7ca457ea-3b72-4e63-b88f-8d24e340ec0f","system_id":"levelo_inurba_marseille","lat":43.29628,"lon":5.40603,"is_reserved":false,"is_disabled":false,"rental_uris":{"android":"levelo://app?vid=7ca457ea-3b72-4e63-b88f-8d24e340ec0f","ios":"levelo://app?vid=7ca457ea-3b72-4e63-b88f-8d24e340ec0f"},"vehicle_type_id":"4","last_reported":1745874490,"current_range_meters":8800,"station_id":"ce4bh0h2rcd13ifvqd60","pricing_plan_id":"cebpf4jnsgd1na2vs0mg"},{"bike_id":"a7163810-2fee-4f07-bc17-d96aabf9a498","system_id":"levelo_inurba_marseille","lat":43.3079,"lon":5.43533,"is_reserved":false,"is_disabled":false,"rental_uris":{"android":"levelo://app?vid=a7163810-2fee-4f07-bc17-d96aabf9a498","ios":"levelo://app?vid=a7163810-2fee-4f07-bc17-d96aabf9a498"},"vehicle_type_id":"4","last_reported":1745874490,"current_range_meters":9200,"station_id":"ce4bhph2rcd13ifvqheg","pricing_plan_id":"cebpf4jnsgd1na2vs0mg"},{"bike_id":"eaefeeba-3b8f-4c93-8000-5db3650c6760","system_id":"levelo_inurba_marseille","lat":43.28145,"lon":5.42643,"is_reserved":false,"is_disabled":false,"rental_uris":{"android":"levelo://app?vid=eaefeeba-3b8f-4c93-8000-5db3650c6760","ios":"levelo://app?vid=eaefeeba-3b8f-4c93-8000-5db3650c6760"},"vehicle_type_id":"4","last_reported":1745874490,"current_range_meters":9200,"station_id":"ce4bhnh2rcd13ifvqgug","pricing_plan_id":"cebpf4jnsgd1na2vs0mg"},{"bike_id":"32eca611-111c-4689-bb0d-8c20e0341828","system_id":"levelo_inurba_marseille","lat":43.25583,"lon":5.38232,"is_reserved":false,"is_disabled":false,"rental_uris":{"android":"levelo://app?vid=32eca611-111c-4689-bb0d-8c20e0341828","ios":"levelo://app?vid=32eca611-111c-4689-bb0d-8c20e0341828"},"vehicle_type_id":"4","last_reported":1745874490,"current_range_meters":9600,"station_id":"ce4bhih2rcd13ifvqfs0","pricing_plan_id":"cebpf4jnsgd1na2vs0mg"},{"bike_id":"0601db71-6a78-497f-b205-23cf0bd13a21","system_id":"levelo_inurba_marseille","lat":43.2762,"lon":5.36109,"is_reserved":false,"is_disabled":false,"rental_uris":{"android":"levelo://app?vid=0601db71-6a78-497f-b205-23cf0bd13a21","ios":"levelo://app?vid=0601db71-6a78-497f-b205-23cf0bd13a21"},"vehicle_type_id":"4","last_reported":1745874490,"current_range_meters":9600,"station_id":"ce4bgj92rcd13ifvqbe0","pricing_plan_id":"cebpf4jnsgd1na2vs0mg"},{"bike_id":"3e41f7fc-9f46-4132-befa-0f8ff76fbdb1","system_id":"levelo_inurba_marseille","lat":43.239565,"lon":5.366362,"is_reserved":false,"is_disabled":false,"rental_uris":{"android":"levelo://app?vid=3e41f7fc-9f46-4132-befa-0f8ff76fbdb1","ios":"levelo://app?vid=3e41f7fc-9f46-4132-befa-0f8ff76fbdb1"},"vehicle_type_id":"4","last_reported":1745874490,"current_range_meters":9600,"station_id":"","pricing_plan_id":"cebpf4jnsgd1na2vs0mg"},{"bike_id":"05145c84-b9e3-47c2-91f6-efba0dd3a65c","system_id":"levelo_inurba_marseille","lat":43.25012,"lon":5.38915,"is_reserved":false,"is_disabled":true,"rental_uris":{"android":"levelo://app?vid=05145c84-b9e3-47c2-91f6-efba0dd3a65c","ios":"levelo://app?vid=05145c84-b9e3-47c2-91f6-efba0dd3a65c"},"vehicle_type_id":"4","last_reported":1745874490,"current_range_meters":9600,"station_id":"ce4bhgp2rcd13ifvqfd0","pricing_plan_id":"cebpf4jnsgd1na2vs0mg"},{"bike_id":"114074cb-6bca-4123-b1e8-66d0b2aadd4b","system_id":"levelo_inurba_marseille","lat":43.29534,"lon":5.39395,"is_reserved":false,"is_disabled":false,"rental_uris":{"android":"levelo://app?vid=114074cb-6bca-4123-b1e8-66d0b2aadd4b","ios":"levelo://app?vid=114074cb-6bca-4123-b1e8-66d0b2aadd4b"},"vehicle_type_id":"4","last_reported":1745874490,"current_range_meters":10000,"station_id":"ce4bh292rcd13ifvqdf0","pricing_plan_id":"cebpf4jnsgd1na2vs0mg"},{"bike_id":"ce2acb9b-3791-4000-822d-c542d629429b","system_id":"levelo_inurba_marseille","lat":43.26114,"lon":5.41476,"is_reserved":false,"is_disabled":false,"rental_uris":{"android":"levelo://app?vid=ce2acb9b-3791-4000-822d-c542d629429b","ios":"levelo://app?vid=ce2acb9b-3791-4000-822d-c542d629429b"},"vehicle_type_id":"4","last_reported":1745874490,"current_range_meters":10000,"station_id":"","pricing_plan_id":"cebpf4jnsgd1na2vs0mg"},{"bike_id":"1cf63bd9-d13d-4781-8167-f45afc711709","system_id":"levelo_inurba_marseille","lat":43.26273,"lon":5.40459,"is_reserved":false,"is_disabled":false,"rental_uris":{"android":"levelo://app?vid=1cf63bd9-d13d-4781-8167-f45afc711709","ios":"levelo://app?vid=1cf63bd9-d13d-4781-8167-f45afc711709"},"vehicle_type_id":"4","last_reported":1745874490,"current_range_meters":10000,"station_id":"","pricing_plan_id":"cebpf4jnsgd1na2vs0mg"},{"bike_id":"e0fe11ff-3615-47db-8f84-f7a3a3e04b01","system_id":"levelo_inurba_marseille","lat":43.24076,"lon":5.37761,"is_reserved":false,"is_disabled":false,"rental_uris":{"android":"levelo://app?vid=e0fe11ff-3615-47db-8f84-f7a3a3e04b01","ios":"levelo://app?vid=e0fe11ff-3615-47db-8f84-f7a3a3e04b01"},"vehicle_type_id":"4","last_reported":1745874490,"current_range_meters":10000,"station_id":"ce4bhnp2rcd13ifvqgvg","pricing_plan_id":"cebpf4jnsgd1na2vs0mg"},{"bike_id":"dfeccd09-e82d-4d13-b2b7-94cf0f12fbd7","system_id":"levelo_inurba_marseille","lat":43.29026,"lon":5.38638,"is_reserved":false,"is_disabled":false,"rental_uris":{"android":"levelo://app?vid=dfeccd09-e82d-4d13-b2b7-94cf0f12fbd7","ios":"levelo://app?vid=dfeccd09-e82d-4d13-b2b7-94cf0f12fbd7"},"vehicle_type_id":"4","last_reported":1745874490,"current_range_meters":10800,"station_id":"ce4bh4p2rcd13ifvqe0g","pricing_plan_id":"cebpf4jnsgd1na2vs0mg"},{"bike_id":"20d410f8-8f48-44fc-b81f-a6598afbfddb","system_id":"levelo_inurba_marseille","lat":43.32346,"lon":5.40621,"is_reserved":false,"is_disabled":false,"rental_uris":{"android":"levelo://app?vid=20d410f8-8f48-44fc-b81f-a6598afbfddb","ios":"levelo://app?vid=20d410f8-8f48-44fc-b81f-a6598afbfddb"},"vehicle_type_id":"4","last_reported":1745874490,"current_range_meters":10800,"station_id":"ce4bhq92rcd13ifvqhjg","pricing_plan_id":"cebpf4jnsgd1na2vs0mg"},{"bike_id":"c2380613-1576-47db-9817-a29fad74989f","system_id":"levelo_inurba_marseille","lat":43.29272,"lon":5.401225,"is_reserved":false,"is_disabled":false,"rental_uris":{"android":"levelo://app?vid=c2380613-1576-47db-9817-a29fad74989f","ios":"levelo://app?vid=c2380613-1576-47db-9817-a29fad74989f"},"vehicle_type_id":"4","last_reported":1745874490,"current_range_meters":10800,"station_id":"ce4bh312rcd13ifvqdk0","pricing_plan_id":"cebpf4jnsgd1na2vs0mg"},{"bike_id":"e5b4b90d-e268-4de2-98f4-f6d0513f8801","system_id":"levelo_inurba_marseille","lat":43.26551,"lon":5.422,"is_reserved":false,"is_disabled":false,"rental_uris":{"android":"levelo://app?vid=e5b4b90d-e268-4de2-98f4-f6d0513f8801","ios":"levelo://app?vid=e5b4b90d-e268-4de2-98f4-f6d0513f8801"},"vehicle_type_id":"4","last_reported":1745874490,"current_range_meters":10800,"station_id":"","pricing_plan_id":"cebpf4jnsgd1na2vs0mg"},{"bike_id":"8181d28f-5328-4613-8382-4ac501ef0ce3","system_id":"levelo_inurba_marseille","lat":43.31532,"lon":5.38922,"is_reserved":false,"is_disabled":false,"rental_uris":{"android":"levelo://app?vid=8181d28f-5328-4613-8382-4ac501ef0ce3","ios":"levelo://app?vid=8181d28f-5328-4613-8382-4ac501ef0ce3"},"vehicle_type_id":"4","last_reported":1745874490,"current_range_meters":10800,"station_id":"","pricing_plan_id":"cebpf4jnsgd1na2vs0mg"},{"bike_id":"f8527f98-9dba-4767-9c49-2ee5632fd2af","system_id":"levelo_inurba_marseille","lat":43.2783,"lon":5.40731,"is_reserved":false,"is_disabled":true,"rental_uris":{"android":"levelo://app?vid=f8527f98-9dba-4767-9c49-2ee5632fd2af","ios":"levelo://app?vid=f8527f98-9dba-4767-9c49-2ee5632fd2af"},"vehicle_type_id":"4","last_reported":1745874490,"current_range_meters":11200,"station_id":"ce4bhnh2rcd13ifvqgtg","pricing_plan_id":"cebpf4jnsgd1na2vs0mg"},{"bike_id":"57e4b7ec-8a10-4450-a9ed-dcc98d9c2b08","system_id":"levelo_inurba_marseille","lat":43.31489,"lon":5.37297,"is_reserved":false,"is_disabled":false,"rental_uris":{"android":"levelo://app?vid=57e4b7ec-8a10-4450-a9ed-dcc98d9c2b08","ios":"levelo://app?vid=57e4b7ec-8a10-4450-a9ed-dcc98d9c2b08"},"vehicle_type_id":"4","last_reported":1745874490,"current_range_meters":11200,"station_id":"ce4bgt12rcd13ifvqcd0","pricing_plan_id":"cebpf4jnsgd1na2vs0mg"},{"bike_id":"3566469e-5adf-4ae7-9fad-25ede3e08c1b","system_id":"levelo_inurba_marseille","lat":43.29254,"lon":5.38444,"is_reserved":false,"is_disabled":true,"rental_uris":{"android":"levelo://app?vid=3566469e-5adf-4ae7-9fad-25ede3e08c1b","ios":"levelo://app?vid=3566469e-5adf-4ae7-9fad-25ede3e08c1b"},"vehicle_type_id":"4","last_reported":1745874490,"current_range_meters":11200,"station_id":"ce4bh692rcd13ifvqea0","pricing_plan_id":"cebpf4jnsgd1na2vs0mg"},{"bike_id":"ec39f74a-f9d7-49fa-b961-97420ac55e71","system_id":"levelo_inurba_marseille","lat":43.26954,"lon":5.40279,"is_reserved":false,"is_disabled":false,"rental_uris":{"android":"levelo://app?vid=ec39f74a-f9d7-49fa-b961-97420ac55e71","ios":"levelo://app?vid=ec39f74a-f9d7-49fa-b961-97420ac55e71"},"vehicle_type_id":"4","last_reported":1745874490,"current_range_meters":11200,"station_id":"cjm6bp8fraef2m0cb0m0","pricing_plan_id":"cebpf4jnsgd1na2vs0mg"},{"bike_id":"86c0598b-4818-471f-9a8b-081ecdc96572","system_id":"levelo_inurba_marseille","lat":43.25584,"lon":5.38216,"is_reserved":false,"is_disabled":false,"rental_uris":{"android":"levelo://app?vid=86c0598b-4818-471f-9a8b-081ecdc96572","ios":"levelo://app?vid=86c0598b-4818-471f-9a8b-081ecdc96572"},"vehicle_type_id":"4","last_reported":1745874490,"current_range_meters":11600,"station_id":"ce4bhih2rcd13ifvqfs0","pricing_plan_id":"cebpf4jnsgd1na2vs0mg"},{"bike_id":"dacbba50-691c-4c1b-8e2b-35e4dc6754f9","system_id":"levelo_inurba_marseille","lat":43.23966,"lon":5.36647,"is_reserved":false,"is_disabled":false,"rental_uris":{"android":"levelo://app?vid=dacbba50-691c-4c1b-8e2b-35e4dc6754f9","ios":"levelo://app?vid=dacbba50-691c-4c1b-8e2b-35e4dc6754f9"},"vehicle_type_id":"4","last_reported":1745874490,"current_range_meters":11600,"station_id":"ce4bhi12rcd13ifvqfp0","pricing_plan_id":"cebpf4jnsgd1na2vs0mg"},{"bike_id":"4a059a2d-b3a6-4e0b-9fd3-b714abc8d3bb","system_id":"levelo_inurba_marseille","lat":43.32001,"lon":5.38148,"is_reserved":false,"is_disabled":true,"rental_uris":{"android":"levelo://app?vid=4a059a2d-b3a6-4e0b-9fd3-b714abc8d3bb","ios":"levelo://app?vid=4a059a2d-b3a6-4e0b-9fd3-b714abc8d3bb"},"vehicle_type_id":"4","last_reported":1745874490,"current_range_meters":11600,"station_id":"ce4bhr12rcd13ifvqhpg","pricing_plan_id":"cebpf4jnsgd1na2vs0mg"},{"bike_id":"ab4612c3-85f5-4cb4-9ce2-46373d9c1c69","system_id":"levelo_inurba_marseille","lat":43.25802,"lon":5.38583,"is_reserved":false,"is_disabled":false,"rental_uris":{"android":"levelo://app?vid=ab4612c3-85f5-4cb4-9ce2-46373d9c1c69","ios":"levelo://app?vid=ab4612c3-85f5-4cb4-9ce2-46373d9c1c69"},"vehicle_type_id":"4","last_reported":1745874490,"current_range_meters":12000,"station_id":"","pricing_plan_id":"cebpf4jnsgd1na2vs0mg"},{"bike_id":"f8187a5d-eb57-43e4-9dc2-5220ef6e32d4","system_id":"levelo_inurba_marseille","lat":43.255954,"lon":5.376717,"is_reserved":false,"is_disabled":false,"rental_uris":{"android":"levelo://app?vid=f8187a5d-eb57-43e4-9dc2-5220ef6e32d4","ios":"levelo://app?vid=f8187a5d-eb57-43e4-9dc2-5220ef6e32d4"},"vehicle_type_id":"4","last_reported":1745874490,"current_range_meters":12000,"station_id":"ce4bhh12rcd13ifvqff0","pricing_plan_id":"cebpf4jnsgd1na2vs0mg"},{"bike_id":"6242f143-06d6-4fad-bae2-f8138a179039","system_id":"levelo_inurba_marseille","lat":43.26232,"lon":5.40444,"is_reserved":false,"is_disabled":false,"rental_uris":{"android":"levelo://app?vid=6242f143-06d6-4fad-bae2-f8138a179039","ios":"levelo://app?vid=6242f143-06d6-4fad-bae2-f8138a179039"},"vehicle_type_id":"4","last_reported":1745874490,"current_range_meters":12400,"station_id":"ce4bhmh2rcd13ifvqgmg","pricing_plan_id":"cebpf4jnsgd1na2vs0mg"},{"bike_id":"ab34ce5a-9d3e-4244-90fd-b5d391ac41a2","system_id":"levelo_inurba_marseille","lat":43.29721,"lon":5.37688,"is_reserved":false,"is_disabled":false,"rental_uris":{"android":"levelo://app?vid=ab34ce5a-9d3e-4244-90fd-b5d391ac41a2","ios":"levelo://app?vid=ab34ce5a-9d3e-4244-90fd-b5d391ac41a2"},"vehicle_type_id":"4","last_reported":1745874490,"current_range_meters":12400,"station_id":"ce4bgkh2rcd13ifvqbl0","pricing_plan_id":"cebpf4jnsgd1na2vs0mg"},{"bike_id":"a6c80b0c-536c-4a45-884f-2e1d125500ab","system_id":"levelo_inurba_marseille","lat":43.2251,"lon":5.34783,"is_reserved":false,"is_disabled":false,"rental_uris":{"android":"levelo://app?vid=a6c80b0c-536c-4a45-884f-2e1d125500ab","ios":"levelo://app?vid=a6c80b0c-536c-4a45-884f-2e1d125500ab"},"vehicle_type_id":"4","last_reported":1745874490,"current_range_meters":12400,"station_id":"st_cvj5dfep6f1abm77gieg","pricing_plan_id":"cebpf4jnsgd1na2vs0mg"},{"bike_id":"1155147c-a8e1-4f2a-8943-091931a011bf","system_id":"levelo_inurba_marseille","lat":43.30144,"lon":5.3742,"is_reserved":false,"is_disabled":false,"rental_uris":{"android":"levelo://app?vid=1155147c-a8e1-4f2a-8943-091931a011bf","ios":"levelo://app?vid=1155147c-a8e1-4f2a-8943-091931a011bf"},"vehicle_type_id":"4","last_reported":1745874490,"current_range_meters":12400,"station_id":"ce4bgs92rcd13ifvqcc0","pricing_plan_id":"cebpf4jnsgd1na2vs0mg"},{"bike_id":"a273dd95-99e2-4bb8-bee8-19cb9b13f516","system_id":"levelo_inurba_marseille","lat":43.299012,"lon":5.436609,"is_reserved":false,"is_disabled":false,"rental_uris":{"android":"levelo://app?vid=a273dd95-99e2-4bb8-bee8-19cb9b13f516","ios":"levelo://app?vid=a273dd95-99e2-4bb8-bee8-19cb9b13f516"},"vehicle_type_id":"4","last_reported":1745874490,"current_range_meters":12400,"station_id":"ce4bhpp2rcd13ifvqhfg","pricing_plan_id":"cebpf4jnsgd1na2vs0mg"},{"bike_id":"0a7d9f2a-2dc1-43dc-a207-ca4e022edfce","system_id":"levelo_inurba_marseille","lat":43.30609,"lon":5.37226,"is_reserved":false,"is_disabled":false,"rental_uris":{"android":"levelo://app?vid=0a7d9f2a-2dc1-43dc-a207-ca4e022edfce","ios":"levelo://app?vid=0a7d9f2a-2dc1-43dc-a207-ca4e022edfce"},"vehicle_type_id":"4","last_reported":1745874490,"current_range_meters":12800,"station_id":"ce4bgqh2rcd13ifvqc4g","pricing_plan_id":"cebpf4jnsgd1na2vs0mg"},{"bike_id":"6b88ae52-4470-4609-9540-2ec7e9358c2c","system_id":"levelo_inurba_marseille","lat":43.239625,"lon":5.366356,"is_reserved":false,"is_disabled":false,"rental_uris":{"android":"levelo://app?vid=6b88ae52-4470-4609-9540-2ec7e9358c2c","ios":"levelo://app?vid=6b88ae52-4470-4609-9540-2ec7e9358c2c"},"vehicle_type_id":"4","last_reported":1745874490,"current_range_meters":13600,"station_id":"ce4bhi12rcd13ifvqfp0","pricing_plan_id":"cebpf4jnsgd1na2vs0mg"},{"bike_id":"559cfe37-ba89-4581-ae44-d7c1edd69128","system_id":"levelo_inurba_marseille","lat":43.29934,"lon":5.36543,"is_reserved":false,"is_disabled":false,"rental_uris":{"android":"levelo://app?vid=559cfe37-ba89-4581-ae44-d7c1edd69128","ios":"levelo://app?vid=559cfe37-ba89-4581-ae44-d7c1edd69128"},"vehicle_type_id":"4","last_reported":1745874490,"current_range_meters":13600,"station_id":"ce4bgm92rcd13ifvqbr0","pricing_plan_id":"cebpf4jnsgd1na2vs0mg"},{"bike_id":"b3da7448-854a-4cff-86cc-386dbf40cc30","system_id":"levelo_inurba_marseille","lat":43.31257,"lon":5.38133,"is_reserved":false,"is_disabled":false,"rental_uris":{"android":"levelo://app?vid=b3da7448-854a-4cff-86cc-386dbf40cc30","ios":"levelo://app?vid=b3da7448-854a-4cff-86cc-386dbf40cc30"},"vehicle_type_id":"4","last_reported":1745874490,"current_range_meters":13600,"station_id":"","pricing_plan_id":"cebpf4jnsgd1na2vs0mg"},{"bike_id":"f7de7479-45c0-4c25-bdd1-a2c17c0f8b8f","system_id":"levelo_inurba_marseille","lat":43.23961,"lon":5.36646,"is_reserved":false,"is_disabled":false,"rental_uris":{"android":"levelo://app?vid=f7de7479-45c0-4c25-bdd1-a2c17c0f8b8f","ios":"levelo://app?vid=f7de7479-45c0-4c25-bdd1-a2c17c0f8b8f"},"vehicle_type_id":"4","last_reported":1745874490,"current_range_meters":14000,"station_id":"ce4bhi12rcd13ifvqfp0","pricing_plan_id":"cebpf4jnsgd1na2vs0mg"},{"bike_id":"e37afa54-f75c-40a9-86cb-42acbd20d01f","system_id":"levelo_inurba_marseille","lat":43.27176,"lon":5.40994,"is_reserved":false,"is_disabled":false,"rental_uris":{"android":"levelo://app?vid=e37afa54-f75c-40a9-86cb-42acbd20d01f","ios":"levelo://app?vid=e37afa54-f75c-40a9-86cb-42acbd20d01f"},"vehicle_type_id":"4","last_reported":1745874490,"current_range_meters":14000,"station_id":"ce4bhl12rcd13ifvqgf0","pricing_plan_id":"cebpf4jnsgd1na2vs0mg"},{"bike_id":"a17dfbc6-c24a-4f6f-a28a-8c7675d89f62","system_id":"levelo_inurba_marseille","lat":43.30397,"lon":5.41312,"is_reserved":false,"is_disabled":true,"rental_uris":{"android":"levelo://app?vid=a17dfbc6-c24a-4f6f-a28a-8c7675d89f62","ios":"levelo://app?vid=a17dfbc6-c24a-4f6f-a28a-8c7675d89f62"},"vehicle_type_id":"4","last_reported":1745874490,"current_range_meters":14000,"station_id":"ce4bhop2rcd13ifvqh8g","pricing_plan_id":"cebpf4jnsgd1na2vs0mg"},{"bike_id":"37ac8e50-a785-480b-bfe4-6b168dc177ba","system_id":"levelo_inurba_marseille","lat":43.30097,"lon":5.39081,"is_reserved":false,"is_disabled":false,"rental_uris":{"android":"levelo://app?vid=37ac8e50-a785-480b-bfe4-6b168dc177ba","ios":"levelo://app?vid=37ac8e50-a785-480b-bfe4-6b168dc177ba"},"vehicle_type_id":"4","last_reported":1745874490,"current_range_meters":14000,"station_id":"ce4bh192rcd13ifvqdb0","pricing_plan_id":"cebpf4jnsgd1na2vs0mg"},{"bike_id":"313fdb5f-ab75-41c5-a4a7-40777f290241","system_id":"levelo_inurba_marseille","lat":43.2792,"lon":5.395718,"is_reserved":false,"is_disabled":false,"rental_uris":{"android":"levelo://app?vid=313fdb5f-ab75-41c5-a4a7-40777f290241","ios":"levelo://app?vid=313fdb5f-ab75-41c5-a4a7-40777f290241"},"vehicle_type_id":"4","last_reported":1745874490,"current_range_meters":14400,"station_id":"ce4bhf92rcd13ifvqf40","pricing_plan_id":"cebpf4jnsgd1na2vs0mg"},{"bike_id":"64b4a0f6-eb4e-4a58-a49c-c2fdffc72cda","system_id":"levelo_inurba_marseille","lat":43.27574,"lon":5.38413,"is_reserved":false,"is_disabled":true,"rental_uris":{"android":"levelo://app?vid=64b4a0f6-eb4e-4a58-a49c-c2fdffc72cda","ios":"levelo://app?vid=64b4a0f6-eb4e-4a58-a49c-c2fdffc72cda"},"vehicle_type_id":"4","last_reported":1745874490,"current_range_meters":14400,"station_id":"ce4bhh92rcd13ifvqfi0","pricing_plan_id":"cebpf4jnsgd1na2vs0mg"},{"bike_id":"b3d7cca2-7d35-4030-8d40-4a8257616573","system_id":"levelo_inurba_marseille","lat":43.22504,"lon":5.34779,"is_reserved":false,"is_disabled":false,"rental_uris":{"android":"levelo://app?vid=b3d7cca2-7d35-4030-8d40-4a8257616573","ios":"levelo://app?vid=b3d7cca2-7d35-4030-8d40-4a8257616573"},"vehicle_type_id":"4","last_reported":1745874490,"current_range_meters":14400,"station_id":"st_cvj5dfep6f1abm77gieg","pricing_plan_id":"cebpf4jnsgd1na2vs0mg"},{"bike_id":"f17eefd8-4085-44e2-8372-e6cdaab53446","system_id":"levelo_inurba_marseille","lat":43.30263,"lon":5.40078,"is_reserved":false,"is_disabled":false,"rental_uris":{"android":"levelo://app?vid=f17eefd8-4085-44e2-8372-e6cdaab53446","ios":"levelo://app?vid=f17eefd8-4085-44e2-8372-e6cdaab53446"},"vehicle_type_id":"4","last_reported":1745874490,"current_range_meters":14400,"station_id":"ce4bgvh2rcd13ifvqcs0","pricing_plan_id":"cebpf4jnsgd1na2vs0mg"},{"bike_id":"0bf31944-3a3a-4d13-8fda-6b0bfb47c337","system_id":"levelo_inurba_marseille","lat":43.27829,"lon":5.39203,"is_reserved":false,"is_disabled":false,"rental_uris":{"android":"levelo://app?vid=0bf31944-3a3a-4d13-8fda-6b0bfb47c337","ios":"levelo://app?vid=0bf31944-3a3a-4d13-8fda-6b0bfb47c337"},"vehicle_type_id":"4","last_reported":1745874490,"current_range_meters":14000,"station_id":"ce4bhjp2rcd13ifvqga0","pricing_plan_id":"cebpf4jnsgd1na2vs0mg"},{"bike_id":"12ff57d2-9141-4bd6-a477-076088ce0d74","system_id":"levelo_inurba_marseille","lat":43.23194,"lon":5.39976,"is_reserved":false,"is_disabled":false,"rental_uris":{"android":"levelo://app?vid=12ff57d2-9141-4bd6-a477-076088ce0d74","ios":"levelo://app?vid=12ff57d2-9141-4bd6-a477-076088ce0d74"},"vehicle_type_id":"4","last_reported":1745874490,"current_range_meters":14400,"station_id":"ce4bhn12rcd13ifvqgqg","pricing_plan_id":"cebpf4jnsgd1na2vs0mg"},{"bike_id":"28894e81-ede6-4351-84e3-e6b48081a345","system_id":"levelo_inurba_marseille","lat":43.33465,"lon":5.400537,"is_reserved":false,"is_disabled":false,"rental_uris":{"android":"levelo://app?vid=28894e81-ede6-4351-84e3-e6b48081a345","ios":"levelo://app?vid=28894e81-ede6-4351-84e3-e6b48081a345"},"vehicle_type_id":"4","last_reported":1745874490,"current_range_meters":14800,"station_id":"","pricing_plan_id":"cebpf4jnsgd1na2vs0mg"},{"bike_id":"d58e03bb-19b9-469a-bcd7-0c3ce91d40b5","system_id":"levelo_inurba_marseille","lat":43.213436,"lon":5.349632,"is_reserved":false,"is_disabled":false,"rental_uris":{"android":"levelo://app?vid=d58e03bb-19b9-469a-bcd7-0c3ce91d40b5","ios":"levelo://app?vid=d58e03bb-19b9-469a-bcd7-0c3ce91d40b5"},"vehicle_type_id":"4","last_reported":1745874490,"current_range_meters":14800,"station_id":"","pricing_plan_id":"cebpf4jnsgd1na2vs0mg"},{"bike_id":"923f8501-7d40-44db-85bf-a51b2ea797ac","system_id":"levelo_inurba_marseille","lat":43.26934,"lon":5.40286,"is_reserved":false,"is_disabled":true,"rental_uris":{"android":"levelo://app?vid=923f8501-7d40-44db-85bf-a51b2ea797ac","ios":"levelo://app?vid=923f8501-7d40-44db-85bf-a51b2ea797ac"},"vehicle_type_id":"4","last_reported":1745874490,"current_range_meters":14800,"station_id":"cjm6bp8fraef2m0cb0m0","pricing_plan_id":"cebpf4jnsgd1na2vs0mg"},{"bike_id":"a329363e-3dfb-47de-b820-c999339eec64","system_id":"levelo_inurba_marseille","lat":43.28572,"lon":5.39491,"is_reserved":false,"is_disabled":false,"rental_uris":{"android":"levelo://app?vid=a329363e-3dfb-47de-b820-c999339eec64","ios":"levelo://app?vid=a329363e-3dfb-47de-b820-c999339eec64"},"vehicle_type_id":"4","last_reported":1745874490,"current_range_meters":14400,"station_id":"ce4bh292rcd13ifvqdg0","pricing_plan_id":"cebpf4jnsgd1na2vs0mg"},{"bike_id":"a958bd06-9a50-497e-aef9-55e910bf12d1","system_id":"levelo_inurba_marseille","lat":43.299201,"lon":5.381341,"is_reserved":false,"is_disabled":true,"rental_uris":{"android":"levelo://app?vid=a958bd06-9a50-497e-aef9-55e910bf12d1","ios":"levelo://app?vid=a958bd06-9a50-497e-aef9-55e910bf12d1"},"vehicle_type_id":"4","last_reported":1745874490,"current_range_meters":15200,"station_id":"ce4bgj12rcd13ifvqbc0","pricing_plan_id":"cebpf4jnsgd1na2vs0mg"},{"bike_id":"664362af-2469-4bb3-a41d-adba18172c74","system_id":"levelo_inurba_marseille","lat":43.2902,"lon":5.38633,"is_reserved":false,"is_disabled":false,"rental_uris":{"android":"levelo://app?vid=664362af-2469-4bb3-a41d-adba18172c74","ios":"levelo://app?vid=664362af-2469-4bb3-a41d-adba18172c74"},"vehicle_type_id":"4","last_reported":1745874490,"current_range_meters":15200,"station_id":"ce4bh4p2rcd13ifvqe0g","pricing_plan_id":"cebpf4jnsgd1na2vs0mg"},{"bike_id":"fc39ec7e-6437-414a-ab52-86c81dd4e2df","system_id":"levelo_inurba_marseille","lat":43.34698,"lon":5.34698,"is_reserved":false,"is_disabled":false,"rental_uris":{"android":"levelo://app?vid=fc39ec7e-6437-414a-ab52-86c81dd4e2df","ios":"levelo://app?vid=fc39ec7e-6437-414a-ab52-86c81dd4e2df"},"vehicle_type_id":"4","last_reported":1745874490,"current_range_meters":15200,"station_id":"","pricing_plan_id":"cebpf4jnsgd1na2vs0mg"},{"bike_id":"f7037006-664c-4390-aa8b-f52be4bd36be","system_id":"levelo_inurba_marseille","lat":43.28157,"lon":5.42638,"is_reserved":false,"is_disabled":false,"rental_uris":{"android":"levelo://app?vid=f7037006-664c-4390-aa8b-f52be4bd36be","ios":"levelo://app?vid=f7037006-664c-4390-aa8b-f52be4bd36be"},"vehicle_type_id":"4","last_reported":1745874490,"current_range_meters":14800,"station_id":"ce4bhnh2rcd13ifvqgug","pricing_plan_id":"cebpf4jnsgd1na2vs0mg"},{"bike_id":"49f3cb50-67d9-4699-9f1c-2a0578b9879f","system_id":"levelo_inurba_marseille","lat":43.29021,"lon":5.38638,"is_reserved":false,"is_disabled":false,"rental_uris":{"android":"levelo://app?vid=49f3cb50-67d9-4699-9f1c-2a0578b9879f","ios":"levelo://app?vid=49f3cb50-67d9-4699-9f1c-2a0578b9879f"},"vehicle_type_id":"4","last_reported":1745874490,"current_range_meters":15200,"station_id":"ce4bh4p2rcd13ifvqe0g","pricing_plan_id":"cebpf4jnsgd1na2vs0mg"},{"bike_id":"4d93303b-cd52-45c6-9abc-0efeb5a058c6","system_id":"levelo_inurba_marseille","lat":43.29907,"lon":5.38135,"is_reserved":false,"is_disabled":false,"rental_uris":{"android":"levelo://app?vid=4d93303b-cd52-45c6-9abc-0efeb5a058c6","ios":"levelo://app?vid=4d93303b-cd52-45c6-9abc-0efeb5a058c6"},"vehicle_type_id":"4","last_reported":1745874490,"current_range_meters":16000,"station_id":"ce4bgj12rcd13ifvqbc0","pricing_plan_id":"cebpf4jnsgd1na2vs0mg"},{"bike_id":"b7ca510d-1171-4ecc-996c-224d46372e70","system_id":"levelo_inurba_marseille","lat":43.32361,"lon":5.38885,"is_reserved":false,"is_disabled":false,"rental_uris":{"android":"levelo://app?vid=b7ca510d-1171-4ecc-996c-224d46372e70","ios":"levelo://app?vid=b7ca510d-1171-4ecc-996c-224d46372e70"},"vehicle_type_id":"4","last_reported":1745874490,"current_range_meters":16000,"station_id":"ce4bhqp2rcd13ifvqhog","pricing_plan_id":"cebpf4jnsgd1na2vs0mg"},{"bike_id":"a640b5aa-9396-4827-8f57-dd7ffd2f1a84","system_id":"levelo_inurba_marseille","lat":43.29795,"lon":5.38118,"is_reserved":false,"is_disabled":true,"rental_uris":{"android":"levelo://app?vid=a640b5aa-9396-4827-8f57-dd7ffd2f1a84","ios":"levelo://app?vid=a640b5aa-9396-4827-8f57-dd7ffd2f1a84"},"vehicle_type_id":"4","last_reported":1745874490,"current_range_meters":16000,"station_id":"ce4bgip2rcd13ifvqbb0","pricing_plan_id":"cebpf4jnsgd1na2vs0mg"},{"bike_id":"5d12ee4a-52f1-4f1a-af38-ad7a19a5a489","system_id":"levelo_inurba_marseille","lat":43.30563,"lon":5.36542,"is_reserved":false,"is_disabled":true,"rental_uris":{"android":"levelo://app?vid=5d12ee4a-52f1-4f1a-af38-ad7a19a5a489","ios":"levelo://app?vid=5d12ee4a-52f1-4f1a-af38-ad7a19a5a489"},"vehicle_type_id":"4","last_reported":1745874490,"current_range_meters":16000,"station_id":"ce4bgs12rcd13ifvqcag","pricing_plan_id":"cebpf4jnsgd1na2vs0mg"},{"bike_id":"6197460b-437c-4109-a8a9-f5f492aa94fd","system_id":"levelo_inurba_marseille","lat":43.30787,"lon":5.37652,"is_reserved":false,"is_disabled":false,"rental_uris":{"android":"levelo://app?vid=6197460b-437c-4109-a8a9-f5f492aa94fd","ios":"levelo://app?vid=6197460b-437c-4109-a8a9-f5f492aa94fd"},"vehicle_type_id":"4","last_reported":1745874490,"current_range_meters":16000,"station_id":"ce4bgv92rcd13ifvqcq0","pricing_plan_id":"cebpf4jnsgd1na2vs0mg"},{"bike_id":"1c71dd62-5c1a-42e0-8da7-81eceebfb73e","system_id":"levelo_inurba_marseille","lat":43.211895,"lon":5.350777,"is_reserved":false,"is_disabled":false,"rental_uris":{"android":"levelo://app?vid=1c71dd62-5c1a-42e0-8da7-81eceebfb73e","ios":"levelo://app?vid=1c71dd62-5c1a-42e0-8da7-81eceebfb73e"},"vehicle_type_id":"4","last_reported":1745874490,"current_range_meters":16000,"station_id":"st_cvj6sg6p6f1abm77japg","pricing_plan_id":"cebpf4jnsgd1na2vs0mg"},{"bike_id":"d3c96024-51de-4bd6-bef7-7b8a21a42f98","system_id":"levelo_inurba_marseille","lat":43.313324,"lon":5.396903,"is_reserved":false,"is_disabled":false,"rental_uris":{"android":"levelo://app?vid=d3c96024-51de-4bd6-bef7-7b8a21a42f98","ios":"levelo://app?vid=d3c96024-51de-4bd6-bef7-7b8a21a42f98"},"vehicle_type_id":"4","last_reported":1745874490,"current_range_meters":16400,"station_id":"ce4bgvp2rcd13ifvqcu0","pricing_plan_id":"cebpf4jnsgd1na2vs0mg"},{"bike_id":"c561163e-a003-49a9-bf4f-8ad31b0bbaac","system_id":"levelo_inurba_marseille","lat":43.257157,"lon":5.418417,"is_reserved":false,"is_disabled":false,"rental_uris":{"android":"levelo://app?vid=c561163e-a003-49a9-bf4f-8ad31b0bbaac","ios":"levelo://app?vid=c561163e-a003-49a9-bf4f-8ad31b0bbaac"},"vehicle_type_id":"4","last_reported":1745874490,"current_range_meters":16400,"station_id":"","pricing_plan_id":"cebpf4jnsgd1na2vs0mg"},{"bike_id":"53c5c8dd-fe15-4077-b48a-b489ee28763b","system_id":"levelo_inurba_marseille","lat":43.28411,"lon":5.37515,"is_reserved":false,"is_disabled":false,"rental_uris":{"android":"levelo://app?vid=53c5c8dd-fe15-4077-b48a-b489ee28763b","ios":"levelo://app?vid=53c5c8dd-fe15-4077-b48a-b489ee28763b"},"vehicle_type_id":"4","last_reported":1745874490,"current_range_meters":16400,"station_id":"ce4bh412rcd13ifvqds0","pricing_plan_id":"cebpf4jnsgd1na2vs0mg"},{"bike_id":"53a31bf6-20bd-4a64-b0ca-3d4e65bc974c","system_id":"levelo_inurba_marseille","lat":43.2836,"lon":5.381,"is_reserved":false,"is_disabled":false,"rental_uris":{"android":"levelo://app?vid=53a31bf6-20bd-4a64-b0ca-3d4e65bc974c","ios":"levelo://app?vid=53a31bf6-20bd-4a64-b0ca-3d4e65bc974c"},"vehicle_type_id":"4","last_reported":1745874490,"current_range_meters":16400,"station_id":"ce4bh412rcd13ifvqdr0","pricing_plan_id":"cebpf4jnsgd1na2vs0mg"},{"bike_id":"d62ddf27-5b02-45fd-bd0c-48edab448e0e","system_id":"levelo_inurba_marseille","lat":43.32355,"lon":5.38886,"is_reserved":false,"is_disabled":false,"rental_uris":{"android":"levelo://app?vid=d62ddf27-5b02-45fd-bd0c-48edab448e0e","ios":"levelo://app?vid=d62ddf27-5b02-45fd-bd0c-48edab448e0e"},"vehicle_type_id":"4","last_reported":1745874490,"current_range_meters":16400,"station_id":"ce4bhqp2rcd13ifvqhog","pricing_plan_id":"cebpf4jnsgd1na2vs0mg"},{"bike_id":"e99954bd-cceb-47d9-b27f-90bb9c2dab04","system_id":"levelo_inurba_marseille","lat":43.29515,"lon":5.39402,"is_reserved":false,"is_disabled":false,"rental_uris":{"android":"levelo://app?vid=e99954bd-cceb-47d9-b27f-90bb9c2dab04","ios":"levelo://app?vid=e99954bd-cceb-47d9-b27f-90bb9c2dab04"},"vehicle_type_id":"4","last_reported":1745874490,"current_range_meters":16400,"station_id":"ce4bh292rcd13ifvqdf0","pricing_plan_id":"cebpf4jnsgd1na2vs0mg"},{"bike_id":"0152c1f9-7fe0-4ca8-baa7-28760592a88b","system_id":"levelo_inurba_marseille","lat":43.25101,"lon":5.40332,"is_reserved":false,"is_disabled":false,"rental_uris":{"android":"levelo://app?vid=0152c1f9-7fe0-4ca8-baa7-28760592a88b","ios":"levelo://app?vid=0152c1f9-7fe0-4ca8-baa7-28760592a88b"},"vehicle_type_id":"4","last_reported":1745874490,"current_range_meters":16800,"station_id":"ce4bhlh2rcd13ifvqgig","pricing_plan_id":"cebpf4jnsgd1na2vs0mg"},{"bike_id":"39f18c8b-df43-4308-a98e-40efc694b971","system_id":"levelo_inurba_marseille","lat":43.24085,"lon":5.37751,"is_reserved":false,"is_disabled":false,"rental_uris":{"android":"levelo://app?vid=39f18c8b-df43-4308-a98e-40efc694b971","ios":"levelo://app?vid=39f18c8b-df43-4308-a98e-40efc694b971"},"vehicle_type_id":"4","last_reported":1745874490,"current_range_meters":16400,"station_id":"ce4bhnp2rcd13ifvqgvg","pricing_plan_id":"cebpf4jnsgd1na2vs0mg"},{"bike_id":"90ec756e-7d75-44ae-9837-bcc6f8c453df","system_id":"levelo_inurba_marseille","lat":43.23198,"lon":5.35554,"is_reserved":false,"is_disabled":false,"rental_uris":{"android":"levelo://app?vid=90ec756e-7d75-44ae-9837-bcc6f8c453df","ios":"levelo://app?vid=90ec756e-7d75-44ae-9837-bcc6f8c453df"},"vehicle_type_id":"4","last_reported":1745874490,"current_range_meters":16400,"station_id":"ce4bhu92rcd13ifvqi70","pricing_plan_id":"cebpf4jnsgd1na2vs0mg"},{"bike_id":"888538ce-4dc3-4f2e-8404-8ea4d633e1aa","system_id":"levelo_inurba_marseille","lat":43.26181,"lon":5.37446,"is_reserved":false,"is_disabled":true,"rental_uris":{"android":"levelo://app?vid=888538ce-4dc3-4f2e-8404-8ea4d633e1aa","ios":"levelo://app?vid=888538ce-4dc3-4f2e-8404-8ea4d633e1aa"},"vehicle_type_id":"4","last_reported":1745874490,"current_range_meters":16400,"station_id":"ce4bhgp2rcd13ifvqfc0","pricing_plan_id":"cebpf4jnsgd1na2vs0mg"},{"bike_id":"756382b5-ff4f-4389-b460-2667f1020a0b","system_id":"levelo_inurba_marseille","lat":43.29793,"lon":5.40401,"is_reserved":false,"is_disabled":false,"rental_uris":{"android":"levelo://app?vid=756382b5-ff4f-4389-b460-2667f1020a0b","ios":"levelo://app?vid=756382b5-ff4f-4389-b460-2667f1020a0b"},"vehicle_type_id":"4","last_reported":1745874490,"current_range_meters":16400,"station_id":"ce4bh112rcd13ifvqd90","pricing_plan_id":"cebpf4jnsgd1na2vs0mg"},{"bike_id":"266bdb5d-0985-42c5-8f74-ad95738fffc9","system_id":"levelo_inurba_marseille","lat":43.29199,"lon":5.39308,"is_reserved":false,"is_disabled":false,"rental_uris":{"android":"levelo://app?vid=266bdb5d-0985-42c5-8f74-ad95738fffc9","ios":"levelo://app?vid=266bdb5d-0985-42c5-8f74-ad95738fffc9"},"vehicle_type_id":"4","last_reported":1745874490,"current_range_meters":16800,"station_id":"ce4bh192rcd13ifvqdd0","pricing_plan_id":"cebpf4jnsgd1na2vs0mg"},{"bike_id":"489415b8-9254-45c1-b00c-e7554d56755c","system_id":"levelo_inurba_marseille","lat":43.245338,"lon":5.412114,"is_reserved":false,"is_disabled":false,"rental_uris":{"android":"levelo://app?vid=489415b8-9254-45c1-b00c-e7554d56755c","ios":"levelo://app?vid=489415b8-9254-45c1-b00c-e7554d56755c"},"vehicle_type_id":"4","last_reported":1745874490,"current_range_meters":16800,"station_id":"","pricing_plan_id":"cebpf4jnsgd1na2vs0mg"},{"bike_id":"d7179719-66f8-48f3-8013-d8cc9295cd89","system_id":"levelo_inurba_marseille","lat":43.27943,"lon":5.41047,"is_reserved":false,"is_disabled":false,"rental_uris":{"android":"levelo://app?vid=d7179719-66f8-48f3-8013-d8cc9295cd89","ios":"levelo://app?vid=d7179719-66f8-48f3-8013-d8cc9295cd89"},"vehicle_type_id":"4","last_reported":1745874490,"current_range_meters":16800,"station_id":"ce4bhnp2rcd13ifvqh0g","pricing_plan_id":"cebpf4jnsgd1na2vs0mg"},{"bike_id":"9366d0f7-d227-4995-badb-e85de9ed01d7","system_id":"levelo_inurba_marseille","lat":43.31881,"lon":5.37867,"is_reserved":false,"is_disabled":true,"rental_uris":{"android":"levelo://app?vid=9366d0f7-d227-4995-badb-e85de9ed01d7","ios":"levelo://app?vid=9366d0f7-d227-4995-badb-e85de9ed01d7"},"vehicle_type_id":"4","last_reported":1745874490,"current_range_meters":16800,"station_id":"","pricing_plan_id":"cebpf4jnsgd1na2vs0mg"},{"bike_id":"f0e3aec9-922a-4fa0-87ae-130851eefc1a","system_id":"levelo_inurba_marseille","lat":43.31283,"lon":5.40163,"is_reserved":false,"is_disabled":false,"rental_uris":{"android":"levelo://app?vid=f0e3aec9-922a-4fa0-87ae-130851eefc1a","ios":"levelo://app?vid=f0e3aec9-922a-4fa0-87ae-130851eefc1a"},"vehicle_type_id":"4","last_reported":1745874490,"current_range_meters":16800,"station_id":"ce4bh092rcd13ifvqd30","pricing_plan_id":"cebpf4jnsgd1na2vs0mg"},{"bike_id":"19577cbf-2a55-4ce1-9416-c81046bbac9f","system_id":"levelo_inurba_marseille","lat":43.3043,"lon":5.38899,"is_reserved":false,"is_disabled":false,"rental_uris":{"android":"levelo://app?vid=19577cbf-2a55-4ce1-9416-c81046bbac9f","ios":"levelo://app?vid=19577cbf-2a55-4ce1-9416-c81046bbac9f"},"vehicle_type_id":"4","last_reported":1745874490,"current_range_meters":16800,"station_id":"ce4bgk12rcd13ifvqbi0","pricing_plan_id":"cebpf4jnsgd1na2vs0mg"},{"bike_id":"9173922a-f107-41af-a094-25f7cf17a35b","system_id":"levelo_inurba_marseille","lat":43.24073,"lon":5.37765,"is_reserved":false,"is_disabled":true,"rental_uris":{"android":"levelo://app?vid=9173922a-f107-41af-a094-25f7cf17a35b","ios":"levelo://app?vid=9173922a-f107-41af-a094-25f7cf17a35b"},"vehicle_type_id":"4","last_reported":1745874490,"current_range_meters":16800,"station_id":"ce4bhnp2rcd13ifvqgvg","pricing_plan_id":"cebpf4jnsgd1na2vs0mg"},{"bike_id":"b228c03a-244c-4a66-90aa-d8e86b552f96","system_id":"levelo_inurba_marseille","lat":43.29193,"lon":5.39314,"is_reserved":false,"is_disabled":false,"rental_uris":{"android":"levelo://app?vid=b228c03a-244c-4a66-90aa-d8e86b552f96","ios":"levelo://app?vid=b228c03a-244c-4a66-90aa-d8e86b552f96"},"vehicle_type_id":"4","last_reported":1745874490,"current_range_meters":16800,"station_id":"ce4bh192rcd13ifvqdd0","pricing_plan_id":"cebpf4jnsgd1na2vs0mg"},{"bike_id":"70fbc956-14ce-4f94-8c06-1dcde704840a","system_id":"levelo_inurba_marseille","lat":43.27666,"lon":5.38897,"is_reserved":false,"is_disabled":true,"rental_uris":{"android":"levelo://app?vid=70fbc956-14ce-4f94-8c06-1dcde704840a","ios":"levelo://app?vid=70fbc956-14ce-4f94-8c06-1dcde704840a"},"vehicle_type_id":"4","last_reported":1745874490,"current_range_meters":17200,"station_id":"ce4bhi12rcd13ifvqfo0","pricing_plan_id":"cebpf4jnsgd1na2vs0mg"},{"bike_id":"d2478d29-7f8b-4529-9d66-2f6ab7b38342","system_id":"levelo_inurba_marseille","lat":43.23177,"lon":5.39992,"is_reserved":false,"is_disabled":false,"rental_uris":{"android":"levelo://app?vid=d2478d29-7f8b-4529-9d66-2f6ab7b38342","ios":"levelo://app?vid=d2478d29-7f8b-4529-9d66-2f6ab7b38342"},"vehicle_type_id":"4","last_reported":1745874490,"current_range_meters":16800,"station_id":"ce4bhn12rcd13ifvqgqg","pricing_plan_id":"cebpf4jnsgd1na2vs0mg"},{"bike_id":"8d7d861b-aae8-4bc8-8426-739cae3ce664","system_id":"levelo_inurba_marseille","lat":43.2794,"lon":5.41048,"is_reserved":false,"is_disabled":false,"rental_uris":{"android":"levelo://app?vid=8d7d861b-aae8-4bc8-8426-739cae3ce664","ios":"levelo://app?vid=8d7d861b-aae8-4bc8-8426-739cae3ce664"},"vehicle_type_id":"4","last_reported":1745874490,"current_range_meters":17200,"station_id":"ce4bhnp2rcd13ifvqh0g","pricing_plan_id":"cebpf4jnsgd1na2vs0mg"},{"bike_id":"2a9a4ab6-8999-4c68-bfd6-b1c3fd498f51","system_id":"levelo_inurba_marseille","lat":43.2957,"lon":5.39962,"is_reserved":false,"is_disabled":false,"rental_uris":{"android":"levelo://app?vid=2a9a4ab6-8999-4c68-bfd6-b1c3fd498f51","ios":"levelo://app?vid=2a9a4ab6-8999-4c68-bfd6-b1c3fd498f51"},"vehicle_type_id":"4","last_reported":1745874490,"current_range_meters":17600,"station_id":"ce4bh312rcd13ifvqdj0","pricing_plan_id":"cebpf4jnsgd1na2vs0mg"},{"bike_id":"d314eac0-6a53-48b5-940b-52b183db42eb","system_id":"levelo_inurba_marseille","lat":43.29871,"lon":5.39722,"is_reserved":false,"is_disabled":false,"rental_uris":{"android":"levelo://app?vid=d314eac0-6a53-48b5-940b-52b183db42eb","ios":"levelo://app?vid=d314eac0-6a53-48b5-940b-52b183db42eb"},"vehicle_type_id":"4","last_reported":1745874490,"current_range_meters":17200,"station_id":"ce4bh0h2rcd13ifvqd50","pricing_plan_id":"cebpf4jnsgd1na2vs0mg"},{"bike_id":"cfdbbfdc-3480-404d-908b-4db64a2559b4","system_id":"levelo_inurba_marseille","lat":43.25693,"lon":5.41155,"is_reserved":false,"is_disabled":false,"rental_uris":{"android":"levelo://app?vid=cfdbbfdc-3480-404d-908b-4db64a2559b4","ios":"levelo://app?vid=cfdbbfdc-3480-404d-908b-4db64a2559b4"},"vehicle_type_id":"4","last_reported":1745874490,"current_range_meters":17200,"station_id":"ce4bhkp2rcd13ifvqgd0","pricing_plan_id":"cebpf4jnsgd1na2vs0mg"},{"bike_id":"d26daaf4-8189-49f8-9987-0087992eef8b","system_id":"levelo_inurba_marseille","lat":43.30532,"lon":5.38425,"is_reserved":false,"is_disabled":false,"rental_uris":{"android":"levelo://app?vid=d26daaf4-8189-49f8-9987-0087992eef8b","ios":"levelo://app?vid=d26daaf4-8189-49f8-9987-0087992eef8b"},"vehicle_type_id":"4","last_reported":1745874490,"current_range_meters":17600,"station_id":"ce4bgg92rcd13ifvqb30","pricing_plan_id":"cebpf4jnsgd1na2vs0mg"},{"bike_id":"ab566342-f92c-435a-a238-04939b89345b","system_id":"levelo_inurba_marseille","lat":43.29584,"lon":5.38101,"is_reserved":false,"is_disabled":true,"rental_uris":{"android":"levelo://app?vid=ab566342-f92c-435a-a238-04939b89345b","ios":"levelo://app?vid=ab566342-f92c-435a-a238-04939b89345b"},"vehicle_type_id":"4","last_reported":1745874490,"current_range_meters":17600,"station_id":"ce4bgl12rcd13ifvqbo0","pricing_plan_id":"cebpf4jnsgd1na2vs0mg"},{"bike_id":"3adb71fe-2fe3-4319-8f90-0edb90e46515","system_id":"levelo_inurba_marseille","lat":43.29042,"lon":5.39965,"is_reserved":false,"is_disabled":false,"rental_uris":{"android":"levelo://app?vid=3adb71fe-2fe3-4319-8f90-0edb90e46515","ios":"levelo://app?vid=3adb71fe-2fe3-4319-8f90-0edb90e46515"},"vehicle_type_id":"4","last_reported":1745874490,"current_range_meters":17600,"station_id":"ce4bh392rcd13ifvqdm0","pricing_plan_id":"cebpf4jnsgd1na2vs0mg"},{"bike_id":"53354e29-f270-4266-8b36-4a975b0ffb6d","system_id":"levelo_inurba_marseille","lat":43.29568,"lon":5.39971,"is_reserved":false,"is_disabled":false,"rental_uris":{"android":"levelo://app?vid=53354e29-f270-4266-8b36-4a975b0ffb6d","ios":"levelo://app?vid=53354e29-f270-4266-8b36-4a975b0ffb6d"},"vehicle_type_id":"4","last_reported":1745874490,"current_range_meters":18000,"station_id":"ce4bh312rcd13ifvqdj0","pricing_plan_id":"cebpf4jnsgd1na2vs0mg"},{"bike_id":"01d01d6d-11e7-4e65-a9db-c5420cff0fe0","system_id":"levelo_inurba_marseille","lat":43.27612,"lon":5.36108,"is_reserved":false,"is_disabled":false,"rental_uris":{"android":"levelo://app?vid=01d01d6d-11e7-4e65-a9db-c5420cff0fe0","ios":"levelo://app?vid=01d01d6d-11e7-4e65-a9db-c5420cff0fe0"},"vehicle_type_id":"4","last_reported":1745874490,"current_range_meters":18000,"station_id":"ce4bgj92rcd13ifvqbe0","pricing_plan_id":"cebpf4jnsgd1na2vs0mg"},{"bike_id":"bdddaa28-2496-4a86-8126-f0d942937669","system_id":"levelo_inurba_marseille","lat":43.32127,"lon":5.36802,"is_reserved":false,"is_disabled":false,"rental_uris":{"android":"levelo://app?vid=bdddaa28-2496-4a86-8126-f0d942937669","ios":"levelo://app?vid=bdddaa28-2496-4a86-8126-f0d942937669"},"vehicle_type_id":"4","last_reported":1745874490,"current_range_meters":18000,"station_id":"ce4bhrh2rcd13ifvqhug","pricing_plan_id":"cebpf4jnsgd1na2vs0mg"},{"bike_id":"a439637d-dbae-491d-93f2-642ad200cd8c","system_id":"levelo_inurba_marseille","lat":43.28314,"lon":5.3888,"is_reserved":false,"is_disabled":false,"rental_uris":{"android":"levelo://app?vid=a439637d-dbae-491d-93f2-642ad200cd8c","ios":"levelo://app?vid=a439637d-dbae-491d-93f2-642ad200cd8c"},"vehicle_type_id":"4","last_reported":1745874490,"current_range_meters":18000,"station_id":"","pricing_plan_id":"cebpf4jnsgd1na2vs0mg"},{"bike_id":"d5bcaa38-e142-4c16-be8f-f84303a7c28a","system_id":"levelo_inurba_marseille","lat":43.27996,"lon":5.41661,"is_reserved":false,"is_disabled":true,"rental_uris":{"android":"levelo://app?vid=d5bcaa38-e142-4c16-be8f-f84303a7c28a","ios":"levelo://app?vid=d5bcaa38-e142-4c16-be8f-f84303a7c28a"},"vehicle_type_id":"4","last_reported":1745874490,"current_range_meters":18000,"station_id":"ce4bho12rcd13ifvqh1g","pricing_plan_id":"cebpf4jnsgd1na2vs0mg"},{"bike_id":"f8167289-e388-4e21-8da0-9a9b2ffe3b06","system_id":"levelo_inurba_marseille","lat":43.31274,"lon":5.40177,"is_reserved":false,"is_disabled":false,"rental_uris":{"android":"levelo://app?vid=f8167289-e388-4e21-8da0-9a9b2ffe3b06","ios":"levelo://app?vid=f8167289-e388-4e21-8da0-9a9b2ffe3b06"},"vehicle_type_id":"4","last_reported":1745874490,"current_range_meters":18000,"station_id":"ce4bh092rcd13ifvqd30","pricing_plan_id":"cebpf4jnsgd1na2vs0mg"},{"bike_id":"45deb0cd-fd01-439c-9171-622b8bb2c716","system_id":"levelo_inurba_marseille","lat":43.24993,"lon":5.38923,"is_reserved":false,"is_disabled":false,"rental_uris":{"android":"levelo://app?vid=45deb0cd-fd01-439c-9171-622b8bb2c716","ios":"levelo://app?vid=45deb0cd-fd01-439c-9171-622b8bb2c716"},"vehicle_type_id":"4","last_reported":1745874490,"current_range_meters":18000,"station_id":"ce4bhgp2rcd13ifvqfd0","pricing_plan_id":"cebpf4jnsgd1na2vs0mg"},{"bike_id":"182df13e-43ad-4986-8a2b-7cf25f397309","system_id":"levelo_inurba_marseille","lat":43.29533,"lon":5.38552,"is_reserved":false,"is_disabled":false,"rental_uris":{"android":"levelo://app?vid=182df13e-43ad-4986-8a2b-7cf25f397309","ios":"levelo://app?vid=182df13e-43ad-4986-8a2b-7cf25f397309"},"vehicle_type_id":"4","last_reported":1745874490,"current_range_meters":18000,"station_id":"ce4bgih2rcd13ifvqba0","pricing_plan_id":"cebpf4jnsgd1na2vs0mg"},{"bike_id":"6106a89b-72f1-4407-9419-6bbd8337b802","system_id":"levelo_inurba_marseille","lat":43.2928,"lon":5.40115,"is_reserved":false,"is_disabled":false,"rental_uris":{"android":"levelo://app?vid=6106a89b-72f1-4407-9419-6bbd8337b802","ios":"levelo://app?vid=6106a89b-72f1-4407-9419-6bbd8337b802"},"vehicle_type_id":"4","last_reported":1745874490,"current_range_meters":18000,"station_id":"ce4bh312rcd13ifvqdk0","pricing_plan_id":"cebpf4jnsgd1na2vs0mg"},{"bike_id":"3a7f6ce1-05cf-4b62-8be2-0e0e6392f98c","system_id":"levelo_inurba_marseille","lat":43.29159,"lon":5.39333,"is_reserved":false,"is_disabled":false,"rental_uris":{"android":"levelo://app?vid=3a7f6ce1-05cf-4b62-8be2-0e0e6392f98c","ios":"levelo://app?vid=3a7f6ce1-05cf-4b62-8be2-0e0e6392f98c"},"vehicle_type_id":"4","last_reported":1745874490,"current_range_meters":18000,"station_id":"ce4bh192rcd13ifvqdd0","pricing_plan_id":"cebpf4jnsgd1na2vs0mg"},{"bike_id":"4f793177-3c41-4f88-96d3-b9a7ceb41fe6","system_id":"levelo_inurba_marseille","lat":43.32359,"lon":5.38876,"is_reserved":false,"is_disabled":false,"rental_uris":{"android":"levelo://app?vid=4f793177-3c41-4f88-96d3-b9a7ceb41fe6","ios":"levelo://app?vid=4f793177-3c41-4f88-96d3-b9a7ceb41fe6"},"vehicle_type_id":"4","last_reported":1745874490,"current_range_meters":18000,"station_id":"ce4bhqp2rcd13ifvqhog","pricing_plan_id":"cebpf4jnsgd1na2vs0mg"},{"bike_id":"0e029be7-dc71-4b12-9a63-21358668bf5b","system_id":"levelo_inurba_marseille","lat":43.32655,"lon":5.41001,"is_reserved":false,"is_disabled":false,"rental_uris":{"android":"levelo://app?vid=0e029be7-dc71-4b12-9a63-21358668bf5b","ios":"levelo://app?vid=0e029be7-dc71-4b12-9a63-21358668bf5b"},"vehicle_type_id":"4","last_reported":1745874490,"current_range_meters":18000,"station_id":"ce4bhpp2rcd13ifvqhgg","pricing_plan_id":"cebpf4jnsgd1na2vs0mg"},{"bike_id":"30e585b6-a1a7-4d47-a9c6-d0ac4b00d0db","system_id":"levelo_inurba_marseille","lat":43.321095,"lon":5.367675,"is_reserved":false,"is_disabled":false,"rental_uris":{"android":"levelo://app?vid=30e585b6-a1a7-4d47-a9c6-d0ac4b00d0db","ios":"levelo://app?vid=30e585b6-a1a7-4d47-a9c6-d0ac4b00d0db"},"vehicle_type_id":"4","last_reported":1745874490,"current_range_meters":18800,"station_id":"ce4bhrh2rcd13ifvqhug","pricing_plan_id":"cebpf4jnsgd1na2vs0mg"},{"bike_id":"02110202-d2f5-4df0-bd17-313d2def8fec","system_id":"levelo_inurba_marseille","lat":43.25723,"lon":5.41108,"is_reserved":false,"is_disabled":false,"rental_uris":{"android":"levelo://app?vid=02110202-d2f5-4df0-bd17-313d2def8fec","ios":"levelo://app?vid=02110202-d2f5-4df0-bd17-313d2def8fec"},"vehicle_type_id":"4","last_reported":1745874490,"current_range_meters":18800,"station_id":"ce4bhkp2rcd13ifvqgd0","pricing_plan_id":"cebpf4jnsgd1na2vs0mg"},{"bike_id":"c5cb074d-9ab8-4b3e-a919-af70f18c15d5","system_id":"levelo_inurba_marseille","lat":43.29265,"lon":5.38444,"is_reserved":false,"is_disabled":false,"rental_uris":{"android":"levelo://app?vid=c5cb074d-9ab8-4b3e-a919-af70f18c15d5","ios":"levelo://app?vid=c5cb074d-9ab8-4b3e-a919-af70f18c15d5"},"vehicle_type_id":"4","last_reported":1745874490,"current_range_meters":18800,"station_id":"ce4bh692rcd13ifvqea0","pricing_plan_id":"cebpf4jnsgd1na2vs0mg"},{"bike_id":"ae50c1de-8c80-4ad2-a1d9-2fbb08d50e7b","system_id":"levelo_inurba_marseille","lat":43.25724,"lon":5.41099,"is_reserved":false,"is_disabled":true,"rental_uris":{"android":"levelo://app?vid=ae50c1de-8c80-4ad2-a1d9-2fbb08d50e7b","ios":"levelo://app?vid=ae50c1de-8c80-4ad2-a1d9-2fbb08d50e7b"},"vehicle_type_id":"4","last_reported":1745874490,"current_range_meters":18800,"station_id":"ce4bhkp2rcd13ifvqgd0","pricing_plan_id":"cebpf4jnsgd1na2vs0mg"},{"bike_id":"07693e24-7000-4fd3-8fe1-8644dd3f1e08","system_id":"levelo_inurba_marseille","lat":43.27406,"lon":5.38965,"is_reserved":false,"is_disabled":false,"rental_uris":{"android":"levelo://app?vid=07693e24-7000-4fd3-8fe1-8644dd3f1e08","ios":"levelo://app?vid=07693e24-7000-4fd3-8fe1-8644dd3f1e08"},"vehicle_type_id":"4","last_reported":1745874490,"current_range_meters":18800,"station_id":"","pricing_plan_id":"cebpf4jnsgd1na2vs0mg"},{"bike_id":"62ea5d5b-ee6f-42b7-9cd0-c945fcac7364","system_id":"levelo_inurba_marseille","lat":43.30787,"lon":5.43543,"is_reserved":false,"is_disabled":false,"rental_uris":{"android":"levelo://app?vid=62ea5d5b-ee6f-42b7-9cd0-c945fcac7364","ios":"levelo://app?vid=62ea5d5b-ee6f-42b7-9cd0-c945fcac7364"},"vehicle_type_id":"4","last_reported":1745874490,"current_range_meters":19200,"station_id":"ce4bhph2rcd13ifvqheg","pricing_plan_id":"cebpf4jnsgd1na2vs0mg"},{"bike_id":"fb511a7c-3cee-4eb5-91f8-52dd69716b84","system_id":"levelo_inurba_marseille","lat":43.28702,"lon":5.3742,"is_reserved":false,"is_disabled":false,"rental_uris":{"android":"levelo://app?vid=fb511a7c-3cee-4eb5-91f8-52dd69716b84","ios":"levelo://app?vid=fb511a7c-3cee-4eb5-91f8-52dd69716b84"},"vehicle_type_id":"4","last_reported":1745874490,"current_range_meters":19200,"station_id":"ce4bh3p2rcd13ifvqdq0","pricing_plan_id":"cebpf4jnsgd1na2vs0mg"},{"bike_id":"6028b1e6-7384-438e-b3bf-95af60bd192e","system_id":"levelo_inurba_marseille","lat":43.31522,"lon":5.38039,"is_reserved":false,"is_disabled":false,"rental_uris":{"android":"levelo://app?vid=6028b1e6-7384-438e-b3bf-95af60bd192e","ios":"levelo://app?vid=6028b1e6-7384-438e-b3bf-95af60bd192e"},"vehicle_type_id":"4","last_reported":1745874490,"current_range_meters":19200,"station_id":"ce4bhsp2rcd13ifvqi50","pricing_plan_id":"cebpf4jnsgd1na2vs0mg"},{"bike_id":"43d46a28-bb61-4f48-bd25-81c2ab7ddde1","system_id":"levelo_inurba_marseille","lat":43.2572,"lon":5.41109,"is_reserved":false,"is_disabled":false,"rental_uris":{"android":"levelo://app?vid=43d46a28-bb61-4f48-bd25-81c2ab7ddde1","ios":"levelo://app?vid=43d46a28-bb61-4f48-bd25-81c2ab7ddde1"},"vehicle_type_id":"4","last_reported":1745874490,"current_range_meters":19200,"station_id":"ce4bhkp2rcd13ifvqgd0","pricing_plan_id":"cebpf4jnsgd1na2vs0mg"},{"bike_id":"ecf418ab-0b12-4f7b-8fe9-53ea074b1e76","system_id":"levelo_inurba_marseille","lat":43.31482,"lon":5.36856,"is_reserved":false,"is_disabled":false,"rental_uris":{"android":"levelo://app?vid=ecf418ab-0b12-4f7b-8fe9-53ea074b1e76","ios":"levelo://app?vid=ecf418ab-0b12-4f7b-8fe9-53ea074b1e76"},"vehicle_type_id":"4","last_reported":1745874490,"current_range_meters":19200,"station_id":"","pricing_plan_id":"cebpf4jnsgd1na2vs0mg"},{"bike_id":"0c52ba8e-5dbb-4af8-a7d6-9ec82133a650","system_id":"levelo_inurba_marseille","lat":43.30875,"lon":5.39654,"is_reserved":false,"is_disabled":false,"rental_uris":{"android":"levelo://app?vid=0c52ba8e-5dbb-4af8-a7d6-9ec82133a650","ios":"levelo://app?vid=0c52ba8e-5dbb-4af8-a7d6-9ec82133a650"},"vehicle_type_id":"4","last_reported":1745874490,"current_range_meters":19200,"station_id":"ce4bh012rcd13ifvqcv0","pricing_plan_id":"cebpf4jnsgd1na2vs0mg"},{"bike_id":"0b0f07d2-0239-4108-a702-555efadda324","system_id":"levelo_inurba_marseille","lat":43.30602,"lon":5.3723,"is_reserved":false,"is_disabled":false,"rental_uris":{"android":"levelo://app?vid=0b0f07d2-0239-4108-a702-555efadda324","ios":"levelo://app?vid=0b0f07d2-0239-4108-a702-555efadda324"},"vehicle_type_id":"4","last_reported":1745874490,"current_range_meters":19200,"station_id":"ce4bgqh2rcd13ifvqc4g","pricing_plan_id":"cebpf4jnsgd1na2vs0mg"},{"bike_id":"61144dfe-675f-4e9a-9e34-e211c9859fc4","system_id":"levelo_inurba_marseille","lat":43.250919,"lon":5.395167,"is_reserved":false,"is_disabled":false,"rental_uris":{"android":"levelo://app?vid=61144dfe-675f-4e9a-9e34-e211c9859fc4","ios":"levelo://app?vid=61144dfe-675f-4e9a-9e34-e211c9859fc4"},"vehicle_type_id":"4","last_reported":1745874490,"current_range_meters":19200,"station_id":"ce4bhm12rcd13ifvqgkg","pricing_plan_id":"cebpf4jnsgd1na2vs0mg"},{"bike_id":"9065ef57-77f7-41ab-81a6-22c593c03b8d","system_id":"levelo_inurba_marseille","lat":43.28703,"lon":5.39982,"is_reserved":false,"is_disabled":false,"rental_uris":{"android":"levelo://app?vid=9065ef57-77f7-41ab-81a6-22c593c03b8d","ios":"levelo://app?vid=9065ef57-77f7-41ab-81a6-22c593c03b8d"},"vehicle_type_id":"4","last_reported":1745874490,"current_range_meters":19600,"station_id":"ce4bho92rcd13ifvqh3g","pricing_plan_id":"cebpf4jnsgd1na2vs0mg"},{"bike_id":"e902df82-3f4e-4be2-82fa-374a8ba1fc49","system_id":"levelo_inurba_marseille","lat":43.29954,"lon":5.39778,"is_reserved":false,"is_disabled":false,"rental_uris":{"android":"levelo://app?vid=e902df82-3f4e-4be2-82fa-374a8ba1fc49","ios":"levelo://app?vid=e902df82-3f4e-4be2-82fa-374a8ba1fc49"},"vehicle_type_id":"4","last_reported":1745874490,"current_range_meters":19600,"station_id":"","pricing_plan_id":"cebpf4jnsgd1na2vs0mg"},{"bike_id":"0cc4eab7-edba-444d-8bfb-55cc5063a934","system_id":"levelo_inurba_marseille","lat":43.287047,"lon":5.399889,"is_reserved":false,"is_disabled":false,"rental_uris":{"android":"levelo://app?vid=0cc4eab7-edba-444d-8bfb-55cc5063a934","ios":"levelo://app?vid=0cc4eab7-edba-444d-8bfb-55cc5063a934"},"vehicle_type_id":"4","last_reported":1745874490,"current_range_meters":19600,"station_id":"ce4bho92rcd13ifvqh3g","pricing_plan_id":"cebpf4jnsgd1na2vs0mg"},{"bike_id":"c2859587-4787-442c-8cc4-79baa3b07bee","system_id":"levelo_inurba_marseille","lat":43.29634,"lon":5.40592,"is_reserved":false,"is_disabled":false,"rental_uris":{"android":"levelo://app?vid=c2859587-4787-442c-8cc4-79baa3b07bee","ios":"levelo://app?vid=c2859587-4787-442c-8cc4-79baa3b07bee"},"vehicle_type_id":"4","last_reported":1745874490,"current_range_meters":19600,"station_id":"ce4bh0h2rcd13ifvqd60","pricing_plan_id":"cebpf4jnsgd1na2vs0mg"},{"bike_id":"50b5da2f-3a79-425d-9a03-6248036b4ea9","system_id":"levelo_inurba_marseille","lat":43.25093,"lon":5.39513,"is_reserved":false,"is_disabled":false,"rental_uris":{"android":"levelo://app?vid=50b5da2f-3a79-425d-9a03-6248036b4ea9","ios":"levelo://app?vid=50b5da2f-3a79-425d-9a03-6248036b4ea9"},"vehicle_type_id":"4","last_reported":1745874490,"current_range_meters":19600,"station_id":"ce4bhm12rcd13ifvqgkg","pricing_plan_id":"cebpf4jnsgd1na2vs0mg"},{"bike_id":"a9e73118-aca0-4279-a09d-0250c87a2cbd","system_id":"levelo_inurba_marseille","lat":43.25111,"lon":5.4032,"is_reserved":false,"is_disabled":false,"rental_uris":{"android":"levelo://app?vid=a9e73118-aca0-4279-a09d-0250c87a2cbd","ios":"levelo://app?vid=a9e73118-aca0-4279-a09d-0250c87a2cbd"},"vehicle_type_id":"4","last_reported":1745874490,"current_range_meters":19600,"station_id":"ce4bhlh2rcd13ifvqgig","pricing_plan_id":"cebpf4jnsgd1na2vs0mg"},{"bike_id":"f771a545-16b0-41dd-b3bf-3d33a3b0b762","system_id":"levelo_inurba_marseille","lat":43.32342,"lon":5.40626,"is_reserved":false,"is_disabled":false,"rental_uris":{"android":"levelo://app?vid=f771a545-16b0-41dd-b3bf-3d33a3b0b762","ios":"levelo://app?vid=f771a545-16b0-41dd-b3bf-3d33a3b0b762"},"vehicle_type_id":"4","last_reported":1745874490,"current_range_meters":19600,"station_id":"ce4bhq92rcd13ifvqhjg","pricing_plan_id":"cebpf4jnsgd1na2vs0mg"},{"bike_id":"1ff7221b-8e1e-4dce-9e57-4aed861ca4b9","system_id":"levelo_inurba_marseille","lat":43.33708,"lon":5.39176,"is_reserved":false,"is_disabled":false,"rental_uris":{"android":"levelo://app?vid=1ff7221b-8e1e-4dce-9e57-4aed861ca4b9","ios":"levelo://app?vid=1ff7221b-8e1e-4dce-9e57-4aed861ca4b9"},"vehicle_type_id":"4","last_reported":1745874490,"current_range_meters":19600,"station_id":"ce4bhr92rcd13ifvqhsg","pricing_plan_id":"cebpf4jnsgd1na2vs0mg"},{"bike_id":"41532226-aefb-4f0c-8be0-90b6d8c9ae72","system_id":"levelo_inurba_marseille","lat":43.29578,"lon":5.36737,"is_reserved":false,"is_disabled":false,"rental_uris":{"android":"levelo://app?vid=41532226-aefb-4f0c-8be0-90b6d8c9ae72","ios":"levelo://app?vid=41532226-aefb-4f0c-8be0-90b6d8c9ae72"},"vehicle_type_id":"4","last_reported":1745874490,"current_range_meters":19600,"station_id":"ce4bgph2rcd13ifvqc2g","pricing_plan_id":"cebpf4jnsgd1na2vs0mg"},{"bike_id":"6d1acc7b-68f5-40b4-95c5-b072f55360b8","system_id":"levelo_inurba_marseille","lat":43.31495,"lon":5.37308,"is_reserved":false,"is_disabled":false,"rental_uris":{"android":"levelo://app?vid=6d1acc7b-68f5-40b4-95c5-b072f55360b8","ios":"levelo://app?vid=6d1acc7b-68f5-40b4-95c5-b072f55360b8"},"vehicle_type_id":"4","last_reported":1745874490,"current_range_meters":20000,"station_id":"ce4bgt12rcd13ifvqcd0","pricing_plan_id":"cebpf4jnsgd1na2vs0mg"},{"bike_id":"598399bc-1c76-4b2d-bd49-95ef9f0eb075","system_id":"levelo_inurba_marseille","lat":43.30193,"lon":5.3659,"is_reserved":false,"is_disabled":false,"rental_uris":{"android":"levelo://app?vid=598399bc-1c76-4b2d-bd49-95ef9f0eb075","ios":"levelo://app?vid=598399bc-1c76-4b2d-bd49-95ef9f0eb075"},"vehicle_type_id":"4","last_reported":1745874490,"current_range_meters":20000,"station_id":"ce4bgrh2rcd13ifvqc8g","pricing_plan_id":"cebpf4jnsgd1na2vs0mg"},{"bike_id":"732fb9b6-5472-4160-a298-4e6f19b4075b","system_id":"levelo_inurba_marseille","lat":43.29982,"lon":5.38475,"is_reserved":false,"is_disabled":false,"rental_uris":{"android":"levelo://app?vid=732fb9b6-5472-4160-a298-4e6f19b4075b","ios":"levelo://app?vid=732fb9b6-5472-4160-a298-4e6f19b4075b"},"vehicle_type_id":"4","last_reported":1745874490,"current_range_meters":19600,"station_id":"ce4bgj92rcd13ifvqbd0","pricing_plan_id":"cebpf4jnsgd1na2vs0mg"},{"bike_id":"9d38ca80-4b11-42c4-9b07-c913dc08dcd7","system_id":"levelo_inurba_marseille","lat":43.28946,"lon":5.36397,"is_reserved":false,"is_disabled":false,"rental_uris":{"android":"levelo://app?vid=9d38ca80-4b11-42c4-9b07-c913dc08dcd7","ios":"levelo://app?vid=9d38ca80-4b11-42c4-9b07-c913dc08dcd7"},"vehicle_type_id":"4","last_reported":1745874490,"current_range_meters":20400,"station_id":"ce4bhc92rcd13ifvqetg","pricing_plan_id":"cebpf4jnsgd1na2vs0mg"},{"bike_id":"73bdaf62-584c-4aef-b388-35b847199721","system_id":"levelo_inurba_marseille","lat":43.28032,"lon":5.36938,"is_reserved":false,"is_disabled":false,"rental_uris":{"android":"levelo://app?vid=73bdaf62-584c-4aef-b388-35b847199721","ios":"levelo://app?vid=73bdaf62-584c-4aef-b388-35b847199721"},"vehicle_type_id":"4","last_reported":1745874490,"current_range_meters":20400,"station_id":"ce4bha12rcd13ifvqef0","pricing_plan_id":"cebpf4jnsgd1na2vs0mg"},{"bike_id":"b400b635-ddfb-4fc0-8874-f9394f1d48a5","system_id":"levelo_inurba_marseille","lat":43.28457,"lon":5.359,"is_reserved":false,"is_disabled":false,"rental_uris":{"android":"levelo://app?vid=b400b635-ddfb-4fc0-8874-f9394f1d48a5","ios":"levelo://app?vid=b400b635-ddfb-4fc0-8874-f9394f1d48a5"},"vehicle_type_id":"4","last_reported":1745874490,"current_range_meters":20400,"station_id":"ce4bhah2rcd13ifvqei0","pricing_plan_id":"cebpf4jnsgd1na2vs0mg"},{"bike_id":"7215f68e-8ef9-4a51-8ec2-3bb8cf538137","system_id":"levelo_inurba_marseille","lat":43.2998,"lon":5.38493,"is_reserved":false,"is_disabled":false,"rental_uris":{"android":"levelo://app?vid=7215f68e-8ef9-4a51-8ec2-3bb8cf538137","ios":"levelo://app?vid=7215f68e-8ef9-4a51-8ec2-3bb8cf538137"},"vehicle_type_id":"4","last_reported":1745874490,"current_range_meters":20400,"station_id":"ce4bgj92rcd13ifvqbd0","pricing_plan_id":"cebpf4jnsgd1na2vs0mg"},{"bike_id":"f8e0a7b1-43aa-44c5-a746-f96213f317fe","system_id":"levelo_inurba_marseille","lat":43.29026,"lon":5.38638,"is_reserved":false,"is_disabled":false,"rental_uris":{"android":"levelo://app?vid=f8e0a7b1-43aa-44c5-a746-f96213f317fe","ios":"levelo://app?vid=f8e0a7b1-43aa-44c5-a746-f96213f317fe"},"vehicle_type_id":"4","last_reported":1745874490,"current_range_meters":20400,"station_id":"ce4bh4p2rcd13ifvqe0g","pricing_plan_id":"cebpf4jnsgd1na2vs0mg"},{"bike_id":"ceaeba43-0da9-411d-8237-8d37d2c173b5","system_id":"levelo_inurba_marseille","lat":43.29975,"lon":5.3717,"is_reserved":false,"is_disabled":false,"rental_uris":{"android":"levelo://app?vid=ceaeba43-0da9-411d-8237-8d37d2c173b5","ios":"levelo://app?vid=ceaeba43-0da9-411d-8237-8d37d2c173b5"},"vehicle_type_id":"4","last_reported":1745874490,"current_range_meters":20400,"station_id":"ce4bgr92rcd13ifvqc7g","pricing_plan_id":"cebpf4jnsgd1na2vs0mg"},{"bike_id":"2da00fe5-b7b7-4180-a7dc-34e563b2f48f","system_id":"levelo_inurba_marseille","lat":43.30096,"lon":5.39071,"is_reserved":false,"is_disabled":false,"rental_uris":{"android":"levelo://app?vid=2da00fe5-b7b7-4180-a7dc-34e563b2f48f","ios":"levelo://app?vid=2da00fe5-b7b7-4180-a7dc-34e563b2f48f"},"vehicle_type_id":"4","last_reported":1745874490,"current_range_meters":20800,"station_id":"ce4bh192rcd13ifvqdb0","pricing_plan_id":"cebpf4jnsgd1na2vs0mg"},{"bike_id":"18803d35-3013-45bb-8839-dd22ed9bc307","system_id":"levelo_inurba_marseille","lat":43.29029,"lon":5.38646,"is_reserved":false,"is_disabled":false,"rental_uris":{"android":"levelo://app?vid=18803d35-3013-45bb-8839-dd22ed9bc307","ios":"levelo://app?vid=18803d35-3013-45bb-8839-dd22ed9bc307"},"vehicle_type_id":"4","last_reported":1745874490,"current_range_meters":20800,"station_id":"ce4bh4p2rcd13ifvqe0g","pricing_plan_id":"cebpf4jnsgd1na2vs0mg"},{"bike_id":"27a99994-d8ce-457a-8437-acb45569429f","system_id":"levelo_inurba_marseille","lat":43.30342,"lon":5.40427,"is_reserved":false,"is_disabled":false,"rental_uris":{"android":"levelo://app?vid=27a99994-d8ce-457a-8437-acb45569429f","ios":"levelo://app?vid=27a99994-d8ce-457a-8437-acb45569429f"},"vehicle_type_id":"4","last_reported":1745874490,"current_range_meters":20800,"station_id":"ce4bh012rcd13ifvqd10","pricing_plan_id":"cebpf4jnsgd1na2vs0mg"},{"bike_id":"b8f527bc-ba67-459b-a13e-0cb0d5f9ea1b","system_id":"levelo_inurba_marseille","lat":43.28956,"lon":5.39612,"is_reserved":false,"is_disabled":false,"rental_uris":{"android":"levelo://app?vid=b8f527bc-ba67-459b-a13e-0cb0d5f9ea1b","ios":"levelo://app?vid=b8f527bc-ba67-459b-a13e-0cb0d5f9ea1b"},"vehicle_type_id":"4","last_reported":1745874490,"current_range_meters":20800,"station_id":"ce4bh3h2rcd13ifvqdn0","pricing_plan_id":"cebpf4jnsgd1na2vs0mg"},{"bike_id":"37630d4f-abe1-4ef3-97e2-22868d113cc0","system_id":"levelo_inurba_marseille","lat":43.295072,"lon":5.393952,"is_reserved":false,"is_disabled":false,"rental_uris":{"android":"levelo://app?vid=37630d4f-abe1-4ef3-97e2-22868d113cc0","ios":"levelo://app?vid=37630d4f-abe1-4ef3-97e2-22868d113cc0"},"vehicle_type_id":"4","last_reported":1745874490,"current_range_meters":21600,"station_id":"ce4bh292rcd13ifvqdf0","pricing_plan_id":"cebpf4jnsgd1na2vs0mg"},{"bike_id":"900006cd-4ca8-4340-9b3d-a55f3eb4f0da","system_id":"levelo_inurba_marseille","lat":43.28074,"lon":5.39661,"is_reserved":false,"is_disabled":false,"rental_uris":{"android":"levelo://app?vid=900006cd-4ca8-4340-9b3d-a55f3eb4f0da","ios":"levelo://app?vid=900006cd-4ca8-4340-9b3d-a55f3eb4f0da"},"vehicle_type_id":"4","last_reported":1745874490,"current_range_meters":21600,"station_id":"ce4bho12rcd13ifvqh2g","pricing_plan_id":"cebpf4jnsgd1na2vs0mg"},{"bike_id":"14c40bbc-ec5d-436d-9173-4d6aa10e2ff5","system_id":"levelo_inurba_marseille","lat":43.23973,"lon":5.36622,"is_reserved":false,"is_disabled":false,"rental_uris":{"android":"levelo://app?vid=14c40bbc-ec5d-436d-9173-4d6aa10e2ff5","ios":"levelo://app?vid=14c40bbc-ec5d-436d-9173-4d6aa10e2ff5"},"vehicle_type_id":"4","last_reported":1745874490,"current_range_meters":21600,"station_id":"ce4bhi12rcd13ifvqfp0","pricing_plan_id":"cebpf4jnsgd1na2vs0mg"},{"bike_id":"1eecfb39-b550-4ec7-bb58-e2d9ab82678d","system_id":"levelo_inurba_marseille","lat":43.23199,"lon":5.35552,"is_reserved":false,"is_disabled":false,"rental_uris":{"android":"levelo://app?vid=1eecfb39-b550-4ec7-bb58-e2d9ab82678d","ios":"levelo://app?vid=1eecfb39-b550-4ec7-bb58-e2d9ab82678d"},"vehicle_type_id":"4","last_reported":1745874490,"current_range_meters":21600,"station_id":"ce4bhu92rcd13ifvqi70","pricing_plan_id":"cebpf4jnsgd1na2vs0mg"},{"bike_id":"940b7320-b328-4afe-85a6-d4d069ced16a","system_id":"levelo_inurba_marseille","lat":43.30928,"lon":5.40141,"is_reserved":false,"is_disabled":true,"rental_uris":{"android":"levelo://app?vid=940b7320-b328-4afe-85a6-d4d069ced16a","ios":"levelo://app?vid=940b7320-b328-4afe-85a6-d4d069ced16a"},"vehicle_type_id":"4","last_reported":1745874490,"current_range_meters":22000,"station_id":"ce4bgvp2rcd13ifvqct0","pricing_plan_id":"cebpf4jnsgd1na2vs0mg"},{"bike_id":"0200abdd-06d0-46c2-a10c-d26c9d82513f","system_id":"levelo_inurba_marseille","lat":43.29883,"lon":5.39755,"is_reserved":false,"is_disabled":false,"rental_uris":{"android":"levelo://app?vid=0200abdd-06d0-46c2-a10c-d26c9d82513f","ios":"levelo://app?vid=0200abdd-06d0-46c2-a10c-d26c9d82513f"},"vehicle_type_id":"4","last_reported":1745874490,"current_range_meters":22000,"station_id":"ce4bh0h2rcd13ifvqd50","pricing_plan_id":"cebpf4jnsgd1na2vs0mg"},{"bike_id":"d0908897-833e-4899-81b6-688c24299a17","system_id":"levelo_inurba_marseille","lat":43.25001,"lon":5.38942,"is_reserved":false,"is_disabled":false,"rental_uris":{"android":"levelo://app?vid=d0908897-833e-4899-81b6-688c24299a17","ios":"levelo://app?vid=d0908897-833e-4899-81b6-688c24299a17"},"vehicle_type_id":"4","last_reported":1745874490,"current_range_meters":21600,"station_id":"ce4bhgp2rcd13ifvqfd0","pricing_plan_id":"cebpf4jnsgd1na2vs0mg"},{"bike_id":"639a8685-dd60-4055-9b8b-8e5783c51e7a","system_id":"levelo_inurba_marseille","lat":43.29186,"lon":5.39325,"is_reserved":false,"is_disabled":false,"rental_uris":{"android":"levelo://app?vid=639a8685-dd60-4055-9b8b-8e5783c51e7a","ios":"levelo://app?vid=639a8685-dd60-4055-9b8b-8e5783c51e7a"},"vehicle_type_id":"4","last_reported":1745874490,"current_range_meters":22000,"station_id":"ce4bh192rcd13ifvqdd0","pricing_plan_id":"cebpf4jnsgd1na2vs0mg"},{"bike_id":"a4d84cb8-6860-44ea-85de-d66185be58e0","system_id":"levelo_inurba_marseille","lat":43.30582,"lon":5.384187,"is_reserved":false,"is_disabled":true,"rental_uris":{"android":"levelo://app?vid=a4d84cb8-6860-44ea-85de-d66185be58e0","ios":"levelo://app?vid=a4d84cb8-6860-44ea-85de-d66185be58e0"},"vehicle_type_id":"4","last_reported":1745874490,"current_range_meters":22000,"station_id":"","pricing_plan_id":"cebpf4jnsgd1na2vs0mg"},{"bike_id":"fce2c520-92d3-4d18-810b-8d643fc15a1a","system_id":"levelo_inurba_marseille","lat":43.2305,"lon":5.35503,"is_reserved":false,"is_disabled":false,"rental_uris":{"android":"levelo://app?vid=fce2c520-92d3-4d18-810b-8d643fc15a1a","ios":"levelo://app?vid=fce2c520-92d3-4d18-810b-8d643fc15a1a"},"vehicle_type_id":"4","last_reported":1745874490,"current_range_meters":22000,"station_id":"cpo3342slgdg3j2ifvpg","pricing_plan_id":"cebpf4jnsgd1na2vs0mg"},{"bike_id":"aa8d6287-b95a-4e16-8b3a-83cecfb5c05d","system_id":"levelo_inurba_marseille","lat":43.24169,"lon":5.3639,"is_reserved":false,"is_disabled":false,"rental_uris":{"android":"levelo://app?vid=aa8d6287-b95a-4e16-8b3a-83cecfb5c05d","ios":"levelo://app?vid=aa8d6287-b95a-4e16-8b3a-83cecfb5c05d"},"vehicle_type_id":"4","last_reported":1745874490,"current_range_meters":22000,"station_id":"cpo36qri1sfpv3e86is0","pricing_plan_id":"cebpf4jnsgd1na2vs0mg"},{"bike_id":"7d5a37e6-0e33-435e-86cf-30b34c213a12","system_id":"levelo_inurba_marseille","lat":43.27909,"lon":5.39576,"is_reserved":false,"is_disabled":false,"rental_uris":{"android":"levelo://app?vid=7d5a37e6-0e33-435e-86cf-30b34c213a12","ios":"levelo://app?vid=7d5a37e6-0e33-435e-86cf-30b34c213a12"},"vehicle_type_id":"4","last_reported":1745874490,"current_range_meters":22400,"station_id":"ce4bhf92rcd13ifvqf40","pricing_plan_id":"cebpf4jnsgd1na2vs0mg"},{"bike_id":"9113428b-d6d7-4924-8bdb-7175380717b7","system_id":"levelo_inurba_marseille","lat":43.25722,"lon":5.41114,"is_reserved":false,"is_disabled":false,"rental_uris":{"android":"levelo://app?vid=9113428b-d6d7-4924-8bdb-7175380717b7","ios":"levelo://app?vid=9113428b-d6d7-4924-8bdb-7175380717b7"},"vehicle_type_id":"4","last_reported":1745874490,"current_range_meters":22400,"station_id":"ce4bhkp2rcd13ifvqgd0","pricing_plan_id":"cebpf4jnsgd1na2vs0mg"},{"bike_id":"368add53-632a-4357-8756-3d85c3a5e644","system_id":"levelo_inurba_marseille","lat":43.29102,"lon":5.38127,"is_reserved":false,"is_disabled":false,"rental_uris":{"android":"levelo://app?vid=368add53-632a-4357-8756-3d85c3a5e644","ios":"levelo://app?vid=368add53-632a-4357-8756-3d85c3a5e644"},"vehicle_type_id":"4","last_reported":1745874490,"current_range_meters":22800,"station_id":"ce4bh512rcd13ifvqe2g","pricing_plan_id":"cebpf4jnsgd1na2vs0mg"},{"bike_id":"b26a0b33-650f-4f7b-8536-58a942167ba4","system_id":"levelo_inurba_marseille","lat":43.23201,"lon":5.35564,"is_reserved":false,"is_disabled":false,"rental_uris":{"android":"levelo://app?vid=b26a0b33-650f-4f7b-8536-58a942167ba4","ios":"levelo://app?vid=b26a0b33-650f-4f7b-8536-58a942167ba4"},"vehicle_type_id":"4","last_reported":1745874490,"current_range_meters":22400,"station_id":"ce4bhu92rcd13ifvqi70","pricing_plan_id":"cebpf4jnsgd1na2vs0mg"},{"bike_id":"e4e76b6b-2fc7-4916-aa21-7cec24c0e4e8","system_id":"levelo_inurba_marseille","lat":43.28002,"lon":5.38695,"is_reserved":false,"is_disabled":true,"rental_uris":{"android":"levelo://app?vid=e4e76b6b-2fc7-4916-aa21-7cec24c0e4e8","ios":"levelo://app?vid=e4e76b6b-2fc7-4916-aa21-7cec24c0e4e8"},"vehicle_type_id":"4","last_reported":1745874490,"current_range_meters":22400,"station_id":"","pricing_plan_id":"cebpf4jnsgd1na2vs0mg"},{"bike_id":"7ba5eed0-ad75-460d-9a20-25cc10527b63","system_id":"levelo_inurba_marseille","lat":43.30143,"lon":5.39849,"is_reserved":false,"is_disabled":false,"rental_uris":{"android":"levelo://app?vid=7ba5eed0-ad75-460d-9a20-25cc10527b63","ios":"levelo://app?vid=7ba5eed0-ad75-460d-9a20-25cc10527b63"},"vehicle_type_id":"4","last_reported":1745874490,"current_range_meters":22400,"station_id":"ce4bh0h2rcd13ifvqd40","pricing_plan_id":"cebpf4jnsgd1na2vs0mg"},{"bike_id":"73cf2498-ec20-4cf2-837a-40f8e2a14c9e","system_id":"levelo_inurba_marseille","lat":43.31686,"lon":5.40474,"is_reserved":false,"is_disabled":false,"rental_uris":{"android":"levelo://app?vid=73cf2498-ec20-4cf2-837a-40f8e2a14c9e","ios":"levelo://app?vid=73cf2498-ec20-4cf2-837a-40f8e2a14c9e"},"vehicle_type_id":"4","last_reported":1745874490,"current_range_meters":22400,"station_id":"","pricing_plan_id":"cebpf4jnsgd1na2vs0mg"},{"bike_id":"2767110b-46f6-461f-9053-309ad1bd2e5a","system_id":"levelo_inurba_marseille","lat":43.22946,"lon":5.35385,"is_reserved":false,"is_disabled":false,"rental_uris":{"android":"levelo://app?vid=2767110b-46f6-461f-9053-309ad1bd2e5a","ios":"levelo://app?vid=2767110b-46f6-461f-9053-309ad1bd2e5a"},"vehicle_type_id":"4","last_reported":1745874490,"current_range_meters":22400,"station_id":"cpo3532slgdg3j2ikp40","pricing_plan_id":"cebpf4jnsgd1na2vs0mg"},{"bike_id":"716cec4f-16cc-43a8-b0cf-951f31032ba7","system_id":"levelo_inurba_marseille","lat":43.30423,"lon":5.4128,"is_reserved":false,"is_disabled":false,"rental_uris":{"android":"levelo://app?vid=716cec4f-16cc-43a8-b0cf-951f31032ba7","ios":"levelo://app?vid=716cec4f-16cc-43a8-b0cf-951f31032ba7"},"vehicle_type_id":"4","last_reported":1745874490,"current_range_meters":22400,"station_id":"ce4bhop2rcd13ifvqh8g","pricing_plan_id":"cebpf4jnsgd1na2vs0mg"},{"bike_id":"991af426-9c93-4d4c-bd36-cbc53f7ba46c","system_id":"levelo_inurba_marseille","lat":43.2397,"lon":5.36632,"is_reserved":false,"is_disabled":false,"rental_uris":{"android":"levelo://app?vid=991af426-9c93-4d4c-bd36-cbc53f7ba46c","ios":"levelo://app?vid=991af426-9c93-4d4c-bd36-cbc53f7ba46c"},"vehicle_type_id":"4","last_reported":1745874490,"current_range_meters":22800,"station_id":"ce4bhi12rcd13ifvqfp0","pricing_plan_id":"cebpf4jnsgd1na2vs0mg"},{"bike_id":"44ff7261-e51a-4419-8ffa-a0d39d5b60ba","system_id":"levelo_inurba_marseille","lat":43.2834,"lon":5.38101,"is_reserved":false,"is_disabled":true,"rental_uris":{"android":"levelo://app?vid=44ff7261-e51a-4419-8ffa-a0d39d5b60ba","ios":"levelo://app?vid=44ff7261-e51a-4419-8ffa-a0d39d5b60ba"},"vehicle_type_id":"4","last_reported":1745874490,"current_range_meters":22800,"station_id":"ce4bh412rcd13ifvqdr0","pricing_plan_id":"cebpf4jnsgd1na2vs0mg"},{"bike_id":"b2861b2d-3b9e-4211-a006-ecf419331232","system_id":"levelo_inurba_marseille","lat":43.29536,"lon":5.39412,"is_reserved":false,"is_disabled":false,"rental_uris":{"android":"levelo://app?vid=b2861b2d-3b9e-4211-a006-ecf419331232","ios":"levelo://app?vid=b2861b2d-3b9e-4211-a006-ecf419331232"},"vehicle_type_id":"4","last_reported":1745874490,"current_range_meters":22800,"station_id":"ce4bh292rcd13ifvqdf0","pricing_plan_id":"cebpf4jnsgd1na2vs0mg"},{"bike_id":"9088b1f9-1d2a-4b6b-ad18-79967dc04738","system_id":"levelo_inurba_marseille","lat":43.29885,"lon":5.38904,"is_reserved":false,"is_disabled":false,"rental_uris":{"android":"levelo://app?vid=9088b1f9-1d2a-4b6b-ad18-79967dc04738","ios":"levelo://app?vid=9088b1f9-1d2a-4b6b-ad18-79967dc04738"},"vehicle_type_id":"4","last_reported":1745874490,"current_range_meters":23200,"station_id":"ce4bh392rcd13ifvqdl0","pricing_plan_id":"cebpf4jnsgd1na2vs0mg"},{"bike_id":"b6f70403-6995-4a1b-8735-80d5c6aed089","system_id":"levelo_inurba_marseille","lat":43.28106,"lon":5.3783,"is_reserved":false,"is_disabled":false,"rental_uris":{"android":"levelo://app?vid=b6f70403-6995-4a1b-8735-80d5c6aed089","ios":"levelo://app?vid=b6f70403-6995-4a1b-8735-80d5c6aed089"},"vehicle_type_id":"4","last_reported":1745874490,"current_range_meters":22800,"station_id":"ce4bha12rcd13ifvqee0","pricing_plan_id":"cebpf4jnsgd1na2vs0mg"},{"bike_id":"d7eb4c21-e6ac-4376-9f48-749418c4409c","system_id":"levelo_inurba_marseille","lat":43.33605,"lon":5.40975,"is_reserved":false,"is_disabled":false,"rental_uris":{"android":"levelo://app?vid=d7eb4c21-e6ac-4376-9f48-749418c4409c","ios":"levelo://app?vid=d7eb4c21-e6ac-4376-9f48-749418c4409c"},"vehicle_type_id":"4","last_reported":1745874490,"current_range_meters":22800,"station_id":"ce4bhqh2rcd13ifvqhmg","pricing_plan_id":"cebpf4jnsgd1na2vs0mg"},{"bike_id":"9951c632-c5fd-436a-9d89-8baf91b790aa","system_id":"levelo_inurba_marseille","lat":43.28347,"lon":5.38114,"is_reserved":false,"is_disabled":false,"rental_uris":{"android":"levelo://app?vid=9951c632-c5fd-436a-9d89-8baf91b790aa","ios":"levelo://app?vid=9951c632-c5fd-436a-9d89-8baf91b790aa"},"vehicle_type_id":"4","last_reported":1745874490,"current_range_meters":22400,"station_id":"ce4bh412rcd13ifvqdr0","pricing_plan_id":"cebpf4jnsgd1na2vs0mg"},{"bike_id":"0282c0ff-ad1e-456c-b959-227d6d359913","system_id":"levelo_inurba_marseille","lat":43.32281,"lon":5.382711,"is_reserved":false,"is_disabled":false,"rental_uris":{"android":"levelo://app?vid=0282c0ff-ad1e-456c-b959-227d6d359913","ios":"levelo://app?vid=0282c0ff-ad1e-456c-b959-227d6d359913"},"vehicle_type_id":"4","last_reported":1745874490,"current_range_meters":22800,"station_id":"ce4bhr12rcd13ifvqhqg","pricing_plan_id":"cebpf4jnsgd1na2vs0mg"},{"bike_id":"947c0352-481b-40ce-8899-8f8abd2ef309","system_id":"levelo_inurba_marseille","lat":43.28077,"lon":5.39651,"is_reserved":false,"is_disabled":false,"rental_uris":{"android":"levelo://app?vid=947c0352-481b-40ce-8899-8f8abd2ef309","ios":"levelo://app?vid=947c0352-481b-40ce-8899-8f8abd2ef309"},"vehicle_type_id":"4","last_reported":1745874490,"current_range_meters":22800,"station_id":"ce4bho12rcd13ifvqh2g","pricing_plan_id":"cebpf4jnsgd1na2vs0mg"},{"bike_id":"f5a82d09-ad39-4596-8291-e90c9b108a26","system_id":"levelo_inurba_marseille","lat":43.2944,"lon":5.39752,"is_reserved":false,"is_disabled":false,"rental_uris":{"android":"levelo://app?vid=f5a82d09-ad39-4596-8291-e90c9b108a26","ios":"levelo://app?vid=f5a82d09-ad39-4596-8291-e90c9b108a26"},"vehicle_type_id":"4","last_reported":1745874490,"current_range_meters":23200,"station_id":"ce4bh3h2rcd13ifvqdo0","pricing_plan_id":"cebpf4jnsgd1na2vs0mg"},{"bike_id":"36589065-9777-4275-9498-24a04bf80734","system_id":"levelo_inurba_marseille","lat":43.22955,"lon":5.35388,"is_reserved":false,"is_disabled":false,"rental_uris":{"android":"levelo://app?vid=36589065-9777-4275-9498-24a04bf80734","ios":"levelo://app?vid=36589065-9777-4275-9498-24a04bf80734"},"vehicle_type_id":"4","last_reported":1745874490,"current_range_meters":23200,"station_id":"cpo3532slgdg3j2ikp40","pricing_plan_id":"cebpf4jnsgd1na2vs0mg"},{"bike_id":"ae23a65e-7234-4b38-b7da-e11c7dcd230c","system_id":"levelo_inurba_marseille","lat":43.2513,"lon":5.40345,"is_reserved":false,"is_disabled":false,"rental_uris":{"android":"levelo://app?vid=ae23a65e-7234-4b38-b7da-e11c7dcd230c","ios":"levelo://app?vid=ae23a65e-7234-4b38-b7da-e11c7dcd230c"},"vehicle_type_id":"4","last_reported":1745874490,"current_range_meters":23200,"station_id":"ce4bhlh2rcd13ifvqgig","pricing_plan_id":"cebpf4jnsgd1na2vs0mg"},{"bike_id":"01fa40e9-ad04-4afc-9c53-92ea34f07ba1","system_id":"levelo_inurba_marseille","lat":43.28154,"lon":5.42644,"is_reserved":false,"is_disabled":false,"rental_uris":{"android":"levelo://app?vid=01fa40e9-ad04-4afc-9c53-92ea34f07ba1","ios":"levelo://app?vid=01fa40e9-ad04-4afc-9c53-92ea34f07ba1"},"vehicle_type_id":"4","last_reported":1745874490,"current_range_meters":23200,"station_id":"ce4bhnh2rcd13ifvqgug","pricing_plan_id":"cebpf4jnsgd1na2vs0mg"},{"bike_id":"deed26e0-38c0-4649-8c17-b059ae7e40b8","system_id":"levelo_inurba_marseille","lat":43.33628,"lon":5.4098,"is_reserved":false,"is_disabled":false,"rental_uris":{"android":"levelo://app?vid=deed26e0-38c0-4649-8c17-b059ae7e40b8","ios":"levelo://app?vid=deed26e0-38c0-4649-8c17-b059ae7e40b8"},"vehicle_type_id":"4","last_reported":1745874490,"current_range_meters":23200,"station_id":"ce4bhqh2rcd13ifvqhmg","pricing_plan_id":"cebpf4jnsgd1na2vs0mg"},{"bike_id":"dc28fc6e-d680-4477-bbc1-f4611ff292f9","system_id":"levelo_inurba_marseille","lat":43.246581,"lon":5.381802,"is_reserved":false,"is_disabled":false,"rental_uris":{"android":"levelo://app?vid=dc28fc6e-d680-4477-bbc1-f4611ff292f9","ios":"levelo://app?vid=dc28fc6e-d680-4477-bbc1-f4611ff292f9"},"vehicle_type_id":"4","last_reported":1745874490,"current_range_meters":23200,"station_id":"ce4bhih2rcd13ifvqfr0","pricing_plan_id":"cebpf4jnsgd1na2vs0mg"},{"bike_id":"897b5757-2241-462b-82d1-ecc7be1f9062","system_id":"levelo_inurba_marseille","lat":43.26506,"lon":5.3953,"is_reserved":false,"is_disabled":false,"rental_uris":{"android":"levelo://app?vid=897b5757-2241-462b-82d1-ecc7be1f9062","ios":"levelo://app?vid=897b5757-2241-462b-82d1-ecc7be1f9062"},"vehicle_type_id":"4","last_reported":1745874490,"current_range_meters":23200,"station_id":"ce4bhi12rcd13ifvqfq0","pricing_plan_id":"cebpf4jnsgd1na2vs0mg"},{"bike_id":"d7e7fed2-2221-47d9-af4b-b33aebfa611c","system_id":"levelo_inurba_marseille","lat":43.26235,"lon":5.40403,"is_reserved":false,"is_disabled":false,"rental_uris":{"android":"levelo://app?vid=d7e7fed2-2221-47d9-af4b-b33aebfa611c","ios":"levelo://app?vid=d7e7fed2-2221-47d9-af4b-b33aebfa611c"},"vehicle_type_id":"4","last_reported":1745874490,"current_range_meters":23200,"station_id":"ce4bhmh2rcd13ifvqgmg","pricing_plan_id":"cebpf4jnsgd1na2vs0mg"},{"bike_id":"8074d6d0-e7ba-4452-8c1f-9937cd62ff0a","system_id":"levelo_inurba_marseille","lat":43.2841,"lon":5.37492,"is_reserved":false,"is_disabled":false,"rental_uris":{"android":"levelo://app?vid=8074d6d0-e7ba-4452-8c1f-9937cd62ff0a","ios":"levelo://app?vid=8074d6d0-e7ba-4452-8c1f-9937cd62ff0a"},"vehicle_type_id":"4","last_reported":1745874490,"current_range_meters":23200,"station_id":"ce4bh412rcd13ifvqds0","pricing_plan_id":"cebpf4jnsgd1na2vs0mg"},{"bike_id":"62bc10f9-8bc6-4b8f-a2c6-c9500cdd5250","system_id":"levelo_inurba_marseille","lat":43.243894,"lon":5.370582,"is_reserved":false,"is_disabled":false,"rental_uris":{"android":"levelo://app?vid=62bc10f9-8bc6-4b8f-a2c6-c9500cdd5250","ios":"levelo://app?vid=62bc10f9-8bc6-4b8f-a2c6-c9500cdd5250"},"vehicle_type_id":"4","last_reported":1745874490,"current_range_meters":23200,"station_id":"ce4bhhh2rcd13ifvqfk0","pricing_plan_id":"cebpf4jnsgd1na2vs0mg"},{"bike_id":"93f53a86-de8d-4533-905f-77bad69d0013","system_id":"levelo_inurba_marseille","lat":43.28734,"lon":5.37937,"is_reserved":false,"is_disabled":false,"rental_uris":{"android":"levelo://app?vid=93f53a86-de8d-4533-905f-77bad69d0013","ios":"levelo://app?vid=93f53a86-de8d-4533-905f-77bad69d0013"},"vehicle_type_id":"4","last_reported":1745874490,"current_range_meters":23200,"station_id":"ce4bh9p2rcd13ifvqec0","pricing_plan_id":"cebpf4jnsgd1na2vs0mg"},{"bike_id":"0f8ac8cc-4284-4763-a501-a8b8ff6d4799","system_id":"levelo_inurba_marseille","lat":43.292,"lon":5.35804,"is_reserved":false,"is_disabled":false,"rental_uris":{"android":"levelo://app?vid=0f8ac8cc-4284-4763-a501-a8b8ff6d4799","ios":"levelo://app?vid=0f8ac8cc-4284-4763-a501-a8b8ff6d4799"},"vehicle_type_id":"4","last_reported":1745874490,"current_range_meters":23200,"station_id":"ce4bhb12rcd13ifvqel0","pricing_plan_id":"cebpf4jnsgd1na2vs0mg"},{"bike_id":"334f0609-b51b-492a-8482-a689c46d4ff0","system_id":"levelo_inurba_marseille","lat":43.28503,"lon":5.38407,"is_reserved":false,"is_disabled":true,"rental_uris":{"android":"levelo://app?vid=334f0609-b51b-492a-8482-a689c46d4ff0","ios":"levelo://app?vid=334f0609-b51b-492a-8482-a689c46d4ff0"},"vehicle_type_id":"4","last_reported":1745874490,"current_range_meters":23200,"station_id":"ce4bh512rcd13ifvqe3g","pricing_plan_id":"cebpf4jnsgd1na2vs0mg"},{"bike_id":"7369e24d-6a3f-462a-8bdf-e4257b73fa9c","system_id":"levelo_inurba_marseille","lat":43.29871,"lon":5.39739,"is_reserved":false,"is_disabled":false,"rental_uris":{"android":"levelo://app?vid=7369e24d-6a3f-462a-8bdf-e4257b73fa9c","ios":"levelo://app?vid=7369e24d-6a3f-462a-8bdf-e4257b73fa9c"},"vehicle_type_id":"4","last_reported":1745874490,"current_range_meters":23200,"station_id":"ce4bh0h2rcd13ifvqd50","pricing_plan_id":"cebpf4jnsgd1na2vs0mg"},{"bike_id":"1ad88a99-a525-4702-9a5c-c0a2b1613ef9","system_id":"levelo_inurba_marseille","lat":43.28079,"lon":5.39658,"is_reserved":false,"is_disabled":false,"rental_uris":{"android":"levelo://app?vid=1ad88a99-a525-4702-9a5c-c0a2b1613ef9","ios":"levelo://app?vid=1ad88a99-a525-4702-9a5c-c0a2b1613ef9"},"vehicle_type_id":"4","last_reported":1745874490,"current_range_meters":23200,"station_id":"ce4bho12rcd13ifvqh2g","pricing_plan_id":"cebpf4jnsgd1na2vs0mg"},