{"last_updated":1747851289,"ttl":60,"version":"2.2","data":{"bikes":[{"bike_id":"c0b9fd4f-e181-46ce-b0bf-f5119973334f","system_id":"levelo_inurba_marseille","lat":43.33771,"lon":5.37424,"is_reserved":false,"is_disabled":true,"rental_uris":{"android":"levelo://app?vid=c0b9fd4f-e181-46ce-b0bf-f5119973334f","ios":"levelo://app?vid=c0b9fd4f-e181-46ce-b0bf-f5119973334f"},"vehicle_type_id":"4","last_reported":1747851289,"current_range_meters":0,"station_id":"","pricing_plan_id":"cebpf4jnsgd1na2vs0mg"},{"bike_id":"1dec17c8-cbde-4354-8b6c-219f98c89710","system_id":"levelo_inurba_marseille","lat":43.291827,"lon":5.422652,"is_reserved":false,"is_disabled":true,"rental_uris":{"android":"levelo://app?vid=1dec17c8-cbde-4354-8b6c-219f98c89710","ios":"levelo://app?vid=1dec17c8-cbde-4354-8b6c-219f98c89710"},"vehicle_type_id":"4","last_reported":1747851289,"current_range_meters":0,"station_id":"","pricing_plan_id":"cebpf4jnsgd1na2vs0mg"},{"bike_id":"4d4b63f8-c892-4cd8-b099-d41c0ed58ced","system_id":"levelo_inurba_marseille","lat":43.303019,"lon":5.419059,"is_reserved":false,"is_disabled":true,"rental_uris":{"android":"levelo://app?vid=4d4b63f8-c892-4cd8-b099-d41c0ed58ced","ios":"levelo://app?vid=4d4b63f8-c892-4cd8-b099-d41c0ed58ced"},"vehicle_type_id":"4","last_reported":1747851289,"current_range_meters":0,"station_id":"","pricing_plan_id":"cebpf4jnsgd1na2vs0mg"},{"bike_id":"3a6893d1-759e-4cbb-adf6-85ed83b44881","system_id":"levelo_inurba_marseille","lat":43.295405,"lon":5.374945,"is_reserved":false,"is_disabled":true,"rental_uris":{"android":"levelo://app?vid=3a6893d1-759e-4cbb-adf6-85ed83b44881","ios":"levelo://app?vid=3a6893d1-759e-4cbb-adf6-85ed83b44881"},"vehicle_type_id":"4","last_reported":1747851289,"current_range_meters":0,"station_id":"","pricing_plan_id":"cebpf4jnsgd1na2vs0mg"},{"bike_id":"20bee342-4a3f-4f34-940d-bb6cf00d52ae","system_id":"levelo_inurba_marseille","lat":43.26664,"lon":5.38557,"is_reserved":false,"is_disabled":true,"rental_uris":{"android":"levelo://app?vid=20bee342-4a3f-4f34-940d-bb6cf00d52ae","ios":"levelo://app?vid=20bee342-4a3f-4f34-940d-bb6cf00d52ae"},"vehicle_type_id":"4","last_reported":1747851289,"current_range_meters":0,"station_id":"","pricing_plan_id":"cebpf4jnsgd1na2vs0mg"},{"bike_id":"cfdbf9ea-fe43-4734-b465-744a84c08df5","system_id":"levelo_inurba_marseille","lat":43.27944,"lon":5.38687,"is_reserved":false,"is_disabled":true,"rental_uris":{"android":"levelo://app?vid=cfdbf9ea-fe43-4734-b465-744a84c08df5","ios":"levelo://app?vid=cfdbf9ea-fe43-4734-b465-744a84c08df5"},"vehicle_type_id":"4","last_reported":1747851289,"current_range_meters":0,"station_id":"","pricing_plan_id":"cebpf4jnsgd1na2vs0mg"},{"bike_id":"e9dd3aa4-b5e7-4480-926d-d7f537719bfa","system_id":"levelo_inurba_marseille","lat":43.230331,"lon":5.401847,"is_reserved":false,"is_disabled":true,"rental_uris":{"android":"levelo://app?vid=e9dd3aa4-b5e7-4480-926d-d7f537719bfa","ios":"levelo://app?vid=e9dd3aa4-b5e7-4480-926d-d7f537719bfa"},"vehicle_type_id":"4","last_reported":1747851289,"current_range_meters":0,"station_id":"","pricing_plan_id":"cebpf4jnsgd1na2vs0mg"},{"bike_id":"14603e41-b2dd-4757-a53c-2e366aa4f983","system_id":"levelo_inurba_marseille","lat":43.26996,"lon":5.42818,"is_reserved":false,"is_disabled":true,"rental_uris":{"android":"levelo://app?vid=14603e41-b2dd-4757-a53c-2e366aa4f983","ios":"levelo://app?vid=14603e41-b2dd-4757-a53c-2e366aa4f983"},"vehicle_type_id":"4","last_reported":1747851289,"current_range_meters":0,"station_id":"","pricing_plan_id":"cebpf4jnsgd1na2vs0mg"},{"bike_id":"c87628e6-7566-4e6c-9fd4-bbbee1838904","system_id":"levelo_inurba_marseille","lat":43.30186,"lon":5.36635,"is_reserved":false,"is_disabled":true,"rental_uris":{"android":"levelo://app?vid=c87628e6-7566-4e6c-9fd4-bbbee1838904","ios":"levelo://app?vid=c87628e6-7566-4e6c-9fd4-bbbee1838904"},"vehicle_type_id":"4","last_reported":1747851289,"current_range_meters":0,"station_id":"ce4bgrh2rcd13ifvqc8g","pricing_plan_id":"cebpf4jnsgd1na2vs0mg"},{"bike_id":"37269ba5-e42e-4467-b9c3-0da6239828b6","system_id":"levelo_inurba_marseille","lat":43.31675,"lon":5.40449,"is_reserved":false,"is_disabled":true,"rental_uris":{"android":"levelo://app?vid=37269ba5-e42e-4467-b9c3-0da6239828b6","ios":"levelo://app?vid=37269ba5-e42e-4467-b9c3-0da6239828b6"},"vehicle_type_id":"4","last_reported":1747851289,"current_range_meters":0,"station_id":"ce4bh012rcd13ifvqd00","pricing_plan_id":"cebpf4jnsgd1na2vs0mg"},{"bike_id":"b746d0c9-aa89-4823-b975-1f83fcc34e79","system_id":"levelo_inurba_marseille","lat":43.30216,"lon":5.39457,"is_reserved":false,"is_disabled":true,"rental_uris":{"android":"levelo://app?vid=b746d0c9-aa89-4823-b975-1f83fcc34e79","ios":"levelo://app?vid=b746d0c9-aa89-4823-b975-1f83fcc34e79"},"vehicle_type_id":"4","last_reported":1747851289,"current_range_meters":0,"station_id":"ce4bh0p2rcd13ifvqd70","pricing_plan_id":"cebpf4jnsgd1na2vs0mg"},{"bike_id":"154ce448-0b64-4c00-a8e4-e482e687835b","system_id":"levelo_inurba_marseille","lat":43.30598,"lon":5.39352,"is_reserved":false,"is_disabled":true,"rental_uris":{"android":"levelo://app?vid=154ce448-0b64-4c00-a8e4-e482e687835b","ios":"levelo://app?vid=154ce448-0b64-4c00-a8e4-e482e687835b"},"vehicle_type_id":"4","last_reported":1747851289,"current_range_meters":0,"station_id":"ce4bh0p2rcd13ifvqd80","pricing_plan_id":"cebpf4jnsgd1na2vs0mg"},{"bike_id":"defde83a-4029-41e3-981c-4080999470a3","system_id":"levelo_inurba_marseille","lat":43.29278,"lon":5.40872,"is_reserved":false,"is_disabled":true,"rental_uris":{"android":"levelo://app?vid=defde83a-4029-41e3-981c-4080999470a3","ios":"levelo://app?vid=defde83a-4029-41e3-981c-4080999470a3"},"vehicle_type_id":"4","last_reported":1747851289,"current_range_meters":0,"station_id":"ce4bh192rcd13ifvqdc0","pricing_plan_id":"cebpf4jnsgd1na2vs0mg"},{"bike_id":"a99c0585-bed1-4f0b-9f55-376a42b2d7a5","system_id":"levelo_inurba_marseille","lat":43.2871,"lon":5.37401,"is_reserved":false,"is_disabled":true,"rental_uris":{"android":"levelo://app?vid=a99c0585-bed1-4f0b-9f55-376a42b2d7a5","ios":"levelo://app?vid=a99c0585-bed1-4f0b-9f55-376a42b2d7a5"},"vehicle_type_id":"4","last_reported":1747851289,"current_range_meters":0,"station_id":"ce4bh3p2rcd13ifvqdq0","pricing_plan_id":"cebpf4jnsgd1na2vs0mg"},{"bike_id":"359a2c74-623b-44c6-b233-a8730156ed39","system_id":"levelo_inurba_marseille","lat":43.28968,"lon":5.37834,"is_reserved":false,"is_disabled":true,"rental_uris":{"android":"levelo://app?vid=359a2c74-623b-44c6-b233-a8730156ed39","ios":"levelo://app?vid=359a2c74-623b-44c6-b233-a8730156ed39"},"vehicle_type_id":"4","last_reported":1747851289,"current_range_meters":0,"station_id":"ce4bh9p2rcd13ifvqed0","pricing_plan_id":"cebpf4jnsgd1na2vs0mg"},{"bike_id":"a4b8147d-4a2e-46d6-b945-2e7735cfaf2a","system_id":"levelo_inurba_marseille","lat":43.293852,"lon":5.365986,"is_reserved":false,"is_disabled":true,"rental_uris":{"android":"levelo://app?vid=a4b8147d-4a2e-46d6-b945-2e7735cfaf2a","ios":"levelo://app?vid=a4b8147d-4a2e-46d6-b945-2e7735cfaf2a"},"vehicle_type_id":"4","last_reported":1747851289,"current_range_meters":0,"station_id":"ce4bhbp2rcd13ifvqesg","pricing_plan_id":"cebpf4jnsgd1na2vs0mg"},{"bike_id":"c14dc91f-5a7e-4468-bf0e-013df179ed43","system_id":"levelo_inurba_marseille","lat":43.265481,"lon":5.390567,"is_reserved":false,"is_disabled":true,"rental_uris":{"android":"levelo://app?vid=c14dc91f-5a7e-4468-bf0e-013df179ed43","ios":"levelo://app?vid=c14dc91f-5a7e-4468-bf0e-013df179ed43"},"vehicle_type_id":"4","last_reported":1747851289,"current_range_meters":0,"station_id":"ce4bhe12rcd13ifvqf30","pricing_plan_id":"cebpf4jnsgd1na2vs0mg"},{"bike_id":"55f93064-9de4-4019-9285-de3d46865df5","system_id":"levelo_inurba_marseille","lat":43.27963,"lon":5.3875,"is_reserved":false,"is_disabled":true,"rental_uris":{"android":"levelo://app?vid=55f93064-9de4-4019-9285-de3d46865df5","ios":"levelo://app?vid=55f93064-9de4-4019-9285-de3d46865df5"},"vehicle_type_id":"4","last_reported":1747851289,"current_range_meters":0,"station_id":"ce4bhg12rcd13ifvqf80","pricing_plan_id":"cebpf4jnsgd1na2vs0mg"},{"bike_id":"8ee6c63c-af90-4ad3-a802-0cca2ce1e7e3","system_id":"levelo_inurba_marseille","lat":43.26678,"lon":5.38266,"is_reserved":false,"is_disabled":true,"rental_uris":{"android":"levelo://app?vid=8ee6c63c-af90-4ad3-a802-0cca2ce1e7e3","ios":"levelo://app?vid=8ee6c63c-af90-4ad3-a802-0cca2ce1e7e3"},"vehicle_type_id":"4","last_reported":1747851289,"current_range_meters":0,"station_id":"ce4bhg92rcd13ifvqf90","pricing_plan_id":"cebpf4jnsgd1na2vs0mg"},{"bike_id":"06a5807e-e296-42ca-8b94-8b108b0a1235","system_id":"levelo_inurba_marseille","lat":43.273121,"lon":5.390859,"is_reserved":false,"is_disabled":true,"rental_uris":{"android":"levelo://app?vid=06a5807e-e296-42ca-8b94-8b108b0a1235","ios":"levelo://app?vid=06a5807e-e296-42ca-8b94-8b108b0a1235"},"vehicle_type_id":"4","last_reported":1747851289,"current_range_meters":0,"station_id":"ce4bhgp2rcd13ifvqfe0","pricing_plan_id":"cebpf4jnsgd1na2vs0mg"},{"bike_id":"3afea904-b151-438f-9426-32d3413aea49","system_id":"levelo_inurba_marseille","lat":43.25575,"lon":5.38244,"is_reserved":false,"is_disabled":true,"rental_uris":{"android":"levelo://app?vid=3afea904-b151-438f-9426-32d3413aea49","ios":"levelo://app?vid=3afea904-b151-438f-9426-32d3413aea49"},"vehicle_type_id":"4","last_reported":1747851289,"current_range_meters":0,"station_id":"ce4bhih2rcd13ifvqfs0","pricing_plan_id":"cebpf4jnsgd1na2vs0mg"},{"bike_id":"9a993657-2594-4237-92be-b74331df19eb","system_id":"levelo_inurba_marseille","lat":43.27062,"lon":5.40251,"is_reserved":false,"is_disabled":true,"rental_uris":{"android":"levelo://app?vid=9a993657-2594-4237-92be-b74331df19eb","ios":"levelo://app?vid=9a993657-2594-4237-92be-b74331df19eb"},"vehicle_type_id":"4","last_reported":1747851289,"current_range_meters":0,"station_id":"ce4bhk92rcd13ifvqgc0","pricing_plan_id":"cebpf4jnsgd1na2vs0mg"},{"bike_id":"89e718bd-1565-42f4-8749-5c9ada2aeec1","system_id":"levelo_inurba_marseille","lat":43.27175,"lon":5.40987,"is_reserved":false,"is_disabled":true,"rental_uris":{"android":"levelo://app?vid=89e718bd-1565-42f4-8749-5c9ada2aeec1","ios":"levelo://app?vid=89e718bd-1565-42f4-8749-5c9ada2aeec1"},"vehicle_type_id":"4","last_reported":1747851289,"current_range_meters":0,"station_id":"ce4bhl12rcd13ifvqgf0","pricing_plan_id":"cebpf4jnsgd1na2vs0mg"},{"bike_id":"a9672778-069e-4e15-8ad6-66b694742a2b","system_id":"levelo_inurba_marseille","lat":43.27944,"lon":5.41037,"is_reserved":false,"is_disabled":true,"rental_uris":{"android":"levelo://app?vid=a9672778-069e-4e15-8ad6-66b694742a2b","ios":"levelo://app?vid=a9672778-069e-4e15-8ad6-66b694742a2b"},"vehicle_type_id":"4","last_reported":1747851289,"current_range_meters":0,"station_id":"ce4bhnp2rcd13ifvqh0g","pricing_plan_id":"cebpf4jnsgd1na2vs0mg"},{"bike_id":"8b0c2371-0aee-4e98-be54-62bd224e98f7","system_id":"levelo_inurba_marseille","lat":43.2794,"lon":5.41048,"is_reserved":false,"is_disabled":true,"rental_uris":{"android":"levelo://app?vid=8b0c2371-0aee-4e98-be54-62bd224e98f7","ios":"levelo://app?vid=8b0c2371-0aee-4e98-be54-62bd224e98f7"},"vehicle_type_id":"4","last_reported":1747851289,"current_range_meters":0,"station_id":"ce4bhnp2rcd13ifvqh0g","pricing_plan_id":"cebpf4jnsgd1na2vs0mg"},{"bike_id":"30252d66-d61a-4a23-9838-feb52a079f9f","system_id":"levelo_inurba_marseille","lat":43.28426,"lon":5.39184,"is_reserved":false,"is_disabled":true,"rental_uris":{"android":"levelo://app?vid=30252d66-d61a-4a23-9838-feb52a079f9f","ios":"levelo://app?vid=30252d66-d61a-4a23-9838-feb52a079f9f"},"vehicle_type_id":"4","last_reported":1747851289,"current_range_meters":0,"station_id":"ce4bhoh2rcd13ifvqh5g","pricing_plan_id":"cebpf4jnsgd1na2vs0mg"},{"bike_id":"8c362cf2-2d82-4928-8b0e-ded056d5048f","system_id":"levelo_inurba_marseille","lat":43.26811,"lon":5.40253,"is_reserved":false,"is_disabled":true,"rental_uris":{"android":"levelo://app?vid=8c362cf2-2d82-4928-8b0e-ded056d5048f","ios":"levelo://app?vid=8c362cf2-2d82-4928-8b0e-ded056d5048f"},"vehicle_type_id":"4","last_reported":1747851289,"current_range_meters":0,"station_id":"ce501612rcd8frsf0b60","pricing_plan_id":"cebpf4jnsgd1na2vs0mg"},{"bike_id":"6cdc5ac2-4b23-46ea-b359-4d981cdf1ca1","system_id":"levelo_inurba_marseille","lat":43.26782,"lon":5.40267,"is_reserved":false,"is_disabled":true,"rental_uris":{"android":"levelo://app?vid=6cdc5ac2-4b23-46ea-b359-4d981cdf1ca1","ios":"levelo://app?vid=6cdc5ac2-4b23-46ea-b359-4d981cdf1ca1"},"vehicle_type_id":"4","last_reported":1747851289,"current_range_meters":0,"station_id":"ce501612rcd8frsf0b60","pricing_plan_id":"cebpf4jnsgd1na2vs0mg"},{"bike_id":"8ab67003-6efe-4349-9a78-ab426dc2d435","system_id":"levelo_inurba_marseille","lat":43.28397,"lon":5.37524,"is_reserved":false,"is_disabled":true,"rental_uris":{"android":"levelo://app?vid=8ab67003-6efe-4349-9a78-ab426dc2d435","ios":"levelo://app?vid=8ab67003-6efe-4349-9a78-ab426dc2d435"},"vehicle_type_id":"4","last_reported":1747851289,"current_range_meters":400,"station_id":"ce4bh412rcd13ifvqds0","pricing_plan_id":"cebpf4jnsgd1na2vs0mg"},{"bike_id":"b1f8f85c-48ae-433a-9073-95518b3f63d8","system_id":"levelo_inurba_marseille","lat":43.28413,"lon":5.37504,"is_reserved":false,"is_disabled":true,"rental_uris":{"android":"levelo://app?vid=b1f8f85c-48ae-433a-9073-95518b3f63d8","ios":"levelo://app?vid=b1f8f85c-48ae-433a-9073-95518b3f63d8"},"vehicle_type_id":"4","last_reported":1747851289,"current_range_meters":400,"station_id":"ce4bh412rcd13ifvqds0","pricing_plan_id":"cebpf4jnsgd1na2vs0mg"},{"bike_id":"e21e091e-591e-41b2-b017-e4b7f41c5e54","system_id":"levelo_inurba_marseille","lat":43.27574,"lon":5.38426,"is_reserved":false,"is_disabled":true,"rental_uris":{"android":"levelo://app?vid=e21e091e-591e-41b2-b017-e4b7f41c5e54","ios":"levelo://app?vid=e21e091e-591e-41b2-b017-e4b7f41c5e54"},"vehicle_type_id":"4","last_reported":1747851289,"current_range_meters":400,"station_id":"ce4bhh92rcd13ifvqfi0","pricing_plan_id":"cebpf4jnsgd1na2vs0mg"},{"bike_id":"eb9baf8a-320e-4eae-8a67-0e86281f94df","system_id":"levelo_inurba_marseille","lat":43.25858,"lon":5.39898,"is_reserved":false,"is_disabled":true,"rental_uris":{"android":"levelo://app?vid=eb9baf8a-320e-4eae-8a67-0e86281f94df","ios":"levelo://app?vid=eb9baf8a-320e-4eae-8a67-0e86281f94df"},"vehicle_type_id":"4","last_reported":1747851289,"current_range_meters":400,"station_id":"ce4bhl92rcd13ifvqghg","pricing_plan_id":"cebpf4jnsgd1na2vs0mg"},{"bike_id":"c13d9b11-2e28-4a3e-a8be-b431a30388c4","system_id":"levelo_inurba_marseille","lat":43.25124,"lon":5.40309,"is_reserved":false,"is_disabled":true,"rental_uris":{"android":"levelo://app?vid=c13d9b11-2e28-4a3e-a8be-b431a30388c4","ios":"levelo://app?vid=c13d9b11-2e28-4a3e-a8be-b431a30388c4"},"vehicle_type_id":"4","last_reported":1747851289,"current_range_meters":400,"station_id":"ce4bhlh2rcd13ifvqgig","pricing_plan_id":"cebpf4jnsgd1na2vs0mg"},{"bike_id":"f8b121fc-a3e8-4926-901a-879af1e5eaab","system_id":"levelo_inurba_marseille","lat":43.24169,"lon":5.39742,"is_reserved":false,"is_disabled":true,"rental_uris":{"android":"levelo://app?vid=f8b121fc-a3e8-4926-901a-879af1e5eaab","ios":"levelo://app?vid=f8b121fc-a3e8-4926-901a-879af1e5eaab"},"vehicle_type_id":"4","last_reported":1747851289,"current_range_meters":400,"station_id":"ce4bhn12rcd13ifvqgpg","pricing_plan_id":"cebpf4jnsgd1na2vs0mg"},{"bike_id":"fea583b8-b811-4bb9-9823-064361d1872e","system_id":"levelo_inurba_marseille","lat":43.30784,"lon":5.37637,"is_reserved":false,"is_disabled":true,"rental_uris":{"android":"levelo://app?vid=fea583b8-b811-4bb9-9823-064361d1872e","ios":"levelo://app?vid=fea583b8-b811-4bb9-9823-064361d1872e"},"vehicle_type_id":"4","last_reported":1747851289,"current_range_meters":800,"station_id":"ce4bgv92rcd13ifvqcq0","pricing_plan_id":"cebpf4jnsgd1na2vs0mg"},{"bike_id":"36075e7d-5b7d-41d1-ac60-ed05b129ad95","system_id":"levelo_inurba_marseille","lat":43.28694,"lon":5.37394,"is_reserved":false,"is_disabled":true,"rental_uris":{"android":"levelo://app?vid=36075e7d-5b7d-41d1-ac60-ed05b129ad95","ios":"levelo://app?vid=36075e7d-5b7d-41d1-ac60-ed05b129ad95"},"vehicle_type_id":"4","last_reported":1747851289,"current_range_meters":800,"station_id":"ce4bh3p2rcd13ifvqdq0","pricing_plan_id":"cebpf4jnsgd1na2vs0mg"},{"bike_id":"eb6afd35-5294-4db1-b91d-b699e855eb6f","system_id":"levelo_inurba_marseille","lat":43.2606,"lon":5.39398,"is_reserved":false,"is_disabled":true,"rental_uris":{"android":"levelo://app?vid=eb6afd35-5294-4db1-b91d-b699e855eb6f","ios":"levelo://app?vid=eb6afd35-5294-4db1-b91d-b699e855eb6f"},"vehicle_type_id":"4","last_reported":1747851289,"current_range_meters":800,"station_id":"ce4bhh92rcd13ifvqfj0","pricing_plan_id":"cebpf4jnsgd1na2vs0mg"},{"bike_id":"facd851b-a0dd-4931-913d-2719efd2c117","system_id":"levelo_inurba_marseille","lat":43.27999,"lon":5.40008,"is_reserved":false,"is_disabled":true,"rental_uris":{"android":"levelo://app?vid=facd851b-a0dd-4931-913d-2719efd2c117","ios":"levelo://app?vid=facd851b-a0dd-4931-913d-2719efd2c117"},"vehicle_type_id":"4","last_reported":1747851289,"current_range_meters":800,"station_id":"ce4bho92rcd13ifvqh4g","pricing_plan_id":"cebpf4jnsgd1na2vs0mg"},{"bike_id":"18959684-2a54-429f-b747-ca39b85c90b6","system_id":"levelo_inurba_marseille","lat":43.279816,"lon":5.400015,"is_reserved":false,"is_disabled":true,"rental_uris":{"android":"levelo://app?vid=18959684-2a54-429f-b747-ca39b85c90b6","ios":"levelo://app?vid=18959684-2a54-429f-b747-ca39b85c90b6"},"vehicle_type_id":"4","last_reported":1747851289,"current_range_meters":800,"station_id":"ce4bho92rcd13ifvqh4g","pricing_plan_id":"cebpf4jnsgd1na2vs0mg"},{"bike_id":"ba59102a-6c47-4600-bcb9-76e5920c2815","system_id":"levelo_inurba_marseille","lat":43.31347,"lon":5.37252,"is_reserved":false,"is_disabled":true,"rental_uris":{"android":"levelo://app?vid=ba59102a-6c47-4600-bcb9-76e5920c2815","ios":"levelo://app?vid=ba59102a-6c47-4600-bcb9-76e5920c2815"},"vehicle_type_id":"4","last_reported":1747851289,"current_range_meters":1200,"station_id":"","pricing_plan_id":"cebpf4jnsgd1na2vs0mg"},{"bike_id":"3e8bb9ca-7ffa-4e7c-932f-8af88f48f29f","system_id":"levelo_inurba_marseille","lat":43.2953,"lon":5.38545,"is_reserved":false,"is_disabled":true,"rental_uris":{"android":"levelo://app?vid=3e8bb9ca-7ffa-4e7c-932f-8af88f48f29f","ios":"levelo://app?vid=3e8bb9ca-7ffa-4e7c-932f-8af88f48f29f"},"vehicle_type_id":"4","last_reported":1747851289,"current_range_meters":1200,"station_id":"ce4bgih2rcd13ifvqba0","pricing_plan_id":"cebpf4jnsgd1na2vs0mg"},{"bike_id":"6def3bed-e320-43b1-8c68-2ed6b2213977","system_id":"levelo_inurba_marseille","lat":43.302075,"lon":5.39462,"is_reserved":false,"is_disabled":true,"rental_uris":{"android":"levelo://app?vid=6def3bed-e320-43b1-8c68-2ed6b2213977","ios":"levelo://app?vid=6def3bed-e320-43b1-8c68-2ed6b2213977"},"vehicle_type_id":"4","last_reported":1747851289,"current_range_meters":1200,"station_id":"ce4bh0p2rcd13ifvqd70","pricing_plan_id":"cebpf4jnsgd1na2vs0mg"},{"bike_id":"894dcd16-b457-4bb2-95bf-09fa9ed6f5ae","system_id":"levelo_inurba_marseille","lat":43.280387,"lon":5.369393,"is_reserved":false,"is_disabled":true,"rental_uris":{"android":"levelo://app?vid=894dcd16-b457-4bb2-95bf-09fa9ed6f5ae","ios":"levelo://app?vid=894dcd16-b457-4bb2-95bf-09fa9ed6f5ae"},"vehicle_type_id":"4","last_reported":1747851289,"current_range_meters":1200,"station_id":"ce4bha12rcd13ifvqef0","pricing_plan_id":"cebpf4jnsgd1na2vs0mg"},{"bike_id":"83d3f489-6346-44f8-80ec-37dbcc3dd4c9","system_id":"levelo_inurba_marseille","lat":43.27958,"lon":5.38738,"is_reserved":false,"is_disabled":true,"rental_uris":{"android":"levelo://app?vid=83d3f489-6346-44f8-80ec-37dbcc3dd4c9","ios":"levelo://app?vid=83d3f489-6346-44f8-80ec-37dbcc3dd4c9"},"vehicle_type_id":"4","last_reported":1747851289,"current_range_meters":1200,"station_id":"ce4bhg12rcd13ifvqf80","pricing_plan_id":"cebpf4jnsgd1na2vs0mg"},{"bike_id":"a26fe627-ebd9-475c-83e2-90046a5ecaa6","system_id":"levelo_inurba_marseille","lat":43.2481,"lon":5.3745,"is_reserved":false,"is_disabled":true,"rental_uris":{"android":"levelo://app?vid=a26fe627-ebd9-475c-83e2-90046a5ecaa6","ios":"levelo://app?vid=a26fe627-ebd9-475c-83e2-90046a5ecaa6"},"vehicle_type_id":"4","last_reported":1747851289,"current_range_meters":1200,"station_id":"ce4bhgh2rcd13ifvqfb0","pricing_plan_id":"cebpf4jnsgd1na2vs0mg"},{"bike_id":"43b283eb-fe88-450f-9dd7-20584180a7b0","system_id":"levelo_inurba_marseille","lat":43.26055,"lon":5.39397,"is_reserved":false,"is_disabled":true,"rental_uris":{"android":"levelo://app?vid=43b283eb-fe88-450f-9dd7-20584180a7b0","ios":"levelo://app?vid=43b283eb-fe88-450f-9dd7-20584180a7b0"},"vehicle_type_id":"4","last_reported":1747851289,"current_range_meters":1200,"station_id":"ce4bhh92rcd13ifvqfj0","pricing_plan_id":"cebpf4jnsgd1na2vs0mg"},{"bike_id":"f95325d8-1c17-4d15-bb1a-e31d599075cf","system_id":"levelo_inurba_marseille","lat":43.25571,"lon":5.38227,"is_reserved":false,"is_disabled":true,"rental_uris":{"android":"levelo://app?vid=f95325d8-1c17-4d15-bb1a-e31d599075cf","ios":"levelo://app?vid=f95325d8-1c17-4d15-bb1a-e31d599075cf"},"vehicle_type_id":"4","last_reported":1747851289,"current_range_meters":1200,"station_id":"ce4bhih2rcd13ifvqfs0","pricing_plan_id":"cebpf4jnsgd1na2vs0mg"},{"bike_id":"8f0f531d-6a65-4647-8a6f-baa3d982f42f","system_id":"levelo_inurba_marseille","lat":43.28117,"lon":5.42552,"is_reserved":false,"is_disabled":true,"rental_uris":{"android":"levelo://app?vid=8f0f531d-6a65-4647-8a6f-baa3d982f42f","ios":"levelo://app?vid=8f0f531d-6a65-4647-8a6f-baa3d982f42f"},"vehicle_type_id":"4","last_reported":1747851289,"current_range_meters":1600,"station_id":"","pricing_plan_id":"cebpf4jnsgd1na2vs0mg"},{"bike_id":"bb9510f1-fd66-40cc-99f7-37d7cb165d1b","system_id":"levelo_inurba_marseille","lat":43.29293,"lon":5.37449,"is_reserved":false,"is_disabled":true,"rental_uris":{"android":"levelo://app?vid=bb9510f1-fd66-40cc-99f7-37d7cb165d1b","ios":"levelo://app?vid=bb9510f1-fd66-40cc-99f7-37d7cb165d1b"},"vehicle_type_id":"4","last_reported":1747851289,"current_range_meters":1600,"station_id":"ce4bgi12rcd13ifvqb70","pricing_plan_id":"cebpf4jnsgd1na2vs0mg"},{"bike_id":"117be61e-8eec-422d-9473-9b54a773b8fd","system_id":"levelo_inurba_marseille","lat":43.29627,"lon":5.37719,"is_reserved":false,"is_disabled":false,"rental_uris":{"android":"levelo://app?vid=117be61e-8eec-422d-9473-9b54a773b8fd","ios":"levelo://app?vid=117be61e-8eec-422d-9473-9b54a773b8fd"},"vehicle_type_id":"4","last_reported":1747851289,"current_range_meters":1600,"station_id":"ce4bgi92rcd13ifvqb90","pricing_plan_id":"cebpf4jnsgd1na2vs0mg"},{"bike_id":"6bbb3ae4-3edd-4b00-9ef1-2eee7e19ed9b","system_id":"levelo_inurba_marseille","lat":43.29266,"lon":5.38441,"is_reserved":false,"is_disabled":true,"rental_uris":{"android":"levelo://app?vid=6bbb3ae4-3edd-4b00-9ef1-2eee7e19ed9b","ios":"levelo://app?vid=6bbb3ae4-3edd-4b00-9ef1-2eee7e19ed9b"},"vehicle_type_id":"4","last_reported":1747851289,"current_range_meters":1600,"station_id":"ce4bh692rcd13ifvqea0","pricing_plan_id":"cebpf4jnsgd1na2vs0mg"},{"bike_id":"b67e7ff2-3702-4ffe-9456-c5c5e09a94ba","system_id":"levelo_inurba_marseille","lat":43.28099,"lon":5.37852,"is_reserved":false,"is_disabled":true,"rental_uris":{"android":"levelo://app?vid=b67e7ff2-3702-4ffe-9456-c5c5e09a94ba","ios":"levelo://app?vid=b67e7ff2-3702-4ffe-9456-c5c5e09a94ba"},"vehicle_type_id":"4","last_reported":1747851289,"current_range_meters":1600,"station_id":"ce4bha12rcd13ifvqee0","pricing_plan_id":"cebpf4jnsgd1na2vs0mg"},{"bike_id":"4fe78a85-3c56-438c-a3a9-0961d53c8672","system_id":"levelo_inurba_marseille","lat":43.29001,"lon":5.3561,"is_reserved":false,"is_disabled":true,"rental_uris":{"android":"levelo://app?vid=4fe78a85-3c56-438c-a3a9-0961d53c8672","ios":"levelo://app?vid=4fe78a85-3c56-438c-a3a9-0961d53c8672"},"vehicle_type_id":"4","last_reported":1747851289,"current_range_meters":1600,"station_id":"ce4bhb92rcd13ifvqen0","pricing_plan_id":"cebpf4jnsgd1na2vs0mg"},{"bike_id":"01b136ea-4cc7-4444-8329-6b48cf83b778","system_id":"levelo_inurba_marseille","lat":43.28003,"lon":5.4001,"is_reserved":false,"is_disabled":true,"rental_uris":{"android":"levelo://app?vid=01b136ea-4cc7-4444-8329-6b48cf83b778","ios":"levelo://app?vid=01b136ea-4cc7-4444-8329-6b48cf83b778"},"vehicle_type_id":"4","last_reported":1747851289,"current_range_meters":1600,"station_id":"ce4bho92rcd13ifvqh4g","pricing_plan_id":"cebpf4jnsgd1na2vs0mg"},{"bike_id":"a5bcf3ab-5daa-4dec-898b-27b2e944e103","system_id":"levelo_inurba_marseille","lat":43.27278,"lon":5.41021,"is_reserved":false,"is_disabled":true,"rental_uris":{"android":"levelo://app?vid=a5bcf3ab-5daa-4dec-898b-27b2e944e103","ios":"levelo://app?vid=a5bcf3ab-5daa-4dec-898b-27b2e944e103"},"vehicle_type_id":"4","last_reported":1747851289,"current_range_meters":2000,"station_id":"","pricing_plan_id":"cebpf4jnsgd1na2vs0mg"},{"bike_id":"7f7270cc-2a08-4e87-9e25-a1b7ee0e40fe","system_id":"levelo_inurba_marseille","lat":43.291844,"lon":5.371721,"is_reserved":false,"is_disabled":true,"rental_uris":{"android":"levelo://app?vid=7f7270cc-2a08-4e87-9e25-a1b7ee0e40fe","ios":"levelo://app?vid=7f7270cc-2a08-4e87-9e25-a1b7ee0e40fe"},"vehicle_type_id":"4","last_reported":1747851289,"current_range_meters":2000,"station_id":"","pricing_plan_id":"cebpf4jnsgd1na2vs0mg"},{"bike_id":"07296d20-d4b1-4aec-94cd-d71d5ca14715","system_id":"levelo_inurba_marseille","lat":43.31691,"lon":5.40474,"is_reserved":false,"is_disabled":true,"rental_uris":{"android":"levelo://app?vid=07296d20-d4b1-4aec-94cd-d71d5ca14715","ios":"levelo://app?vid=07296d20-d4b1-4aec-94cd-d71d5ca14715"},"vehicle_type_id":"4","last_reported":1747851289,"current_range_meters":2000,"station_id":"ce4bh012rcd13ifvqd00","pricing_plan_id":"cebpf4jnsgd1na2vs0mg"},{"bike_id":"ed094543-195d-4803-affa-704e57054b14","system_id":"levelo_inurba_marseille","lat":43.269542,"lon":5.386327,"is_reserved":false,"is_disabled":true,"rental_uris":{"android":"levelo://app?vid=ed094543-195d-4803-affa-704e57054b14","ios":"levelo://app?vid=ed094543-195d-4803-affa-704e57054b14"},"vehicle_type_id":"4","last_reported":1747851289,"current_range_meters":2000,"station_id":"ce4bhh92rcd13ifvqfh0","pricing_plan_id":"cebpf4jnsgd1na2vs0mg"},{"bike_id":"1575b638-b365-41b5-9772-04b9e6ceb0d7","system_id":"levelo_inurba_marseille","lat":43.27696,"lon":5.3891,"is_reserved":false,"is_disabled":true,"rental_uris":{"android":"levelo://app?vid=1575b638-b365-41b5-9772-04b9e6ceb0d7","ios":"levelo://app?vid=1575b638-b365-41b5-9772-04b9e6ceb0d7"},"vehicle_type_id":"4","last_reported":1747851289,"current_range_meters":2000,"station_id":"ce4bhi12rcd13ifvqfo0","pricing_plan_id":"cebpf4jnsgd1na2vs0mg"},{"bike_id":"a0c3023e-3a80-4e3a-9d43-afdbba38d048","system_id":"levelo_inurba_marseille","lat":43.23967,"lon":5.3663,"is_reserved":false,"is_disabled":true,"rental_uris":{"android":"levelo://app?vid=a0c3023e-3a80-4e3a-9d43-afdbba38d048","ios":"levelo://app?vid=a0c3023e-3a80-4e3a-9d43-afdbba38d048"},"vehicle_type_id":"4","last_reported":1747851289,"current_range_meters":2000,"station_id":"ce4bhi12rcd13ifvqfp0","pricing_plan_id":"cebpf4jnsgd1na2vs0mg"},{"bike_id":"50f7eb96-2ca2-48a9-b149-bce63f847bf8","system_id":"levelo_inurba_marseille","lat":43.293152,"lon":5.371695,"is_reserved":false,"is_disabled":false,"rental_uris":{"android":"levelo://app?vid=50f7eb96-2ca2-48a9-b149-bce63f847bf8","ios":"levelo://app?vid=50f7eb96-2ca2-48a9-b149-bce63f847bf8"},"vehicle_type_id":"4","last_reported":1747851289,"current_range_meters":2800,"station_id":"ce4bgh92rcd13ifvqb40","pricing_plan_id":"cebpf4jnsgd1na2vs0mg"},{"bike_id":"41921bee-bfcb-40f9-bdf1-527301e51014","system_id":"levelo_inurba_marseille","lat":43.29272,"lon":5.36837,"is_reserved":false,"is_disabled":false,"rental_uris":{"android":"levelo://app?vid=41921bee-bfcb-40f9-bdf1-527301e51014","ios":"levelo://app?vid=41921bee-bfcb-40f9-bdf1-527301e51014"},"vehicle_type_id":"4","last_reported":1747851289,"current_range_meters":2800,"station_id":"ce4bhbp2rcd13ifvqesg","pricing_plan_id":"cebpf4jnsgd1na2vs0mg"},{"bike_id":"83c47ccf-9f86-4e91-878b-0a9a2587a04e","system_id":"levelo_inurba_marseille","lat":43.26566,"lon":5.39004,"is_reserved":false,"is_disabled":false,"rental_uris":{"android":"levelo://app?vid=83c47ccf-9f86-4e91-878b-0a9a2587a04e","ios":"levelo://app?vid=83c47ccf-9f86-4e91-878b-0a9a2587a04e"},"vehicle_type_id":"4","last_reported":1747851289,"current_range_meters":2800,"station_id":"ce4bhe12rcd13ifvqf30","pricing_plan_id":"cebpf4jnsgd1na2vs0mg"},{"bike_id":"74b52de7-1e8a-4c98-8fa2-a2bd5537eaca","system_id":"levelo_inurba_marseille","lat":43.25085,"lon":5.39527,"is_reserved":false,"is_disabled":false,"rental_uris":{"android":"levelo://app?vid=74b52de7-1e8a-4c98-8fa2-a2bd5537eaca","ios":"levelo://app?vid=74b52de7-1e8a-4c98-8fa2-a2bd5537eaca"},"vehicle_type_id":"4","last_reported":1747851289,"current_range_meters":2800,"station_id":"ce4bhm12rcd13ifvqgkg","pricing_plan_id":"cebpf4jnsgd1na2vs0mg"},{"bike_id":"e97b57bd-02f1-4294-9688-70c3c5f689ee","system_id":"levelo_inurba_marseille","lat":43.27952,"lon":5.41037,"is_reserved":false,"is_disabled":false,"rental_uris":{"android":"levelo://app?vid=e97b57bd-02f1-4294-9688-70c3c5f689ee","ios":"levelo://app?vid=e97b57bd-02f1-4294-9688-70c3c5f689ee"},"vehicle_type_id":"4","last_reported":1747851289,"current_range_meters":2800,"station_id":"ce4bhnp2rcd13ifvqh0g","pricing_plan_id":"cebpf4jnsgd1na2vs0mg"},{"bike_id":"85eaca89-9437-48d0-9bca-a254337b88db","system_id":"levelo_inurba_marseille","lat":43.27459,"lon":5.40971,"is_reserved":false,"is_disabled":false,"rental_uris":{"android":"levelo://app?vid=85eaca89-9437-48d0-9bca-a254337b88db","ios":"levelo://app?vid=85eaca89-9437-48d0-9bca-a254337b88db"},"vehicle_type_id":"4","last_reported":1747851289,"current_range_meters":3200,"station_id":"","pricing_plan_id":"cebpf4jnsgd1na2vs0mg"},{"bike_id":"67676544-42b0-4366-8601-782c8d339f2c","system_id":"levelo_inurba_marseille","lat":43.29529,"lon":5.3854,"is_reserved":false,"is_disabled":false,"rental_uris":{"android":"levelo://app?vid=67676544-42b0-4366-8601-782c8d339f2c","ios":"levelo://app?vid=67676544-42b0-4366-8601-782c8d339f2c"},"vehicle_type_id":"4","last_reported":1747851289,"current_range_meters":3200,"station_id":"ce4bgih2rcd13ifvqba0","pricing_plan_id":"cebpf4jnsgd1na2vs0mg"},{"bike_id":"7e40606c-0534-4fde-9082-840ebbf93910","system_id":"levelo_inurba_marseille","lat":43.29785,"lon":5.38103,"is_reserved":false,"is_disabled":false,"rental_uris":{"android":"levelo://app?vid=7e40606c-0534-4fde-9082-840ebbf93910","ios":"levelo://app?vid=7e40606c-0534-4fde-9082-840ebbf93910"},"vehicle_type_id":"4","last_reported":1747851289,"current_range_meters":3200,"station_id":"ce4bgip2rcd13ifvqbb0","pricing_plan_id":"cebpf4jnsgd1na2vs0mg"},{"bike_id":"72292218-ebd6-4754-9fc4-5abf2b511a0d","system_id":"levelo_inurba_marseille","lat":43.30137,"lon":5.38062,"is_reserved":false,"is_disabled":false,"rental_uris":{"android":"levelo://app?vid=72292218-ebd6-4754-9fc4-5abf2b511a0d","ios":"levelo://app?vid=72292218-ebd6-4754-9fc4-5abf2b511a0d"},"vehicle_type_id":"4","last_reported":1747851289,"current_range_meters":3200,"station_id":"ce4bgjp2rcd13ifvqbh0","pricing_plan_id":"cebpf4jnsgd1na2vs0mg"},{"bike_id":"a1580f9c-7b7f-49b0-8b24-3edf00cc73e3","system_id":"levelo_inurba_marseille","lat":43.28407,"lon":5.37509,"is_reserved":false,"is_disabled":false,"rental_uris":{"android":"levelo://app?vid=a1580f9c-7b7f-49b0-8b24-3edf00cc73e3","ios":"levelo://app?vid=a1580f9c-7b7f-49b0-8b24-3edf00cc73e3"},"vehicle_type_id":"4","last_reported":1747851289,"current_range_meters":3200,"station_id":"ce4bh412rcd13ifvqds0","pricing_plan_id":"cebpf4jnsgd1na2vs0mg"},{"bike_id":"a75b72db-9270-4968-b4c7-b40a2573c131","system_id":"levelo_inurba_marseille","lat":43.28106,"lon":5.37849,"is_reserved":false,"is_disabled":false,"rental_uris":{"android":"levelo://app?vid=a75b72db-9270-4968-b4c7-b40a2573c131","ios":"levelo://app?vid=a75b72db-9270-4968-b4c7-b40a2573c131"},"vehicle_type_id":"4","last_reported":1747851289,"current_range_meters":3200,"station_id":"ce4bha12rcd13ifvqee0","pricing_plan_id":"cebpf4jnsgd1na2vs0mg"},{"bike_id":"3b80676d-8e72-4446-9aa4-39c564323f45","system_id":"levelo_inurba_marseille","lat":43.29849,"lon":5.36283,"is_reserved":false,"is_disabled":false,"rental_uris":{"android":"levelo://app?vid=3b80676d-8e72-4446-9aa4-39c564323f45","ios":"levelo://app?vid=3b80676d-8e72-4446-9aa4-39c564323f45"},"vehicle_type_id":"4","last_reported":1747851289,"current_range_meters":3600,"station_id":"ce4bgpp2rcd13ifvqc3g","pricing_plan_id":"cebpf4jnsgd1na2vs0mg"},{"bike_id":"b2a38961-e7ad-4438-a6eb-c092062f80af","system_id":"levelo_inurba_marseille","lat":43.29279,"lon":5.40118,"is_reserved":false,"is_disabled":false,"rental_uris":{"android":"levelo://app?vid=b2a38961-e7ad-4438-a6eb-c092062f80af","ios":"levelo://app?vid=b2a38961-e7ad-4438-a6eb-c092062f80af"},"vehicle_type_id":"4","last_reported":1747851289,"current_range_meters":3600,"station_id":"ce4bh312rcd13ifvqdk0","pricing_plan_id":"cebpf4jnsgd1na2vs0mg"},{"bike_id":"33e99258-6166-4816-aeaa-a098770928a2","system_id":"levelo_inurba_marseille","lat":43.25119,"lon":5.40314,"is_reserved":false,"is_disabled":false,"rental_uris":{"android":"levelo://app?vid=33e99258-6166-4816-aeaa-a098770928a2","ios":"levelo://app?vid=33e99258-6166-4816-aeaa-a098770928a2"},"vehicle_type_id":"4","last_reported":1747851289,"current_range_meters":3600,"station_id":"ce4bhlh2rcd13ifvqgig","pricing_plan_id":"cebpf4jnsgd1na2vs0mg"},{"bike_id":"71a9fe80-598e-44e1-83a4-d9c144513111","system_id":"levelo_inurba_marseille","lat":43.23146,"lon":5.43723,"is_reserved":false,"is_disabled":false,"rental_uris":{"android":"levelo://app?vid=71a9fe80-598e-44e1-83a4-d9c144513111","ios":"levelo://app?vid=71a9fe80-598e-44e1-83a4-d9c144513111"},"vehicle_type_id":"4","last_reported":1747851289,"current_range_meters":3600,"station_id":"ce4bhmp2rcd13ifvqgog","pricing_plan_id":"cebpf4jnsgd1na2vs0mg"},{"bike_id":"e5d61907-3299-4697-b044-0d36524dfec7","system_id":"levelo_inurba_marseille","lat":43.32275,"lon":5.38279,"is_reserved":false,"is_disabled":false,"rental_uris":{"android":"levelo://app?vid=e5d61907-3299-4697-b044-0d36524dfec7","ios":"levelo://app?vid=e5d61907-3299-4697-b044-0d36524dfec7"},"vehicle_type_id":"4","last_reported":1747851289,"current_range_meters":3600,"station_id":"ce4bhr12rcd13ifvqhqg","pricing_plan_id":"cebpf4jnsgd1na2vs0mg"},{"bike_id":"7f124436-fb77-4d47-a50d-41a5b549a3e5","system_id":"levelo_inurba_marseille","lat":43.30908,"lon":5.36847,"is_reserved":false,"is_disabled":false,"rental_uris":{"android":"levelo://app?vid=7f124436-fb77-4d47-a50d-41a5b549a3e5","ios":"levelo://app?vid=7f124436-fb77-4d47-a50d-41a5b549a3e5"},"vehicle_type_id":"4","last_reported":1747851289,"current_range_meters":4000,"station_id":"ce4bgn92rcd13ifvqbvg","pricing_plan_id":"cebpf4jnsgd1na2vs0mg"},{"bike_id":"db5e95a1-8f8b-40d3-8dc4-2e7199d600fb","system_id":"levelo_inurba_marseille","lat":43.28657,"lon":5.37463,"is_reserved":false,"is_disabled":false,"rental_uris":{"android":"levelo://app?vid=db5e95a1-8f8b-40d3-8dc4-2e7199d600fb","ios":"levelo://app?vid=db5e95a1-8f8b-40d3-8dc4-2e7199d600fb"},"vehicle_type_id":"4","last_reported":1747851289,"current_range_meters":4000,"station_id":"ce4bh3p2rcd13ifvqdq0","pricing_plan_id":"cebpf4jnsgd1na2vs0mg"},{"bike_id":"7be912f2-18c9-4e01-8838-3ef0fb757e49","system_id":"levelo_inurba_marseille","lat":43.28693,"lon":5.37408,"is_reserved":false,"is_disabled":false,"rental_uris":{"android":"levelo://app?vid=7be912f2-18c9-4e01-8838-3ef0fb757e49","ios":"levelo://app?vid=7be912f2-18c9-4e01-8838-3ef0fb757e49"},"vehicle_type_id":"4","last_reported":1747851289,"current_range_meters":4000,"station_id":"ce4bh3p2rcd13ifvqdq0","pricing_plan_id":"cebpf4jnsgd1na2vs0mg"},{"bike_id":"55da7038-703b-427e-99bb-636b2b35ad6e","system_id":"levelo_inurba_marseille","lat":43.29228,"lon":5.38482,"is_reserved":false,"is_disabled":false,"rental_uris":{"android":"levelo://app?vid=55da7038-703b-427e-99bb-636b2b35ad6e","ios":"levelo://app?vid=55da7038-703b-427e-99bb-636b2b35ad6e"},"vehicle_type_id":"4","last_reported":1747851289,"current_range_meters":4000,"station_id":"ce4bh692rcd13ifvqea0","pricing_plan_id":"cebpf4jnsgd1na2vs0mg"},{"bike_id":"d5ea65c9-b10c-445c-90a9-5f32f306e626","system_id":"levelo_inurba_marseille","lat":43.24661,"lon":5.38159,"is_reserved":false,"is_disabled":false,"rental_uris":{"android":"levelo://app?vid=d5ea65c9-b10c-445c-90a9-5f32f306e626","ios":"levelo://app?vid=d5ea65c9-b10c-445c-90a9-5f32f306e626"},"vehicle_type_id":"4","last_reported":1747851289,"current_range_meters":4000,"station_id":"ce4bhih2rcd13ifvqfr0","pricing_plan_id":"cebpf4jnsgd1na2vs0mg"},{"bike_id":"aed0a0da-70f0-4fec-810e-d7f3453d0a12","system_id":"levelo_inurba_marseille","lat":43.27985,"lon":5.41658,"is_reserved":false,"is_disabled":false,"rental_uris":{"android":"levelo://app?vid=aed0a0da-70f0-4fec-810e-d7f3453d0a12","ios":"levelo://app?vid=aed0a0da-70f0-4fec-810e-d7f3453d0a12"},"vehicle_type_id":"4","last_reported":1747851289,"current_range_meters":4000,"station_id":"ce4bho12rcd13ifvqh1g","pricing_plan_id":"cebpf4jnsgd1na2vs0mg"},{"bike_id":"3491e2d1-10d6-4eaf-9467-4ee762672182","system_id":"levelo_inurba_marseille","lat":43.28066,"lon":5.39645,"is_reserved":false,"is_disabled":false,"rental_uris":{"android":"levelo://app?vid=3491e2d1-10d6-4eaf-9467-4ee762672182","ios":"levelo://app?vid=3491e2d1-10d6-4eaf-9467-4ee762672182"},"vehicle_type_id":"4","last_reported":1747851289,"current_range_meters":4000,"station_id":"ce4bho12rcd13ifvqh2g","pricing_plan_id":"cebpf4jnsgd1na2vs0mg"},{"bike_id":"dcbb7dc0-f0cd-4ac0-948c-2fd1d0cce904","system_id":"levelo_inurba_marseille","lat":43.28405,"lon":5.37507,"is_reserved":false,"is_disabled":false,"rental_uris":{"android":"levelo://app?vid=dcbb7dc0-f0cd-4ac0-948c-2fd1d0cce904","ios":"levelo://app?vid=dcbb7dc0-f0cd-4ac0-948c-2fd1d0cce904"},"vehicle_type_id":"4","last_reported":1747851289,"current_range_meters":4400,"station_id":"ce4bh412rcd13ifvqds0","pricing_plan_id":"cebpf4jnsgd1na2vs0mg"},{"bike_id":"46b79e8f-9adf-4afb-b2df-81289c666a02","system_id":"levelo_inurba_marseille","lat":43.2902,"lon":5.38642,"is_reserved":false,"is_disabled":false,"rental_uris":{"android":"levelo://app?vid=46b79e8f-9adf-4afb-b2df-81289c666a02","ios":"levelo://app?vid=46b79e8f-9adf-4afb-b2df-81289c666a02"},"vehicle_type_id":"4","last_reported":1747851289,"current_range_meters":4400,"station_id":"ce4bh4p2rcd13ifvqe0g","pricing_plan_id":"cebpf4jnsgd1na2vs0mg"},{"bike_id":"1ace1414-b74a-4763-b728-c54ad7a97342","system_id":"levelo_inurba_marseille","lat":43.279032,"lon":5.380326,"is_reserved":false,"is_disabled":false,"rental_uris":{"android":"levelo://app?vid=1ace1414-b74a-4763-b728-c54ad7a97342","ios":"levelo://app?vid=1ace1414-b74a-4763-b728-c54ad7a97342"},"vehicle_type_id":"4","last_reported":1747851289,"current_range_meters":4400,"station_id":"ce4bhf92rcd13ifvqf50","pricing_plan_id":"cebpf4jnsgd1na2vs0mg"},{"bike_id":"15f273dc-e193-4426-9b7c-10832159d9ab","system_id":"levelo_inurba_marseille","lat":43.26221,"lon":5.40448,"is_reserved":false,"is_disabled":false,"rental_uris":{"android":"levelo://app?vid=15f273dc-e193-4426-9b7c-10832159d9ab","ios":"levelo://app?vid=15f273dc-e193-4426-9b7c-10832159d9ab"},"vehicle_type_id":"4","last_reported":1747851289,"current_range_meters":4400,"station_id":"ce4bhmh2rcd13ifvqgmg","pricing_plan_id":"cebpf4jnsgd1na2vs0mg"},{"bike_id":"8a19d7fa-55c1-4954-a568-2bacf8294193","system_id":"levelo_inurba_marseille","lat":43.27493,"lon":5.42449,"is_reserved":false,"is_disabled":false,"rental_uris":{"android":"levelo://app?vid=8a19d7fa-55c1-4954-a568-2bacf8294193","ios":"levelo://app?vid=8a19d7fa-55c1-4954-a568-2bacf8294193"},"vehicle_type_id":"4","last_reported":1747851289,"current_range_meters":4400,"station_id":"ce4bhn92rcd13ifvqgrg","pricing_plan_id":"cebpf4jnsgd1na2vs0mg"},{"bike_id":"24518e27-fce3-4c9f-9ebe-7aad23acfb9a","system_id":"levelo_inurba_marseille","lat":43.27614,"lon":5.36117,"is_reserved":false,"is_disabled":false,"rental_uris":{"android":"levelo://app?vid=24518e27-fce3-4c9f-9ebe-7aad23acfb9a","ios":"levelo://app?vid=24518e27-fce3-4c9f-9ebe-7aad23acfb9a"},"vehicle_type_id":"4","last_reported":1747851289,"current_range_meters":4800,"station_id":"ce4bgj92rcd13ifvqbe0","pricing_plan_id":"cebpf4jnsgd1na2vs0mg"},{"bike_id":"bd302579-ab82-4f4b-89dc-5d88ceb25653","system_id":"levelo_inurba_marseille","lat":43.31162,"lon":5.38727,"is_reserved":false,"is_disabled":false,"rental_uris":{"android":"levelo://app?vid=bd302579-ab82-4f4b-89dc-5d88ceb25653","ios":"levelo://app?vid=bd302579-ab82-4f4b-89dc-5d88ceb25653"},"vehicle_type_id":"4","last_reported":1747851289,"current_range_meters":4800,"station_id":"ce4bgv12rcd13ifvqcp0","pricing_plan_id":"cebpf4jnsgd1na2vs0mg"},{"bike_id":"a715ae78-2c22-4bc8-be94-c5f59ffed5b4","system_id":"levelo_inurba_marseille","lat":43.30584,"lon":5.39346,"is_reserved":false,"is_disabled":false,"rental_uris":{"android":"levelo://app?vid=a715ae78-2c22-4bc8-be94-c5f59ffed5b4","ios":"levelo://app?vid=a715ae78-2c22-4bc8-be94-c5f59ffed5b4"},"vehicle_type_id":"4","last_reported":1747851289,"current_range_meters":4800,"station_id":"ce4bh0p2rcd13ifvqd80","pricing_plan_id":"cebpf4jnsgd1na2vs0mg"},{"bike_id":"ddee8666-3130-49c1-b5e2-2c9ed55bcc7d","system_id":"levelo_inurba_marseille","lat":43.28656,"lon":5.38673,"is_reserved":false,"is_disabled":false,"rental_uris":{"android":"levelo://app?vid=ddee8666-3130-49c1-b5e2-2c9ed55bcc7d","ios":"levelo://app?vid=ddee8666-3130-49c1-b5e2-2c9ed55bcc7d"},"vehicle_type_id":"4","last_reported":1747851289,"current_range_meters":4800,"station_id":"ce4bh492rcd13ifvqdug","pricing_plan_id":"cebpf4jnsgd1na2vs0mg"},{"bike_id":"1306f35a-586a-4e2f-a494-47ab0e318a6b","system_id":"levelo_inurba_marseille","lat":43.23964,"lon":5.36626,"is_reserved":false,"is_disabled":false,"rental_uris":{"android":"levelo://app?vid=1306f35a-586a-4e2f-a494-47ab0e318a6b","ios":"levelo://app?vid=1306f35a-586a-4e2f-a494-47ab0e318a6b"},"vehicle_type_id":"4","last_reported":1747851289,"current_range_meters":4800,"station_id":"ce4bhi12rcd13ifvqfp0","pricing_plan_id":"cebpf4jnsgd1na2vs0mg"},{"bike_id":"b06e1ca8-a7a3-4e47-ba85-815e199d0d97","system_id":"levelo_inurba_marseille","lat":43.26219,"lon":5.4047,"is_reserved":false,"is_disabled":false,"rental_uris":{"android":"levelo://app?vid=b06e1ca8-a7a3-4e47-ba85-815e199d0d97","ios":"levelo://app?vid=b06e1ca8-a7a3-4e47-ba85-815e199d0d97"},"vehicle_type_id":"4","last_reported":1747851289,"current_range_meters":4800,"station_id":"ce4bhmh2rcd13ifvqgmg","pricing_plan_id":"cebpf4jnsgd1na2vs0mg"},{"bike_id":"bffbaf88-357a-4e87-a68c-a9a27a6e01e6","system_id":"levelo_inurba_marseille","lat":43.262332,"lon":5.421331,"is_reserved":false,"is_disabled":false,"rental_uris":{"android":"levelo://app?vid=bffbaf88-357a-4e87-a68c-a9a27a6e01e6","ios":"levelo://app?vid=bffbaf88-357a-4e87-a68c-a9a27a6e01e6"},"vehicle_type_id":"4","last_reported":1747851289,"current_range_meters":5600,"station_id":"","pricing_plan_id":"cebpf4jnsgd1na2vs0mg"},{"bike_id":"84d62431-e764-4f96-b959-3882453e67a4","system_id":"levelo_inurba_marseille","lat":43.30344,"lon":5.3732,"is_reserved":false,"is_disabled":false,"rental_uris":{"android":"levelo://app?vid=84d62431-e764-4f96-b959-3882453e67a4","ios":"levelo://app?vid=84d62431-e764-4f96-b959-3882453e67a4"},"vehicle_type_id":"4","last_reported":1747851289,"current_range_meters":5600,"station_id":"","pricing_plan_id":"cebpf4jnsgd1na2vs0mg"},{"bike_id":"db1d0f80-898f-4eba-8b89-0a9191803bd4","system_id":"levelo_inurba_marseille","lat":43.30881,"lon":5.39663,"is_reserved":false,"is_disabled":false,"rental_uris":{"android":"levelo://app?vid=db1d0f80-898f-4eba-8b89-0a9191803bd4","ios":"levelo://app?vid=db1d0f80-898f-4eba-8b89-0a9191803bd4"},"vehicle_type_id":"4","last_reported":1747851289,"current_range_meters":5600,"station_id":"ce4bh012rcd13ifvqcv0","pricing_plan_id":"cebpf4jnsgd1na2vs0mg"},{"bike_id":"55adaa7b-61e6-45d8-881a-a35885ac6cb0","system_id":"levelo_inurba_marseille","lat":43.29535,"lon":5.39016,"is_reserved":false,"is_disabled":false,"rental_uris":{"android":"levelo://app?vid=55adaa7b-61e6-45d8-881a-a35885ac6cb0","ios":"levelo://app?vid=55adaa7b-61e6-45d8-881a-a35885ac6cb0"},"vehicle_type_id":"4","last_reported":1747851289,"current_range_meters":5600,"station_id":"ce4bh3p2rcd13ifvqdp0","pricing_plan_id":"cebpf4jnsgd1na2vs0mg"},{"bike_id":"4f8bd773-f5e8-4fdf-b65c-dfaf480bf030","system_id":"levelo_inurba_marseille","lat":43.29197,"lon":5.35795,"is_reserved":false,"is_disabled":false,"rental_uris":{"android":"levelo://app?vid=4f8bd773-f5e8-4fdf-b65c-dfaf480bf030","ios":"levelo://app?vid=4f8bd773-f5e8-4fdf-b65c-dfaf480bf030"},"vehicle_type_id":"4","last_reported":1747851289,"current_range_meters":5600,"station_id":"ce4bhb12rcd13ifvqel0","pricing_plan_id":"cebpf4jnsgd1na2vs0mg"},{"bike_id":"a57f9f7f-d631-4520-94f2-90813d3e47c7","system_id":"levelo_inurba_marseille","lat":43.24812,"lon":5.37453,"is_reserved":false,"is_disabled":false,"rental_uris":{"android":"levelo://app?vid=a57f9f7f-d631-4520-94f2-90813d3e47c7","ios":"levelo://app?vid=a57f9f7f-d631-4520-94f2-90813d3e47c7"},"vehicle_type_id":"4","last_reported":1747851289,"current_range_meters":5600,"station_id":"ce4bhgh2rcd13ifvqfb0","pricing_plan_id":"cebpf4jnsgd1na2vs0mg"},{"bike_id":"854924a6-5a01-4119-9cb1-51f285d4372c","system_id":"levelo_inurba_marseille","lat":43.2756,"lon":5.38421,"is_reserved":false,"is_disabled":false,"rental_uris":{"android":"levelo://app?vid=854924a6-5a01-4119-9cb1-51f285d4372c","ios":"levelo://app?vid=854924a6-5a01-4119-9cb1-51f285d4372c"},"vehicle_type_id":"4","last_reported":1747851289,"current_range_meters":5600,"station_id":"ce4bhh92rcd13ifvqfi0","pricing_plan_id":"cebpf4jnsgd1na2vs0mg"},{"bike_id":"19725071-7101-49bc-8fd2-a657fe1b9e1d","system_id":"levelo_inurba_marseille","lat":43.27839,"lon":5.39198,"is_reserved":false,"is_disabled":false,"rental_uris":{"android":"levelo://app?vid=19725071-7101-49bc-8fd2-a657fe1b9e1d","ios":"levelo://app?vid=19725071-7101-49bc-8fd2-a657fe1b9e1d"},"vehicle_type_id":"4","last_reported":1747851289,"current_range_meters":5600,"station_id":"ce4bhjp2rcd13ifvqga0","pricing_plan_id":"cebpf4jnsgd1na2vs0mg"},{"bike_id":"8821936a-ed67-4225-8458-b8d62cad46ab","system_id":"levelo_inurba_marseille","lat":43.231939,"lon":5.355535,"is_reserved":false,"is_disabled":false,"rental_uris":{"android":"levelo://app?vid=8821936a-ed67-4225-8458-b8d62cad46ab","ios":"levelo://app?vid=8821936a-ed67-4225-8458-b8d62cad46ab"},"vehicle_type_id":"4","last_reported":1747851289,"current_range_meters":5600,"station_id":"ce4bhu92rcd13ifvqi70","pricing_plan_id":"cebpf4jnsgd1na2vs0mg"},{"bike_id":"15dcdbbd-a41e-43eb-9ed6-26ec15ce7a50","system_id":"levelo_inurba_marseille","lat":43.21396,"lon":5.34106,"is_reserved":false,"is_disabled":false,"rental_uris":{"android":"levelo://app?vid=15dcdbbd-a41e-43eb-9ed6-26ec15ce7a50","ios":"levelo://app?vid=15dcdbbd-a41e-43eb-9ed6-26ec15ce7a50"},"vehicle_type_id":"4","last_reported":1747851289,"current_range_meters":6000,"station_id":"","pricing_plan_id":"cebpf4jnsgd1na2vs0mg"},{"bike_id":"348511e0-a66f-4844-8bde-0a5add92e6f9","system_id":"levelo_inurba_marseille","lat":43.29256,"lon":5.37659,"is_reserved":false,"is_disabled":false,"rental_uris":{"android":"levelo://app?vid=348511e0-a66f-4844-8bde-0a5add92e6f9","ios":"levelo://app?vid=348511e0-a66f-4844-8bde-0a5add92e6f9"},"vehicle_type_id":"4","last_reported":1747851289,"current_range_meters":6000,"station_id":"ce4bgi12rcd13ifvqb80","pricing_plan_id":"cebpf4jnsgd1na2vs0mg"},{"bike_id":"55d12175-290b-4d70-a1c5-6e64699e4033","system_id":"levelo_inurba_marseille","lat":43.29028,"lon":5.38124,"is_reserved":false,"is_disabled":false,"rental_uris":{"android":"levelo://app?vid=55d12175-290b-4d70-a1c5-6e64699e4033","ios":"levelo://app?vid=55d12175-290b-4d70-a1c5-6e64699e4033"},"vehicle_type_id":"4","last_reported":1747851289,"current_range_meters":6000,"station_id":"ce4bh4p2rcd13ifvqe1g","pricing_plan_id":"cebpf4jnsgd1na2vs0mg"},{"bike_id":"1a754d41-346b-4a3a-ba86-a79cd531a70d","system_id":"levelo_inurba_marseille","lat":43.25494,"lon":5.37648,"is_reserved":false,"is_disabled":false,"rental_uris":{"android":"levelo://app?vid=1a754d41-346b-4a3a-ba86-a79cd531a70d","ios":"levelo://app?vid=1a754d41-346b-4a3a-ba86-a79cd531a70d"},"vehicle_type_id":"4","last_reported":1747851289,"current_range_meters":6000,"station_id":"ce4bhh12rcd13ifvqff0","pricing_plan_id":"cebpf4jnsgd1na2vs0mg"},{"bike_id":"2f40fce3-8609-4c7c-a548-2ba99568a7f6","system_id":"levelo_inurba_marseille","lat":43.27816,"lon":5.40719,"is_reserved":false,"is_disabled":false,"rental_uris":{"android":"levelo://app?vid=2f40fce3-8609-4c7c-a548-2ba99568a7f6","ios":"levelo://app?vid=2f40fce3-8609-4c7c-a548-2ba99568a7f6"},"vehicle_type_id":"4","last_reported":1747851289,"current_range_meters":6000,"station_id":"ce4bhnh2rcd13ifvqgtg","pricing_plan_id":"cebpf4jnsgd1na2vs0mg"},{"bike_id":"de49be05-9377-4346-b77f-0afd1ba5e743","system_id":"levelo_inurba_marseille","lat":43.33021,"lon":5.390395,"is_reserved":false,"is_disabled":false,"rental_uris":{"android":"levelo://app?vid=de49be05-9377-4346-b77f-0afd1ba5e743","ios":"levelo://app?vid=de49be05-9377-4346-b77f-0afd1ba5e743"},"vehicle_type_id":"4","last_reported":1747851289,"current_range_meters":6000,"station_id":"ce4bhr92rcd13ifvqhrg","pricing_plan_id":"cebpf4jnsgd1na2vs0mg"},{"bike_id":"059a1b1f-c2a6-4218-a093-f5e3410c3dd3","system_id":"levelo_inurba_marseille","lat":43.269502,"lon":5.402416,"is_reserved":false,"is_disabled":false,"rental_uris":{"android":"levelo://app?vid=059a1b1f-c2a6-4218-a093-f5e3410c3dd3","ios":"levelo://app?vid=059a1b1f-c2a6-4218-a093-f5e3410c3dd3"},"vehicle_type_id":"4","last_reported":1747851289,"current_range_meters":6000,"station_id":"cjm6bp8fraef2m0cb0m0","pricing_plan_id":"cebpf4jnsgd1na2vs0mg"},{"bike_id":"18265a76-7677-4cf6-8aca-3e777b8bcf2f","system_id":"levelo_inurba_marseille","lat":43.295282,"lon":5.385477,"is_reserved":false,"is_disabled":false,"rental_uris":{"android":"levelo://app?vid=18265a76-7677-4cf6-8aca-3e777b8bcf2f","ios":"levelo://app?vid=18265a76-7677-4cf6-8aca-3e777b8bcf2f"},"vehicle_type_id":"4","last_reported":1747851289,"current_range_meters":6400,"station_id":"","pricing_plan_id":"cebpf4jnsgd1na2vs0mg"},{"bike_id":"10ce1d2c-09b2-4479-9912-b4fb55f1fab0","system_id":"levelo_inurba_marseille","lat":43.29418,"lon":5.38618,"is_reserved":false,"is_disabled":false,"rental_uris":{"android":"levelo://app?vid=10ce1d2c-09b2-4479-9912-b4fb55f1fab0","ios":"levelo://app?vid=10ce1d2c-09b2-4479-9912-b4fb55f1fab0"},"vehicle_type_id":"4","last_reported":1747851289,"current_range_meters":6400,"station_id":"ce4bh2h2rcd13ifvqdh0","pricing_plan_id":"cebpf4jnsgd1na2vs0mg"},{"bike_id":"d9927bf4-e4e5-4010-9382-75c41a3213ff","system_id":"levelo_inurba_marseille","lat":43.28392,"lon":5.37554,"is_reserved":false,"is_disabled":false,"rental_uris":{"android":"levelo://app?vid=d9927bf4-e4e5-4010-9382-75c41a3213ff","ios":"levelo://app?vid=d9927bf4-e4e5-4010-9382-75c41a3213ff"},"vehicle_type_id":"4","last_reported":1747851289,"current_range_meters":6400,"station_id":"ce4bh412rcd13ifvqds0","pricing_plan_id":"cebpf4jnsgd1na2vs0mg"},{"bike_id":"618eb6fa-6f41-4806-9b36-c98f442ac7f1","system_id":"levelo_inurba_marseille","lat":43.27565,"lon":5.38425,"is_reserved":false,"is_disabled":false,"rental_uris":{"android":"levelo://app?vid=618eb6fa-6f41-4806-9b36-c98f442ac7f1","ios":"levelo://app?vid=618eb6fa-6f41-4806-9b36-c98f442ac7f1"},"vehicle_type_id":"4","last_reported":1747851289,"current_range_meters":6400,"station_id":"ce4bhh92rcd13ifvqfi0","pricing_plan_id":"cebpf4jnsgd1na2vs0mg"},{"bike_id":"d52abeb4-9125-40fb-ab49-3999556db137","system_id":"levelo_inurba_marseille","lat":43.23963,"lon":5.36627,"is_reserved":false,"is_disabled":false,"rental_uris":{"android":"levelo://app?vid=d52abeb4-9125-40fb-ab49-3999556db137","ios":"levelo://app?vid=d52abeb4-9125-40fb-ab49-3999556db137"},"vehicle_type_id":"4","last_reported":1747851289,"current_range_meters":6400,"station_id":"ce4bhi12rcd13ifvqfp0","pricing_plan_id":"cebpf4jnsgd1na2vs0mg"},{"bike_id":"5485c417-c53b-4353-b99b-31ac467da04f","system_id":"levelo_inurba_marseille","lat":43.24549,"lon":5.39519,"is_reserved":false,"is_disabled":false,"rental_uris":{"android":"levelo://app?vid=5485c417-c53b-4353-b99b-31ac467da04f","ios":"levelo://app?vid=5485c417-c53b-4353-b99b-31ac467da04f"},"vehicle_type_id":"4","last_reported":1747851289,"current_range_meters":6400,"station_id":"ce4bhlp2rcd13ifvqgjg","pricing_plan_id":"cebpf4jnsgd1na2vs0mg"},{"bike_id":"72058435-8745-49ac-8919-627e79eb4f22","system_id":"levelo_inurba_marseille","lat":43.250901,"lon":5.395187,"is_reserved":false,"is_disabled":false,"rental_uris":{"android":"levelo://app?vid=72058435-8745-49ac-8919-627e79eb4f22","ios":"levelo://app?vid=72058435-8745-49ac-8919-627e79eb4f22"},"vehicle_type_id":"4","last_reported":1747851289,"current_range_meters":6400,"station_id":"ce4bhm12rcd13ifvqgkg","pricing_plan_id":"cebpf4jnsgd1na2vs0mg"},{"bike_id":"b28d5a42-d9b9-4408-a163-f7b8cf56f036","system_id":"levelo_inurba_marseille","lat":43.28037,"lon":5.39677,"is_reserved":false,"is_disabled":false,"rental_uris":{"android":"levelo://app?vid=b28d5a42-d9b9-4408-a163-f7b8cf56f036","ios":"levelo://app?vid=b28d5a42-d9b9-4408-a163-f7b8cf56f036"},"vehicle_type_id":"4","last_reported":1747851289,"current_range_meters":6400,"station_id":"ce4bho12rcd13ifvqh2g","pricing_plan_id":"cebpf4jnsgd1na2vs0mg"},{"bike_id":"6bf1b2a1-4f49-4bd2-ad2d-888585ebe386","system_id":"levelo_inurba_marseille","lat":43.29498,"lon":5.37765,"is_reserved":false,"is_disabled":false,"rental_uris":{"android":"levelo://app?vid=6bf1b2a1-4f49-4bd2-ad2d-888585ebe386","ios":"levelo://app?vid=6bf1b2a1-4f49-4bd2-ad2d-888585ebe386"},"vehicle_type_id":"4","last_reported":1747851289,"current_range_meters":6800,"station_id":"","pricing_plan_id":"cebpf4jnsgd1na2vs0mg"},{"bike_id":"b8b511c7-6f48-45be-97af-1e0036b54cc5","system_id":"levelo_inurba_marseille","lat":43.27348,"lon":5.42409,"is_reserved":false,"is_disabled":false,"rental_uris":{"android":"levelo://app?vid=b8b511c7-6f48-45be-97af-1e0036b54cc5","ios":"levelo://app?vid=b8b511c7-6f48-45be-97af-1e0036b54cc5"},"vehicle_type_id":"4","last_reported":1747851289,"current_range_meters":6800,"station_id":"","pricing_plan_id":"cebpf4jnsgd1na2vs0mg"},{"bike_id":"63a3c15b-795f-459a-b4e2-cd9d18bc556b","system_id":"levelo_inurba_marseille","lat":43.31163,"lon":5.38722,"is_reserved":false,"is_disabled":false,"rental_uris":{"android":"levelo://app?vid=63a3c15b-795f-459a-b4e2-cd9d18bc556b","ios":"levelo://app?vid=63a3c15b-795f-459a-b4e2-cd9d18bc556b"},"vehicle_type_id":"4","last_reported":1747851289,"current_range_meters":6800,"station_id":"ce4bgv12rcd13ifvqcp0","pricing_plan_id":"cebpf4jnsgd1na2vs0mg"},{"bike_id":"343a743a-05de-41b6-bd03-9b9c3ad92edd","system_id":"levelo_inurba_marseille","lat":43.28465,"lon":5.38433,"is_reserved":false,"is_disabled":false,"rental_uris":{"android":"levelo://app?vid=343a743a-05de-41b6-bd03-9b9c3ad92edd","ios":"levelo://app?vid=343a743a-05de-41b6-bd03-9b9c3ad92edd"},"vehicle_type_id":"4","last_reported":1747851289,"current_range_meters":6800,"station_id":"ce4bh512rcd13ifvqe3g","pricing_plan_id":"cebpf4jnsgd1na2vs0mg"},{"bike_id":"4fa91b47-f803-42d0-8b72-dd94ce566493","system_id":"levelo_inurba_marseille","lat":43.29217,"lon":5.36041,"is_reserved":false,"is_disabled":false,"rental_uris":{"android":"levelo://app?vid=4fa91b47-f803-42d0-8b72-dd94ce566493","ios":"levelo://app?vid=4fa91b47-f803-42d0-8b72-dd94ce566493"},"vehicle_type_id":"4","last_reported":1747851289,"current_range_meters":6800,"station_id":"ce4bhbh2rcd13ifvqeqg","pricing_plan_id":"cebpf4jnsgd1na2vs0mg"},{"bike_id":"9aa99ff9-fc61-4e56-b35d-da3b65ef92bf","system_id":"levelo_inurba_marseille","lat":43.29557,"lon":5.42291,"is_reserved":false,"is_disabled":false,"rental_uris":{"android":"levelo://app?vid=9aa99ff9-fc61-4e56-b35d-da3b65ef92bf","ios":"levelo://app?vid=9aa99ff9-fc61-4e56-b35d-da3b65ef92bf"},"vehicle_type_id":"4","last_reported":1747851289,"current_range_meters":6800,"station_id":"ce4bhph2rcd13ifvqhdg","pricing_plan_id":"cebpf4jnsgd1na2vs0mg"},{"bike_id":"0ad5832c-71b4-4a12-ac9d-39cb7b31a4da","system_id":"levelo_inurba_marseille","lat":43.28606,"lon":5.37064,"is_reserved":false,"is_disabled":false,"rental_uris":{"android":"levelo://app?vid=0ad5832c-71b4-4a12-ac9d-39cb7b31a4da","ios":"levelo://app?vid=0ad5832c-71b4-4a12-ac9d-39cb7b31a4da"},"vehicle_type_id":"4","last_reported":1747851289,"current_range_meters":6800,"station_id":"ce4bht12rcd13ifvqi60","pricing_plan_id":"cebpf4jnsgd1na2vs0mg"},{"bike_id":"0c4b6638-f1ec-460e-8063-7863c3cfd732","system_id":"levelo_inurba_marseille","lat":43.21767,"lon":5.34597,"is_reserved":false,"is_disabled":false,"rental_uris":{"android":"levelo://app?vid=0c4b6638-f1ec-460e-8063-7863c3cfd732","ios":"levelo://app?vid=0c4b6638-f1ec-460e-8063-7863c3cfd732"},"vehicle_type_id":"4","last_reported":1747851289,"current_range_meters":6800,"station_id":"st_cvj6r9ubvosntc0bgbag","pricing_plan_id":"cebpf4jnsgd1na2vs0mg"},{"bike_id":"e8162579-a5ad-485f-ad83-fec8a2ebe7e1","system_id":"levelo_inurba_marseille","lat":43.26826,"lon":5.39099,"is_reserved":false,"is_disabled":false,"rental_uris":{"android":"levelo://app?vid=e8162579-a5ad-485f-ad83-fec8a2ebe7e1","ios":"levelo://app?vid=e8162579-a5ad-485f-ad83-fec8a2ebe7e1"},"vehicle_type_id":"4","last_reported":1747851289,"current_range_meters":7200,"station_id":"","pricing_plan_id":"cebpf4jnsgd1na2vs0mg"},{"bike_id":"512f77c2-882a-42a0-8896-3fe8d3e5091e","system_id":"levelo_inurba_marseille","lat":43.31187,"lon":5.37689,"is_reserved":false,"is_disabled":false,"rental_uris":{"android":"levelo://app?vid=512f77c2-882a-42a0-8896-3fe8d3e5091e","ios":"levelo://app?vid=512f77c2-882a-42a0-8896-3fe8d3e5091e"},"vehicle_type_id":"4","last_reported":1747851289,"current_range_meters":7200,"station_id":"","pricing_plan_id":"cebpf4jnsgd1na2vs0mg"},{"bike_id":"b3ad7794-af24-4ecc-96a1-d13e3e58156c","system_id":"levelo_inurba_marseille","lat":43.28853,"lon":5.39302,"is_reserved":false,"is_disabled":false,"rental_uris":{"android":"levelo://app?vid=b3ad7794-af24-4ecc-96a1-d13e3e58156c","ios":"levelo://app?vid=b3ad7794-af24-4ecc-96a1-d13e3e58156c"},"vehicle_type_id":"4","last_reported":1747851289,"current_range_meters":7200,"station_id":"ce4bh2p2rcd13ifvqdi0","pricing_plan_id":"cebpf4jnsgd1na2vs0mg"},{"bike_id":"048bfe2f-dca9-46a3-9678-b19569ca9f56","system_id":"levelo_inurba_marseille","lat":43.29185,"lon":5.35796,"is_reserved":false,"is_disabled":false,"rental_uris":{"android":"levelo://app?vid=048bfe2f-dca9-46a3-9678-b19569ca9f56","ios":"levelo://app?vid=048bfe2f-dca9-46a3-9678-b19569ca9f56"},"vehicle_type_id":"4","last_reported":1747851289,"current_range_meters":7200,"station_id":"ce4bhb12rcd13ifvqel0","pricing_plan_id":"cebpf4jnsgd1na2vs0mg"},{"bike_id":"ec1a639b-49f7-4067-9761-0980b7aafb50","system_id":"levelo_inurba_marseille","lat":43.27368,"lon":5.36261,"is_reserved":false,"is_disabled":false,"rental_uris":{"android":"levelo://app?vid=ec1a639b-49f7-4067-9761-0980b7aafb50","ios":"levelo://app?vid=ec1a639b-49f7-4067-9761-0980b7aafb50"},"vehicle_type_id":"4","last_reported":1747851289,"current_range_meters":7200,"station_id":"ce4bhbh2rcd13ifvqeo0","pricing_plan_id":"cebpf4jnsgd1na2vs0mg"},{"bike_id":"7aab3b51-cfd2-4fc5-b4bc-2e912620d24e","system_id":"levelo_inurba_marseille","lat":43.28144,"lon":5.4264,"is_reserved":false,"is_disabled":false,"rental_uris":{"android":"levelo://app?vid=7aab3b51-cfd2-4fc5-b4bc-2e912620d24e","ios":"levelo://app?vid=7aab3b51-cfd2-4fc5-b4bc-2e912620d24e"},"vehicle_type_id":"4","last_reported":1747851289,"current_range_meters":7200,"station_id":"ce4bhnh2rcd13ifvqgug","pricing_plan_id":"cebpf4jnsgd1na2vs0mg"},{"bike_id":"3552fbf2-b43a-446f-93f5-d695fc251b73","system_id":"levelo_inurba_marseille","lat":43.25232,"lon":5.37482,"is_reserved":false,"is_disabled":false,"rental_uris":{"android":"levelo://app?vid=3552fbf2-b43a-446f-93f5-d695fc251b73","ios":"levelo://app?vid=3552fbf2-b43a-446f-93f5-d695fc251b73"},"vehicle_type_id":"4","last_reported":1747851289,"current_range_meters":8000,"station_id":"","pricing_plan_id":"cebpf4jnsgd1na2vs0mg"},{"bike_id":"216a05ec-40e5-4576-943d-1e27eff15262","system_id":"levelo_inurba_marseille","lat":43.29006,"lon":5.356013,"is_reserved":false,"is_disabled":false,"rental_uris":{"android":"levelo://app?vid=216a05ec-40e5-4576-943d-1e27eff15262","ios":"levelo://app?vid=216a05ec-40e5-4576-943d-1e27eff15262"},"vehicle_type_id":"4","last_reported":1747851289,"current_range_meters":8000,"station_id":"ce4bhb92rcd13ifvqen0","pricing_plan_id":"cebpf4jnsgd1na2vs0mg"},{"bike_id":"9362b4e7-fd8b-4f5a-a3a0-a2bb3cf42361","system_id":"levelo_inurba_marseille","lat":43.28614,"lon":5.35108,"is_reserved":false,"is_disabled":false,"rental_uris":{"android":"levelo://app?vid=9362b4e7-fd8b-4f5a-a3a0-a2bb3cf42361","ios":"levelo://app?vid=9362b4e7-fd8b-4f5a-a3a0-a2bb3cf42361"},"vehicle_type_id":"4","last_reported":1747851289,"current_range_meters":8000,"station_id":"ce4bhch2rcd13ifvqeug","pricing_plan_id":"cebpf4jnsgd1na2vs0mg"},{"bike_id":"f1321e81-ca86-4cd1-aea6-2636ac5fd84d","system_id":"levelo_inurba_marseille","lat":43.24818,"lon":5.37443,"is_reserved":false,"is_disabled":false,"rental_uris":{"android":"levelo://app?vid=f1321e81-ca86-4cd1-aea6-2636ac5fd84d","ios":"levelo://app?vid=f1321e81-ca86-4cd1-aea6-2636ac5fd84d"},"vehicle_type_id":"4","last_reported":1747851289,"current_range_meters":8000,"station_id":"ce4bhgh2rcd13ifvqfb0","pricing_plan_id":"cebpf4jnsgd1na2vs0mg"},{"bike_id":"a2d322bc-b2e9-47e5-bc16-0995b326ddfc","system_id":"levelo_inurba_marseille","lat":43.25723,"lon":5.41108,"is_reserved":false,"is_disabled":false,"rental_uris":{"android":"levelo://app?vid=a2d322bc-b2e9-47e5-bc16-0995b326ddfc","ios":"levelo://app?vid=a2d322bc-b2e9-47e5-bc16-0995b326ddfc"},"vehicle_type_id":"4","last_reported":1747851289,"current_range_meters":8000,"station_id":"ce4bhkp2rcd13ifvqgd0","pricing_plan_id":"cebpf4jnsgd1na2vs0mg"},{"bike_id":"0d2fd821-fd00-4e94-b9e9-d81a1d4f2ae6","system_id":"levelo_inurba_marseille","lat":43.25111,"lon":5.40339,"is_reserved":false,"is_disabled":false,"rental_uris":{"android":"levelo://app?vid=0d2fd821-fd00-4e94-b9e9-d81a1d4f2ae6","ios":"levelo://app?vid=0d2fd821-fd00-4e94-b9e9-d81a1d4f2ae6"},"vehicle_type_id":"4","last_reported":1747851289,"current_range_meters":8000,"station_id":"ce4bhlh2rcd13ifvqgig","pricing_plan_id":"cebpf4jnsgd1na2vs0mg"},{"bike_id":"b372620f-8132-4e7e-8d1a-e467489438c7","system_id":"levelo_inurba_marseille","lat":43.286137,"lon":5.40377,"is_reserved":false,"is_disabled":false,"rental_uris":{"android":"levelo://app?vid=b372620f-8132-4e7e-8d1a-e467489438c7","ios":"levelo://app?vid=b372620f-8132-4e7e-8d1a-e467489438c7"},"vehicle_type_id":"4","last_reported":1747851289,"current_range_meters":8400,"station_id":"","pricing_plan_id":"cebpf4jnsgd1na2vs0mg"},{"bike_id":"1ea60a65-3300-4f4c-a8ed-14ab47d35127","system_id":"levelo_inurba_marseille","lat":43.30936,"lon":5.3723,"is_reserved":false,"is_disabled":false,"rental_uris":{"android":"levelo://app?vid=1ea60a65-3300-4f4c-a8ed-14ab47d35127","ios":"levelo://app?vid=1ea60a65-3300-4f4c-a8ed-14ab47d35127"},"vehicle_type_id":"4","last_reported":1747851289,"current_range_meters":8400,"station_id":"","pricing_plan_id":"cebpf4jnsgd1na2vs0mg"},{"bike_id":"30900e28-3f79-4808-aef1-6f589c18edd3","system_id":"levelo_inurba_marseille","lat":43.2929,"lon":5.3745,"is_reserved":false,"is_disabled":false,"rental_uris":{"android":"levelo://app?vid=30900e28-3f79-4808-aef1-6f589c18edd3","ios":"levelo://app?vid=30900e28-3f79-4808-aef1-6f589c18edd3"},"vehicle_type_id":"4","last_reported":1747851289,"current_range_meters":8400,"station_id":"","pricing_plan_id":"cebpf4jnsgd1na2vs0mg"},{"bike_id":"7b19ae3d-375f-484a-ac22-3d52f30e632f","system_id":"levelo_inurba_marseille","lat":43.23193,"lon":5.3997,"is_reserved":false,"is_disabled":false,"rental_uris":{"android":"levelo://app?vid=7b19ae3d-375f-484a-ac22-3d52f30e632f","ios":"levelo://app?vid=7b19ae3d-375f-484a-ac22-3d52f30e632f"},"vehicle_type_id":"4","last_reported":1747851289,"current_range_meters":8400,"station_id":"ce4bhn12rcd13ifvqgqg","pricing_plan_id":"cebpf4jnsgd1na2vs0mg"},{"bike_id":"523c51a0-4f9e-4594-9a7b-b8d370f02cd8","system_id":"levelo_inurba_marseille","lat":43.24068,"lon":5.37763,"is_reserved":false,"is_disabled":false,"rental_uris":{"android":"levelo://app?vid=523c51a0-4f9e-4594-9a7b-b8d370f02cd8","ios":"levelo://app?vid=523c51a0-4f9e-4594-9a7b-b8d370f02cd8"},"vehicle_type_id":"4","last_reported":1747851289,"current_range_meters":8400,"station_id":"ce4bhnp2rcd13ifvqgvg","pricing_plan_id":"cebpf4jnsgd1na2vs0mg"},{"bike_id":"1ff4dd87-bf56-4ab1-8365-aad71fcb827c","system_id":"levelo_inurba_marseille","lat":43.316076,"lon":5.423906,"is_reserved":false,"is_disabled":false,"rental_uris":{"android":"levelo://app?vid=1ff4dd87-bf56-4ab1-8365-aad71fcb827c","ios":"levelo://app?vid=1ff4dd87-bf56-4ab1-8365-aad71fcb827c"},"vehicle_type_id":"4","last_reported":1747851289,"current_range_meters":8400,"station_id":"ce4bhp92rcd13ifvqhbg","pricing_plan_id":"cebpf4jnsgd1na2vs0mg"},{"bike_id":"103450c0-eff4-42bc-bcce-ed42d8883806","system_id":"levelo_inurba_marseille","lat":43.286711,"lon":5.415666,"is_reserved":false,"is_disabled":false,"rental_uris":{"android":"levelo://app?vid=103450c0-eff4-42bc-bcce-ed42d8883806","ios":"levelo://app?vid=103450c0-eff4-42bc-bcce-ed42d8883806"},"vehicle_type_id":"4","last_reported":1747851289,"current_range_meters":8800,"station_id":"","pricing_plan_id":"cebpf4jnsgd1na2vs0mg"},{"bike_id":"98df8b99-828a-4d7f-a9df-e6421bd09ab9","system_id":"levelo_inurba_marseille","lat":43.29175,"lon":5.37136,"is_reserved":false,"is_disabled":false,"rental_uris":{"android":"levelo://app?vid=98df8b99-828a-4d7f-a9df-e6421bd09ab9","ios":"levelo://app?vid=98df8b99-828a-4d7f-a9df-e6421bd09ab9"},"vehicle_type_id":"4","last_reported":1747851289,"current_range_meters":8800,"station_id":"ce4bha92rcd13ifvqeh0","pricing_plan_id":"cebpf4jnsgd1na2vs0mg"},{"bike_id":"45f4a0a3-71ce-430d-a434-4bb6fc274f79","system_id":"levelo_inurba_marseille","lat":43.27364,"lon":5.36257,"is_reserved":false,"is_disabled":false,"rental_uris":{"android":"levelo://app?vid=45f4a0a3-71ce-430d-a434-4bb6fc274f79","ios":"levelo://app?vid=45f4a0a3-71ce-430d-a434-4bb6fc274f79"},"vehicle_type_id":"4","last_reported":1747851289,"current_range_meters":8800,"station_id":"ce4bhbh2rcd13ifvqeo0","pricing_plan_id":"cebpf4jnsgd1na2vs0mg"},{"bike_id":"80da0feb-f7b2-49ef-80bc-b7e11a8b4ce9","system_id":"levelo_inurba_marseille","lat":43.27938,"lon":5.41047,"is_reserved":false,"is_disabled":false,"rental_uris":{"android":"levelo://app?vid=80da0feb-f7b2-49ef-80bc-b7e11a8b4ce9","ios":"levelo://app?vid=80da0feb-f7b2-49ef-80bc-b7e11a8b4ce9"},"vehicle_type_id":"4","last_reported":1747851289,"current_range_meters":8800,"station_id":"ce4bhnp2rcd13ifvqh0g","pricing_plan_id":"cebpf4jnsgd1na2vs0mg"},{"bike_id":"f350b7c9-bac9-4407-a30b-b945fd53d194","system_id":"levelo_inurba_marseille","lat":43.29781,"lon":5.39357,"is_reserved":false,"is_disabled":false,"rental_uris":{"android":"levelo://app?vid=f350b7c9-bac9-4407-a30b-b945fd53d194","ios":"levelo://app?vid=f350b7c9-bac9-4407-a30b-b945fd53d194"},"vehicle_type_id":"4","last_reported":1747851289,"current_range_meters":8800,"station_id":"chh1huq6cuj3fo74tm60","pricing_plan_id":"cebpf4jnsgd1na2vs0mg"},{"bike_id":"323dbdc2-52f0-4eb9-ae7d-a21eb3d528c8","system_id":"levelo_inurba_marseille","lat":43.30813,"lon":5.3813,"is_reserved":false,"is_disabled":false,"rental_uris":{"android":"levelo://app?vid=323dbdc2-52f0-4eb9-ae7d-a21eb3d528c8","ios":"levelo://app?vid=323dbdc2-52f0-4eb9-ae7d-a21eb3d528c8"},"vehicle_type_id":"4","last_reported":1747851289,"current_range_meters":9200,"station_id":"ce4bgt12rcd13ifvqce0","pricing_plan_id":"cebpf4jnsgd1na2vs0mg"},{"bike_id":"73faefc2-818e-47f1-8fc8-aea7a557a8a5","system_id":"levelo_inurba_marseille","lat":43.29516,"lon":5.3905,"is_reserved":false,"is_disabled":false,"rental_uris":{"android":"levelo://app?vid=73faefc2-818e-47f1-8fc8-aea7a557a8a5","ios":"levelo://app?vid=73faefc2-818e-47f1-8fc8-aea7a557a8a5"},"vehicle_type_id":"4","last_reported":1747851289,"current_range_meters":9200,"station_id":"ce4bh3p2rcd13ifvqdp0","pricing_plan_id":"cebpf4jnsgd1na2vs0mg"},{"bike_id":"5641eb89-a482-41be-b039-941cf051f6cb","system_id":"levelo_inurba_marseille","lat":43.28354,"lon":5.38639,"is_reserved":false,"is_disabled":false,"rental_uris":{"android":"levelo://app?vid=5641eb89-a482-41be-b039-941cf051f6cb","ios":"levelo://app?vid=5641eb89-a482-41be-b039-941cf051f6cb"},"vehicle_type_id":"4","last_reported":1747851289,"current_range_meters":9200,"station_id":"ce4bh492rcd13ifvqdvg","pricing_plan_id":"cebpf4jnsgd1na2vs0mg"},{"bike_id":"12336be1-a662-4d4d-accd-85e31aa39fd2","system_id":"levelo_inurba_marseille","lat":43.29035,"lon":5.35573,"is_reserved":false,"is_disabled":false,"rental_uris":{"android":"levelo://app?vid=12336be1-a662-4d4d-accd-85e31aa39fd2","ios":"levelo://app?vid=12336be1-a662-4d4d-accd-85e31aa39fd2"},"vehicle_type_id":"4","last_reported":1747851289,"current_range_meters":9200,"station_id":"ce4bhb92rcd13ifvqen0","pricing_plan_id":"cebpf4jnsgd1na2vs0mg"},{"bike_id":"8c55ba31-d72e-4794-af30-57bb018a3958","system_id":"levelo_inurba_marseille","lat":43.28266,"lon":5.35058,"is_reserved":false,"is_disabled":false,"rental_uris":{"android":"levelo://app?vid=8c55ba31-d72e-4794-af30-57bb018a3958","ios":"levelo://app?vid=8c55ba31-d72e-4794-af30-57bb018a3958"},"vehicle_type_id":"4","last_reported":1747851289,"current_range_meters":9200,"station_id":"ce4bhbp2rcd13ifvqerg","pricing_plan_id":"cebpf4jnsgd1na2vs0mg"},{"bike_id":"74e2dfb4-0127-4e0d-b810-ad19963626be","system_id":"levelo_inurba_marseille","lat":43.2956,"lon":5.42285,"is_reserved":false,"is_disabled":false,"rental_uris":{"android":"levelo://app?vid=74e2dfb4-0127-4e0d-b810-ad19963626be","ios":"levelo://app?vid=74e2dfb4-0127-4e0d-b810-ad19963626be"},"vehicle_type_id":"4","last_reported":1747851289,"current_range_meters":9200,"station_id":"ce4bhph2rcd13ifvqhdg","pricing_plan_id":"cebpf4jnsgd1na2vs0mg"},{"bike_id":"dc53f8be-ab14-4142-9f04-5d373c92c9a5","system_id":"levelo_inurba_marseille","lat":43.21752,"lon":5.3461,"is_reserved":false,"is_disabled":false,"rental_uris":{"android":"levelo://app?vid=dc53f8be-ab14-4142-9f04-5d373c92c9a5","ios":"levelo://app?vid=dc53f8be-ab14-4142-9f04-5d373c92c9a5"},"vehicle_type_id":"4","last_reported":1747851289,"current_range_meters":9200,"station_id":"st_cvj6r9ubvosntc0bgbag","pricing_plan_id":"cebpf4jnsgd1na2vs0mg"},{"bike_id":"e9fb40ef-dd55-4dc7-9a55-10353029ae73","system_id":"levelo_inurba_marseille","lat":43.29305,"lon":5.37168,"is_reserved":false,"is_disabled":false,"rental_uris":{"android":"levelo://app?vid=e9fb40ef-dd55-4dc7-9a55-10353029ae73","ios":"levelo://app?vid=e9fb40ef-dd55-4dc7-9a55-10353029ae73"},"vehicle_type_id":"4","last_reported":1747851289,"current_range_meters":9600,"station_id":"ce4bgh92rcd13ifvqb40","pricing_plan_id":"cebpf4jnsgd1na2vs0mg"},{"bike_id":"f4c29c30-7a45-4f3a-bd80-518b18181fec","system_id":"levelo_inurba_marseille","lat":43.31162,"lon":5.38731,"is_reserved":false,"is_disabled":false,"rental_uris":{"android":"levelo://app?vid=f4c29c30-7a45-4f3a-bd80-518b18181fec","ios":"levelo://app?vid=f4c29c30-7a45-4f3a-bd80-518b18181fec"},"vehicle_type_id":"4","last_reported":1747851289,"current_range_meters":9600,"station_id":"ce4bgv12rcd13ifvqcp0","pricing_plan_id":"cebpf4jnsgd1na2vs0mg"},{"bike_id":"74464b92-a8f4-427d-bf6a-293471347d45","system_id":"levelo_inurba_marseille","lat":43.30213,"lon":5.39481,"is_reserved":false,"is_disabled":false,"rental_uris":{"android":"levelo://app?vid=74464b92-a8f4-427d-bf6a-293471347d45","ios":"levelo://app?vid=74464b92-a8f4-427d-bf6a-293471347d45"},"vehicle_type_id":"4","last_reported":1747851289,"current_range_meters":9600,"station_id":"ce4bh0p2rcd13ifvqd70","pricing_plan_id":"cebpf4jnsgd1na2vs0mg"},{"bike_id":"b5308138-aeb4-4537-b618-a3012b7632ab","system_id":"levelo_inurba_marseille","lat":43.29521,"lon":5.39043,"is_reserved":false,"is_disabled":false,"rental_uris":{"android":"levelo://app?vid=b5308138-aeb4-4537-b618-a3012b7632ab","ios":"levelo://app?vid=b5308138-aeb4-4537-b618-a3012b7632ab"},"vehicle_type_id":"4","last_reported":1747851289,"current_range_meters":9600,"station_id":"ce4bh3p2rcd13ifvqdp0","pricing_plan_id":"cebpf4jnsgd1na2vs0mg"},{"bike_id":"17330f00-c1fc-46b3-973e-6135369587dc","system_id":"levelo_inurba_marseille","lat":43.291938,"lon":5.358013,"is_reserved":false,"is_disabled":false,"rental_uris":{"android":"levelo://app?vid=17330f00-c1fc-46b3-973e-6135369587dc","ios":"levelo://app?vid=17330f00-c1fc-46b3-973e-6135369587dc"},"vehicle_type_id":"4","last_reported":1747851289,"current_range_meters":9600,"station_id":"ce4bhb12rcd13ifvqel0","pricing_plan_id":"cebpf4jnsgd1na2vs0mg"},{"bike_id":"e51ec112-5b24-4317-a8ac-29e013a53682","system_id":"levelo_inurba_marseille","lat":43.23181,"lon":5.39986,"is_reserved":false,"is_disabled":false,"rental_uris":{"android":"levelo://app?vid=e51ec112-5b24-4317-a8ac-29e013a53682","ios":"levelo://app?vid=e51ec112-5b24-4317-a8ac-29e013a53682"},"vehicle_type_id":"4","last_reported":1747851289,"current_range_meters":9600,"station_id":"ce4bhn12rcd13ifvqgqg","pricing_plan_id":"cebpf4jnsgd1na2vs0mg"},{"bike_id":"3fe3d6c4-138a-47df-b6b4-e6f19e8f7d46","system_id":"levelo_inurba_marseille","lat":43.21414,"lon":5.34167,"is_reserved":false,"is_disabled":false,"rental_uris":{"android":"levelo://app?vid=3fe3d6c4-138a-47df-b6b4-e6f19e8f7d46","ios":"levelo://app?vid=3fe3d6c4-138a-47df-b6b4-e6f19e8f7d46"},"vehicle_type_id":"4","last_reported":1747851289,"current_range_meters":10000,"station_id":"","pricing_plan_id":"cebpf4jnsgd1na2vs0mg"},{"bike_id":"fdce2357-63c0-4156-80ed-4a19f779565b","system_id":"levelo_inurba_marseille","lat":43.31327,"lon":5.39691,"is_reserved":false,"is_disabled":false,"rental_uris":{"android":"levelo://app?vid=fdce2357-63c0-4156-80ed-4a19f779565b","ios":"levelo://app?vid=fdce2357-63c0-4156-80ed-4a19f779565b"},"vehicle_type_id":"4","last_reported":1747851289,"current_range_meters":10000,"station_id":"ce4bgvp2rcd13ifvqcu0","pricing_plan_id":"cebpf4jnsgd1na2vs0mg"},{"bike_id":"98632991-0279-483f-b989-2c68c3703715","system_id":"levelo_inurba_marseille","lat":43.29522,"lon":5.39046,"is_reserved":false,"is_disabled":false,"rental_uris":{"android":"levelo://app?vid=98632991-0279-483f-b989-2c68c3703715","ios":"levelo://app?vid=98632991-0279-483f-b989-2c68c3703715"},"vehicle_type_id":"4","last_reported":1747851289,"current_range_meters":10000,"station_id":"ce4bh3p2rcd13ifvqdp0","pricing_plan_id":"cebpf4jnsgd1na2vs0mg"},{"bike_id":"f7451775-98b8-435e-8038-364a978d877a","system_id":"levelo_inurba_marseille","lat":43.25495,"lon":5.37645,"is_reserved":false,"is_disabled":false,"rental_uris":{"android":"levelo://app?vid=f7451775-98b8-435e-8038-364a978d877a","ios":"levelo://app?vid=f7451775-98b8-435e-8038-364a978d877a"},"vehicle_type_id":"4","last_reported":1747851289,"current_range_meters":10000,"station_id":"ce4bhh12rcd13ifvqff0","pricing_plan_id":"cebpf4jnsgd1na2vs0mg"},{"bike_id":"01774b76-f693-4f92-a416-781eed7d286e","system_id":"levelo_inurba_marseille","lat":43.25823,"lon":5.39433,"is_reserved":false,"is_disabled":false,"rental_uris":{"android":"levelo://app?vid=01774b76-f693-4f92-a416-781eed7d286e","ios":"levelo://app?vid=01774b76-f693-4f92-a416-781eed7d286e"},"vehicle_type_id":"4","last_reported":1747851289,"current_range_meters":10000,"station_id":"ce4bhip2rcd13ifvqft0","pricing_plan_id":"cebpf4jnsgd1na2vs0mg"},{"bike_id":"66af826f-2201-4c6a-b28e-440b1e7d87e7","system_id":"levelo_inurba_marseille","lat":43.28062,"lon":5.39646,"is_reserved":false,"is_disabled":false,"rental_uris":{"android":"levelo://app?vid=66af826f-2201-4c6a-b28e-440b1e7d87e7","ios":"levelo://app?vid=66af826f-2201-4c6a-b28e-440b1e7d87e7"},"vehicle_type_id":"4","last_reported":1747851289,"current_range_meters":10000,"station_id":"ce4bho12rcd13ifvqh2g","pricing_plan_id":"cebpf4jnsgd1na2vs0mg"},{"bike_id":"37a40661-a730-4b3b-b0b5-15accd50b9e8","system_id":"levelo_inurba_marseille","lat":43.319928,"lon":5.38155,"is_reserved":false,"is_disabled":false,"rental_uris":{"android":"levelo://app?vid=37a40661-a730-4b3b-b0b5-15accd50b9e8","ios":"levelo://app?vid=37a40661-a730-4b3b-b0b5-15accd50b9e8"},"vehicle_type_id":"4","last_reported":1747851289,"current_range_meters":10000,"station_id":"ce4bhr12rcd13ifvqhpg","pricing_plan_id":"cebpf4jnsgd1na2vs0mg"},{"bike_id":"7bfd6946-14d4-467f-942c-40a4636ceb4d","system_id":"levelo_inurba_marseille","lat":43.29416,"lon":5.38627,"is_reserved":false,"is_disabled":false,"rental_uris":{"android":"levelo://app?vid=7bfd6946-14d4-467f-942c-40a4636ceb4d","ios":"levelo://app?vid=7bfd6946-14d4-467f-942c-40a4636ceb4d"},"vehicle_type_id":"4","last_reported":1747851289,"current_range_meters":10800,"station_id":"ce4bh2h2rcd13ifvqdh0","pricing_plan_id":"cebpf4jnsgd1na2vs0mg"},{"bike_id":"7bf4082a-5f24-4329-82d7-41e5f73d0400","system_id":"levelo_inurba_marseille","lat":43.2869,"lon":5.37401,"is_reserved":false,"is_disabled":false,"rental_uris":{"android":"levelo://app?vid=7bf4082a-5f24-4329-82d7-41e5f73d0400","ios":"levelo://app?vid=7bf4082a-5f24-4329-82d7-41e5f73d0400"},"vehicle_type_id":"4","last_reported":1747851289,"current_range_meters":10800,"station_id":"ce4bh3p2rcd13ifvqdq0","pricing_plan_id":"cebpf4jnsgd1na2vs0mg"},{"bike_id":"1f55d5eb-7d50-478b-809d-7b15116f63a1","system_id":"levelo_inurba_marseille","lat":43.29004,"lon":5.35615,"is_reserved":false,"is_disabled":false,"rental_uris":{"android":"levelo://app?vid=1f55d5eb-7d50-478b-809d-7b15116f63a1","ios":"levelo://app?vid=1f55d5eb-7d50-478b-809d-7b15116f63a1"},"vehicle_type_id":"4","last_reported":1747851289,"current_range_meters":10800,"station_id":"ce4bhb92rcd13ifvqen0","pricing_plan_id":"cebpf4jnsgd1na2vs0mg"},{"bike_id":"c5ba5012-c922-4862-a04e-86092a76f09a","system_id":"levelo_inurba_marseille","lat":43.27065,"lon":5.42285,"is_reserved":false,"is_disabled":false,"rental_uris":{"android":"levelo://app?vid=c5ba5012-c922-4862-a04e-86092a76f09a","ios":"levelo://app?vid=c5ba5012-c922-4862-a04e-86092a76f09a"},"vehicle_type_id":"4","last_reported":1747851289,"current_range_meters":10800,"station_id":"ce4bhk92rcd13ifvqgb0","pricing_plan_id":"cebpf4jnsgd1na2vs0mg"},{"bike_id":"9ad4500d-95cc-4c71-b0b7-df78605c376d","system_id":"levelo_inurba_marseille","lat":43.23189,"lon":5.39979,"is_reserved":false,"is_disabled":false,"rental_uris":{"android":"levelo://app?vid=9ad4500d-95cc-4c71-b0b7-df78605c376d","ios":"levelo://app?vid=9ad4500d-95cc-4c71-b0b7-df78605c376d"},"vehicle_type_id":"4","last_reported":1747851289,"current_range_meters":10800,"station_id":"ce4bhn12rcd13ifvqgqg","pricing_plan_id":"cebpf4jnsgd1na2vs0mg"},{"bike_id":"300868af-8985-4691-8a15-ff7731614940","system_id":"levelo_inurba_marseille","lat":43.29545,"lon":5.42284,"is_reserved":false,"is_disabled":false,"rental_uris":{"android":"levelo://app?vid=300868af-8985-4691-8a15-ff7731614940","ios":"levelo://app?vid=300868af-8985-4691-8a15-ff7731614940"},"vehicle_type_id":"4","last_reported":1747851289,"current_range_meters":10800,"station_id":"ce4bhph2rcd13ifvqhdg","pricing_plan_id":"cebpf4jnsgd1na2vs0mg"},{"bike_id":"2f34c329-54fe-438b-a307-b47c6ac8481c","system_id":"levelo_inurba_marseille","lat":43.29883,"lon":5.43687,"is_reserved":false,"is_disabled":false,"rental_uris":{"android":"levelo://app?vid=2f34c329-54fe-438b-a307-b47c6ac8481c","ios":"levelo://app?vid=2f34c329-54fe-438b-a307-b47c6ac8481c"},"vehicle_type_id":"4","last_reported":1747851289,"current_range_meters":10800,"station_id":"ce4bhpp2rcd13ifvqhfg","pricing_plan_id":"cebpf4jnsgd1na2vs0mg"},{"bike_id":"d0015b5e-8207-4ba0-9342-ea0e0671b53a","system_id":"levelo_inurba_marseille","lat":43.31203,"lon":5.37692,"is_reserved":false,"is_disabled":false,"rental_uris":{"android":"levelo://app?vid=d0015b5e-8207-4ba0-9342-ea0e0671b53a","ios":"levelo://app?vid=d0015b5e-8207-4ba0-9342-ea0e0671b53a"},"vehicle_type_id":"4","last_reported":1747851289,"current_range_meters":11200,"station_id":"","pricing_plan_id":"cebpf4jnsgd1na2vs0mg"},{"bike_id":"a6fe8515-ac3d-4d07-a294-7ff0753c877b","system_id":"levelo_inurba_marseille","lat":43.30924,"lon":5.401621,"is_reserved":false,"is_disabled":false,"rental_uris":{"android":"levelo://app?vid=a6fe8515-ac3d-4d07-a294-7ff0753c877b","ios":"levelo://app?vid=a6fe8515-ac3d-4d07-a294-7ff0753c877b"},"vehicle_type_id":"4","last_reported":1747851289,"current_range_meters":11200,"station_id":"ce4bgvp2rcd13ifvqct0","pricing_plan_id":"cebpf4jnsgd1na2vs0mg"},{"bike_id":"10802af7-f8e4-4f8a-a873-8a8259c944fa","system_id":"levelo_inurba_marseille","lat":43.29492,"lon":5.39072,"is_reserved":false,"is_disabled":false,"rental_uris":{"android":"levelo://app?vid=10802af7-f8e4-4f8a-a873-8a8259c944fa","ios":"levelo://app?vid=10802af7-f8e4-4f8a-a873-8a8259c944fa"},"vehicle_type_id":"4","last_reported":1747851289,"current_range_meters":11200,"station_id":"ce4bh3p2rcd13ifvqdp0","pricing_plan_id":"cebpf4jnsgd1na2vs0mg"},{"bike_id":"9ca5f34e-4bc6-4a4e-932d-1f336e1716b6","system_id":"levelo_inurba_marseille","lat":43.29024,"lon":5.38641,"is_reserved":false,"is_disabled":false,"rental_uris":{"android":"levelo://app?vid=9ca5f34e-4bc6-4a4e-932d-1f336e1716b6","ios":"levelo://app?vid=9ca5f34e-4bc6-4a4e-932d-1f336e1716b6"},"vehicle_type_id":"4","last_reported":1747851289,"current_range_meters":11200,"station_id":"ce4bh4p2rcd13ifvqe0g","pricing_plan_id":"cebpf4jnsgd1na2vs0mg"},{"bike_id":"1357215c-2bae-4b16-b751-0cf50292b54c","system_id":"levelo_inurba_marseille","lat":43.24805,"lon":5.37455,"is_reserved":false,"is_disabled":false,"rental_uris":{"android":"levelo://app?vid=1357215c-2bae-4b16-b751-0cf50292b54c","ios":"levelo://app?vid=1357215c-2bae-4b16-b751-0cf50292b54c"},"vehicle_type_id":"4","last_reported":1747851289,"current_range_meters":11200,"station_id":"ce4bhgh2rcd13ifvqfb0","pricing_plan_id":"cebpf4jnsgd1na2vs0mg"},{"bike_id":"a6e23164-6044-49e2-a2cf-5c57fdd5aaa1","system_id":"levelo_inurba_marseille","lat":43.27079,"lon":5.42282,"is_reserved":false,"is_disabled":false,"rental_uris":{"android":"levelo://app?vid=a6e23164-6044-49e2-a2cf-5c57fdd5aaa1","ios":"levelo://app?vid=a6e23164-6044-49e2-a2cf-5c57fdd5aaa1"},"vehicle_type_id":"4","last_reported":1747851289,"current_range_meters":11200,"station_id":"ce4bhk92rcd13ifvqgb0","pricing_plan_id":"cebpf4jnsgd1na2vs0mg"},{"bike_id":"45a08d27-9686-49ae-966a-37dec0128b6f","system_id":"levelo_inurba_marseille","lat":43.27811,"lon":5.4071,"is_reserved":false,"is_disabled":false,"rental_uris":{"android":"levelo://app?vid=45a08d27-9686-49ae-966a-37dec0128b6f","ios":"levelo://app?vid=45a08d27-9686-49ae-966a-37dec0128b6f"},"vehicle_type_id":"4","last_reported":1747851289,"current_range_meters":11200,"station_id":"ce4bhnh2rcd13ifvqgtg","pricing_plan_id":"cebpf4jnsgd1na2vs0mg"},{"bike_id":"59fe3574-714a-4ee6-acd4-73076351488b","system_id":"levelo_inurba_marseille","lat":43.29026,"lon":5.38643,"is_reserved":false,"is_disabled":false,"rental_uris":{"android":"levelo://app?vid=59fe3574-714a-4ee6-acd4-73076351488b","ios":"levelo://app?vid=59fe3574-714a-4ee6-acd4-73076351488b"},"vehicle_type_id":"4","last_reported":1747851289,"current_range_meters":11600,"station_id":"ce4bh4p2rcd13ifvqe0g","pricing_plan_id":"cebpf4jnsgd1na2vs0mg"},{"bike_id":"65d79b9a-e5bc-49b1-9a52-5001a9b3b923","system_id":"levelo_inurba_marseille","lat":43.281237,"lon":5.378303,"is_reserved":false,"is_disabled":false,"rental_uris":{"android":"levelo://app?vid=65d79b9a-e5bc-49b1-9a52-5001a9b3b923","ios":"levelo://app?vid=65d79b9a-e5bc-49b1-9a52-5001a9b3b923"},"vehicle_type_id":"4","last_reported":1747851289,"current_range_meters":11600,"station_id":"ce4bha12rcd13ifvqee0","pricing_plan_id":"cebpf4jnsgd1na2vs0mg"},{"bike_id":"e60a461c-c7f5-4142-8c5c-4a51bc4c4492","system_id":"levelo_inurba_marseille","lat":43.28999,"lon":5.35607,"is_reserved":false,"is_disabled":false,"rental_uris":{"android":"levelo://app?vid=e60a461c-c7f5-4142-8c5c-4a51bc4c4492","ios":"levelo://app?vid=e60a461c-c7f5-4142-8c5c-4a51bc4c4492"},"vehicle_type_id":"4","last_reported":1747851289,"current_range_meters":11600,"station_id":"ce4bhb92rcd13ifvqen0","pricing_plan_id":"cebpf4jnsgd1na2vs0mg"},{"bike_id":"52e03af0-dac2-4722-b063-ef4f9b58089c","system_id":"levelo_inurba_marseille","lat":43.30903,"lon":5.36836,"is_reserved":false,"is_disabled":false,"rental_uris":{"android":"levelo://app?vid=52e03af0-dac2-4722-b063-ef4f9b58089c","ios":"levelo://app?vid=52e03af0-dac2-4722-b063-ef4f9b58089c"},"vehicle_type_id":"4","last_reported":1747851289,"current_range_meters":12000,"station_id":"ce4bgn92rcd13ifvqbvg","pricing_plan_id":"cebpf4jnsgd1na2vs0mg"},{"bike_id":"9d58d7d8-ad2a-441f-923a-8022e3d71ae7","system_id":"levelo_inurba_marseille","lat":43.30258,"lon":5.40078,"is_reserved":false,"is_disabled":false,"rental_uris":{"android":"levelo://app?vid=9d58d7d8-ad2a-441f-923a-8022e3d71ae7","ios":"levelo://app?vid=9d58d7d8-ad2a-441f-923a-8022e3d71ae7"},"vehicle_type_id":"4","last_reported":1747851289,"current_range_meters":12000,"station_id":"ce4bgvh2rcd13ifvqcs0","pricing_plan_id":"cebpf4jnsgd1na2vs0mg"},{"bike_id":"6912307a-b4d5-42d8-b865-d9e0e18ad5d5","system_id":"levelo_inurba_marseille","lat":43.24571,"lon":5.39548,"is_reserved":false,"is_disabled":false,"rental_uris":{"android":"levelo://app?vid=6912307a-b4d5-42d8-b865-d9e0e18ad5d5","ios":"levelo://app?vid=6912307a-b4d5-42d8-b865-d9e0e18ad5d5"},"vehicle_type_id":"4","last_reported":1747851289,"current_range_meters":12000,"station_id":"ce4bhlp2rcd13ifvqgjg","pricing_plan_id":"cebpf4jnsgd1na2vs0mg"},{"bike_id":"cd8f9621-5061-4604-b392-f9e4bc57301f","system_id":"levelo_inurba_marseille","lat":43.31772,"lon":5.39006,"is_reserved":false,"is_disabled":false,"rental_uris":{"android":"levelo://app?vid=cd8f9621-5061-4604-b392-f9e4bc57301f","ios":"levelo://app?vid=cd8f9621-5061-4604-b392-f9e4bc57301f"},"vehicle_type_id":"4","last_reported":1747851289,"current_range_meters":12000,"station_id":"ce4bhqp2rcd13ifvqhng","pricing_plan_id":"cebpf4jnsgd1na2vs0mg"},{"bike_id":"4c935f85-4440-4a38-ba89-3c06fe79b1b3","system_id":"levelo_inurba_marseille","lat":43.29079,"lon":5.35556,"is_reserved":false,"is_disabled":false,"rental_uris":{"android":"levelo://app?vid=4c935f85-4440-4a38-ba89-3c06fe79b1b3","ios":"levelo://app?vid=4c935f85-4440-4a38-ba89-3c06fe79b1b3"},"vehicle_type_id":"4","last_reported":1747851289,"current_range_meters":12400,"station_id":"","pricing_plan_id":"cebpf4jnsgd1na2vs0mg"},{"bike_id":"9149529b-be6c-49f8-b369-3545b4bdb25c","system_id":"levelo_inurba_marseille","lat":43.27612,"lon":5.36104,"is_reserved":false,"is_disabled":false,"rental_uris":{"android":"levelo://app?vid=9149529b-be6c-49f8-b369-3545b4bdb25c","ios":"levelo://app?vid=9149529b-be6c-49f8-b369-3545b4bdb25c"},"vehicle_type_id":"4","last_reported":1747851289,"current_range_meters":12400,"station_id":"ce4bgj92rcd13ifvqbe0","pricing_plan_id":"cebpf4jnsgd1na2vs0mg"},{"bike_id":"9bc66e62-0f16-4829-a730-08d13f259630","system_id":"levelo_inurba_marseille","lat":43.28404,"lon":5.37513,"is_reserved":false,"is_disabled":false,"rental_uris":{"android":"levelo://app?vid=9bc66e62-0f16-4829-a730-08d13f259630","ios":"levelo://app?vid=9bc66e62-0f16-4829-a730-08d13f259630"},"vehicle_type_id":"4","last_reported":1747851289,"current_range_meters":12400,"station_id":"ce4bh412rcd13ifvqds0","pricing_plan_id":"cebpf4jnsgd1na2vs0mg"},{"bike_id":"feaf7be4-fe23-45f7-8636-d4ccad002b89","system_id":"levelo_inurba_marseille","lat":43.24066,"lon":5.37759,"is_reserved":false,"is_disabled":false,"rental_uris":{"android":"levelo://app?vid=feaf7be4-fe23-45f7-8636-d4ccad002b89","ios":"levelo://app?vid=feaf7be4-fe23-45f7-8636-d4ccad002b89"},"vehicle_type_id":"4","last_reported":1747851289,"current_range_meters":12400,"station_id":"ce4bhnp2rcd13ifvqgvg","pricing_plan_id":"cebpf4jnsgd1na2vs0mg"},{"bike_id":"146273a6-cfef-4584-a4fb-d74a6fc74b15","system_id":"levelo_inurba_marseille","lat":43.27986,"lon":5.41655,"is_reserved":false,"is_disabled":false,"rental_uris":{"android":"levelo://app?vid=146273a6-cfef-4584-a4fb-d74a6fc74b15","ios":"levelo://app?vid=146273a6-cfef-4584-a4fb-d74a6fc74b15"},"vehicle_type_id":"4","last_reported":1747851289,"current_range_meters":12400,"station_id":"ce4bho12rcd13ifvqh1g","pricing_plan_id":"cebpf4jnsgd1na2vs0mg"},{"bike_id":"bfc88a38-df32-4360-8173-61ba3df19406","system_id":"levelo_inurba_marseille","lat":43.29546,"lon":5.42276,"is_reserved":false,"is_disabled":false,"rental_uris":{"android":"levelo://app?vid=bfc88a38-df32-4360-8173-61ba3df19406","ios":"levelo://app?vid=bfc88a38-df32-4360-8173-61ba3df19406"},"vehicle_type_id":"4","last_reported":1747851289,"current_range_meters":12400,"station_id":"ce4bhph2rcd13ifvqhdg","pricing_plan_id":"cebpf4jnsgd1na2vs0mg"},{"bike_id":"bda45728-f7c4-446e-a4e2-998de6926709","system_id":"levelo_inurba_marseille","lat":43.29523,"lon":5.39044,"is_reserved":false,"is_disabled":false,"rental_uris":{"android":"levelo://app?vid=bda45728-f7c4-446e-a4e2-998de6926709","ios":"levelo://app?vid=bda45728-f7c4-446e-a4e2-998de6926709"},"vehicle_type_id":"4","last_reported":1747851289,"current_range_meters":12800,"station_id":"ce4bh3p2rcd13ifvqdp0","pricing_plan_id":"cebpf4jnsgd1na2vs0mg"},{"bike_id":"ee837769-95db-4db0-961b-89bebbbbbd6a","system_id":"levelo_inurba_marseille","lat":43.29254,"lon":5.38454,"is_reserved":false,"is_disabled":false,"rental_uris":{"android":"levelo://app?vid=ee837769-95db-4db0-961b-89bebbbbbd6a","ios":"levelo://app?vid=ee837769-95db-4db0-961b-89bebbbbbd6a"},"vehicle_type_id":"4","last_reported":1747851289,"current_range_meters":12800,"station_id":"ce4bh692rcd13ifvqea0","pricing_plan_id":"cebpf4jnsgd1na2vs0mg"},{"bike_id":"b1be7cb1-a065-4fb7-9869-81e9da33feba","system_id":"levelo_inurba_marseille","lat":43.28872,"lon":5.35843,"is_reserved":false,"is_disabled":false,"rental_uris":{"android":"levelo://app?vid=b1be7cb1-a065-4fb7-9869-81e9da33feba","ios":"levelo://app?vid=b1be7cb1-a065-4fb7-9869-81e9da33feba"},"vehicle_type_id":"4","last_reported":1747851289,"current_range_meters":12800,"station_id":"ce4bhb12rcd13ifvqem0","pricing_plan_id":"cebpf4jnsgd1na2vs0mg"},{"bike_id":"7b0487e7-8d15-49c9-b24e-73b2e9817982","system_id":"levelo_inurba_marseille","lat":43.28997,"lon":5.35607,"is_reserved":false,"is_disabled":false,"rental_uris":{"android":"levelo://app?vid=7b0487e7-8d15-49c9-b24e-73b2e9817982","ios":"levelo://app?vid=7b0487e7-8d15-49c9-b24e-73b2e9817982"},"vehicle_type_id":"4","last_reported":1747851289,"current_range_meters":12800,"station_id":"ce4bhb92rcd13ifvqen0","pricing_plan_id":"cebpf4jnsgd1na2vs0mg"},{"bike_id":"811df1dd-f77c-429e-a52a-a0d80b44c33d","system_id":"levelo_inurba_marseille","lat":43.27373,"lon":5.36258,"is_reserved":false,"is_disabled":false,"rental_uris":{"android":"levelo://app?vid=811df1dd-f77c-429e-a52a-a0d80b44c33d","ios":"levelo://app?vid=811df1dd-f77c-429e-a52a-a0d80b44c33d"},"vehicle_type_id":"4","last_reported":1747851289,"current_range_meters":12800,"station_id":"ce4bhbh2rcd13ifvqeo0","pricing_plan_id":"cebpf4jnsgd1na2vs0mg"},{"bike_id":"20d46360-b017-40c9-8a0d-bb0351687016","system_id":"levelo_inurba_marseille","lat":43.25572,"lon":5.38246,"is_reserved":false,"is_disabled":false,"rental_uris":{"android":"levelo://app?vid=20d46360-b017-40c9-8a0d-bb0351687016","ios":"levelo://app?vid=20d46360-b017-40c9-8a0d-bb0351687016"},"vehicle_type_id":"4","last_reported":1747851289,"current_range_meters":12800,"station_id":"ce4bhih2rcd13ifvqfs0","pricing_plan_id":"cebpf4jnsgd1na2vs0mg"},{"bike_id":"f9fb40c0-1fcd-48cb-8e26-3f2dc0fb2451","system_id":"levelo_inurba_marseille","lat":43.33751,"lon":5.37509,"is_reserved":false,"is_disabled":false,"rental_uris":{"android":"levelo://app?vid=f9fb40c0-1fcd-48cb-8e26-3f2dc0fb2451","ios":"levelo://app?vid=f9fb40c0-1fcd-48cb-8e26-3f2dc0fb2451"},"vehicle_type_id":"4","last_reported":1747851289,"current_range_meters":13600,"station_id":"","pricing_plan_id":"cebpf4jnsgd1na2vs0mg"},{"bike_id":"c921d112-bcae-4ebd-81d4-92fa7118ba04","system_id":"levelo_inurba_marseille","lat":43.27625,"lon":5.36099,"is_reserved":false,"is_disabled":false,"rental_uris":{"android":"levelo://app?vid=c921d112-bcae-4ebd-81d4-92fa7118ba04","ios":"levelo://app?vid=c921d112-bcae-4ebd-81d4-92fa7118ba04"},"vehicle_type_id":"4","last_reported":1747851289,"current_range_meters":13600,"station_id":"ce4bgj92rcd13ifvqbe0","pricing_plan_id":"cebpf4jnsgd1na2vs0mg"},{"bike_id":"62b0d598-4219-46a8-b3f5-d75749e5fc8a","system_id":"levelo_inurba_marseille","lat":43.30331,"lon":5.40425,"is_reserved":false,"is_disabled":false,"rental_uris":{"android":"levelo://app?vid=62b0d598-4219-46a8-b3f5-d75749e5fc8a","ios":"levelo://app?vid=62b0d598-4219-46a8-b3f5-d75749e5fc8a"},"vehicle_type_id":"4","last_reported":1747851289,"current_range_meters":13600,"station_id":"ce4bh012rcd13ifvqd10","pricing_plan_id":"cebpf4jnsgd1na2vs0mg"},{"bike_id":"6b2b8096-175e-45b1-b534-7510cc127a1d","system_id":"levelo_inurba_marseille","lat":43.27833,"lon":5.39218,"is_reserved":false,"is_disabled":false,"rental_uris":{"android":"levelo://app?vid=6b2b8096-175e-45b1-b534-7510cc127a1d","ios":"levelo://app?vid=6b2b8096-175e-45b1-b534-7510cc127a1d"},"vehicle_type_id":"4","last_reported":1747851289,"current_range_meters":13600,"station_id":"ce4bhjp2rcd13ifvqga0","pricing_plan_id":"cebpf4jnsgd1na2vs0mg"},{"bike_id":"beaee73b-4dc5-4652-a51e-a3f7901bf3cf","system_id":"levelo_inurba_marseille","lat":43.250732,"lon":5.403334,"is_reserved":false,"is_disabled":false,"rental_uris":{"android":"levelo://app?vid=beaee73b-4dc5-4652-a51e-a3f7901bf3cf","ios":"levelo://app?vid=beaee73b-4dc5-4652-a51e-a3f7901bf3cf"},"vehicle_type_id":"4","last_reported":1747851289,"current_range_meters":13600,"station_id":"ce4bhlh2rcd13ifvqgig","pricing_plan_id":"cebpf4jnsgd1na2vs0mg"},{"bike_id":"e71f2f8e-ed49-4107-abce-7f484fbab4c2","system_id":"levelo_inurba_marseille","lat":43.28075,"lon":5.39651,"is_reserved":false,"is_disabled":false,"rental_uris":{"android":"levelo://app?vid=e71f2f8e-ed49-4107-abce-7f484fbab4c2","ios":"levelo://app?vid=e71f2f8e-ed49-4107-abce-7f484fbab4c2"},"vehicle_type_id":"4","last_reported":1747851289,"current_range_meters":13600,"station_id":"ce4bho12rcd13ifvqh2g","pricing_plan_id":"cebpf4jnsgd1na2vs0mg"},{"bike_id":"27653dcd-dec9-4f13-b172-8968c20c1725","system_id":"levelo_inurba_marseille","lat":43.23852,"lon":5.4309,"is_reserved":false,"is_disabled":false,"rental_uris":{"android":"levelo://app?vid=27653dcd-dec9-4f13-b172-8968c20c1725","ios":"levelo://app?vid=27653dcd-dec9-4f13-b172-8968c20c1725"},"vehicle_type_id":"4","last_reported":1747851289,"current_range_meters":14000,"station_id":"","pricing_plan_id":"cebpf4jnsgd1na2vs0mg"},{"bike_id":"f2634c47-c6f6-45c2-9326-471653e29bcb","system_id":"levelo_inurba_marseille","lat":43.29304,"lon":5.37162,"is_reserved":false,"is_disabled":false,"rental_uris":{"android":"levelo://app?vid=f2634c47-c6f6-45c2-9326-471653e29bcb","ios":"levelo://app?vid=f2634c47-c6f6-45c2-9326-471653e29bcb"},"vehicle_type_id":"4","last_reported":1747851289,"current_range_meters":14000,"station_id":"ce4bgh92rcd13ifvqb40","pricing_plan_id":"cebpf4jnsgd1na2vs0mg"},{"bike_id":"1dfbe32f-cc1d-4300-910b-8bc8f1c6ddd3","system_id":"levelo_inurba_marseille","lat":43.24809,"lon":5.37461,"is_reserved":false,"is_disabled":false,"rental_uris":{"android":"levelo://app?vid=1dfbe32f-cc1d-4300-910b-8bc8f1c6ddd3","ios":"levelo://app?vid=1dfbe32f-cc1d-4300-910b-8bc8f1c6ddd3"},"vehicle_type_id":"4","last_reported":1747851289,"current_range_meters":14000,"station_id":"ce4bhgh2rcd13ifvqfb0","pricing_plan_id":"cebpf4jnsgd1na2vs0mg"},{"bike_id":"3a6234b3-3c99-4027-b0ca-b5e1c54e0131","system_id":"levelo_inurba_marseille","lat":43.28432,"lon":5.39214,"is_reserved":false,"is_disabled":false,"rental_uris":{"android":"levelo://app?vid=3a6234b3-3c99-4027-b0ca-b5e1c54e0131","ios":"levelo://app?vid=3a6234b3-3c99-4027-b0ca-b5e1c54e0131"},"vehicle_type_id":"4","last_reported":1747851289,"current_range_meters":14000,"station_id":"ce4bhoh2rcd13ifvqh5g","pricing_plan_id":"cebpf4jnsgd1na2vs0mg"},{"bike_id":"c20b3fba-ccf3-4150-abbc-993bc6403597","system_id":"levelo_inurba_marseille","lat":43.32376,"lon":5.38875,"is_reserved":false,"is_disabled":false,"rental_uris":{"android":"levelo://app?vid=c20b3fba-ccf3-4150-abbc-993bc6403597","ios":"levelo://app?vid=c20b3fba-ccf3-4150-abbc-993bc6403597"},"vehicle_type_id":"4","last_reported":1747851289,"current_range_meters":14000,"station_id":"ce4bhqp2rcd13ifvqhog","pricing_plan_id":"cebpf4jnsgd1na2vs0mg"},{"bike_id":"7bb4f0dd-a871-4109-9c98-32467b789964","system_id":"levelo_inurba_marseille","lat":43.323679,"lon":5.388837,"is_reserved":false,"is_disabled":false,"rental_uris":{"android":"levelo://app?vid=7bb4f0dd-a871-4109-9c98-32467b789964","ios":"levelo://app?vid=7bb4f0dd-a871-4109-9c98-32467b789964"},"vehicle_type_id":"4","last_reported":1747851289,"current_range_meters":14000,"station_id":"ce4bhqp2rcd13ifvqhog","pricing_plan_id":"cebpf4jnsgd1na2vs0mg"},{"bike_id":"8c37efed-a110-4307-8086-3b6336efe3b5","system_id":"levelo_inurba_marseille","lat":43.265568,"lon":5.403235,"is_reserved":false,"is_disabled":false,"rental_uris":{"android":"levelo://app?vid=8c37efed-a110-4307-8086-3b6336efe3b5","ios":"levelo://app?vid=8c37efed-a110-4307-8086-3b6336efe3b5"},"vehicle_type_id":"4","last_reported":1747851289,"current_range_meters":14400,"station_id":"","pricing_plan_id":"cebpf4jnsgd1na2vs0mg"},{"bike_id":"c6f4ed68-2c64-4f6a-9d2d-00bec9030ca0","system_id":"levelo_inurba_marseille","lat":43.29908,"lon":5.38132,"is_reserved":false,"is_disabled":false,"rental_uris":{"android":"levelo://app?vid=c6f4ed68-2c64-4f6a-9d2d-00bec9030ca0","ios":"levelo://app?vid=c6f4ed68-2c64-4f6a-9d2d-00bec9030ca0"},"vehicle_type_id":"4","last_reported":1747851289,"current_range_meters":14400,"station_id":"ce4bgj12rcd13ifvqbc0","pricing_plan_id":"cebpf4jnsgd1na2vs0mg"},{"bike_id":"2cba6f54-88df-4981-913f-8d453d6655c3","system_id":"levelo_inurba_marseille","lat":43.2941,"lon":5.38631,"is_reserved":false,"is_disabled":false,"rental_uris":{"android":"levelo://app?vid=2cba6f54-88df-4981-913f-8d453d6655c3","ios":"levelo://app?vid=2cba6f54-88df-4981-913f-8d453d6655c3"},"vehicle_type_id":"4","last_reported":1747851289,"current_range_meters":14400,"station_id":"ce4bh2h2rcd13ifvqdh0","pricing_plan_id":"cebpf4jnsgd1na2vs0mg"},{"bike_id":"a19667eb-d1f1-46d1-8257-280b5a2562cc","system_id":"levelo_inurba_marseille","lat":43.273666,"lon":5.362301,"is_reserved":false,"is_disabled":false,"rental_uris":{"android":"levelo://app?vid=a19667eb-d1f1-46d1-8257-280b5a2562cc","ios":"levelo://app?vid=a19667eb-d1f1-46d1-8257-280b5a2562cc"},"vehicle_type_id":"4","last_reported":1747851289,"current_range_meters":14400,"station_id":"ce4bhbh2rcd13ifvqeo0","pricing_plan_id":"cebpf4jnsgd1na2vs0mg"},{"bike_id":"1eb6850c-e94c-45e1-ac02-b110f71ba1ab","system_id":"levelo_inurba_marseille","lat":43.28068,"lon":5.39618,"is_reserved":false,"is_disabled":false,"rental_uris":{"android":"levelo://app?vid=1eb6850c-e94c-45e1-ac02-b110f71ba1ab","ios":"levelo://app?vid=1eb6850c-e94c-45e1-ac02-b110f71ba1ab"},"vehicle_type_id":"4","last_reported":1747851289,"current_range_meters":14400,"station_id":"ce4bho12rcd13ifvqh2g","pricing_plan_id":"cebpf4jnsgd1na2vs0mg"},{"bike_id":"a2a04a53-59af-4546-9c58-841793fdfe2f","system_id":"levelo_inurba_marseille","lat":43.29864,"lon":5.38259,"is_reserved":false,"is_disabled":false,"rental_uris":{"android":"levelo://app?vid=a2a04a53-59af-4546-9c58-841793fdfe2f","ios":"levelo://app?vid=a2a04a53-59af-4546-9c58-841793fdfe2f"},"vehicle_type_id":"4","last_reported":1747851289,"current_range_meters":14800,"station_id":"","pricing_plan_id":"cebpf4jnsgd1na2vs0mg"},{"bike_id":"aa3388dd-7a8f-45f6-82a1-28188eaf88a4","system_id":"levelo_inurba_marseille","lat":43.27428,"lon":5.39426,"is_reserved":false,"is_disabled":false,"rental_uris":{"android":"levelo://app?vid=aa3388dd-7a8f-45f6-82a1-28188eaf88a4","ios":"levelo://app?vid=aa3388dd-7a8f-45f6-82a1-28188eaf88a4"},