{"last_updated":1724692071,"ttl":30,"version":"2.2","data":{"bikes":[{"bike_id":"2e941534-1d2f-4eae-9b6c-6e2ebede162a","system_id":"levelo_inurba_marseille","lat":43.309076,"lon":5.368465,"is_reserved":false,"is_disabled":false,"rental_uris":{"android":"levelo://app?vid=2e941534-1d2f-4eae-9b6c-6e2ebede162a","ios":"levelo://app?vid=2e941534-1d2f-4eae-9b6c-6e2ebede162a"},"vehicle_type_id":"4","last_reported":1724692071,"current_range_meters":25200,"station_id":"ce4bgn92rcd13ifvqbvg","pricing_plan_id":"cebpf4jnsgd1na2vs0mg"},{"bike_id":"bb493553-6ee4-40be-8562-5503eca70d20","system_id":"levelo_inurba_marseille","lat":43.30905,"lon":5.37497,"is_reserved":false,"is_disabled":false,"rental_uris":{"android":"levelo://app?vid=bb493553-6ee4-40be-8562-5503eca70d20","ios":"levelo://app?vid=bb493553-6ee4-40be-8562-5503eca70d20"},"vehicle_type_id":"4","last_reported":1724692071,"current_range_meters":3600,"station_id":"","pricing_plan_id":"cebpf4jnsgd1na2vs0mg"},{"bike_id":"7dfc05d1-dc1d-448a-a6c4-410b498910bd","system_id":"levelo_inurba_marseille","lat":43.30544,"lon":5.36534,"is_reserved":false,"is_disabled":false,"rental_uris":{"android":"levelo://app?vid=7dfc05d1-dc1d-448a-a6c4-410b498910bd","ios":"levelo://app?vid=7dfc05d1-dc1d-448a-a6c4-410b498910bd"},"vehicle_type_id":"4","last_reported":1724692071,"current_range_meters":0,"station_id":"ce4bgs12rcd13ifvqcag","pricing_plan_id":"cebpf4jnsgd1na2vs0mg"},{"bike_id":"76396786-201d-4f53-9bb5-aab4100bf121","system_id":"levelo_inurba_marseille","lat":43.279742,"lon":5.38744,"is_reserved":false,"is_disabled":false,"rental_uris":{"android":"levelo://app?vid=76396786-201d-4f53-9bb5-aab4100bf121","ios":"levelo://app?vid=76396786-201d-4f53-9bb5-aab4100bf121"},"vehicle_type_id":"4","last_reported":1724692071,"current_range_meters":18800,"station_id":"ce4bhg12rcd13ifvqf80","pricing_plan_id":"cebpf4jnsgd1na2vs0mg"},{"bike_id":"e8127b6d-faf7-4ec7-94ab-322e5ae94bb4","system_id":"levelo_inurba_marseille","lat":43.315289,"lon":5.380349,"is_reserved":false,"is_disabled":false,"rental_uris":{"android":"levelo://app?vid=e8127b6d-faf7-4ec7-94ab-322e5ae94bb4","ios":"levelo://app?vid=e8127b6d-faf7-4ec7-94ab-322e5ae94bb4"},"vehicle_type_id":"4","last_reported":1724692071,"current_range_meters":10800,"station_id":"ce4bhsp2rcd13ifvqi50","pricing_plan_id":"cebpf4jnsgd1na2vs0mg"},{"bike_id":"bb5a326d-b1a6-4a2f-ba9a-00a87040a68d","system_id":"levelo_inurba_marseille","lat":43.315289,"lon":5.380349,"is_reserved":false,"is_disabled":false,"rental_uris":{"android":"levelo://app?vid=bb5a326d-b1a6-4a2f-ba9a-00a87040a68d","ios":"levelo://app?vid=bb5a326d-b1a6-4a2f-ba9a-00a87040a68d"},"vehicle_type_id":"4","last_reported":1724692071,"current_range_meters":10800,"station_id":"ce4bhsp2rcd13ifvqi50","pricing_plan_id":"cebpf4jnsgd1na2vs0mg"},{"bike_id":"89619144-e8c2-40b8-84db-6db18fd54003","system_id":"levelo_inurba_marseille","lat":43.302623,"lon":5.369027,"is_reserved":false,"is_disabled":false,"rental_uris":{"android":"levelo://app?vid=89619144-e8c2-40b8-84db-6db18fd54003","ios":"levelo://app?vid=89619144-e8c2-40b8-84db-6db18fd54003"},"vehicle_type_id":"4","last_reported":1724692071,"current_range_meters":22400,"station_id":"ce4bgqh2rcd13ifvqc5g","pricing_plan_id":"cebpf4jnsgd1na2vs0mg"},{"bike_id":"d19a43cc-716c-42f4-bbe2-f0eae837d479","system_id":"levelo_inurba_marseille","lat":43.308012,"lon":5.381511,"is_reserved":false,"is_disabled":false,"rental_uris":{"android":"levelo://app?vid=d19a43cc-716c-42f4-bbe2-f0eae837d479","ios":"levelo://app?vid=d19a43cc-716c-42f4-bbe2-f0eae837d479"},"vehicle_type_id":"4","last_reported":1724692071,"current_range_meters":3600,"station_id":"ce4bgt12rcd13ifvqce0","pricing_plan_id":"cebpf4jnsgd1na2vs0mg"},{"bike_id":"738f048d-503e-4b88-8831-fd721789f484","system_id":"levelo_inurba_marseille","lat":43.304606,"lon":5.379026,"is_reserved":false,"is_disabled":false,"rental_uris":{"android":"levelo://app?vid=738f048d-503e-4b88-8831-fd721789f484","ios":"levelo://app?vid=738f048d-503e-4b88-8831-fd721789f484"},"vehicle_type_id":"4","last_reported":1724692071,"current_range_meters":14400,"station_id":"ce4bgup2rcd13ifvqcn0","pricing_plan_id":"cebpf4jnsgd1na2vs0mg"},{"bike_id":"9c545e24-21b2-4750-84bf-1171b3501015","system_id":"levelo_inurba_marseille","lat":43.324771,"lon":5.36557,"is_reserved":false,"is_disabled":false,"rental_uris":{"android":"levelo://app?vid=9c545e24-21b2-4750-84bf-1171b3501015","ios":"levelo://app?vid=9c545e24-21b2-4750-84bf-1171b3501015"},"vehicle_type_id":"4","last_reported":1724692071,"current_range_meters":3200,"station_id":"ce4bhs12rcd13ifvqhvg","pricing_plan_id":"cebpf4jnsgd1na2vs0mg"},{"bike_id":"2a6510b5-ad44-47ed-bdf7-f61afb5528f0","system_id":"levelo_inurba_marseille","lat":43.324771,"lon":5.36557,"is_reserved":false,"is_disabled":false,"rental_uris":{"android":"levelo://app?vid=2a6510b5-ad44-47ed-bdf7-f61afb5528f0","ios":"levelo://app?vid=2a6510b5-ad44-47ed-bdf7-f61afb5528f0"},"vehicle_type_id":"4","last_reported":1724692071,"current_range_meters":23200,"station_id":"ce4bhs12rcd13ifvqhvg","pricing_plan_id":"cebpf4jnsgd1na2vs0mg"},{"bike_id":"00aaa01b-3e40-4e8a-b9a9-b5e9709c183b","system_id":"levelo_inurba_marseille","lat":43.324771,"lon":5.36557,"is_reserved":false,"is_disabled":false,"rental_uris":{"android":"levelo://app?vid=00aaa01b-3e40-4e8a-b9a9-b5e9709c183b","ios":"levelo://app?vid=00aaa01b-3e40-4e8a-b9a9-b5e9709c183b"},"vehicle_type_id":"4","last_reported":1724692071,"current_range_meters":0,"station_id":"ce4bhs12rcd13ifvqhvg","pricing_plan_id":"cebpf4jnsgd1na2vs0mg"},{"bike_id":"d64a2b67-dc9b-45a5-8d19-43716232b946","system_id":"levelo_inurba_marseille","lat":43.324771,"lon":5.36557,"is_reserved":false,"is_disabled":false,"rental_uris":{"android":"levelo://app?vid=d64a2b67-dc9b-45a5-8d19-43716232b946","ios":"levelo://app?vid=d64a2b67-dc9b-45a5-8d19-43716232b946"},"vehicle_type_id":"4","last_reported":1724692071,"current_range_meters":26000,"station_id":"ce4bhs12rcd13ifvqhvg","pricing_plan_id":"cebpf4jnsgd1na2vs0mg"},{"bike_id":"387ca43e-9c3f-433c-bc36-ad31ed344b43","system_id":"levelo_inurba_marseille","lat":43.324771,"lon":5.36557,"is_reserved":false,"is_disabled":false,"rental_uris":{"android":"levelo://app?vid=387ca43e-9c3f-433c-bc36-ad31ed344b43","ios":"levelo://app?vid=387ca43e-9c3f-433c-bc36-ad31ed344b43"},"vehicle_type_id":"4","last_reported":1724692071,"current_range_meters":31600,"station_id":"ce4bhs12rcd13ifvqhvg","pricing_plan_id":"cebpf4jnsgd1na2vs0mg"},{"bike_id":"195133e3-b98c-41ea-91f6-c0c5b8b0ad6b","system_id":"levelo_inurba_marseille","lat":43.324771,"lon":5.36557,"is_reserved":false,"is_disabled":false,"rental_uris":{"android":"levelo://app?vid=195133e3-b98c-41ea-91f6-c0c5b8b0ad6b","ios":"levelo://app?vid=195133e3-b98c-41ea-91f6-c0c5b8b0ad6b"},"vehicle_type_id":"4","last_reported":1724692071,"current_range_meters":30000,"station_id":"ce4bhs12rcd13ifvqhvg","pricing_plan_id":"cebpf4jnsgd1na2vs0mg"},{"bike_id":"638f3b13-757e-45b6-9fa2-6614425433fd","system_id":"levelo_inurba_marseille","lat":43.310804,"lon":5.38359,"is_reserved":false,"is_disabled":false,"rental_uris":{"android":"levelo://app?vid=638f3b13-757e-45b6-9fa2-6614425433fd","ios":"levelo://app?vid=638f3b13-757e-45b6-9fa2-6614425433fd"},"vehicle_type_id":"4","last_reported":1724692071,"current_range_meters":7600,"station_id":"ce4bgv92rcd13ifvqcr0","pricing_plan_id":"cebpf4jnsgd1na2vs0mg"},{"bike_id":"4247d451-9edd-46c9-8f82-dea264067e05","system_id":"levelo_inurba_marseille","lat":43.302784,"lon":5.377158,"is_reserved":false,"is_disabled":false,"rental_uris":{"android":"levelo://app?vid=4247d451-9edd-46c9-8f82-dea264067e05","ios":"levelo://app?vid=4247d451-9edd-46c9-8f82-dea264067e05"},"vehicle_type_id":"4","last_reported":1724692071,"current_range_meters":14000,"station_id":"ce4bguh2rcd13ifvqcj0","pricing_plan_id":"cebpf4jnsgd1na2vs0mg"},{"bike_id":"21bc3419-9379-45f6-ab66-1983324d39d2","system_id":"levelo_inurba_marseille","lat":43.302784,"lon":5.377158,"is_reserved":false,"is_disabled":false,"rental_uris":{"android":"levelo://app?vid=21bc3419-9379-45f6-ab66-1983324d39d2","ios":"levelo://app?vid=21bc3419-9379-45f6-ab66-1983324d39d2"},"vehicle_type_id":"4","last_reported":1724692071,"current_range_meters":22800,"station_id":"ce4bguh2rcd13ifvqcj0","pricing_plan_id":"cebpf4jnsgd1na2vs0mg"},{"bike_id":"5aa4e78c-6813-45d8-83e6-74bbc69cefe5","system_id":"levelo_inurba_marseille","lat":43.302784,"lon":5.377158,"is_reserved":false,"is_disabled":false,"rental_uris":{"android":"levelo://app?vid=5aa4e78c-6813-45d8-83e6-74bbc69cefe5","ios":"levelo://app?vid=5aa4e78c-6813-45d8-83e6-74bbc69cefe5"},"vehicle_type_id":"4","last_reported":1724692071,"current_range_meters":12000,"station_id":"ce4bguh2rcd13ifvqcj0","pricing_plan_id":"cebpf4jnsgd1na2vs0mg"},{"bike_id":"c1dd8baa-04ae-4b14-bd88-27c63ff62fc4","system_id":"levelo_inurba_marseille","lat":43.301429,"lon":5.37413,"is_reserved":false,"is_disabled":false,"rental_uris":{"android":"levelo://app?vid=c1dd8baa-04ae-4b14-bd88-27c63ff62fc4","ios":"levelo://app?vid=c1dd8baa-04ae-4b14-bd88-27c63ff62fc4"},"vehicle_type_id":"4","last_reported":1724692071,"current_range_meters":14000,"station_id":"ce4bgs92rcd13ifvqcc0","pricing_plan_id":"cebpf4jnsgd1na2vs0mg"},{"bike_id":"068f7f94-c763-4938-bfec-5f886626b30d","system_id":"levelo_inurba_marseille","lat":43.30143,"lon":5.37415,"is_reserved":false,"is_disabled":false,"rental_uris":{"android":"levelo://app?vid=068f7f94-c763-4938-bfec-5f886626b30d","ios":"levelo://app?vid=068f7f94-c763-4938-bfec-5f886626b30d"},"vehicle_type_id":"4","last_reported":1724692071,"current_range_meters":0,"station_id":"ce4bgs92rcd13ifvqcc0","pricing_plan_id":"cebpf4jnsgd1na2vs0mg"},{"bike_id":"ff2e2f17-e53a-4360-9800-37c28492171b","system_id":"levelo_inurba_marseille","lat":43.31966,"lon":5.38148,"is_reserved":false,"is_disabled":false,"rental_uris":{"android":"levelo://app?vid=ff2e2f17-e53a-4360-9800-37c28492171b","ios":"levelo://app?vid=ff2e2f17-e53a-4360-9800-37c28492171b"},"vehicle_type_id":"4","last_reported":1724692071,"current_range_meters":6400,"station_id":"ce4bhr12rcd13ifvqhpg","pricing_plan_id":"cebpf4jnsgd1na2vs0mg"},{"bike_id":"32d688a7-26bd-47f5-90ff-bd4f50d50d85","system_id":"levelo_inurba_marseille","lat":43.313571,"lon":5.384829,"is_reserved":false,"is_disabled":false,"rental_uris":{"android":"levelo://app?vid=32d688a7-26bd-47f5-90ff-bd4f50d50d85","ios":"levelo://app?vid=32d688a7-26bd-47f5-90ff-bd4f50d50d85"},"vehicle_type_id":"4","last_reported":1724692071,"current_range_meters":0,"station_id":"ce4bgt92rcd13ifvqcf0","pricing_plan_id":"cebpf4jnsgd1na2vs0mg"},{"bike_id":"43a8eb35-ad5f-4e38-a8e4-32a98f6ecf84","system_id":"levelo_inurba_marseille","lat":43.29994,"lon":5.37167,"is_reserved":false,"is_disabled":false,"rental_uris":{"android":"levelo://app?vid=43a8eb35-ad5f-4e38-a8e4-32a98f6ecf84","ios":"levelo://app?vid=43a8eb35-ad5f-4e38-a8e4-32a98f6ecf84"},"vehicle_type_id":"4","last_reported":1724692071,"current_range_meters":7600,"station_id":"ce4bgr92rcd13ifvqc7g","pricing_plan_id":"cebpf4jnsgd1na2vs0mg"},{"bike_id":"d2ee9444-866e-4a1c-92dc-ff1f56d6ee69","system_id":"levelo_inurba_marseille","lat":43.299222,"lon":5.365554,"is_reserved":false,"is_disabled":false,"rental_uris":{"android":"levelo://app?vid=d2ee9444-866e-4a1c-92dc-ff1f56d6ee69","ios":"levelo://app?vid=d2ee9444-866e-4a1c-92dc-ff1f56d6ee69"},"vehicle_type_id":"4","last_reported":1724692071,"current_range_meters":26800,"station_id":"ce4bgm92rcd13ifvqbr0","pricing_plan_id":"cebpf4jnsgd1na2vs0mg"},{"bike_id":"0ebef8b6-7384-42a3-a644-836f41e116fd","system_id":"levelo_inurba_marseille","lat":43.299344,"lon":5.365249,"is_reserved":false,"is_disabled":false,"rental_uris":{"android":"levelo://app?vid=0ebef8b6-7384-42a3-a644-836f41e116fd","ios":"levelo://app?vid=0ebef8b6-7384-42a3-a644-836f41e116fd"},"vehicle_type_id":"4","last_reported":1724692071,"current_range_meters":5200,"station_id":"","pricing_plan_id":"cebpf4jnsgd1na2vs0mg"},{"bike_id":"1813e233-5e2d-4fb7-9a0e-ec98ee095570","system_id":"levelo_inurba_marseille","lat":43.299222,"lon":5.365554,"is_reserved":false,"is_disabled":false,"rental_uris":{"android":"levelo://app?vid=1813e233-5e2d-4fb7-9a0e-ec98ee095570","ios":"levelo://app?vid=1813e233-5e2d-4fb7-9a0e-ec98ee095570"},"vehicle_type_id":"4","last_reported":1724692071,"current_range_meters":0,"station_id":"ce4bgm92rcd13ifvqbr0","pricing_plan_id":"cebpf4jnsgd1na2vs0mg"},{"bike_id":"39e88508-4d0e-429e-94cb-bc888d1f947d","system_id":"levelo_inurba_marseille","lat":43.299209,"lon":5.365547,"is_reserved":false,"is_disabled":false,"rental_uris":{"android":"levelo://app?vid=39e88508-4d0e-429e-94cb-bc888d1f947d","ios":"levelo://app?vid=39e88508-4d0e-429e-94cb-bc888d1f947d"},"vehicle_type_id":"4","last_reported":1724692071,"current_range_meters":0,"station_id":"ce4bgm92rcd13ifvqbr0","pricing_plan_id":"cebpf4jnsgd1na2vs0mg"},{"bike_id":"839b791e-f04b-49c0-82b0-b890b72c050d","system_id":"levelo_inurba_marseille","lat":43.311593,"lon":5.386877,"is_reserved":false,"is_disabled":false,"rental_uris":{"android":"levelo://app?vid=839b791e-f04b-49c0-82b0-b890b72c050d","ios":"levelo://app?vid=839b791e-f04b-49c0-82b0-b890b72c050d"},"vehicle_type_id":"4","last_reported":1724692071,"current_range_meters":23200,"station_id":"ce4bgv12rcd13ifvqcp0","pricing_plan_id":"cebpf4jnsgd1na2vs0mg"},{"bike_id":"88046bcb-f097-4c6a-8ca7-5ecdbc4b1a80","system_id":"levelo_inurba_marseille","lat":43.301417,"lon":5.3809,"is_reserved":false,"is_disabled":false,"rental_uris":{"android":"levelo://app?vid=88046bcb-f097-4c6a-8ca7-5ecdbc4b1a80","ios":"levelo://app?vid=88046bcb-f097-4c6a-8ca7-5ecdbc4b1a80"},"vehicle_type_id":"4","last_reported":1724692071,"current_range_meters":28000,"station_id":"ce4bgjp2rcd13ifvqbh0","pricing_plan_id":"cebpf4jnsgd1na2vs0mg"},{"bike_id":"016b4768-dc8a-482a-b984-8c0f5fa7fbd4","system_id":"levelo_inurba_marseille","lat":43.301417,"lon":5.3809,"is_reserved":false,"is_disabled":false,"rental_uris":{"android":"levelo://app?vid=016b4768-dc8a-482a-b984-8c0f5fa7fbd4","ios":"levelo://app?vid=016b4768-dc8a-482a-b984-8c0f5fa7fbd4"},"vehicle_type_id":"4","last_reported":1724692071,"current_range_meters":14800,"station_id":"ce4bgjp2rcd13ifvqbh0","pricing_plan_id":"cebpf4jnsgd1na2vs0mg"},{"bike_id":"d17b5e64-20e4-417a-90f3-2cd957233abe","system_id":"levelo_inurba_marseille","lat":43.301417,"lon":5.3809,"is_reserved":false,"is_disabled":false,"rental_uris":{"android":"levelo://app?vid=d17b5e64-20e4-417a-90f3-2cd957233abe","ios":"levelo://app?vid=d17b5e64-20e4-417a-90f3-2cd957233abe"},"vehicle_type_id":"4","last_reported":1724692071,"current_range_meters":28800,"station_id":"ce4bgjp2rcd13ifvqbh0","pricing_plan_id":"cebpf4jnsgd1na2vs0mg"},{"bike_id":"6620c18c-e539-494a-b633-92cac3f2bd47","system_id":"levelo_inurba_marseille","lat":43.32292,"lon":5.38249,"is_reserved":false,"is_disabled":false,"rental_uris":{"android":"levelo://app?vid=6620c18c-e539-494a-b633-92cac3f2bd47","ios":"levelo://app?vid=6620c18c-e539-494a-b633-92cac3f2bd47"},"vehicle_type_id":"4","last_reported":1724692071,"current_range_meters":20000,"station_id":"ce4bhr12rcd13ifvqhqg","pricing_plan_id":"cebpf4jnsgd1na2vs0mg"},{"bike_id":"63830157-fb35-498b-9a03-6a184620c6f7","system_id":"levelo_inurba_marseille","lat":43.297163,"lon":5.365866,"is_reserved":false,"is_disabled":false,"rental_uris":{"android":"levelo://app?vid=63830157-fb35-498b-9a03-6a184620c6f7","ios":"levelo://app?vid=63830157-fb35-498b-9a03-6a184620c6f7"},"vehicle_type_id":"4","last_reported":1724692071,"current_range_meters":10400,"station_id":"ce4bgn12rcd13ifvqbt0","pricing_plan_id":"cebpf4jnsgd1na2vs0mg"},{"bike_id":"90d37695-c612-4384-92d0-977df80ac5dd","system_id":"levelo_inurba_marseille","lat":43.32289,"lon":5.38254,"is_reserved":false,"is_disabled":false,"rental_uris":{"android":"levelo://app?vid=90d37695-c612-4384-92d0-977df80ac5dd","ios":"levelo://app?vid=90d37695-c612-4384-92d0-977df80ac5dd"},"vehicle_type_id":"4","last_reported":1724692071,"current_range_meters":13200,"station_id":"ce4bhr12rcd13ifvqhqg","pricing_plan_id":"cebpf4jnsgd1na2vs0mg"},{"bike_id":"bffe0da6-357f-413b-a4dd-ef1a9029ca43","system_id":"levelo_inurba_marseille","lat":43.322872,"lon":5.382756,"is_reserved":false,"is_disabled":false,"rental_uris":{"android":"levelo://app?vid=bffe0da6-357f-413b-a4dd-ef1a9029ca43","ios":"levelo://app?vid=bffe0da6-357f-413b-a4dd-ef1a9029ca43"},"vehicle_type_id":"4","last_reported":1724692071,"current_range_meters":14400,"station_id":"ce4bhr12rcd13ifvqhqg","pricing_plan_id":"cebpf4jnsgd1na2vs0mg"},{"bike_id":"4b9c51a7-eea7-4036-a8a6-6788b860d980","system_id":"levelo_inurba_marseille","lat":43.297163,"lon":5.365866,"is_reserved":false,"is_disabled":false,"rental_uris":{"android":"levelo://app?vid=4b9c51a7-eea7-4036-a8a6-6788b860d980","ios":"levelo://app?vid=4b9c51a7-eea7-4036-a8a6-6788b860d980"},"vehicle_type_id":"4","last_reported":1724692071,"current_range_meters":23200,"station_id":"ce4bgn12rcd13ifvqbt0","pricing_plan_id":"cebpf4jnsgd1na2vs0mg"},{"bike_id":"9d0abe8d-c4ac-4abe-bc3d-786374b6f322","system_id":"levelo_inurba_marseille","lat":43.297163,"lon":5.365866,"is_reserved":false,"is_disabled":false,"rental_uris":{"android":"levelo://app?vid=9d0abe8d-c4ac-4abe-bc3d-786374b6f322","ios":"levelo://app?vid=9d0abe8d-c4ac-4abe-bc3d-786374b6f322"},"vehicle_type_id":"4","last_reported":1724692071,"current_range_meters":13600,"station_id":"ce4bgn12rcd13ifvqbt0","pricing_plan_id":"cebpf4jnsgd1na2vs0mg"},{"bike_id":"f925862a-de3b-45ae-8289-4e5c20e2e9d7","system_id":"levelo_inurba_marseille","lat":43.297163,"lon":5.365866,"is_reserved":false,"is_disabled":false,"rental_uris":{"android":"levelo://app?vid=f925862a-de3b-45ae-8289-4e5c20e2e9d7","ios":"levelo://app?vid=f925862a-de3b-45ae-8289-4e5c20e2e9d7"},"vehicle_type_id":"4","last_reported":1724692071,"current_range_meters":10000,"station_id":"ce4bgn12rcd13ifvqbt0","pricing_plan_id":"cebpf4jnsgd1na2vs0mg"},{"bike_id":"88956571-1fa7-4654-a99d-1b47f8bad70d","system_id":"levelo_inurba_marseille","lat":43.296193,"lon":5.37155,"is_reserved":false,"is_disabled":false,"rental_uris":{"android":"levelo://app?vid=88956571-1fa7-4654-a99d-1b47f8bad70d","ios":"levelo://app?vid=88956571-1fa7-4654-a99d-1b47f8bad70d"},"vehicle_type_id":"4","last_reported":1724692071,"current_range_meters":30800,"station_id":"ce4bgnh2rcd13ifvqc0g","pricing_plan_id":"cebpf4jnsgd1na2vs0mg"},{"bike_id":"b9beef37-3ff4-4303-aa08-ca5a6c9c367d","system_id":"levelo_inurba_marseille","lat":43.29578,"lon":5.36739,"is_reserved":false,"is_disabled":false,"rental_uris":{"android":"levelo://app?vid=b9beef37-3ff4-4303-aa08-ca5a6c9c367d","ios":"levelo://app?vid=b9beef37-3ff4-4303-aa08-ca5a6c9c367d"},"vehicle_type_id":"4","last_reported":1724692071,"current_range_meters":31200,"station_id":"ce4bgph2rcd13ifvqc2g","pricing_plan_id":"cebpf4jnsgd1na2vs0mg"},{"bike_id":"65507fc6-c6f3-4fb5-b93a-1ddf384e90d5","system_id":"levelo_inurba_marseille","lat":43.299028,"lon":5.381509,"is_reserved":false,"is_disabled":false,"rental_uris":{"android":"levelo://app?vid=65507fc6-c6f3-4fb5-b93a-1ddf384e90d5","ios":"levelo://app?vid=65507fc6-c6f3-4fb5-b93a-1ddf384e90d5"},"vehicle_type_id":"4","last_reported":1724692071,"current_range_meters":3600,"station_id":"ce4bgj12rcd13ifvqbc0","pricing_plan_id":"cebpf4jnsgd1na2vs0mg"},{"bike_id":"a3453a1d-9549-45be-93cb-b03565fdb40b","system_id":"levelo_inurba_marseille","lat":43.299028,"lon":5.381509,"is_reserved":false,"is_disabled":false,"rental_uris":{"android":"levelo://app?vid=a3453a1d-9549-45be-93cb-b03565fdb40b","ios":"levelo://app?vid=a3453a1d-9549-45be-93cb-b03565fdb40b"},"vehicle_type_id":"4","last_reported":1724692071,"current_range_meters":0,"station_id":"ce4bgj12rcd13ifvqbc0","pricing_plan_id":"cebpf4jnsgd1na2vs0mg"},{"bike_id":"6d0e4692-7878-4871-b851-a3df2353279f","system_id":"levelo_inurba_marseille","lat":43.31763,"lon":5.39014,"is_reserved":false,"is_disabled":false,"rental_uris":{"android":"levelo://app?vid=6d0e4692-7878-4871-b851-a3df2353279f","ios":"levelo://app?vid=6d0e4692-7878-4871-b851-a3df2353279f"},"vehicle_type_id":"4","last_reported":1724692071,"current_range_meters":0,"station_id":"ce4bhqp2rcd13ifvqhng","pricing_plan_id":"cebpf4jnsgd1na2vs0mg"},{"bike_id":"7e9995a1-8d95-4a82-8978-4c2cb151c8b4","system_id":"levelo_inurba_marseille","lat":43.295748,"lon":5.37522,"is_reserved":false,"is_disabled":false,"rental_uris":{"android":"levelo://app?vid=7e9995a1-8d95-4a82-8978-4c2cb151c8b4","ios":"levelo://app?vid=7e9995a1-8d95-4a82-8978-4c2cb151c8b4"},"vehicle_type_id":"4","last_reported":1724692071,"current_range_meters":23200,"station_id":"ce4bgh92rcd13ifvqb50","pricing_plan_id":"cebpf4jnsgd1na2vs0mg"},{"bike_id":"dfb7f3e4-6289-457d-8115-aa578a8464d8","system_id":"levelo_inurba_marseille","lat":43.296277,"lon":5.377108,"is_reserved":false,"is_disabled":false,"rental_uris":{"android":"levelo://app?vid=dfb7f3e4-6289-457d-8115-aa578a8464d8","ios":"levelo://app?vid=dfb7f3e4-6289-457d-8115-aa578a8464d8"},"vehicle_type_id":"4","last_reported":1724692071,"current_range_meters":26400,"station_id":"ce4bgi92rcd13ifvqb90","pricing_plan_id":"cebpf4jnsgd1na2vs0mg"},{"bike_id":"daed8e57-ada3-4819-a41a-a1e93fa4ed60","system_id":"levelo_inurba_marseille","lat":43.296277,"lon":5.377108,"is_reserved":false,"is_disabled":false,"rental_uris":{"android":"levelo://app?vid=daed8e57-ada3-4819-a41a-a1e93fa4ed60","ios":"levelo://app?vid=daed8e57-ada3-4819-a41a-a1e93fa4ed60"},"vehicle_type_id":"4","last_reported":1724692071,"current_range_meters":3600,"station_id":"ce4bgi92rcd13ifvqb90","pricing_plan_id":"cebpf4jnsgd1na2vs0mg"},{"bike_id":"6301515f-3920-4480-9678-b45f64e97e5a","system_id":"levelo_inurba_marseille","lat":43.295279,"lon":5.375048,"is_reserved":false,"is_disabled":false,"rental_uris":{"android":"levelo://app?vid=6301515f-3920-4480-9678-b45f64e97e5a","ios":"levelo://app?vid=6301515f-3920-4480-9678-b45f64e97e5a"},"vehicle_type_id":"4","last_reported":1724692071,"current_range_meters":0,"station_id":"ce4bgkp2rcd13ifvqbmg","pricing_plan_id":"cebpf4jnsgd1na2vs0mg"},{"bike_id":"7de9f24b-a3ff-46ba-a383-07e7c1d29eb3","system_id":"levelo_inurba_marseille","lat":43.301396,"lon":5.387812,"is_reserved":false,"is_disabled":false,"rental_uris":{"android":"levelo://app?vid=7de9f24b-a3ff-46ba-a383-07e7c1d29eb3","ios":"levelo://app?vid=7de9f24b-a3ff-46ba-a383-07e7c1d29eb3"},"vehicle_type_id":"4","last_reported":1724692071,"current_range_meters":12000,"station_id":"ce4bghh2rcd13ifvqb60","pricing_plan_id":"cebpf4jnsgd1na2vs0mg"},{"bike_id":"5c80f30d-6edc-42d3-bca1-deee2f0d3a72","system_id":"levelo_inurba_marseille","lat":43.30142,"lon":5.38783,"is_reserved":false,"is_disabled":false,"rental_uris":{"android":"levelo://app?vid=5c80f30d-6edc-42d3-bca1-deee2f0d3a72","ios":"levelo://app?vid=5c80f30d-6edc-42d3-bca1-deee2f0d3a72"},"vehicle_type_id":"4","last_reported":1724692071,"current_range_meters":26000,"station_id":"ce4bghh2rcd13ifvqb60","pricing_plan_id":"cebpf4jnsgd1na2vs0mg"},{"bike_id":"1d92ef60-1890-4e7b-8590-851169aa3391","system_id":"levelo_inurba_marseille","lat":43.301396,"lon":5.387812,"is_reserved":false,"is_disabled":false,"rental_uris":{"android":"levelo://app?vid=1d92ef60-1890-4e7b-8590-851169aa3391","ios":"levelo://app?vid=1d92ef60-1890-4e7b-8590-851169aa3391"},"vehicle_type_id":"4","last_reported":1724692071,"current_range_meters":27200,"station_id":"ce4bghh2rcd13ifvqb60","pricing_plan_id":"cebpf4jnsgd1na2vs0mg"},{"bike_id":"565c2662-8017-41db-a8cc-b1a84d8b8084","system_id":"levelo_inurba_marseille","lat":43.301396,"lon":5.387812,"is_reserved":false,"is_disabled":false,"rental_uris":{"android":"levelo://app?vid=565c2662-8017-41db-a8cc-b1a84d8b8084","ios":"levelo://app?vid=565c2662-8017-41db-a8cc-b1a84d8b8084"},"vehicle_type_id":"4","last_reported":1724692071,"current_range_meters":2800,"station_id":"ce4bghh2rcd13ifvqb60","pricing_plan_id":"cebpf4jnsgd1na2vs0mg"},{"bike_id":"fccd86a7-4cc8-451b-ab6f-c92755a3dfd2","system_id":"levelo_inurba_marseille","lat":43.282744,"lon":5.350533,"is_reserved":false,"is_disabled":false,"rental_uris":{"android":"levelo://app?vid=fccd86a7-4cc8-451b-ab6f-c92755a3dfd2","ios":"levelo://app?vid=fccd86a7-4cc8-451b-ab6f-c92755a3dfd2"},"vehicle_type_id":"4","last_reported":1724692071,"current_range_meters":14000,"station_id":"ce4bhbp2rcd13ifvqerg","pricing_plan_id":"cebpf4jnsgd1na2vs0mg"},{"bike_id":"19836227-e4c5-4e81-a79e-c79ae77773fc","system_id":"levelo_inurba_marseille","lat":43.323618,"lon":5.388828,"is_reserved":false,"is_disabled":false,"rental_uris":{"android":"levelo://app?vid=19836227-e4c5-4e81-a79e-c79ae77773fc","ios":"levelo://app?vid=19836227-e4c5-4e81-a79e-c79ae77773fc"},"vehicle_type_id":"4","last_reported":1724692071,"current_range_meters":12000,"station_id":"ce4bhqp2rcd13ifvqhog","pricing_plan_id":"cebpf4jnsgd1na2vs0mg"},{"bike_id":"8c84339f-ee16-4894-a65e-c3640d66444f","system_id":"levelo_inurba_marseille","lat":43.32364,"lon":5.38883,"is_reserved":false,"is_disabled":false,"rental_uris":{"android":"levelo://app?vid=8c84339f-ee16-4894-a65e-c3640d66444f","ios":"levelo://app?vid=8c84339f-ee16-4894-a65e-c3640d66444f"},"vehicle_type_id":"4","last_reported":1724692071,"current_range_meters":0,"station_id":"ce4bhqp2rcd13ifvqhog","pricing_plan_id":"cebpf4jnsgd1na2vs0mg"},{"bike_id":"ede72495-8423-4ca8-9b77-79ad5e11212b","system_id":"levelo_inurba_marseille","lat":43.32367,"lon":5.388836,"is_reserved":false,"is_disabled":false,"rental_uris":{"android":"levelo://app?vid=ede72495-8423-4ca8-9b77-79ad5e11212b","ios":"levelo://app?vid=ede72495-8423-4ca8-9b77-79ad5e11212b"},"vehicle_type_id":"4","last_reported":1724692071,"current_range_meters":6800,"station_id":"ce4bhqp2rcd13ifvqhog","pricing_plan_id":"cebpf4jnsgd1na2vs0mg"},{"bike_id":"98ac13d6-5cb8-419a-a889-defcfad5e78c","system_id":"levelo_inurba_marseille","lat":43.32368,"lon":5.38883,"is_reserved":false,"is_disabled":false,"rental_uris":{"android":"levelo://app?vid=98ac13d6-5cb8-419a-a889-defcfad5e78c","ios":"levelo://app?vid=98ac13d6-5cb8-419a-a889-defcfad5e78c"},"vehicle_type_id":"4","last_reported":1724692071,"current_range_meters":7200,"station_id":"ce4bhqp2rcd13ifvqhog","pricing_plan_id":"cebpf4jnsgd1na2vs0mg"},{"bike_id":"8b8a5ced-d6f1-4b2a-b59f-39fdfdb15d99","system_id":"levelo_inurba_marseille","lat":43.32367,"lon":5.388836,"is_reserved":false,"is_disabled":false,"rental_uris":{"android":"levelo://app?vid=8b8a5ced-d6f1-4b2a-b59f-39fdfdb15d99","ios":"levelo://app?vid=8b8a5ced-d6f1-4b2a-b59f-39fdfdb15d99"},"vehicle_type_id":"4","last_reported":1724692071,"current_range_meters":18800,"station_id":"ce4bhqp2rcd13ifvqhog","pricing_plan_id":"cebpf4jnsgd1na2vs0mg"},{"bike_id":"f34e9ff8-5944-40ad-ade0-f55b513d3797","system_id":"levelo_inurba_marseille","lat":43.32366,"lon":5.38886,"is_reserved":false,"is_disabled":false,"rental_uris":{"android":"levelo://app?vid=f34e9ff8-5944-40ad-ade0-f55b513d3797","ios":"levelo://app?vid=f34e9ff8-5944-40ad-ade0-f55b513d3797"},"vehicle_type_id":"4","last_reported":1724692071,"current_range_meters":1200,"station_id":"ce4bhqp2rcd13ifvqhog","pricing_plan_id":"cebpf4jnsgd1na2vs0mg"},{"bike_id":"b60f3181-43da-48ce-b737-0460b525c1d1","system_id":"levelo_inurba_marseille","lat":43.32367,"lon":5.388836,"is_reserved":false,"is_disabled":false,"rental_uris":{"android":"levelo://app?vid=b60f3181-43da-48ce-b737-0460b525c1d1","ios":"levelo://app?vid=b60f3181-43da-48ce-b737-0460b525c1d1"},"vehicle_type_id":"4","last_reported":1724692071,"current_range_meters":29200,"station_id":"ce4bhqp2rcd13ifvqhog","pricing_plan_id":"cebpf4jnsgd1na2vs0mg"},{"bike_id":"d545ce2c-9eb9-4b44-89d5-46ed36e81c85","system_id":"levelo_inurba_marseille","lat":43.32367,"lon":5.388836,"is_reserved":false,"is_disabled":false,"rental_uris":{"android":"levelo://app?vid=d545ce2c-9eb9-4b44-89d5-46ed36e81c85","ios":"levelo://app?vid=d545ce2c-9eb9-4b44-89d5-46ed36e81c85"},"vehicle_type_id":"4","last_reported":1724692071,"current_range_meters":2400,"station_id":"ce4bhqp2rcd13ifvqhog","pricing_plan_id":"cebpf4jnsgd1na2vs0mg"},{"bike_id":"26447053-1a7b-4977-b92c-d0fbd70d7c47","system_id":"levelo_inurba_marseille","lat":43.29602,"lon":5.381084,"is_reserved":false,"is_disabled":false,"rental_uris":{"android":"levelo://app?vid=26447053-1a7b-4977-b92c-d0fbd70d7c47","ios":"levelo://app?vid=26447053-1a7b-4977-b92c-d0fbd70d7c47"},"vehicle_type_id":"4","last_reported":1724692071,"current_range_meters":11600,"station_id":"ce4bgl12rcd13ifvqbo0","pricing_plan_id":"cebpf4jnsgd1na2vs0mg"},{"bike_id":"09c3e859-97ce-4800-a8fb-b7e8b273b887","system_id":"levelo_inurba_marseille","lat":43.29602,"lon":5.381084,"is_reserved":false,"is_disabled":false,"rental_uris":{"android":"levelo://app?vid=09c3e859-97ce-4800-a8fb-b7e8b273b887","ios":"levelo://app?vid=09c3e859-97ce-4800-a8fb-b7e8b273b887"},"vehicle_type_id":"4","last_reported":1724692071,"current_range_meters":0,"station_id":"ce4bgl12rcd13ifvqbo0","pricing_plan_id":"cebpf4jnsgd1na2vs0mg"},{"bike_id":"2b3334fc-1420-4025-bd22-9e2b1ac9b3f5","system_id":"levelo_inurba_marseille","lat":43.292749,"lon":5.368402,"is_reserved":false,"is_disabled":false,"rental_uris":{"android":"levelo://app?vid=2b3334fc-1420-4025-bd22-9e2b1ac9b3f5","ios":"levelo://app?vid=2b3334fc-1420-4025-bd22-9e2b1ac9b3f5"},"vehicle_type_id":"4","last_reported":1724692071,"current_range_meters":20800,"station_id":"ce4bhbp2rcd13ifvqesg","pricing_plan_id":"cebpf4jnsgd1na2vs0mg"},{"bike_id":"d67a4492-04bc-4553-836a-fad44eb38713","system_id":"levelo_inurba_marseille","lat":43.292749,"lon":5.368398,"is_reserved":false,"is_disabled":false,"rental_uris":{"android":"levelo://app?vid=d67a4492-04bc-4553-836a-fad44eb38713","ios":"levelo://app?vid=d67a4492-04bc-4553-836a-fad44eb38713"},"vehicle_type_id":"4","last_reported":1724692071,"current_range_meters":0,"station_id":"ce4bhbp2rcd13ifvqesg","pricing_plan_id":"cebpf4jnsgd1na2vs0mg"},{"bike_id":"b5e9f65c-4930-429e-bcac-9b438fea1e9e","system_id":"levelo_inurba_marseille","lat":43.293009,"lon":5.374584,"is_reserved":false,"is_disabled":false,"rental_uris":{"android":"levelo://app?vid=b5e9f65c-4930-429e-bcac-9b438fea1e9e","ios":"levelo://app?vid=b5e9f65c-4930-429e-bcac-9b438fea1e9e"},"vehicle_type_id":"4","last_reported":1724692071,"current_range_meters":6400,"station_id":"ce4bgi12rcd13ifvqb70","pricing_plan_id":"cebpf4jnsgd1na2vs0mg"},{"bike_id":"121895e3-5910-4069-82ff-524b72782bd6","system_id":"levelo_inurba_marseille","lat":43.2936,"lon":5.37835,"is_reserved":false,"is_disabled":false,"rental_uris":{"android":"levelo://app?vid=121895e3-5910-4069-82ff-524b72782bd6","ios":"levelo://app?vid=121895e3-5910-4069-82ff-524b72782bd6"},"vehicle_type_id":"4","last_reported":1724692071,"current_range_meters":27200,"station_id":"ce4bgjh2rcd13ifvqbf0","pricing_plan_id":"cebpf4jnsgd1na2vs0mg"},{"bike_id":"52c36f18-1b4a-43f3-aa6d-d74654e0ef91","system_id":"levelo_inurba_marseille","lat":43.30085,"lon":5.390856,"is_reserved":false,"is_disabled":false,"rental_uris":{"android":"levelo://app?vid=52c36f18-1b4a-43f3-aa6d-d74654e0ef91","ios":"levelo://app?vid=52c36f18-1b4a-43f3-aa6d-d74654e0ef91"},"vehicle_type_id":"4","last_reported":1724692071,"current_range_meters":14800,"station_id":"ce4bh192rcd13ifvqdb0","pricing_plan_id":"cebpf4jnsgd1na2vs0mg"},{"bike_id":"ab8582bc-a651-4348-a940-0a8d5ec27f3c","system_id":"levelo_inurba_marseille","lat":43.292281,"lon":5.360438,"is_reserved":false,"is_disabled":false,"rental_uris":{"android":"levelo://app?vid=ab8582bc-a651-4348-a940-0a8d5ec27f3c","ios":"levelo://app?vid=ab8582bc-a651-4348-a940-0a8d5ec27f3c"},"vehicle_type_id":"4","last_reported":1724692071,"current_range_meters":30800,"station_id":"ce4bhbh2rcd13ifvqeqg","pricing_plan_id":"cebpf4jnsgd1na2vs0mg"},{"bike_id":"2cfbc8aa-1f6a-478b-ae9f-53dc5bfe6208","system_id":"levelo_inurba_marseille","lat":43.292311,"lon":5.360731,"is_reserved":false,"is_disabled":false,"rental_uris":{"android":"levelo://app?vid=2cfbc8aa-1f6a-478b-ae9f-53dc5bfe6208","ios":"levelo://app?vid=2cfbc8aa-1f6a-478b-ae9f-53dc5bfe6208"},"vehicle_type_id":"4","last_reported":1724692071,"current_range_meters":24800,"station_id":"ce4bhbh2rcd13ifvqeqg","pricing_plan_id":"cebpf4jnsgd1na2vs0mg"},{"bike_id":"c27f59bb-8cb0-48f2-966d-8a7e5977c441","system_id":"levelo_inurba_marseille","lat":43.292311,"lon":5.360731,"is_reserved":false,"is_disabled":false,"rental_uris":{"android":"levelo://app?vid=c27f59bb-8cb0-48f2-966d-8a7e5977c441","ios":"levelo://app?vid=c27f59bb-8cb0-48f2-966d-8a7e5977c441"},"vehicle_type_id":"4","last_reported":1724692071,"current_range_meters":24000,"station_id":"ce4bhbh2rcd13ifvqeqg","pricing_plan_id":"cebpf4jnsgd1na2vs0mg"},{"bike_id":"e872ac3d-b154-4a9f-8403-78d8dc819ac3","system_id":"levelo_inurba_marseille","lat":43.292311,"lon":5.360731,"is_reserved":false,"is_disabled":false,"rental_uris":{"android":"levelo://app?vid=e872ac3d-b154-4a9f-8403-78d8dc819ac3","ios":"levelo://app?vid=e872ac3d-b154-4a9f-8403-78d8dc819ac3"},"vehicle_type_id":"4","last_reported":1724692071,"current_range_meters":16800,"station_id":"ce4bhbh2rcd13ifvqeqg","pricing_plan_id":"cebpf4jnsgd1na2vs0mg"},{"bike_id":"b75fc7ea-e006-479d-9e95-b2309a71fba5","system_id":"levelo_inurba_marseille","lat":43.292311,"lon":5.360731,"is_reserved":false,"is_disabled":false,"rental_uris":{"android":"levelo://app?vid=b75fc7ea-e006-479d-9e95-b2309a71fba5","ios":"levelo://app?vid=b75fc7ea-e006-479d-9e95-b2309a71fba5"},"vehicle_type_id":"4","last_reported":1724692071,"current_range_meters":10400,"station_id":"ce4bhbh2rcd13ifvqeqg","pricing_plan_id":"cebpf4jnsgd1na2vs0mg"},{"bike_id":"0feacfa6-7a66-4661-9ea8-943f190a7d24","system_id":"levelo_inurba_marseille","lat":43.292226,"lon":5.360478,"is_reserved":false,"is_disabled":false,"rental_uris":{"android":"levelo://app?vid=0feacfa6-7a66-4661-9ea8-943f190a7d24","ios":"levelo://app?vid=0feacfa6-7a66-4661-9ea8-943f190a7d24"},"vehicle_type_id":"4","last_reported":1724692071,"current_range_meters":7600,"station_id":"ce4bhbh2rcd13ifvqeqg","pricing_plan_id":"cebpf4jnsgd1na2vs0mg"},{"bike_id":"72a27b0a-7571-47e5-95cc-38189a2c1061","system_id":"levelo_inurba_marseille","lat":43.292209,"lon":5.360534,"is_reserved":false,"is_disabled":false,"rental_uris":{"android":"levelo://app?vid=72a27b0a-7571-47e5-95cc-38189a2c1061","ios":"levelo://app?vid=72a27b0a-7571-47e5-95cc-38189a2c1061"},"vehicle_type_id":"4","last_reported":1724692071,"current_range_meters":0,"station_id":"ce4bhbh2rcd13ifvqeqg","pricing_plan_id":"cebpf4jnsgd1na2vs0mg"},{"bike_id":"7c3840b6-e598-406f-8559-c7d09d245d17","system_id":"levelo_inurba_marseille","lat":43.291686,"lon":5.371502,"is_reserved":false,"is_disabled":false,"rental_uris":{"android":"levelo://app?vid=7c3840b6-e598-406f-8559-c7d09d245d17","ios":"levelo://app?vid=7c3840b6-e598-406f-8559-c7d09d245d17"},"vehicle_type_id":"4","last_reported":1724692071,"current_range_meters":0,"station_id":"ce4bha92rcd13ifvqeh0","pricing_plan_id":"cebpf4jnsgd1na2vs0mg"},{"bike_id":"73afa0b6-3e7f-41ff-a910-6739cd5349c7","system_id":"levelo_inurba_marseille","lat":43.298764,"lon":5.388973,"is_reserved":false,"is_disabled":false,"rental_uris":{"android":"levelo://app?vid=73afa0b6-3e7f-41ff-a910-6739cd5349c7","ios":"levelo://app?vid=73afa0b6-3e7f-41ff-a910-6739cd5349c7"},"vehicle_type_id":"4","last_reported":1724692071,"current_range_meters":25200,"station_id":"ce4bh392rcd13ifvqdl0","pricing_plan_id":"cebpf4jnsgd1na2vs0mg"},{"bike_id":"324b75e1-ea57-45da-8f5d-ac7bf5009cf6","system_id":"levelo_inurba_marseille","lat":43.29197,"lon":5.35795,"is_reserved":false,"is_disabled":false,"rental_uris":{"android":"levelo://app?vid=324b75e1-ea57-45da-8f5d-ac7bf5009cf6","ios":"levelo://app?vid=324b75e1-ea57-45da-8f5d-ac7bf5009cf6"},"vehicle_type_id":"4","last_reported":1724692071,"current_range_meters":10800,"station_id":"ce4bhb12rcd13ifvqel0","pricing_plan_id":"cebpf4jnsgd1na2vs0mg"},{"bike_id":"924a029d-b948-4c22-85f3-d19c42d8b5a2","system_id":"levelo_inurba_marseille","lat":43.292005,"lon":5.357875,"is_reserved":false,"is_disabled":false,"rental_uris":{"android":"levelo://app?vid=924a029d-b948-4c22-85f3-d19c42d8b5a2","ios":"levelo://app?vid=924a029d-b948-4c22-85f3-d19c42d8b5a2"},"vehicle_type_id":"4","last_reported":1724692071,"current_range_meters":3200,"station_id":"ce4bhb12rcd13ifvqel0","pricing_plan_id":"cebpf4jnsgd1na2vs0mg"},{"bike_id":"997a9b9f-253f-46d2-8013-56bbd11d3d22","system_id":"levelo_inurba_marseille","lat":43.2919,"lon":5.3579,"is_reserved":false,"is_disabled":false,"rental_uris":{"android":"levelo://app?vid=997a9b9f-253f-46d2-8013-56bbd11d3d22","ios":"levelo://app?vid=997a9b9f-253f-46d2-8013-56bbd11d3d22"},"vehicle_type_id":"4","last_reported":1724692071,"current_range_meters":0,"station_id":"ce4bhb12rcd13ifvqel0","pricing_plan_id":"cebpf4jnsgd1na2vs0mg"},{"bike_id":"f50f0348-1997-4f98-af34-8536a1f167e3","system_id":"levelo_inurba_marseille","lat":43.33422,"lon":5.3613,"is_reserved":false,"is_disabled":false,"rental_uris":{"android":"levelo://app?vid=f50f0348-1997-4f98-af34-8536a1f167e3","ios":"levelo://app?vid=f50f0348-1997-4f98-af34-8536a1f167e3"},"vehicle_type_id":"4","last_reported":1724692071,"current_range_meters":10400,"station_id":"","pricing_plan_id":"cebpf4jnsgd1na2vs0mg"},{"bike_id":"85bb835c-caf1-4fca-8a50-ce63a1bf3945","system_id":"levelo_inurba_marseille","lat":43.313291,"lon":5.396838,"is_reserved":false,"is_disabled":false,"rental_uris":{"android":"levelo://app?vid=85bb835c-caf1-4fca-8a50-ce63a1bf3945","ios":"levelo://app?vid=85bb835c-caf1-4fca-8a50-ce63a1bf3945"},"vehicle_type_id":"4","last_reported":1724692071,"current_range_meters":20800,"station_id":"ce4bgvp2rcd13ifvqcu0","pricing_plan_id":"cebpf4jnsgd1na2vs0mg"},{"bike_id":"af86fc0b-ba16-4649-a218-61b79bfde7b3","system_id":"levelo_inurba_marseille","lat":43.29186,"lon":5.35792,"is_reserved":false,"is_disabled":false,"rental_uris":{"android":"levelo://app?vid=af86fc0b-ba16-4649-a218-61b79bfde7b3","ios":"levelo://app?vid=af86fc0b-ba16-4649-a218-61b79bfde7b3"},"vehicle_type_id":"4","last_reported":1724692071,"current_range_meters":0,"station_id":"ce4bhb12rcd13ifvqel0","pricing_plan_id":"cebpf4jnsgd1na2vs0mg"},{"bike_id":"d95162b3-0084-40aa-9728-d5ceedf8f2ad","system_id":"levelo_inurba_marseille","lat":43.309047,"lon":5.396551,"is_reserved":false,"is_disabled":false,"rental_uris":{"android":"levelo://app?vid=d95162b3-0084-40aa-9728-d5ceedf8f2ad","ios":"levelo://app?vid=d95162b3-0084-40aa-9728-d5ceedf8f2ad"},"vehicle_type_id":"4","last_reported":1724692071,"current_range_meters":0,"station_id":"ce4bh012rcd13ifvqcv0","pricing_plan_id":"cebpf4jnsgd1na2vs0mg"},{"bike_id":"33390aa4-c323-4278-a978-aa2430cde5b7","system_id":"levelo_inurba_marseille","lat":43.30879,"lon":5.39658,"is_reserved":false,"is_disabled":false,"rental_uris":{"android":"levelo://app?vid=33390aa4-c323-4278-a978-aa2430cde5b7","ios":"levelo://app?vid=33390aa4-c323-4278-a978-aa2430cde5b7"},"vehicle_type_id":"4","last_reported":1724692071,"current_range_meters":800,"station_id":"ce4bh012rcd13ifvqcv0","pricing_plan_id":"cebpf4jnsgd1na2vs0mg"},{"bike_id":"c5da8de1-4828-4ced-99a8-f31a44b23b81","system_id":"levelo_inurba_marseille","lat":43.29529,"lon":5.385581,"is_reserved":false,"is_disabled":false,"rental_uris":{"android":"levelo://app?vid=c5da8de1-4828-4ced-99a8-f31a44b23b81","ios":"levelo://app?vid=c5da8de1-4828-4ced-99a8-f31a44b23b81"},"vehicle_type_id":"4","last_reported":1724692071,"current_range_meters":400,"station_id":"ce4bgih2rcd13ifvqba0","pricing_plan_id":"cebpf4jnsgd1na2vs0mg"},{"bike_id":"1e0bf37f-b92b-48a3-99c6-b6a7ddd9c09b","system_id":"levelo_inurba_marseille","lat":43.286961,"lon":5.373785,"is_reserved":false,"is_disabled":false,"rental_uris":{"android":"levelo://app?vid=1e0bf37f-b92b-48a3-99c6-b6a7ddd9c09b","ios":"levelo://app?vid=1e0bf37f-b92b-48a3-99c6-b6a7ddd9c09b"},"vehicle_type_id":"4","last_reported":1724692071,"current_range_meters":4400,"station_id":"ce4bh3p2rcd13ifvqdq0","pricing_plan_id":"cebpf4jnsgd1na2vs0mg"},{"bike_id":"52b27a43-9d08-46a3-a654-457dc5d02a03","system_id":"levelo_inurba_marseille","lat":43.29529,"lon":5.385581,"is_reserved":false,"is_disabled":false,"rental_uris":{"android":"levelo://app?vid=52b27a43-9d08-46a3-a654-457dc5d02a03","ios":"levelo://app?vid=52b27a43-9d08-46a3-a654-457dc5d02a03"},"vehicle_type_id":"4","last_reported":1724692071,"current_range_meters":0,"station_id":"ce4bgih2rcd13ifvqba0","pricing_plan_id":"cebpf4jnsgd1na2vs0mg"},{"bike_id":"21b844ea-a25f-4e14-bf3b-36e57b1b72b3","system_id":"levelo_inurba_marseille","lat":43.290779,"lon":5.371482,"is_reserved":false,"is_disabled":false,"rental_uris":{"android":"levelo://app?vid=21b844ea-a25f-4e14-bf3b-36e57b1b72b3","ios":"levelo://app?vid=21b844ea-a25f-4e14-bf3b-36e57b1b72b3"},"vehicle_type_id":"4","last_reported":1724692071,"current_range_meters":26800,"station_id":"ce4bh5p2rcd13ifvqe4g","pricing_plan_id":"cebpf4jnsgd1na2vs0mg"},{"bike_id":"f3563aaa-cbb3-4bf4-8fe6-ecb1e5d5a96d","system_id":"levelo_inurba_marseille","lat":43.290624,"lon":5.359245,"is_reserved":false,"is_disabled":false,"rental_uris":{"android":"levelo://app?vid=f3563aaa-cbb3-4bf4-8fe6-ecb1e5d5a96d","ios":"levelo://app?vid=f3563aaa-cbb3-4bf4-8fe6-ecb1e5d5a96d"},"vehicle_type_id":"4","last_reported":1724692071,"current_range_meters":18400,"station_id":"ce4bha92rcd13ifvqeg0","pricing_plan_id":"cebpf4jnsgd1na2vs0mg"},{"bike_id":"102c6ad6-bb96-417f-afe5-95f4775af2a0","system_id":"levelo_inurba_marseille","lat":43.290624,"lon":5.359245,"is_reserved":false,"is_disabled":false,"rental_uris":{"android":"levelo://app?vid=102c6ad6-bb96-417f-afe5-95f4775af2a0","ios":"levelo://app?vid=102c6ad6-bb96-417f-afe5-95f4775af2a0"},"vehicle_type_id":"4","last_reported":1724692071,"current_range_meters":23600,"station_id":"ce4bha92rcd13ifvqeg0","pricing_plan_id":"cebpf4jnsgd1na2vs0mg"},{"bike_id":"3e0b5e10-53bc-425d-b0be-37c4d1a94565","system_id":"levelo_inurba_marseille","lat":43.324605,"lon":5.393876,"is_reserved":false,"is_disabled":false,"rental_uris":{"android":"levelo://app?vid=3e0b5e10-53bc-425d-b0be-37c4d1a94565","ios":"levelo://app?vid=3e0b5e10-53bc-425d-b0be-37c4d1a94565"},"vehicle_type_id":"4","last_reported":1724692071,"current_range_meters":6400,"station_id":"","pricing_plan_id":"cebpf4jnsgd1na2vs0mg"},{"bike_id":"30bcd65c-6de2-4483-8b07-36b6f678c80c","system_id":"levelo_inurba_marseille","lat":43.290624,"lon":5.359245,"is_reserved":false,"is_disabled":false,"rental_uris":{"android":"levelo://app?vid=30bcd65c-6de2-4483-8b07-36b6f678c80c","ios":"levelo://app?vid=30bcd65c-6de2-4483-8b07-36b6f678c80c"},"vehicle_type_id":"4","last_reported":1724692071,"current_range_meters":7600,"station_id":"ce4bha92rcd13ifvqeg0","pricing_plan_id":"cebpf4jnsgd1na2vs0mg"},{"bike_id":"cd68899b-db2f-4fb9-b063-6c4a9900b882","system_id":"levelo_inurba_marseille","lat":43.290631,"lon":5.359244,"is_reserved":false,"is_disabled":false,"rental_uris":{"android":"levelo://app?vid=cd68899b-db2f-4fb9-b063-6c4a9900b882","ios":"levelo://app?vid=cd68899b-db2f-4fb9-b063-6c4a9900b882"},"vehicle_type_id":"4","last_reported":1724692071,"current_range_meters":13200,"station_id":"ce4bha92rcd13ifvqeg0","pricing_plan_id":"cebpf4jnsgd1na2vs0mg"},{"bike_id":"0a73b391-62d1-45df-abaa-29c9db7dfe4e","system_id":"levelo_inurba_marseille","lat":43.312239,"lon":5.368562,"is_reserved":false,"is_disabled":false,"rental_uris":{"android":"levelo://app?vid=0a73b391-62d1-45df-abaa-29c9db7dfe4e","ios":"levelo://app?vid=0a73b391-62d1-45df-abaa-29c9db7dfe4e"},"vehicle_type_id":"4","last_reported":1724692071,"current_range_meters":0,"station_id":"ce4bgl92rcd13ifvqbq0","pricing_plan_id":"cebpf4jnsgd1na2vs0mg"},{"bike_id":"50458e76-9f55-4865-9d36-05d5f14a1ec4","system_id":"levelo_inurba_marseille","lat":43.294162,"lon":5.386292,"is_reserved":false,"is_disabled":false,"rental_uris":{"android":"levelo://app?vid=50458e76-9f55-4865-9d36-05d5f14a1ec4","ios":"levelo://app?vid=50458e76-9f55-4865-9d36-05d5f14a1ec4"},"vehicle_type_id":"4","last_reported":1724692071,"current_range_meters":11600,"station_id":"ce4bh2h2rcd13ifvqdh0","pricing_plan_id":"cebpf4jnsgd1na2vs0mg"},{"bike_id":"32c6aa5b-d0e8-4e43-99e1-9d01128a2ca5","system_id":"levelo_inurba_marseille","lat":43.294213,"lon":5.386207,"is_reserved":false,"is_disabled":false,"rental_uris":{"android":"levelo://app?vid=32c6aa5b-d0e8-4e43-99e1-9d01128a2ca5","ios":"levelo://app?vid=32c6aa5b-d0e8-4e43-99e1-9d01128a2ca5"},"vehicle_type_id":"4","last_reported":1724692071,"current_range_meters":0,"station_id":"ce4bh2h2rcd13ifvqdh0","pricing_plan_id":"cebpf4jnsgd1na2vs0mg"},{"bike_id":"d2b14293-b0ca-49b9-a7a5-099e6c6a4a8f","system_id":"levelo_inurba_marseille","lat":43.2942,"lon":5.386205,"is_reserved":false,"is_disabled":false,"rental_uris":{"android":"levelo://app?vid=d2b14293-b0ca-49b9-a7a5-099e6c6a4a8f","ios":"levelo://app?vid=d2b14293-b0ca-49b9-a7a5-099e6c6a4a8f"},"vehicle_type_id":"4","last_reported":1724692071,"current_range_meters":0,"station_id":"ce4bh2h2rcd13ifvqdh0","pricing_plan_id":"cebpf4jnsgd1na2vs0mg"},{"bike_id":"94e727b0-a10a-4631-969e-fad2b5508ebb","system_id":"levelo_inurba_marseille","lat":43.290327,"lon":5.375711,"is_reserved":false,"is_disabled":false,"rental_uris":{"android":"levelo://app?vid=94e727b0-a10a-4631-969e-fad2b5508ebb","ios":"levelo://app?vid=94e727b0-a10a-4631-969e-fad2b5508ebb"},"vehicle_type_id":"4","last_reported":1724692071,"current_range_meters":2400,"station_id":"ce4bh692rcd13ifvqe90","pricing_plan_id":"cebpf4jnsgd1na2vs0mg"},{"bike_id":"17243700-f92e-41bc-8472-a5fb6dc4319f","system_id":"levelo_inurba_marseille","lat":43.294153,"lon":5.386305,"is_reserved":false,"is_disabled":false,"rental_uris":{"android":"levelo://app?vid=17243700-f92e-41bc-8472-a5fb6dc4319f","ios":"levelo://app?vid=17243700-f92e-41bc-8472-a5fb6dc4319f"},"vehicle_type_id":"4","last_reported":1724692071,"current_range_meters":14000,"station_id":"ce4bh2h2rcd13ifvqdh0","pricing_plan_id":"cebpf4jnsgd1na2vs0mg"},{"bike_id":"7a6b4bc5-da4a-4b8a-8cf2-0cb7e94da40a","system_id":"levelo_inurba_marseille","lat":43.294153,"lon":5.386305,"is_reserved":false,"is_disabled":false,"rental_uris":{"android":"levelo://app?vid=7a6b4bc5-da4a-4b8a-8cf2-0cb7e94da40a","ios":"levelo://app?vid=7a6b4bc5-da4a-4b8a-8cf2-0cb7e94da40a"},"vehicle_type_id":"4","last_reported":1724692071,"current_range_meters":4800,"station_id":"ce4bh2h2rcd13ifvqdh0","pricing_plan_id":"cebpf4jnsgd1na2vs0mg"},{"bike_id":"e42d4cb9-667b-473d-b90e-385ab8ede36e","system_id":"levelo_inurba_marseille","lat":43.294153,"lon":5.386305,"is_reserved":false,"is_disabled":false,"rental_uris":{"android":"levelo://app?vid=e42d4cb9-667b-473d-b90e-385ab8ede36e","ios":"levelo://app?vid=e42d4cb9-667b-473d-b90e-385ab8ede36e"},"vehicle_type_id":"4","last_reported":1724692071,"current_range_meters":0,"station_id":"ce4bh2h2rcd13ifvqdh0","pricing_plan_id":"cebpf4jnsgd1na2vs0mg"},{"bike_id":"70ce13bb-6fc2-41e7-bf34-565ac3ec3b1e","system_id":"levelo_inurba_marseille","lat":43.290327,"lon":5.375711,"is_reserved":false,"is_disabled":false,"rental_uris":{"android":"levelo://app?vid=70ce13bb-6fc2-41e7-bf34-565ac3ec3b1e","ios":"levelo://app?vid=70ce13bb-6fc2-41e7-bf34-565ac3ec3b1e"},"vehicle_type_id":"4","last_reported":1724692071,"current_range_meters":19600,"station_id":"ce4bh692rcd13ifvqe90","pricing_plan_id":"cebpf4jnsgd1na2vs0mg"},{"bike_id":"d0cf29c8-4243-4d9e-a7c4-c225d96991ed","system_id":"levelo_inurba_marseille","lat":43.290319,"lon":5.375732,"is_reserved":false,"is_disabled":false,"rental_uris":{"android":"levelo://app?vid=d0cf29c8-4243-4d9e-a7c4-c225d96991ed","ios":"levelo://app?vid=d0cf29c8-4243-4d9e-a7c4-c225d96991ed"},"vehicle_type_id":"4","last_reported":1724692071,"current_range_meters":18400,"station_id":"ce4bh692rcd13ifvqe90","pricing_plan_id":"cebpf4jnsgd1na2vs0mg"},{"bike_id":"a8937439-3822-4806-9e45-276cde1d5d99","system_id":"levelo_inurba_marseille","lat":43.289184,"lon":5.366408,"is_reserved":false,"is_disabled":false,"rental_uris":{"android":"levelo://app?vid=a8937439-3822-4806-9e45-276cde1d5d99","ios":"levelo://app?vid=a8937439-3822-4806-9e45-276cde1d5d99"},"vehicle_type_id":"4","last_reported":1724692071,"current_range_meters":7200,"station_id":"ce4bhap2rcd13ifvqek0","pricing_plan_id":"cebpf4jnsgd1na2vs0mg"},{"bike_id":"35576db2-8a86-413d-8046-a8cc1003ff68","system_id":"levelo_inurba_marseille","lat":43.289184,"lon":5.366408,"is_reserved":false,"is_disabled":false,"rental_uris":{"android":"levelo://app?vid=35576db2-8a86-413d-8046-a8cc1003ff68","ios":"levelo://app?vid=35576db2-8a86-413d-8046-a8cc1003ff68"},"vehicle_type_id":"4","last_reported":1724692071,"current_range_meters":0,"station_id":"ce4bhap2rcd13ifvqek0","pricing_plan_id":"cebpf4jnsgd1na2vs0mg"},{"bike_id":"eb05464c-3e0f-4282-b5bb-5e0fcff06b72","system_id":"levelo_inurba_marseille","lat":43.289468,"lon":5.363719,"is_reserved":false,"is_disabled":false,"rental_uris":{"android":"levelo://app?vid=eb05464c-3e0f-4282-b5bb-5e0fcff06b72","ios":"levelo://app?vid=eb05464c-3e0f-4282-b5bb-5e0fcff06b72"},"vehicle_type_id":"4","last_reported":1724692071,"current_range_meters":11200,"station_id":"ce4bhc92rcd13ifvqetg","pricing_plan_id":"cebpf4jnsgd1na2vs0mg"},{"bike_id":"4aa6605a-b514-49a7-9ce6-cb8df17d91a7","system_id":"levelo_inurba_marseille","lat":43.29415,"lon":5.38627,"is_reserved":false,"is_disabled":false,"rental_uris":{"android":"levelo://app?vid=4aa6605a-b514-49a7-9ce6-cb8df17d91a7","ios":"levelo://app?vid=4aa6605a-b514-49a7-9ce6-cb8df17d91a7"},"vehicle_type_id":"4","last_reported":1724692071,"current_range_meters":0,"station_id":"ce4bh2h2rcd13ifvqdh0","pricing_plan_id":"cebpf4jnsgd1na2vs0mg"},{"bike_id":"ce72937a-842d-42fb-b2a4-845b306cef46","system_id":"levelo_inurba_marseille","lat":43.294162,"lon":5.386292,"is_reserved":false,"is_disabled":false,"rental_uris":{"android":"levelo://app?vid=ce72937a-842d-42fb-b2a4-845b306cef46","ios":"levelo://app?vid=ce72937a-842d-42fb-b2a4-845b306cef46"},"vehicle_type_id":"4","last_reported":1724692071,"current_range_meters":16000,"station_id":"ce4bh2h2rcd13ifvqdh0","pricing_plan_id":"cebpf4jnsgd1na2vs0mg"},{"bike_id":"68a3bb78-00e4-4c21-928d-88a921ed6fe6","system_id":"levelo_inurba_marseille","lat":43.289184,"lon":5.366408,"is_reserved":false,"is_disabled":false,"rental_uris":{"android":"levelo://app?vid=68a3bb78-00e4-4c21-928d-88a921ed6fe6","ios":"levelo://app?vid=68a3bb78-00e4-4c21-928d-88a921ed6fe6"},"vehicle_type_id":"4","last_reported":1724692071,"current_range_meters":17600,"station_id":"ce4bhap2rcd13ifvqek0","pricing_plan_id":"cebpf4jnsgd1na2vs0mg"},{"bike_id":"eaa74004-6fa3-44e8-941e-9f46097706a3","system_id":"levelo_inurba_marseille","lat":43.289184,"lon":5.366408,"is_reserved":false,"is_disabled":false,"rental_uris":{"android":"levelo://app?vid=eaa74004-6fa3-44e8-941e-9f46097706a3","ios":"levelo://app?vid=eaa74004-6fa3-44e8-941e-9f46097706a3"},"vehicle_type_id":"4","last_reported":1724692071,"current_range_meters":2800,"station_id":"ce4bhap2rcd13ifvqek0","pricing_plan_id":"cebpf4jnsgd1na2vs0mg"},{"bike_id":"bebc0cb7-79b1-47d0-9090-74c45c3ef7f3","system_id":"levelo_inurba_marseille","lat":43.289184,"lon":5.366408,"is_reserved":false,"is_disabled":false,"rental_uris":{"android":"levelo://app?vid=bebc0cb7-79b1-47d0-9090-74c45c3ef7f3","ios":"levelo://app?vid=bebc0cb7-79b1-47d0-9090-74c45c3ef7f3"},"vehicle_type_id":"4","last_reported":1724692071,"current_range_meters":22400,"station_id":"ce4bhap2rcd13ifvqek0","pricing_plan_id":"cebpf4jnsgd1na2vs0mg"},{"bike_id":"a2a1d1b4-7920-49d1-b1bf-79f19bba15a9","system_id":"levelo_inurba_marseille","lat":43.289468,"lon":5.363719,"is_reserved":false,"is_disabled":false,"rental_uris":{"android":"levelo://app?vid=a2a1d1b4-7920-49d1-b1bf-79f19bba15a9","ios":"levelo://app?vid=a2a1d1b4-7920-49d1-b1bf-79f19bba15a9"},"vehicle_type_id":"4","last_reported":1724692071,"current_range_meters":800,"station_id":"ce4bhc92rcd13ifvqetg","pricing_plan_id":"cebpf4jnsgd1na2vs0mg"},{"bike_id":"0c597a14-9b25-4760-b546-31724ff18c06","system_id":"levelo_inurba_marseille","lat":43.289468,"lon":5.363719,"is_reserved":false,"is_disabled":false,"rental_uris":{"android":"levelo://app?vid=0c597a14-9b25-4760-b546-31724ff18c06","ios":"levelo://app?vid=0c597a14-9b25-4760-b546-31724ff18c06"},"vehicle_type_id":"4","last_reported":1724692071,"current_range_meters":0,"station_id":"ce4bhc92rcd13ifvqetg","pricing_plan_id":"cebpf4jnsgd1na2vs0mg"},{"bike_id":"653d2731-b89f-4319-926c-7e57bd4329f8","system_id":"levelo_inurba_marseille","lat":43.28939,"lon":5.36393,"is_reserved":false,"is_disabled":false,"rental_uris":{"android":"levelo://app?vid=653d2731-b89f-4319-926c-7e57bd4329f8","ios":"levelo://app?vid=653d2731-b89f-4319-926c-7e57bd4329f8"},"vehicle_type_id":"4","last_reported":1724692071,"current_range_meters":0,"station_id":"ce4bhc92rcd13ifvqetg","pricing_plan_id":"cebpf4jnsgd1na2vs0mg"},{"bike_id":"694686df-72e0-4037-836a-563134bbd260","system_id":"levelo_inurba_marseille","lat":43.29267,"lon":5.38433,"is_reserved":false,"is_disabled":false,"rental_uris":{"android":"levelo://app?vid=694686df-72e0-4037-836a-563134bbd260","ios":"levelo://app?vid=694686df-72e0-4037-836a-563134bbd260"},"vehicle_type_id":"4","last_reported":1724692071,"current_range_meters":400,"station_id":"ce4bh692rcd13ifvqea0","pricing_plan_id":"cebpf4jnsgd1na2vs0mg"},{"bike_id":"ce85b805-e696-44e8-ba45-78bad74bc944","system_id":"levelo_inurba_marseille","lat":43.292642,"lon":5.384254,"is_reserved":false,"is_disabled":false,"rental_uris":{"android":"levelo://app?vid=ce85b805-e696-44e8-ba45-78bad74bc944","ios":"levelo://app?vid=ce85b805-e696-44e8-ba45-78bad74bc944"},"vehicle_type_id":"4","last_reported":1724692071,"current_range_meters":2400,"station_id":"ce4bh692rcd13ifvqea0","pricing_plan_id":"cebpf4jnsgd1na2vs0mg"},{"bike_id":"47a4aa6c-c4ad-41d0-9c72-57c7fa6d8f6e","system_id":"levelo_inurba_marseille","lat":43.292644,"lon":5.384257,"is_reserved":false,"is_disabled":false,"rental_uris":{"android":"levelo://app?vid=47a4aa6c-c4ad-41d0-9c72-57c7fa6d8f6e","ios":"levelo://app?vid=47a4aa6c-c4ad-41d0-9c72-57c7fa6d8f6e"},"vehicle_type_id":"4","last_reported":1724692071,"current_range_meters":4400,"station_id":"ce4bh692rcd13ifvqea0","pricing_plan_id":"cebpf4jnsgd1na2vs0mg"},{"bike_id":"498f6f0a-e3d6-4f9c-b6a4-312b4a2c812a","system_id":"levelo_inurba_marseille","lat":43.292642,"lon":5.384254,"is_reserved":false,"is_disabled":false,"rental_uris":{"android":"levelo://app?vid=498f6f0a-e3d6-4f9c-b6a4-312b4a2c812a","ios":"levelo://app?vid=498f6f0a-e3d6-4f9c-b6a4-312b4a2c812a"},"vehicle_type_id":"4","last_reported":1724692071,"current_range_meters":24800,"station_id":"ce4bh692rcd13ifvqea0","pricing_plan_id":"cebpf4jnsgd1na2vs0mg"},{"bike_id":"a97d1f0c-48e7-46d0-90a0-4da91dcca9b6","system_id":"levelo_inurba_marseille","lat":43.292642,"lon":5.384254,"is_reserved":false,"is_disabled":false,"rental_uris":{"android":"levelo://app?vid=a97d1f0c-48e7-46d0-90a0-4da91dcca9b6","ios":"levelo://app?vid=a97d1f0c-48e7-46d0-90a0-4da91dcca9b6"},"vehicle_type_id":"4","last_reported":1724692071,"current_range_meters":0,"station_id":"ce4bh692rcd13ifvqea0","pricing_plan_id":"cebpf4jnsgd1na2vs0mg"},{"bike_id":"48116468-03e1-4fe1-8035-96092e55d4a6","system_id":"levelo_inurba_marseille","lat":43.304274,"lon":5.397513,"is_reserved":false,"is_disabled":false,"rental_uris":{"android":"levelo://app?vid=48116468-03e1-4fe1-8035-96092e55d4a6","ios":"levelo://app?vid=48116468-03e1-4fe1-8035-96092e55d4a6"},"vehicle_type_id":"4","last_reported":1724692071,"current_range_meters":1200,"station_id":"ce4bh092rcd13ifvqd20","pricing_plan_id":"cebpf4jnsgd1na2vs0mg"},{"bike_id":"c1bf93b5-c7c7-4151-91a8-35bee9e2a5bc","system_id":"levelo_inurba_marseille","lat":43.292642,"lon":5.384254,"is_reserved":false,"is_disabled":false,"rental_uris":{"android":"levelo://app?vid=c1bf93b5-c7c7-4151-91a8-35bee9e2a5bc","ios":"levelo://app?vid=c1bf93b5-c7c7-4151-91a8-35bee9e2a5bc"},"vehicle_type_id":"4","last_reported":1724692071,"current_range_meters":24800,"station_id":"ce4bh692rcd13ifvqea0","pricing_plan_id":"cebpf4jnsgd1na2vs0mg"},{"bike_id":"6731c1b6-1cef-4888-9cd3-fcb1f14bcbfd","system_id":"levelo_inurba_marseille","lat":43.29263,"lon":5.38451,"is_reserved":false,"is_disabled":false,"rental_uris":{"android":"levelo://app?vid=6731c1b6-1cef-4888-9cd3-fcb1f14bcbfd","ios":"levelo://app?vid=6731c1b6-1cef-4888-9cd3-fcb1f14bcbfd"},"vehicle_type_id":"4","last_reported":1724692071,"current_range_meters":31200,"station_id":"ce4bh692rcd13ifvqea0","pricing_plan_id":"cebpf4jnsgd1na2vs0mg"},{"bike_id":"37c5ac94-5167-44d3-a9ec-90832cec960b","system_id":"levelo_inurba_marseille","lat":43.29011,"lon":5.35607,"is_reserved":false,"is_disabled":false,"rental_uris":{"android":"levelo://app?vid=37c5ac94-5167-44d3-a9ec-90832cec960b","ios":"levelo://app?vid=37c5ac94-5167-44d3-a9ec-90832cec960b"},"vehicle_type_id":"4","last_reported":1724692071,"current_range_meters":0,"station_id":"ce4bhb92rcd13ifvqen0","pricing_plan_id":"cebpf4jnsgd1na2vs0mg"},{"bike_id":"adf8aa61-9c80-4d4f-8a3c-4b3c7d6677af","system_id":"levelo_inurba_marseille","lat":43.290104,"lon":5.356111,"is_reserved":false,"is_disabled":false,"rental_uris":{"android":"levelo://app?vid=adf8aa61-9c80-4d4f-8a3c-4b3c7d6677af","ios":"levelo://app?vid=adf8aa61-9c80-4d4f-8a3c-4b3c7d6677af"},"vehicle_type_id":"4","last_reported":1724692071,"current_range_meters":31200,"station_id":"ce4bhb92rcd13ifvqen0","pricing_plan_id":"cebpf4jnsgd1na2vs0mg"},{"bike_id":"e29dc5db-0dc1-401e-bfd6-efc535bd88ef","system_id":"levelo_inurba_marseille","lat":43.290103,"lon":5.356114,"is_reserved":false,"is_disabled":false,"rental_uris":{"android":"levelo://app?vid=e29dc5db-0dc1-401e-bfd6-efc535bd88ef","ios":"levelo://app?vid=e29dc5db-0dc1-401e-bfd6-efc535bd88ef"},"vehicle_type_id":"4","last_reported":1724692071,"current_range_meters":2000,"station_id":"ce4bhb92rcd13ifvqen0","pricing_plan_id":"cebpf4jnsgd1na2vs0mg"},{"bike_id":"21ea94c3-0ed6-4b1b-a54d-aa6ee35ae84f","system_id":"levelo_inurba_marseille","lat":43.290104,"lon":5.356111,"is_reserved":false,"is_disabled":false,"rental_uris":{"android":"levelo://app?vid=21ea94c3-0ed6-4b1b-a54d-aa6ee35ae84f","ios":"levelo://app?vid=21ea94c3-0ed6-4b1b-a54d-aa6ee35ae84f"},"vehicle_type_id":"4","last_reported":1724692071,"current_range_meters":400,"station_id":"ce4bhb92rcd13ifvqen0","pricing_plan_id":"cebpf4jnsgd1na2vs0mg"},{"bike_id":"a6bbb3a4-30bb-4b62-af4b-c064317fc0ea","system_id":"levelo_inurba_marseille","lat":43.290103,"lon":5.356114,"is_reserved":false,"is_disabled":false,"rental_uris":{"android":"levelo://app?vid=a6bbb3a4-30bb-4b62-af4b-c064317fc0ea","ios":"levelo://app?vid=a6bbb3a4-30bb-4b62-af4b-c064317fc0ea"},"vehicle_type_id":"4","last_reported":1724692071,"current_range_meters":2000,"station_id":"ce4bhb92rcd13ifvqen0","pricing_plan_id":"cebpf4jnsgd1na2vs0mg"},{"bike_id":"d5e9fa20-1194-4882-b40f-c2bf546b0960","system_id":"levelo_inurba_marseille","lat":43.290104,"lon":5.356111,"is_reserved":false,"is_disabled":false,"rental_uris":{"android":"levelo://app?vid=d5e9fa20-1194-4882-b40f-c2bf546b0960","ios":"levelo://app?vid=d5e9fa20-1194-4882-b40f-c2bf546b0960"},"vehicle_type_id":"4","last_reported":1724692071,"current_range_meters":28800,"station_id":"ce4bhb92rcd13ifvqen0","pricing_plan_id":"cebpf4jnsgd1na2vs0mg"},{"bike_id":"fa8b235b-1bcb-40eb-ab56-fc6d041015f5","system_id":"levelo_inurba_marseille","lat":43.290104,"lon":5.356111,"is_reserved":false,"is_disabled":false,"rental_uris":{"android":"levelo://app?vid=fa8b235b-1bcb-40eb-ab56-fc6d041015f5","ios":"levelo://app?vid=fa8b235b-1bcb-40eb-ab56-fc6d041015f5"},"vehicle_type_id":"4","last_reported":1724692071,"current_range_meters":12000,"station_id":"ce4bhb92rcd13ifvqen0","pricing_plan_id":"cebpf4jnsgd1na2vs0mg"},{"bike_id":"8fb81202-2091-4c77-b3a8-49f96062010e","system_id":"levelo_inurba_marseille","lat":43.290053,"lon":5.356133,"is_reserved":false,"is_disabled":false,"rental_uris":{"android":"levelo://app?vid=8fb81202-2091-4c77-b3a8-49f96062010e","ios":"levelo://app?vid=8fb81202-2091-4c77-b3a8-49f96062010e"},"vehicle_type_id":"4","last_reported":1724692071,"current_range_meters":6800,"station_id":"ce4bhb92rcd13ifvqen0","pricing_plan_id":"cebpf4jnsgd1na2vs0mg"},{"bike_id":"dc121b9f-dd75-4a0a-bbb7-ed7111e08b50","system_id":"levelo_inurba_marseille","lat":43.290103,"lon":5.356114,"is_reserved":false,"is_disabled":false,"rental_uris":{"android":"levelo://app?vid=dc121b9f-dd75-4a0a-bbb7-ed7111e08b50","ios":"levelo://app?vid=dc121b9f-dd75-4a0a-bbb7-ed7111e08b50"},"vehicle_type_id":"4","last_reported":1724692071,"current_range_meters":30800,"station_id":"ce4bhb92rcd13ifvqen0","pricing_plan_id":"cebpf4jnsgd1na2vs0mg"},{"bike_id":"ab5ad46c-7fcd-4c9c-82d1-6ac82a056dab","system_id":"levelo_inurba_marseille","lat":43.290104,"lon":5.356111,"is_reserved":false,"is_disabled":false,"rental_uris":{"android":"levelo://app?vid=ab5ad46c-7fcd-4c9c-82d1-6ac82a056dab","ios":"levelo://app?vid=ab5ad46c-7fcd-4c9c-82d1-6ac82a056dab"},"vehicle_type_id":"4","last_reported":1724692071,"current_range_meters":8400,"station_id":"ce4bhb92rcd13ifvqen0","pricing_plan_id":"cebpf4jnsgd1na2vs0mg"},{"bike_id":"69d12e06-30bb-4f18-a9be-1391dd53dc24","system_id":"levelo_inurba_marseille","lat":43.290104,"lon":5.356111,"is_reserved":false,"is_disabled":false,"rental_uris":{"android":"levelo://app?vid=69d12e06-30bb-4f18-a9be-1391dd53dc24","ios":"levelo://app?vid=69d12e06-30bb-4f18-a9be-1391dd53dc24"},"vehicle_type_id":"4","last_reported":1724692071,"current_range_meters":30000,"station_id":"ce4bhb92rcd13ifvqen0","pricing_plan_id":"cebpf4jnsgd1na2vs0mg"},{"bike_id":"a7103edf-0969-42f4-ba83-2667577759b9","system_id":"levelo_inurba_marseille","lat":43.29003,"lon":5.35614,"is_reserved":false,"is_disabled":false,"rental_uris":{"android":"levelo://app?vid=a7103edf-0969-42f4-ba83-2667577759b9","ios":"levelo://app?vid=a7103edf-0969-42f4-ba83-2667577759b9"},"vehicle_type_id":"4","last_reported":1724692071,"current_range_meters":6000,"station_id":"ce4bhb92rcd13ifvqen0","pricing_plan_id":"cebpf4jnsgd1na2vs0mg"},{"bike_id":"1fe122e1-dca3-442b-a658-e83f587b3536","system_id":"levelo_inurba_marseille","lat":43.29004,"lon":5.35604,"is_reserved":false,"is_disabled":false,"rental_uris":{"android":"levelo://app?vid=1fe122e1-dca3-442b-a658-e83f587b3536","ios":"levelo://app?vid=1fe122e1-dca3-442b-a658-e83f587b3536"},"vehicle_type_id":"4","last_reported":1724692071,"current_range_meters":0,"station_id":"ce4bhb92rcd13ifvqen0","pricing_plan_id":"cebpf4jnsgd1na2vs0mg"},{"bike_id":"62fde1b9-7e02-425b-892a-591ea0907d7d","system_id":"levelo_inurba_marseille","lat":43.290103,"lon":5.356114,"is_reserved":false,"is_disabled":false,"rental_uris":{"android":"levelo://app?vid=62fde1b9-7e02-425b-892a-591ea0907d7d","ios":"levelo://app?vid=62fde1b9-7e02-425b-892a-591ea0907d7d"},"vehicle_type_id":"4","last_reported":1724692071,"current_range_meters":4000,"station_id":"ce4bhb92rcd13ifvqen0","pricing_plan_id":"cebpf4jnsgd1na2vs0mg"},{"bike_id":"7de129b5-b729-4cf2-bcda-0916267f2cb2","system_id":"levelo_inurba_marseille","lat":43.290103,"lon":5.356114,"is_reserved":false,"is_disabled":false,"rental_uris":{"android":"levelo://app?vid=7de129b5-b729-4cf2-bcda-0916267f2cb2","ios":"levelo://app?vid=7de129b5-b729-4cf2-bcda-0916267f2cb2"},"vehicle_type_id":"4","last_reported":1724692071,"current_range_meters":5600,"station_id":"ce4bhb92rcd13ifvqen0","pricing_plan_id":"cebpf4jnsgd1na2vs0mg"},{"bike_id":"e373de24-47ff-4bcd-b397-d1d057777524","system_id":"levelo_inurba_marseille","lat":43.290104,"lon":5.356111,"is_reserved":false,"is_disabled":false,"rental_uris":{"android":"levelo://app?vid=e373de24-47ff-4bcd-b397-d1d057777524","ios":"levelo://app?vid=e373de24-47ff-4bcd-b397-d1d057777524"},"vehicle_type_id":"4","last_reported":1724692071,"current_range_meters":5600,"station_id":"ce4bhb92rcd13ifvqen0","pricing_plan_id":"cebpf4jnsgd1na2vs0mg"},{"bike_id":"6b1adff2-5a80-4078-9508-b20b7e1802de","system_id":"levelo_inurba_marseille","lat":43.29,"lon":5.356,"is_reserved":false,"is_disabled":false,"rental_uris":{"android":"levelo://app?vid=6b1adff2-5a80-4078-9508-b20b7e1802de","ios":"levelo://app?vid=6b1adff2-5a80-4078-9508-b20b7e1802de"},"vehicle_type_id":"4","last_reported":1724692071,"current_range_meters":23200,"station_id":"ce4bhb92rcd13ifvqen0","pricing_plan_id":"cebpf4jnsgd1na2vs0mg"},{"bike_id":"f37f7289-080f-41d3-bfd3-faac05783a9f","system_id":"levelo_inurba_marseille","lat":43.290104,"lon":5.356111,"is_reserved":false,"is_disabled":false,"rental_uris":{"android":"levelo://app?vid=f37f7289-080f-41d3-bfd3-faac05783a9f","ios":"levelo://app?vid=f37f7289-080f-41d3-bfd3-faac05783a9f"},"vehicle_type_id":"4","last_reported":1724692071,"current_range_meters":6800,"station_id":"ce4bhb92rcd13ifvqen0","pricing_plan_id":"cebpf4jnsgd1na2vs0mg"},{"bike_id":"97fdc973-855f-4bb0-b3e9-c47861cc4ffb","system_id":"levelo_inurba_marseille","lat":43.290995,"lon":5.381361,"is_reserved":false,"is_disabled":false,"rental_uris":{"android":"levelo://app?vid=97fdc973-855f-4bb0-b3e9-c47861cc4ffb","ios":"levelo://app?vid=97fdc973-855f-4bb0-b3e9-c47861cc4ffb"},"vehicle_type_id":"4","last_reported":1724692071,"current_range_meters":24000,"station_id":"ce4bh512rcd13ifvqe2g","pricing_plan_id":"cebpf4jnsgd1na2vs0mg"},{"bike_id":"9cfd4332-d4da-444e-9780-f47c2a8f3f34","system_id":"levelo_inurba_marseille","lat":43.29793,"lon":5.39341,"is_reserved":false,"is_disabled":false,"rental_uris":{"android":"levelo://app?vid=9cfd4332-d4da-444e-9780-f47c2a8f3f34","ios":"levelo://app?vid=9cfd4332-d4da-444e-9780-f47c2a8f3f34"},"vehicle_type_id":"4","last_reported":1724692071,"current_range_meters":0,"station_id":"chh1huq6cuj3fo74tm60","pricing_plan_id":"cebpf4jnsgd1na2vs0mg"},{"bike_id":"11db7e21-5a3b-4d28-87fd-d89db4f2fa73","system_id":"levelo_inurba_marseille","lat":43.297815,"lon":5.393548,"is_reserved":false,"is_disabled":false,"rental_uris":{"android":"levelo://app?vid=11db7e21-5a3b-4d28-87fd-d89db4f2fa73","ios":"levelo://app?vid=11db7e21-5a3b-4d28-87fd-d89db4f2fa73"},"vehicle_type_id":"4","last_reported":1724692071,"current_range_meters":0,"station_id":"chh1huq6cuj3fo74tm60","pricing_plan_id":"cebpf4jnsgd1na2vs0mg"},{"bike_id":"50586f70-73e8-4ff3-bdfa-ed94a4def5c3","system_id":"levelo_inurba_marseille","lat":43.297807,"lon":5.393533,"is_reserved":false,"is_disabled":false,"rental_uris":{"android":"levelo://app?vid=50586f70-73e8-4ff3-bdfa-ed94a4def5c3","ios":"levelo://app?vid=50586f70-73e8-4ff3-bdfa-ed94a4def5c3"},"vehicle_type_id":"4","last_reported":1724692071,"current_range_meters":8800,"station_id":"chh1huq6cuj3fo74tm60","pricing_plan_id":"cebpf4jnsgd1na2vs0mg"},{"bike_id":"d74f8e03-6953-4ea3-bafd-ccae5b05d505","system_id":"levelo_inurba_marseille","lat":43.330267,"lon":5.39031,"is_reserved":false,"is_disabled":false,"rental_uris":{"android":"levelo://app?vid=d74f8e03-6953-4ea3-bafd-ccae5b05d505","ios":"levelo://app?vid=d74f8e03-6953-4ea3-bafd-ccae5b05d505"},"vehicle_type_id":"4","last_reported":1724692071,"current_range_meters":0,"station_id":"ce4bhr92rcd13ifvqhrg","pricing_plan_id":"cebpf4jnsgd1na2vs0mg"},{"bike_id":"ff5a67e8-7448-47ea-969a-7ee519525fa1","system_id":"levelo_inurba_marseille","lat":43.33024,"lon":5.39035,"is_reserved":false,"is_disabled":false,"rental_uris":{"android":"levelo://app?vid=ff5a67e8-7448-47ea-969a-7ee519525fa1","ios":"levelo://app?vid=ff5a67e8-7448-47ea-969a-7ee519525fa1"},"vehicle_type_id":"4","last_reported":1724692071,"current_range_meters":6000,"station_id":"ce4bhr92rcd13ifvqhrg","pricing_plan_id":"cebpf4jnsgd1na2vs0mg"},{"bike_id":"1493b722-7cbb-418e-b8a3-ce66407e232a","system_id":"levelo_inurba_marseille","lat":43.33024,"lon":5.39035,"is_reserved":false,"is_disabled":false,"rental_uris":{"android":"levelo://app?vid=1493b722-7cbb-418e-b8a3-ce66407e232a","ios":"levelo://app?vid=1493b722-7cbb-418e-b8a3-ce66407e232a"},"vehicle_type_id":"4","last_reported":1724692071,"current_range_meters":18000,"station_id":"ce4bhr92rcd13ifvqhrg","pricing_plan_id":"cebpf4jnsgd1na2vs0mg"},{"bike_id":"0c6aa4c4-aa64-4f7c-bc59-9a58750f8af4","system_id":"levelo_inurba_marseille","lat":43.330442,"lon":5.389148,"is_reserved":false,"is_disabled":false,"rental_uris":{"android":"levelo://app?vid=0c6aa4c4-aa64-4f7c-bc59-9a58750f8af4","ios":"levelo://app?vid=0c6aa4c4-aa64-4f7c-bc59-9a58750f8af4"},"vehicle_type_id":"4","last_reported":1724692071,"current_range_meters":12400,"station_id":"ce4bhr92rcd13ifvqhrg","pricing_plan_id":"cebpf4jnsgd1na2vs0mg"},{"bike_id":"3dde8f54-5a2c-472e-8078-393d0db06477","system_id":"levelo_inurba_marseille","lat":43.330442,"lon":5.389148,"is_reserved":false,"is_disabled":false,"rental_uris":{"android":"levelo://app?vid=3dde8f54-5a2c-472e-8078-393d0db06477","ios":"levelo://app?vid=3dde8f54-5a2c-472e-8078-393d0db06477"},"vehicle_type_id":"4","last_reported":1724692071,"current_range_meters":28000,"station_id":"ce4bhr92rcd13ifvqhrg","pricing_plan_id":"cebpf4jnsgd1na2vs0mg"},{"bike_id":"bd414313-f9e3-44fe-afa3-4e335d292e64","system_id":"levelo_inurba_marseille","lat":43.330442,"lon":5.389148,"is_reserved":false,"is_disabled":false,"rental_uris":{"android":"levelo://app?vid=bd414313-f9e3-44fe-afa3-4e335d292e64","ios":"levelo://app?vid=bd414313-f9e3-44fe-afa3-4e335d292e64"},"vehicle_type_id":"4","last_reported":1724692071,"current_range_meters":31200,"station_id":"ce4bhr92rcd13ifvqhrg","pricing_plan_id":"cebpf4jnsgd1na2vs0mg"},{"bike_id":"d0983350-b54b-45b4-9b64-77d38941eeab","system_id":"levelo_inurba_marseille","lat":43.33025,"lon":5.39035,"is_reserved":false,"is_disabled":false,"rental_uris":{"android":"levelo://app?vid=d0983350-b54b-45b4-9b64-77d38941eeab","ios":"levelo://app?vid=d0983350-b54b-45b4-9b64-77d38941eeab"},"vehicle_type_id":"4","last_reported":1724692071,"current_range_meters":6000,"station_id":"ce4bhr92rcd13ifvqhrg","pricing_plan_id":"cebpf4jnsgd1na2vs0mg"},{"bike_id":"37022126-7a99-4cc8-aa6c-fe7e97bda68b","system_id":"levelo_inurba_marseille","lat":43.297815,"lon":5.393548,"is_reserved":false,"is_disabled":false,"rental_uris":{"android":"levelo://app?vid=37022126-7a99-4cc8-aa6c-fe7e97bda68b","ios":"levelo://app?vid=37022126-7a99-4cc8-aa6c-fe7e97bda68b"},"vehicle_type_id":"4","last_reported":1724692071,"current_range_meters":2800,"station_id":"chh1huq6cuj3fo74tm60","pricing_plan_id":"cebpf4jnsgd1na2vs0mg"},{"bike_id":"6fe84c76-e897-45e8-811a-a83aa34b839d","system_id":"levelo_inurba_marseille","lat":43.295169,"lon":5.390426,"is_reserved":false,"is_disabled":false,"rental_uris":{"android":"levelo://app?vid=6fe84c76-e897-45e8-811a-a83aa34b839d","ios":"levelo://app?vid=6fe84c76-e897-45e8-811a-a83aa34b839d"},"vehicle_type_id":"4","last_reported":1724692071,"current_range_meters":400,"station_id":"ce4bh3p2rcd13ifvqdp0","pricing_plan_id":"cebpf4jnsgd1na2vs0mg"},{"bike_id":"d5781c5b-4e9a-4e2d-a839-5cc42c7bcb98","system_id":"levelo_inurba_marseille","lat":43.33026,"lon":5.39042,"is_reserved":false,"is_disabled":false,"rental_uris":{"android":"levelo://app?vid=d5781c5b-4e9a-4e2d-a839-5cc42c7bcb98","ios":"levelo://app?vid=d5781c5b-4e9a-4e2d-a839-5cc42c7bcb98"},"vehicle_type_id":"4","last_reported":1724692071,"current_range_meters":2400,"station_id":"ce4bhr92rcd13ifvqhrg","pricing_plan_id":"cebpf4jnsgd1na2vs0mg"},{"bike_id":"2e550883-0764-4aed-b62e-fc72f88d6c05","system_id":"levelo_inurba_marseille","lat":43.33028,"lon":5.3904,"is_reserved":false,"is_disabled":false,"rental_uris":{"android":"levelo://app?vid=2e550883-0764-4aed-b62e-fc72f88d6c05","ios":"levelo://app?vid=2e550883-0764-4aed-b62e-fc72f88d6c05"},"vehicle_type_id":"4","last_reported":1724692071,"current_range_meters":14800,"station_id":"ce4bhr92rcd13ifvqhrg","pricing_plan_id":"cebpf4jnsgd1na2vs0mg"},{"bike_id":"23d464ef-a6c0-4cec-a514-3ecbf738b4de","system_id":"levelo_inurba_marseille","lat":43.33025,"lon":5.39045,"is_reserved":false,"is_disabled":false,"rental_uris":{"android":"levelo://app?vid=23d464ef-a6c0-4cec-a514-3ecbf738b4de","ios":"levelo://app?vid=23d464ef-a6c0-4cec-a514-3ecbf738b4de"},"vehicle_type_id":"4","last_reported":1724692071,"current_range_meters":8400,"station_id":"ce4bhr92rcd13ifvqhrg","pricing_plan_id":"cebpf4jnsgd1na2vs0mg"},{"bike_id":"72a25ebe-8e03-4f61-a844-412886f70f18","system_id":"levelo_inurba_marseille","lat":43.33027,"lon":5.39043,"is_reserved":false,"is_disabled":false,"rental_uris":{"android":"levelo://app?vid=72a25ebe-8e03-4f61-a844-412886f70f18","ios":"levelo://app?vid=72a25ebe-8e03-4f61-a844-412886f70f18"},"vehicle_type_id":"4","last_reported":1724692071,"current_range_meters":24800,"station_id":"ce4bhr92rcd13ifvqhrg","pricing_plan_id":"cebpf4jnsgd1na2vs0mg"},{"bike_id":"9dca6815-85bc-4f47-b6cc-aae7c6b35aba","system_id":"levelo_inurba_marseille","lat":43.289741,"lon":5.378306,"is_reserved":false,"is_disabled":false,"rental_uris":{"android":"levelo://app?vid=9dca6815-85bc-4f47-b6cc-aae7c6b35aba","ios":"levelo://app?vid=9dca6815-85bc-4f47-b6cc-aae7c6b35aba"},"vehicle_type_id":"4","last_reported":1724692071,"current_range_meters":0,"station_id":"ce4bh9p2rcd13ifvqed0","pricing_plan_id":"cebpf4jnsgd1na2vs0mg"},{"bike_id":"592fc4b6-22d9-458e-9de9-c1d796b9ab3f","system_id":"levelo_inurba_marseille","lat":43.28856,"lon":5.358371,"is_reserved":false,"is_disabled":false,"rental_uris":{"android":"levelo://app?vid=592fc4b6-22d9-458e-9de9-c1d796b9ab3f","ios":"levelo://app?vid=592fc4b6-22d9-458e-9de9-c1d796b9ab3f"},"vehicle_type_id":"4","last_reported":1724692071,"current_range_meters":20800,"station_id":"ce4bhb12rcd13ifvqem0","pricing_plan_id":"cebpf4jnsgd1na2vs0mg"},{"bike_id":"49a61a97-31ab-42cb-ad91-61adb3088cda","system_id":"levelo_inurba_marseille","lat":43.28856,"lon":5.358371,"is_reserved":false,"is_disabled":false,"rental_uris":{"android":"levelo://app?vid=49a61a97-31ab-42cb-ad91-61adb3088cda","ios":"levelo://app?vid=49a61a97-31ab-42cb-ad91-61adb3088cda"},"vehicle_type_id":"4","last_reported":1724692071,"current_range_meters":30000,"station_id":"ce4bhb12rcd13ifvqem0","pricing_plan_id":"cebpf4jnsgd1na2vs0mg"},{"bike_id":"cef415b8-7c4c-432e-9d58-1531bd0e916d","system_id":"levelo_inurba_marseille","lat":43.28846,"lon":5.35857,"is_reserved":false,"is_disabled":false,"rental_uris":{"android":"levelo://app?vid=cef415b8-7c4c-432e-9d58-1531bd0e916d","ios":"levelo://app?vid=cef415b8-7c4c-432e-9d58-1531bd0e916d"},"vehicle_type_id":"4","last_reported":1724692071,"current_range_meters":0,"station_id":"ce4bhb12rcd13ifvqem0","pricing_plan_id":"cebpf4jnsgd1na2vs0mg"},{"bike_id":"57403d4f-fc44-48d6-bc97-0dfc38a65fa2","system_id":"levelo_inurba_marseille","lat":43.337406,"lon":5.374524,"is_reserved":false,"is_disabled":false,"rental_uris":{"android":"levelo://app?vid=57403d4f-fc44-48d6-bc97-0dfc38a65fa2","ios":"levelo://app?vid=57403d4f-fc44-48d6-bc97-0dfc38a65fa2"},"vehicle_type_id":"4","last_reported":1724692071,"current_range_meters":27600,"station_id":"","pricing_plan_id":"cebpf4jnsgd1na2vs0mg"},{"bike_id":"79534ec3-f6eb-48fc-b341-236b6bc30650","system_id":"levelo_inurba_marseille","lat":43.30933,"lon":5.40146,"is_reserved":false,"is_disabled":false,"rental_uris":{"android":"levelo://app?vid=79534ec3-f6eb-48fc-b341-236b6bc30650","ios":"levelo://app?vid=79534ec3-f6eb-48fc-b341-236b6bc30650"},"vehicle_type_id":"4","last_reported":1724692071,"current_range_meters":0,"station_id":"ce4bgvp2rcd13ifvqct0","pricing_plan_id":"cebpf4jnsgd1na2vs0mg"},{"bike_id":"d6417237-38ee-42e1-a78c-c0581fa70570","system_id":"levelo_inurba_marseille","lat":43.33751,"lon":5.37452,"is_reserved":false,"is_disabled":false,"rental_uris":{"android":"levelo://app?vid=d6417237-38ee-42e1-a78c-c0581fa70570","ios":"levelo://app?vid=d6417237-38ee-42e1-a78c-c0581fa70570"},"vehicle_type_id":"4","last_reported":1724692071,"current_range_meters":11600,"station_id":"","pricing_plan_id":"cebpf4jnsgd1na2vs0mg"},{"bike_id":"08244d3d-a54a-4233-98e0-a178376cf0d9","system_id":"levelo_inurba_marseille","lat":43.33756,"lon":5.37451,"is_reserved":false,"is_disabled":false,"rental_uris":{"android":"levelo://app?vid=08244d3d-a54a-4233-98e0-a178376cf0d9","ios":"levelo://app?vid=08244d3d-a54a-4233-98e0-a178376cf0d9"},"vehicle_type_id":"4","last_reported":1724692071,"current_range_meters":24800,"station_id":"","pricing_plan_id":"cebpf4jnsgd1na2vs0mg"},{"bike_id":"f8345c82-b9ac-4f5d-b249-1d2ee246e06a","system_id":"levelo_inurba_marseille","lat":43.337565,"lon":5.374577,"is_reserved":false,"is_disabled":false,"rental_uris":{"android":"levelo://app?vid=f8345c82-b9ac-4f5d-b249-1d2ee246e06a","ios":"levelo://app?vid=f8345c82-b9ac-4f5d-b249-1d2ee246e06a"},"vehicle_type_id":"4","last_reported":1724692071,"current_range_meters":30000,"station_id":"","pricing_plan_id":"cebpf4jnsgd1na2vs0mg"},{"bike_id":"dbfb9240-0d6c-46e4-9f3d-dd25b5cacce4","system_id":"levelo_inurba_marseille","lat":43.33768,"lon":5.37436,"is_reserved":false,"is_disabled":false,"rental_uris":{"android":"levelo://app?vid=dbfb9240-0d6c-46e4-9f3d-dd25b5cacce4","ios":"levelo://app?vid=dbfb9240-0d6c-46e4-9f3d-dd25b5cacce4"},"vehicle_type_id":"4","last_reported":1724692071,"current_range_meters":6400,"station_id":"","pricing_plan_id":"cebpf4jnsgd1na2vs0mg"},{"bike_id":"1fb68c4b-3091-4973-8ca5-43bb019e111d","system_id":"levelo_inurba_marseille","lat":43.30642,"lon":5.401031,"is_reserved":false,"is_disabled":false,"rental_uris":{"android":"levelo://app?vid=1fb68c4b-3091-4973-8ca5-43bb019e111d","ios":"levelo://app?vid=1fb68c4b-3091-4973-8ca5-43bb019e111d"},"vehicle_type_id":"4","last_reported":1724692071,"current_range_meters":3200,"station_id":"ce4bh112rcd13ifvqda0","pricing_plan_id":"cebpf4jnsgd1na2vs0mg"},{"bike_id":"73fbe73f-0186-4227-959b-533984585cef","system_id":"levelo_inurba_marseille","lat":43.33764,"lon":5.37487,"is_reserved":false,"is_disabled":false,"rental_uris":{"android":"levelo://app?vid=73fbe73f-0186-4227-959b-533984585cef","ios":"levelo://app?vid=73fbe73f-0186-4227-959b-533984585cef"},"vehicle_type_id":"4","last_reported":1724692071,"current_range_meters":26800,"station_id":"","pricing_plan_id":"cebpf4jnsgd1na2vs0mg"},{"bike_id":"dd1c07c5-8b6f-41d2-b538-685f72b6afcc","system_id":"levelo_inurba_marseille","lat":43.30642,"lon":5.401031,"is_reserved":false,"is_disabled":false,"rental_uris":{"android":"levelo://app?vid=dd1c07c5-8b6f-41d2-b538-685f72b6afcc","ios":"levelo://app?vid=dd1c07c5-8b6f-41d2-b538-685f72b6afcc"},"vehicle_type_id":"4","last_reported":1724692071,"current_range_meters":26000,"station_id":"ce4bh112rcd13ifvqda0","pricing_plan_id":"cebpf4jnsgd1na2vs0mg"},{"bike_id":"044b8127-21c3-41a5-9dc4-c58a1a0ab0ee","system_id":"levelo_inurba_marseille","lat":43.301117,"lon":5.398795,"is_reserved":false,"is_disabled":false,"rental_uris":{"android":"levelo://app?vid=044b8127-21c3-41a5-9dc4-c58a1a0ab0ee","ios":"levelo://app?vid=044b8127-21c3-41a5-9dc4-c58a1a0ab0ee"},"vehicle_type_id":"4","last_reported":1724692071,"current_range_meters":400,"station_id":"ce4bh0h2rcd13ifvqd40","pricing_plan_id":"cebpf4jnsgd1na2vs0mg"},{"bike_id":"57f731d0-7043-4e14-85b0-3876a74d4aea","system_id":"levelo_inurba_marseille","lat":43.312609,"lon":5.401662,"is_reserved":false,"is_disabled":false,"rental_uris":{"android":"levelo://app?vid=57f731d0-7043-4e14-85b0-3876a74d4aea","ios":"levelo://app?vid=57f731d0-7043-4e14-85b0-3876a74d4aea"},"vehicle_type_id":"4","last_reported":1724692071,"current_range_meters":12000,"station_id":"ce4bh092rcd13ifvqd30","pricing_plan_id":"cebpf4jnsgd1na2vs0mg"},{"bike_id":"5e6c9e36-ff34-4aa0-80c2-2ce27ce07f45","system_id":"levelo_inurba_marseille","lat":43.301117,"lon":5.398795,"is_reserved":false,"is_disabled":false,"rental_uris":{"android":"levelo://app?vid=5e6c9e36-ff34-4aa0-80c2-2ce27ce07f45","ios":"levelo://app?vid=5e6c9e36-ff34-4aa0-80c2-2ce27ce07f45"},"vehicle_type_id":"4","last_reported":1724692071,"current_range_meters":2800,"station_id":"ce4bh0h2rcd13ifvqd40","pricing_plan_id":"cebpf4jnsgd1na2vs0mg"},{"bike_id":"bad1a308-43b3-4133-884d-7459af3d2714","system_id":"levelo_inurba_marseille","lat":43.28727,"lon":5.36078,"is_reserved":false,"is_disabled":false,"rental_uris":{"android":"levelo://app?vid=bad1a308-43b3-4133-884d-7459af3d2714","ios":"levelo://app?vid=bad1a308-43b3-4133-884d-7459af3d2714"},"vehicle_type_id":"4","last_reported":1724692071,"current_range_meters":1200,"station_id":"cki0cbj6b192h4jlfktg","pricing_plan_id":"cebpf4jnsgd1na2vs0mg"},{"bike_id":"af95d4c1-ab85-47c9-a582-aee36cf14993","system_id":"levelo_inurba_marseille","lat":43.286593,"lon":5.363346,"is_reserved":false,"is_disabled":false,"rental_uris":{"android":"levelo://app?vid=af95d4c1-ab85-47c9-a582-aee36cf14993","ios":"levelo://app?vid=af95d4c1-ab85-47c9-a582-aee36cf14993"},"vehicle_type_id":"4","last_reported":1724692071,"current_range_meters":28000,"station_id":"ce4bhah2rcd13ifvqej0","pricing_plan_id":"cebpf4jnsgd1na2vs0mg"},{"bike_id":"b5896c68-0d46-4504-9030-298cf296e3ee","system_id":"levelo_inurba_marseille","lat":43.28727,"lon":5.36078,"is_reserved":false,"is_disabled":false,"rental_uris":{"android":"levelo://app?vid=b5896c68-0d46-4504-9030-298cf296e3ee","ios":"levelo://app?vid=b5896c68-0d46-4504-9030-298cf296e3ee"},"vehicle_type_id":"4","last_reported":1724692071,"current_range_meters":0,"station_id":"cki0cbj6b192h4jlfktg","pricing_plan_id":"cebpf4jnsgd1na2vs0mg"},{"bike_id":"d4c97751-33ae-4a55-9658-38b537af1339","system_id":"levelo_inurba_marseille","lat":43.298681,"lon":5.397225,"is_reserved":false,"is_disabled":false,"rental_uris":{"android":"levelo://app?vid=d4c97751-33ae-4a55-9658-38b537af1339","ios":"levelo://app?vid=d4c97751-33ae-4a55-9658-38b537af1339"},"vehicle_type_id":"4","last_reported":1724692071,"current_range_meters":8000,"station_id":"ce4bh0h2rcd13ifvqd50","pricing_plan_id":"cebpf4jnsgd1na2vs0mg"},{"bike_id":"66589531-f571-4bf7-b5a7-7a1f19a604f9","system_id":"levelo_inurba_marseille","lat":43.28674,"lon":5.36344,"is_reserved":false,"is_disabled":false,"rental_uris":{"android":"levelo://app?vid=66589531-f571-4bf7-b5a7-7a1f19a604f9","ios":"levelo://app?vid=66589531-f571-4bf7-b5a7-7a1f19a604f9"},"vehicle_type_id":"4","last_reported":1724692071,"current_range_meters":0,"station_id":"ce4bhah2rcd13ifvqej0","pricing_plan_id":"cebpf4jnsgd1na2vs0mg"},{"bike_id":"b5fc6109-f8a3-43eb-840e-89bf4e994bc0","system_id":"levelo_inurba_marseille","lat":43.29882,"lon":5.39731,"is_reserved":false,"is_disabled":false,"rental_uris":{"android":"levelo://app?vid=b5fc6109-f8a3-43eb-840e-89bf4e994bc0","ios":"levelo://app?vid=b5fc6109-f8a3-43eb-840e-89bf4e994bc0"},"vehicle_type_id":"4","last_reported":1724692071,"current_range_meters":0,"station_id":"ce4bh0h2rcd13ifvqd50","pricing_plan_id":"cebpf4jnsgd1na2vs0mg"},{"bike_id":"23241f34-c67e-45d0-88a3-dd643069f4b2","system_id":"levelo_inurba_marseille","lat":43.298681,"lon":5.397225,"is_reserved":false,"is_disabled":false,"rental_uris":{"android":"levelo://app?vid=23241f34-c67e-45d0-88a3-dd643069f4b2","ios":"levelo://app?vid=23241f34-c67e-45d0-88a3-dd643069f4b2"},"vehicle_type_id":"4","last_reported":1724692071,"current_range_meters":3600,"station_id":"ce4bh0h2rcd13ifvqd50","pricing_plan_id":"cebpf4jnsgd1na2vs0mg"},{"bike_id":"1975846d-7aeb-4a0e-996a-4e29821901a9","system_id":"levelo_inurba_marseille","lat":43.298681,"lon":5.397225,"is_reserved":false,"is_disabled":false,"rental_uris":{"android":"levelo://app?vid=1975846d-7aeb-4a0e-996a-4e29821901a9","ios":"levelo://app?vid=1975846d-7aeb-4a0e-996a-4e29821901a9"},"vehicle_type_id":"4","last_reported":1724692071,"current_range_meters":18400,"station_id":"ce4bh0h2rcd13ifvqd50","pricing_plan_id":"cebpf4jnsgd1na2vs0mg"},{"bike_id":"e29b8a2c-d556-4b49-9d6d-dc8842d293ad","system_id":"levelo_inurba_marseille","lat":43.298681,"lon":5.397225,"is_reserved":false,"is_disabled":false,"rental_uris":{"android":"levelo://app?vid=e29b8a2c-d556-4b49-9d6d-dc8842d293ad","ios":"levelo://app?vid=e29b8a2c-d556-4b49-9d6d-dc8842d293ad"},"vehicle_type_id":"4","last_reported":1724692071,"current_range_meters":24000,"station_id":"ce4bh0h2rcd13ifvqd50","pricing_plan_id":"cebpf4jnsgd1na2vs0mg"},{"bike_id":"d47b2a0d-6eb8-4f85-ba14-b4b2265064c4","system_id":"levelo_inurba_marseille","lat":43.298681,"lon":5.397225,"is_reserved":false,"is_disabled":false,"rental_uris":{"android":"levelo://app?vid=d47b2a0d-6eb8-4f85-ba14-b4b2265064c4","ios":"levelo://app?vid=d47b2a0d-6eb8-4f85-ba14-b4b2265064c4"},"vehicle_type_id":"4","last_reported":1724692071,"current_range_meters":27200,"station_id":"ce4bh0h2rcd13ifvqd50","pricing_plan_id":"cebpf4jnsgd1na2vs0mg"},{"bike_id":"366b3592-0912-445b-8bd5-efcecaff10db","system_id":"levelo_inurba_marseille","lat":43.287,"lon":5.37375,"is_reserved":false,"is_disabled":false,"rental_uris":{"android":"levelo://app?vid=366b3592-0912-445b-8bd5-efcecaff10db","ios":"levelo://app?vid=366b3592-0912-445b-8bd5-efcecaff10db"},"vehicle_type_id":"4","last_reported":1724692071,"current_range_meters":0,"station_id":"ce4bh3p2rcd13ifvqdq0","pricing_plan_id":"cebpf4jnsgd1na2vs0mg"},{"bike_id":"91241846-118d-4831-a2ed-106d528c5f5c","system_id":"levelo_inurba_marseille","lat":43.286961,"lon":5.373785,"is_reserved":false,"is_disabled":false,"rental_uris":{"android":"levelo://app?vid=91241846-118d-4831-a2ed-106d528c5f5c","ios":"levelo://app?vid=91241846-118d-4831-a2ed-106d528c5f5c"},"vehicle_type_id":"4","last_reported":1724692071,"current_range_meters":0,"station_id":"ce4bh3p2rcd13ifvqdq0","pricing_plan_id":"cebpf4jnsgd1na2vs0mg"},{"bike_id":"053544f0-cc38-43bd-a4d9-8b832d6f4ff0","system_id":"levelo_inurba_marseille","lat":43.29028,"lon":5.38628,"is_reserved":false,"is_disabled":false,"rental_uris":{"android":"levelo://app?vid=053544f0-cc38-43bd-a4d9-8b832d6f4ff0","ios":"levelo://app?vid=053544f0-cc38-43bd-a4d9-8b832d6f4ff0"},"vehicle_type_id":"4","last_reported":1724692071,"current_range_meters":0,"station_id":"ce4bh4p2rcd13ifvqe0g","pricing_plan_id":"cebpf4jnsgd1na2vs0mg"},{"bike_id":"4fd74ed7-42ad-4915-93c3-b0261095bff8","system_id":"levelo_inurba_marseille","lat":43.30244,"lon":5.40056,"is_reserved":false,"is_disabled":false,"rental_uris":{"android":"levelo://app?vid=4fd74ed7-42ad-4915-93c3-b0261095bff8","ios":"levelo://app?vid=4fd74ed7-42ad-4915-93c3-b0261095bff8"},"vehicle_type_id":"4","last_reported":1724692071,"current_range_meters":0,"station_id":"ce4bgvh2rcd13ifvqcs0","pricing_plan_id":"cebpf4jnsgd1na2vs0mg"},{"bike_id":"1351278f-ccfc-4ce2-a401-c8c395adf636","system_id":"levelo_inurba_marseille","lat":43.30256,"lon":5.40063,"is_reserved":false,"is_disabled":false,"rental_uris":{"android":"levelo://app?vid=1351278f-ccfc-4ce2-a401-c8c395adf636","ios":"levelo://app?vid=1351278f-ccfc-4ce2-a401-c8c395adf636"},"vehicle_type_id":"4","last_reported":1724692071,"current_range_meters":0,"station_id":"ce4bgvh2rcd13ifvqcs0","pricing_plan_id":"cebpf4jnsgd1na2vs0mg"},{"bike_id":"1470a160-5eed-4331-9be1-e2df3a001159","system_id":"levelo_inurba_marseille","lat":43.290345,"lon":5.38646,"is_reserved":false,"is_disabled":false,"rental_uris":{"android":"levelo://app?vid=1470a160-5eed-4331-9be1-e2df3a001159","ios":"levelo://app?vid=1470a160-5eed-4331-9be1-e2df3a001159"},"vehicle_type_id":"4","last_reported":1724692071,"current_range_meters":0,"station_id":"ce4bh4p2rcd13ifvqe0g","pricing_plan_id":"cebpf4jnsgd1na2vs0mg"},{"bike_id":"bcf36681-2b52-4cdf-8d29-50fb0a2cea60","system_id":"levelo_inurba_marseille","lat":43.29021,"lon":5.3864,"is_reserved":false,"is_disabled":false,"rental_uris":{"android":"levelo://app?vid=bcf36681-2b52-4cdf-8d29-50fb0a2cea60","ios":"levelo://app?vid=bcf36681-2b52-4cdf-8d29-50fb0a2cea60"},"vehicle_type_id":"4","last_reported":1724692071,"current_range_meters":0,"station_id":"ce4bh4p2rcd13ifvqe0g","pricing_plan_id":"cebpf4jnsgd1na2vs0mg"},{"bike_id":"6026a9e3-70ac-417a-9b97-ae41528d910b","system_id":"levelo_inurba_marseille","lat":43.286039,"lon":5.370679,"is_reserved":false,"is_disabled":false,"rental_uris":{"android":"levelo://app?vid=6026a9e3-70ac-417a-9b97-ae41528d910b","ios":"levelo://app?vid=6026a9e3-70ac-417a-9b97-ae41528d910b"},"vehicle_type_id":"4","last_reported":1724692071,"current_range_meters":6000,"station_id":"ce4bht12rcd13ifvqi60","pricing_plan_id":"cebpf4jnsgd1na2vs0mg"},{"bike_id":"61416952-7cc2-47f6-8d9d-6db232b285ae","system_id":"levelo_inurba_marseille","lat":43.291994,"lon":5.392907,"is_reserved":false,"is_disabled":false,"rental_uris":{"android":"levelo://app?vid=61416952-7cc2-47f6-8d9d-6db232b285ae","ios":"levelo://app?vid=61416952-7cc2-47f6-8d9d-6db232b285ae"},"vehicle_type_id":"4","last_reported":1724692071,"current_range_meters":25600,"station_id":"ce4bh192rcd13ifvqdd0","pricing_plan_id":"cebpf4jnsgd1na2vs0mg"},{"bike_id":"cfa21480-1c5e-4672-882d-303ce89cdc1d","system_id":"levelo_inurba_marseille","lat":43.291994,"lon":5.392907,"is_reserved":false,"is_disabled":false,"rental_uris":{"android":"levelo://app?vid=cfa21480-1c5e-4672-882d-303ce89cdc1d","ios":"levelo://app?vid=cfa21480-1c5e-4672-882d-303ce89cdc1d"},"vehicle_type_id":"4","last_reported":1724692071,"current_range_meters":22000,"station_id":"ce4bh192rcd13ifvqdd0","pricing_plan_id":"cebpf4jnsgd1na2vs0mg"},{"bike_id":"f7eb9c1e-8710-421b-986f-d2aa6989bcde","system_id":"levelo_inurba_marseille","lat":43.29205,"lon":5.39331,"is_reserved":false,"is_disabled":false,"rental_uris":{"android":"levelo://app?vid=f7eb9c1e-8710-421b-986f-d2aa6989bcde","ios":"levelo://app?vid=f7eb9c1e-8710-421b-986f-d2aa6989bcde"},"vehicle_type_id":"4","last_reported":1724692071,"current_range_meters":0,"station_id":"ce4bh192rcd13ifvqdd0","pricing_plan_id":"cebpf4jnsgd1na2vs0mg"},{"bike_id":"7c4053f6-7895-4145-b0fc-8e4b9635766f","system_id":"levelo_inurba_marseille","lat":43.291994,"lon":5.392907,"is_reserved":false,"is_disabled":false,"rental_uris":{"android":"levelo://app?vid=7c4053f6-7895-4145-b0fc-8e4b9635766f","ios":"levelo://app?vid=7c4053f6-7895-4145-b0fc-8e4b9635766f"},"vehicle_type_id":"4","last_reported":1724692071,"current_range_meters":14800,"station_id":"ce4bh192rcd13ifvqdd0","pricing_plan_id":"cebpf4jnsgd1na2vs0mg"},{"bike_id":"cafab834-d3f7-4fdc-9636-a4b0b93af8d9","system_id":"levelo_inurba_marseille","lat":43.291994,"lon":5.392907,"is_reserved":false,"is_disabled":false,"rental_uris":{"android":"levelo://app?vid=cafab834-d3f7-4fdc-9636-a4b0b93af8d9","ios":"levelo://app?vid=cafab834-d3f7-4fdc-9636-a4b0b93af8d9"},"vehicle_type_id":"4","last_reported":1724692071,"current_range_meters":7600,"station_id":"ce4bh192rcd13ifvqdd0","pricing_plan_id":"cebpf4jnsgd1na2vs0mg"},{"bike_id":"dc25ebe9-6a52-4d40-875f-2f6081dbbe0d","system_id":"levelo_inurba_marseille","lat":43.291994,"lon":5.392907,"is_reserved":false,"is_disabled":false,"rental_uris":{"android":"levelo://app?vid=dc25ebe9-6a52-4d40-875f-2f6081dbbe0d","ios":"levelo://app?vid=dc25ebe9-6a52-4d40-875f-2f6081dbbe0d"},"vehicle_type_id":"4","last_reported":1724692071,"current_range_meters":4800,"station_id":"ce4bh192rcd13ifvqdd0","pricing_plan_id":"cebpf4jnsgd1na2vs0mg"},{"bike_id":"0effd699-7d8d-4226-b132-6cbf81ca1722","system_id":"levelo_inurba_marseille","lat":43.303256,"lon":5.404389,"is_reserved":false,"is_disabled":false,"rental_uris":{"android":"levelo://app?vid=0effd699-7d8d-4226-b132-6cbf81ca1722","ios":"levelo://app?vid=0effd699-7d8d-4226-b132-6cbf81ca1722"},"vehicle_type_id":"4","last_reported":1724692071,"current_range_meters":3200,"station_id":"ce4bh012rcd13ifvqd10","pricing_plan_id":"cebpf4jnsgd1na2vs0mg"},{"bike_id":"cc3eafed-6139-42f3-99e6-085ded6d9858","system_id":"levelo_inurba_marseille","lat":43.303256,"lon":5.404389,"is_reserved":false,"is_disabled":false,"rental_uris":{"android":"levelo://app?vid=cc3eafed-6139-42f3-99e6-085ded6d9858","ios":"levelo://app?vid=cc3eafed-6139-42f3-99e6-085ded6d9858"},"vehicle_type_id":"4","last_reported":1724692071,"current_range_meters":6000,"station_id":"ce4bh012rcd13ifvqd10","pricing_plan_id":"cebpf4jnsgd1na2vs0mg"},{"bike_id":"d7a97141-67de-4b5d-a3d3-3a3511387bc5","system_id":"levelo_inurba_marseille","lat":43.303256,"lon":5.404389,"is_reserved":false,"is_disabled":false,"rental_uris":{"android":"levelo://app?vid=d7a97141-67de-4b5d-a3d3-3a3511387bc5","ios":"levelo://app?vid=d7a97141-67de-4b5d-a3d3-3a3511387bc5"},"vehicle_type_id":"4","last_reported":1724692071,"current_range_meters":0,"station_id":"ce4bh012rcd13ifvqd10","pricing_plan_id":"cebpf4jnsgd1na2vs0mg"},{"bike_id":"ebe2c880-51b2-4556-8ff3-7a25acd4493a","system_id":"levelo_inurba_marseille","lat":43.303256,"lon":5.404389,"is_reserved":false,"is_disabled":false,"rental_uris":{"android":"levelo://app?vid=ebe2c880-51b2-4556-8ff3-7a25acd4493a","ios":"levelo://app?vid=ebe2c880-51b2-4556-8ff3-7a25acd4493a"},"vehicle_type_id":"4","last_reported":1724692071,"current_range_meters":0,"station_id":"ce4bh012rcd13ifvqd10","pricing_plan_id":"cebpf4jnsgd1na2vs0mg"},{"bike_id":"32a449bd-75f6-4043-8444-1aaaae796403","system_id":"levelo_inurba_marseille","lat":43.28623,"lon":5.35106,"is_reserved":false,"is_disabled":false,"rental_uris":{"android":"levelo://app?vid=32a449bd-75f6-4043-8444-1aaaae796403","ios":"levelo://app?vid=32a449bd-75f6-4043-8444-1aaaae796403"},"vehicle_type_id":"4","last_reported":1724692071,"current_range_meters":30800,"station_id":"ce4bhch2rcd13ifvqeug","pricing_plan_id":"cebpf4jnsgd1na2vs0mg"},{"bike_id":"f4de17b6-fa17-42f0-80f9-ea94c0c8318d","system_id":"levelo_inurba_marseille","lat":43.28624,"lon":5.35101,"is_reserved":false,"is_disabled":false,"rental_uris":{"android":"levelo://app?vid=f4de17b6-fa17-42f0-80f9-ea94c0c8318d","ios":"levelo://app?vid=f4de17b6-fa17-42f0-80f9-ea94c0c8318d"},"vehicle_type_id":"4","last_reported":1724692071,"current_range_meters":21200,"station_id":"ce4bhch2rcd13ifvqeug","pricing_plan_id":"cebpf4jnsgd1na2vs0mg"},{"bike_id":"c98b5218-9a9c-405d-a4c6-ca5cd2d22cc8","system_id":"levelo_inurba_marseille","lat":43.28623,"lon":5.351,"is_reserved":false,"is_disabled":false,"rental_uris":{"android":"levelo://app?vid=c98b5218-9a9c-405d-a4c6-ca5cd2d22cc8","ios":"levelo://app?vid=c98b5218-9a9c-405d-a4c6-ca5cd2d22cc8"},"vehicle_type_id":"4","last_reported":1724692071,"current_range_meters":14800,"station_id":"ce4bhch2rcd13ifvqeug","pricing_plan_id":"cebpf4jnsgd1na2vs0mg"},{"bike_id":"149168b3-64a4-4c8b-a469-39347122b65b","system_id":"levelo_inurba_marseille","lat":43.28622,"lon":5.35102,"is_reserved":false,"is_disabled":false,"rental_uris":{"android":"levelo://app?vid=149168b3-64a4-4c8b-a469-39347122b65b","ios":"levelo://app?vid=149168b3-64a4-4c8b-a469-39347122b65b"},"vehicle_type_id":"4","last_reported":1724692071,"current_range_meters":12000,"station_id":"ce4bhch2rcd13ifvqeug","pricing_plan_id":"cebpf4jnsgd1na2vs0mg"},{"bike_id":"a84e7988-a02c-40ed-884e-4239f2f16f43","system_id":"levelo_inurba_marseille","lat":43.2862,"lon":5.35101,"is_reserved":false,"is_disabled":false,"rental_uris":{"android":"levelo://app?vid=a84e7988-a02c-40ed-884e-4239f2f16f43","ios":"levelo://app?vid=a84e7988-a02c-40ed-884e-4239f2f16f43"},"vehicle_type_id":"4","last_reported":1724692071,"current_range_meters":21200,"station_id":"ce4bhch2rcd13ifvqeug","pricing_plan_id":"cebpf4jnsgd1na2vs0mg"},{"bike_id":"f3d6edae-c962-4b3b-9818-05a9b584757e","system_id":"levelo_inurba_marseille","lat":43.28619,"lon":5.35104,"is_reserved":false,"is_disabled":false,"rental_uris":{"android":"levelo://app?vid=f3d6edae-c962-4b3b-9818-05a9b584757e","ios":"levelo://app?vid=f3d6edae-c962-4b3b-9818-05a9b584757e"},"vehicle_type_id":"4","last_reported":1724692071,"current_range_meters":9600,"station_id":"ce4bhch2rcd13ifvqeug","pricing_plan_id":"cebpf4jnsgd1na2vs0mg"},{"bike_id":"8506f466-9c4e-4b82-b909-55e373678143","system_id":"levelo_inurba_marseille","lat":43.28618,"lon":5.35103,"is_reserved":false,"is_disabled":false,"rental_uris":{"android":"levelo://app?vid=8506f466-9c4e-4b82-b909-55e373678143","ios":"levelo://app?vid=8506f466-9c4e-4b82-b909-55e373678143"},"vehicle_type_id":"4","last_reported":1724692071,"current_range_meters":21600,"station_id":"ce4bhch2rcd13ifvqeug","pricing_plan_id":"cebpf4jnsgd1na2vs0mg"},{"bike_id":"103b696f-9d03-46af-bd42-fd119a672ea2","system_id":"levelo_inurba_marseille","lat":43.28618,"lon":5.35103,"is_reserved":false,"is_disabled":false,"rental_uris":{"android":"levelo://app?vid=103b696f-9d03-46af-bd42-fd119a672ea2","ios":"levelo://app?vid=103b696f-9d03-46af-bd42-fd119a672ea2"},"vehicle_type_id":"4","last_reported":1724692071,"current_range_meters":16800,"station_id":"ce4bhch2rcd13ifvqeug","pricing_plan_id":"cebpf4jnsgd1na2vs0mg"},{"bike_id":"e963ad9c-824b-41e1-8dd0-392339255dcd","system_id":"levelo_inurba_marseille","lat":43.28616,"lon":5.35108,"is_reserved":false,"is_disabled":false,"rental_uris":{"android":"levelo://app?vid=e963ad9c-824b-41e1-8dd0-392339255dcd","ios":"levelo://app?vid=e963ad9c-824b-41e1-8dd0-392339255dcd"},"vehicle_type_id":"4","last_reported":1724692071,"current_range_meters":14400,"station_id":"ce4bhch2rcd13ifvqeug","pricing_plan_id":"cebpf4jnsgd1na2vs0mg"},{"bike_id":"bef76eaa-9b50-4abf-8816-28a0e4122bc7","system_id":"levelo_inurba_marseille","lat":43.28617,"lon":5.35102,"is_reserved":false,"is_disabled":false,"rental_uris":{"android":"levelo://app?vid=bef76eaa-9b50-4abf-8816-28a0e4122bc7","ios":"levelo://app?vid=bef76eaa-9b50-4abf-8816-28a0e4122bc7"},"vehicle_type_id":"4","last_reported":1724692071,"current_range_meters":0,"station_id":"ce4bhch2rcd13ifvqeug","pricing_plan_id":"cebpf4jnsgd1na2vs0mg"},{"bike_id":"1c681777-9200-4b85-b1b5-e33596f2ff00","system_id":"levelo_inurba_marseille","lat":43.285856,"lon":5.350771,"is_reserved":false,"is_disabled":false,"rental_uris":{"android":"levelo://app?vid=1c681777-9200-4b85-b1b5-e33596f2ff00","ios":"levelo://app?vid=1c681777-9200-4b85-b1b5-e33596f2ff00"},"vehicle_type_id":"4","last_reported":1724692071,"current_range_meters":6800,"station_id":"ce4bhch2rcd13ifvqeug","pricing_plan_id":"cebpf4jnsgd1na2vs0mg"},{"bike_id":"0882789c-0b69-4722-bc16-931bc782bf18","system_id":"levelo_inurba_marseille","lat":43.28616,"lon":5.35103,"is_reserved":false,"is_disabled":false,"rental_uris":{"android":"levelo://app?vid=0882789c-0b69-4722-bc16-931bc782bf18","ios":"levelo://app?vid=0882789c-0b69-4722-bc16-931bc782bf18"},"vehicle_type_id":"4","last_reported":1724692071,"current_range_meters":30400,"station_id":"ce4bhch2rcd13ifvqeug","pricing_plan_id":"cebpf4jnsgd1na2vs0mg"},{"bike_id":"9ab54599-256f-4022-affa-fe0d575ff351","system_id":"levelo_inurba_marseille","lat":43.28616,"lon":5.35099,"is_reserved":false,"is_disabled":false,"rental_uris":{"android":"levelo://app?vid=9ab54599-256f-4022-affa-fe0d575ff351","ios":"levelo://app?vid=9ab54599-256f-4022-affa-fe0d575ff351"},"vehicle_type_id":"4","last_reported":1724692071,"current_range_meters":30000,"station_id":"ce4bhch2rcd13ifvqeug","pricing_plan_id":"cebpf4jnsgd1na2vs0mg"},{"bike_id":"448a8a30-3a39-47bc-9f7c-48728e1c4f8f","system_id":"levelo_inurba_marseille","lat":43.28615,"lon":5.35101,"is_reserved":false,"is_disabled":false,"rental_uris":{"android":"levelo://app?vid=448a8a30-3a39-47bc-9f7c-48728e1c4f8f","ios":"levelo://app?vid=448a8a30-3a39-47bc-9f7c-48728e1c4f8f"},"vehicle_type_id":"4","last_reported":1724692071,"current_range_meters":28400,"station_id":"ce4bhch2rcd13ifvqeug","pricing_plan_id":"cebpf4jnsgd1na2vs0mg"},{"bike_id":"1d88ea81-af09-4cae-8405-1a77bc26f5fd","system_id":"levelo_inurba_marseille","lat":43.28612,"lon":5.351,"is_reserved":false,"is_disabled":false,"rental_uris":{"android":"levelo://app?vid=1d88ea81-af09-4cae-8405-1a77bc26f5fd","ios":"levelo://app?vid=1d88ea81-af09-4cae-8405-1a77bc26f5fd"},"vehicle_type_id":"4","last_reported":1724692071,"current_range_meters":5200,"station_id":"ce4bhch2rcd13ifvqeug","pricing_plan_id":"cebpf4jnsgd1na2vs0mg"},{"bike_id":"6208cf0b-86b0-4cbd-aa9d-b20a7a28867d","system_id":"levelo_inurba_marseille","lat":43.28612,"lon":5.35099,"is_reserved":false,"is_disabled":false,"rental_uris":{"android":"levelo://app?vid=6208cf0b-86b0-4cbd-aa9d-b20a7a28867d","ios":"levelo://app?vid=6208cf0b-86b0-4cbd-aa9d-b20a7a28867d"},"vehicle_type_id":"4","last_reported":1724692071,"current_range_meters":17600,"station_id":"ce4bhch2rcd13ifvqeug","pricing_plan_id":"cebpf4jnsgd1na2vs0mg"},{"bike_id":"4a24b1c5-7f4f-4274-b903-2078170a09ce","system_id":"levelo_inurba_marseille","lat":43.285856,"lon":5.350771,"is_reserved":false,"is_disabled":false,"rental_uris":{"android":"levelo://app?vid=4a24b1c5-7f4f-4274-b903-2078170a09ce","ios":"levelo://app?vid=4a24b1c5-7f4f-4274-b903-2078170a09ce"},"vehicle_type_id":"4","last_reported":1724692071,"current_range_meters":8400,"station_id":"ce4bhch2rcd13ifvqeug","pricing_plan_id":"cebpf4jnsgd1na2vs0mg"},