{"last_updated":1781631535,"ttl":60,"version":"2.2","data":{"bikes":[{"bike_id":"a15dd3fd-a54e-4add-a3c0-b20a9760fd44","system_id":"levelo_inurba_marseille","lat":43.337444,"lon":5.374475,"is_reserved":false,"is_disabled":false,"rental_uris":{"android":"levelo://app?vid=a15dd3fd-a54e-4add-a3c0-b20a9760fd44","ios":"levelo://app?vid=a15dd3fd-a54e-4add-a3c0-b20a9760fd44"},"vehicle_type_id":"4","last_reported":1781631536,"current_range_meters":0,"station_id":"","pricing_plan_id":"cebpf4jnsgd1na2vs0mg"},{"bike_id":"48686ea1-1f82-489d-ad30-fd2f21349580","system_id":"levelo_inurba_marseille","lat":43.337533,"lon":5.374474,"is_reserved":false,"is_disabled":false,"rental_uris":{"android":"levelo://app?vid=48686ea1-1f82-489d-ad30-fd2f21349580","ios":"levelo://app?vid=48686ea1-1f82-489d-ad30-fd2f21349580"},"vehicle_type_id":"4","last_reported":1781631536,"current_range_meters":2800,"station_id":"","pricing_plan_id":"cebpf4jnsgd1na2vs0mg"},{"bike_id":"5c33a7ce-f1ca-4b83-8726-61bacfdaccd6","system_id":"levelo_inurba_marseille","lat":43.298,"lon":5.39343,"is_reserved":false,"is_disabled":false,"rental_uris":{"android":"levelo://app?vid=5c33a7ce-f1ca-4b83-8726-61bacfdaccd6","ios":"levelo://app?vid=5c33a7ce-f1ca-4b83-8726-61bacfdaccd6"},"vehicle_type_id":"4","last_reported":1781631536,"current_range_meters":2800,"station_id":"chh1huq6cuj3fo74tm60","pricing_plan_id":"cebpf4jnsgd1na2vs0mg"},{"bike_id":"ae37a177-9fbf-447c-a47c-c5e1a7eaefb1","system_id":"levelo_inurba_marseille","lat":43.29535,"lon":5.3854,"is_reserved":false,"is_disabled":false,"rental_uris":{"android":"levelo://app?vid=ae37a177-9fbf-447c-a47c-c5e1a7eaefb1","ios":"levelo://app?vid=ae37a177-9fbf-447c-a47c-c5e1a7eaefb1"},"vehicle_type_id":"4","last_reported":1781631536,"current_range_meters":2800,"station_id":"ce4bgih2rcd13ifvqba0","pricing_plan_id":"cebpf4jnsgd1na2vs0mg"},{"bike_id":"9c5b4be7-3fcc-4ce6-b083-013d94e80e50","system_id":"levelo_inurba_marseille","lat":43.25584,"lon":5.3823,"is_reserved":false,"is_disabled":false,"rental_uris":{"android":"levelo://app?vid=9c5b4be7-3fcc-4ce6-b083-013d94e80e50","ios":"levelo://app?vid=9c5b4be7-3fcc-4ce6-b083-013d94e80e50"},"vehicle_type_id":"4","last_reported":1781631536,"current_range_meters":2800,"station_id":"ce4bhih2rcd13ifvqfs0","pricing_plan_id":"cebpf4jnsgd1na2vs0mg"},{"bike_id":"42570adb-e783-4566-a45a-889e0373e1da","system_id":"levelo_inurba_marseille","lat":43.27968,"lon":5.38704,"is_reserved":false,"is_disabled":true,"rental_uris":{"android":"levelo://app?vid=42570adb-e783-4566-a45a-889e0373e1da","ios":"levelo://app?vid=42570adb-e783-4566-a45a-889e0373e1da"},"vehicle_type_id":"4","last_reported":1781631536,"current_range_meters":2800,"station_id":"ce4bhg12rcd13ifvqf80","pricing_plan_id":"cebpf4jnsgd1na2vs0mg"},{"bike_id":"70f0948f-46be-4bde-af79-9b259caafc1c","system_id":"levelo_inurba_marseille","lat":43.26923,"lon":5.40469,"is_reserved":false,"is_disabled":false,"rental_uris":{"android":"levelo://app?vid=70f0948f-46be-4bde-af79-9b259caafc1c","ios":"levelo://app?vid=70f0948f-46be-4bde-af79-9b259caafc1c"},"vehicle_type_id":"4","last_reported":1781631536,"current_range_meters":2800,"station_id":"","pricing_plan_id":"cebpf4jnsgd1na2vs0mg"},{"bike_id":"9eaba331-f606-4f5d-a06d-64755908b4b5","system_id":"levelo_inurba_marseille","lat":43.30543,"lon":5.38423,"is_reserved":false,"is_disabled":false,"rental_uris":{"android":"levelo://app?vid=9eaba331-f606-4f5d-a06d-64755908b4b5","ios":"levelo://app?vid=9eaba331-f606-4f5d-a06d-64755908b4b5"},"vehicle_type_id":"4","last_reported":1781631536,"current_range_meters":2800,"station_id":"ce4bgg92rcd13ifvqb30","pricing_plan_id":"cebpf4jnsgd1na2vs0mg"},{"bike_id":"b3c8409f-b452-4b2f-a731-b9ff42372553","system_id":"levelo_inurba_marseille","lat":43.280762,"lon":5.396599,"is_reserved":false,"is_disabled":false,"rental_uris":{"android":"levelo://app?vid=b3c8409f-b452-4b2f-a731-b9ff42372553","ios":"levelo://app?vid=b3c8409f-b452-4b2f-a731-b9ff42372553"},"vehicle_type_id":"4","last_reported":1781631536,"current_range_meters":2800,"station_id":"ce4bho12rcd13ifvqh2g","pricing_plan_id":"cebpf4jnsgd1na2vs0mg"},{"bike_id":"fa541b92-8ad3-4289-80a2-67af458828c6","system_id":"levelo_inurba_marseille","lat":43.28677,"lon":5.46915,"is_reserved":false,"is_disabled":false,"rental_uris":{"android":"levelo://app?vid=fa541b92-8ad3-4289-80a2-67af458828c6","ios":"levelo://app?vid=fa541b92-8ad3-4289-80a2-67af458828c6"},"vehicle_type_id":"4","last_reported":1781631536,"current_range_meters":2800,"station_id":"","pricing_plan_id":"cebpf4jnsgd1na2vs0mg"},{"bike_id":"342f0dda-b248-4f03-ac96-2bb7653d8979","system_id":"levelo_inurba_marseille","lat":43.2717,"lon":5.40993,"is_reserved":false,"is_disabled":false,"rental_uris":{"android":"levelo://app?vid=342f0dda-b248-4f03-ac96-2bb7653d8979","ios":"levelo://app?vid=342f0dda-b248-4f03-ac96-2bb7653d8979"},"vehicle_type_id":"4","last_reported":1781631536,"current_range_meters":2800,"station_id":"ce4bhl12rcd13ifvqgf0","pricing_plan_id":"cebpf4jnsgd1na2vs0mg"},{"bike_id":"4975f4e0-77c7-4867-b16c-2716a77a3ad0","system_id":"levelo_inurba_marseille","lat":43.28901,"lon":5.37776,"is_reserved":false,"is_disabled":false,"rental_uris":{"android":"levelo://app?vid=4975f4e0-77c7-4867-b16c-2716a77a3ad0","ios":"levelo://app?vid=4975f4e0-77c7-4867-b16c-2716a77a3ad0"},"vehicle_type_id":"4","last_reported":1781631536,"current_range_meters":2800,"station_id":"","pricing_plan_id":"cebpf4jnsgd1na2vs0mg"},{"bike_id":"fa3da8aa-72f4-4938-aa83-86d071ac3dd4","system_id":"levelo_inurba_marseille","lat":43.29281,"lon":5.3684,"is_reserved":false,"is_disabled":false,"rental_uris":{"android":"levelo://app?vid=fa3da8aa-72f4-4938-aa83-86d071ac3dd4","ios":"levelo://app?vid=fa3da8aa-72f4-4938-aa83-86d071ac3dd4"},"vehicle_type_id":"4","last_reported":1781631536,"current_range_meters":2800,"station_id":"ce4bhbp2rcd13ifvqesg","pricing_plan_id":"cebpf4jnsgd1na2vs0mg"},{"bike_id":"f99cf830-7166-4dbc-b296-a11c832f3b9e","system_id":"levelo_inurba_marseille","lat":43.301331,"lon":5.39861,"is_reserved":false,"is_disabled":false,"rental_uris":{"android":"levelo://app?vid=f99cf830-7166-4dbc-b296-a11c832f3b9e","ios":"levelo://app?vid=f99cf830-7166-4dbc-b296-a11c832f3b9e"},"vehicle_type_id":"4","last_reported":1781631536,"current_range_meters":2800,"station_id":"ce4bh0h2rcd13ifvqd40","pricing_plan_id":"cebpf4jnsgd1na2vs0mg"},{"bike_id":"b40f3110-ca5f-424f-b278-c55ed5e853fd","system_id":"levelo_inurba_marseille","lat":43.22416,"lon":5.34753,"is_reserved":false,"is_disabled":false,"rental_uris":{"android":"levelo://app?vid=b40f3110-ca5f-424f-b278-c55ed5e853fd","ios":"levelo://app?vid=b40f3110-ca5f-424f-b278-c55ed5e853fd"},"vehicle_type_id":"4","last_reported":1781631536,"current_range_meters":2800,"station_id":"","pricing_plan_id":"cebpf4jnsgd1na2vs0mg"},{"bike_id":"305a31e1-e1bd-442e-9f03-45245ae621f4","system_id":"levelo_inurba_marseille","lat":43.258094,"lon":5.39432,"is_reserved":false,"is_disabled":false,"rental_uris":{"android":"levelo://app?vid=305a31e1-e1bd-442e-9f03-45245ae621f4","ios":"levelo://app?vid=305a31e1-e1bd-442e-9f03-45245ae621f4"},"vehicle_type_id":"4","last_reported":1781631536,"current_range_meters":2800,"station_id":"ce4bhip2rcd13ifvqft0","pricing_plan_id":"cebpf4jnsgd1na2vs0mg"},{"bike_id":"7accc9c3-2059-4e6e-af00-10bc48e144ca","system_id":"levelo_inurba_marseille","lat":43.290959,"lon":5.3813,"is_reserved":false,"is_disabled":false,"rental_uris":{"android":"levelo://app?vid=7accc9c3-2059-4e6e-af00-10bc48e144ca","ios":"levelo://app?vid=7accc9c3-2059-4e6e-af00-10bc48e144ca"},"vehicle_type_id":"4","last_reported":1781631536,"current_range_meters":2800,"station_id":"ce4bh512rcd13ifvqe2g","pricing_plan_id":"cebpf4jnsgd1na2vs0mg"},{"bike_id":"e4642a33-3f39-402e-b25b-df1b2731b712","system_id":"levelo_inurba_marseille","lat":43.28517,"lon":5.36867,"is_reserved":false,"is_disabled":false,"rental_uris":{"android":"levelo://app?vid=e4642a33-3f39-402e-b25b-df1b2731b712","ios":"levelo://app?vid=e4642a33-3f39-402e-b25b-df1b2731b712"},"vehicle_type_id":"4","last_reported":1781631536,"current_range_meters":3200,"station_id":"","pricing_plan_id":"cebpf4jnsgd1na2vs0mg"},{"bike_id":"d1b88a5e-ce2a-406d-bc57-e78bc6e3536b","system_id":"levelo_inurba_marseille","lat":43.28465,"lon":5.37196,"is_reserved":false,"is_disabled":true,"rental_uris":{"android":"levelo://app?vid=d1b88a5e-ce2a-406d-bc57-e78bc6e3536b","ios":"levelo://app?vid=d1b88a5e-ce2a-406d-bc57-e78bc6e3536b"},"vehicle_type_id":"4","last_reported":1781631536,"current_range_meters":3200,"station_id":"","pricing_plan_id":"cebpf4jnsgd1na2vs0mg"},{"bike_id":"27b673d3-bbfe-41e3-8fe8-9e18e21739be","system_id":"levelo_inurba_marseille","lat":43.28489,"lon":5.48395,"is_reserved":false,"is_disabled":false,"rental_uris":{"android":"levelo://app?vid=27b673d3-bbfe-41e3-8fe8-9e18e21739be","ios":"levelo://app?vid=27b673d3-bbfe-41e3-8fe8-9e18e21739be"},"vehicle_type_id":"4","last_reported":1781631536,"current_range_meters":3200,"station_id":"st_d3svhcjqgbts73a3dn0g","pricing_plan_id":"cebpf4jnsgd1na2vs0mg"},{"bike_id":"a3501f4b-362a-4138-9a71-94f9db606069","system_id":"levelo_inurba_marseille","lat":43.2589,"lon":5.39901,"is_reserved":false,"is_disabled":true,"rental_uris":{"android":"levelo://app?vid=a3501f4b-362a-4138-9a71-94f9db606069","ios":"levelo://app?vid=a3501f4b-362a-4138-9a71-94f9db606069"},"vehicle_type_id":"4","last_reported":1781631536,"current_range_meters":3200,"station_id":"ce4bhl92rcd13ifvqghg","pricing_plan_id":"cebpf4jnsgd1na2vs0mg"},{"bike_id":"61176406-0612-4f2b-8478-d4c60fee23a0","system_id":"levelo_inurba_marseille","lat":43.30214,"lon":5.39467,"is_reserved":false,"is_disabled":false,"rental_uris":{"android":"levelo://app?vid=61176406-0612-4f2b-8478-d4c60fee23a0","ios":"levelo://app?vid=61176406-0612-4f2b-8478-d4c60fee23a0"},"vehicle_type_id":"4","last_reported":1781631536,"current_range_meters":3200,"station_id":"ce4bh0p2rcd13ifvqd70","pricing_plan_id":"cebpf4jnsgd1na2vs0mg"},{"bike_id":"270cf2d2-4c8d-4fd6-98e0-7d5837c37284","system_id":"levelo_inurba_marseille","lat":43.21771,"lon":5.34559,"is_reserved":false,"is_disabled":true,"rental_uris":{"android":"levelo://app?vid=270cf2d2-4c8d-4fd6-98e0-7d5837c37284","ios":"levelo://app?vid=270cf2d2-4c8d-4fd6-98e0-7d5837c37284"},"vehicle_type_id":"4","last_reported":1781631536,"current_range_meters":3200,"station_id":"","pricing_plan_id":"cebpf4jnsgd1na2vs0mg"},{"bike_id":"3c6097b0-023c-438c-a58d-36e90322aca5","system_id":"levelo_inurba_marseille","lat":43.27582,"lon":5.38419,"is_reserved":false,"is_disabled":false,"rental_uris":{"android":"levelo://app?vid=3c6097b0-023c-438c-a58d-36e90322aca5","ios":"levelo://app?vid=3c6097b0-023c-438c-a58d-36e90322aca5"},"vehicle_type_id":"4","last_reported":1781631536,"current_range_meters":3200,"station_id":"ce4bhh92rcd13ifvqfi0","pricing_plan_id":"cebpf4jnsgd1na2vs0mg"},{"bike_id":"1561ef3b-824b-4710-bc8d-76e516611443","system_id":"levelo_inurba_marseille","lat":43.30043,"lon":5.38873,"is_reserved":false,"is_disabled":false,"rental_uris":{"android":"levelo://app?vid=1561ef3b-824b-4710-bc8d-76e516611443","ios":"levelo://app?vid=1561ef3b-824b-4710-bc8d-76e516611443"},"vehicle_type_id":"4","last_reported":1781631536,"current_range_meters":3200,"station_id":"","pricing_plan_id":"cebpf4jnsgd1na2vs0mg"},{"bike_id":"d12a8e9d-5fcf-47b3-ad15-e3b470630926","system_id":"levelo_inurba_marseille","lat":43.29259,"lon":5.38437,"is_reserved":false,"is_disabled":false,"rental_uris":{"android":"levelo://app?vid=d12a8e9d-5fcf-47b3-ad15-e3b470630926","ios":"levelo://app?vid=d12a8e9d-5fcf-47b3-ad15-e3b470630926"},"vehicle_type_id":"4","last_reported":1781631536,"current_range_meters":3200,"station_id":"ce4bh692rcd13ifvqea0","pricing_plan_id":"cebpf4jnsgd1na2vs0mg"},{"bike_id":"cd845403-ce24-405a-aa17-72c12007fb35","system_id":"levelo_inurba_marseille","lat":43.29152,"lon":5.38474,"is_reserved":false,"is_disabled":false,"rental_uris":{"android":"levelo://app?vid=cd845403-ce24-405a-aa17-72c12007fb35","ios":"levelo://app?vid=cd845403-ce24-405a-aa17-72c12007fb35"},"vehicle_type_id":"4","last_reported":1781631536,"current_range_meters":3200,"station_id":"","pricing_plan_id":"cebpf4jnsgd1na2vs0mg"},{"bike_id":"b4e2edee-592c-4b48-874c-16e2c8dc7787","system_id":"levelo_inurba_marseille","lat":43.262157,"lon":5.374472,"is_reserved":false,"is_disabled":false,"rental_uris":{"android":"levelo://app?vid=b4e2edee-592c-4b48-874c-16e2c8dc7787","ios":"levelo://app?vid=b4e2edee-592c-4b48-874c-16e2c8dc7787"},"vehicle_type_id":"4","last_reported":1781631536,"current_range_meters":3200,"station_id":"ce4bhgp2rcd13ifvqfc0","pricing_plan_id":"cebpf4jnsgd1na2vs0mg"},{"bike_id":"1071a8ea-c121-4471-ba43-be46a630481e","system_id":"levelo_inurba_marseille","lat":43.29846,"lon":5.36274,"is_reserved":false,"is_disabled":false,"rental_uris":{"android":"levelo://app?vid=1071a8ea-c121-4471-ba43-be46a630481e","ios":"levelo://app?vid=1071a8ea-c121-4471-ba43-be46a630481e"},"vehicle_type_id":"4","last_reported":1781631536,"current_range_meters":3200,"station_id":"ce4bgpp2rcd13ifvqc3g","pricing_plan_id":"cebpf4jnsgd1na2vs0mg"},{"bike_id":"9378267c-38b9-43e0-8ea6-b991c1cbff7c","system_id":"levelo_inurba_marseille","lat":43.323211,"lon":5.392836,"is_reserved":false,"is_disabled":false,"rental_uris":{"android":"levelo://app?vid=9378267c-38b9-43e0-8ea6-b991c1cbff7c","ios":"levelo://app?vid=9378267c-38b9-43e0-8ea6-b991c1cbff7c"},"vehicle_type_id":"4","last_reported":1781631536,"current_range_meters":3200,"station_id":"","pricing_plan_id":"cebpf4jnsgd1na2vs0mg"},{"bike_id":"ec10c3ea-ecc5-4798-b7bb-d62c532a9510","system_id":"levelo_inurba_marseille","lat":43.29508,"lon":5.37421,"is_reserved":false,"is_disabled":false,"rental_uris":{"android":"levelo://app?vid=ec10c3ea-ecc5-4798-b7bb-d62c532a9510","ios":"levelo://app?vid=ec10c3ea-ecc5-4798-b7bb-d62c532a9510"},"vehicle_type_id":"4","last_reported":1781631536,"current_range_meters":3200,"station_id":"","pricing_plan_id":"cebpf4jnsgd1na2vs0mg"},{"bike_id":"8d7ca193-1642-4373-82b2-1b4f0d075d4e","system_id":"levelo_inurba_marseille","lat":43.30474,"lon":5.37895,"is_reserved":false,"is_disabled":true,"rental_uris":{"android":"levelo://app?vid=8d7ca193-1642-4373-82b2-1b4f0d075d4e","ios":"levelo://app?vid=8d7ca193-1642-4373-82b2-1b4f0d075d4e"},"vehicle_type_id":"4","last_reported":1781631536,"current_range_meters":3600,"station_id":"ce4bgup2rcd13ifvqcn0","pricing_plan_id":"cebpf4jnsgd1na2vs0mg"},{"bike_id":"1c5c9733-04a8-4416-999b-3a69a8b70aac","system_id":"levelo_inurba_marseille","lat":43.29528,"lon":5.38539,"is_reserved":false,"is_disabled":false,"rental_uris":{"android":"levelo://app?vid=1c5c9733-04a8-4416-999b-3a69a8b70aac","ios":"levelo://app?vid=1c5c9733-04a8-4416-999b-3a69a8b70aac"},"vehicle_type_id":"4","last_reported":1781631536,"current_range_meters":3600,"station_id":"ce4bgih2rcd13ifvqba0","pricing_plan_id":"cebpf4jnsgd1na2vs0mg"},{"bike_id":"9e57c6dd-7eee-4130-8bd5-b45f9dff6fa0","system_id":"levelo_inurba_marseille","lat":43.295274,"lon":5.385246,"is_reserved":false,"is_disabled":false,"rental_uris":{"android":"levelo://app?vid=9e57c6dd-7eee-4130-8bd5-b45f9dff6fa0","ios":"levelo://app?vid=9e57c6dd-7eee-4130-8bd5-b45f9dff6fa0"},"vehicle_type_id":"4","last_reported":1781631536,"current_range_meters":3600,"station_id":"ce4bgih2rcd13ifvqba0","pricing_plan_id":"cebpf4jnsgd1na2vs0mg"},{"bike_id":"6a5fdf94-a5c5-43b0-b033-bc57758de8f4","system_id":"levelo_inurba_marseille","lat":43.22534,"lon":5.34841,"is_reserved":false,"is_disabled":false,"rental_uris":{"android":"levelo://app?vid=6a5fdf94-a5c5-43b0-b033-bc57758de8f4","ios":"levelo://app?vid=6a5fdf94-a5c5-43b0-b033-bc57758de8f4"},"vehicle_type_id":"4","last_reported":1781631536,"current_range_meters":3600,"station_id":"st_cvj5dfep6f1abm77gieg","pricing_plan_id":"cebpf4jnsgd1na2vs0mg"},{"bike_id":"172e2420-5254-4959-93d9-5c35f9258439","system_id":"levelo_inurba_marseille","lat":43.295897,"lon":5.385462,"is_reserved":false,"is_disabled":false,"rental_uris":{"android":"levelo://app?vid=172e2420-5254-4959-93d9-5c35f9258439","ios":"levelo://app?vid=172e2420-5254-4959-93d9-5c35f9258439"},"vehicle_type_id":"4","last_reported":1781631536,"current_range_meters":3600,"station_id":"","pricing_plan_id":"cebpf4jnsgd1na2vs0mg"},{"bike_id":"dd7124ac-d080-49c0-8ae3-f89eb4d2fb48","system_id":"levelo_inurba_marseille","lat":43.29519,"lon":5.38676,"is_reserved":false,"is_disabled":false,"rental_uris":{"android":"levelo://app?vid=dd7124ac-d080-49c0-8ae3-f89eb4d2fb48","ios":"levelo://app?vid=dd7124ac-d080-49c0-8ae3-f89eb4d2fb48"},"vehicle_type_id":"4","last_reported":1781631536,"current_range_meters":3600,"station_id":"","pricing_plan_id":"cebpf4jnsgd1na2vs0mg"},{"bike_id":"11b6286e-9c59-42f2-bf3b-27538bd2eaa5","system_id":"levelo_inurba_marseille","lat":43.25403,"lon":5.38175,"is_reserved":false,"is_disabled":false,"rental_uris":{"android":"levelo://app?vid=11b6286e-9c59-42f2-bf3b-27538bd2eaa5","ios":"levelo://app?vid=11b6286e-9c59-42f2-bf3b-27538bd2eaa5"},"vehicle_type_id":"4","last_reported":1781631536,"current_range_meters":3600,"station_id":"","pricing_plan_id":"cebpf4jnsgd1na2vs0mg"},{"bike_id":"2c7fd776-5934-45a3-88fb-d42517ff55d4","system_id":"levelo_inurba_marseille","lat":43.28135,"lon":5.38912,"is_reserved":false,"is_disabled":false,"rental_uris":{"android":"levelo://app?vid=2c7fd776-5934-45a3-88fb-d42517ff55d4","ios":"levelo://app?vid=2c7fd776-5934-45a3-88fb-d42517ff55d4"},"vehicle_type_id":"4","last_reported":1781631536,"current_range_meters":3600,"station_id":"","pricing_plan_id":"cebpf4jnsgd1na2vs0mg"},{"bike_id":"0f9f4e0a-0b5f-4354-a46b-fd0ef5bb1233","system_id":"levelo_inurba_marseille","lat":43.3248,"lon":5.3657,"is_reserved":false,"is_disabled":false,"rental_uris":{"android":"levelo://app?vid=0f9f4e0a-0b5f-4354-a46b-fd0ef5bb1233","ios":"levelo://app?vid=0f9f4e0a-0b5f-4354-a46b-fd0ef5bb1233"},"vehicle_type_id":"4","last_reported":1781631536,"current_range_meters":3600,"station_id":"ce4bhs12rcd13ifvqhvg","pricing_plan_id":"cebpf4jnsgd1na2vs0mg"},{"bike_id":"880cffe8-38ea-4926-a713-7869f178e4a8","system_id":"levelo_inurba_marseille","lat":43.29291,"lon":5.37457,"is_reserved":false,"is_disabled":false,"rental_uris":{"android":"levelo://app?vid=880cffe8-38ea-4926-a713-7869f178e4a8","ios":"levelo://app?vid=880cffe8-38ea-4926-a713-7869f178e4a8"},"vehicle_type_id":"4","last_reported":1781631536,"current_range_meters":3600,"station_id":"ce4bgi12rcd13ifvqb70","pricing_plan_id":"cebpf4jnsgd1na2vs0mg"},{"bike_id":"29fde11c-35a4-497c-b97c-dd76dcc1d733","system_id":"levelo_inurba_marseille","lat":43.30428,"lon":5.39764,"is_reserved":false,"is_disabled":false,"rental_uris":{"android":"levelo://app?vid=29fde11c-35a4-497c-b97c-dd76dcc1d733","ios":"levelo://app?vid=29fde11c-35a4-497c-b97c-dd76dcc1d733"},"vehicle_type_id":"4","last_reported":1781631536,"current_range_meters":3600,"station_id":"ce4bh092rcd13ifvqd20","pricing_plan_id":"cebpf4jnsgd1na2vs0mg"},{"bike_id":"d8a2cd0c-8210-402d-b3cd-a165709c8f60","system_id":"levelo_inurba_marseille","lat":43.29031,"lon":5.38134,"is_reserved":false,"is_disabled":false,"rental_uris":{"android":"levelo://app?vid=d8a2cd0c-8210-402d-b3cd-a165709c8f60","ios":"levelo://app?vid=d8a2cd0c-8210-402d-b3cd-a165709c8f60"},"vehicle_type_id":"4","last_reported":1781631536,"current_range_meters":3600,"station_id":"ce4bh4p2rcd13ifvqe1g","pricing_plan_id":"cebpf4jnsgd1na2vs0mg"},{"bike_id":"0383cdab-51ec-4698-b78e-2f64227fabed","system_id":"levelo_inurba_marseille","lat":43.297,"lon":5.36604,"is_reserved":false,"is_disabled":false,"rental_uris":{"android":"levelo://app?vid=0383cdab-51ec-4698-b78e-2f64227fabed","ios":"levelo://app?vid=0383cdab-51ec-4698-b78e-2f64227fabed"},"vehicle_type_id":"4","last_reported":1781631536,"current_range_meters":3600,"station_id":"ce4bgn12rcd13ifvqbt0","pricing_plan_id":"cebpf4jnsgd1na2vs0mg"},{"bike_id":"7633da52-e520-4a23-90ed-b222b32256a6","system_id":"levelo_inurba_marseille","lat":43.24396,"lon":5.3707,"is_reserved":false,"is_disabled":false,"rental_uris":{"android":"levelo://app?vid=7633da52-e520-4a23-90ed-b222b32256a6","ios":"levelo://app?vid=7633da52-e520-4a23-90ed-b222b32256a6"},"vehicle_type_id":"4","last_reported":1781631536,"current_range_meters":3600,"station_id":"ce4bhhh2rcd13ifvqfk0","pricing_plan_id":"cebpf4jnsgd1na2vs0mg"},{"bike_id":"290b24b1-7175-4f68-aa1b-1b4274aea815","system_id":"levelo_inurba_marseille","lat":43.28618,"lon":5.35103,"is_reserved":false,"is_disabled":false,"rental_uris":{"android":"levelo://app?vid=290b24b1-7175-4f68-aa1b-1b4274aea815","ios":"levelo://app?vid=290b24b1-7175-4f68-aa1b-1b4274aea815"},"vehicle_type_id":"4","last_reported":1781631536,"current_range_meters":3600,"station_id":"ce4bhch2rcd13ifvqeug","pricing_plan_id":"cebpf4jnsgd1na2vs0mg"},{"bike_id":"6c75ea55-36a8-4c7f-989b-d0fca4be45d9","system_id":"levelo_inurba_marseille","lat":43.28144,"lon":5.40058,"is_reserved":false,"is_disabled":false,"rental_uris":{"android":"levelo://app?vid=6c75ea55-36a8-4c7f-989b-d0fca4be45d9","ios":"levelo://app?vid=6c75ea55-36a8-4c7f-989b-d0fca4be45d9"},"vehicle_type_id":"4","last_reported":1781631536,"current_range_meters":3600,"station_id":"","pricing_plan_id":"cebpf4jnsgd1na2vs0mg"},{"bike_id":"a7896be5-6782-44a3-8fa6-5235a9e0658c","system_id":"levelo_inurba_marseille","lat":43.23145,"lon":5.4372,"is_reserved":false,"is_disabled":false,"rental_uris":{"android":"levelo://app?vid=a7896be5-6782-44a3-8fa6-5235a9e0658c","ios":"levelo://app?vid=a7896be5-6782-44a3-8fa6-5235a9e0658c"},"vehicle_type_id":"4","last_reported":1781631536,"current_range_meters":3600,"station_id":"ce4bhmp2rcd13ifvqgog","pricing_plan_id":"cebpf4jnsgd1na2vs0mg"},{"bike_id":"bfd42ca6-d834-40a9-9b22-d02ddbfa0fe8","system_id":"levelo_inurba_marseille","lat":43.22673,"lon":5.34795,"is_reserved":false,"is_disabled":false,"rental_uris":{"android":"levelo://app?vid=bfd42ca6-d834-40a9-9b22-d02ddbfa0fe8","ios":"levelo://app?vid=bfd42ca6-d834-40a9-9b22-d02ddbfa0fe8"},"vehicle_type_id":"4","last_reported":1781631536,"current_range_meters":4000,"station_id":"","pricing_plan_id":"cebpf4jnsgd1na2vs0mg"},{"bike_id":"0ac79708-dc3a-46dc-9cab-28a2a38e535a","system_id":"levelo_inurba_marseille","lat":43.301436,"lon":5.374302,"is_reserved":false,"is_disabled":false,"rental_uris":{"android":"levelo://app?vid=0ac79708-dc3a-46dc-9cab-28a2a38e535a","ios":"levelo://app?vid=0ac79708-dc3a-46dc-9cab-28a2a38e535a"},"vehicle_type_id":"4","last_reported":1781631536,"current_range_meters":4000,"station_id":"ce4bgs92rcd13ifvqcc0","pricing_plan_id":"cebpf4jnsgd1na2vs0mg"},{"bike_id":"534f9234-339d-4918-bde2-d362d352ffa1","system_id":"levelo_inurba_marseille","lat":43.29526,"lon":5.39029,"is_reserved":false,"is_disabled":false,"rental_uris":{"android":"levelo://app?vid=534f9234-339d-4918-bde2-d362d352ffa1","ios":"levelo://app?vid=534f9234-339d-4918-bde2-d362d352ffa1"},"vehicle_type_id":"4","last_reported":1781631536,"current_range_meters":4000,"station_id":"ce4bh3p2rcd13ifvqdp0","pricing_plan_id":"cebpf4jnsgd1na2vs0mg"},{"bike_id":"557ba73f-444d-46aa-878e-fc4b53ba0a8e","system_id":"levelo_inurba_marseille","lat":43.29806,"lon":5.38076,"is_reserved":false,"is_disabled":false,"rental_uris":{"android":"levelo://app?vid=557ba73f-444d-46aa-878e-fc4b53ba0a8e","ios":"levelo://app?vid=557ba73f-444d-46aa-878e-fc4b53ba0a8e"},"vehicle_type_id":"4","last_reported":1781631536,"current_range_meters":4000,"station_id":"ce4bgip2rcd13ifvqbb0","pricing_plan_id":"cebpf4jnsgd1na2vs0mg"},{"bike_id":"96dc4e41-3373-471e-b537-2ef7d66a978b","system_id":"levelo_inurba_marseille","lat":43.30783,"lon":5.37664,"is_reserved":false,"is_disabled":true,"rental_uris":{"android":"levelo://app?vid=96dc4e41-3373-471e-b537-2ef7d66a978b","ios":"levelo://app?vid=96dc4e41-3373-471e-b537-2ef7d66a978b"},"vehicle_type_id":"4","last_reported":1781631536,"current_range_meters":4000,"station_id":"ce4bgv92rcd13ifvqcq0","pricing_plan_id":"cebpf4jnsgd1na2vs0mg"},{"bike_id":"b49fd32b-13ca-42c5-a822-300138d3d7ff","system_id":"levelo_inurba_marseille","lat":43.30205,"lon":5.41768,"is_reserved":false,"is_disabled":false,"rental_uris":{"android":"levelo://app?vid=b49fd32b-13ca-42c5-a822-300138d3d7ff","ios":"levelo://app?vid=b49fd32b-13ca-42c5-a822-300138d3d7ff"},"vehicle_type_id":"4","last_reported":1781631536,"current_range_meters":4000,"station_id":"","pricing_plan_id":"cebpf4jnsgd1na2vs0mg"},{"bike_id":"394c3f0f-abc6-437c-bedd-e8e120bbfbe2","system_id":"levelo_inurba_marseille","lat":43.28939,"lon":5.3664,"is_reserved":false,"is_disabled":false,"rental_uris":{"android":"levelo://app?vid=394c3f0f-abc6-437c-bedd-e8e120bbfbe2","ios":"levelo://app?vid=394c3f0f-abc6-437c-bedd-e8e120bbfbe2"},"vehicle_type_id":"4","last_reported":1781631536,"current_range_meters":4000,"station_id":"ce4bhap2rcd13ifvqek0","pricing_plan_id":"cebpf4jnsgd1na2vs0mg"},{"bike_id":"89d4a1f7-a671-4d91-b6c2-142c2e04d987","system_id":"levelo_inurba_marseille","lat":43.29271,"lon":5.38461,"is_reserved":false,"is_disabled":false,"rental_uris":{"android":"levelo://app?vid=89d4a1f7-a671-4d91-b6c2-142c2e04d987","ios":"levelo://app?vid=89d4a1f7-a671-4d91-b6c2-142c2e04d987"},"vehicle_type_id":"4","last_reported":1781631536,"current_range_meters":4000,"station_id":"ce4bh692rcd13ifvqea0","pricing_plan_id":"cebpf4jnsgd1na2vs0mg"},{"bike_id":"f4c218da-baf5-4767-9ab5-f7541330df55","system_id":"levelo_inurba_marseille","lat":43.29006,"lon":5.35617,"is_reserved":false,"is_disabled":false,"rental_uris":{"android":"levelo://app?vid=f4c218da-baf5-4767-9ab5-f7541330df55","ios":"levelo://app?vid=f4c218da-baf5-4767-9ab5-f7541330df55"},"vehicle_type_id":"4","last_reported":1781631536,"current_range_meters":4000,"station_id":"ce4bhb92rcd13ifvqen0","pricing_plan_id":"cebpf4jnsgd1na2vs0mg"},{"bike_id":"a758b480-5244-4d4d-9f5a-59ecc287dbd0","system_id":"levelo_inurba_marseille","lat":43.30933,"lon":5.40148,"is_reserved":false,"is_disabled":false,"rental_uris":{"android":"levelo://app?vid=a758b480-5244-4d4d-9f5a-59ecc287dbd0","ios":"levelo://app?vid=a758b480-5244-4d4d-9f5a-59ecc287dbd0"},"vehicle_type_id":"4","last_reported":1781631536,"current_range_meters":4000,"station_id":"ce4bgvp2rcd13ifvqct0","pricing_plan_id":"cebpf4jnsgd1na2vs0mg"},{"bike_id":"f0b9fffa-9136-4f5f-a36c-7e1b1902153b","system_id":"levelo_inurba_marseille","lat":43.21198,"lon":5.35079,"is_reserved":false,"is_disabled":false,"rental_uris":{"android":"levelo://app?vid=f0b9fffa-9136-4f5f-a36c-7e1b1902153b","ios":"levelo://app?vid=f0b9fffa-9136-4f5f-a36c-7e1b1902153b"},"vehicle_type_id":"4","last_reported":1781631536,"current_range_meters":4000,"station_id":"st_cvj6sg6p6f1abm77japg","pricing_plan_id":"cebpf4jnsgd1na2vs0mg"},{"bike_id":"fa601219-3f7e-4279-b728-bd7433dfe518","system_id":"levelo_inurba_marseille","lat":43.28504,"lon":5.48391,"is_reserved":false,"is_disabled":false,"rental_uris":{"android":"levelo://app?vid=fa601219-3f7e-4279-b728-bd7433dfe518","ios":"levelo://app?vid=fa601219-3f7e-4279-b728-bd7433dfe518"},"vehicle_type_id":"4","last_reported":1781631536,"current_range_meters":4000,"station_id":"st_d3svhcjqgbts73a3dn0g","pricing_plan_id":"cebpf4jnsgd1na2vs0mg"},{"bike_id":"bf0a1297-9438-4d4a-97ee-5debae059aed","system_id":"levelo_inurba_marseille","lat":43.28735,"lon":5.37935,"is_reserved":false,"is_disabled":false,"rental_uris":{"android":"levelo://app?vid=bf0a1297-9438-4d4a-97ee-5debae059aed","ios":"levelo://app?vid=bf0a1297-9438-4d4a-97ee-5debae059aed"},"vehicle_type_id":"4","last_reported":1781631536,"current_range_meters":4000,"station_id":"ce4bh9p2rcd13ifvqec0","pricing_plan_id":"cebpf4jnsgd1na2vs0mg"},{"bike_id":"a4bbe985-5b08-47f0-a803-f0edf2a201a2","system_id":"levelo_inurba_marseille","lat":43.282695,"lon":5.350544,"is_reserved":false,"is_disabled":false,"rental_uris":{"android":"levelo://app?vid=a4bbe985-5b08-47f0-a803-f0edf2a201a2","ios":"levelo://app?vid=a4bbe985-5b08-47f0-a803-f0edf2a201a2"},"vehicle_type_id":"4","last_reported":1781631536,"current_range_meters":4000,"station_id":"ce4bhbp2rcd13ifvqerg","pricing_plan_id":"cebpf4jnsgd1na2vs0mg"},{"bike_id":"453d03ed-8c36-4848-8e71-e0337ea86e56","system_id":"levelo_inurba_marseille","lat":43.29297,"lon":5.37448,"is_reserved":false,"is_disabled":false,"rental_uris":{"android":"levelo://app?vid=453d03ed-8c36-4848-8e71-e0337ea86e56","ios":"levelo://app?vid=453d03ed-8c36-4848-8e71-e0337ea86e56"},"vehicle_type_id":"4","last_reported":1781631536,"current_range_meters":4000,"station_id":"ce4bgi12rcd13ifvqb70","pricing_plan_id":"cebpf4jnsgd1na2vs0mg"},{"bike_id":"4367c2f4-d544-4011-8326-25555523b69d","system_id":"levelo_inurba_marseille","lat":43.22728,"lon":5.40375,"is_reserved":false,"is_disabled":false,"rental_uris":{"android":"levelo://app?vid=4367c2f4-d544-4011-8326-25555523b69d","ios":"levelo://app?vid=4367c2f4-d544-4011-8326-25555523b69d"},"vehicle_type_id":"4","last_reported":1781631536,"current_range_meters":4000,"station_id":"","pricing_plan_id":"cebpf4jnsgd1na2vs0mg"},{"bike_id":"dd666c2a-d03b-47f9-ae2f-df07a18599eb","system_id":"levelo_inurba_marseille","lat":43.28672,"lon":5.38668,"is_reserved":false,"is_disabled":false,"rental_uris":{"android":"levelo://app?vid=dd666c2a-d03b-47f9-ae2f-df07a18599eb","ios":"levelo://app?vid=dd666c2a-d03b-47f9-ae2f-df07a18599eb"},"vehicle_type_id":"4","last_reported":1781631536,"current_range_meters":4000,"station_id":"ce4bh492rcd13ifvqdug","pricing_plan_id":"cebpf4jnsgd1na2vs0mg"},{"bike_id":"bdc7b946-fa64-4d33-bb19-86380c27c8df","system_id":"levelo_inurba_marseille","lat":43.29775,"lon":5.36744,"is_reserved":false,"is_disabled":false,"rental_uris":{"android":"levelo://app?vid=bdc7b946-fa64-4d33-bb19-86380c27c8df","ios":"levelo://app?vid=bdc7b946-fa64-4d33-bb19-86380c27c8df"},"vehicle_type_id":"4","last_reported":1781631536,"current_range_meters":4000,"station_id":"","pricing_plan_id":"cebpf4jnsgd1na2vs0mg"},{"bike_id":"8eeda215-7d1e-4c7c-8533-36d425698441","system_id":"levelo_inurba_marseille","lat":43.31901,"lon":5.36814,"is_reserved":false,"is_disabled":false,"rental_uris":{"android":"levelo://app?vid=8eeda215-7d1e-4c7c-8533-36d425698441","ios":"levelo://app?vid=8eeda215-7d1e-4c7c-8533-36d425698441"},"vehicle_type_id":"4","last_reported":1781631536,"current_range_meters":4000,"station_id":"st_d6o2h0d0559c73evc1b0","pricing_plan_id":"cebpf4jnsgd1na2vs0mg"},{"bike_id":"b0c81c7c-19cc-44f1-a618-a17760325f8f","system_id":"levelo_inurba_marseille","lat":43.24665,"lon":5.38164,"is_reserved":false,"is_disabled":false,"rental_uris":{"android":"levelo://app?vid=b0c81c7c-19cc-44f1-a618-a17760325f8f","ios":"levelo://app?vid=b0c81c7c-19cc-44f1-a618-a17760325f8f"},"vehicle_type_id":"4","last_reported":1781631536,"current_range_meters":4400,"station_id":"ce4bhih2rcd13ifvqfr0","pricing_plan_id":"cebpf4jnsgd1na2vs0mg"},{"bike_id":"11b399e9-0d52-4738-94a0-440ea29a542d","system_id":"levelo_inurba_marseille","lat":43.30008,"lon":5.37866,"is_reserved":false,"is_disabled":false,"rental_uris":{"android":"levelo://app?vid=11b399e9-0d52-4738-94a0-440ea29a542d","ios":"levelo://app?vid=11b399e9-0d52-4738-94a0-440ea29a542d"},"vehicle_type_id":"4","last_reported":1781631536,"current_range_meters":4400,"station_id":"","pricing_plan_id":"cebpf4jnsgd1na2vs0mg"},{"bike_id":"67ff7e8b-853f-4c75-abe5-947bae418727","system_id":"levelo_inurba_marseille","lat":43.24544,"lon":5.41175,"is_reserved":false,"is_disabled":true,"rental_uris":{"android":"levelo://app?vid=67ff7e8b-853f-4c75-abe5-947bae418727","ios":"levelo://app?vid=67ff7e8b-853f-4c75-abe5-947bae418727"},"vehicle_type_id":"4","last_reported":1781631536,"current_range_meters":4400,"station_id":"","pricing_plan_id":"cebpf4jnsgd1na2vs0mg"},{"bike_id":"ed81713b-e4f5-41bb-b5b3-4d4403ced7d1","system_id":"levelo_inurba_marseille","lat":43.29003,"lon":5.35615,"is_reserved":false,"is_disabled":false,"rental_uris":{"android":"levelo://app?vid=ed81713b-e4f5-41bb-b5b3-4d4403ced7d1","ios":"levelo://app?vid=ed81713b-e4f5-41bb-b5b3-4d4403ced7d1"},"vehicle_type_id":"4","last_reported":1781631536,"current_range_meters":4400,"station_id":"ce4bhb92rcd13ifvqen0","pricing_plan_id":"cebpf4jnsgd1na2vs0mg"},{"bike_id":"8d88c884-25dd-4c21-9b63-a70529b3f7f7","system_id":"levelo_inurba_marseille","lat":43.31545,"lon":5.38663,"is_reserved":false,"is_disabled":false,"rental_uris":{"android":"levelo://app?vid=8d88c884-25dd-4c21-9b63-a70529b3f7f7","ios":"levelo://app?vid=8d88c884-25dd-4c21-9b63-a70529b3f7f7"},"vehicle_type_id":"4","last_reported":1781631536,"current_range_meters":4400,"station_id":"","pricing_plan_id":"cebpf4jnsgd1na2vs0mg"},{"bike_id":"cfe1147b-0860-445b-b8fc-fa8838d5b4ed","system_id":"levelo_inurba_marseille","lat":43.29223,"lon":5.39298,"is_reserved":false,"is_disabled":true,"rental_uris":{"android":"levelo://app?vid=cfe1147b-0860-445b-b8fc-fa8838d5b4ed","ios":"levelo://app?vid=cfe1147b-0860-445b-b8fc-fa8838d5b4ed"},"vehicle_type_id":"4","last_reported":1781631536,"current_range_meters":4400,"station_id":"ce4bh192rcd13ifvqdd0","pricing_plan_id":"cebpf4jnsgd1na2vs0mg"},{"bike_id":"f71acf28-3040-40f4-9e27-7a01f0aaa266","system_id":"levelo_inurba_marseille","lat":43.29246,"lon":5.4092,"is_reserved":false,"is_disabled":true,"rental_uris":{"android":"levelo://app?vid=f71acf28-3040-40f4-9e27-7a01f0aaa266","ios":"levelo://app?vid=f71acf28-3040-40f4-9e27-7a01f0aaa266"},"vehicle_type_id":"4","last_reported":1781631536,"current_range_meters":4400,"station_id":"ce4bh192rcd13ifvqdc0","pricing_plan_id":"cebpf4jnsgd1na2vs0mg"},{"bike_id":"a515c382-1049-4df4-8cd6-f93619635f02","system_id":"levelo_inurba_marseille","lat":43.28411,"lon":5.37505,"is_reserved":false,"is_disabled":false,"rental_uris":{"android":"levelo://app?vid=a515c382-1049-4df4-8cd6-f93619635f02","ios":"levelo://app?vid=a515c382-1049-4df4-8cd6-f93619635f02"},"vehicle_type_id":"4","last_reported":1781631536,"current_range_meters":4400,"station_id":"ce4bh412rcd13ifvqds0","pricing_plan_id":"cebpf4jnsgd1na2vs0mg"},{"bike_id":"c01d86bc-416b-4248-a4ed-d68c02f79566","system_id":"levelo_inurba_marseille","lat":43.29059,"lon":5.3591,"is_reserved":false,"is_disabled":false,"rental_uris":{"android":"levelo://app?vid=c01d86bc-416b-4248-a4ed-d68c02f79566","ios":"levelo://app?vid=c01d86bc-416b-4248-a4ed-d68c02f79566"},"vehicle_type_id":"4","last_reported":1781631536,"current_range_meters":4400,"station_id":"ce4bha92rcd13ifvqeg0","pricing_plan_id":"cebpf4jnsgd1na2vs0mg"},{"bike_id":"20e77e99-ffe8-4c93-9422-6432264f02a1","system_id":"levelo_inurba_marseille","lat":43.23176,"lon":5.399912,"is_reserved":false,"is_disabled":false,"rental_uris":{"android":"levelo://app?vid=20e77e99-ffe8-4c93-9422-6432264f02a1","ios":"levelo://app?vid=20e77e99-ffe8-4c93-9422-6432264f02a1"},"vehicle_type_id":"4","last_reported":1781631536,"current_range_meters":4400,"station_id":"ce4bhn12rcd13ifvqgqg","pricing_plan_id":"cebpf4jnsgd1na2vs0mg"},{"bike_id":"6637099a-7831-476a-a77c-ad16c713edec","system_id":"levelo_inurba_marseille","lat":43.2317,"lon":5.40486,"is_reserved":false,"is_disabled":false,"rental_uris":{"android":"levelo://app?vid=6637099a-7831-476a-a77c-ad16c713edec","ios":"levelo://app?vid=6637099a-7831-476a-a77c-ad16c713edec"},"vehicle_type_id":"4","last_reported":1781631536,"current_range_meters":4400,"station_id":"","pricing_plan_id":"cebpf4jnsgd1na2vs0mg"},{"bike_id":"fa4cf54c-d0a5-4188-9f4b-fe81f81a3ab7","system_id":"levelo_inurba_marseille","lat":43.3127,"lon":5.36943,"is_reserved":false,"is_disabled":true,"rental_uris":{"android":"levelo://app?vid=fa4cf54c-d0a5-4188-9f4b-fe81f81a3ab7","ios":"levelo://app?vid=fa4cf54c-d0a5-4188-9f4b-fe81f81a3ab7"},"vehicle_type_id":"4","last_reported":1781631536,"current_range_meters":4400,"station_id":"","pricing_plan_id":"cebpf4jnsgd1na2vs0mg"},{"bike_id":"503eddf3-84b1-4751-a459-bd429837a657","system_id":"levelo_inurba_marseille","lat":43.295207,"lon":5.390457,"is_reserved":false,"is_disabled":false,"rental_uris":{"android":"levelo://app?vid=503eddf3-84b1-4751-a459-bd429837a657","ios":"levelo://app?vid=503eddf3-84b1-4751-a459-bd429837a657"},"vehicle_type_id":"4","last_reported":1781631536,"current_range_meters":4400,"station_id":"ce4bh3p2rcd13ifvqdp0","pricing_plan_id":"cebpf4jnsgd1na2vs0mg"},{"bike_id":"c2cd4ee9-7d40-4ecc-9b92-a4ed2bff4747","system_id":"levelo_inurba_marseille","lat":43.28478,"lon":5.48403,"is_reserved":false,"is_disabled":false,"rental_uris":{"android":"levelo://app?vid=c2cd4ee9-7d40-4ecc-9b92-a4ed2bff4747","ios":"levelo://app?vid=c2cd4ee9-7d40-4ecc-9b92-a4ed2bff4747"},"vehicle_type_id":"4","last_reported":1781631536,"current_range_meters":4400,"station_id":"st_d3svhcjqgbts73a3dn0g","pricing_plan_id":"cebpf4jnsgd1na2vs0mg"},{"bike_id":"6fcece8f-5fbc-4abe-8003-a1a227633597","system_id":"levelo_inurba_marseille","lat":43.32746,"lon":5.4016,"is_reserved":false,"is_disabled":false,"rental_uris":{"android":"levelo://app?vid=6fcece8f-5fbc-4abe-8003-a1a227633597","ios":"levelo://app?vid=6fcece8f-5fbc-4abe-8003-a1a227633597"},"vehicle_type_id":"4","last_reported":1781631536,"current_range_meters":4400,"station_id":"","pricing_plan_id":"cebpf4jnsgd1na2vs0mg"},{"bike_id":"97f03e4f-cb79-4ae7-abe8-67fbfbcbf322","system_id":"levelo_inurba_marseille","lat":43.30916,"lon":5.40143,"is_reserved":false,"is_disabled":false,"rental_uris":{"android":"levelo://app?vid=97f03e4f-cb79-4ae7-abe8-67fbfbcbf322","ios":"levelo://app?vid=97f03e4f-cb79-4ae7-abe8-67fbfbcbf322"},"vehicle_type_id":"4","last_reported":1781631536,"current_range_meters":4400,"station_id":"ce4bgvp2rcd13ifvqct0","pricing_plan_id":"cebpf4jnsgd1na2vs0mg"},{"bike_id":"6b158c55-ced2-436a-8520-1ff7901f4574","system_id":"levelo_inurba_marseille","lat":43.28707,"lon":5.39974,"is_reserved":false,"is_disabled":false,"rental_uris":{"android":"levelo://app?vid=6b158c55-ced2-436a-8520-1ff7901f4574","ios":"levelo://app?vid=6b158c55-ced2-436a-8520-1ff7901f4574"},"vehicle_type_id":"4","last_reported":1781631536,"current_range_meters":4400,"station_id":"ce4bho92rcd13ifvqh3g","pricing_plan_id":"cebpf4jnsgd1na2vs0mg"},{"bike_id":"e711aacb-583f-4637-8643-9f6f221c5401","system_id":"levelo_inurba_marseille","lat":43.28941,"lon":5.36637,"is_reserved":false,"is_disabled":false,"rental_uris":{"android":"levelo://app?vid=e711aacb-583f-4637-8643-9f6f221c5401","ios":"levelo://app?vid=e711aacb-583f-4637-8643-9f6f221c5401"},"vehicle_type_id":"4","last_reported":1781631536,"current_range_meters":4400,"station_id":"ce4bhap2rcd13ifvqek0","pricing_plan_id":"cebpf4jnsgd1na2vs0mg"},{"bike_id":"372e989d-ee20-4f6c-b13f-be3f904cf048","system_id":"levelo_inurba_marseille","lat":43.27908,"lon":5.38007,"is_reserved":false,"is_disabled":false,"rental_uris":{"android":"levelo://app?vid=372e989d-ee20-4f6c-b13f-be3f904cf048","ios":"levelo://app?vid=372e989d-ee20-4f6c-b13f-be3f904cf048"},"vehicle_type_id":"4","last_reported":1781631536,"current_range_meters":4400,"station_id":"ce4bhf92rcd13ifvqf50","pricing_plan_id":"cebpf4jnsgd1na2vs0mg"},{"bike_id":"abd560ef-6e39-4fe7-94a1-3ae398b84ed1","system_id":"levelo_inurba_marseille","lat":43.3106,"lon":5.37207,"is_reserved":false,"is_disabled":false,"rental_uris":{"android":"levelo://app?vid=abd560ef-6e39-4fe7-94a1-3ae398b84ed1","ios":"levelo://app?vid=abd560ef-6e39-4fe7-94a1-3ae398b84ed1"},"vehicle_type_id":"4","last_reported":1781631536,"current_range_meters":4800,"station_id":"st_d4kl2rp97mjs73e7tdfg","pricing_plan_id":"cebpf4jnsgd1na2vs0mg"},{"bike_id":"538ec4a8-9330-4819-9d9b-a51f31ff3296","system_id":"levelo_inurba_marseille","lat":43.29793,"lon":5.39335,"is_reserved":false,"is_disabled":false,"rental_uris":{"android":"levelo://app?vid=538ec4a8-9330-4819-9d9b-a51f31ff3296","ios":"levelo://app?vid=538ec4a8-9330-4819-9d9b-a51f31ff3296"},"vehicle_type_id":"4","last_reported":1781631536,"current_range_meters":4800,"station_id":"chh1huq6cuj3fo74tm60","pricing_plan_id":"cebpf4jnsgd1na2vs0mg"},{"bike_id":"b7a08dbc-39f9-4757-b756-d770414c1d16","system_id":"levelo_inurba_marseille","lat":43.29283,"lon":5.368448,"is_reserved":false,"is_disabled":false,"rental_uris":{"android":"levelo://app?vid=b7a08dbc-39f9-4757-b756-d770414c1d16","ios":"levelo://app?vid=b7a08dbc-39f9-4757-b756-d770414c1d16"},"vehicle_type_id":"4","last_reported":1781631536,"current_range_meters":4800,"station_id":"ce4bhbp2rcd13ifvqesg","pricing_plan_id":"cebpf4jnsgd1na2vs0mg"},{"bike_id":"dd8f0fa4-84f3-4cc1-af9a-47223aec7ff3","system_id":"levelo_inurba_marseille","lat":43.29172,"lon":5.37147,"is_reserved":false,"is_disabled":false,"rental_uris":{"android":"levelo://app?vid=dd8f0fa4-84f3-4cc1-af9a-47223aec7ff3","ios":"levelo://app?vid=dd8f0fa4-84f3-4cc1-af9a-47223aec7ff3"},"vehicle_type_id":"4","last_reported":1781631536,"current_range_meters":4800,"station_id":"ce4bha92rcd13ifvqeh0","pricing_plan_id":"cebpf4jnsgd1na2vs0mg"},{"bike_id":"43557268-d058-408c-ab03-d4deb2c02d3f","system_id":"levelo_inurba_marseille","lat":43.24698,"lon":5.39483,"is_reserved":false,"is_disabled":false,"rental_uris":{"android":"levelo://app?vid=43557268-d058-408c-ab03-d4deb2c02d3f","ios":"levelo://app?vid=43557268-d058-408c-ab03-d4deb2c02d3f"},"vehicle_type_id":"4","last_reported":1781631536,"current_range_meters":4800,"station_id":"","pricing_plan_id":"cebpf4jnsgd1na2vs0mg"},{"bike_id":"5b2e0e3c-4f87-4326-b62a-3b75f2ec7b11","system_id":"levelo_inurba_marseille","lat":43.30434,"lon":5.38901,"is_reserved":false,"is_disabled":true,"rental_uris":{"android":"levelo://app?vid=5b2e0e3c-4f87-4326-b62a-3b75f2ec7b11","ios":"levelo://app?vid=5b2e0e3c-4f87-4326-b62a-3b75f2ec7b11"},"vehicle_type_id":"4","last_reported":1781631536,"current_range_meters":4800,"station_id":"ce4bgk12rcd13ifvqbi0","pricing_plan_id":"cebpf4jnsgd1na2vs0mg"},{"bike_id":"0f9aee9c-d368-46ce-a204-b7c5f53e47a5","system_id":"levelo_inurba_marseille","lat":43.321,"lon":5.3677,"is_reserved":false,"is_disabled":false,"rental_uris":{"android":"levelo://app?vid=0f9aee9c-d368-46ce-a204-b7c5f53e47a5","ios":"levelo://app?vid=0f9aee9c-d368-46ce-a204-b7c5f53e47a5"},"vehicle_type_id":"4","last_reported":1781631536,"current_range_meters":4800,"station_id":"ce4bhrh2rcd13ifvqhug","pricing_plan_id":"cebpf4jnsgd1na2vs0mg"},{"bike_id":"3f526dcf-f298-4ca1-924b-e7ea723a87d5","system_id":"levelo_inurba_marseille","lat":43.28616,"lon":5.39867,"is_reserved":false,"is_disabled":false,"rental_uris":{"android":"levelo://app?vid=3f526dcf-f298-4ca1-924b-e7ea723a87d5","ios":"levelo://app?vid=3f526dcf-f298-4ca1-924b-e7ea723a87d5"},"vehicle_type_id":"4","last_reported":1781631536,"current_range_meters":4800,"station_id":"st_d4a7ka997mjs738ck50g","pricing_plan_id":"cebpf4jnsgd1na2vs0mg"},{"bike_id":"cd3ded56-a37b-4c4d-926b-aead79321375","system_id":"levelo_inurba_marseille","lat":43.26927,"lon":5.38916,"is_reserved":false,"is_disabled":false,"rental_uris":{"android":"levelo://app?vid=cd3ded56-a37b-4c4d-926b-aead79321375","ios":"levelo://app?vid=cd3ded56-a37b-4c4d-926b-aead79321375"},"vehicle_type_id":"4","last_reported":1781631536,"current_range_meters":4800,"station_id":"ce4bhhh2rcd13ifvqfl0","pricing_plan_id":"cebpf4jnsgd1na2vs0mg"},{"bike_id":"3b4d4dd2-cadb-4ff6-80fe-9f086530b9ac","system_id":"levelo_inurba_marseille","lat":43.28538,"lon":5.44101,"is_reserved":false,"is_disabled":false,"rental_uris":{"android":"levelo://app?vid=3b4d4dd2-cadb-4ff6-80fe-9f086530b9ac","ios":"levelo://app?vid=3b4d4dd2-cadb-4ff6-80fe-9f086530b9ac"},"vehicle_type_id":"4","last_reported":1781631536,"current_range_meters":4800,"station_id":"st_d3j3df2ikq2c7380ej80","pricing_plan_id":"cebpf4jnsgd1na2vs0mg"},{"bike_id":"e854f520-c585-463b-907a-bc3c4d07f23a","system_id":"levelo_inurba_marseille","lat":43.3133,"lon":5.39687,"is_reserved":false,"is_disabled":false,"rental_uris":{"android":"levelo://app?vid=e854f520-c585-463b-907a-bc3c4d07f23a","ios":"levelo://app?vid=e854f520-c585-463b-907a-bc3c4d07f23a"},"vehicle_type_id":"4","last_reported":1781631536,"current_range_meters":4800,"station_id":"ce4bgvp2rcd13ifvqcu0","pricing_plan_id":"cebpf4jnsgd1na2vs0mg"},{"bike_id":"43b62834-45a3-44c4-b21b-d1228f5dffea","system_id":"levelo_inurba_marseille","lat":43.30304,"lon":5.39322,"is_reserved":false,"is_disabled":false,"rental_uris":{"android":"levelo://app?vid=43b62834-45a3-44c4-b21b-d1228f5dffea","ios":"levelo://app?vid=43b62834-45a3-44c4-b21b-d1228f5dffea"},"vehicle_type_id":"4","last_reported":1781631536,"current_range_meters":4800,"station_id":"","pricing_plan_id":"cebpf4jnsgd1na2vs0mg"},{"bike_id":"4b04b0da-9334-4cb2-8212-595ab08a6c52","system_id":"levelo_inurba_marseille","lat":43.26206,"lon":5.37926,"is_reserved":false,"is_disabled":false,"rental_uris":{"android":"levelo://app?vid=4b04b0da-9334-4cb2-8212-595ab08a6c52","ios":"levelo://app?vid=4b04b0da-9334-4cb2-8212-595ab08a6c52"},"vehicle_type_id":"4","last_reported":1781631536,"current_range_meters":4800,"station_id":"ce4bhjp2rcd13ifvqg90","pricing_plan_id":"cebpf4jnsgd1na2vs0mg"},{"bike_id":"216505e3-77a0-43d4-9f98-c22160fc782a","system_id":"levelo_inurba_marseille","lat":43.31049,"lon":5.37136,"is_reserved":false,"is_disabled":false,"rental_uris":{"android":"levelo://app?vid=216505e3-77a0-43d4-9f98-c22160fc782a","ios":"levelo://app?vid=216505e3-77a0-43d4-9f98-c22160fc782a"},"vehicle_type_id":"4","last_reported":1781631536,"current_range_meters":4800,"station_id":"st_d4kl2rp97mjs73e7tdfg","pricing_plan_id":"cebpf4jnsgd1na2vs0mg"},{"bike_id":"f5aa8c47-c8a0-4149-97b2-04b6e44e0487","system_id":"levelo_inurba_marseille","lat":43.28424,"lon":5.34989,"is_reserved":false,"is_disabled":false,"rental_uris":{"android":"levelo://app?vid=f5aa8c47-c8a0-4149-97b2-04b6e44e0487","ios":"levelo://app?vid=f5aa8c47-c8a0-4149-97b2-04b6e44e0487"},"vehicle_type_id":"4","last_reported":1781631536,"current_range_meters":4800,"station_id":"ce4bhbh2rcd13ifvqepg","pricing_plan_id":"cebpf4jnsgd1na2vs0mg"},{"bike_id":"4c773991-95cb-4560-907d-e7da46fee24a","system_id":"levelo_inurba_marseille","lat":43.3107,"lon":5.37158,"is_reserved":false,"is_disabled":false,"rental_uris":{"android":"levelo://app?vid=4c773991-95cb-4560-907d-e7da46fee24a","ios":"levelo://app?vid=4c773991-95cb-4560-907d-e7da46fee24a"},"vehicle_type_id":"4","last_reported":1781631536,"current_range_meters":4800,"station_id":"st_d4kl2rp97mjs73e7tdfg","pricing_plan_id":"cebpf4jnsgd1na2vs0mg"},{"bike_id":"42309cf8-47ff-41d0-9f11-2f5e3bf0c8be","system_id":"levelo_inurba_marseille","lat":43.24632,"lon":5.43147,"is_reserved":false,"is_disabled":true,"rental_uris":{"android":"levelo://app?vid=42309cf8-47ff-41d0-9f11-2f5e3bf0c8be","ios":"levelo://app?vid=42309cf8-47ff-41d0-9f11-2f5e3bf0c8be"},"vehicle_type_id":"4","last_reported":1781631536,"current_range_meters":4800,"station_id":"st_d2m6c4gdas8pm72e190g","pricing_plan_id":"cebpf4jnsgd1na2vs0mg"},{"bike_id":"eb32949f-e3bf-4e2a-ae0a-59e55184508b","system_id":"levelo_inurba_marseille","lat":43.27611,"lon":5.36111,"is_reserved":false,"is_disabled":false,"rental_uris":{"android":"levelo://app?vid=eb32949f-e3bf-4e2a-ae0a-59e55184508b","ios":"levelo://app?vid=eb32949f-e3bf-4e2a-ae0a-59e55184508b"},"vehicle_type_id":"4","last_reported":1781631536,"current_range_meters":4800,"station_id":"ce4bgj92rcd13ifvqbe0","pricing_plan_id":"cebpf4jnsgd1na2vs0mg"},{"bike_id":"91566571-ba9e-42fc-b143-a8a657274803","system_id":"levelo_inurba_marseille","lat":43.299377,"lon":5.36561,"is_reserved":false,"is_disabled":false,"rental_uris":{"android":"levelo://app?vid=91566571-ba9e-42fc-b143-a8a657274803","ios":"levelo://app?vid=91566571-ba9e-42fc-b143-a8a657274803"},"vehicle_type_id":"4","last_reported":1781631536,"current_range_meters":4800,"station_id":"ce4bgm92rcd13ifvqbr0","pricing_plan_id":"cebpf4jnsgd1na2vs0mg"},{"bike_id":"9d681a4a-1eb7-4b5b-b9f2-2b1eefd455cc","system_id":"levelo_inurba_marseille","lat":43.26941,"lon":5.38637,"is_reserved":false,"is_disabled":true,"rental_uris":{"android":"levelo://app?vid=9d681a4a-1eb7-4b5b-b9f2-2b1eefd455cc","ios":"levelo://app?vid=9d681a4a-1eb7-4b5b-b9f2-2b1eefd455cc"},"vehicle_type_id":"4","last_reported":1781631536,"current_range_meters":5600,"station_id":"ce4bhh92rcd13ifvqfh0","pricing_plan_id":"cebpf4jnsgd1na2vs0mg"},{"bike_id":"e288e1db-a64a-4a4a-bdf8-123daf2560f4","system_id":"levelo_inurba_marseille","lat":43.30949,"lon":5.39034,"is_reserved":false,"is_disabled":false,"rental_uris":{"android":"levelo://app?vid=e288e1db-a64a-4a4a-bdf8-123daf2560f4","ios":"levelo://app?vid=e288e1db-a64a-4a4a-bdf8-123daf2560f4"},"vehicle_type_id":"4","last_reported":1781631536,"current_range_meters":5600,"station_id":"ce4bgup2rcd13ifvqco0","pricing_plan_id":"cebpf4jnsgd1na2vs0mg"},{"bike_id":"f60ef44d-d67f-4a2f-a401-0c492da006cc","system_id":"levelo_inurba_marseille","lat":43.29801,"lon":5.38091,"is_reserved":false,"is_disabled":false,"rental_uris":{"android":"levelo://app?vid=f60ef44d-d67f-4a2f-a401-0c492da006cc","ios":"levelo://app?vid=f60ef44d-d67f-4a2f-a401-0c492da006cc"},"vehicle_type_id":"4","last_reported":1781631536,"current_range_meters":5600,"station_id":"ce4bgip2rcd13ifvqbb0","pricing_plan_id":"cebpf4jnsgd1na2vs0mg"},{"bike_id":"f5662c74-763e-4ace-a90f-34be52be210e","system_id":"levelo_inurba_marseille","lat":43.282786,"lon":5.350569,"is_reserved":false,"is_disabled":true,"rental_uris":{"android":"levelo://app?vid=f5662c74-763e-4ace-a90f-34be52be210e","ios":"levelo://app?vid=f5662c74-763e-4ace-a90f-34be52be210e"},"vehicle_type_id":"4","last_reported":1781631536,"current_range_meters":5600,"station_id":"ce4bhbp2rcd13ifvqerg","pricing_plan_id":"cebpf4jnsgd1na2vs0mg"},{"bike_id":"70cf2e80-b98a-426c-8ec6-e3a43ed18eb8","system_id":"levelo_inurba_marseille","lat":43.32369,"lon":5.36738,"is_reserved":false,"is_disabled":false,"rental_uris":{"android":"levelo://app?vid=70cf2e80-b98a-426c-8ec6-e3a43ed18eb8","ios":"levelo://app?vid=70cf2e80-b98a-426c-8ec6-e3a43ed18eb8"},"vehicle_type_id":"4","last_reported":1781631536,"current_range_meters":5600,"station_id":"ce4bhsh2rcd13ifvqi2g","pricing_plan_id":"cebpf4jnsgd1na2vs0mg"},{"bike_id":"4c72adc3-90d7-47ee-b655-dbb9ef5b1c89","system_id":"levelo_inurba_marseille","lat":43.29939,"lon":5.36544,"is_reserved":false,"is_disabled":false,"rental_uris":{"android":"levelo://app?vid=4c72adc3-90d7-47ee-b655-dbb9ef5b1c89","ios":"levelo://app?vid=4c72adc3-90d7-47ee-b655-dbb9ef5b1c89"},"vehicle_type_id":"4","last_reported":1781631536,"current_range_meters":5600,"station_id":"ce4bgm92rcd13ifvqbr0","pricing_plan_id":"cebpf4jnsgd1na2vs0mg"},{"bike_id":"fa10494a-e080-4d3d-ac58-33745ed8a767","system_id":"levelo_inurba_marseille","lat":43.26559,"lon":5.37281,"is_reserved":false,"is_disabled":false,"rental_uris":{"android":"levelo://app?vid=fa10494a-e080-4d3d-ac58-33745ed8a767","ios":"levelo://app?vid=fa10494a-e080-4d3d-ac58-33745ed8a767"},"vehicle_type_id":"4","last_reported":1781631536,"current_range_meters":5600,"station_id":"ce4bhg12rcd13ifvqf70","pricing_plan_id":"cebpf4jnsgd1na2vs0mg"},{"bike_id":"393cef2e-8e12-4b3f-b643-b365a136203e","system_id":"levelo_inurba_marseille","lat":43.231905,"lon":5.355525,"is_reserved":false,"is_disabled":false,"rental_uris":{"android":"levelo://app?vid=393cef2e-8e12-4b3f-b643-b365a136203e","ios":"levelo://app?vid=393cef2e-8e12-4b3f-b643-b365a136203e"},"vehicle_type_id":"4","last_reported":1781631536,"current_range_meters":5600,"station_id":"ce4bhu92rcd13ifvqi70","pricing_plan_id":"cebpf4jnsgd1na2vs0mg"},{"bike_id":"e5c67db7-c7ee-4451-8083-93c0d6ec1031","system_id":"levelo_inurba_marseille","lat":43.29524,"lon":5.37525,"is_reserved":false,"is_disabled":false,"rental_uris":{"android":"levelo://app?vid=e5c67db7-c7ee-4451-8083-93c0d6ec1031","ios":"levelo://app?vid=e5c67db7-c7ee-4451-8083-93c0d6ec1031"},"vehicle_type_id":"4","last_reported":1781631536,"current_range_meters":5600,"station_id":"ce4bgkp2rcd13ifvqbmg","pricing_plan_id":"cebpf4jnsgd1na2vs0mg"},{"bike_id":"5d129347-af29-49ea-afd9-83b4c48fb447","system_id":"levelo_inurba_marseille","lat":43.28488,"lon":5.4838,"is_reserved":false,"is_disabled":false,"rental_uris":{"android":"levelo://app?vid=5d129347-af29-49ea-afd9-83b4c48fb447","ios":"levelo://app?vid=5d129347-af29-49ea-afd9-83b4c48fb447"},"vehicle_type_id":"4","last_reported":1781631536,"current_range_meters":5600,"station_id":"st_d3svhcjqgbts73a3dn0g","pricing_plan_id":"cebpf4jnsgd1na2vs0mg"},{"bike_id":"9f6bb2e6-dcdf-4017-a6ae-7d1c64e6e192","system_id":"levelo_inurba_marseille","lat":43.30466,"lon":5.37896,"is_reserved":false,"is_disabled":true,"rental_uris":{"android":"levelo://app?vid=9f6bb2e6-dcdf-4017-a6ae-7d1c64e6e192","ios":"levelo://app?vid=9f6bb2e6-dcdf-4017-a6ae-7d1c64e6e192"},"vehicle_type_id":"4","last_reported":1781631536,"current_range_meters":5600,"station_id":"ce4bgup2rcd13ifvqcn0","pricing_plan_id":"cebpf4jnsgd1na2vs0mg"},{"bike_id":"8109a4a1-1a37-4965-b832-4e9986b75afd","system_id":"levelo_inurba_marseille","lat":43.2991,"lon":5.38885,"is_reserved":false,"is_disabled":true,"rental_uris":{"android":"levelo://app?vid=8109a4a1-1a37-4965-b832-4e9986b75afd","ios":"levelo://app?vid=8109a4a1-1a37-4965-b832-4e9986b75afd"},"vehicle_type_id":"4","last_reported":1781631536,"current_range_meters":5600,"station_id":"ce4bh392rcd13ifvqdl0","pricing_plan_id":"cebpf4jnsgd1na2vs0mg"},{"bike_id":"d8ce0a01-4e25-4f28-97e5-38276f5b158f","system_id":"levelo_inurba_marseille","lat":43.27948,"lon":5.41048,"is_reserved":false,"is_disabled":false,"rental_uris":{"android":"levelo://app?vid=d8ce0a01-4e25-4f28-97e5-38276f5b158f","ios":"levelo://app?vid=d8ce0a01-4e25-4f28-97e5-38276f5b158f"},"vehicle_type_id":"4","last_reported":1781631536,"current_range_meters":5600,"station_id":"ce4bhnp2rcd13ifvqh0g","pricing_plan_id":"cebpf4jnsgd1na2vs0mg"},{"bike_id":"37cd7e0a-6ead-4607-bbd9-ef0f3c06c44d","system_id":"levelo_inurba_marseille","lat":43.28936,"lon":5.366418,"is_reserved":false,"is_disabled":false,"rental_uris":{"android":"levelo://app?vid=37cd7e0a-6ead-4607-bbd9-ef0f3c06c44d","ios":"levelo://app?vid=37cd7e0a-6ead-4607-bbd9-ef0f3c06c44d"},"vehicle_type_id":"4","last_reported":1781631536,"current_range_meters":5600,"station_id":"ce4bhap2rcd13ifvqek0","pricing_plan_id":"cebpf4jnsgd1na2vs0mg"},{"bike_id":"fe5474a2-2380-48d7-aaa4-2116df9a6a3f","system_id":"levelo_inurba_marseille","lat":43.24719,"lon":5.38143,"is_reserved":false,"is_disabled":false,"rental_uris":{"android":"levelo://app?vid=fe5474a2-2380-48d7-aaa4-2116df9a6a3f","ios":"levelo://app?vid=fe5474a2-2380-48d7-aaa4-2116df9a6a3f"},"vehicle_type_id":"4","last_reported":1781631536,"current_range_meters":5600,"station_id":"ce4bhih2rcd13ifvqfr0","pricing_plan_id":"cebpf4jnsgd1na2vs0mg"},{"bike_id":"6fff7e75-7c4f-49d7-a503-5baf7ba6c982","system_id":"levelo_inurba_marseille","lat":43.28609,"lon":5.37061,"is_reserved":false,"is_disabled":false,"rental_uris":{"android":"levelo://app?vid=6fff7e75-7c4f-49d7-a503-5baf7ba6c982","ios":"levelo://app?vid=6fff7e75-7c4f-49d7-a503-5baf7ba6c982"},"vehicle_type_id":"4","last_reported":1781631536,"current_range_meters":5600,"station_id":"ce4bht12rcd13ifvqi60","pricing_plan_id":"cebpf4jnsgd1na2vs0mg"},{"bike_id":"51ff1793-69ab-4e47-b90a-5ae9c40a8f25","system_id":"levelo_inurba_marseille","lat":43.30328,"lon":5.40437,"is_reserved":false,"is_disabled":false,"rental_uris":{"android":"levelo://app?vid=51ff1793-69ab-4e47-b90a-5ae9c40a8f25","ios":"levelo://app?vid=51ff1793-69ab-4e47-b90a-5ae9c40a8f25"},"vehicle_type_id":"4","last_reported":1781631536,"current_range_meters":5600,"station_id":"ce4bh012rcd13ifvqd10","pricing_plan_id":"cebpf4jnsgd1na2vs0mg"},{"bike_id":"894a0a83-a079-4085-933d-457905ca7a22","system_id":"levelo_inurba_marseille","lat":43.29571,"lon":5.37498,"is_reserved":false,"is_disabled":false,"rental_uris":{"android":"levelo://app?vid=894a0a83-a079-4085-933d-457905ca7a22","ios":"levelo://app?vid=894a0a83-a079-4085-933d-457905ca7a22"},"vehicle_type_id":"4","last_reported":1781631536,"current_range_meters":6000,"station_id":"ce4bgh92rcd13ifvqb50","pricing_plan_id":"cebpf4jnsgd1na2vs0mg"},{"bike_id":"7d0b5ee3-8795-4b83-a1bb-6ab8e1c45807","system_id":"levelo_inurba_marseille","lat":43.292936,"lon":5.374557,"is_reserved":false,"is_disabled":false,"rental_uris":{"android":"levelo://app?vid=7d0b5ee3-8795-4b83-a1bb-6ab8e1c45807","ios":"levelo://app?vid=7d0b5ee3-8795-4b83-a1bb-6ab8e1c45807"},"vehicle_type_id":"4","last_reported":1781631536,"current_range_meters":6000,"station_id":"ce4bgi12rcd13ifvqb70","pricing_plan_id":"cebpf4jnsgd1na2vs0mg"},{"bike_id":"722b93a9-4b8d-41b6-95f8-df801c919a1d","system_id":"levelo_inurba_marseille","lat":43.26517,"lon":5.36982,"is_reserved":false,"is_disabled":false,"rental_uris":{"android":"levelo://app?vid=722b93a9-4b8d-41b6-95f8-df801c919a1d","ios":"levelo://app?vid=722b93a9-4b8d-41b6-95f8-df801c919a1d"},"vehicle_type_id":"4","last_reported":1781631536,"current_range_meters":6000,"station_id":"","pricing_plan_id":"cebpf4jnsgd1na2vs0mg"},{"bike_id":"2bd45ae2-d3b5-49f3-b7b8-05449331bc19","system_id":"levelo_inurba_marseille","lat":43.24019,"lon":5.36279,"is_reserved":false,"is_disabled":false,"rental_uris":{"android":"levelo://app?vid=2bd45ae2-d3b5-49f3-b7b8-05449331bc19","ios":"levelo://app?vid=2bd45ae2-d3b5-49f3-b7b8-05449331bc19"},"vehicle_type_id":"4","last_reported":1781631536,"current_range_meters":6000,"station_id":"","pricing_plan_id":"cebpf4jnsgd1na2vs0mg"},{"bike_id":"f6f8a1ee-40eb-4e07-8ea0-393a39fe24ae","system_id":"levelo_inurba_marseille","lat":43.27076,"lon":5.42279,"is_reserved":false,"is_disabled":false,"rental_uris":{"android":"levelo://app?vid=f6f8a1ee-40eb-4e07-8ea0-393a39fe24ae","ios":"levelo://app?vid=f6f8a1ee-40eb-4e07-8ea0-393a39fe24ae"},"vehicle_type_id":"4","last_reported":1781631536,"current_range_meters":6000,"station_id":"ce4bhk92rcd13ifvqgb0","pricing_plan_id":"cebpf4jnsgd1na2vs0mg"},{"bike_id":"f443e024-361d-4ce8-9a19-0cb3869f75f7","system_id":"levelo_inurba_marseille","lat":43.32508,"lon":5.38286,"is_reserved":false,"is_disabled":false,"rental_uris":{"android":"levelo://app?vid=f443e024-361d-4ce8-9a19-0cb3869f75f7","ios":"levelo://app?vid=f443e024-361d-4ce8-9a19-0cb3869f75f7"},"vehicle_type_id":"4","last_reported":1781631536,"current_range_meters":6000,"station_id":"st_d4asgbiv49dc73anf9m0","pricing_plan_id":"cebpf4jnsgd1na2vs0mg"},{"bike_id":"945e53c5-21ab-4925-bfcd-e622dc1f0435","system_id":"levelo_inurba_marseille","lat":43.27735,"lon":5.39617,"is_reserved":false,"is_disabled":false,"rental_uris":{"android":"levelo://app?vid=945e53c5-21ab-4925-bfcd-e622dc1f0435","ios":"levelo://app?vid=945e53c5-21ab-4925-bfcd-e622dc1f0435"},"vehicle_type_id":"4","last_reported":1781631536,"current_range_meters":6000,"station_id":"","pricing_plan_id":"cebpf4jnsgd1na2vs0mg"},{"bike_id":"d842e566-adb3-4844-b3fb-532091a43e3a","system_id":"levelo_inurba_marseille","lat":43.26216,"lon":5.3744,"is_reserved":false,"is_disabled":false,"rental_uris":{"android":"levelo://app?vid=d842e566-adb3-4844-b3fb-532091a43e3a","ios":"levelo://app?vid=d842e566-adb3-4844-b3fb-532091a43e3a"},"vehicle_type_id":"4","last_reported":1781631536,"current_range_meters":6000,"station_id":"ce4bhgp2rcd13ifvqfc0","pricing_plan_id":"cebpf4jnsgd1na2vs0mg"},{"bike_id":"4a19ee25-c472-4611-a863-fcf027e68f5e","system_id":"levelo_inurba_marseille","lat":43.21221,"lon":5.35055,"is_reserved":false,"is_disabled":false,"rental_uris":{"android":"levelo://app?vid=4a19ee25-c472-4611-a863-fcf027e68f5e","ios":"levelo://app?vid=4a19ee25-c472-4611-a863-fcf027e68f5e"},"vehicle_type_id":"4","last_reported":1781631536,"current_range_meters":6000,"station_id":"","pricing_plan_id":"cebpf4jnsgd1na2vs0mg"},{"bike_id":"b69f6881-fb77-4ac7-95f9-cb8b7b3351ce","system_id":"levelo_inurba_marseille","lat":43.33506,"lon":5.3748,"is_reserved":false,"is_disabled":false,"rental_uris":{"android":"levelo://app?vid=b69f6881-fb77-4ac7-95f9-cb8b7b3351ce","ios":"levelo://app?vid=b69f6881-fb77-4ac7-95f9-cb8b7b3351ce"},"vehicle_type_id":"4","last_reported":1781631536,"current_range_meters":6000,"station_id":"st_d46tts09ee8s73dlu43g","pricing_plan_id":"cebpf4jnsgd1na2vs0mg"},{"bike_id":"eba5bb55-d5e4-4833-bb81-0cf61442c817","system_id":"levelo_inurba_marseille","lat":43.22563,"lon":5.41631,"is_reserved":false,"is_disabled":true,"rental_uris":{"android":"levelo://app?vid=eba5bb55-d5e4-4833-bb81-0cf61442c817","ios":"levelo://app?vid=eba5bb55-d5e4-4833-bb81-0cf61442c817"},"vehicle_type_id":"4","last_reported":1781631536,"current_range_meters":6000,"station_id":"st_d2o4gvlbi1j2169b742g","pricing_plan_id":"cebpf4jnsgd1na2vs0mg"},{"bike_id":"10fca89d-0de5-403d-9f65-fa2d9b77ad93","system_id":"levelo_inurba_marseille","lat":43.2931,"lon":5.37177,"is_reserved":false,"is_disabled":false,"rental_uris":{"android":"levelo://app?vid=10fca89d-0de5-403d-9f65-fa2d9b77ad93","ios":"levelo://app?vid=10fca89d-0de5-403d-9f65-fa2d9b77ad93"},"vehicle_type_id":"4","last_reported":1781631536,"current_range_meters":6000,"station_id":"ce4bgh92rcd13ifvqb40","pricing_plan_id":"cebpf4jnsgd1na2vs0mg"},{"bike_id":"2abf4820-2c55-4e11-98d1-0ec39bf7fad5","system_id":"levelo_inurba_marseille","lat":43.28712,"lon":5.4668,"is_reserved":false,"is_disabled":false,"rental_uris":{"android":"levelo://app?vid=2abf4820-2c55-4e11-98d1-0ec39bf7fad5","ios":"levelo://app?vid=2abf4820-2c55-4e11-98d1-0ec39bf7fad5"},"vehicle_type_id":"4","last_reported":1781631536,"current_range_meters":6000,"station_id":"st_d6tc3vkotcvc738tfjhg","pricing_plan_id":"cebpf4jnsgd1na2vs0mg"},{"bike_id":"7c84cafb-f523-4d27-bebd-4f2307a839ff","system_id":"levelo_inurba_marseille","lat":43.270591,"lon":5.402615,"is_reserved":false,"is_disabled":false,"rental_uris":{"android":"levelo://app?vid=7c84cafb-f523-4d27-bebd-4f2307a839ff","ios":"levelo://app?vid=7c84cafb-f523-4d27-bebd-4f2307a839ff"},"vehicle_type_id":"4","last_reported":1781631536,"current_range_meters":6000,"station_id":"ce4bhk92rcd13ifvqgc0","pricing_plan_id":"cebpf4jnsgd1na2vs0mg"},{"bike_id":"85890b7b-2403-447a-ad52-97a75ebad38b","system_id":"levelo_inurba_marseille","lat":43.22533,"lon":5.3483,"is_reserved":false,"is_disabled":false,"rental_uris":{"android":"levelo://app?vid=85890b7b-2403-447a-ad52-97a75ebad38b","ios":"levelo://app?vid=85890b7b-2403-447a-ad52-97a75ebad38b"},"vehicle_type_id":"4","last_reported":1781631536,"current_range_meters":6000,"station_id":"st_cvj5dfep6f1abm77gieg","pricing_plan_id":"cebpf4jnsgd1na2vs0mg"},{"bike_id":"e9379ee2-90dd-4bb7-ac9c-a312312fc1e1","system_id":"levelo_inurba_marseille","lat":43.2901,"lon":5.35607,"is_reserved":false,"is_disabled":false,"rental_uris":{"android":"levelo://app?vid=e9379ee2-90dd-4bb7-ac9c-a312312fc1e1","ios":"levelo://app?vid=e9379ee2-90dd-4bb7-ac9c-a312312fc1e1"},"vehicle_type_id":"4","last_reported":1781631536,"current_range_meters":6400,"station_id":"ce4bhb92rcd13ifvqen0","pricing_plan_id":"cebpf4jnsgd1na2vs0mg"},{"bike_id":"98ac762a-026b-4aa9-bf69-b1d41ed76dc0","system_id":"levelo_inurba_marseille","lat":43.30892,"lon":5.37212,"is_reserved":false,"is_disabled":true,"rental_uris":{"android":"levelo://app?vid=98ac762a-026b-4aa9-bf69-b1d41ed76dc0","ios":"levelo://app?vid=98ac762a-026b-4aa9-bf69-b1d41ed76dc0"},"vehicle_type_id":"4","last_reported":1781631536,"current_range_meters":6400,"station_id":"ce4bguh2rcd13ifvqckg","pricing_plan_id":"cebpf4jnsgd1na2vs0mg"},{"bike_id":"641c806a-0cb1-4d42-9493-ddf4d095f73c","system_id":"levelo_inurba_marseille","lat":43.29536,"lon":5.37502,"is_reserved":false,"is_disabled":false,"rental_uris":{"android":"levelo://app?vid=641c806a-0cb1-4d42-9493-ddf4d095f73c","ios":"levelo://app?vid=641c806a-0cb1-4d42-9493-ddf4d095f73c"},"vehicle_type_id":"4","last_reported":1781631536,"current_range_meters":6400,"station_id":"ce4bgkp2rcd13ifvqbmg","pricing_plan_id":"cebpf4jnsgd1na2vs0mg"},{"bike_id":"6116c5f1-dff1-49bb-99c3-21a3ad77c0f8","system_id":"levelo_inurba_marseille","lat":43.28483,"lon":5.48385,"is_reserved":false,"is_disabled":false,"rental_uris":{"android":"levelo://app?vid=6116c5f1-dff1-49bb-99c3-21a3ad77c0f8","ios":"levelo://app?vid=6116c5f1-dff1-49bb-99c3-21a3ad77c0f8"},"vehicle_type_id":"4","last_reported":1781631536,"current_range_meters":6400,"station_id":"st_d3svhcjqgbts73a3dn0g","pricing_plan_id":"cebpf4jnsgd1na2vs0mg"},{"bike_id":"33b4704b-da03-4518-ae53-8a7758f3dde4","system_id":"levelo_inurba_marseille","lat":43.29875,"lon":5.397306,"is_reserved":false,"is_disabled":false,"rental_uris":{"android":"levelo://app?vid=33b4704b-da03-4518-ae53-8a7758f3dde4","ios":"levelo://app?vid=33b4704b-da03-4518-ae53-8a7758f3dde4"},"vehicle_type_id":"4","last_reported":1781631536,"current_range_meters":6400,"station_id":"ce4bh0h2rcd13ifvqd50","pricing_plan_id":"cebpf4jnsgd1na2vs0mg"},{"bike_id":"9a8ad781-d0bb-480a-9de9-779a6475e47c","system_id":"levelo_inurba_marseille","lat":43.3237,"lon":5.3673,"is_reserved":false,"is_disabled":false,"rental_uris":{"android":"levelo://app?vid=9a8ad781-d0bb-480a-9de9-779a6475e47c","ios":"levelo://app?vid=9a8ad781-d0bb-480a-9de9-779a6475e47c"},"vehicle_type_id":"4","last_reported":1781631536,"current_range_meters":6400,"station_id":"ce4bhsh2rcd13ifvqi2g","pricing_plan_id":"cebpf4jnsgd1na2vs0mg"},{"bike_id":"5c873f8b-765b-4a52-b4cc-4439b4ee485f","system_id":"levelo_inurba_marseille","lat":43.31092,"lon":5.42421,"is_reserved":false,"is_disabled":true,"rental_uris":{"android":"levelo://app?vid=5c873f8b-765b-4a52-b4cc-4439b4ee485f","ios":"levelo://app?vid=5c873f8b-765b-4a52-b4cc-4439b4ee485f"},"vehicle_type_id":"4","last_reported":1781631536,"current_range_meters":6400,"station_id":"ce4bhp92rcd13ifvqhag","pricing_plan_id":"cebpf4jnsgd1na2vs0mg"},{"bike_id":"68deeb76-a1bf-4540-a85a-31cde14a7f40","system_id":"levelo_inurba_marseille","lat":43.28601,"lon":5.3705,"is_reserved":false,"is_disabled":false,"rental_uris":{"android":"levelo://app?vid=68deeb76-a1bf-4540-a85a-31cde14a7f40","ios":"levelo://app?vid=68deeb76-a1bf-4540-a85a-31cde14a7f40"},"vehicle_type_id":"4","last_reported":1781631536,"current_range_meters":6400,"station_id":"ce4bht12rcd13ifvqi60","pricing_plan_id":"cebpf4jnsgd1na2vs0mg"},{"bike_id":"dfcded48-e2de-4717-b972-504acfc3fd76","system_id":"levelo_inurba_marseille","lat":43.29545,"lon":5.38532,"is_reserved":false,"is_disabled":false,"rental_uris":{"android":"levelo://app?vid=dfcded48-e2de-4717-b972-504acfc3fd76","ios":"levelo://app?vid=dfcded48-e2de-4717-b972-504acfc3fd76"},"vehicle_type_id":"4","last_reported":1781631536,"current_range_meters":6400,"station_id":"ce4bgih2rcd13ifvqba0","pricing_plan_id":"cebpf4jnsgd1na2vs0mg"},{"bike_id":"e28c8f3f-6de2-4694-981a-7585934006f3","system_id":"levelo_inurba_marseille","lat":43.285,"lon":5.48385,"is_reserved":false,"is_disabled":false,"rental_uris":{"android":"levelo://app?vid=e28c8f3f-6de2-4694-981a-7585934006f3","ios":"levelo://app?vid=e28c8f3f-6de2-4694-981a-7585934006f3"},"vehicle_type_id":"4","last_reported":1781631536,"current_range_meters":6400,"station_id":"st_d3svhcjqgbts73a3dn0g","pricing_plan_id":"cebpf4jnsgd1na2vs0mg"},{"bike_id":"ff44d46f-80f2-4f49-8935-62071f8360b2","system_id":"levelo_inurba_marseille","lat":43.29271,"lon":5.36846,"is_reserved":false,"is_disabled":false,"rental_uris":{"android":"levelo://app?vid=ff44d46f-80f2-4f49-8935-62071f8360b2","ios":"levelo://app?vid=ff44d46f-80f2-4f49-8935-62071f8360b2"},"vehicle_type_id":"4","last_reported":1781631536,"current_range_meters":6400,"station_id":"ce4bhbp2rcd13ifvqesg","pricing_plan_id":"cebpf4jnsgd1na2vs0mg"},{"bike_id":"abf16833-b17e-48f3-a0d5-0e263dcae8f2","system_id":"levelo_inurba_marseille","lat":43.29202,"lon":5.3582,"is_reserved":false,"is_disabled":false,"rental_uris":{"android":"levelo://app?vid=abf16833-b17e-48f3-a0d5-0e263dcae8f2","ios":"levelo://app?vid=abf16833-b17e-48f3-a0d5-0e263dcae8f2"},"vehicle_type_id":"4","last_reported":1781631536,"current_range_meters":6400,"station_id":"ce4bhb12rcd13ifvqel0","pricing_plan_id":"cebpf4jnsgd1na2vs0mg"},{"bike_id":"af7922cd-7008-479a-a046-145ee967dc58","system_id":"levelo_inurba_marseille","lat":43.2655,"lon":5.37288,"is_reserved":false,"is_disabled":false,"rental_uris":{"android":"levelo://app?vid=af7922cd-7008-479a-a046-145ee967dc58","ios":"levelo://app?vid=af7922cd-7008-479a-a046-145ee967dc58"},"vehicle_type_id":"4","last_reported":1781631536,"current_range_meters":6400,"station_id":"ce4bhg12rcd13ifvqf70","pricing_plan_id":"cebpf4jnsgd1na2vs0mg"},{"bike_id":"5bbf0675-a206-4669-87e7-89e5ac9fbc6a","system_id":"levelo_inurba_marseille","lat":43.29939,"lon":5.36524,"is_reserved":false,"is_disabled":true,"rental_uris":{"android":"levelo://app?vid=5bbf0675-a206-4669-87e7-89e5ac9fbc6a","ios":"levelo://app?vid=5bbf0675-a206-4669-87e7-89e5ac9fbc6a"},"vehicle_type_id":"4","last_reported":1781631536,"current_range_meters":6400,"station_id":"ce4bgm92rcd13ifvqbr0","pricing_plan_id":"cebpf4jnsgd1na2vs0mg"},{"bike_id":"c339bdc6-522c-461c-bf40-92f4f11b1a04","system_id":"levelo_inurba_marseille","lat":43.29312,"lon":5.37211,"is_reserved":false,"is_disabled":false,"rental_uris":{"android":"levelo://app?vid=c339bdc6-522c-461c-bf40-92f4f11b1a04","ios":"levelo://app?vid=c339bdc6-522c-461c-bf40-92f4f11b1a04"},"vehicle_type_id":"4","last_reported":1781631536,"current_range_meters":6400,"station_id":"ce4bgh92rcd13ifvqb40","pricing_plan_id":"cebpf4jnsgd1na2vs0mg"},{"bike_id":"9a16e849-67b9-4ce6-8bbc-3f76319a0666","system_id":"levelo_inurba_marseille","lat":43.26801,"lon":5.39405,"is_reserved":false,"is_disabled":true,"rental_uris":{"android":"levelo://app?vid=9a16e849-67b9-4ce6-8bbc-3f76319a0666","ios":"levelo://app?vid=9a16e849-67b9-4ce6-8bbc-3f76319a0666"},"vehicle_type_id":"4","last_reported":1781631536,"current_range_meters":6800,"station_id":"ce4bhh12rcd13ifvqfg0","pricing_plan_id":"cebpf4jnsgd1na2vs0mg"},{"bike_id":"292b4d83-8027-43f2-8882-df104c31cba4","system_id":"levelo_inurba_marseille","lat":43.32088,"lon":5.36769,"is_reserved":false,"is_disabled":false,"rental_uris":{"android":"levelo://app?vid=292b4d83-8027-43f2-8882-df104c31cba4","ios":"levelo://app?vid=292b4d83-8027-43f2-8882-df104c31cba4"},"vehicle_type_id":"4","last_reported":1781631536,"current_range_meters":6800,"station_id":"ce4bhrh2rcd13ifvqhug","pricing_plan_id":"cebpf4jnsgd1na2vs0mg"},{"bike_id":"2382f2e8-91d6-49ee-93ef-7bf968868733","system_id":"levelo_inurba_marseille","lat":43.26564,"lon":5.39022,"is_reserved":false,"is_disabled":false,"rental_uris":{"android":"levelo://app?vid=2382f2e8-91d6-49ee-93ef-7bf968868733","ios":"levelo://app?vid=2382f2e8-91d6-49ee-93ef-7bf968868733"},"vehicle_type_id":"4","last_reported":1781631536,"current_range_meters":6800,"station_id":"ce4bhe12rcd13ifvqf30","pricing_plan_id":"cebpf4jnsgd1na2vs0mg"},{"bike_id":"d68ee0ff-9827-4578-9772-bca1293f0f89","system_id":"levelo_inurba_marseille","lat":43.28482,"lon":5.48398,"is_reserved":false,"is_disabled":false,"rental_uris":{"android":"levelo://app?vid=d68ee0ff-9827-4578-9772-bca1293f0f89","ios":"levelo://app?vid=d68ee0ff-9827-4578-9772-bca1293f0f89"},"vehicle_type_id":"4","last_reported":1781631536,"current_range_meters":6800,"station_id":"st_d3svhcjqgbts73a3dn0g","pricing_plan_id":"cebpf4jnsgd1na2vs0mg"},{"bike_id":"96a488e2-3301-4c74-b7c0-537d3a9e38b5","system_id":"levelo_inurba_marseille","lat":43.2779,"lon":5.40738,"is_reserved":false,"is_disabled":false,"rental_uris":{"android":"levelo://app?vid=96a488e2-3301-4c74-b7c0-537d3a9e38b5","ios":"levelo://app?vid=96a488e2-3301-4c74-b7c0-537d3a9e38b5"},"vehicle_type_id":"4","last_reported":1781631536,"current_range_meters":6800,"station_id":"ce4bhnh2rcd13ifvqgtg","pricing_plan_id":"cebpf4jnsgd1na2vs0mg"},{"bike_id":"45e146af-c215-4c2a-9dca-78650517cdb0","system_id":"levelo_inurba_marseille","lat":43.29055,"lon":5.35903,"is_reserved":false,"is_disabled":false,"rental_uris":{"android":"levelo://app?vid=45e146af-c215-4c2a-9dca-78650517cdb0","ios":"levelo://app?vid=45e146af-c215-4c2a-9dca-78650517cdb0"},"vehicle_type_id":"4","last_reported":1781631536,"current_range_meters":6800,"station_id":"ce4bha92rcd13ifvqeg0","pricing_plan_id":"cebpf4jnsgd1na2vs0mg"},{"bike_id":"b4b692fe-7662-49d3-9a9e-9effadf56b0e","system_id":"levelo_inurba_marseille","lat":43.31361,"lon":5.38503,"is_reserved":false,"is_disabled":false,"rental_uris":{"android":"levelo://app?vid=b4b692fe-7662-49d3-9a9e-9effadf56b0e","ios":"levelo://app?vid=b4b692fe-7662-49d3-9a9e-9effadf56b0e"},"vehicle_type_id":"4","last_reported":1781631536,"current_range_meters":6800,"station_id":"ce4bgt92rcd13ifvqcf0","pricing_plan_id":"cebpf4jnsgd1na2vs0mg"},{"bike_id":"84fd9e3c-2f88-499c-80ff-e16a38340413","system_id":"levelo_inurba_marseille","lat":43.25585,"lon":5.38219,"is_reserved":false,"is_disabled":false,"rental_uris":{"android":"levelo://app?vid=84fd9e3c-2f88-499c-80ff-e16a38340413","ios":"levelo://app?vid=84fd9e3c-2f88-499c-80ff-e16a38340413"},"vehicle_type_id":"4","last_reported":1781631536,"current_range_meters":6800,"station_id":"ce4bhih2rcd13ifvqfs0","pricing_plan_id":"cebpf4jnsgd1na2vs0mg"},{"bike_id":"35f86b30-2f9a-4a81-b54b-6e41ce7560f5","system_id":"levelo_inurba_marseille","lat":43.25831,"lon":5.39439,"is_reserved":false,"is_disabled":false,"rental_uris":{"android":"levelo://app?vid=35f86b30-2f9a-4a81-b54b-6e41ce7560f5","ios":"levelo://app?vid=35f86b30-2f9a-4a81-b54b-6e41ce7560f5"},"vehicle_type_id":"4","last_reported":1781631536,"current_range_meters":6800,"station_id":"ce4bhip2rcd13ifvqft0","pricing_plan_id":"cebpf4jnsgd1na2vs0mg"},{"bike_id":"af9862e0-50d4-4f19-9685-d2e303e78c1d","system_id":"levelo_inurba_marseille","lat":43.24465,"lon":5.43975,"is_reserved":false,"is_disabled":false,"rental_uris":{"android":"levelo://app?vid=af9862e0-50d4-4f19-9685-d2e303e78c1d","ios":"levelo://app?vid=af9862e0-50d4-4f19-9685-d2e303e78c1d"},"vehicle_type_id":"4","last_reported":1781631536,"current_range_meters":6800,"station_id":"","pricing_plan_id":"cebpf4jnsgd1na2vs0mg"},{"bike_id":"3c2627c3-6b47-409b-b753-9140f020caaa","system_id":"levelo_inurba_marseille","lat":43.29549,"lon":5.38552,"is_reserved":false,"is_disabled":false,"rental_uris":{"android":"levelo://app?vid=3c2627c3-6b47-409b-b753-9140f020caaa","ios":"levelo://app?vid=3c2627c3-6b47-409b-b753-9140f020caaa"},"vehicle_type_id":"4","last_reported":1781631536,"current_range_meters":6800,"station_id":"ce4bgih2rcd13ifvqba0","pricing_plan_id":"cebpf4jnsgd1na2vs0mg"},{"bike_id":"4e8e3fd0-de15-45de-9d13-fc3bb689abe8","system_id":"levelo_inurba_marseille","lat":43.29562,"lon":5.42275,"is_reserved":false,"is_disabled":false,"rental_uris":{"android":"levelo://app?vid=4e8e3fd0-de15-45de-9d13-fc3bb689abe8","ios":"levelo://app?vid=4e8e3fd0-de15-45de-9d13-fc3bb689abe8"},"vehicle_type_id":"4","last_reported":1781631536,"current_range_meters":6800,"station_id":"ce4bhph2rcd13ifvqhdg","pricing_plan_id":"cebpf4jnsgd1na2vs0mg"},{"bike_id":"e01a5439-4661-418b-b35b-df875d53f233","system_id":"levelo_inurba_marseille","lat":43.30077,"lon":5.40335,"is_reserved":false,"is_disabled":false,"rental_uris":{"android":"levelo://app?vid=e01a5439-4661-418b-b35b-df875d53f233","ios":"levelo://app?vid=e01a5439-4661-418b-b35b-df875d53f233"},"vehicle_type_id":"4","last_reported":1781631536,"current_range_meters":6800,"station_id":"","pricing_plan_id":"cebpf4jnsgd1na2vs0mg"},{"bike_id":"b8ce4aa5-e834-430d-bb23-e85e7d4bbab7","system_id":"levelo_inurba_marseille","lat":43.28731,"lon":5.46661,"is_reserved":false,"is_disabled":false,"rental_uris":{"android":"levelo://app?vid=b8ce4aa5-e834-430d-bb23-e85e7d4bbab7","ios":"levelo://app?vid=b8ce4aa5-e834-430d-bb23-e85e7d4bbab7"},"vehicle_type_id":"4","last_reported":1781631536,"current_range_meters":6800,"station_id":"st_d6tc3vkotcvc738tfjhg","pricing_plan_id":"cebpf4jnsgd1na2vs0mg"},{"bike_id":"57aa072b-4f7e-43f5-a89b-0cdd2fa99d15","system_id":"levelo_inurba_marseille","lat":43.27955,"lon":5.39101,"is_reserved":false,"is_disabled":false,"rental_uris":{"android":"levelo://app?vid=57aa072b-4f7e-43f5-a89b-0cdd2fa99d15","ios":"levelo://app?vid=57aa072b-4f7e-43f5-a89b-0cdd2fa99d15"},"vehicle_type_id":"4","last_reported":1781631536,"current_range_meters":6800,"station_id":"","pricing_plan_id":"cebpf4jnsgd1na2vs0mg"},{"bike_id":"def9b504-6ec5-4696-afa7-a39fc5ec55ff","system_id":"levelo_inurba_marseille","lat":43.26566,"lon":5.39018,"is_reserved":false,"is_disabled":false,"rental_uris":{"android":"levelo://app?vid=def9b504-6ec5-4696-afa7-a39fc5ec55ff","ios":"levelo://app?vid=def9b504-6ec5-4696-afa7-a39fc5ec55ff"},"vehicle_type_id":"4","last_reported":1781631536,"current_range_meters":6800,"station_id":"ce4bhe12rcd13ifvqf30","pricing_plan_id":"cebpf4jnsgd1na2vs0mg"},{"bike_id":"1e7e1e34-037e-485f-b6cf-d7e14b40d530","system_id":"levelo_inurba_marseille","lat":43.298,"lon":5.38107,"is_reserved":false,"is_disabled":false,"rental_uris":{"android":"levelo://app?vid=1e7e1e34-037e-485f-b6cf-d7e14b40d530","ios":"levelo://app?vid=1e7e1e34-037e-485f-b6cf-d7e14b40d530"},"vehicle_type_id":"4","last_reported":1781631536,"current_range_meters":6800,"station_id":"ce4bgip2rcd13ifvqbb0","pricing_plan_id":"cebpf4jnsgd1na2vs0mg"},{"bike_id":"7afd5665-6d1a-4686-b9f6-3f8c15d05dfb","system_id":"levelo_inurba_marseille","lat":43.27385,"lon":5.36273,"is_reserved":false,"is_disabled":false,"rental_uris":{"android":"levelo://app?vid=7afd5665-6d1a-4686-b9f6-3f8c15d05dfb","ios":"levelo://app?vid=7afd5665-6d1a-4686-b9f6-3f8c15d05dfb"},"vehicle_type_id":"4","last_reported":1781631536,"current_range_meters":6800,"station_id":"ce4bhbh2rcd13ifvqeo0","pricing_plan_id":"cebpf4jnsgd1na2vs0mg"},{"bike_id":"cc9f8f11-c428-4e32-b4c6-a904396fce7b","system_id":"levelo_inurba_marseille","lat":43.26212,"lon":5.37433,"is_reserved":false,"is_disabled":false,"rental_uris":{"android":"levelo://app?vid=cc9f8f11-c428-4e32-b4c6-a904396fce7b","ios":"levelo://app?vid=cc9f8f11-c428-4e32-b4c6-a904396fce7b"},"vehicle_type_id":"4","last_reported":1781631536,"current_range_meters":6800,"station_id":"ce4bhgp2rcd13ifvqfc0","pricing_plan_id":"cebpf4jnsgd1na2vs0mg"},{"bike_id":"ceb8557b-2a05-475c-b850-2c22b6e4e2c6","system_id":"levelo_inurba_marseille","lat":43.28854,"lon":5.3584,"is_reserved":false,"is_disabled":false,"rental_uris":{"android":"levelo://app?vid=ceb8557b-2a05-475c-b850-2c22b6e4e2c6","ios":"levelo://app?vid=ceb8557b-2a05-475c-b850-2c22b6e4e2c6"},"vehicle_type_id":"4","last_reported":1781631536,"current_range_meters":7200,"station_id":"ce4bhb12rcd13ifvqem0","pricing_plan_id":"cebpf4jnsgd1na2vs0mg"},{"bike_id":"b89fc999-0cc0-4663-8435-25df1a6a89c1","system_id":"levelo_inurba_marseille","lat":43.29177,"lon":5.37161,"is_reserved":false,"is_disabled":false,"rental_uris":{"android":"levelo://app?vid=b89fc999-0cc0-4663-8435-25df1a6a89c1","ios":"levelo://app?vid=b89fc999-0cc0-4663-8435-25df1a6a89c1"},"vehicle_type_id":"4","last_reported":1781631536,"current_range_meters":7200,"station_id":"ce4bha92rcd13ifvqeh0","pricing_plan_id":"cebpf4jnsgd1na2vs0mg"},{"bike_id":"84dfc79c-c0f3-467e-8430-0df8d7ab65fb","system_id":"levelo_inurba_marseille","lat":43.29383,"lon":5.385887,"is_reserved":false,"is_disabled":false,"rental_uris":{"android":"levelo://app?vid=84dfc79c-c0f3-467e-8430-0df8d7ab65fb","ios":"levelo://app?vid=84dfc79c-c0f3-467e-8430-0df8d7ab65fb"},"vehicle_type_id":"4","last_reported":1781631536,"current_range_meters":7200,"station_id":"ce4bgih2rcd13ifvqba0","pricing_plan_id":"cebpf4jnsgd1na2vs0mg"},{"bike_id":"44c2a27f-104e-4203-8e90-903d095d51bb","system_id":"levelo_inurba_marseille","lat":43.282669,"lon":5.372809,"is_reserved":false,"is_disabled":false,"rental_uris":{"android":"levelo://app?vid=44c2a27f-104e-4203-8e90-903d095d51bb","ios":"levelo://app?vid=44c2a27f-104e-4203-8e90-903d095d51bb"},"vehicle_type_id":"4","last_reported":1781631536,"current_range_meters":7200,"station_id":"","pricing_plan_id":"cebpf4jnsgd1na2vs0mg"},{"bike_id":"d1f633b2-bbdf-4a26-a94d-6e46b6e402e4","system_id":"levelo_inurba_marseille","lat":43.25726,"lon":5.41114,"is_reserved":false,"is_disabled":false,"rental_uris":{"android":"levelo://app?vid=d1f633b2-bbdf-4a26-a94d-6e46b6e402e4","ios":"levelo://app?vid=d1f633b2-bbdf-4a26-a94d-6e46b6e402e4"},"vehicle_type_id":"4","last_reported":1781631536,"current_range_meters":7200,"station_id":"ce4bhkp2rcd13ifvqgd0","pricing_plan_id":"cebpf4jnsgd1na2vs0mg"},{"bike_id":"017d0b60-22dd-4a44-8a27-a53cb5de9e22","system_id":"levelo_inurba_marseille","lat":43.231966,"lon":5.355541,"is_reserved":false,"is_disabled":false,"rental_uris":{"android":"levelo://app?vid=017d0b60-22dd-4a44-8a27-a53cb5de9e22","ios":"levelo://app?vid=017d0b60-22dd-4a44-8a27-a53cb5de9e22"},"vehicle_type_id":"4","last_reported":1781631536,"current_range_meters":7200,"station_id":"ce4bhu92rcd13ifvqi70","pricing_plan_id":"cebpf4jnsgd1na2vs0mg"},{"bike_id":"182c9624-6a87-48d0-9d03-2f9261b9f622","system_id":"levelo_inurba_marseille","lat":43.29942,"lon":5.36535,"is_reserved":false,"is_disabled":false,"rental_uris":{"android":"levelo://app?vid=182c9624-6a87-48d0-9d03-2f9261b9f622","ios":"levelo://app?vid=182c9624-6a87-48d0-9d03-2f9261b9f622"},"vehicle_type_id":"4","last_reported":1781631536,"current_range_meters":7200,"station_id":"ce4bgm92rcd13ifvqbr0","pricing_plan_id":"cebpf4jnsgd1na2vs0mg"},{"bike_id":"7800bf2f-864a-49e7-88b2-57b5f7e67949","system_id":"levelo_inurba_marseille","lat":43.2885,"lon":5.35846,"is_reserved":false,"is_disabled":false,"rental_uris":{"android":"levelo://app?vid=7800bf2f-864a-49e7-88b2-57b5f7e67949","ios":"levelo://app?vid=7800bf2f-864a-49e7-88b2-57b5f7e67949"},"vehicle_type_id":"4","last_reported":1781631536,"current_range_meters":7200,"station_id":"ce4bhb12rcd13ifvqem0","pricing_plan_id":"cebpf4jnsgd1na2vs0mg"},{"bike_id":"af95dff3-e0be-4f26-9360-bc5fa5ee838c","system_id":"levelo_inurba_marseille","lat":43.3215,"lon":5.36746,"is_reserved":false,"is_disabled":false,"rental_uris":{"android":"levelo://app?vid=af95dff3-e0be-4f26-9360-bc5fa5ee838c","ios":"levelo://app?vid=af95dff3-e0be-4f26-9360-bc5fa5ee838c"},"vehicle_type_id":"4","last_reported":1781631536,"current_range_meters":7200,"station_id":"","pricing_plan_id":"cebpf4jnsgd1na2vs0mg"},{"bike_id":"76ecdf96-44a8-42b8-9201-cbe7671d3ddc","system_id":"levelo_inurba_marseille","lat":43.28493,"lon":5.48401,"is_reserved":false,"is_disabled":false,"rental_uris":{"android":"levelo://app?vid=76ecdf96-44a8-42b8-9201-cbe7671d3ddc","ios":"levelo://app?vid=76ecdf96-44a8-42b8-9201-cbe7671d3ddc"},"vehicle_type_id":"4","last_reported":1781631536,"current_range_meters":7200,"station_id":"st_d3svhcjqgbts73a3dn0g","pricing_plan_id":"cebpf4jnsgd1na2vs0mg"},{"bike_id":"dd9ab363-8322-472d-bad1-f7cbd87d6758","system_id":"levelo_inurba_marseille","lat":43.284709,"lon":5.358959,"is_reserved":false,"is_disabled":false,"rental_uris":{"android":"levelo://app?vid=dd9ab363-8322-472d-bad1-f7cbd87d6758","ios":"levelo://app?vid=dd9ab363-8322-472d-bad1-f7cbd87d6758"},"vehicle_type_id":"4","last_reported":1781631536,"current_range_meters":7200,"station_id":"ce4bhah2rcd13ifvqei0","pricing_plan_id":"cebpf4jnsgd1na2vs0mg"},{"bike_id":"6f907cc3-52ed-480f-bb77-a770fa039419","system_id":"levelo_inurba_marseille","lat":43.23967,"lon":5.3663,"is_reserved":false,"is_disabled":false,"rental_uris":{"android":"levelo://app?vid=6f907cc3-52ed-480f-bb77-a770fa039419","ios":"levelo://app?vid=6f907cc3-52ed-480f-bb77-a770fa039419"},"vehicle_type_id":"4","last_reported":1781631536,"current_range_meters":7200,"station_id":"ce4bhi12rcd13ifvqfp0","pricing_plan_id":"cebpf4jnsgd1na2vs0mg"},{"bike_id":"4ef05435-d8b5-45ff-9660-a31f4103c6e1","system_id":"levelo_inurba_marseille","lat":43.25356,"lon":5.37588,"is_reserved":false,"is_disabled":false,"rental_uris":{"android":"levelo://app?vid=4ef05435-d8b5-45ff-9660-a31f4103c6e1","ios":"levelo://app?vid=4ef05435-d8b5-45ff-9660-a31f4103c6e1"},"vehicle_type_id":"4","last_reported":1781631536,"current_range_meters":7200,"station_id":"","pricing_plan_id":"cebpf4jnsgd1na2vs0mg"},{"bike_id":"e5b16268-0ecd-4732-a6c0-aff719287d9d","system_id":"levelo_inurba_marseille","lat":43.25577,"lon":5.38239,"is_reserved":false,"is_disabled":false,"rental_uris":{"android":"levelo://app?vid=e5b16268-0ecd-4732-a6c0-aff719287d9d","ios":"levelo://app?vid=e5b16268-0ecd-4732-a6c0-aff719287d9d"},"vehicle_type_id":"4","last_reported":1781631536,"current_range_meters":7200,"station_id":"ce4bhih2rcd13ifvqfs0","pricing_plan_id":"cebpf4jnsgd1na2vs0mg"},{"bike_id":"8f23af7c-562c-4c4d-b7d1-f2416b74ad94","system_id":"levelo_inurba_marseille","lat":43.2318,"lon":5.3997,"is_reserved":false,"is_disabled":false,"rental_uris":{"android":"levelo://app?vid=8f23af7c-562c-4c4d-b7d1-f2416b74ad94","ios":"levelo://app?vid=8f23af7c-562c-4c4d-b7d1-f2416b74ad94"},"vehicle_type_id":"4","last_reported":1781631536,"current_range_meters":7200,"station_id":"ce4bhn12rcd13ifvqgqg","pricing_plan_id":"cebpf4jnsgd1na2vs0mg"},{"bike_id":"2f42fca5-6496-4296-beb9-328e85901f00","system_id":"levelo_inurba_marseille","lat":43.29704,"lon":5.36599,"is_reserved":false,"is_disabled":false,"rental_uris":{"android":"levelo://app?vid=2f42fca5-6496-4296-beb9-328e85901f00","ios":"levelo://app?vid=2f42fca5-6496-4296-beb9-328e85901f00"},"vehicle_type_id":"4","last_reported":1781631536,"current_range_meters":7200,"station_id":"ce4bgn12rcd13ifvqbt0","pricing_plan_id":"cebpf4jnsgd1na2vs0mg"},{"bike_id":"5a60e940-9b3c-4010-999f-5a3d8e47e03c","system_id":"levelo_inurba_marseille","lat":43.26525,"lon":5.37294,"is_reserved":false,"is_disabled":true,"rental_uris":{"android":"levelo://app?vid=5a60e940-9b3c-4010-999f-5a3d8e47e03c","ios":"levelo://app?vid=5a60e940-9b3c-4010-999f-5a3d8e47e03c"},"vehicle_type_id":"4","last_reported":1781631536,"current_range_meters":7200,"station_id":"ce4bhg12rcd13ifvqf70","pricing_plan_id":"cebpf4jnsgd1na2vs0mg"},{"bike_id":"7e7c8352-b0ea-43f8-a475-30823133f0dc","system_id":"levelo_inurba_marseille","lat":43.29531,"lon":5.38544,"is_reserved":false,"is_disabled":false,"rental_uris":{"android":"levelo://app?vid=7e7c8352-b0ea-43f8-a475-30823133f0dc","ios":"levelo://app?vid=7e7c8352-b0ea-43f8-a475-30823133f0dc"},"vehicle_type_id":"4","last_reported":1781631536,"current_range_meters":7200,"station_id":"","pricing_plan_id":"cebpf4jnsgd1na2vs0mg"},{"bike_id":"2f230f91-d619-4758-919d-5c282a0ffb0b","system_id":"levelo_inurba_marseille","lat":43.30944,"lon":5.39022,"is_reserved":false,"is_disabled":false,"rental_uris":{"android":"levelo://app?vid=2f230f91-d619-4758-919d-5c282a0ffb0b","ios":"levelo://app?vid=2f230f91-d619-4758-919d-5c282a0ffb0b"},"vehicle_type_id":"4","last_reported":1781631536,"current_range_meters":7200,"station_id":"ce4bgup2rcd13ifvqco0","pricing_plan_id":"cebpf4jnsgd1na2vs0mg"},{"bike_id":"c1401868-b0f3-426c-a20b-3bce52b1d241","system_id":"levelo_inurba_marseille","lat":43.2694,"lon":5.4026,"is_reserved":false,"is_disabled":false,"rental_uris":{"android":"levelo://app?vid=c1401868-b0f3-426c-a20b-3bce52b1d241","ios":"levelo://app?vid=c1401868-b0f3-426c-a20b-3bce52b1d241"},"vehicle_type_id":"4","last_reported":1781631536,"current_range_meters":7200,"station_id":"cjm6bp8fraef2m0cb0m0","pricing_plan_id":"cebpf4jnsgd1na2vs0mg"},{"bike_id":"3c0079d2-1a74-4147-bfc7-219415132d43","system_id":"levelo_inurba_marseille","lat":43.27959,"lon":5.41028,"is_reserved":false,"is_disabled":false,"rental_uris":{"android":"levelo://app?vid=3c0079d2-1a74-4147-bfc7-219415132d43","ios":"levelo://app?vid=3c0079d2-1a74-4147-bfc7-219415132d43"},"vehicle_type_id":"4","last_reported":1781631536,"current_range_meters":7200,"station_id":"ce4bhnp2rcd13ifvqh0g","pricing_plan_id":"cebpf4jnsgd1na2vs0mg"},{"bike_id":"da849ccb-b8f5-4419-9225-06e276ec0c0b","system_id":"levelo_inurba_marseille","lat":43.28827,"lon":5.39322,"is_reserved":false,"is_disabled":true,"rental_uris":{"android":"levelo://app?vid=da849ccb-b8f5-4419-9225-06e276ec0c0b","ios":"levelo://app?vid=da849ccb-b8f5-4419-9225-06e276ec0c0b"},"vehicle_type_id":"4","last_reported":1781631536,"current_range_meters":7200,"station_id":"ce4bh2p2rcd13ifvqdi0","pricing_plan_id":"cebpf4jnsgd1na2vs0mg"},{"bike_id":"827c0b49-7a8d-4583-9d7a-708d84f7ae54","system_id":"levelo_inurba_marseille","lat":43.26947,"lon":5.38632,"is_reserved":false,"is_disabled":true,"rental_uris":{"android":"levelo://app?vid=827c0b49-7a8d-4583-9d7a-708d84f7ae54","ios":"levelo://app?vid=827c0b49-7a8d-4583-9d7a-708d84f7ae54"},"vehicle_type_id":"4","last_reported":1781631536,"current_range_meters":7200,"station_id":"ce4bhh92rcd13ifvqfh0","pricing_plan_id":"cebpf4jnsgd1na2vs0mg"},{"bike_id":"98b20a50-dbef-4a08-8788-50b096304096","system_id":"levelo_inurba_marseille","lat":43.26563,"lon":5.37278,"is_reserved":false,"is_disabled":false,"rental_uris":{"android":"levelo://app?vid=98b20a50-dbef-4a08-8788-50b096304096","ios":"levelo://app?vid=98b20a50-dbef-4a08-8788-50b096304096"},"vehicle_type_id":"4","last_reported":1781631536,"current_range_meters":7200,"station_id":"ce4bhg12rcd13ifvqf70","pricing_plan_id":"cebpf4jnsgd1na2vs0mg"},{"bike_id":"3ba71d4b-23b5-4ebf-8319-e0dbe9e18804","system_id":"levelo_inurba_marseille","lat":43.298891,"lon":5.389088,"is_reserved":false,"is_disabled":false,"rental_uris":{"android":"levelo://app?vid=3ba71d4b-23b5-4ebf-8319-e0dbe9e18804","ios":"levelo://app?vid=3ba71d4b-23b5-4ebf-8319-e0dbe9e18804"},"vehicle_type_id":"4","last_reported":1781631536,"current_range_meters":7200,"station_id":"ce4bh392rcd13ifvqdl0","pricing_plan_id":"cebpf4jnsgd1na2vs0mg"},{"bike_id":"02d4d65d-83cc-4f4c-aec0-e009bacada0c","system_id":"levelo_inurba_marseille","lat":43.26561,"lon":5.38987,"is_reserved":false,"is_disabled":false,"rental_uris":{"android":"levelo://app?vid=02d4d65d-83cc-4f4c-aec0-e009bacada0c","ios":"levelo://app?vid=02d4d65d-83cc-4f4c-aec0-e009bacada0c"},"vehicle_type_id":"4","last_reported":1781631536,"current_range_meters":7200,"station_id":"ce4bhe12rcd13ifvqf30","pricing_plan_id":"cebpf4jnsgd1na2vs0mg"},{"bike_id":"280d9c52-69d7-413c-9183-bc7c4f185976","system_id":"levelo_inurba_marseille","lat":43.29527,"lon":5.38538,"is_reserved":false,"is_disabled":false,"rental_uris":{"android":"levelo://app?vid=280d9c52-69d7-413c-9183-bc7c4f185976","ios":"levelo://app?vid=280d9c52-69d7-413c-9183-bc7c4f185976"},"vehicle_type_id":"4","last_reported":1781631536,"current_range_meters":7200,"station_id":"ce4bgih2rcd13ifvqba0","pricing_plan_id":"cebpf4jnsgd1na2vs0mg"},{"bike_id":"64c3c67b-aadf-4899-b030-86b29cc41720","system_id":"levelo_inurba_marseille","lat":43.29038,"lon":5.39955,"is_reserved":false,"is_disabled":false,"rental_uris":{"android":"levelo://app?vid=64c3c67b-aadf-4899-b030-86b29cc41720","ios":"levelo://app?vid=64c3c67b-aadf-4899-b030-86b29cc41720"},"vehicle_type_id":"4","last_reported":1781631536,"current_range_meters":7200,"station_id":"ce4bh392rcd13ifvqdm0","pricing_plan_id":"cebpf4jnsgd1na2vs0mg"},{"bike_id":"c2fe6d98-117b-44b8-8330-e8cd46cb6bab","system_id":"levelo_inurba_marseille","lat":43.24397,"lon":5.37047,"is_reserved":false,"is_disabled":false,"rental_uris":{"android":"levelo://app?vid=c2fe6d98-117b-44b8-8330-e8cd46cb6bab","ios":"levelo://app?vid=c2fe6d98-117b-44b8-8330-e8cd46cb6bab"},"vehicle_type_id":"4","last_reported":1781631536,"current_range_meters":7200,"station_id":"ce4bhhh2rcd13ifvqfk0","pricing_plan_id":"cebpf4jnsgd1na2vs0mg"},{"bike_id":"6201a4e6-f3a5-4349-a793-bb5175c57b01","system_id":"levelo_inurba_marseille","lat":43.29867,"lon":5.39727,"is_reserved":false,"is_disabled":false,"rental_uris":{"android":"levelo://app?vid=6201a4e6-f3a5-4349-a793-bb5175c57b01","ios":"levelo://app?vid=6201a4e6-f3a5-4349-a793-bb5175c57b01"},"vehicle_type_id":"4","last_reported":1781631536,"current_range_meters":7200,"station_id":"ce4bh0h2rcd13ifvqd50","pricing_plan_id":"cebpf4jnsgd1na2vs0mg"},{"bike_id":"430c7680-fbd2-4bae-9f01-4bb66758d091","system_id":"levelo_inurba_marseille","lat":43.29041,"lon":5.3811,"is_reserved":false,"is_disabled":false,"rental_uris":{"android":"levelo://app?vid=430c7680-fbd2-4bae-9f01-4bb66758d091","ios":"levelo://app?vid=430c7680-fbd2-4bae-9f01-4bb66758d091"},"vehicle_type_id":"4","last_reported":1781631536,"current_range_meters":7200,"station_id":"ce4bh4p2rcd13ifvqe1g","pricing_plan_id":"cebpf4jnsgd1na2vs0mg"},{"bike_id":"49887413-7567-4e89-b123-9c8b58e26e94","system_id":"levelo_inurba_marseille","lat":43.2254,"lon":5.34831,"is_reserved":false,"is_disabled":false,"rental_uris":{"android":"levelo://app?vid=49887413-7567-4e89-b123-9c8b58e26e94","ios":"levelo://app?vid=49887413-7567-4e89-b123-9c8b58e26e94"},"vehicle_type_id":"4","last_reported":1781631536,"current_range_meters":7200,"station_id":"st_cvj5dfep6f1abm77gieg","pricing_plan_id":"cebpf4jnsgd1na2vs0mg"},{"bike_id":"39cb4885-9335-41fd-9b10-b71e0722b1f0","system_id":"levelo_inurba_marseille","lat":43.249728,"lon":5.389599,"is_reserved":false,"is_disabled":false,"rental_uris":{"android":"levelo://app?vid=39cb4885-9335-41fd-9b10-b71e0722b1f0","ios":"levelo://app?vid=39cb4885-9335-41fd-9b10-b71e0722b1f0"},"vehicle_type_id":"4","last_reported":1781631536,"current_range_meters":7200,"station_id":"ce4bhgp2rcd13ifvqfd0","pricing_plan_id":"cebpf4jnsgd1na2vs0mg"},{"bike_id":"b220c077-18c2-424b-88c3-f3990c538b2b","system_id":"levelo_inurba_marseille","lat":43.32305,"lon":5.38685,"is_reserved":false,"is_disabled":false,"rental_uris":{"android":"levelo://app?vid=b220c077-18c2-424b-88c3-f3990c538b2b","ios":"levelo://app?vid=b220c077-18c2-424b-88c3-f3990c538b2b"},"vehicle_type_id":"4","last_reported":1781631536,"current_range_meters":7200,"station_id":"","pricing_plan_id":"cebpf4jnsgd1na2vs0mg"},{"bike_id":"ad2f9e6e-972c-4c59-953c-7cef08d46bf5","system_id":"levelo_inurba_marseille","lat":43.29199,"lon":5.3581,"is_reserved":false,"is_disabled":false,"rental_uris":{"android":"levelo://app?vid=ad2f9e6e-972c-4c59-953c-7cef08d46bf5","ios":"levelo://app?vid=ad2f9e6e-972c-4c59-953c-7cef08d46bf5"},"vehicle_type_id":"4","last_reported":1781631536,"current_range_meters":7200,"station_id":"ce4bhb12rcd13ifvqel0","pricing_plan_id":"cebpf4jnsgd1na2vs0mg"},{"bike_id":"787ca9b9-4c61-41f0-961c-fc0eb80b00d0","system_id":"levelo_inurba_marseille","lat":43.29889,"lon":5.39758,"is_reserved":false,"is_disabled":false,"rental_uris":{"android":"levelo://app?vid=787ca9b9-4c61-41f0-961c-fc0eb80b00d0","ios":"levelo://app?vid=787ca9b9-4c61-41f0-961c-fc0eb80b00d0"},"vehicle_type_id":"4","last_reported":1781631536,"current_range_meters":8000,"station_id":"ce4bh0h2rcd13ifvqd50","pricing_plan_id":"cebpf4jnsgd1na2vs0mg"},{"bike_id":"3e2263c1-9719-4e79-a801-ab771071aadb","system_id":"levelo_inurba_marseille","lat":43.26937,"lon":5.40292,"is_reserved":false,"is_disabled":false,"rental_uris":{"android":"levelo://app?vid=3e2263c1-9719-4e79-a801-ab771071aadb","ios":"levelo://app?vid=3e2263c1-9719-4e79-a801-ab771071aadb"},"vehicle_type_id":"4","last_reported":1781631536,"current_range_meters":8000,"station_id":"cjm6bp8fraef2m0cb0m0","pricing_plan_id":"cebpf4jnsgd1na2vs0mg"},{"bike_id":"550d974c-b99f-41bd-b2c8-0bc7d49968f9","system_id":"levelo_inurba_marseille","lat":43.21191,"lon":5.3506,"is_reserved":false,"is_disabled":false,"rental_uris":{"android":"levelo://app?vid=550d974c-b99f-41bd-b2c8-0bc7d49968f9","ios":"levelo://app?vid=550d974c-b99f-41bd-b2c8-0bc7d49968f9"},"vehicle_type_id":"4","last_reported":1781631536,"current_range_meters":8000,"station_id":"st_cvj6sg6p6f1abm77japg","pricing_plan_id":"cebpf4jnsgd1na2vs0mg"},{"bike_id":"69ae5e42-2361-4160-86d7-bdf7a01700ee","system_id":"levelo_inurba_marseille","lat":43.27087,"lon":5.38319,"is_reserved":false,"is_disabled":false,"rental_uris":{"android":"levelo://app?vid=69ae5e42-2361-4160-86d7-bdf7a01700ee","ios":"levelo://app?vid=69ae5e42-2361-4160-86d7-bdf7a01700ee"},"vehicle_type_id":"4","last_reported":1781631536,"current_range_meters":8000,"station_id":"st_d3n2fo6cfp8s73cte1j0","pricing_plan_id":"cebpf4jnsgd1na2vs0mg"},{"bike_id":"66387572-1afe-4726-a112-370266d3862e","system_id":"levelo_inurba_marseille","lat":43.29122,"lon":5.38268,"is_reserved":false,"is_disabled":false,"rental_uris":{"android":"levelo://app?vid=66387572-1afe-4726-a112-370266d3862e","ios":"levelo://app?vid=66387572-1afe-4726-a112-370266d3862e"},"vehicle_type_id":"4","last_reported":1781631536,"current_range_meters":8000,"station_id":"","pricing_plan_id":"cebpf4jnsgd1na2vs0mg"},{"bike_id":"70e6b718-e448-4b6a-9787-1e09985e4b61","system_id":"levelo_inurba_marseille","lat":43.32496,"lon":5.38277,"is_reserved":false,"is_disabled":false,"rental_uris":{"android":"levelo://app?vid=70e6b718-e448-4b6a-9787-1e09985e4b61","ios":"levelo://app?vid=70e6b718-e448-4b6a-9787-1e09985e4b61"},"vehicle_type_id":"4","last_reported":1781631536,"current_range_meters":8000,"station_id":"st_d4asgbiv49dc73anf9m0","pricing_plan_id":"cebpf4jnsgd1na2vs0mg"},{"bike_id":"6ebd801c-2261-4e77-9845-38417778256c","system_id":"levelo_inurba_marseille","lat":43.29306,"lon":5.40111,"is_reserved":false,"is_disabled":true,"rental_uris":{"android":"levelo://app?vid=6ebd801c-2261-4e77-9845-38417778256c","ios":"levelo://app?vid=6ebd801c-2261-4e77-9845-38417778256c"},"vehicle_type_id":"4","last_reported":1781631536,"current_range_meters":8000,"station_id":"ce4bh312rcd13ifvqdk0","pricing_plan_id":"cebpf4jnsgd1na2vs0mg"},{"bike_id":"77587392-bc21-43fa-afea-947a1491fbd8","system_id":"levelo_inurba_marseille","lat":43.28488,"lon":5.4839,"is_reserved":false,"is_disabled":false,"rental_uris":{"android":"levelo://app?vid=77587392-bc21-43fa-afea-947a1491fbd8","ios":"levelo://app?vid=77587392-bc21-43fa-afea-947a1491fbd8"},"vehicle_type_id":"4","last_reported":1781631536,"current_range_meters":8000,"station_id":"st_d3svhcjqgbts73a3dn0g","pricing_plan_id":"cebpf4jnsgd1na2vs0mg"},{"bike_id":"dfada27a-f315-4ae4-a446-4bc523121f58","system_id":"levelo_inurba_marseille","lat":43.2439,"lon":5.37046,"is_reserved":false,"is_disabled":false,"rental_uris":{"android":"levelo://app?vid=dfada27a-f315-4ae4-a446-4bc523121f58","ios":"levelo://app?vid=dfada27a-f315-4ae4-a446-4bc523121f58"},"vehicle_type_id":"4","last_reported":1781631536,"current_range_meters":8000,"station_id":"ce4bhhh2rcd13ifvqfk0","pricing_plan_id":"cebpf4jnsgd1na2vs0mg"},{"bike_id":"de7d970a-74df-45af-9a5e-3e91a7d54751","system_id":"levelo_inurba_marseille","lat":43.29041,"lon":5.37563,"is_reserved":false,"is_disabled":false,"rental_uris":{"android":"levelo://app?vid=de7d970a-74df-45af-9a5e-3e91a7d54751","ios":"levelo://app?vid=de7d970a-74df-45af-9a5e-3e91a7d54751"},"vehicle_type_id":"4","last_reported":1781631536,"current_range_meters":8000,"station_id":"ce4bh692rcd13ifvqe90","pricing_plan_id":"cebpf4jnsgd1na2vs0mg"},{"bike_id":"59966b65-efda-49ab-ba05-8c3ec36f0dab","system_id":"levelo_inurba_marseille","lat":43.30242,"lon":5.38115,"is_reserved":false,"is_disabled":false,"rental_uris":{"android":"levelo://app?vid=59966b65-efda-49ab-ba05-8c3ec36f0dab","ios":"levelo://app?vid=59966b65-efda-49ab-ba05-8c3ec36f0dab"},"vehicle_type_id":"4","last_reported":1781631536,"current_range_meters":8000,"station_id":"","pricing_plan_id":"cebpf4jnsgd1na2vs0mg"},{"bike_id":"4c710516-95d9-4620-aedd-290bc954654f","system_id":"levelo_inurba_marseille","lat":43.28699,"lon":5.3738,"is_reserved":false,"is_disabled":false,"rental_uris":{"android":"levelo://app?vid=4c710516-95d9-4620-aedd-290bc954654f","ios":"levelo://app?vid=4c710516-95d9-4620-aedd-290bc954654f"},"vehicle_type_id":"4","last_reported":1781631536,"current_range_meters":8000,"station_id":"ce4bh3p2rcd13ifvqdq0","pricing_plan_id":"cebpf4jnsgd1na2vs0mg"},{"bike_id":"123df314-67f9-4ea5-80c3-39665547c5f9","system_id":"levelo_inurba_marseille","lat":43.24039,"lon":5.38461,"is_reserved":false,"is_disabled":false,"rental_uris":{"android":"levelo://app?vid=123df314-67f9-4ea5-80c3-39665547c5f9","ios":"levelo://app?vid=123df314-67f9-4ea5-80c3-39665547c5f9"},"vehicle_type_id":"4","last_reported":1781631536,"current_range_meters":8000,"station_id":"","pricing_plan_id":"cebpf4jnsgd1na2vs0mg"},{"bike_id":"ee790b81-b0e4-4881-be8d-c76692c6f43e","system_id":"levelo_inurba_marseille","lat":43.30734,"lon":5.40535,"is_reserved":false,"is_disabled":false,"rental_uris":{"android":"levelo://app?vid=ee790b81-b0e4-4881-be8d-c76692c6f43e","ios":"levelo://app?vid=ee790b81-b0e4-4881-be8d-c76692c6f43e"},"vehicle_type_id":"4","last_reported":1781631536,"current_range_meters":8000,"station_id":"","pricing_plan_id":"cebpf4jnsgd1na2vs0mg"},{"bike_id":"cec66b6a-8415-46c3-b025-adf45db5c689","system_id":"levelo_inurba_marseille","lat":43.23959,"lon":5.36635,"is_reserved":false,"is_disabled":false,"rental_uris":{"android":"levelo://app?vid=cec66b6a-8415-46c3-b025-adf45db5c689","ios":"levelo://app?vid=cec66b6a-8415-46c3-b025-adf45db5c689"},"vehicle_type_id":"4","last_reported":1781631536,"current_range_meters":8000,"station_id":"ce4bhi12rcd13ifvqfp0","pricing_plan_id":"cebpf4jnsgd1na2vs0mg"},