{"last_updated":1721336854,"ttl":30,"version":"2.2","data":{"bikes":[{"bike_id":"d1d81e54-fed9-443c-944a-6820c8a62e66","system_id":"levelo_inurba_marseille","lat":43.31251,"lon":5.36793,"is_reserved":false,"is_disabled":false,"rental_uris":{"android":"levelo://app?vid=d1d81e54-fed9-443c-944a-6820c8a62e66","ios":"levelo://app?vid=d1d81e54-fed9-443c-944a-6820c8a62e66"},"vehicle_type_id":"4","last_reported":1721336854,"current_range_meters":7200,"station_id":"","pricing_plan_id":"cebpf4jnsgd1na2vs0mg"},{"bike_id":"f846c53e-08af-4eac-8ad0-d75cf2643e6a","system_id":"levelo_inurba_marseille","lat":43.313391,"lon":5.36706,"is_reserved":false,"is_disabled":false,"rental_uris":{"android":"levelo://app?vid=f846c53e-08af-4eac-8ad0-d75cf2643e6a","ios":"levelo://app?vid=f846c53e-08af-4eac-8ad0-d75cf2643e6a"},"vehicle_type_id":"4","last_reported":1721336854,"current_range_meters":27200,"station_id":"ce4bgr92rcd13ifvqc6g","pricing_plan_id":"cebpf4jnsgd1na2vs0mg"},{"bike_id":"b75d0e8d-e70a-4d3e-a5a6-12b4db1ce52f","system_id":"levelo_inurba_marseille","lat":43.312239,"lon":5.368562,"is_reserved":false,"is_disabled":false,"rental_uris":{"android":"levelo://app?vid=b75d0e8d-e70a-4d3e-a5a6-12b4db1ce52f","ios":"levelo://app?vid=b75d0e8d-e70a-4d3e-a5a6-12b4db1ce52f"},"vehicle_type_id":"4","last_reported":1721336854,"current_range_meters":8800,"station_id":"ce4bgl92rcd13ifvqbq0","pricing_plan_id":"cebpf4jnsgd1na2vs0mg"},{"bike_id":"a7e49b55-ecc0-4878-928a-ef0523020713","system_id":"levelo_inurba_marseille","lat":43.31251,"lon":5.36879,"is_reserved":false,"is_disabled":false,"rental_uris":{"android":"levelo://app?vid=a7e49b55-ecc0-4878-928a-ef0523020713","ios":"levelo://app?vid=a7e49b55-ecc0-4878-928a-ef0523020713"},"vehicle_type_id":"4","last_reported":1721336854,"current_range_meters":30400,"station_id":"ce4bgl92rcd13ifvqbq0","pricing_plan_id":"cebpf4jnsgd1na2vs0mg"},{"bike_id":"6817b913-c213-4abc-8f8f-0a47d126645e","system_id":"levelo_inurba_marseille","lat":43.309076,"lon":5.368465,"is_reserved":false,"is_disabled":false,"rental_uris":{"android":"levelo://app?vid=6817b913-c213-4abc-8f8f-0a47d126645e","ios":"levelo://app?vid=6817b913-c213-4abc-8f8f-0a47d126645e"},"vehicle_type_id":"4","last_reported":1721336854,"current_range_meters":800,"station_id":"ce4bgn92rcd13ifvqbvg","pricing_plan_id":"cebpf4jnsgd1na2vs0mg"},{"bike_id":"23937873-a315-4b79-b74c-50d089110ff5","system_id":"levelo_inurba_marseille","lat":43.309076,"lon":5.368465,"is_reserved":false,"is_disabled":false,"rental_uris":{"android":"levelo://app?vid=23937873-a315-4b79-b74c-50d089110ff5","ios":"levelo://app?vid=23937873-a315-4b79-b74c-50d089110ff5"},"vehicle_type_id":"4","last_reported":1721336854,"current_range_meters":12000,"station_id":"ce4bgn92rcd13ifvqbvg","pricing_plan_id":"cebpf4jnsgd1na2vs0mg"},{"bike_id":"932145f7-b7f2-4edd-8b20-04cebfeeccfd","system_id":"levelo_inurba_marseille","lat":43.314811,"lon":5.373103,"is_reserved":false,"is_disabled":false,"rental_uris":{"android":"levelo://app?vid=932145f7-b7f2-4edd-8b20-04cebfeeccfd","ios":"levelo://app?vid=932145f7-b7f2-4edd-8b20-04cebfeeccfd"},"vehicle_type_id":"4","last_reported":1721336854,"current_range_meters":30800,"station_id":"ce4bgt12rcd13ifvqcd0","pricing_plan_id":"cebpf4jnsgd1na2vs0mg"},{"bike_id":"594fadbb-a981-40cd-bda7-ad2b731b8482","system_id":"levelo_inurba_marseille","lat":43.31484,"lon":5.37312,"is_reserved":false,"is_disabled":false,"rental_uris":{"android":"levelo://app?vid=594fadbb-a981-40cd-bda7-ad2b731b8482","ios":"levelo://app?vid=594fadbb-a981-40cd-bda7-ad2b731b8482"},"vehicle_type_id":"4","last_reported":1721336854,"current_range_meters":15600,"station_id":"","pricing_plan_id":"cebpf4jnsgd1na2vs0mg"},{"bike_id":"0df9603d-36b8-40c6-b47c-582b9b612694","system_id":"levelo_inurba_marseille","lat":43.309076,"lon":5.368465,"is_reserved":false,"is_disabled":false,"rental_uris":{"android":"levelo://app?vid=0df9603d-36b8-40c6-b47c-582b9b612694","ios":"levelo://app?vid=0df9603d-36b8-40c6-b47c-582b9b612694"},"vehicle_type_id":"4","last_reported":1721336854,"current_range_meters":12000,"station_id":"ce4bgn92rcd13ifvqbvg","pricing_plan_id":"cebpf4jnsgd1na2vs0mg"},{"bike_id":"7df8dd4a-c865-4f29-b768-21740d0daaaa","system_id":"levelo_inurba_marseille","lat":43.31441,"lon":5.373927,"is_reserved":false,"is_disabled":false,"rental_uris":{"android":"levelo://app?vid=7df8dd4a-c865-4f29-b768-21740d0daaaa","ios":"levelo://app?vid=7df8dd4a-c865-4f29-b768-21740d0daaaa"},"vehicle_type_id":"4","last_reported":1721336854,"current_range_meters":27200,"station_id":"","pricing_plan_id":"cebpf4jnsgd1na2vs0mg"},{"bike_id":"4f843a89-c095-43ad-810f-70f65d0849d5","system_id":"levelo_inurba_marseille","lat":43.31848,"lon":5.36264,"is_reserved":false,"is_disabled":false,"rental_uris":{"android":"levelo://app?vid=4f843a89-c095-43ad-810f-70f65d0849d5","ios":"levelo://app?vid=4f843a89-c095-43ad-810f-70f65d0849d5"},"vehicle_type_id":"4","last_reported":1721336854,"current_range_meters":15600,"station_id":"","pricing_plan_id":"cebpf4jnsgd1na2vs0mg"},{"bike_id":"486b143b-aa38-4b69-9f4f-9f2fa1f59879","system_id":"levelo_inurba_marseille","lat":43.30545,"lon":5.36531,"is_reserved":false,"is_disabled":false,"rental_uris":{"android":"levelo://app?vid=486b143b-aa38-4b69-9f4f-9f2fa1f59879","ios":"levelo://app?vid=486b143b-aa38-4b69-9f4f-9f2fa1f59879"},"vehicle_type_id":"4","last_reported":1721336854,"current_range_meters":0,"station_id":"ce4bgs12rcd13ifvqcag","pricing_plan_id":"cebpf4jnsgd1na2vs0mg"},{"bike_id":"8eb29642-16ec-4e92-bf17-725d510ddba0","system_id":"levelo_inurba_marseille","lat":43.30534,"lon":5.36717,"is_reserved":false,"is_disabled":false,"rental_uris":{"android":"levelo://app?vid=8eb29642-16ec-4e92-bf17-725d510ddba0","ios":"levelo://app?vid=8eb29642-16ec-4e92-bf17-725d510ddba0"},"vehicle_type_id":"4","last_reported":1721336854,"current_range_meters":0,"station_id":"ce4bgrp2rcd13ifvqc9g","pricing_plan_id":"cebpf4jnsgd1na2vs0mg"},{"bike_id":"70465c97-b6ce-4cce-97b8-8a7b5d6bd44e","system_id":"levelo_inurba_marseille","lat":43.3053,"lon":5.36652,"is_reserved":false,"is_disabled":false,"rental_uris":{"android":"levelo://app?vid=70465c97-b6ce-4cce-97b8-8a7b5d6bd44e","ios":"levelo://app?vid=70465c97-b6ce-4cce-97b8-8a7b5d6bd44e"},"vehicle_type_id":"4","last_reported":1721336854,"current_range_meters":4400,"station_id":"","pricing_plan_id":"cebpf4jnsgd1na2vs0mg"},{"bike_id":"4eafd36e-0bcf-4841-a757-e966c60da0a8","system_id":"levelo_inurba_marseille","lat":43.305989,"lon":5.37225,"is_reserved":false,"is_disabled":false,"rental_uris":{"android":"levelo://app?vid=4eafd36e-0bcf-4841-a757-e966c60da0a8","ios":"levelo://app?vid=4eafd36e-0bcf-4841-a757-e966c60da0a8"},"vehicle_type_id":"4","last_reported":1721336854,"current_range_meters":13600,"station_id":"ce4bgqh2rcd13ifvqc4g","pricing_plan_id":"cebpf4jnsgd1na2vs0mg"},{"bike_id":"58c7ffb0-caa1-4f83-bcf7-2d5f7f728e6d","system_id":"levelo_inurba_marseille","lat":43.311131,"lon":5.377651,"is_reserved":false,"is_disabled":false,"rental_uris":{"android":"levelo://app?vid=58c7ffb0-caa1-4f83-bcf7-2d5f7f728e6d","ios":"levelo://app?vid=58c7ffb0-caa1-4f83-bcf7-2d5f7f728e6d"},"vehicle_type_id":"4","last_reported":1721336854,"current_range_meters":31200,"station_id":"ce4bgt92rcd13ifvqcg0","pricing_plan_id":"cebpf4jnsgd1na2vs0mg"},{"bike_id":"370f2a2f-714c-4d0f-9f6b-0711d9a92908","system_id":"levelo_inurba_marseille","lat":43.311122,"lon":5.377733,"is_reserved":false,"is_disabled":false,"rental_uris":{"android":"levelo://app?vid=370f2a2f-714c-4d0f-9f6b-0711d9a92908","ios":"levelo://app?vid=370f2a2f-714c-4d0f-9f6b-0711d9a92908"},"vehicle_type_id":"4","last_reported":1721336854,"current_range_meters":30000,"station_id":"ce4bgt92rcd13ifvqcg0","pricing_plan_id":"cebpf4jnsgd1na2vs0mg"},{"bike_id":"1d0390da-1406-467a-9e3e-723094bef3d0","system_id":"levelo_inurba_marseille","lat":43.307945,"lon":5.376487,"is_reserved":false,"is_disabled":false,"rental_uris":{"android":"levelo://app?vid=1d0390da-1406-467a-9e3e-723094bef3d0","ios":"levelo://app?vid=1d0390da-1406-467a-9e3e-723094bef3d0"},"vehicle_type_id":"4","last_reported":1721336854,"current_range_meters":15200,"station_id":"ce4bgv92rcd13ifvqcq0","pricing_plan_id":"cebpf4jnsgd1na2vs0mg"},{"bike_id":"271895f5-3a88-4a69-b732-ce1e3dab41da","system_id":"levelo_inurba_marseille","lat":43.307945,"lon":5.376487,"is_reserved":false,"is_disabled":false,"rental_uris":{"android":"levelo://app?vid=271895f5-3a88-4a69-b732-ce1e3dab41da","ios":"levelo://app?vid=271895f5-3a88-4a69-b732-ce1e3dab41da"},"vehicle_type_id":"4","last_reported":1721336854,"current_range_meters":20800,"station_id":"ce4bgv92rcd13ifvqcq0","pricing_plan_id":"cebpf4jnsgd1na2vs0mg"},{"bike_id":"3964a051-6683-4c7e-b465-17b1c00f2f49","system_id":"levelo_inurba_marseille","lat":43.307945,"lon":5.376487,"is_reserved":false,"is_disabled":false,"rental_uris":{"android":"levelo://app?vid=3964a051-6683-4c7e-b465-17b1c00f2f49","ios":"levelo://app?vid=3964a051-6683-4c7e-b465-17b1c00f2f49"},"vehicle_type_id":"4","last_reported":1721336854,"current_range_meters":11600,"station_id":"ce4bgv92rcd13ifvqcq0","pricing_plan_id":"cebpf4jnsgd1na2vs0mg"},{"bike_id":"e64b15d5-b7de-4a5f-bc2f-37cdb88263f1","system_id":"levelo_inurba_marseille","lat":43.307945,"lon":5.376487,"is_reserved":false,"is_disabled":false,"rental_uris":{"android":"levelo://app?vid=e64b15d5-b7de-4a5f-bc2f-37cdb88263f1","ios":"levelo://app?vid=e64b15d5-b7de-4a5f-bc2f-37cdb88263f1"},"vehicle_type_id":"4","last_reported":1721336854,"current_range_meters":21200,"station_id":"ce4bgv92rcd13ifvqcq0","pricing_plan_id":"cebpf4jnsgd1na2vs0mg"},{"bike_id":"bc070511-06da-48b5-9a50-d865b2c34d95","system_id":"levelo_inurba_marseille","lat":43.315289,"lon":5.380349,"is_reserved":false,"is_disabled":false,"rental_uris":{"android":"levelo://app?vid=bc070511-06da-48b5-9a50-d865b2c34d95","ios":"levelo://app?vid=bc070511-06da-48b5-9a50-d865b2c34d95"},"vehicle_type_id":"4","last_reported":1721336854,"current_range_meters":18800,"station_id":"ce4bhsp2rcd13ifvqi50","pricing_plan_id":"cebpf4jnsgd1na2vs0mg"},{"bike_id":"9b286496-c931-4402-981e-37587fc9d705","system_id":"levelo_inurba_marseille","lat":43.301939,"lon":5.366286,"is_reserved":false,"is_disabled":false,"rental_uris":{"android":"levelo://app?vid=9b286496-c931-4402-981e-37587fc9d705","ios":"levelo://app?vid=9b286496-c931-4402-981e-37587fc9d705"},"vehicle_type_id":"4","last_reported":1721336854,"current_range_meters":21600,"station_id":"ce4bgrh2rcd13ifvqc8g","pricing_plan_id":"cebpf4jnsgd1na2vs0mg"},{"bike_id":"18d4333d-f2fd-4481-9d5f-bcc3b478e245","system_id":"levelo_inurba_marseille","lat":43.301939,"lon":5.366286,"is_reserved":false,"is_disabled":false,"rental_uris":{"android":"levelo://app?vid=18d4333d-f2fd-4481-9d5f-bcc3b478e245","ios":"levelo://app?vid=18d4333d-f2fd-4481-9d5f-bcc3b478e245"},"vehicle_type_id":"4","last_reported":1721336854,"current_range_meters":16800,"station_id":"ce4bgrh2rcd13ifvqc8g","pricing_plan_id":"cebpf4jnsgd1na2vs0mg"},{"bike_id":"46a34c3d-459a-4f6e-a3a3-dad8998b83c3","system_id":"levelo_inurba_marseille","lat":43.301939,"lon":5.366286,"is_reserved":false,"is_disabled":false,"rental_uris":{"android":"levelo://app?vid=46a34c3d-459a-4f6e-a3a3-dad8998b83c3","ios":"levelo://app?vid=46a34c3d-459a-4f6e-a3a3-dad8998b83c3"},"vehicle_type_id":"4","last_reported":1721336854,"current_range_meters":800,"station_id":"ce4bgrh2rcd13ifvqc8g","pricing_plan_id":"cebpf4jnsgd1na2vs0mg"},{"bike_id":"036fca14-c92d-4e5f-be55-0369aebd0c06","system_id":"levelo_inurba_marseille","lat":43.308012,"lon":5.381511,"is_reserved":false,"is_disabled":false,"rental_uris":{"android":"levelo://app?vid=036fca14-c92d-4e5f-be55-0369aebd0c06","ios":"levelo://app?vid=036fca14-c92d-4e5f-be55-0369aebd0c06"},"vehicle_type_id":"4","last_reported":1721336854,"current_range_meters":6000,"station_id":"ce4bgt12rcd13ifvqce0","pricing_plan_id":"cebpf4jnsgd1na2vs0mg"},{"bike_id":"d474be2e-33f3-4225-bb1b-d14f688de794","system_id":"levelo_inurba_marseille","lat":43.308012,"lon":5.381511,"is_reserved":false,"is_disabled":false,"rental_uris":{"android":"levelo://app?vid=d474be2e-33f3-4225-bb1b-d14f688de794","ios":"levelo://app?vid=d474be2e-33f3-4225-bb1b-d14f688de794"},"vehicle_type_id":"4","last_reported":1721336854,"current_range_meters":4400,"station_id":"ce4bgt12rcd13ifvqce0","pricing_plan_id":"cebpf4jnsgd1na2vs0mg"},{"bike_id":"27461580-0c17-49e3-8b77-7e242e52bdf1","system_id":"levelo_inurba_marseille","lat":43.308012,"lon":5.381511,"is_reserved":false,"is_disabled":false,"rental_uris":{"android":"levelo://app?vid=27461580-0c17-49e3-8b77-7e242e52bdf1","ios":"levelo://app?vid=27461580-0c17-49e3-8b77-7e242e52bdf1"},"vehicle_type_id":"4","last_reported":1721336854,"current_range_meters":10400,"station_id":"ce4bgt12rcd13ifvqce0","pricing_plan_id":"cebpf4jnsgd1na2vs0mg"},{"bike_id":"53032b13-e265-4f71-9f35-7571f786d34a","system_id":"levelo_inurba_marseille","lat":43.30797,"lon":5.38169,"is_reserved":false,"is_disabled":false,"rental_uris":{"android":"levelo://app?vid=53032b13-e265-4f71-9f35-7571f786d34a","ios":"levelo://app?vid=53032b13-e265-4f71-9f35-7571f786d34a"},"vehicle_type_id":"4","last_reported":1721336854,"current_range_meters":15200,"station_id":"ce4bgt12rcd13ifvqce0","pricing_plan_id":"cebpf4jnsgd1na2vs0mg"},{"bike_id":"8254c128-093f-4ab7-8493-f745979d26d1","system_id":"levelo_inurba_marseille","lat":43.308012,"lon":5.381511,"is_reserved":false,"is_disabled":false,"rental_uris":{"android":"levelo://app?vid=8254c128-093f-4ab7-8493-f745979d26d1","ios":"levelo://app?vid=8254c128-093f-4ab7-8493-f745979d26d1"},"vehicle_type_id":"4","last_reported":1721336854,"current_range_meters":0,"station_id":"ce4bgt12rcd13ifvqce0","pricing_plan_id":"cebpf4jnsgd1na2vs0mg"},{"bike_id":"d2049865-496c-4ca9-bdf6-68c3cbe7fb10","system_id":"levelo_inurba_marseille","lat":43.32462,"lon":5.36583,"is_reserved":false,"is_disabled":false,"rental_uris":{"android":"levelo://app?vid=d2049865-496c-4ca9-bdf6-68c3cbe7fb10","ios":"levelo://app?vid=d2049865-496c-4ca9-bdf6-68c3cbe7fb10"},"vehicle_type_id":"4","last_reported":1721336854,"current_range_meters":31200,"station_id":"ce4bhs12rcd13ifvqhvg","pricing_plan_id":"cebpf4jnsgd1na2vs0mg"},{"bike_id":"8f962ede-c569-4563-8b57-1cf223c13657","system_id":"levelo_inurba_marseille","lat":43.324771,"lon":5.36557,"is_reserved":false,"is_disabled":false,"rental_uris":{"android":"levelo://app?vid=8f962ede-c569-4563-8b57-1cf223c13657","ios":"levelo://app?vid=8f962ede-c569-4563-8b57-1cf223c13657"},"vehicle_type_id":"4","last_reported":1721336854,"current_range_meters":18400,"station_id":"ce4bhs12rcd13ifvqhvg","pricing_plan_id":"cebpf4jnsgd1na2vs0mg"},{"bike_id":"4916e7b9-ad42-444d-bdf5-d4cbd7d19856","system_id":"levelo_inurba_marseille","lat":43.32474,"lon":5.36564,"is_reserved":false,"is_disabled":false,"rental_uris":{"android":"levelo://app?vid=4916e7b9-ad42-444d-bdf5-d4cbd7d19856","ios":"levelo://app?vid=4916e7b9-ad42-444d-bdf5-d4cbd7d19856"},"vehicle_type_id":"4","last_reported":1721336854,"current_range_meters":2800,"station_id":"ce4bhs12rcd13ifvqhvg","pricing_plan_id":"cebpf4jnsgd1na2vs0mg"},{"bike_id":"5129ef68-2e3a-4dae-a87c-926fecb8057d","system_id":"levelo_inurba_marseille","lat":43.324771,"lon":5.36557,"is_reserved":false,"is_disabled":false,"rental_uris":{"android":"levelo://app?vid=5129ef68-2e3a-4dae-a87c-926fecb8057d","ios":"levelo://app?vid=5129ef68-2e3a-4dae-a87c-926fecb8057d"},"vehicle_type_id":"4","last_reported":1721336854,"current_range_meters":25200,"station_id":"ce4bhs12rcd13ifvqhvg","pricing_plan_id":"cebpf4jnsgd1na2vs0mg"},{"bike_id":"843acb09-ec00-42a4-8f8a-3a11a4562824","system_id":"levelo_inurba_marseille","lat":43.324771,"lon":5.36557,"is_reserved":false,"is_disabled":false,"rental_uris":{"android":"levelo://app?vid=843acb09-ec00-42a4-8f8a-3a11a4562824","ios":"levelo://app?vid=843acb09-ec00-42a4-8f8a-3a11a4562824"},"vehicle_type_id":"4","last_reported":1721336854,"current_range_meters":18800,"station_id":"ce4bhs12rcd13ifvqhvg","pricing_plan_id":"cebpf4jnsgd1na2vs0mg"},{"bike_id":"0d7a37ce-b0f3-4121-b10b-b171f38a5a1a","system_id":"levelo_inurba_marseille","lat":43.324771,"lon":5.36557,"is_reserved":false,"is_disabled":false,"rental_uris":{"android":"levelo://app?vid=0d7a37ce-b0f3-4121-b10b-b171f38a5a1a","ios":"levelo://app?vid=0d7a37ce-b0f3-4121-b10b-b171f38a5a1a"},"vehicle_type_id":"4","last_reported":1721336854,"current_range_meters":7600,"station_id":"ce4bhs12rcd13ifvqhvg","pricing_plan_id":"cebpf4jnsgd1na2vs0mg"},{"bike_id":"9d3ad9e9-768f-4d74-9053-c832934ce231","system_id":"levelo_inurba_marseille","lat":43.310804,"lon":5.38359,"is_reserved":false,"is_disabled":false,"rental_uris":{"android":"levelo://app?vid=9d3ad9e9-768f-4d74-9053-c832934ce231","ios":"levelo://app?vid=9d3ad9e9-768f-4d74-9053-c832934ce231"},"vehicle_type_id":"4","last_reported":1721336854,"current_range_meters":31200,"station_id":"ce4bgv92rcd13ifvqcr0","pricing_plan_id":"cebpf4jnsgd1na2vs0mg"},{"bike_id":"b1fda80f-9b9e-4698-a360-270f53df2371","system_id":"levelo_inurba_marseille","lat":43.310804,"lon":5.38359,"is_reserved":false,"is_disabled":false,"rental_uris":{"android":"levelo://app?vid=b1fda80f-9b9e-4698-a360-270f53df2371","ios":"levelo://app?vid=b1fda80f-9b9e-4698-a360-270f53df2371"},"vehicle_type_id":"4","last_reported":1721336854,"current_range_meters":31200,"station_id":"ce4bgv92rcd13ifvqcr0","pricing_plan_id":"cebpf4jnsgd1na2vs0mg"},{"bike_id":"6035735b-0bc0-48d8-8855-7ee06e0a6f68","system_id":"levelo_inurba_marseille","lat":43.310804,"lon":5.38359,"is_reserved":false,"is_disabled":false,"rental_uris":{"android":"levelo://app?vid=6035735b-0bc0-48d8-8855-7ee06e0a6f68","ios":"levelo://app?vid=6035735b-0bc0-48d8-8855-7ee06e0a6f68"},"vehicle_type_id":"4","last_reported":1721336854,"current_range_meters":19600,"station_id":"ce4bgv92rcd13ifvqcr0","pricing_plan_id":"cebpf4jnsgd1na2vs0mg"},{"bike_id":"4830d27d-7d01-48a3-8cc7-e1e0d331a17a","system_id":"levelo_inurba_marseille","lat":43.310804,"lon":5.38359,"is_reserved":false,"is_disabled":false,"rental_uris":{"android":"levelo://app?vid=4830d27d-7d01-48a3-8cc7-e1e0d331a17a","ios":"levelo://app?vid=4830d27d-7d01-48a3-8cc7-e1e0d331a17a"},"vehicle_type_id":"4","last_reported":1721336854,"current_range_meters":14000,"station_id":"ce4bgv92rcd13ifvqcr0","pricing_plan_id":"cebpf4jnsgd1na2vs0mg"},{"bike_id":"2095c7d8-8376-44c1-a937-2f9e55cc9457","system_id":"levelo_inurba_marseille","lat":43.319935,"lon":5.381699,"is_reserved":false,"is_disabled":false,"rental_uris":{"android":"levelo://app?vid=2095c7d8-8376-44c1-a937-2f9e55cc9457","ios":"levelo://app?vid=2095c7d8-8376-44c1-a937-2f9e55cc9457"},"vehicle_type_id":"4","last_reported":1721336854,"current_range_meters":22400,"station_id":"ce4bhr12rcd13ifvqhpg","pricing_plan_id":"cebpf4jnsgd1na2vs0mg"},{"bike_id":"8fa30506-e267-4d14-b43b-9bdcc27c7fc1","system_id":"levelo_inurba_marseille","lat":43.299222,"lon":5.365554,"is_reserved":false,"is_disabled":false,"rental_uris":{"android":"levelo://app?vid=8fa30506-e267-4d14-b43b-9bdcc27c7fc1","ios":"levelo://app?vid=8fa30506-e267-4d14-b43b-9bdcc27c7fc1"},"vehicle_type_id":"4","last_reported":1721336854,"current_range_meters":28800,"station_id":"ce4bgm92rcd13ifvqbr0","pricing_plan_id":"cebpf4jnsgd1na2vs0mg"},{"bike_id":"d23d1ae2-0aed-4595-bc07-a560667605b8","system_id":"levelo_inurba_marseille","lat":43.299222,"lon":5.365554,"is_reserved":false,"is_disabled":false,"rental_uris":{"android":"levelo://app?vid=d23d1ae2-0aed-4595-bc07-a560667605b8","ios":"levelo://app?vid=d23d1ae2-0aed-4595-bc07-a560667605b8"},"vehicle_type_id":"4","last_reported":1721336854,"current_range_meters":31200,"station_id":"ce4bgm92rcd13ifvqbr0","pricing_plan_id":"cebpf4jnsgd1na2vs0mg"},{"bike_id":"3f58ed0a-e9bb-4c03-911f-f9c6e35750ef","system_id":"levelo_inurba_marseille","lat":43.299222,"lon":5.365554,"is_reserved":false,"is_disabled":false,"rental_uris":{"android":"levelo://app?vid=3f58ed0a-e9bb-4c03-911f-f9c6e35750ef","ios":"levelo://app?vid=3f58ed0a-e9bb-4c03-911f-f9c6e35750ef"},"vehicle_type_id":"4","last_reported":1721336854,"current_range_meters":2800,"station_id":"ce4bgm92rcd13ifvqbr0","pricing_plan_id":"cebpf4jnsgd1na2vs0mg"},{"bike_id":"44b2c331-bf3c-4e13-8abd-8ac1ab840772","system_id":"levelo_inurba_marseille","lat":43.305364,"lon":5.384119,"is_reserved":false,"is_disabled":false,"rental_uris":{"android":"levelo://app?vid=44b2c331-bf3c-4e13-8abd-8ac1ab840772","ios":"levelo://app?vid=44b2c331-bf3c-4e13-8abd-8ac1ab840772"},"vehicle_type_id":"4","last_reported":1721336854,"current_range_meters":26000,"station_id":"ce4bgg92rcd13ifvqb30","pricing_plan_id":"cebpf4jnsgd1na2vs0mg"},{"bike_id":"d2d81174-6c80-4db9-af08-9295460183b7","system_id":"levelo_inurba_marseille","lat":43.3117,"lon":5.38706,"is_reserved":false,"is_disabled":false,"rental_uris":{"android":"levelo://app?vid=d2d81174-6c80-4db9-af08-9295460183b7","ios":"levelo://app?vid=d2d81174-6c80-4db9-af08-9295460183b7"},"vehicle_type_id":"4","last_reported":1721336854,"current_range_meters":18400,"station_id":"ce4bgv12rcd13ifvqcp0","pricing_plan_id":"cebpf4jnsgd1na2vs0mg"},{"bike_id":"72e04d50-ed27-445c-b2af-47e059f049d1","system_id":"levelo_inurba_marseille","lat":43.311722,"lon":5.387247,"is_reserved":false,"is_disabled":false,"rental_uris":{"android":"levelo://app?vid=72e04d50-ed27-445c-b2af-47e059f049d1","ios":"levelo://app?vid=72e04d50-ed27-445c-b2af-47e059f049d1"},"vehicle_type_id":"4","last_reported":1721336854,"current_range_meters":26000,"station_id":"ce4bgv12rcd13ifvqcp0","pricing_plan_id":"cebpf4jnsgd1na2vs0mg"},{"bike_id":"3a1d8f75-7d6d-45e0-bb7a-3a254943d9ff","system_id":"levelo_inurba_marseille","lat":43.31169,"lon":5.3871,"is_reserved":false,"is_disabled":false,"rental_uris":{"android":"levelo://app?vid=3a1d8f75-7d6d-45e0-bb7a-3a254943d9ff","ios":"levelo://app?vid=3a1d8f75-7d6d-45e0-bb7a-3a254943d9ff"},"vehicle_type_id":"4","last_reported":1721336854,"current_range_meters":31200,"station_id":"ce4bgv12rcd13ifvqcp0","pricing_plan_id":"cebpf4jnsgd1na2vs0mg"},{"bike_id":"fbdb890b-1bea-42c5-bb9f-06b114efb281","system_id":"levelo_inurba_marseille","lat":43.311722,"lon":5.387247,"is_reserved":false,"is_disabled":false,"rental_uris":{"android":"levelo://app?vid=fbdb890b-1bea-42c5-bb9f-06b114efb281","ios":"levelo://app?vid=fbdb890b-1bea-42c5-bb9f-06b114efb281"},"vehicle_type_id":"4","last_reported":1721336854,"current_range_meters":31200,"station_id":"ce4bgv12rcd13ifvqcp0","pricing_plan_id":"cebpf4jnsgd1na2vs0mg"},{"bike_id":"44da8fb4-a7ca-41b3-ab73-10d2ac2d6276","system_id":"levelo_inurba_marseille","lat":43.31173,"lon":5.38713,"is_reserved":false,"is_disabled":false,"rental_uris":{"android":"levelo://app?vid=44da8fb4-a7ca-41b3-ab73-10d2ac2d6276","ios":"levelo://app?vid=44da8fb4-a7ca-41b3-ab73-10d2ac2d6276"},"vehicle_type_id":"4","last_reported":1721336854,"current_range_meters":0,"station_id":"ce4bgv12rcd13ifvqcp0","pricing_plan_id":"cebpf4jnsgd1na2vs0mg"},{"bike_id":"47af5039-5e09-404e-8434-fb66ac27c507","system_id":"levelo_inurba_marseille","lat":43.311722,"lon":5.387247,"is_reserved":false,"is_disabled":false,"rental_uris":{"android":"levelo://app?vid=47af5039-5e09-404e-8434-fb66ac27c507","ios":"levelo://app?vid=47af5039-5e09-404e-8434-fb66ac27c507"},"vehicle_type_id":"4","last_reported":1721336854,"current_range_meters":10000,"station_id":"ce4bgv12rcd13ifvqcp0","pricing_plan_id":"cebpf4jnsgd1na2vs0mg"},{"bike_id":"02d4ff43-6a6d-4587-9584-531f60039aae","system_id":"levelo_inurba_marseille","lat":43.311722,"lon":5.387247,"is_reserved":false,"is_disabled":false,"rental_uris":{"android":"levelo://app?vid=02d4ff43-6a6d-4587-9584-531f60039aae","ios":"levelo://app?vid=02d4ff43-6a6d-4587-9584-531f60039aae"},"vehicle_type_id":"4","last_reported":1721336854,"current_range_meters":22800,"station_id":"ce4bgv12rcd13ifvqcp0","pricing_plan_id":"cebpf4jnsgd1na2vs0mg"},{"bike_id":"dcd9e157-7f0b-4a83-919f-368ed910f379","system_id":"levelo_inurba_marseille","lat":43.311722,"lon":5.387247,"is_reserved":false,"is_disabled":false,"rental_uris":{"android":"levelo://app?vid=dcd9e157-7f0b-4a83-919f-368ed910f379","ios":"levelo://app?vid=dcd9e157-7f0b-4a83-919f-368ed910f379"},"vehicle_type_id":"4","last_reported":1721336854,"current_range_meters":30400,"station_id":"ce4bgv12rcd13ifvqcp0","pricing_plan_id":"cebpf4jnsgd1na2vs0mg"},{"bike_id":"9de3d0fc-cfac-4baa-bd62-9d5a7487cccf","system_id":"levelo_inurba_marseille","lat":43.311722,"lon":5.387247,"is_reserved":false,"is_disabled":false,"rental_uris":{"android":"levelo://app?vid=9de3d0fc-cfac-4baa-bd62-9d5a7487cccf","ios":"levelo://app?vid=9de3d0fc-cfac-4baa-bd62-9d5a7487cccf"},"vehicle_type_id":"4","last_reported":1721336854,"current_range_meters":4000,"station_id":"ce4bgv12rcd13ifvqcp0","pricing_plan_id":"cebpf4jnsgd1na2vs0mg"},{"bike_id":"3189f065-5745-41b6-acea-f4c021241b91","system_id":"levelo_inurba_marseille","lat":43.3117,"lon":5.38734,"is_reserved":false,"is_disabled":false,"rental_uris":{"android":"levelo://app?vid=3189f065-5745-41b6-acea-f4c021241b91","ios":"levelo://app?vid=3189f065-5745-41b6-acea-f4c021241b91"},"vehicle_type_id":"4","last_reported":1721336854,"current_range_meters":31200,"station_id":"ce4bgv12rcd13ifvqcp0","pricing_plan_id":"cebpf4jnsgd1na2vs0mg"},{"bike_id":"2ba1cd19-4d4f-45ac-aae7-9679f5682841","system_id":"levelo_inurba_marseille","lat":43.32279,"lon":5.38254,"is_reserved":false,"is_disabled":false,"rental_uris":{"android":"levelo://app?vid=2ba1cd19-4d4f-45ac-aae7-9679f5682841","ios":"levelo://app?vid=2ba1cd19-4d4f-45ac-aae7-9679f5682841"},"vehicle_type_id":"4","last_reported":1721336854,"current_range_meters":30000,"station_id":"ce4bhr12rcd13ifvqhqg","pricing_plan_id":"cebpf4jnsgd1na2vs0mg"},{"bike_id":"5359900e-fe23-4ab6-82cf-78baf044e566","system_id":"levelo_inurba_marseille","lat":43.322873,"lon":5.382595,"is_reserved":false,"is_disabled":false,"rental_uris":{"android":"levelo://app?vid=5359900e-fe23-4ab6-82cf-78baf044e566","ios":"levelo://app?vid=5359900e-fe23-4ab6-82cf-78baf044e566"},"vehicle_type_id":"4","last_reported":1721336854,"current_range_meters":31200,"station_id":"ce4bhr12rcd13ifvqhqg","pricing_plan_id":"cebpf4jnsgd1na2vs0mg"},{"bike_id":"739a6624-4ce9-45bb-9bd4-ccecc1f224e7","system_id":"levelo_inurba_marseille","lat":43.32284,"lon":5.3827,"is_reserved":false,"is_disabled":false,"rental_uris":{"android":"levelo://app?vid=739a6624-4ce9-45bb-9bd4-ccecc1f224e7","ios":"levelo://app?vid=739a6624-4ce9-45bb-9bd4-ccecc1f224e7"},"vehicle_type_id":"4","last_reported":1721336854,"current_range_meters":31200,"station_id":"ce4bhr12rcd13ifvqhqg","pricing_plan_id":"cebpf4jnsgd1na2vs0mg"},{"bike_id":"2f97dda1-141c-4d5f-924f-b73292f8c15f","system_id":"levelo_inurba_marseille","lat":43.32286,"lon":5.3827,"is_reserved":false,"is_disabled":false,"rental_uris":{"android":"levelo://app?vid=2f97dda1-141c-4d5f-924f-b73292f8c15f","ios":"levelo://app?vid=2f97dda1-141c-4d5f-924f-b73292f8c15f"},"vehicle_type_id":"4","last_reported":1721336854,"current_range_meters":12800,"station_id":"ce4bhr12rcd13ifvqhqg","pricing_plan_id":"cebpf4jnsgd1na2vs0mg"},{"bike_id":"db2b9e93-1f25-43e4-b34c-75cb05201b96","system_id":"levelo_inurba_marseille","lat":43.32286,"lon":5.38272,"is_reserved":false,"is_disabled":false,"rental_uris":{"android":"levelo://app?vid=db2b9e93-1f25-43e4-b34c-75cb05201b96","ios":"levelo://app?vid=db2b9e93-1f25-43e4-b34c-75cb05201b96"},"vehicle_type_id":"4","last_reported":1721336854,"current_range_meters":6000,"station_id":"ce4bhr12rcd13ifvqhqg","pricing_plan_id":"cebpf4jnsgd1na2vs0mg"},{"bike_id":"80afbc40-e0d8-4c87-ab3e-46358b343cf0","system_id":"levelo_inurba_marseille","lat":43.297163,"lon":5.365866,"is_reserved":false,"is_disabled":false,"rental_uris":{"android":"levelo://app?vid=80afbc40-e0d8-4c87-ab3e-46358b343cf0","ios":"levelo://app?vid=80afbc40-e0d8-4c87-ab3e-46358b343cf0"},"vehicle_type_id":"4","last_reported":1721336854,"current_range_meters":13200,"station_id":"ce4bgn12rcd13ifvqbt0","pricing_plan_id":"cebpf4jnsgd1na2vs0mg"},{"bike_id":"5f998bc1-5cae-413e-aeb6-46ea9b002496","system_id":"levelo_inurba_marseille","lat":43.297163,"lon":5.365866,"is_reserved":false,"is_disabled":false,"rental_uris":{"android":"levelo://app?vid=5f998bc1-5cae-413e-aeb6-46ea9b002496","ios":"levelo://app?vid=5f998bc1-5cae-413e-aeb6-46ea9b002496"},"vehicle_type_id":"4","last_reported":1721336854,"current_range_meters":20400,"station_id":"ce4bgn12rcd13ifvqbt0","pricing_plan_id":"cebpf4jnsgd1na2vs0mg"},{"bike_id":"4bcf8e1b-d8ba-4d3b-9ac1-1cd9106afb3d","system_id":"levelo_inurba_marseille","lat":43.30799,"lon":5.38787,"is_reserved":false,"is_disabled":false,"rental_uris":{"android":"levelo://app?vid=4bcf8e1b-d8ba-4d3b-9ac1-1cd9106afb3d","ios":"levelo://app?vid=4bcf8e1b-d8ba-4d3b-9ac1-1cd9106afb3d"},"vehicle_type_id":"4","last_reported":1721336854,"current_range_meters":6000,"station_id":"","pricing_plan_id":"cebpf4jnsgd1na2vs0mg"},{"bike_id":"2baca4ef-0d69-4564-91f0-6aa88a9ace5b","system_id":"levelo_inurba_marseille","lat":43.32526,"lon":5.38161,"is_reserved":false,"is_disabled":false,"rental_uris":{"android":"levelo://app?vid=2baca4ef-0d69-4564-91f0-6aa88a9ace5b","ios":"levelo://app?vid=2baca4ef-0d69-4564-91f0-6aa88a9ace5b"},"vehicle_type_id":"4","last_reported":1721336854,"current_range_meters":20400,"station_id":"","pricing_plan_id":"cebpf4jnsgd1na2vs0mg"},{"bike_id":"815bf154-ab9b-4d78-bd0f-feae50a9ca95","system_id":"levelo_inurba_marseille","lat":43.29582,"lon":5.36746,"is_reserved":false,"is_disabled":false,"rental_uris":{"android":"levelo://app?vid=815bf154-ab9b-4d78-bd0f-feae50a9ca95","ios":"levelo://app?vid=815bf154-ab9b-4d78-bd0f-feae50a9ca95"},"vehicle_type_id":"4","last_reported":1721336854,"current_range_meters":30800,"station_id":"ce4bgph2rcd13ifvqc2g","pricing_plan_id":"cebpf4jnsgd1na2vs0mg"},{"bike_id":"be1d743e-59d2-42ba-9ddb-fb6bbafacf09","system_id":"levelo_inurba_marseille","lat":43.29581,"lon":5.36755,"is_reserved":false,"is_disabled":false,"rental_uris":{"android":"levelo://app?vid=be1d743e-59d2-42ba-9ddb-fb6bbafacf09","ios":"levelo://app?vid=be1d743e-59d2-42ba-9ddb-fb6bbafacf09"},"vehicle_type_id":"4","last_reported":1721336854,"current_range_meters":14400,"station_id":"ce4bgph2rcd13ifvqc2g","pricing_plan_id":"cebpf4jnsgd1na2vs0mg"},{"bike_id":"d3651a83-6042-48c5-b707-102f24b9a19b","system_id":"levelo_inurba_marseille","lat":43.2958,"lon":5.367507,"is_reserved":false,"is_disabled":false,"rental_uris":{"android":"levelo://app?vid=d3651a83-6042-48c5-b707-102f24b9a19b","ios":"levelo://app?vid=d3651a83-6042-48c5-b707-102f24b9a19b"},"vehicle_type_id":"4","last_reported":1721336854,"current_range_meters":24000,"station_id":"ce4bgph2rcd13ifvqc2g","pricing_plan_id":"cebpf4jnsgd1na2vs0mg"},{"bike_id":"ad6118ac-eb3f-4e30-a94f-7113f24afa4e","system_id":"levelo_inurba_marseille","lat":43.29579,"lon":5.36748,"is_reserved":false,"is_disabled":false,"rental_uris":{"android":"levelo://app?vid=ad6118ac-eb3f-4e30-a94f-7113f24afa4e","ios":"levelo://app?vid=ad6118ac-eb3f-4e30-a94f-7113f24afa4e"},"vehicle_type_id":"4","last_reported":1721336854,"current_range_meters":28800,"station_id":"ce4bgph2rcd13ifvqc2g","pricing_plan_id":"cebpf4jnsgd1na2vs0mg"},{"bike_id":"b3d329af-c090-4329-93fe-21640827197a","system_id":"levelo_inurba_marseille","lat":43.309589,"lon":5.390258,"is_reserved":false,"is_disabled":false,"rental_uris":{"android":"levelo://app?vid=b3d329af-c090-4329-93fe-21640827197a","ios":"levelo://app?vid=b3d329af-c090-4329-93fe-21640827197a"},"vehicle_type_id":"4","last_reported":1721336854,"current_range_meters":11600,"station_id":"ce4bgup2rcd13ifvqco0","pricing_plan_id":"cebpf4jnsgd1na2vs0mg"},{"bike_id":"403413b2-cfec-4f92-8707-07828bddaf32","system_id":"levelo_inurba_marseille","lat":43.29912,"lon":5.3814,"is_reserved":false,"is_disabled":false,"rental_uris":{"android":"levelo://app?vid=403413b2-cfec-4f92-8707-07828bddaf32","ios":"levelo://app?vid=403413b2-cfec-4f92-8707-07828bddaf32"},"vehicle_type_id":"4","last_reported":1721336854,"current_range_meters":0,"station_id":"ce4bgj12rcd13ifvqbc0","pricing_plan_id":"cebpf4jnsgd1na2vs0mg"},{"bike_id":"0aae9308-75fd-4a15-a2c5-8703da0bc63c","system_id":"levelo_inurba_marseille","lat":43.309589,"lon":5.390258,"is_reserved":false,"is_disabled":false,"rental_uris":{"android":"levelo://app?vid=0aae9308-75fd-4a15-a2c5-8703da0bc63c","ios":"levelo://app?vid=0aae9308-75fd-4a15-a2c5-8703da0bc63c"},"vehicle_type_id":"4","last_reported":1721336854,"current_range_meters":10400,"station_id":"ce4bgup2rcd13ifvqco0","pricing_plan_id":"cebpf4jnsgd1na2vs0mg"},{"bike_id":"d925a4bf-7071-4a84-9d81-69f58d73e8c3","system_id":"levelo_inurba_marseille","lat":43.309589,"lon":5.390258,"is_reserved":false,"is_disabled":false,"rental_uris":{"android":"levelo://app?vid=d925a4bf-7071-4a84-9d81-69f58d73e8c3","ios":"levelo://app?vid=d925a4bf-7071-4a84-9d81-69f58d73e8c3"},"vehicle_type_id":"4","last_reported":1721336854,"current_range_meters":12800,"station_id":"ce4bgup2rcd13ifvqco0","pricing_plan_id":"cebpf4jnsgd1na2vs0mg"},{"bike_id":"6a75ba47-170b-4234-aa95-87cd4a189862","system_id":"levelo_inurba_marseille","lat":43.309589,"lon":5.390258,"is_reserved":false,"is_disabled":false,"rental_uris":{"android":"levelo://app?vid=6a75ba47-170b-4234-aa95-87cd4a189862","ios":"levelo://app?vid=6a75ba47-170b-4234-aa95-87cd4a189862"},"vehicle_type_id":"4","last_reported":1721336854,"current_range_meters":28800,"station_id":"ce4bgup2rcd13ifvqco0","pricing_plan_id":"cebpf4jnsgd1na2vs0mg"},{"bike_id":"e402b444-f49c-42ca-894b-82decd692667","system_id":"levelo_inurba_marseille","lat":43.309589,"lon":5.390258,"is_reserved":false,"is_disabled":false,"rental_uris":{"android":"levelo://app?vid=e402b444-f49c-42ca-894b-82decd692667","ios":"levelo://app?vid=e402b444-f49c-42ca-894b-82decd692667"},"vehicle_type_id":"4","last_reported":1721336854,"current_range_meters":13600,"station_id":"ce4bgup2rcd13ifvqco0","pricing_plan_id":"cebpf4jnsgd1na2vs0mg"},{"bike_id":"b4a99880-b20c-4f9a-aa53-79839986ca31","system_id":"levelo_inurba_marseille","lat":43.309491,"lon":5.390263,"is_reserved":false,"is_disabled":false,"rental_uris":{"android":"levelo://app?vid=b4a99880-b20c-4f9a-aa53-79839986ca31","ios":"levelo://app?vid=b4a99880-b20c-4f9a-aa53-79839986ca31"},"vehicle_type_id":"4","last_reported":1721336854,"current_range_meters":31200,"station_id":"ce4bgup2rcd13ifvqco0","pricing_plan_id":"cebpf4jnsgd1na2vs0mg"},{"bike_id":"f16d1abf-23c0-46f6-a06d-2ce26d83f35b","system_id":"levelo_inurba_marseille","lat":43.309589,"lon":5.390258,"is_reserved":false,"is_disabled":false,"rental_uris":{"android":"levelo://app?vid=f16d1abf-23c0-46f6-a06d-2ce26d83f35b","ios":"levelo://app?vid=f16d1abf-23c0-46f6-a06d-2ce26d83f35b"},"vehicle_type_id":"4","last_reported":1721336854,"current_range_meters":22800,"station_id":"ce4bgup2rcd13ifvqco0","pricing_plan_id":"cebpf4jnsgd1na2vs0mg"},{"bike_id":"759f1f11-f277-46c3-b5c7-2091a5485aa6","system_id":"levelo_inurba_marseille","lat":43.309589,"lon":5.390258,"is_reserved":false,"is_disabled":false,"rental_uris":{"android":"levelo://app?vid=759f1f11-f277-46c3-b5c7-2091a5485aa6","ios":"levelo://app?vid=759f1f11-f277-46c3-b5c7-2091a5485aa6"},"vehicle_type_id":"4","last_reported":1721336854,"current_range_meters":9600,"station_id":"ce4bgup2rcd13ifvqco0","pricing_plan_id":"cebpf4jnsgd1na2vs0mg"},{"bike_id":"1646a4bc-5a71-4d2a-91a1-c2e8763c30bf","system_id":"levelo_inurba_marseille","lat":43.309589,"lon":5.390258,"is_reserved":false,"is_disabled":false,"rental_uris":{"android":"levelo://app?vid=1646a4bc-5a71-4d2a-91a1-c2e8763c30bf","ios":"levelo://app?vid=1646a4bc-5a71-4d2a-91a1-c2e8763c30bf"},"vehicle_type_id":"4","last_reported":1721336854,"current_range_meters":30000,"station_id":"ce4bgup2rcd13ifvqco0","pricing_plan_id":"cebpf4jnsgd1na2vs0mg"},{"bike_id":"60fe8824-fd63-4a3e-9231-8dc5f7e4056b","system_id":"levelo_inurba_marseille","lat":43.309589,"lon":5.390258,"is_reserved":false,"is_disabled":false,"rental_uris":{"android":"levelo://app?vid=60fe8824-fd63-4a3e-9231-8dc5f7e4056b","ios":"levelo://app?vid=60fe8824-fd63-4a3e-9231-8dc5f7e4056b"},"vehicle_type_id":"4","last_reported":1721336854,"current_range_meters":16000,"station_id":"ce4bgup2rcd13ifvqco0","pricing_plan_id":"cebpf4jnsgd1na2vs0mg"},{"bike_id":"a38846ef-4732-4569-9fec-f68ea61030e5","system_id":"levelo_inurba_marseille","lat":43.309589,"lon":5.390258,"is_reserved":false,"is_disabled":false,"rental_uris":{"android":"levelo://app?vid=a38846ef-4732-4569-9fec-f68ea61030e5","ios":"levelo://app?vid=a38846ef-4732-4569-9fec-f68ea61030e5"},"vehicle_type_id":"4","last_reported":1721336854,"current_range_meters":14400,"station_id":"ce4bgup2rcd13ifvqco0","pricing_plan_id":"cebpf4jnsgd1na2vs0mg"},{"bike_id":"08ea8e73-a76c-482a-ad63-54840e1982c6","system_id":"levelo_inurba_marseille","lat":43.309589,"lon":5.390258,"is_reserved":false,"is_disabled":false,"rental_uris":{"android":"levelo://app?vid=08ea8e73-a76c-482a-ad63-54840e1982c6","ios":"levelo://app?vid=08ea8e73-a76c-482a-ad63-54840e1982c6"},"vehicle_type_id":"4","last_reported":1721336854,"current_range_meters":31200,"station_id":"ce4bgup2rcd13ifvqco0","pricing_plan_id":"cebpf4jnsgd1na2vs0mg"},{"bike_id":"cc7062b5-027c-4413-a177-3fbd689da3bf","system_id":"levelo_inurba_marseille","lat":43.309589,"lon":5.390258,"is_reserved":false,"is_disabled":false,"rental_uris":{"android":"levelo://app?vid=cc7062b5-027c-4413-a177-3fbd689da3bf","ios":"levelo://app?vid=cc7062b5-027c-4413-a177-3fbd689da3bf"},"vehicle_type_id":"4","last_reported":1721336854,"current_range_meters":20000,"station_id":"ce4bgup2rcd13ifvqco0","pricing_plan_id":"cebpf4jnsgd1na2vs0mg"},{"bike_id":"a7c4611e-1df9-4af8-a4fe-ea6bb84bbd66","system_id":"levelo_inurba_marseille","lat":43.309589,"lon":5.390258,"is_reserved":false,"is_disabled":false,"rental_uris":{"android":"levelo://app?vid=a7c4611e-1df9-4af8-a4fe-ea6bb84bbd66","ios":"levelo://app?vid=a7c4611e-1df9-4af8-a4fe-ea6bb84bbd66"},"vehicle_type_id":"4","last_reported":1721336854,"current_range_meters":14400,"station_id":"ce4bgup2rcd13ifvqco0","pricing_plan_id":"cebpf4jnsgd1na2vs0mg"},{"bike_id":"8e94fd27-5046-4e48-9468-6e1aacd2fb43","system_id":"levelo_inurba_marseille","lat":43.309589,"lon":5.390258,"is_reserved":false,"is_disabled":false,"rental_uris":{"android":"levelo://app?vid=8e94fd27-5046-4e48-9468-6e1aacd2fb43","ios":"levelo://app?vid=8e94fd27-5046-4e48-9468-6e1aacd2fb43"},"vehicle_type_id":"4","last_reported":1721336854,"current_range_meters":23200,"station_id":"ce4bgup2rcd13ifvqco0","pricing_plan_id":"cebpf4jnsgd1na2vs0mg"},{"bike_id":"c1995f44-cec7-442e-bac9-db43996ddb8b","system_id":"levelo_inurba_marseille","lat":43.30948,"lon":5.39036,"is_reserved":false,"is_disabled":false,"rental_uris":{"android":"levelo://app?vid=c1995f44-cec7-442e-bac9-db43996ddb8b","ios":"levelo://app?vid=c1995f44-cec7-442e-bac9-db43996ddb8b"},"vehicle_type_id":"4","last_reported":1721336854,"current_range_meters":16800,"station_id":"ce4bgup2rcd13ifvqco0","pricing_plan_id":"cebpf4jnsgd1na2vs0mg"},{"bike_id":"f1213300-d21d-4530-b852-5277f103924e","system_id":"levelo_inurba_marseille","lat":43.30953,"lon":5.39038,"is_reserved":false,"is_disabled":false,"rental_uris":{"android":"levelo://app?vid=f1213300-d21d-4530-b852-5277f103924e","ios":"levelo://app?vid=f1213300-d21d-4530-b852-5277f103924e"},"vehicle_type_id":"4","last_reported":1721336854,"current_range_meters":10400,"station_id":"ce4bgup2rcd13ifvqco0","pricing_plan_id":"cebpf4jnsgd1na2vs0mg"},{"bike_id":"0db0210d-9f85-4627-8539-1c0b0a3d3117","system_id":"levelo_inurba_marseille","lat":43.30953,"lon":5.39038,"is_reserved":false,"is_disabled":false,"rental_uris":{"android":"levelo://app?vid=0db0210d-9f85-4627-8539-1c0b0a3d3117","ios":"levelo://app?vid=0db0210d-9f85-4627-8539-1c0b0a3d3117"},"vehicle_type_id":"4","last_reported":1721336854,"current_range_meters":29600,"station_id":"ce4bgup2rcd13ifvqco0","pricing_plan_id":"cebpf4jnsgd1na2vs0mg"},{"bike_id":"c28287a5-f592-4141-a857-8d736dc7f394","system_id":"levelo_inurba_marseille","lat":43.309589,"lon":5.390258,"is_reserved":false,"is_disabled":false,"rental_uris":{"android":"levelo://app?vid=c28287a5-f592-4141-a857-8d736dc7f394","ios":"levelo://app?vid=c28287a5-f592-4141-a857-8d736dc7f394"},"vehicle_type_id":"4","last_reported":1721336854,"current_range_meters":4000,"station_id":"ce4bgup2rcd13ifvqco0","pricing_plan_id":"cebpf4jnsgd1na2vs0mg"},{"bike_id":"448f2c60-9fb3-4e67-833a-41d1ce6fbd35","system_id":"levelo_inurba_marseille","lat":43.309589,"lon":5.390258,"is_reserved":false,"is_disabled":false,"rental_uris":{"android":"levelo://app?vid=448f2c60-9fb3-4e67-833a-41d1ce6fbd35","ios":"levelo://app?vid=448f2c60-9fb3-4e67-833a-41d1ce6fbd35"},"vehicle_type_id":"4","last_reported":1721336854,"current_range_meters":9200,"station_id":"ce4bgup2rcd13ifvqco0","pricing_plan_id":"cebpf4jnsgd1na2vs0mg"},{"bike_id":"bfd9dc32-6d87-42a0-9132-6fcf2ba0a037","system_id":"levelo_inurba_marseille","lat":43.309589,"lon":5.390258,"is_reserved":false,"is_disabled":false,"rental_uris":{"android":"levelo://app?vid=bfd9dc32-6d87-42a0-9132-6fcf2ba0a037","ios":"levelo://app?vid=bfd9dc32-6d87-42a0-9132-6fcf2ba0a037"},"vehicle_type_id":"4","last_reported":1721336854,"current_range_meters":11200,"station_id":"ce4bgup2rcd13ifvqco0","pricing_plan_id":"cebpf4jnsgd1na2vs0mg"},{"bike_id":"c0d5e421-2061-4532-b873-897eb2187562","system_id":"levelo_inurba_marseille","lat":43.309589,"lon":5.390258,"is_reserved":false,"is_disabled":false,"rental_uris":{"android":"levelo://app?vid=c0d5e421-2061-4532-b873-897eb2187562","ios":"levelo://app?vid=c0d5e421-2061-4532-b873-897eb2187562"},"vehicle_type_id":"4","last_reported":1721336854,"current_range_meters":21600,"station_id":"ce4bgup2rcd13ifvqco0","pricing_plan_id":"cebpf4jnsgd1na2vs0mg"},{"bike_id":"ff717636-6ed5-4d62-8436-53738ee8a753","system_id":"levelo_inurba_marseille","lat":43.30949,"lon":5.39044,"is_reserved":false,"is_disabled":false,"rental_uris":{"android":"levelo://app?vid=ff717636-6ed5-4d62-8436-53738ee8a753","ios":"levelo://app?vid=ff717636-6ed5-4d62-8436-53738ee8a753"},"vehicle_type_id":"4","last_reported":1721336854,"current_range_meters":7600,"station_id":"ce4bgup2rcd13ifvqco0","pricing_plan_id":"cebpf4jnsgd1na2vs0mg"},{"bike_id":"75ec5381-a06d-48fb-ab64-588f56b60ab0","system_id":"levelo_inurba_marseille","lat":43.309589,"lon":5.390258,"is_reserved":false,"is_disabled":false,"rental_uris":{"android":"levelo://app?vid=75ec5381-a06d-48fb-ab64-588f56b60ab0","ios":"levelo://app?vid=75ec5381-a06d-48fb-ab64-588f56b60ab0"},"vehicle_type_id":"4","last_reported":1721336854,"current_range_meters":24400,"station_id":"ce4bgup2rcd13ifvqco0","pricing_plan_id":"cebpf4jnsgd1na2vs0mg"},{"bike_id":"180ee9c5-3cb9-42ea-b95e-64f3b9553518","system_id":"levelo_inurba_marseille","lat":43.309589,"lon":5.390258,"is_reserved":false,"is_disabled":false,"rental_uris":{"android":"levelo://app?vid=180ee9c5-3cb9-42ea-b95e-64f3b9553518","ios":"levelo://app?vid=180ee9c5-3cb9-42ea-b95e-64f3b9553518"},"vehicle_type_id":"4","last_reported":1721336854,"current_range_meters":24800,"station_id":"ce4bgup2rcd13ifvqco0","pricing_plan_id":"cebpf4jnsgd1na2vs0mg"},{"bike_id":"0b54b523-8496-48bf-974d-e54ad0a1efd9","system_id":"levelo_inurba_marseille","lat":43.309589,"lon":5.390258,"is_reserved":false,"is_disabled":false,"rental_uris":{"android":"levelo://app?vid=0b54b523-8496-48bf-974d-e54ad0a1efd9","ios":"levelo://app?vid=0b54b523-8496-48bf-974d-e54ad0a1efd9"},"vehicle_type_id":"4","last_reported":1721336854,"current_range_meters":16400,"station_id":"ce4bgup2rcd13ifvqco0","pricing_plan_id":"cebpf4jnsgd1na2vs0mg"},{"bike_id":"7769eaa8-7fbc-428c-a729-31fb361b8e27","system_id":"levelo_inurba_marseille","lat":43.31745,"lon":5.39014,"is_reserved":false,"is_disabled":false,"rental_uris":{"android":"levelo://app?vid=7769eaa8-7fbc-428c-a729-31fb361b8e27","ios":"levelo://app?vid=7769eaa8-7fbc-428c-a729-31fb361b8e27"},"vehicle_type_id":"4","last_reported":1721336854,"current_range_meters":31200,"station_id":"ce4bhqp2rcd13ifvqhng","pricing_plan_id":"cebpf4jnsgd1na2vs0mg"},{"bike_id":"ec32fbb8-6cd9-4ccb-adb6-126a4b41897f","system_id":"levelo_inurba_marseille","lat":43.317557,"lon":5.390173,"is_reserved":false,"is_disabled":false,"rental_uris":{"android":"levelo://app?vid=ec32fbb8-6cd9-4ccb-adb6-126a4b41897f","ios":"levelo://app?vid=ec32fbb8-6cd9-4ccb-adb6-126a4b41897f"},"vehicle_type_id":"4","last_reported":1721336854,"current_range_meters":26000,"station_id":"ce4bhqp2rcd13ifvqhng","pricing_plan_id":"cebpf4jnsgd1na2vs0mg"},{"bike_id":"1db33dce-e163-4c62-b1aa-b09cbc726968","system_id":"levelo_inurba_marseille","lat":43.309589,"lon":5.390258,"is_reserved":false,"is_disabled":false,"rental_uris":{"android":"levelo://app?vid=1db33dce-e163-4c62-b1aa-b09cbc726968","ios":"levelo://app?vid=1db33dce-e163-4c62-b1aa-b09cbc726968"},"vehicle_type_id":"4","last_reported":1721336854,"current_range_meters":29600,"station_id":"ce4bgup2rcd13ifvqco0","pricing_plan_id":"cebpf4jnsgd1na2vs0mg"},{"bike_id":"3d7a7244-b7f6-42bb-ac81-94474055678f","system_id":"levelo_inurba_marseille","lat":43.317557,"lon":5.390173,"is_reserved":false,"is_disabled":false,"rental_uris":{"android":"levelo://app?vid=3d7a7244-b7f6-42bb-ac81-94474055678f","ios":"levelo://app?vid=3d7a7244-b7f6-42bb-ac81-94474055678f"},"vehicle_type_id":"4","last_reported":1721336854,"current_range_meters":25200,"station_id":"ce4bhqp2rcd13ifvqhng","pricing_plan_id":"cebpf4jnsgd1na2vs0mg"},{"bike_id":"2cac684d-eb84-4925-9548-848fc7c20900","system_id":"levelo_inurba_marseille","lat":43.31755,"lon":5.39023,"is_reserved":false,"is_disabled":false,"rental_uris":{"android":"levelo://app?vid=2cac684d-eb84-4925-9548-848fc7c20900","ios":"levelo://app?vid=2cac684d-eb84-4925-9548-848fc7c20900"},"vehicle_type_id":"4","last_reported":1721336854,"current_range_meters":24800,"station_id":"ce4bhqp2rcd13ifvqhng","pricing_plan_id":"cebpf4jnsgd1na2vs0mg"},{"bike_id":"13fdfeb2-17cd-4f53-be66-b7fbc9d9fff6","system_id":"levelo_inurba_marseille","lat":43.298037,"lon":5.381066,"is_reserved":false,"is_disabled":false,"rental_uris":{"android":"levelo://app?vid=13fdfeb2-17cd-4f53-be66-b7fbc9d9fff6","ios":"levelo://app?vid=13fdfeb2-17cd-4f53-be66-b7fbc9d9fff6"},"vehicle_type_id":"4","last_reported":1721336854,"current_range_meters":9200,"station_id":"ce4bgip2rcd13ifvqbb0","pricing_plan_id":"cebpf4jnsgd1na2vs0mg"},{"bike_id":"4c77b185-2d52-4383-b798-9d9bd1ada6c9","system_id":"levelo_inurba_marseille","lat":43.309589,"lon":5.390258,"is_reserved":false,"is_disabled":false,"rental_uris":{"android":"levelo://app?vid=4c77b185-2d52-4383-b798-9d9bd1ada6c9","ios":"levelo://app?vid=4c77b185-2d52-4383-b798-9d9bd1ada6c9"},"vehicle_type_id":"4","last_reported":1721336854,"current_range_meters":31200,"station_id":"ce4bgup2rcd13ifvqco0","pricing_plan_id":"cebpf4jnsgd1na2vs0mg"},{"bike_id":"e44905fb-4dd6-46bc-8494-1f5448efdd1c","system_id":"levelo_inurba_marseille","lat":43.304274,"lon":5.388873,"is_reserved":false,"is_disabled":false,"rental_uris":{"android":"levelo://app?vid=e44905fb-4dd6-46bc-8494-1f5448efdd1c","ios":"levelo://app?vid=e44905fb-4dd6-46bc-8494-1f5448efdd1c"},"vehicle_type_id":"4","last_reported":1721336854,"current_range_meters":30800,"station_id":"ce4bgk12rcd13ifvqbi0","pricing_plan_id":"cebpf4jnsgd1na2vs0mg"},{"bike_id":"b61347bd-c1de-425b-9f03-c31510042e95","system_id":"levelo_inurba_marseille","lat":43.304274,"lon":5.388873,"is_reserved":false,"is_disabled":false,"rental_uris":{"android":"levelo://app?vid=b61347bd-c1de-425b-9f03-c31510042e95","ios":"levelo://app?vid=b61347bd-c1de-425b-9f03-c31510042e95"},"vehicle_type_id":"4","last_reported":1721336854,"current_range_meters":16800,"station_id":"ce4bgk12rcd13ifvqbi0","pricing_plan_id":"cebpf4jnsgd1na2vs0mg"},{"bike_id":"85b9c9ba-6fb6-4d99-912b-322299635999","system_id":"levelo_inurba_marseille","lat":43.296277,"lon":5.377108,"is_reserved":false,"is_disabled":false,"rental_uris":{"android":"levelo://app?vid=85b9c9ba-6fb6-4d99-912b-322299635999","ios":"levelo://app?vid=85b9c9ba-6fb6-4d99-912b-322299635999"},"vehicle_type_id":"4","last_reported":1721336854,"current_range_meters":0,"station_id":"ce4bgi92rcd13ifvqb90","pricing_plan_id":"cebpf4jnsgd1na2vs0mg"},{"bike_id":"4b08eabf-5a21-4f7e-a820-d395bd387e65","system_id":"levelo_inurba_marseille","lat":43.304274,"lon":5.388873,"is_reserved":false,"is_disabled":false,"rental_uris":{"android":"levelo://app?vid=4b08eabf-5a21-4f7e-a820-d395bd387e65","ios":"levelo://app?vid=4b08eabf-5a21-4f7e-a820-d395bd387e65"},"vehicle_type_id":"4","last_reported":1721336854,"current_range_meters":6800,"station_id":"ce4bgk12rcd13ifvqbi0","pricing_plan_id":"cebpf4jnsgd1na2vs0mg"},{"bike_id":"3576fc89-86fa-46ab-9247-b2012fd33c0c","system_id":"levelo_inurba_marseille","lat":43.296263,"lon":5.377094,"is_reserved":false,"is_disabled":false,"rental_uris":{"android":"levelo://app?vid=3576fc89-86fa-46ab-9247-b2012fd33c0c","ios":"levelo://app?vid=3576fc89-86fa-46ab-9247-b2012fd33c0c"},"vehicle_type_id":"4","last_reported":1721336854,"current_range_meters":0,"station_id":"ce4bgi92rcd13ifvqb90","pricing_plan_id":"cebpf4jnsgd1na2vs0mg"},{"bike_id":"f2fb8065-5425-4452-b2ea-b11621f1b367","system_id":"levelo_inurba_marseille","lat":43.304278,"lon":5.388868,"is_reserved":false,"is_disabled":false,"rental_uris":{"android":"levelo://app?vid=f2fb8065-5425-4452-b2ea-b11621f1b367","ios":"levelo://app?vid=f2fb8065-5425-4452-b2ea-b11621f1b367"},"vehicle_type_id":"4","last_reported":1721336854,"current_range_meters":2800,"station_id":"ce4bgk12rcd13ifvqbi0","pricing_plan_id":"cebpf4jnsgd1na2vs0mg"},{"bike_id":"e17ce841-e7d0-4712-bf51-e486b9ebd7e2","system_id":"levelo_inurba_marseille","lat":43.29521,"lon":5.3738,"is_reserved":false,"is_disabled":false,"rental_uris":{"android":"levelo://app?vid=e17ce841-e7d0-4712-bf51-e486b9ebd7e2","ios":"levelo://app?vid=e17ce841-e7d0-4712-bf51-e486b9ebd7e2"},"vehicle_type_id":"4","last_reported":1721336854,"current_range_meters":2400,"station_id":"ce4bgkp2rcd13ifvqbmg","pricing_plan_id":"cebpf4jnsgd1na2vs0mg"},{"bike_id":"edbf8e91-1e28-4ea3-9b7d-b95ec02d7a67","system_id":"levelo_inurba_marseille","lat":43.295279,"lon":5.375048,"is_reserved":false,"is_disabled":false,"rental_uris":{"android":"levelo://app?vid=edbf8e91-1e28-4ea3-9b7d-b95ec02d7a67","ios":"levelo://app?vid=edbf8e91-1e28-4ea3-9b7d-b95ec02d7a67"},"vehicle_type_id":"4","last_reported":1721336854,"current_range_meters":6400,"station_id":"ce4bgkp2rcd13ifvqbmg","pricing_plan_id":"cebpf4jnsgd1na2vs0mg"},{"bike_id":"9cc11939-d926-4bd9-948b-ed35d9e52850","system_id":"levelo_inurba_marseille","lat":43.299724,"lon":5.384848,"is_reserved":false,"is_disabled":false,"rental_uris":{"android":"levelo://app?vid=9cc11939-d926-4bd9-948b-ed35d9e52850","ios":"levelo://app?vid=9cc11939-d926-4bd9-948b-ed35d9e52850"},"vehicle_type_id":"4","last_reported":1721336854,"current_range_meters":0,"station_id":"ce4bgj92rcd13ifvqbd0","pricing_plan_id":"cebpf4jnsgd1na2vs0mg"},{"bike_id":"18491e9b-089a-423d-92a6-2224fb4ac1cb","system_id":"levelo_inurba_marseille","lat":43.30473,"lon":5.39011,"is_reserved":false,"is_disabled":false,"rental_uris":{"android":"levelo://app?vid=18491e9b-089a-423d-92a6-2224fb4ac1cb","ios":"levelo://app?vid=18491e9b-089a-423d-92a6-2224fb4ac1cb"},"vehicle_type_id":"4","last_reported":1721336854,"current_range_meters":10000,"station_id":"","pricing_plan_id":"cebpf4jnsgd1na2vs0mg"},{"bike_id":"b54ed66a-28f3-4f01-bebf-bf42680b43cd","system_id":"levelo_inurba_marseille","lat":43.301396,"lon":5.387812,"is_reserved":false,"is_disabled":false,"rental_uris":{"android":"levelo://app?vid=b54ed66a-28f3-4f01-bebf-bf42680b43cd","ios":"levelo://app?vid=b54ed66a-28f3-4f01-bebf-bf42680b43cd"},"vehicle_type_id":"4","last_reported":1721336854,"current_range_meters":0,"station_id":"ce4bghh2rcd13ifvqb60","pricing_plan_id":"cebpf4jnsgd1na2vs0mg"},{"bike_id":"2371b97d-64d9-4849-a3f7-a4346b8a895b","system_id":"levelo_inurba_marseille","lat":43.301396,"lon":5.387812,"is_reserved":false,"is_disabled":false,"rental_uris":{"android":"levelo://app?vid=2371b97d-64d9-4849-a3f7-a4346b8a895b","ios":"levelo://app?vid=2371b97d-64d9-4849-a3f7-a4346b8a895b"},"vehicle_type_id":"4","last_reported":1721336854,"current_range_meters":0,"station_id":"ce4bghh2rcd13ifvqb60","pricing_plan_id":"cebpf4jnsgd1na2vs0mg"},{"bike_id":"01272af6-2494-4727-9a52-67ba50ea59c3","system_id":"levelo_inurba_marseille","lat":43.301396,"lon":5.387812,"is_reserved":false,"is_disabled":false,"rental_uris":{"android":"levelo://app?vid=01272af6-2494-4727-9a52-67ba50ea59c3","ios":"levelo://app?vid=01272af6-2494-4727-9a52-67ba50ea59c3"},"vehicle_type_id":"4","last_reported":1721336854,"current_range_meters":11200,"station_id":"ce4bghh2rcd13ifvqb60","pricing_plan_id":"cebpf4jnsgd1na2vs0mg"},{"bike_id":"687bbc27-b79b-4aef-89a1-b0e3fc9e407f","system_id":"levelo_inurba_marseille","lat":43.29896,"lon":5.38537,"is_reserved":false,"is_disabled":false,"rental_uris":{"android":"levelo://app?vid=687bbc27-b79b-4aef-89a1-b0e3fc9e407f","ios":"levelo://app?vid=687bbc27-b79b-4aef-89a1-b0e3fc9e407f"},"vehicle_type_id":"4","last_reported":1721336854,"current_range_meters":0,"station_id":"","pricing_plan_id":"cebpf4jnsgd1na2vs0mg"},{"bike_id":"41d7001d-30d8-433b-9dec-ec69ddf78ae8","system_id":"levelo_inurba_marseille","lat":43.307596,"lon":5.392404,"is_reserved":false,"is_disabled":false,"rental_uris":{"android":"levelo://app?vid=41d7001d-30d8-433b-9dec-ec69ddf78ae8","ios":"levelo://app?vid=41d7001d-30d8-433b-9dec-ec69ddf78ae8"},"vehicle_type_id":"4","last_reported":1721336854,"current_range_meters":31200,"station_id":"","pricing_plan_id":"cebpf4jnsgd1na2vs0mg"},{"bike_id":"25b8aa59-691b-4ac9-b9a9-fb683857b682","system_id":"levelo_inurba_marseille","lat":43.32363,"lon":5.3888,"is_reserved":false,"is_disabled":false,"rental_uris":{"android":"levelo://app?vid=25b8aa59-691b-4ac9-b9a9-fb683857b682","ios":"levelo://app?vid=25b8aa59-691b-4ac9-b9a9-fb683857b682"},"vehicle_type_id":"4","last_reported":1721336854,"current_range_meters":8000,"station_id":"ce4bhqp2rcd13ifvqhog","pricing_plan_id":"cebpf4jnsgd1na2vs0mg"},{"bike_id":"ba514446-4531-4ecf-9c09-350be85521cf","system_id":"levelo_inurba_marseille","lat":43.32367,"lon":5.388836,"is_reserved":false,"is_disabled":false,"rental_uris":{"android":"levelo://app?vid=ba514446-4531-4ecf-9c09-350be85521cf","ios":"levelo://app?vid=ba514446-4531-4ecf-9c09-350be85521cf"},"vehicle_type_id":"4","last_reported":1721336854,"current_range_meters":31200,"station_id":"ce4bhqp2rcd13ifvqhog","pricing_plan_id":"cebpf4jnsgd1na2vs0mg"},{"bike_id":"e6b19f64-210b-4b8f-8d7a-ff002aa99a45","system_id":"levelo_inurba_marseille","lat":43.32367,"lon":5.388836,"is_reserved":false,"is_disabled":false,"rental_uris":{"android":"levelo://app?vid=e6b19f64-210b-4b8f-8d7a-ff002aa99a45","ios":"levelo://app?vid=e6b19f64-210b-4b8f-8d7a-ff002aa99a45"},"vehicle_type_id":"4","last_reported":1721336854,"current_range_meters":6800,"station_id":"ce4bhqp2rcd13ifvqhog","pricing_plan_id":"cebpf4jnsgd1na2vs0mg"},{"bike_id":"ed894eb1-9ee4-49d3-9948-71fe65977c89","system_id":"levelo_inurba_marseille","lat":43.32367,"lon":5.38887,"is_reserved":false,"is_disabled":false,"rental_uris":{"android":"levelo://app?vid=ed894eb1-9ee4-49d3-9948-71fe65977c89","ios":"levelo://app?vid=ed894eb1-9ee4-49d3-9948-71fe65977c89"},"vehicle_type_id":"4","last_reported":1721336854,"current_range_meters":31600,"station_id":"ce4bhqp2rcd13ifvqhog","pricing_plan_id":"cebpf4jnsgd1na2vs0mg"},{"bike_id":"c5fc3fdf-6e20-4243-a3ff-b983bac1c9e4","system_id":"levelo_inurba_marseille","lat":43.32367,"lon":5.388836,"is_reserved":false,"is_disabled":false,"rental_uris":{"android":"levelo://app?vid=c5fc3fdf-6e20-4243-a3ff-b983bac1c9e4","ios":"levelo://app?vid=c5fc3fdf-6e20-4243-a3ff-b983bac1c9e4"},"vehicle_type_id":"4","last_reported":1721336854,"current_range_meters":6400,"station_id":"ce4bhqp2rcd13ifvqhog","pricing_plan_id":"cebpf4jnsgd1na2vs0mg"},{"bike_id":"2aeaaab9-ad82-417d-8e44-8375dffaf90a","system_id":"levelo_inurba_marseille","lat":43.30747,"lon":5.39261,"is_reserved":false,"is_disabled":false,"rental_uris":{"android":"levelo://app?vid=2aeaaab9-ad82-417d-8e44-8375dffaf90a","ios":"levelo://app?vid=2aeaaab9-ad82-417d-8e44-8375dffaf90a"},"vehicle_type_id":"4","last_reported":1721336854,"current_range_meters":16000,"station_id":"","pricing_plan_id":"cebpf4jnsgd1na2vs0mg"},{"bike_id":"cbc2e90a-d90b-4e78-87c0-e82d5dcd35d2","system_id":"levelo_inurba_marseille","lat":43.294163,"lon":5.374837,"is_reserved":false,"is_disabled":false,"rental_uris":{"android":"levelo://app?vid=cbc2e90a-d90b-4e78-87c0-e82d5dcd35d2","ios":"levelo://app?vid=cbc2e90a-d90b-4e78-87c0-e82d5dcd35d2"},"vehicle_type_id":"4","last_reported":1721336854,"current_range_meters":4800,"station_id":"","pricing_plan_id":"cebpf4jnsgd1na2vs0mg"},{"bike_id":"c9c75e03-90ab-493b-9331-51a49ff866a2","system_id":"levelo_inurba_marseille","lat":43.29602,"lon":5.381084,"is_reserved":false,"is_disabled":false,"rental_uris":{"android":"levelo://app?vid=c9c75e03-90ab-493b-9331-51a49ff866a2","ios":"levelo://app?vid=c9c75e03-90ab-493b-9331-51a49ff866a2"},"vehicle_type_id":"4","last_reported":1721336854,"current_range_meters":25200,"station_id":"ce4bgl12rcd13ifvqbo0","pricing_plan_id":"cebpf4jnsgd1na2vs0mg"},{"bike_id":"173b981a-d640-4a74-b027-e2173831fb80","system_id":"levelo_inurba_marseille","lat":43.29602,"lon":5.381084,"is_reserved":false,"is_disabled":false,"rental_uris":{"android":"levelo://app?vid=173b981a-d640-4a74-b027-e2173831fb80","ios":"levelo://app?vid=173b981a-d640-4a74-b027-e2173831fb80"},"vehicle_type_id":"4","last_reported":1721336854,"current_range_meters":25600,"station_id":"ce4bgl12rcd13ifvqbo0","pricing_plan_id":"cebpf4jnsgd1na2vs0mg"},{"bike_id":"8138a7f7-148d-4bea-bf02-1ccf01697dbe","system_id":"levelo_inurba_marseille","lat":43.292749,"lon":5.368402,"is_reserved":false,"is_disabled":false,"rental_uris":{"android":"levelo://app?vid=8138a7f7-148d-4bea-bf02-1ccf01697dbe","ios":"levelo://app?vid=8138a7f7-148d-4bea-bf02-1ccf01697dbe"},"vehicle_type_id":"4","last_reported":1721336854,"current_range_meters":0,"station_id":"ce4bhbp2rcd13ifvqesg","pricing_plan_id":"cebpf4jnsgd1na2vs0mg"},{"bike_id":"42880c5f-0374-44c5-8f6a-9475743bf4ac","system_id":"levelo_inurba_marseille","lat":43.309371,"lon":5.401449,"is_reserved":false,"is_disabled":false,"rental_uris":{"android":"levelo://app?vid=42880c5f-0374-44c5-8f6a-9475743bf4ac","ios":"levelo://app?vid=42880c5f-0374-44c5-8f6a-9475743bf4ac"},"vehicle_type_id":"4","last_reported":1721336854,"current_range_meters":15200,"station_id":"ce4bgvp2rcd13ifvqct0","pricing_plan_id":"cebpf4jnsgd1na2vs0mg"},{"bike_id":"24701c3d-5b2e-48b7-9a38-2ed8a7944397","system_id":"levelo_inurba_marseille","lat":43.29295,"lon":5.3746,"is_reserved":false,"is_disabled":false,"rental_uris":{"android":"levelo://app?vid=24701c3d-5b2e-48b7-9a38-2ed8a7944397","ios":"levelo://app?vid=24701c3d-5b2e-48b7-9a38-2ed8a7944397"},"vehicle_type_id":"4","last_reported":1721336854,"current_range_meters":1600,"station_id":"","pricing_plan_id":"cebpf4jnsgd1na2vs0mg"},{"bike_id":"34ce0709-684b-471e-b20a-b398b4153519","system_id":"levelo_inurba_marseille","lat":43.305994,"lon":5.393687,"is_reserved":false,"is_disabled":false,"rental_uris":{"android":"levelo://app?vid=34ce0709-684b-471e-b20a-b398b4153519","ios":"levelo://app?vid=34ce0709-684b-471e-b20a-b398b4153519"},"vehicle_type_id":"4","last_reported":1721336854,"current_range_meters":0,"station_id":"ce4bh0p2rcd13ifvqd80","pricing_plan_id":"cebpf4jnsgd1na2vs0mg"},{"bike_id":"a8f10877-e8e3-4807-80ae-32f332451fcc","system_id":"levelo_inurba_marseille","lat":43.2936,"lon":5.37854,"is_reserved":false,"is_disabled":false,"rental_uris":{"android":"levelo://app?vid=a8f10877-e8e3-4807-80ae-32f332451fcc","ios":"levelo://app?vid=a8f10877-e8e3-4807-80ae-32f332451fcc"},"vehicle_type_id":"4","last_reported":1721336854,"current_range_meters":0,"station_id":"ce4bgjh2rcd13ifvqbf0","pricing_plan_id":"cebpf4jnsgd1na2vs0mg"},{"bike_id":"47817b32-fce0-4397-bb81-43b3d472d1a6","system_id":"levelo_inurba_marseille","lat":43.32649,"lon":5.388623,"is_reserved":false,"is_disabled":false,"rental_uris":{"android":"levelo://app?vid=47817b32-fce0-4397-bb81-43b3d472d1a6","ios":"levelo://app?vid=47817b32-fce0-4397-bb81-43b3d472d1a6"},"vehicle_type_id":"4","last_reported":1721336854,"current_range_meters":2400,"station_id":"","pricing_plan_id":"cebpf4jnsgd1na2vs0mg"},{"bike_id":"f2eceb5e-5f26-4ee5-a803-1922e64a9728","system_id":"levelo_inurba_marseille","lat":43.292311,"lon":5.360731,"is_reserved":false,"is_disabled":false,"rental_uris":{"android":"levelo://app?vid=f2eceb5e-5f26-4ee5-a803-1922e64a9728","ios":"levelo://app?vid=f2eceb5e-5f26-4ee5-a803-1922e64a9728"},"vehicle_type_id":"4","last_reported":1721336854,"current_range_meters":24000,"station_id":"ce4bhbh2rcd13ifvqeqg","pricing_plan_id":"cebpf4jnsgd1na2vs0mg"},{"bike_id":"9b256cd9-a365-4bb7-99ca-293f6b3b4e54","system_id":"levelo_inurba_marseille","lat":43.29223,"lon":5.36075,"is_reserved":false,"is_disabled":false,"rental_uris":{"android":"levelo://app?vid=9b256cd9-a365-4bb7-99ca-293f6b3b4e54","ios":"levelo://app?vid=9b256cd9-a365-4bb7-99ca-293f6b3b4e54"},"vehicle_type_id":"4","last_reported":1721336854,"current_range_meters":0,"station_id":"ce4bhbh2rcd13ifvqeqg","pricing_plan_id":"cebpf4jnsgd1na2vs0mg"},{"bike_id":"48c2dc45-eb50-4a16-8f72-05e7b90938aa","system_id":"levelo_inurba_marseille","lat":43.298764,"lon":5.388973,"is_reserved":false,"is_disabled":false,"rental_uris":{"android":"levelo://app?vid=48c2dc45-eb50-4a16-8f72-05e7b90938aa","ios":"levelo://app?vid=48c2dc45-eb50-4a16-8f72-05e7b90938aa"},"vehicle_type_id":"4","last_reported":1721336854,"current_range_meters":25200,"station_id":"ce4bh392rcd13ifvqdl0","pricing_plan_id":"cebpf4jnsgd1na2vs0mg"},{"bike_id":"3f0d07db-c903-4fc3-a054-580670ace0ff","system_id":"levelo_inurba_marseille","lat":43.298764,"lon":5.388973,"is_reserved":false,"is_disabled":false,"rental_uris":{"android":"levelo://app?vid=3f0d07db-c903-4fc3-a054-580670ace0ff","ios":"levelo://app?vid=3f0d07db-c903-4fc3-a054-580670ace0ff"},"vehicle_type_id":"4","last_reported":1721336854,"current_range_meters":16400,"station_id":"ce4bh392rcd13ifvqdl0","pricing_plan_id":"cebpf4jnsgd1na2vs0mg"},{"bike_id":"6c963b60-d3b8-452e-8163-ba2aba5d814a","system_id":"levelo_inurba_marseille","lat":43.291671,"lon":5.371575,"is_reserved":false,"is_disabled":false,"rental_uris":{"android":"levelo://app?vid=6c963b60-d3b8-452e-8163-ba2aba5d814a","ios":"levelo://app?vid=6c963b60-d3b8-452e-8163-ba2aba5d814a"},"vehicle_type_id":"4","last_reported":1721336854,"current_range_meters":0,"station_id":"ce4bha92rcd13ifvqeh0","pricing_plan_id":"cebpf4jnsgd1na2vs0mg"},{"bike_id":"a70742e1-37a7-4c73-b3a9-30cf1feeb5b1","system_id":"levelo_inurba_marseille","lat":43.298764,"lon":5.388973,"is_reserved":false,"is_disabled":false,"rental_uris":{"android":"levelo://app?vid=a70742e1-37a7-4c73-b3a9-30cf1feeb5b1","ios":"levelo://app?vid=a70742e1-37a7-4c73-b3a9-30cf1feeb5b1"},"vehicle_type_id":"4","last_reported":1721336854,"current_range_meters":2000,"station_id":"ce4bh392rcd13ifvqdl0","pricing_plan_id":"cebpf4jnsgd1na2vs0mg"},{"bike_id":"cf732074-2be0-4509-98f1-37ff8e9b5cd5","system_id":"levelo_inurba_marseille","lat":43.298764,"lon":5.388973,"is_reserved":false,"is_disabled":false,"rental_uris":{"android":"levelo://app?vid=cf732074-2be0-4509-98f1-37ff8e9b5cd5","ios":"levelo://app?vid=cf732074-2be0-4509-98f1-37ff8e9b5cd5"},"vehicle_type_id":"4","last_reported":1721336854,"current_range_meters":0,"station_id":"ce4bh392rcd13ifvqdl0","pricing_plan_id":"cebpf4jnsgd1na2vs0mg"},{"bike_id":"361d53b5-6c49-4b9c-b87e-feb2378b9f9a","system_id":"levelo_inurba_marseille","lat":43.298764,"lon":5.388973,"is_reserved":false,"is_disabled":false,"rental_uris":{"android":"levelo://app?vid=361d53b5-6c49-4b9c-b87e-feb2378b9f9a","ios":"levelo://app?vid=361d53b5-6c49-4b9c-b87e-feb2378b9f9a"},"vehicle_type_id":"4","last_reported":1721336854,"current_range_meters":22400,"station_id":"ce4bh392rcd13ifvqdl0","pricing_plan_id":"cebpf4jnsgd1na2vs0mg"},{"bike_id":"d34487f0-31cd-4057-8287-3e5aacc31800","system_id":"levelo_inurba_marseille","lat":43.291671,"lon":5.371575,"is_reserved":false,"is_disabled":false,"rental_uris":{"android":"levelo://app?vid=d34487f0-31cd-4057-8287-3e5aacc31800","ios":"levelo://app?vid=d34487f0-31cd-4057-8287-3e5aacc31800"},"vehicle_type_id":"4","last_reported":1721336854,"current_range_meters":0,"station_id":"ce4bha92rcd13ifvqeh0","pricing_plan_id":"cebpf4jnsgd1na2vs0mg"},{"bike_id":"ef24ada0-99be-4aa2-86c3-e80a21d2d7ec","system_id":"levelo_inurba_marseille","lat":43.298764,"lon":5.388973,"is_reserved":false,"is_disabled":false,"rental_uris":{"android":"levelo://app?vid=ef24ada0-99be-4aa2-86c3-e80a21d2d7ec","ios":"levelo://app?vid=ef24ada0-99be-4aa2-86c3-e80a21d2d7ec"},"vehicle_type_id":"4","last_reported":1721336854,"current_range_meters":20400,"station_id":"ce4bh392rcd13ifvqdl0","pricing_plan_id":"cebpf4jnsgd1na2vs0mg"},{"bike_id":"808e28f0-e1b3-4972-8219-2afc9a36bb2e","system_id":"levelo_inurba_marseille","lat":43.313291,"lon":5.396838,"is_reserved":false,"is_disabled":false,"rental_uris":{"android":"levelo://app?vid=808e28f0-e1b3-4972-8219-2afc9a36bb2e","ios":"levelo://app?vid=808e28f0-e1b3-4972-8219-2afc9a36bb2e"},"vehicle_type_id":"4","last_reported":1721336854,"current_range_meters":13600,"station_id":"ce4bgvp2rcd13ifvqcu0","pricing_plan_id":"cebpf4jnsgd1na2vs0mg"},{"bike_id":"c6d77443-6315-4f37-8d2f-f8add7604441","system_id":"levelo_inurba_marseille","lat":43.290995,"lon":5.381361,"is_reserved":false,"is_disabled":false,"rental_uris":{"android":"levelo://app?vid=c6d77443-6315-4f37-8d2f-f8add7604441","ios":"levelo://app?vid=c6d77443-6315-4f37-8d2f-f8add7604441"},"vehicle_type_id":"4","last_reported":1721336854,"current_range_meters":0,"station_id":"ce4bh512rcd13ifvqe2g","pricing_plan_id":"cebpf4jnsgd1na2vs0mg"},{"bike_id":"a0f50e4b-426b-4c0b-a44e-d97c03151737","system_id":"levelo_inurba_marseille","lat":43.313291,"lon":5.396838,"is_reserved":false,"is_disabled":false,"rental_uris":{"android":"levelo://app?vid=a0f50e4b-426b-4c0b-a44e-d97c03151737","ios":"levelo://app?vid=a0f50e4b-426b-4c0b-a44e-d97c03151737"},"vehicle_type_id":"4","last_reported":1721336854,"current_range_meters":1200,"station_id":"ce4bgvp2rcd13ifvqcu0","pricing_plan_id":"cebpf4jnsgd1na2vs0mg"},{"bike_id":"4182fe1c-a865-4d17-a880-653cbecc42ca","system_id":"levelo_inurba_marseille","lat":43.313291,"lon":5.396838,"is_reserved":false,"is_disabled":false,"rental_uris":{"android":"levelo://app?vid=4182fe1c-a865-4d17-a880-653cbecc42ca","ios":"levelo://app?vid=4182fe1c-a865-4d17-a880-653cbecc42ca"},"vehicle_type_id":"4","last_reported":1721336854,"current_range_meters":28000,"station_id":"ce4bgvp2rcd13ifvqcu0","pricing_plan_id":"cebpf4jnsgd1na2vs0mg"},{"bike_id":"365d47f2-f8b0-4229-a755-e600b8c16949","system_id":"levelo_inurba_marseille","lat":43.309038,"lon":5.396546,"is_reserved":false,"is_disabled":false,"rental_uris":{"android":"levelo://app?vid=365d47f2-f8b0-4229-a755-e600b8c16949","ios":"levelo://app?vid=365d47f2-f8b0-4229-a755-e600b8c16949"},"vehicle_type_id":"4","last_reported":1721336854,"current_range_meters":29200,"station_id":"ce4bh012rcd13ifvqcv0","pricing_plan_id":"cebpf4jnsgd1na2vs0mg"},{"bike_id":"8baf8ce0-3047-4ae2-aee9-efeb943c565b","system_id":"levelo_inurba_marseille","lat":43.313291,"lon":5.396838,"is_reserved":false,"is_disabled":false,"rental_uris":{"android":"levelo://app?vid=8baf8ce0-3047-4ae2-aee9-efeb943c565b","ios":"levelo://app?vid=8baf8ce0-3047-4ae2-aee9-efeb943c565b"},"vehicle_type_id":"4","last_reported":1721336854,"current_range_meters":10000,"station_id":"ce4bgvp2rcd13ifvqcu0","pricing_plan_id":"cebpf4jnsgd1na2vs0mg"},{"bike_id":"b423d112-f5b1-4544-a952-ea08de7d418e","system_id":"levelo_inurba_marseille","lat":43.31322,"lon":5.39692,"is_reserved":false,"is_disabled":false,"rental_uris":{"android":"levelo://app?vid=b423d112-f5b1-4544-a952-ea08de7d418e","ios":"levelo://app?vid=b423d112-f5b1-4544-a952-ea08de7d418e"},"vehicle_type_id":"4","last_reported":1721336854,"current_range_meters":0,"station_id":"ce4bgvp2rcd13ifvqcu0","pricing_plan_id":"cebpf4jnsgd1na2vs0mg"},{"bike_id":"b4554ab1-1e80-4a3a-8307-25cd59b5fdf3","system_id":"levelo_inurba_marseille","lat":43.31323,"lon":5.39695,"is_reserved":false,"is_disabled":false,"rental_uris":{"android":"levelo://app?vid=b4554ab1-1e80-4a3a-8307-25cd59b5fdf3","ios":"levelo://app?vid=b4554ab1-1e80-4a3a-8307-25cd59b5fdf3"},"vehicle_type_id":"4","last_reported":1721336854,"current_range_meters":0,"station_id":"ce4bgvp2rcd13ifvqcu0","pricing_plan_id":"cebpf4jnsgd1na2vs0mg"},{"bike_id":"34aefc52-00ae-47c2-98cb-bfdfd81e818b","system_id":"levelo_inurba_marseille","lat":43.313291,"lon":5.396838,"is_reserved":false,"is_disabled":false,"rental_uris":{"android":"levelo://app?vid=34aefc52-00ae-47c2-98cb-bfdfd81e818b","ios":"levelo://app?vid=34aefc52-00ae-47c2-98cb-bfdfd81e818b"},"vehicle_type_id":"4","last_reported":1721336854,"current_range_meters":17600,"station_id":"ce4bgvp2rcd13ifvqcu0","pricing_plan_id":"cebpf4jnsgd1na2vs0mg"},{"bike_id":"fd8be52c-2fbc-479a-8d1d-a5693a96fda7","system_id":"levelo_inurba_marseille","lat":43.313291,"lon":5.396838,"is_reserved":false,"is_disabled":false,"rental_uris":{"android":"levelo://app?vid=fd8be52c-2fbc-479a-8d1d-a5693a96fda7","ios":"levelo://app?vid=fd8be52c-2fbc-479a-8d1d-a5693a96fda7"},"vehicle_type_id":"4","last_reported":1721336854,"current_range_meters":12800,"station_id":"ce4bgvp2rcd13ifvqcu0","pricing_plan_id":"cebpf4jnsgd1na2vs0mg"},{"bike_id":"4065b95a-65a4-42f9-bbd8-6159bef428f1","system_id":"levelo_inurba_marseille","lat":43.309047,"lon":5.396551,"is_reserved":false,"is_disabled":false,"rental_uris":{"android":"levelo://app?vid=4065b95a-65a4-42f9-bbd8-6159bef428f1","ios":"levelo://app?vid=4065b95a-65a4-42f9-bbd8-6159bef428f1"},"vehicle_type_id":"4","last_reported":1721336854,"current_range_meters":27600,"station_id":"ce4bh012rcd13ifvqcv0","pricing_plan_id":"cebpf4jnsgd1na2vs0mg"},{"bike_id":"66e1e4bf-6d51-4e56-bc6a-2f5b2c6b1cef","system_id":"levelo_inurba_marseille","lat":43.29529,"lon":5.385581,"is_reserved":false,"is_disabled":false,"rental_uris":{"android":"levelo://app?vid=66e1e4bf-6d51-4e56-bc6a-2f5b2c6b1cef","ios":"levelo://app?vid=66e1e4bf-6d51-4e56-bc6a-2f5b2c6b1cef"},"vehicle_type_id":"4","last_reported":1721336854,"current_range_meters":4800,"station_id":"ce4bgih2rcd13ifvqba0","pricing_plan_id":"cebpf4jnsgd1na2vs0mg"},{"bike_id":"bec98133-b7a2-45b2-aa53-89567d409a38","system_id":"levelo_inurba_marseille","lat":43.29529,"lon":5.385581,"is_reserved":false,"is_disabled":false,"rental_uris":{"android":"levelo://app?vid=bec98133-b7a2-45b2-aa53-89567d409a38","ios":"levelo://app?vid=bec98133-b7a2-45b2-aa53-89567d409a38"},"vehicle_type_id":"4","last_reported":1721336854,"current_range_meters":13600,"station_id":"ce4bgih2rcd13ifvqba0","pricing_plan_id":"cebpf4jnsgd1na2vs0mg"},{"bike_id":"c6df36cd-8abc-4e98-8d92-8952618acbde","system_id":"levelo_inurba_marseille","lat":43.295227,"lon":5.38542,"is_reserved":false,"is_disabled":false,"rental_uris":{"android":"levelo://app?vid=c6df36cd-8abc-4e98-8d92-8952618acbde","ios":"levelo://app?vid=c6df36cd-8abc-4e98-8d92-8952618acbde"},"vehicle_type_id":"4","last_reported":1721336854,"current_range_meters":0,"station_id":"ce4bgih2rcd13ifvqba0","pricing_plan_id":"cebpf4jnsgd1na2vs0mg"},{"bike_id":"78f0b931-d7da-474a-aa38-864bf2b44be9","system_id":"levelo_inurba_marseille","lat":43.29526,"lon":5.38551,"is_reserved":false,"is_disabled":false,"rental_uris":{"android":"levelo://app?vid=78f0b931-d7da-474a-aa38-864bf2b44be9","ios":"levelo://app?vid=78f0b931-d7da-474a-aa38-864bf2b44be9"},"vehicle_type_id":"4","last_reported":1721336854,"current_range_meters":2800,"station_id":"ce4bgih2rcd13ifvqba0","pricing_plan_id":"cebpf4jnsgd1na2vs0mg"},{"bike_id":"682b8e3c-f9e8-4012-be60-0cbe31168562","system_id":"levelo_inurba_marseille","lat":43.291539,"lon":5.355708,"is_reserved":false,"is_disabled":false,"rental_uris":{"android":"levelo://app?vid=682b8e3c-f9e8-4012-be60-0cbe31168562","ios":"levelo://app?vid=682b8e3c-f9e8-4012-be60-0cbe31168562"},"vehicle_type_id":"4","last_reported":1721336854,"current_range_meters":19600,"station_id":"","pricing_plan_id":"cebpf4jnsgd1na2vs0mg"},{"bike_id":"cd69f030-7e39-4610-8f9f-6cb157573570","system_id":"levelo_inurba_marseille","lat":43.302008,"lon":5.394694,"is_reserved":false,"is_disabled":false,"rental_uris":{"android":"levelo://app?vid=cd69f030-7e39-4610-8f9f-6cb157573570","ios":"levelo://app?vid=cd69f030-7e39-4610-8f9f-6cb157573570"},"vehicle_type_id":"4","last_reported":1721336854,"current_range_meters":25600,"station_id":"ce4bh0p2rcd13ifvqd70","pricing_plan_id":"cebpf4jnsgd1na2vs0mg"},{"bike_id":"26862f88-ca3f-4bdc-b9df-9ddc57f36a4c","system_id":"levelo_inurba_marseille","lat":43.290624,"lon":5.359245,"is_reserved":false,"is_disabled":false,"rental_uris":{"android":"levelo://app?vid=26862f88-ca3f-4bdc-b9df-9ddc57f36a4c","ios":"levelo://app?vid=26862f88-ca3f-4bdc-b9df-9ddc57f36a4c"},"vehicle_type_id":"4","last_reported":1721336854,"current_range_meters":29600,"station_id":"ce4bha92rcd13ifvqeg0","pricing_plan_id":"cebpf4jnsgd1na2vs0mg"},{"bike_id":"ac123960-23a3-412e-a9a0-322e0506719c","system_id":"levelo_inurba_marseille","lat":43.29419,"lon":5.38617,"is_reserved":false,"is_disabled":false,"rental_uris":{"android":"levelo://app?vid=ac123960-23a3-412e-a9a0-322e0506719c","ios":"levelo://app?vid=ac123960-23a3-412e-a9a0-322e0506719c"},"vehicle_type_id":"4","last_reported":1721336854,"current_range_meters":1200,"station_id":"ce4bh2h2rcd13ifvqdh0","pricing_plan_id":"cebpf4jnsgd1na2vs0mg"},{"bike_id":"502d381b-8499-43c1-ba77-64ba6cb62e55","system_id":"levelo_inurba_marseille","lat":43.289468,"lon":5.363719,"is_reserved":false,"is_disabled":false,"rental_uris":{"android":"levelo://app?vid=502d381b-8499-43c1-ba77-64ba6cb62e55","ios":"levelo://app?vid=502d381b-8499-43c1-ba77-64ba6cb62e55"},"vehicle_type_id":"4","last_reported":1721336854,"current_range_meters":26000,"station_id":"ce4bhc92rcd13ifvqetg","pricing_plan_id":"cebpf4jnsgd1na2vs0mg"},{"bike_id":"96ef53ea-94e9-497c-b3bc-db3af9a33fca","system_id":"levelo_inurba_marseille","lat":43.29413,"lon":5.38615,"is_reserved":false,"is_disabled":false,"rental_uris":{"android":"levelo://app?vid=96ef53ea-94e9-497c-b3bc-db3af9a33fca","ios":"levelo://app?vid=96ef53ea-94e9-497c-b3bc-db3af9a33fca"},"vehicle_type_id":"4","last_reported":1721336854,"current_range_meters":19200,"station_id":"ce4bh2h2rcd13ifvqdh0","pricing_plan_id":"cebpf4jnsgd1na2vs0mg"},{"bike_id":"ece40cb1-54fb-4e94-b22a-d4e315564307","system_id":"levelo_inurba_marseille","lat":43.29417,"lon":5.38623,"is_reserved":false,"is_disabled":false,"rental_uris":{"android":"levelo://app?vid=ece40cb1-54fb-4e94-b22a-d4e315564307","ios":"levelo://app?vid=ece40cb1-54fb-4e94-b22a-d4e315564307"},"vehicle_type_id":"4","last_reported":1721336854,"current_range_meters":16400,"station_id":"ce4bh2h2rcd13ifvqdh0","pricing_plan_id":"cebpf4jnsgd1na2vs0mg"},{"bike_id":"4042489f-519b-4246-9d26-feb815c80822","system_id":"levelo_inurba_marseille","lat":43.290319,"lon":5.375732,"is_reserved":false,"is_disabled":false,"rental_uris":{"android":"levelo://app?vid=4042489f-519b-4246-9d26-feb815c80822","ios":"levelo://app?vid=4042489f-519b-4246-9d26-feb815c80822"},"vehicle_type_id":"4","last_reported":1721336854,"current_range_meters":6400,"station_id":"ce4bh692rcd13ifvqe90","pricing_plan_id":"cebpf4jnsgd1na2vs0mg"},{"bike_id":"bceaa1a0-a975-4901-a1ab-62efa0495b6e","system_id":"levelo_inurba_marseille","lat":43.29412,"lon":5.38615,"is_reserved":false,"is_disabled":false,"rental_uris":{"android":"levelo://app?vid=bceaa1a0-a975-4901-a1ab-62efa0495b6e","ios":"levelo://app?vid=bceaa1a0-a975-4901-a1ab-62efa0495b6e"},"vehicle_type_id":"4","last_reported":1721336854,"current_range_meters":0,"station_id":"ce4bh2h2rcd13ifvqdh0","pricing_plan_id":"cebpf4jnsgd1na2vs0mg"},{"bike_id":"18ed2441-8e7f-4f8d-a85a-3141d3c8fafa","system_id":"levelo_inurba_marseille","lat":43.298764,"lon":5.388973,"is_reserved":false,"is_disabled":false,"rental_uris":{"android":"levelo://app?vid=18ed2441-8e7f-4f8d-a85a-3141d3c8fafa","ios":"levelo://app?vid=18ed2441-8e7f-4f8d-a85a-3141d3c8fafa"},"vehicle_type_id":"4","last_reported":1721336854,"current_range_meters":18400,"station_id":"ce4bh392rcd13ifvqdl0","pricing_plan_id":"cebpf4jnsgd1na2vs0mg"},{"bike_id":"3055d85a-b0c1-44b7-b06e-5bc5919bead5","system_id":"levelo_inurba_marseille","lat":43.29417,"lon":5.38626,"is_reserved":false,"is_disabled":false,"rental_uris":{"android":"levelo://app?vid=3055d85a-b0c1-44b7-b06e-5bc5919bead5","ios":"levelo://app?vid=3055d85a-b0c1-44b7-b06e-5bc5919bead5"},"vehicle_type_id":"4","last_reported":1721336854,"current_range_meters":0,"station_id":"ce4bh2h2rcd13ifvqdh0","pricing_plan_id":"cebpf4jnsgd1na2vs0mg"},{"bike_id":"fff433d3-a650-4bf8-b643-07caa0daa3ec","system_id":"levelo_inurba_marseille","lat":43.29418,"lon":5.38629,"is_reserved":false,"is_disabled":false,"rental_uris":{"android":"levelo://app?vid=fff433d3-a650-4bf8-b643-07caa0daa3ec","ios":"levelo://app?vid=fff433d3-a650-4bf8-b643-07caa0daa3ec"},"vehicle_type_id":"4","last_reported":1721336854,"current_range_meters":0,"station_id":"ce4bh2h2rcd13ifvqdh0","pricing_plan_id":"cebpf4jnsgd1na2vs0mg"},{"bike_id":"5c3c2b81-9f0b-4969-a1b6-fb53f917d314","system_id":"levelo_inurba_marseille","lat":43.29414,"lon":5.38623,"is_reserved":false,"is_disabled":false,"rental_uris":{"android":"levelo://app?vid=5c3c2b81-9f0b-4969-a1b6-fb53f917d314","ios":"levelo://app?vid=5c3c2b81-9f0b-4969-a1b6-fb53f917d314"},"vehicle_type_id":"4","last_reported":1721336854,"current_range_meters":6000,"station_id":"ce4bh2h2rcd13ifvqdh0","pricing_plan_id":"cebpf4jnsgd1na2vs0mg"},{"bike_id":"29ea35e0-bdc3-40c2-b69b-203f01e8dcca","system_id":"levelo_inurba_marseille","lat":43.29417,"lon":5.3863,"is_reserved":false,"is_disabled":false,"rental_uris":{"android":"levelo://app?vid=29ea35e0-bdc3-40c2-b69b-203f01e8dcca","ios":"levelo://app?vid=29ea35e0-bdc3-40c2-b69b-203f01e8dcca"},"vehicle_type_id":"4","last_reported":1721336854,"current_range_meters":1600,"station_id":"ce4bh2h2rcd13ifvqdh0","pricing_plan_id":"cebpf4jnsgd1na2vs0mg"},{"bike_id":"2c3bee46-1bc4-4398-9b85-c8e8ecb46faf","system_id":"levelo_inurba_marseille","lat":43.29412,"lon":5.38622,"is_reserved":false,"is_disabled":false,"rental_uris":{"android":"levelo://app?vid=2c3bee46-1bc4-4398-9b85-c8e8ecb46faf","ios":"levelo://app?vid=2c3bee46-1bc4-4398-9b85-c8e8ecb46faf"},"vehicle_type_id":"4","last_reported":1721336854,"current_range_meters":0,"station_id":"ce4bh2h2rcd13ifvqdh0","pricing_plan_id":"cebpf4jnsgd1na2vs0mg"},{"bike_id":"0a7eaa15-7eec-4b6a-8780-813b96712e6c","system_id":"levelo_inurba_marseille","lat":43.29415,"lon":5.38628,"is_reserved":false,"is_disabled":false,"rental_uris":{"android":"levelo://app?vid=0a7eaa15-7eec-4b6a-8780-813b96712e6c","ios":"levelo://app?vid=0a7eaa15-7eec-4b6a-8780-813b96712e6c"},"vehicle_type_id":"4","last_reported":1721336854,"current_range_meters":9200,"station_id":"ce4bh2h2rcd13ifvqdh0","pricing_plan_id":"cebpf4jnsgd1na2vs0mg"},{"bike_id":"748cced9-c241-4aad-99b9-99f8f2d4ca61","system_id":"levelo_inurba_marseille","lat":43.29414,"lon":5.38627,"is_reserved":false,"is_disabled":false,"rental_uris":{"android":"levelo://app?vid=748cced9-c241-4aad-99b9-99f8f2d4ca61","ios":"levelo://app?vid=748cced9-c241-4aad-99b9-99f8f2d4ca61"},"vehicle_type_id":"4","last_reported":1721336854,"current_range_meters":0,"station_id":"ce4bh2h2rcd13ifvqdh0","pricing_plan_id":"cebpf4jnsgd1na2vs0mg"},{"bike_id":"f602595c-ae18-4dd5-837b-d2d3b40b7985","system_id":"levelo_inurba_marseille","lat":43.294153,"lon":5.386305,"is_reserved":false,"is_disabled":false,"rental_uris":{"android":"levelo://app?vid=f602595c-ae18-4dd5-837b-d2d3b40b7985","ios":"levelo://app?vid=f602595c-ae18-4dd5-837b-d2d3b40b7985"},"vehicle_type_id":"4","last_reported":1721336854,"current_range_meters":19600,"station_id":"ce4bh2h2rcd13ifvqdh0","pricing_plan_id":"cebpf4jnsgd1na2vs0mg"},{"bike_id":"c47b72c9-91a8-4e08-a247-5b50e1b90994","system_id":"levelo_inurba_marseille","lat":43.289184,"lon":5.366408,"is_reserved":false,"is_disabled":false,"rental_uris":{"android":"levelo://app?vid=c47b72c9-91a8-4e08-a247-5b50e1b90994","ios":"levelo://app?vid=c47b72c9-91a8-4e08-a247-5b50e1b90994"},"vehicle_type_id":"4","last_reported":1721336854,"current_range_meters":0,"station_id":"ce4bhap2rcd13ifvqek0","pricing_plan_id":"cebpf4jnsgd1na2vs0mg"},{"bike_id":"3e5f6044-46b8-41d3-92f7-31f632db2a17","system_id":"levelo_inurba_marseille","lat":43.292682,"lon":5.384481,"is_reserved":false,"is_disabled":false,"rental_uris":{"android":"levelo://app?vid=3e5f6044-46b8-41d3-92f7-31f632db2a17","ios":"levelo://app?vid=3e5f6044-46b8-41d3-92f7-31f632db2a17"},"vehicle_type_id":"4","last_reported":1721336854,"current_range_meters":31200,"station_id":"ce4bh692rcd13ifvqea0","pricing_plan_id":"cebpf4jnsgd1na2vs0mg"},{"bike_id":"44dea83d-432d-4792-8980-180228f3f2fd","system_id":"levelo_inurba_marseille","lat":43.30419,"lon":5.39745,"is_reserved":false,"is_disabled":false,"rental_uris":{"android":"levelo://app?vid=44dea83d-432d-4792-8980-180228f3f2fd","ios":"levelo://app?vid=44dea83d-432d-4792-8980-180228f3f2fd"},"vehicle_type_id":"4","last_reported":1721336854,"current_range_meters":0,"station_id":"ce4bh092rcd13ifvqd20","pricing_plan_id":"cebpf4jnsgd1na2vs0mg"},{"bike_id":"7d37ace4-9b6c-4ce7-a880-e6add57cd2be","system_id":"levelo_inurba_marseille","lat":43.29267,"lon":5.38453,"is_reserved":false,"is_disabled":false,"rental_uris":{"android":"levelo://app?vid=7d37ace4-9b6c-4ce7-a880-e6add57cd2be","ios":"levelo://app?vid=7d37ace4-9b6c-4ce7-a880-e6add57cd2be"},"vehicle_type_id":"4","last_reported":1721336854,"current_range_meters":30800,"station_id":"ce4bh692rcd13ifvqea0","pricing_plan_id":"cebpf4jnsgd1na2vs0mg"},{"bike_id":"bdf8ba17-113b-4551-974b-79f8b1531271","system_id":"levelo_inurba_marseille","lat":43.2926,"lon":5.3845,"is_reserved":false,"is_disabled":false,"rental_uris":{"android":"levelo://app?vid=bdf8ba17-113b-4551-974b-79f8b1531271","ios":"levelo://app?vid=bdf8ba17-113b-4551-974b-79f8b1531271"},"vehicle_type_id":"4","last_reported":1721336854,"current_range_meters":0,"station_id":"ce4bh692rcd13ifvqea0","pricing_plan_id":"cebpf4jnsgd1na2vs0mg"},{"bike_id":"1ec5211e-6bc0-4184-8670-65aca6f222a5","system_id":"levelo_inurba_marseille","lat":43.29259,"lon":5.38453,"is_reserved":false,"is_disabled":false,"rental_uris":{"android":"levelo://app?vid=1ec5211e-6bc0-4184-8670-65aca6f222a5","ios":"levelo://app?vid=1ec5211e-6bc0-4184-8670-65aca6f222a5"},"vehicle_type_id":"4","last_reported":1721336854,"current_range_meters":30800,"station_id":"ce4bh692rcd13ifvqea0","pricing_plan_id":"cebpf4jnsgd1na2vs0mg"},{"bike_id":"49843af7-ac85-44e3-a90f-009a1e541609","system_id":"levelo_inurba_marseille","lat":43.29255,"lon":5.38452,"is_reserved":false,"is_disabled":false,"rental_uris":{"android":"levelo://app?vid=49843af7-ac85-44e3-a90f-009a1e541609","ios":"levelo://app?vid=49843af7-ac85-44e3-a90f-009a1e541609"},"vehicle_type_id":"4","last_reported":1721336854,"current_range_meters":31200,"station_id":"ce4bh692rcd13ifvqea0","pricing_plan_id":"cebpf4jnsgd1na2vs0mg"},{"bike_id":"5feeec8d-ac50-4a77-a914-39320c5907da","system_id":"levelo_inurba_marseille","lat":43.2925,"lon":5.38447,"is_reserved":false,"is_disabled":false,"rental_uris":{"android":"levelo://app?vid=5feeec8d-ac50-4a77-a914-39320c5907da","ios":"levelo://app?vid=5feeec8d-ac50-4a77-a914-39320c5907da"},"vehicle_type_id":"4","last_reported":1721336854,"current_range_meters":31200,"station_id":"ce4bh692rcd13ifvqea0","pricing_plan_id":"cebpf4jnsgd1na2vs0mg"},{"bike_id":"0541e02c-1e71-465b-900b-ad109f1e0173","system_id":"levelo_inurba_marseille","lat":43.290995,"lon":5.381361,"is_reserved":false,"is_disabled":false,"rental_uris":{"android":"levelo://app?vid=0541e02c-1e71-465b-900b-ad109f1e0173","ios":"levelo://app?vid=0541e02c-1e71-465b-900b-ad109f1e0173"},"vehicle_type_id":"4","last_reported":1721336854,"current_range_meters":12800,"station_id":"ce4bh512rcd13ifvqe2g","pricing_plan_id":"cebpf4jnsgd1na2vs0mg"},{"bike_id":"611d30b8-8fbf-403e-ac97-27003f10f74a","system_id":"levelo_inurba_marseille","lat":43.297815,"lon":5.393548,"is_reserved":false,"is_disabled":false,"rental_uris":{"android":"levelo://app?vid=611d30b8-8fbf-403e-ac97-27003f10f74a","ios":"levelo://app?vid=611d30b8-8fbf-403e-ac97-27003f10f74a"},"vehicle_type_id":"4","last_reported":1721336854,"current_range_meters":6400,"station_id":"chh1huq6cuj3fo74tm60","pricing_plan_id":"cebpf4jnsgd1na2vs0mg"},{"bike_id":"a39d3d75-d8fb-489a-91f7-eecf025994c7","system_id":"levelo_inurba_marseille","lat":43.295169,"lon":5.390426,"is_reserved":false,"is_disabled":false,"rental_uris":{"android":"levelo://app?vid=a39d3d75-d8fb-489a-91f7-eecf025994c7","ios":"levelo://app?vid=a39d3d75-d8fb-489a-91f7-eecf025994c7"},"vehicle_type_id":"4","last_reported":1721336854,"current_range_meters":400,"station_id":"ce4bh3p2rcd13ifvqdp0","pricing_plan_id":"cebpf4jnsgd1na2vs0mg"},{"bike_id":"02813619-596e-4ee1-b0f8-8df4c96a01c2","system_id":"levelo_inurba_marseille","lat":43.297807,"lon":5.393533,"is_reserved":false,"is_disabled":false,"rental_uris":{"android":"levelo://app?vid=02813619-596e-4ee1-b0f8-8df4c96a01c2","ios":"levelo://app?vid=02813619-596e-4ee1-b0f8-8df4c96a01c2"},"vehicle_type_id":"4","last_reported":1721336854,"current_range_meters":6000,"station_id":"chh1huq6cuj3fo74tm60","pricing_plan_id":"cebpf4jnsgd1na2vs0mg"},{"bike_id":"d7b7ea34-6605-4af5-9ebc-e8b99a8f6d65","system_id":"levelo_inurba_marseille","lat":43.330442,"lon":5.389148,"is_reserved":false,"is_disabled":false,"rental_uris":{"android":"levelo://app?vid=d7b7ea34-6605-4af5-9ebc-e8b99a8f6d65","ios":"levelo://app?vid=d7b7ea34-6605-4af5-9ebc-e8b99a8f6d65"},"vehicle_type_id":"4","last_reported":1721336854,"current_range_meters":21600,"station_id":"ce4bhr92rcd13ifvqhrg","pricing_plan_id":"cebpf4jnsgd1na2vs0mg"},{"bike_id":"a10d8976-a76c-45ba-aa14-6f3b465289f5","system_id":"levelo_inurba_marseille","lat":43.29784,"lon":5.39348,"is_reserved":false,"is_disabled":false,"rental_uris":{"android":"levelo://app?vid=a10d8976-a76c-45ba-aa14-6f3b465289f5","ios":"levelo://app?vid=a10d8976-a76c-45ba-aa14-6f3b465289f5"},"vehicle_type_id":"4","last_reported":1721336854,"current_range_meters":0,"station_id":"chh1huq6cuj3fo74tm60","pricing_plan_id":"cebpf4jnsgd1na2vs0mg"},{"bike_id":"a9ad4661-91cd-4451-a392-958fb6078a81","system_id":"levelo_inurba_marseille","lat":43.330442,"lon":5.389148,"is_reserved":false,"is_disabled":false,"rental_uris":{"android":"levelo://app?vid=a9ad4661-91cd-4451-a392-958fb6078a81","ios":"levelo://app?vid=a9ad4661-91cd-4451-a392-958fb6078a81"},"vehicle_type_id":"4","last_reported":1721336854,"current_range_meters":12000,"station_id":"ce4bhr92rcd13ifvqhrg","pricing_plan_id":"cebpf4jnsgd1na2vs0mg"},{"bike_id":"76b67f71-14ca-4292-bbc8-c8bef0671c9b","system_id":"levelo_inurba_marseille","lat":43.297807,"lon":5.393533,"is_reserved":false,"is_disabled":false,"rental_uris":{"android":"levelo://app?vid=76b67f71-14ca-4292-bbc8-c8bef0671c9b","ios":"levelo://app?vid=76b67f71-14ca-4292-bbc8-c8bef0671c9b"},"vehicle_type_id":"4","last_reported":1721336854,"current_range_meters":16800,"station_id":"chh1huq6cuj3fo74tm60","pricing_plan_id":"cebpf4jnsgd1na2vs0mg"},{"bike_id":"62e5dd16-6a60-4306-b948-f41db0af116f","system_id":"levelo_inurba_marseille","lat":43.3302,"lon":5.39038,"is_reserved":false,"is_disabled":false,"rental_uris":{"android":"levelo://app?vid=62e5dd16-6a60-4306-b948-f41db0af116f","ios":"levelo://app?vid=62e5dd16-6a60-4306-b948-f41db0af116f"},"vehicle_type_id":"4","last_reported":1721336854,"current_range_meters":31200,"station_id":"ce4bhr92rcd13ifvqhrg","pricing_plan_id":"cebpf4jnsgd1na2vs0mg"},{"bike_id":"f29299a6-afa0-4213-9f35-6bfaf8a78c44","system_id":"levelo_inurba_marseille","lat":43.33019,"lon":5.3904,"is_reserved":false,"is_disabled":false,"rental_uris":{"android":"levelo://app?vid=f29299a6-afa0-4213-9f35-6bfaf8a78c44","ios":"levelo://app?vid=f29299a6-afa0-4213-9f35-6bfaf8a78c44"},"vehicle_type_id":"4","last_reported":1721336854,"current_range_meters":19600,"station_id":"ce4bhr92rcd13ifvqhrg","pricing_plan_id":"cebpf4jnsgd1na2vs0mg"},{"bike_id":"d3d897d2-e119-4082-b48f-a6170b8e8e73","system_id":"levelo_inurba_marseille","lat":43.33022,"lon":5.39039,"is_reserved":false,"is_disabled":false,"rental_uris":{"android":"levelo://app?vid=d3d897d2-e119-4082-b48f-a6170b8e8e73","ios":"levelo://app?vid=d3d897d2-e119-4082-b48f-a6170b8e8e73"},"vehicle_type_id":"4","last_reported":1721336854,"current_range_meters":21600,"station_id":"ce4bhr92rcd13ifvqhrg","pricing_plan_id":"cebpf4jnsgd1na2vs0mg"},{"bike_id":"d95a9fc1-4d8b-4522-8de7-1ddf01b4ba13","system_id":"levelo_inurba_marseille","lat":43.33022,"lon":5.3904,"is_reserved":false,"is_disabled":false,"rental_uris":{"android":"levelo://app?vid=d95a9fc1-4d8b-4522-8de7-1ddf01b4ba13","ios":"levelo://app?vid=d95a9fc1-4d8b-4522-8de7-1ddf01b4ba13"},"vehicle_type_id":"4","last_reported":1721336854,"current_range_meters":4400,"station_id":"ce4bhr92rcd13ifvqhrg","pricing_plan_id":"cebpf4jnsgd1na2vs0mg"},{"bike_id":"88594f8b-d435-4f0f-a7f4-449ae581634e","system_id":"levelo_inurba_marseille","lat":43.33023,"lon":5.39039,"is_reserved":false,"is_disabled":false,"rental_uris":{"android":"levelo://app?vid=88594f8b-d435-4f0f-a7f4-449ae581634e","ios":"levelo://app?vid=88594f8b-d435-4f0f-a7f4-449ae581634e"},"vehicle_type_id":"4","last_reported":1721336854,"current_range_meters":31200,"station_id":"ce4bhr92rcd13ifvqhrg","pricing_plan_id":"cebpf4jnsgd1na2vs0mg"},{"bike_id":"9726a15c-0542-41ad-9c4c-82134287cdc2","system_id":"levelo_inurba_marseille","lat":43.297807,"lon":5.393533,"is_reserved":false,"is_disabled":false,"rental_uris":{"android":"levelo://app?vid=9726a15c-0542-41ad-9c4c-82134287cdc2","ios":"levelo://app?vid=9726a15c-0542-41ad-9c4c-82134287cdc2"},"vehicle_type_id":"4","last_reported":1721336854,"current_range_meters":12800,"station_id":"chh1huq6cuj3fo74tm60","pricing_plan_id":"cebpf4jnsgd1na2vs0mg"},{"bike_id":"33abef7f-4fcd-4615-851e-dda3d8ab84c3","system_id":"levelo_inurba_marseille","lat":43.330442,"lon":5.389148,"is_reserved":false,"is_disabled":false,"rental_uris":{"android":"levelo://app?vid=33abef7f-4fcd-4615-851e-dda3d8ab84c3","ios":"levelo://app?vid=33abef7f-4fcd-4615-851e-dda3d8ab84c3"},"vehicle_type_id":"4","last_reported":1721336854,"current_range_meters":20800,"station_id":"ce4bhr92rcd13ifvqhrg","pricing_plan_id":"cebpf4jnsgd1na2vs0mg"},{"bike_id":"9eddf5fe-63fc-4930-8995-0209b42d2410","system_id":"levelo_inurba_marseille","lat":43.330442,"lon":5.389148,"is_reserved":false,"is_disabled":false,"rental_uris":{"android":"levelo://app?vid=9eddf5fe-63fc-4930-8995-0209b42d2410","ios":"levelo://app?vid=9eddf5fe-63fc-4930-8995-0209b42d2410"},"vehicle_type_id":"4","last_reported":1721336854,"current_range_meters":25600,"station_id":"ce4bhr92rcd13ifvqhrg","pricing_plan_id":"cebpf4jnsgd1na2vs0mg"},{"bike_id":"8d0aeca1-60bf-4514-ad24-02e94937587c","system_id":"levelo_inurba_marseille","lat":43.330442,"lon":5.389148,"is_reserved":false,"is_disabled":false,"rental_uris":{"android":"levelo://app?vid=8d0aeca1-60bf-4514-ad24-02e94937587c","ios":"levelo://app?vid=8d0aeca1-60bf-4514-ad24-02e94937587c"},"vehicle_type_id":"4","last_reported":1721336854,"current_range_meters":12000,"station_id":"ce4bhr92rcd13ifvqhrg","pricing_plan_id":"cebpf4jnsgd1na2vs0mg"},{"bike_id":"8a06b9d3-2808-4674-8d92-52e94026c358","system_id":"levelo_inurba_marseille","lat":43.29529,"lon":5.39048,"is_reserved":false,"is_disabled":false,"rental_uris":{"android":"levelo://app?vid=8a06b9d3-2808-4674-8d92-52e94026c358","ios":"levelo://app?vid=8a06b9d3-2808-4674-8d92-52e94026c358"},"vehicle_type_id":"4","last_reported":1721336854,"current_range_meters":9200,"station_id":"ce4bh3p2rcd13ifvqdp0","pricing_plan_id":"cebpf4jnsgd1na2vs0mg"},{"bike_id":"9de5f53c-6fc7-4e9a-9c4f-b830640f4835","system_id":"levelo_inurba_marseille","lat":43.33024,"lon":5.39042,"is_reserved":false,"is_disabled":false,"rental_uris":{"android":"levelo://app?vid=9de5f53c-6fc7-4e9a-9c4f-b830640f4835","ios":"levelo://app?vid=9de5f53c-6fc7-4e9a-9c4f-b830640f4835"},"vehicle_type_id":"4","last_reported":1721336854,"current_range_meters":30400,"station_id":"ce4bhr92rcd13ifvqhrg","pricing_plan_id":"cebpf4jnsgd1na2vs0mg"},{"bike_id":"54e7880f-b84e-49a5-af68-766f16cce7f2","system_id":"levelo_inurba_marseille","lat":43.330442,"lon":5.389148,"is_reserved":false,"is_disabled":false,"rental_uris":{"android":"levelo://app?vid=54e7880f-b84e-49a5-af68-766f16cce7f2","ios":"levelo://app?vid=54e7880f-b84e-49a5-af68-766f16cce7f2"},"vehicle_type_id":"4","last_reported":1721336854,"current_range_meters":26400,"station_id":"ce4bhr92rcd13ifvqhrg","pricing_plan_id":"cebpf4jnsgd1na2vs0mg"},{"bike_id":"45899d14-93d8-4261-bd61-482f2d6637b3","system_id":"levelo_inurba_marseille","lat":43.330442,"lon":5.389148,"is_reserved":false,"is_disabled":false,"rental_uris":{"android":"levelo://app?vid=45899d14-93d8-4261-bd61-482f2d6637b3","ios":"levelo://app?vid=45899d14-93d8-4261-bd61-482f2d6637b3"},"vehicle_type_id":"4","last_reported":1721336854,"current_range_meters":22000,"station_id":"ce4bhr92rcd13ifvqhrg","pricing_plan_id":"cebpf4jnsgd1na2vs0mg"},{"bike_id":"2ba20c6d-0e1f-4b06-98ae-5fbeed8c91d4","system_id":"levelo_inurba_marseille","lat":43.295169,"lon":5.390426,"is_reserved":false,"is_disabled":false,"rental_uris":{"android":"levelo://app?vid=2ba20c6d-0e1f-4b06-98ae-5fbeed8c91d4","ios":"levelo://app?vid=2ba20c6d-0e1f-4b06-98ae-5fbeed8c91d4"},"vehicle_type_id":"4","last_reported":1721336854,"current_range_meters":5200,"station_id":"ce4bh3p2rcd13ifvqdp0","pricing_plan_id":"cebpf4jnsgd1na2vs0mg"},{"bike_id":"8285cc45-34fd-4b1f-8e8b-2397afa1cc6e","system_id":"levelo_inurba_marseille","lat":43.29017,"lon":5.38142,"is_reserved":false,"is_disabled":false,"rental_uris":{"android":"levelo://app?vid=8285cc45-34fd-4b1f-8e8b-2397afa1cc6e","ios":"levelo://app?vid=8285cc45-34fd-4b1f-8e8b-2397afa1cc6e"},"vehicle_type_id":"4","last_reported":1721336854,"current_range_meters":0,"station_id":"ce4bh4p2rcd13ifvqe1g","pricing_plan_id":"cebpf4jnsgd1na2vs0mg"},{"bike_id":"a4ee2d92-495c-4607-8bdb-33b5d5e55ada","system_id":"levelo_inurba_marseille","lat":43.308012,"lon":5.381511,"is_reserved":false,"is_disabled":false,"rental_uris":{"android":"levelo://app?vid=a4ee2d92-495c-4607-8bdb-33b5d5e55ada","ios":"levelo://app?vid=a4ee2d92-495c-4607-8bdb-33b5d5e55ada"},"vehicle_type_id":"4","last_reported":1721336854,"current_range_meters":18800,"station_id":"ce4bgt12rcd13ifvqce0","pricing_plan_id":"cebpf4jnsgd1na2vs0mg"},{"bike_id":"a6af206f-6cbc-44a7-bb3f-4274a3587e11","system_id":"levelo_inurba_marseille","lat":43.312609,"lon":5.401662,"is_reserved":false,"is_disabled":false,"rental_uris":{"android":"levelo://app?vid=a6af206f-6cbc-44a7-bb3f-4274a3587e11","ios":"levelo://app?vid=a6af206f-6cbc-44a7-bb3f-4274a3587e11"},"vehicle_type_id":"4","last_reported":1721336854,"current_range_meters":26800,"station_id":"ce4bh092rcd13ifvqd30","pricing_plan_id":"cebpf4jnsgd1na2vs0mg"},{"bike_id":"52bbf952-ed42-4af3-a26d-af3c1a264dff","system_id":"levelo_inurba_marseille","lat":43.312609,"lon":5.401662,"is_reserved":false,"is_disabled":false,"rental_uris":{"android":"levelo://app?vid=52bbf952-ed42-4af3-a26d-af3c1a264dff","ios":"levelo://app?vid=52bbf952-ed42-4af3-a26d-af3c1a264dff"},"vehicle_type_id":"4","last_reported":1721336854,"current_range_meters":22800,"station_id":"ce4bh092rcd13ifvqd30","pricing_plan_id":"cebpf4jnsgd1na2vs0mg"},{"bike_id":"2d3088a0-3050-486f-98d5-9f7b8e92d027","system_id":"levelo_inurba_marseille","lat":43.31275,"lon":5.4017,"is_reserved":false,"is_disabled":false,"rental_uris":{"android":"levelo://app?vid=2d3088a0-3050-486f-98d5-9f7b8e92d027","ios":"levelo://app?vid=2d3088a0-3050-486f-98d5-9f7b8e92d027"},"vehicle_type_id":"4","last_reported":1721336854,"current_range_meters":4400,"station_id":"ce4bh092rcd13ifvqd30","pricing_plan_id":"cebpf4jnsgd1na2vs0mg"},{"bike_id":"d702b83b-02ae-421b-a367-b37c792c73c1","system_id":"levelo_inurba_marseille","lat":43.323464,"lon":5.406297,"is_reserved":false,"is_disabled":false,"rental_uris":{"android":"levelo://app?vid=d702b83b-02ae-421b-a367-b37c792c73c1","ios":"levelo://app?vid=d702b83b-02ae-421b-a367-b37c792c73c1"},"vehicle_type_id":"4","last_reported":1721336854,"current_range_meters":1600,"station_id":"ce4bhq92rcd13ifvqhjg","pricing_plan_id":"cebpf4jnsgd1na2vs0mg"},{"bike_id":"f7e90ce6-84a1-4b24-9d1c-db0618efebb8","system_id":"levelo_inurba_marseille","lat":43.309371,"lon":5.401449,"is_reserved":false,"is_disabled":false,"rental_uris":{"android":"levelo://app?vid=f7e90ce6-84a1-4b24-9d1c-db0618efebb8","ios":"levelo://app?vid=f7e90ce6-84a1-4b24-9d1c-db0618efebb8"},"vehicle_type_id":"4","last_reported":1721336854,"current_range_meters":28400,"station_id":"ce4bgvp2rcd13ifvqct0","pricing_plan_id":"cebpf4jnsgd1na2vs0mg"},{"bike_id":"0a0ac213-bce4-4f37-801c-59667cc2af42","system_id":"levelo_inurba_marseille","lat":43.312609,"lon":5.401662,"is_reserved":false,"is_disabled":false,"rental_uris":{"android":"levelo://app?vid=0a0ac213-bce4-4f37-801c-59667cc2af42","ios":"levelo://app?vid=0a0ac213-bce4-4f37-801c-59667cc2af42"},"vehicle_type_id":"4","last_reported":1721336854,"current_range_meters":6000,"station_id":"ce4bh092rcd13ifvqd30","pricing_plan_id":"cebpf4jnsgd1na2vs0mg"},{"bike_id":"fc1985b8-5314-41fe-8e24-abd61fd01251","system_id":"levelo_inurba_marseille","lat":43.337466,"lon":5.374604,"is_reserved":false,"is_disabled":false,"rental_uris":{"android":"levelo://app?vid=fc1985b8-5314-41fe-8e24-abd61fd01251","ios":"levelo://app?vid=fc1985b8-5314-41fe-8e24-abd61fd01251"},"vehicle_type_id":"4","last_reported":1721336854,"current_range_meters":27200,"station_id":"","pricing_plan_id":"cebpf4jnsgd1na2vs0mg"},{"bike_id":"1aa90c05-6d54-443c-8fe7-139f03d2afd6","system_id":"levelo_inurba_marseille","lat":43.316828,"lon":5.404723,"is_reserved":false,"is_disabled":false,"rental_uris":{"android":"levelo://app?vid=1aa90c05-6d54-443c-8fe7-139f03d2afd6","ios":"levelo://app?vid=1aa90c05-6d54-443c-8fe7-139f03d2afd6"},"vehicle_type_id":"4","last_reported":1721336854,"current_range_meters":11200,"station_id":"ce4bh012rcd13ifvqd00","pricing_plan_id":"cebpf4jnsgd1na2vs0mg"},{"bike_id":"241d666c-dfd7-4426-8dfc-fba405eb68f7","system_id":"levelo_inurba_marseille","lat":43.337521,"lon":5.374456,"is_reserved":false,"is_disabled":false,"rental_uris":{"android":"levelo://app?vid=241d666c-dfd7-4426-8dfc-fba405eb68f7","ios":"levelo://app?vid=241d666c-dfd7-4426-8dfc-fba405eb68f7"},"vehicle_type_id":"4","last_reported":1721336854,"current_range_meters":30000,"station_id":"","pricing_plan_id":"cebpf4jnsgd1na2vs0mg"},{"bike_id":"49b12528-7ed9-421c-bb6c-e2925b510d09","system_id":"levelo_inurba_marseille","lat":43.30646,"lon":5.40072,"is_reserved":false,"is_disabled":false,"rental_uris":{"android":"levelo://app?vid=49b12528-7ed9-421c-bb6c-e2925b510d09","ios":"levelo://app?vid=49b12528-7ed9-421c-bb6c-e2925b510d09"},"vehicle_type_id":"4","last_reported":1721336854,"current_range_meters":14800,"station_id":"ce4bh112rcd13ifvqda0","pricing_plan_id":"cebpf4jnsgd1na2vs0mg"},{"bike_id":"f5b7abbf-8471-4cad-a4ff-f2f349f089d0","system_id":"levelo_inurba_marseille","lat":43.312609,"lon":5.401662,"is_reserved":false,"is_disabled":false,"rental_uris":{"android":"levelo://app?vid=f5b7abbf-8471-4cad-a4ff-f2f349f089d0","ios":"levelo://app?vid=f5b7abbf-8471-4cad-a4ff-f2f349f089d0"},"vehicle_type_id":"4","last_reported":1721336854,"current_range_meters":13600,"station_id":"ce4bh092rcd13ifvqd30","pricing_plan_id":"cebpf4jnsgd1na2vs0mg"},{"bike_id":"909a0143-4437-4668-b559-444729e87f55","system_id":"levelo_inurba_marseille","lat":43.3064,"lon":5.40078,"is_reserved":false,"is_disabled":false,"rental_uris":{"android":"levelo://app?vid=909a0143-4437-4668-b559-444729e87f55","ios":"levelo://app?vid=909a0143-4437-4668-b559-444729e87f55"},"vehicle_type_id":"4","last_reported":1721336854,"current_range_meters":12400,"station_id":"ce4bh112rcd13ifvqda0","pricing_plan_id":"cebpf4jnsgd1na2vs0mg"},