{"last_updated":1732720210,"ttl":60,"version":"2.2","data":{"bikes":[{"bike_id":"c6a7d785-3704-497f-a4a1-3b79a59f06ec","system_id":"levelo_inurba_marseille","lat":43.25724,"lon":5.41114,"is_reserved":false,"is_disabled":false,"rental_uris":{"android":"levelo://app?vid=c6a7d785-3704-497f-a4a1-3b79a59f06ec","ios":"levelo://app?vid=c6a7d785-3704-497f-a4a1-3b79a59f06ec"},"vehicle_type_id":"4","last_reported":1732720210,"current_range_meters":38000,"station_id":"ce4bhkp2rcd13ifvqgd0","pricing_plan_id":"cebpf4jnsgd1na2vs0mg"},{"bike_id":"bf2cd157-98d0-4e6e-818c-0734b30a6a82","system_id":"levelo_inurba_marseille","lat":43.27812,"lon":5.40717,"is_reserved":false,"is_disabled":false,"rental_uris":{"android":"levelo://app?vid=bf2cd157-98d0-4e6e-818c-0734b30a6a82","ios":"levelo://app?vid=bf2cd157-98d0-4e6e-818c-0734b30a6a82"},"vehicle_type_id":"4","last_reported":1732720210,"current_range_meters":38800,"station_id":"ce4bhnh2rcd13ifvqgtg","pricing_plan_id":"cebpf4jnsgd1na2vs0mg"},{"bike_id":"c1d94251-b53c-46d7-93de-bbb29dd97559","system_id":"levelo_inurba_marseille","lat":43.27671,"lon":5.38873,"is_reserved":false,"is_disabled":true,"rental_uris":{"android":"levelo://app?vid=c1d94251-b53c-46d7-93de-bbb29dd97559","ios":"levelo://app?vid=c1d94251-b53c-46d7-93de-bbb29dd97559"},"vehicle_type_id":"4","last_reported":1732720210,"current_range_meters":0,"station_id":"ce4bhi12rcd13ifvqfo0","pricing_plan_id":"cebpf4jnsgd1na2vs0mg"},{"bike_id":"b856c8b4-412d-4c25-bdd4-e6b29aed04cb","system_id":"levelo_inurba_marseille","lat":43.22932,"lon":5.35384,"is_reserved":false,"is_disabled":false,"rental_uris":{"android":"levelo://app?vid=b856c8b4-412d-4c25-bdd4-e6b29aed04cb","ios":"levelo://app?vid=b856c8b4-412d-4c25-bdd4-e6b29aed04cb"},"vehicle_type_id":"4","last_reported":1732720210,"current_range_meters":39200,"station_id":"cpo3532slgdg3j2ikp40","pricing_plan_id":"cebpf4jnsgd1na2vs0mg"},{"bike_id":"45db2d49-c49e-4bc8-ac6a-71877e2259f2","system_id":"levelo_inurba_marseille","lat":43.3015,"lon":5.37417,"is_reserved":false,"is_disabled":false,"rental_uris":{"android":"levelo://app?vid=45db2d49-c49e-4bc8-ac6a-71877e2259f2","ios":"levelo://app?vid=45db2d49-c49e-4bc8-ac6a-71877e2259f2"},"vehicle_type_id":"4","last_reported":1732720210,"current_range_meters":4000,"station_id":"ce4bgs92rcd13ifvqcc0","pricing_plan_id":"cebpf4jnsgd1na2vs0mg"},{"bike_id":"1032ce3a-a198-4015-b990-3d81a0d23297","system_id":"levelo_inurba_marseille","lat":43.30876,"lon":5.3965,"is_reserved":false,"is_disabled":false,"rental_uris":{"android":"levelo://app?vid=1032ce3a-a198-4015-b990-3d81a0d23297","ios":"levelo://app?vid=1032ce3a-a198-4015-b990-3d81a0d23297"},"vehicle_type_id":"4","last_reported":1732720210,"current_range_meters":20000,"station_id":"ce4bh012rcd13ifvqcv0","pricing_plan_id":"cebpf4jnsgd1na2vs0mg"},{"bike_id":"d2cf7a78-7eb1-4d32-aa77-ae8ed51e3e3f","system_id":"levelo_inurba_marseille","lat":43.33765,"lon":5.37422,"is_reserved":false,"is_disabled":false,"rental_uris":{"android":"levelo://app?vid=d2cf7a78-7eb1-4d32-aa77-ae8ed51e3e3f","ios":"levelo://app?vid=d2cf7a78-7eb1-4d32-aa77-ae8ed51e3e3f"},"vehicle_type_id":"4","last_reported":1732720210,"current_range_meters":17600,"station_id":"","pricing_plan_id":"cebpf4jnsgd1na2vs0mg"},{"bike_id":"1375f2a3-ec68-426b-a53e-6a666ff8f86c","system_id":"levelo_inurba_marseille","lat":43.23153,"lon":5.43709,"is_reserved":false,"is_disabled":false,"rental_uris":{"android":"levelo://app?vid=1375f2a3-ec68-426b-a53e-6a666ff8f86c","ios":"levelo://app?vid=1375f2a3-ec68-426b-a53e-6a666ff8f86c"},"vehicle_type_id":"4","last_reported":1732720210,"current_range_meters":16400,"station_id":"ce4bhmp2rcd13ifvqgog","pricing_plan_id":"cebpf4jnsgd1na2vs0mg"},{"bike_id":"9f918681-d053-47d2-9acf-7fbdfbdb8974","system_id":"levelo_inurba_marseille","lat":43.29558,"lon":5.42299,"is_reserved":false,"is_disabled":false,"rental_uris":{"android":"levelo://app?vid=9f918681-d053-47d2-9acf-7fbdfbdb8974","ios":"levelo://app?vid=9f918681-d053-47d2-9acf-7fbdfbdb8974"},"vehicle_type_id":"4","last_reported":1732720210,"current_range_meters":36400,"station_id":"ce4bhph2rcd13ifvqhdg","pricing_plan_id":"cebpf4jnsgd1na2vs0mg"},{"bike_id":"b9a0aae8-3643-4015-8291-c14f700c4269","system_id":"levelo_inurba_marseille","lat":43.28674,"lon":5.38659,"is_reserved":false,"is_disabled":false,"rental_uris":{"android":"levelo://app?vid=b9a0aae8-3643-4015-8291-c14f700c4269","ios":"levelo://app?vid=b9a0aae8-3643-4015-8291-c14f700c4269"},"vehicle_type_id":"4","last_reported":1732720210,"current_range_meters":37600,"station_id":"ce4bh492rcd13ifvqdug","pricing_plan_id":"cebpf4jnsgd1na2vs0mg"},{"bike_id":"d64715bc-4e6d-46d6-be8f-810319bb1e30","system_id":"levelo_inurba_marseille","lat":43.26198,"lon":5.37448,"is_reserved":false,"is_disabled":false,"rental_uris":{"android":"levelo://app?vid=d64715bc-4e6d-46d6-be8f-810319bb1e30","ios":"levelo://app?vid=d64715bc-4e6d-46d6-be8f-810319bb1e30"},"vehicle_type_id":"4","last_reported":1732720210,"current_range_meters":10800,"station_id":"ce4bhgp2rcd13ifvqfc0","pricing_plan_id":"cebpf4jnsgd1na2vs0mg"},{"bike_id":"e2fcd88a-5b50-4059-b110-891c7847ea5f","system_id":"levelo_inurba_marseille","lat":43.30666,"lon":5.36859,"is_reserved":false,"is_disabled":true,"rental_uris":{"android":"levelo://app?vid=e2fcd88a-5b50-4059-b110-891c7847ea5f","ios":"levelo://app?vid=e2fcd88a-5b50-4059-b110-891c7847ea5f"},"vehicle_type_id":"4","last_reported":1732720210,"current_range_meters":0,"station_id":"","pricing_plan_id":"cebpf4jnsgd1na2vs0mg"},{"bike_id":"8bb74c7f-865d-4888-a056-e8481b298d1e","system_id":"levelo_inurba_marseille","lat":43.29528,"lon":5.38555,"is_reserved":false,"is_disabled":false,"rental_uris":{"android":"levelo://app?vid=8bb74c7f-865d-4888-a056-e8481b298d1e","ios":"levelo://app?vid=8bb74c7f-865d-4888-a056-e8481b298d1e"},"vehicle_type_id":"4","last_reported":1732720210,"current_range_meters":7200,"station_id":"ce4bgih2rcd13ifvqba0","pricing_plan_id":"cebpf4jnsgd1na2vs0mg"},{"bike_id":"92b1738d-d810-4623-ba1d-c7f013fa2064","system_id":"levelo_inurba_marseille","lat":43.30813,"lon":5.3814,"is_reserved":false,"is_disabled":false,"rental_uris":{"android":"levelo://app?vid=92b1738d-d810-4623-ba1d-c7f013fa2064","ios":"levelo://app?vid=92b1738d-d810-4623-ba1d-c7f013fa2064"},"vehicle_type_id":"4","last_reported":1732720210,"current_range_meters":8400,"station_id":"ce4bgt12rcd13ifvqce0","pricing_plan_id":"cebpf4jnsgd1na2vs0mg"},{"bike_id":"ce15a521-8a1d-47b7-92c8-091ca367d00e","system_id":"levelo_inurba_marseille","lat":43.3375,"lon":5.3746,"is_reserved":false,"is_disabled":false,"rental_uris":{"android":"levelo://app?vid=ce15a521-8a1d-47b7-92c8-091ca367d00e","ios":"levelo://app?vid=ce15a521-8a1d-47b7-92c8-091ca367d00e"},"vehicle_type_id":"4","last_reported":1732720210,"current_range_meters":38800,"station_id":"","pricing_plan_id":"cebpf4jnsgd1na2vs0mg"},{"bike_id":"04eefef5-6e7b-4152-baff-09d7961f031b","system_id":"levelo_inurba_marseille","lat":43.29197,"lon":5.35797,"is_reserved":false,"is_disabled":false,"rental_uris":{"android":"levelo://app?vid=04eefef5-6e7b-4152-baff-09d7961f031b","ios":"levelo://app?vid=04eefef5-6e7b-4152-baff-09d7961f031b"},"vehicle_type_id":"4","last_reported":1732720210,"current_range_meters":38800,"station_id":"ce4bhb12rcd13ifvqel0","pricing_plan_id":"cebpf4jnsgd1na2vs0mg"},{"bike_id":"101bd858-0c95-4f1f-8674-e0221d40e23e","system_id":"levelo_inurba_marseille","lat":43.25006,"lon":5.38929,"is_reserved":false,"is_disabled":false,"rental_uris":{"android":"levelo://app?vid=101bd858-0c95-4f1f-8674-e0221d40e23e","ios":"levelo://app?vid=101bd858-0c95-4f1f-8674-e0221d40e23e"},"vehicle_type_id":"4","last_reported":1732720210,"current_range_meters":30400,"station_id":"ce4bhgp2rcd13ifvqfd0","pricing_plan_id":"cebpf4jnsgd1na2vs0mg"},{"bike_id":"1495d352-cfb3-4c8d-b30b-9d9281b27ae3","system_id":"levelo_inurba_marseille","lat":43.26788,"lon":5.3941,"is_reserved":false,"is_disabled":true,"rental_uris":{"android":"levelo://app?vid=1495d352-cfb3-4c8d-b30b-9d9281b27ae3","ios":"levelo://app?vid=1495d352-cfb3-4c8d-b30b-9d9281b27ae3"},"vehicle_type_id":"4","last_reported":1732720210,"current_range_meters":0,"station_id":"ce4bhh12rcd13ifvqfg0","pricing_plan_id":"cebpf4jnsgd1na2vs0mg"},{"bike_id":"3e9b30dc-de30-42e0-a64e-99f18af2e1ed","system_id":"levelo_inurba_marseille","lat":43.29037,"lon":5.37557,"is_reserved":false,"is_disabled":false,"rental_uris":{"android":"levelo://app?vid=3e9b30dc-de30-42e0-a64e-99f18af2e1ed","ios":"levelo://app?vid=3e9b30dc-de30-42e0-a64e-99f18af2e1ed"},"vehicle_type_id":"4","last_reported":1732720210,"current_range_meters":8400,"station_id":"ce4bh692rcd13ifvqe90","pricing_plan_id":"cebpf4jnsgd1na2vs0mg"},{"bike_id":"0ee15fb6-a30a-4976-b676-dd8cc8f45df7","system_id":"levelo_inurba_marseille","lat":43.29731,"lon":5.37677,"is_reserved":false,"is_disabled":true,"rental_uris":{"android":"levelo://app?vid=0ee15fb6-a30a-4976-b676-dd8cc8f45df7","ios":"levelo://app?vid=0ee15fb6-a30a-4976-b676-dd8cc8f45df7"},"vehicle_type_id":"4","last_reported":1732720210,"current_range_meters":18000,"station_id":"ce4bgkh2rcd13ifvqbl0","pricing_plan_id":"cebpf4jnsgd1na2vs0mg"},{"bike_id":"963c20ac-df01-48b3-a2e6-5005bf43eb5c","system_id":"levelo_inurba_marseille","lat":43.26576,"lon":5.3901,"is_reserved":false,"is_disabled":false,"rental_uris":{"android":"levelo://app?vid=963c20ac-df01-48b3-a2e6-5005bf43eb5c","ios":"levelo://app?vid=963c20ac-df01-48b3-a2e6-5005bf43eb5c"},"vehicle_type_id":"4","last_reported":1732720210,"current_range_meters":14000,"station_id":"ce4bhe12rcd13ifvqf30","pricing_plan_id":"cebpf4jnsgd1na2vs0mg"},{"bike_id":"1a29b0d7-d35e-4186-9c6a-528f56e25fa6","system_id":"levelo_inurba_marseille","lat":43.25825,"lon":5.39436,"is_reserved":false,"is_disabled":false,"rental_uris":{"android":"levelo://app?vid=1a29b0d7-d35e-4186-9c6a-528f56e25fa6","ios":"levelo://app?vid=1a29b0d7-d35e-4186-9c6a-528f56e25fa6"},"vehicle_type_id":"4","last_reported":1732720210,"current_range_meters":38800,"station_id":"ce4bhip2rcd13ifvqft0","pricing_plan_id":"cebpf4jnsgd1na2vs0mg"},{"bike_id":"05a8d76a-7bfc-4032-92c9-e14d6cf9913d","system_id":"levelo_inurba_marseille","lat":43.29536,"lon":5.38544,"is_reserved":false,"is_disabled":false,"rental_uris":{"android":"levelo://app?vid=05a8d76a-7bfc-4032-92c9-e14d6cf9913d","ios":"levelo://app?vid=05a8d76a-7bfc-4032-92c9-e14d6cf9913d"},"vehicle_type_id":"4","last_reported":1732720210,"current_range_meters":15200,"station_id":"ce4bgih2rcd13ifvqba0","pricing_plan_id":"cebpf4jnsgd1na2vs0mg"},{"bike_id":"dd4d37fd-527d-4c39-afdd-3d019c17cebf","system_id":"levelo_inurba_marseille","lat":43.28613,"lon":5.37072,"is_reserved":false,"is_disabled":false,"rental_uris":{"android":"levelo://app?vid=dd4d37fd-527d-4c39-afdd-3d019c17cebf","ios":"levelo://app?vid=dd4d37fd-527d-4c39-afdd-3d019c17cebf"},"vehicle_type_id":"4","last_reported":1732720210,"current_range_meters":39200,"station_id":"ce4bht12rcd13ifvqi60","pricing_plan_id":"cebpf4jnsgd1na2vs0mg"},{"bike_id":"06a5f958-bb59-43f5-ba72-490eb65aa2eb","system_id":"levelo_inurba_marseille","lat":43.2509,"lon":5.39529,"is_reserved":false,"is_disabled":false,"rental_uris":{"android":"levelo://app?vid=06a5f958-bb59-43f5-ba72-490eb65aa2eb","ios":"levelo://app?vid=06a5f958-bb59-43f5-ba72-490eb65aa2eb"},"vehicle_type_id":"4","last_reported":1732720210,"current_range_meters":25200,"station_id":"ce4bhm12rcd13ifvqgkg","pricing_plan_id":"cebpf4jnsgd1na2vs0mg"},{"bike_id":"6f7949e1-de87-4a49-8620-fec27e04447f","system_id":"levelo_inurba_marseille","lat":43.3374,"lon":5.39195,"is_reserved":false,"is_disabled":false,"rental_uris":{"android":"levelo://app?vid=6f7949e1-de87-4a49-8620-fec27e04447f","ios":"levelo://app?vid=6f7949e1-de87-4a49-8620-fec27e04447f"},"vehicle_type_id":"4","last_reported":1732720210,"current_range_meters":38400,"station_id":"ce4bhr92rcd13ifvqhsg","pricing_plan_id":"cebpf4jnsgd1na2vs0mg"},{"bike_id":"1d9db610-abe4-48ea-b7f8-e9f037362166","system_id":"levelo_inurba_marseille","lat":43.26951,"lon":5.40252,"is_reserved":false,"is_disabled":false,"rental_uris":{"android":"levelo://app?vid=1d9db610-abe4-48ea-b7f8-e9f037362166","ios":"levelo://app?vid=1d9db610-abe4-48ea-b7f8-e9f037362166"},"vehicle_type_id":"4","last_reported":1732720210,"current_range_meters":2800,"station_id":"cjm6bp8fraef2m0cb0m0","pricing_plan_id":"cebpf4jnsgd1na2vs0mg"},{"bike_id":"f2fa2020-9cd0-4982-bfc0-3462ba85ff4a","system_id":"levelo_inurba_marseille","lat":43.29711,"lon":5.37701,"is_reserved":false,"is_disabled":false,"rental_uris":{"android":"levelo://app?vid=f2fa2020-9cd0-4982-bfc0-3462ba85ff4a","ios":"levelo://app?vid=f2fa2020-9cd0-4982-bfc0-3462ba85ff4a"},"vehicle_type_id":"4","last_reported":1732720210,"current_range_meters":32000,"station_id":"ce4bgkh2rcd13ifvqbl0","pricing_plan_id":"cebpf4jnsgd1na2vs0mg"},{"bike_id":"f07b3753-16bd-4951-bde5-2dd0a3d96763","system_id":"levelo_inurba_marseille","lat":43.26197,"lon":5.37444,"is_reserved":false,"is_disabled":false,"rental_uris":{"android":"levelo://app?vid=f07b3753-16bd-4951-bde5-2dd0a3d96763","ios":"levelo://app?vid=f07b3753-16bd-4951-bde5-2dd0a3d96763"},"vehicle_type_id":"4","last_reported":1732720210,"current_range_meters":38800,"station_id":"ce4bhgp2rcd13ifvqfc0","pricing_plan_id":"cebpf4jnsgd1na2vs0mg"},{"bike_id":"7ceb6b74-5b6e-4e1e-a365-65d30753b993","system_id":"levelo_inurba_marseille","lat":43.3055,"lon":5.36705,"is_reserved":false,"is_disabled":false,"rental_uris":{"android":"levelo://app?vid=7ceb6b74-5b6e-4e1e-a365-65d30753b993","ios":"levelo://app?vid=7ceb6b74-5b6e-4e1e-a365-65d30753b993"},"vehicle_type_id":"4","last_reported":1732720210,"current_range_meters":32400,"station_id":"ce4bgrp2rcd13ifvqc9g","pricing_plan_id":"cebpf4jnsgd1na2vs0mg"},{"bike_id":"88c0a23c-decf-469d-95fc-e70f9cd8eb3b","system_id":"levelo_inurba_marseille","lat":43.33755,"lon":5.37448,"is_reserved":false,"is_disabled":false,"rental_uris":{"android":"levelo://app?vid=88c0a23c-decf-469d-95fc-e70f9cd8eb3b","ios":"levelo://app?vid=88c0a23c-decf-469d-95fc-e70f9cd8eb3b"},"vehicle_type_id":"4","last_reported":1732720210,"current_range_meters":35600,"station_id":"","pricing_plan_id":"cebpf4jnsgd1na2vs0mg"},{"bike_id":"f6fdeb4e-9e96-4980-8c4f-17aee86ae9db","system_id":"levelo_inurba_marseille","lat":43.28735,"lon":5.37391,"is_reserved":false,"is_disabled":false,"rental_uris":{"android":"levelo://app?vid=f6fdeb4e-9e96-4980-8c4f-17aee86ae9db","ios":"levelo://app?vid=f6fdeb4e-9e96-4980-8c4f-17aee86ae9db"},"vehicle_type_id":"4","last_reported":1732720210,"current_range_meters":24000,"station_id":"ce4bh3p2rcd13ifvqdq0","pricing_plan_id":"cebpf4jnsgd1na2vs0mg"},{"bike_id":"d93067c3-4848-4450-992d-7925dfe41b1d","system_id":"levelo_inurba_marseille","lat":43.25574,"lon":5.38234,"is_reserved":false,"is_disabled":true,"rental_uris":{"android":"levelo://app?vid=d93067c3-4848-4450-992d-7925dfe41b1d","ios":"levelo://app?vid=d93067c3-4848-4450-992d-7925dfe41b1d"},"vehicle_type_id":"4","last_reported":1732720210,"current_range_meters":0,"station_id":"ce4bhih2rcd13ifvqfs0","pricing_plan_id":"cebpf4jnsgd1na2vs0mg"},{"bike_id":"4162670d-578b-416f-ba54-e799fa0680c6","system_id":"levelo_inurba_marseille","lat":43.24654,"lon":5.38887,"is_reserved":false,"is_disabled":false,"rental_uris":{"android":"levelo://app?vid=4162670d-578b-416f-ba54-e799fa0680c6","ios":"levelo://app?vid=4162670d-578b-416f-ba54-e799fa0680c6"},"vehicle_type_id":"4","last_reported":1732720210,"current_range_meters":38000,"station_id":"ce4bhg12rcd13ifvqf60","pricing_plan_id":"cebpf4jnsgd1na2vs0mg"},{"bike_id":"0c74749b-1514-4af1-9832-f6605821b559","system_id":"levelo_inurba_marseille","lat":43.31728,"lon":5.42415,"is_reserved":false,"is_disabled":false,"rental_uris":{"android":"levelo://app?vid=0c74749b-1514-4af1-9832-f6605821b559","ios":"levelo://app?vid=0c74749b-1514-4af1-9832-f6605821b559"},"vehicle_type_id":"4","last_reported":1732720210,"current_range_meters":37600,"station_id":"ce4bhp92rcd13ifvqhbg","pricing_plan_id":"cebpf4jnsgd1na2vs0mg"},{"bike_id":"03c4627a-7ddc-4cad-84e1-fa951407f058","system_id":"levelo_inurba_marseille","lat":43.26549,"lon":5.37289,"is_reserved":false,"is_disabled":true,"rental_uris":{"android":"levelo://app?vid=03c4627a-7ddc-4cad-84e1-fa951407f058","ios":"levelo://app?vid=03c4627a-7ddc-4cad-84e1-fa951407f058"},"vehicle_type_id":"4","last_reported":1732720210,"current_range_meters":0,"station_id":"ce4bhg12rcd13ifvqf70","pricing_plan_id":"cebpf4jnsgd1na2vs0mg"},{"bike_id":"ec6ef646-52c8-4507-96b5-18a47396c863","system_id":"levelo_inurba_marseille","lat":43.25579,"lon":5.38242,"is_reserved":false,"is_disabled":false,"rental_uris":{"android":"levelo://app?vid=ec6ef646-52c8-4507-96b5-18a47396c863","ios":"levelo://app?vid=ec6ef646-52c8-4507-96b5-18a47396c863"},"vehicle_type_id":"4","last_reported":1732720210,"current_range_meters":9200,"station_id":"ce4bhih2rcd13ifvqfs0","pricing_plan_id":"cebpf4jnsgd1na2vs0mg"},{"bike_id":"f65a73cd-64d0-4424-8c33-569459282668","system_id":"levelo_inurba_marseille","lat":43.29834,"lon":5.36298,"is_reserved":false,"is_disabled":false,"rental_uris":{"android":"levelo://app?vid=f65a73cd-64d0-4424-8c33-569459282668","ios":"levelo://app?vid=f65a73cd-64d0-4424-8c33-569459282668"},"vehicle_type_id":"4","last_reported":1732720210,"current_range_meters":39200,"station_id":"ce4bgpp2rcd13ifvqc3g","pricing_plan_id":"cebpf4jnsgd1na2vs0mg"},{"bike_id":"71b78d7b-dda5-4267-b684-532542b7b394","system_id":"levelo_inurba_marseille","lat":43.2841,"lon":5.349861,"is_reserved":false,"is_disabled":false,"rental_uris":{"android":"levelo://app?vid=71b78d7b-dda5-4267-b684-532542b7b394","ios":"levelo://app?vid=71b78d7b-dda5-4267-b684-532542b7b394"},"vehicle_type_id":"4","last_reported":1732720210,"current_range_meters":38800,"station_id":"ce4bhbh2rcd13ifvqepg","pricing_plan_id":"cebpf4jnsgd1na2vs0mg"},{"bike_id":"390d013a-0cdb-4a26-852a-b48bfc75bf41","system_id":"levelo_inurba_marseille","lat":43.29801,"lon":5.39354,"is_reserved":false,"is_disabled":false,"rental_uris":{"android":"levelo://app?vid=390d013a-0cdb-4a26-852a-b48bfc75bf41","ios":"levelo://app?vid=390d013a-0cdb-4a26-852a-b48bfc75bf41"},"vehicle_type_id":"4","last_reported":1732720210,"current_range_meters":34000,"station_id":"chh1huq6cuj3fo74tm60","pricing_plan_id":"cebpf4jnsgd1na2vs0mg"},{"bike_id":"a04ad84c-0274-457e-a2a3-807c11604d95","system_id":"levelo_inurba_marseille","lat":43.30538,"lon":5.36706,"is_reserved":false,"is_disabled":false,"rental_uris":{"android":"levelo://app?vid=a04ad84c-0274-457e-a2a3-807c11604d95","ios":"levelo://app?vid=a04ad84c-0274-457e-a2a3-807c11604d95"},"vehicle_type_id":"4","last_reported":1732720210,"current_range_meters":18800,"station_id":"ce4bgrp2rcd13ifvqc9g","pricing_plan_id":"cebpf4jnsgd1na2vs0mg"},{"bike_id":"60805424-f6d9-425f-a22a-0ed30bcd92d3","system_id":"levelo_inurba_marseille","lat":43.28152,"lon":5.4264,"is_reserved":false,"is_disabled":false,"rental_uris":{"android":"levelo://app?vid=60805424-f6d9-425f-a22a-0ed30bcd92d3","ios":"levelo://app?vid=60805424-f6d9-425f-a22a-0ed30bcd92d3"},"vehicle_type_id":"4","last_reported":1732720210,"current_range_meters":38800,"station_id":"ce4bhnh2rcd13ifvqgug","pricing_plan_id":"cebpf4jnsgd1na2vs0mg"},{"bike_id":"7f531aa6-0fc1-4c1c-a9c2-c6cabe62ba4a","system_id":"levelo_inurba_marseille","lat":43.29379,"lon":5.3785,"is_reserved":false,"is_disabled":false,"rental_uris":{"android":"levelo://app?vid=7f531aa6-0fc1-4c1c-a9c2-c6cabe62ba4a","ios":"levelo://app?vid=7f531aa6-0fc1-4c1c-a9c2-c6cabe62ba4a"},"vehicle_type_id":"4","last_reported":1732720210,"current_range_meters":2000,"station_id":"ce4bgjh2rcd13ifvqbf0","pricing_plan_id":"cebpf4jnsgd1na2vs0mg"},{"bike_id":"ec25b052-f7e8-4a7c-9264-ee534ad72629","system_id":"levelo_inurba_marseille","lat":43.24542,"lon":5.39526,"is_reserved":false,"is_disabled":false,"rental_uris":{"android":"levelo://app?vid=ec25b052-f7e8-4a7c-9264-ee534ad72629","ios":"levelo://app?vid=ec25b052-f7e8-4a7c-9264-ee534ad72629"},"vehicle_type_id":"4","last_reported":1732720210,"current_range_meters":4800,"station_id":"ce4bhlp2rcd13ifvqgjg","pricing_plan_id":"cebpf4jnsgd1na2vs0mg"},{"bike_id":"775aba22-baf5-4ce5-b645-5941a20cb104","system_id":"levelo_inurba_marseille","lat":43.27381,"lon":5.36265,"is_reserved":false,"is_disabled":true,"rental_uris":{"android":"levelo://app?vid=775aba22-baf5-4ce5-b645-5941a20cb104","ios":"levelo://app?vid=775aba22-baf5-4ce5-b645-5941a20cb104"},"vehicle_type_id":"4","last_reported":1732720210,"current_range_meters":0,"station_id":"ce4bhbh2rcd13ifvqeo0","pricing_plan_id":"cebpf4jnsgd1na2vs0mg"},{"bike_id":"45d4ee8b-a726-4003-9ff4-ec6af142721a","system_id":"levelo_inurba_marseille","lat":43.31328,"lon":5.39695,"is_reserved":false,"is_disabled":false,"rental_uris":{"android":"levelo://app?vid=45d4ee8b-a726-4003-9ff4-ec6af142721a","ios":"levelo://app?vid=45d4ee8b-a726-4003-9ff4-ec6af142721a"},"vehicle_type_id":"4","last_reported":1732720210,"current_range_meters":28800,"station_id":"ce4bgvp2rcd13ifvqcu0","pricing_plan_id":"cebpf4jnsgd1na2vs0mg"},{"bike_id":"315e90f2-ab82-43ea-a85e-e87fd05c6cc7","system_id":"levelo_inurba_marseille","lat":43.30807,"lon":5.38146,"is_reserved":false,"is_disabled":false,"rental_uris":{"android":"levelo://app?vid=315e90f2-ab82-43ea-a85e-e87fd05c6cc7","ios":"levelo://app?vid=315e90f2-ab82-43ea-a85e-e87fd05c6cc7"},"vehicle_type_id":"4","last_reported":1732720210,"current_range_meters":29600,"station_id":"ce4bgt12rcd13ifvqce0","pricing_plan_id":"cebpf4jnsgd1na2vs0mg"},{"bike_id":"4109d896-7b48-4e83-b0a3-6bcd71d9bc7d","system_id":"levelo_inurba_marseille","lat":43.29009,"lon":5.3561,"is_reserved":false,"is_disabled":false,"rental_uris":{"android":"levelo://app?vid=4109d896-7b48-4e83-b0a3-6bcd71d9bc7d","ios":"levelo://app?vid=4109d896-7b48-4e83-b0a3-6bcd71d9bc7d"},"vehicle_type_id":"4","last_reported":1732720210,"current_range_meters":28800,"station_id":"ce4bhb92rcd13ifvqen0","pricing_plan_id":"cebpf4jnsgd1na2vs0mg"},{"bike_id":"e4ac20e5-90c0-4ead-a091-433a597028b4","system_id":"levelo_inurba_marseille","lat":43.31724,"lon":5.42401,"is_reserved":false,"is_disabled":false,"rental_uris":{"android":"levelo://app?vid=e4ac20e5-90c0-4ead-a091-433a597028b4","ios":"levelo://app?vid=e4ac20e5-90c0-4ead-a091-433a597028b4"},"vehicle_type_id":"4","last_reported":1732720210,"current_range_meters":38400,"station_id":"ce4bhp92rcd13ifvqhbg","pricing_plan_id":"cebpf4jnsgd1na2vs0mg"},{"bike_id":"fba35b40-e9ee-4a7a-ab13-9b4d36677c27","system_id":"levelo_inurba_marseille","lat":43.30906,"lon":5.39674,"is_reserved":false,"is_disabled":false,"rental_uris":{"android":"levelo://app?vid=fba35b40-e9ee-4a7a-ab13-9b4d36677c27","ios":"levelo://app?vid=fba35b40-e9ee-4a7a-ab13-9b4d36677c27"},"vehicle_type_id":"4","last_reported":1732720210,"current_range_meters":32400,"station_id":"ce4bh012rcd13ifvqcv0","pricing_plan_id":"cebpf4jnsgd1na2vs0mg"},{"bike_id":"4d4c884f-6933-49c0-8899-f9856d90f44d","system_id":"levelo_inurba_marseille","lat":43.29741,"lon":5.379639,"is_reserved":false,"is_disabled":true,"rental_uris":{"android":"levelo://app?vid=4d4c884f-6933-49c0-8899-f9856d90f44d","ios":"levelo://app?vid=4d4c884f-6933-49c0-8899-f9856d90f44d"},"vehicle_type_id":"4","last_reported":1732720210,"current_range_meters":0,"station_id":"","pricing_plan_id":"cebpf4jnsgd1na2vs0mg"},{"bike_id":"660fe922-f68b-4349-b55a-630945733b27","system_id":"levelo_inurba_marseille","lat":43.29012,"lon":5.35605,"is_reserved":false,"is_disabled":false,"rental_uris":{"android":"levelo://app?vid=660fe922-f68b-4349-b55a-630945733b27","ios":"levelo://app?vid=660fe922-f68b-4349-b55a-630945733b27"},"vehicle_type_id":"4","last_reported":1732720210,"current_range_meters":32800,"station_id":"ce4bhb92rcd13ifvqen0","pricing_plan_id":"cebpf4jnsgd1na2vs0mg"},{"bike_id":"4456d10b-6794-4f83-9383-1e0ef4edc685","system_id":"levelo_inurba_marseille","lat":43.30142,"lon":5.37436,"is_reserved":false,"is_disabled":false,"rental_uris":{"android":"levelo://app?vid=4456d10b-6794-4f83-9383-1e0ef4edc685","ios":"levelo://app?vid=4456d10b-6794-4f83-9383-1e0ef4edc685"},"vehicle_type_id":"4","last_reported":1732720210,"current_range_meters":39200,"station_id":"ce4bgs92rcd13ifvqcc0","pricing_plan_id":"cebpf4jnsgd1na2vs0mg"},{"bike_id":"9009be37-c6b1-406b-b0a8-fbab355f715e","system_id":"levelo_inurba_marseille","lat":43.33761,"lon":5.37497,"is_reserved":false,"is_disabled":false,"rental_uris":{"android":"levelo://app?vid=9009be37-c6b1-406b-b0a8-fbab355f715e","ios":"levelo://app?vid=9009be37-c6b1-406b-b0a8-fbab355f715e"},"vehicle_type_id":"4","last_reported":1732720210,"current_range_meters":38800,"station_id":"","pricing_plan_id":"cebpf4jnsgd1na2vs0mg"},{"bike_id":"4b6c8169-508b-47c1-82e9-8739bb115d3a","system_id":"levelo_inurba_marseille","lat":43.28429,"lon":5.34992,"is_reserved":false,"is_disabled":false,"rental_uris":{"android":"levelo://app?vid=4b6c8169-508b-47c1-82e9-8739bb115d3a","ios":"levelo://app?vid=4b6c8169-508b-47c1-82e9-8739bb115d3a"},"vehicle_type_id":"4","last_reported":1732720210,"current_range_meters":26800,"station_id":"ce4bhbh2rcd13ifvqepg","pricing_plan_id":"cebpf4jnsgd1na2vs0mg"},{"bike_id":"79e0b48c-a0ec-44c8-b7cc-20d7d7adc530","system_id":"levelo_inurba_marseille","lat":43.31999,"lon":5.3817,"is_reserved":false,"is_disabled":false,"rental_uris":{"android":"levelo://app?vid=79e0b48c-a0ec-44c8-b7cc-20d7d7adc530","ios":"levelo://app?vid=79e0b48c-a0ec-44c8-b7cc-20d7d7adc530"},"vehicle_type_id":"4","last_reported":1732720210,"current_range_meters":30400,"station_id":"ce4bhr12rcd13ifvqhpg","pricing_plan_id":"cebpf4jnsgd1na2vs0mg"},{"bike_id":"787da3e5-5eaa-466d-a942-f9510f3bbd6d","system_id":"levelo_inurba_marseille","lat":43.27917,"lon":5.39567,"is_reserved":false,"is_disabled":true,"rental_uris":{"android":"levelo://app?vid=787da3e5-5eaa-466d-a942-f9510f3bbd6d","ios":"levelo://app?vid=787da3e5-5eaa-466d-a942-f9510f3bbd6d"},"vehicle_type_id":"4","last_reported":1732720210,"current_range_meters":0,"station_id":"ce4bhf92rcd13ifvqf40","pricing_plan_id":"cebpf4jnsgd1na2vs0mg"},{"bike_id":"9b6997d0-a97e-44f2-8c44-8034e5a6e7cc","system_id":"levelo_inurba_marseille","lat":43.23156,"lon":5.43705,"is_reserved":false,"is_disabled":false,"rental_uris":{"android":"levelo://app?vid=9b6997d0-a97e-44f2-8c44-8034e5a6e7cc","ios":"levelo://app?vid=9b6997d0-a97e-44f2-8c44-8034e5a6e7cc"},"vehicle_type_id":"4","last_reported":1732720210,"current_range_meters":37600,"station_id":"ce4bhmp2rcd13ifvqgog","pricing_plan_id":"cebpf4jnsgd1na2vs0mg"},{"bike_id":"205d7335-133f-4c68-9cf1-5be8be11d13e","system_id":"levelo_inurba_marseille","lat":43.30459,"lon":5.37896,"is_reserved":false,"is_disabled":false,"rental_uris":{"android":"levelo://app?vid=205d7335-133f-4c68-9cf1-5be8be11d13e","ios":"levelo://app?vid=205d7335-133f-4c68-9cf1-5be8be11d13e"},"vehicle_type_id":"4","last_reported":1732720210,"current_range_meters":24400,"station_id":"ce4bgup2rcd13ifvqcn0","pricing_plan_id":"cebpf4jnsgd1na2vs0mg"},{"bike_id":"f9676c04-9169-4afb-88f6-a605c0c0e024","system_id":"levelo_inurba_marseille","lat":43.28039,"lon":5.36939,"is_reserved":false,"is_disabled":false,"rental_uris":{"android":"levelo://app?vid=f9676c04-9169-4afb-88f6-a605c0c0e024","ios":"levelo://app?vid=f9676c04-9169-4afb-88f6-a605c0c0e024"},"vehicle_type_id":"4","last_reported":1732720210,"current_range_meters":33600,"station_id":"ce4bha12rcd13ifvqef0","pricing_plan_id":"cebpf4jnsgd1na2vs0mg"},{"bike_id":"299f58fd-6e29-4e06-a65a-1ba6949f2bdc","system_id":"levelo_inurba_marseille","lat":43.33786,"lon":5.37392,"is_reserved":false,"is_disabled":false,"rental_uris":{"android":"levelo://app?vid=299f58fd-6e29-4e06-a65a-1ba6949f2bdc","ios":"levelo://app?vid=299f58fd-6e29-4e06-a65a-1ba6949f2bdc"},"vehicle_type_id":"4","last_reported":1732720210,"current_range_meters":36000,"station_id":"","pricing_plan_id":"cebpf4jnsgd1na2vs0mg"},{"bike_id":"4d809776-4d2b-4bf5-8aa6-666b5b1fd18f","system_id":"levelo_inurba_marseille","lat":43.33726,"lon":5.39189,"is_reserved":false,"is_disabled":false,"rental_uris":{"android":"levelo://app?vid=4d809776-4d2b-4bf5-8aa6-666b5b1fd18f","ios":"levelo://app?vid=4d809776-4d2b-4bf5-8aa6-666b5b1fd18f"},"vehicle_type_id":"4","last_reported":1732720210,"current_range_meters":37600,"station_id":"ce4bhr92rcd13ifvqhsg","pricing_plan_id":"cebpf4jnsgd1na2vs0mg"},{"bike_id":"04c8f785-5d2a-49a7-8a6d-9257a7b458af","system_id":"levelo_inurba_marseille","lat":43.32039,"lon":5.4156,"is_reserved":false,"is_disabled":false,"rental_uris":{"android":"levelo://app?vid=04c8f785-5d2a-49a7-8a6d-9257a7b458af","ios":"levelo://app?vid=04c8f785-5d2a-49a7-8a6d-9257a7b458af"},"vehicle_type_id":"4","last_reported":1732720210,"current_range_meters":33200,"station_id":"ce4bhq92rcd13ifvqhkg","pricing_plan_id":"cebpf4jnsgd1na2vs0mg"},{"bike_id":"24b2d706-14f2-4a05-a5fd-2a7358cbae81","system_id":"levelo_inurba_marseille","lat":43.24646,"lon":5.38891,"is_reserved":false,"is_disabled":true,"rental_uris":{"android":"levelo://app?vid=24b2d706-14f2-4a05-a5fd-2a7358cbae81","ios":"levelo://app?vid=24b2d706-14f2-4a05-a5fd-2a7358cbae81"},"vehicle_type_id":"4","last_reported":1732720210,"current_range_meters":3200,"station_id":"ce4bhg12rcd13ifvqf60","pricing_plan_id":"cebpf4jnsgd1na2vs0mg"},{"bike_id":"7dccca16-9c81-46ba-8ec7-8ac114550316","system_id":"levelo_inurba_marseille","lat":43.337444,"lon":5.374475,"is_reserved":false,"is_disabled":false,"rental_uris":{"android":"levelo://app?vid=7dccca16-9c81-46ba-8ec7-8ac114550316","ios":"levelo://app?vid=7dccca16-9c81-46ba-8ec7-8ac114550316"},"vehicle_type_id":"4","last_reported":1732720210,"current_range_meters":37600,"station_id":"","pricing_plan_id":"cebpf4jnsgd1na2vs0mg"},{"bike_id":"e8d49567-35c8-4968-9fcc-46e5c16e1f66","system_id":"levelo_inurba_marseille","lat":43.30541,"lon":5.36711,"is_reserved":false,"is_disabled":false,"rental_uris":{"android":"levelo://app?vid=e8d49567-35c8-4968-9fcc-46e5c16e1f66","ios":"levelo://app?vid=e8d49567-35c8-4968-9fcc-46e5c16e1f66"},"vehicle_type_id":"4","last_reported":1732720210,"current_range_meters":22400,"station_id":"ce4bgrp2rcd13ifvqc9g","pricing_plan_id":"cebpf4jnsgd1na2vs0mg"},{"bike_id":"ad7222bc-b65f-4216-a3e1-1770cd0007d3","system_id":"levelo_inurba_marseille","lat":43.28975,"lon":5.37835,"is_reserved":false,"is_disabled":false,"rental_uris":{"android":"levelo://app?vid=ad7222bc-b65f-4216-a3e1-1770cd0007d3","ios":"levelo://app?vid=ad7222bc-b65f-4216-a3e1-1770cd0007d3"},"vehicle_type_id":"4","last_reported":1732720210,"current_range_meters":4000,"station_id":"ce4bh9p2rcd13ifvqed0","pricing_plan_id":"cebpf4jnsgd1na2vs0mg"},{"bike_id":"a212b353-b9fa-44d3-b88f-9d7f4444b6fe","system_id":"levelo_inurba_marseille","lat":43.28722,"lon":5.39998,"is_reserved":false,"is_disabled":false,"rental_uris":{"android":"levelo://app?vid=a212b353-b9fa-44d3-b88f-9d7f4444b6fe","ios":"levelo://app?vid=a212b353-b9fa-44d3-b88f-9d7f4444b6fe"},"vehicle_type_id":"4","last_reported":1732720210,"current_range_meters":18000,"station_id":"ce4bho92rcd13ifvqh3g","pricing_plan_id":"cebpf4jnsgd1na2vs0mg"},{"bike_id":"631e84b8-7569-4f4e-bac8-ac7fe16bacd3","system_id":"levelo_inurba_marseille","lat":43.28079,"lon":5.39679,"is_reserved":false,"is_disabled":false,"rental_uris":{"android":"levelo://app?vid=631e84b8-7569-4f4e-bac8-ac7fe16bacd3","ios":"levelo://app?vid=631e84b8-7569-4f4e-bac8-ac7fe16bacd3"},"vehicle_type_id":"4","last_reported":1732720210,"current_range_meters":19200,"station_id":"ce4bho12rcd13ifvqh2g","pricing_plan_id":"cebpf4jnsgd1na2vs0mg"},{"bike_id":"7b45e0d0-86a8-47b5-8420-74a05761af04","system_id":"levelo_inurba_marseille","lat":43.27958,"lon":5.39547,"is_reserved":false,"is_disabled":true,"rental_uris":{"android":"levelo://app?vid=7b45e0d0-86a8-47b5-8420-74a05761af04","ios":"levelo://app?vid=7b45e0d0-86a8-47b5-8420-74a05761af04"},"vehicle_type_id":"4","last_reported":1732720210,"current_range_meters":0,"station_id":"ce4bhf92rcd13ifvqf40","pricing_plan_id":"cebpf4jnsgd1na2vs0mg"},{"bike_id":"1c8807d0-9279-453e-9f75-5ab4de304fcc","system_id":"levelo_inurba_marseille","lat":43.279004,"lon":5.380052,"is_reserved":false,"is_disabled":false,"rental_uris":{"android":"levelo://app?vid=1c8807d0-9279-453e-9f75-5ab4de304fcc","ios":"levelo://app?vid=1c8807d0-9279-453e-9f75-5ab4de304fcc"},"vehicle_type_id":"4","last_reported":1732720210,"current_range_meters":37600,"station_id":"ce4bhf92rcd13ifvqf50","pricing_plan_id":"cebpf4jnsgd1na2vs0mg"},{"bike_id":"2ff6d52c-4125-422d-911b-c475f6daa7ea","system_id":"levelo_inurba_marseille","lat":43.29791,"lon":5.37104,"is_reserved":false,"is_disabled":false,"rental_uris":{"android":"levelo://app?vid=2ff6d52c-4125-422d-911b-c475f6daa7ea","ios":"levelo://app?vid=2ff6d52c-4125-422d-911b-c475f6daa7ea"},"vehicle_type_id":"4","last_reported":1732720210,"current_range_meters":38400,"station_id":"ce4bgop2rcd13ifvqc1g","pricing_plan_id":"cebpf4jnsgd1na2vs0mg"},{"bike_id":"b6be2208-a9d7-4d8c-8eb4-c49195b90c78","system_id":"levelo_inurba_marseille","lat":43.30542,"lon":5.36528,"is_reserved":false,"is_disabled":false,"rental_uris":{"android":"levelo://app?vid=b6be2208-a9d7-4d8c-8eb4-c49195b90c78","ios":"levelo://app?vid=b6be2208-a9d7-4d8c-8eb4-c49195b90c78"},"vehicle_type_id":"4","last_reported":1732720210,"current_range_meters":38800,"station_id":"ce4bgs12rcd13ifvqcag","pricing_plan_id":"cebpf4jnsgd1na2vs0mg"},{"bike_id":"447cc66f-3997-4d2e-a378-465b5101b55f","system_id":"levelo_inurba_marseille","lat":43.29421,"lon":5.38616,"is_reserved":false,"is_disabled":false,"rental_uris":{"android":"levelo://app?vid=447cc66f-3997-4d2e-a378-465b5101b55f","ios":"levelo://app?vid=447cc66f-3997-4d2e-a378-465b5101b55f"},"vehicle_type_id":"4","last_reported":1732720210,"current_range_meters":6800,"station_id":"ce4bh2h2rcd13ifvqdh0","pricing_plan_id":"cebpf4jnsgd1na2vs0mg"},{"bike_id":"6a243988-d267-4e1e-bafc-c091870de6a8","system_id":"levelo_inurba_marseille","lat":43.241672,"lon":5.364092,"is_reserved":false,"is_disabled":false,"rental_uris":{"android":"levelo://app?vid=6a243988-d267-4e1e-bafc-c091870de6a8","ios":"levelo://app?vid=6a243988-d267-4e1e-bafc-c091870de6a8"},"vehicle_type_id":"4","last_reported":1732720210,"current_range_meters":34800,"station_id":"cpo36qri1sfpv3e86is0","pricing_plan_id":"cebpf4jnsgd1na2vs0mg"},{"bike_id":"9f829615-a360-47bc-872a-f61471d53cab","system_id":"levelo_inurba_marseille","lat":43.24998,"lon":5.38921,"is_reserved":false,"is_disabled":false,"rental_uris":{"android":"levelo://app?vid=9f829615-a360-47bc-872a-f61471d53cab","ios":"levelo://app?vid=9f829615-a360-47bc-872a-f61471d53cab"},"vehicle_type_id":"4","last_reported":1732720210,"current_range_meters":30800,"station_id":"ce4bhgp2rcd13ifvqfd0","pricing_plan_id":"cebpf4jnsgd1na2vs0mg"},{"bike_id":"6c6a93bf-e171-448f-8ea9-1241abd089a1","system_id":"levelo_inurba_marseille","lat":43.27819,"lon":5.40715,"is_reserved":false,"is_disabled":true,"rental_uris":{"android":"levelo://app?vid=6c6a93bf-e171-448f-8ea9-1241abd089a1","ios":"levelo://app?vid=6c6a93bf-e171-448f-8ea9-1241abd089a1"},"vehicle_type_id":"4","last_reported":1732720210,"current_range_meters":0,"station_id":"ce4bhnh2rcd13ifvqgtg","pricing_plan_id":"cebpf4jnsgd1na2vs0mg"},{"bike_id":"731708d5-ad9e-4395-8b3d-7050f3ffdecd","system_id":"levelo_inurba_marseille","lat":43.29593,"lon":5.38106,"is_reserved":false,"is_disabled":false,"rental_uris":{"android":"levelo://app?vid=731708d5-ad9e-4395-8b3d-7050f3ffdecd","ios":"levelo://app?vid=731708d5-ad9e-4395-8b3d-7050f3ffdecd"},"vehicle_type_id":"4","last_reported":1732720210,"current_range_meters":37600,"station_id":"ce4bgl12rcd13ifvqbo0","pricing_plan_id":"cebpf4jnsgd1na2vs0mg"},{"bike_id":"39b04c21-6a6a-40a7-a489-741c2b67c9bd","system_id":"levelo_inurba_marseille","lat":43.33728,"lon":5.3919,"is_reserved":false,"is_disabled":false,"rental_uris":{"android":"levelo://app?vid=39b04c21-6a6a-40a7-a489-741c2b67c9bd","ios":"levelo://app?vid=39b04c21-6a6a-40a7-a489-741c2b67c9bd"},"vehicle_type_id":"4","last_reported":1732720210,"current_range_meters":9600,"station_id":"ce4bhr92rcd13ifvqhsg","pricing_plan_id":"cebpf4jnsgd1na2vs0mg"},{"bike_id":"21d0032f-25d4-457e-be27-de3810e172be","system_id":"levelo_inurba_marseille","lat":43.2873,"lon":5.37941,"is_reserved":false,"is_disabled":false,"rental_uris":{"android":"levelo://app?vid=21d0032f-25d4-457e-be27-de3810e172be","ios":"levelo://app?vid=21d0032f-25d4-457e-be27-de3810e172be"},"vehicle_type_id":"4","last_reported":1732720210,"current_range_meters":8400,"station_id":"ce4bh9p2rcd13ifvqec0","pricing_plan_id":"cebpf4jnsgd1na2vs0mg"},{"bike_id":"5a74dde8-dae9-4dfc-b29a-0a5254808ef3","system_id":"levelo_inurba_marseille","lat":43.24171,"lon":5.36402,"is_reserved":false,"is_disabled":false,"rental_uris":{"android":"levelo://app?vid=5a74dde8-dae9-4dfc-b29a-0a5254808ef3","ios":"levelo://app?vid=5a74dde8-dae9-4dfc-b29a-0a5254808ef3"},"vehicle_type_id":"4","last_reported":1732720210,"current_range_meters":12400,"station_id":"cpo36qri1sfpv3e86is0","pricing_plan_id":"cebpf4jnsgd1na2vs0mg"},{"bike_id":"e214b462-74df-4344-a15d-74927ec06a22","system_id":"levelo_inurba_marseille","lat":43.26033,"lon":5.37553,"is_reserved":false,"is_disabled":false,"rental_uris":{"android":"levelo://app?vid=e214b462-74df-4344-a15d-74927ec06a22","ios":"levelo://app?vid=e214b462-74df-4344-a15d-74927ec06a22"},"vehicle_type_id":"4","last_reported":1732720210,"current_range_meters":38800,"station_id":"ce4bhgh2rcd13ifvqfa0","pricing_plan_id":"cebpf4jnsgd1na2vs0mg"},{"bike_id":"89290ec6-7a13-483b-8176-93b317e8cb1a","system_id":"levelo_inurba_marseille","lat":43.29581,"lon":5.37524,"is_reserved":false,"is_disabled":false,"rental_uris":{"android":"levelo://app?vid=89290ec6-7a13-483b-8176-93b317e8cb1a","ios":"levelo://app?vid=89290ec6-7a13-483b-8176-93b317e8cb1a"},"vehicle_type_id":"4","last_reported":1732720210,"current_range_meters":36400,"station_id":"ce4bgh92rcd13ifvqb50","pricing_plan_id":"cebpf4jnsgd1na2vs0mg"},{"bike_id":"34cbec49-eeaf-411d-80f2-b68e724f1d2f","system_id":"levelo_inurba_marseille","lat":43.29,"lon":5.35615,"is_reserved":false,"is_disabled":false,"rental_uris":{"android":"levelo://app?vid=34cbec49-eeaf-411d-80f2-b68e724f1d2f","ios":"levelo://app?vid=34cbec49-eeaf-411d-80f2-b68e724f1d2f"},"vehicle_type_id":"4","last_reported":1732720210,"current_range_meters":33600,"station_id":"ce4bhb92rcd13ifvqen0","pricing_plan_id":"cebpf4jnsgd1na2vs0mg"},{"bike_id":"ce8b69aa-646d-403b-bb63-faa242fb22a8","system_id":"levelo_inurba_marseille","lat":43.29555,"lon":5.42285,"is_reserved":false,"is_disabled":true,"rental_uris":{"android":"levelo://app?vid=ce8b69aa-646d-403b-bb63-faa242fb22a8","ios":"levelo://app?vid=ce8b69aa-646d-403b-bb63-faa242fb22a8"},"vehicle_type_id":"4","last_reported":1732720210,"current_range_meters":1200,"station_id":"ce4bhph2rcd13ifvqhdg","pricing_plan_id":"cebpf4jnsgd1na2vs0mg"},{"bike_id":"f3b2cf9b-41cc-4bae-8991-d9221e0e0cfc","system_id":"levelo_inurba_marseille","lat":43.28276,"lon":5.35063,"is_reserved":false,"is_disabled":false,"rental_uris":{"android":"levelo://app?vid=f3b2cf9b-41cc-4bae-8991-d9221e0e0cfc","ios":"levelo://app?vid=f3b2cf9b-41cc-4bae-8991-d9221e0e0cfc"},"vehicle_type_id":"4","last_reported":1732720210,"current_range_meters":38800,"station_id":"ce4bhbp2rcd13ifvqerg","pricing_plan_id":"cebpf4jnsgd1na2vs0mg"},{"bike_id":"36296f5c-0176-4be0-97c8-7930cda9c369","system_id":"levelo_inurba_marseille","lat":43.32105,"lon":5.3678,"is_reserved":false,"is_disabled":false,"rental_uris":{"android":"levelo://app?vid=36296f5c-0176-4be0-97c8-7930cda9c369","ios":"levelo://app?vid=36296f5c-0176-4be0-97c8-7930cda9c369"},"vehicle_type_id":"4","last_reported":1732720210,"current_range_meters":16000,"station_id":"ce4bhrh2rcd13ifvqhug","pricing_plan_id":"cebpf4jnsgd1na2vs0mg"},{"bike_id":"cc014484-f5cf-4230-a6dc-9ac806e7c8c8","system_id":"levelo_inurba_marseille","lat":43.27948,"lon":5.41047,"is_reserved":false,"is_disabled":false,"rental_uris":{"android":"levelo://app?vid=cc014484-f5cf-4230-a6dc-9ac806e7c8c8","ios":"levelo://app?vid=cc014484-f5cf-4230-a6dc-9ac806e7c8c8"},"vehicle_type_id":"4","last_reported":1732720210,"current_range_meters":18800,"station_id":"ce4bhnp2rcd13ifvqh0g","pricing_plan_id":"cebpf4jnsgd1na2vs0mg"},{"bike_id":"ad3a700f-a034-42d0-afc0-ee59a9cbce99","system_id":"levelo_inurba_marseille","lat":43.3237,"lon":5.3888,"is_reserved":false,"is_disabled":false,"rental_uris":{"android":"levelo://app?vid=ad3a700f-a034-42d0-afc0-ee59a9cbce99","ios":"levelo://app?vid=ad3a700f-a034-42d0-afc0-ee59a9cbce99"},"vehicle_type_id":"4","last_reported":1732720210,"current_range_meters":34000,"station_id":"ce4bhqp2rcd13ifvqhog","pricing_plan_id":"cebpf4jnsgd1na2vs0mg"},{"bike_id":"24280832-ccad-49e4-8062-6ef0033482a6","system_id":"levelo_inurba_marseille","lat":43.31382,"lon":5.3668,"is_reserved":false,"is_disabled":false,"rental_uris":{"android":"levelo://app?vid=24280832-ccad-49e4-8062-6ef0033482a6","ios":"levelo://app?vid=24280832-ccad-49e4-8062-6ef0033482a6"},"vehicle_type_id":"4","last_reported":1732720210,"current_range_meters":24400,"station_id":"","pricing_plan_id":"cebpf4jnsgd1na2vs0mg"},{"bike_id":"4cbe1a6f-7d26-4519-b006-a2a8cca73281","system_id":"levelo_inurba_marseille","lat":43.31714,"lon":5.43709,"is_reserved":false,"is_disabled":false,"rental_uris":{"android":"levelo://app?vid=4cbe1a6f-7d26-4519-b006-a2a8cca73281","ios":"levelo://app?vid=4cbe1a6f-7d26-4519-b006-a2a8cca73281"},"vehicle_type_id":"4","last_reported":1732720210,"current_range_meters":31200,"station_id":"ce4bhp92rcd13ifvqhcg","pricing_plan_id":"cebpf4jnsgd1na2vs0mg"},{"bike_id":"374e6c41-7d95-43f7-adc6-08ffe5731c13","system_id":"levelo_inurba_marseille","lat":43.25718,"lon":5.41114,"is_reserved":false,"is_disabled":false,"rental_uris":{"android":"levelo://app?vid=374e6c41-7d95-43f7-adc6-08ffe5731c13","ios":"levelo://app?vid=374e6c41-7d95-43f7-adc6-08ffe5731c13"},"vehicle_type_id":"4","last_reported":1732720210,"current_range_meters":18800,"station_id":"ce4bhkp2rcd13ifvqgd0","pricing_plan_id":"cebpf4jnsgd1na2vs0mg"},{"bike_id":"c20d3ab6-ef8b-4c38-8181-5d137cb54aa8","system_id":"levelo_inurba_marseille","lat":43.25578,"lon":5.3823,"is_reserved":false,"is_disabled":false,"rental_uris":{"android":"levelo://app?vid=c20d3ab6-ef8b-4c38-8181-5d137cb54aa8","ios":"levelo://app?vid=c20d3ab6-ef8b-4c38-8181-5d137cb54aa8"},"vehicle_type_id":"4","last_reported":1732720210,"current_range_meters":8000,"station_id":"ce4bhih2rcd13ifvqfs0","pricing_plan_id":"cebpf4jnsgd1na2vs0mg"},{"bike_id":"e3bdd512-78ea-4dab-a742-2a370ecf88aa","system_id":"levelo_inurba_marseille","lat":43.33609,"lon":5.41051,"is_reserved":false,"is_disabled":false,"rental_uris":{"android":"levelo://app?vid=e3bdd512-78ea-4dab-a742-2a370ecf88aa","ios":"levelo://app?vid=e3bdd512-78ea-4dab-a742-2a370ecf88aa"},"vehicle_type_id":"4","last_reported":1732720210,"current_range_meters":38000,"station_id":"ce4bhqh2rcd13ifvqhmg","pricing_plan_id":"cebpf4jnsgd1na2vs0mg"},{"bike_id":"d06aaab7-4a56-4e9c-b023-2a6fced4e218","system_id":"levelo_inurba_marseille","lat":43.23152,"lon":5.43706,"is_reserved":false,"is_disabled":true,"rental_uris":{"android":"levelo://app?vid=d06aaab7-4a56-4e9c-b023-2a6fced4e218","ios":"levelo://app?vid=d06aaab7-4a56-4e9c-b023-2a6fced4e218"},"vehicle_type_id":"4","last_reported":1732720210,"current_range_meters":0,"station_id":"ce4bhmp2rcd13ifvqgog","pricing_plan_id":"cebpf4jnsgd1na2vs0mg"},{"bike_id":"19d451e2-e55b-45f9-b19e-4347e99a037a","system_id":"levelo_inurba_marseille","lat":43.27679,"lon":5.38891,"is_reserved":false,"is_disabled":false,"rental_uris":{"android":"levelo://app?vid=19d451e2-e55b-45f9-b19e-4347e99a037a","ios":"levelo://app?vid=19d451e2-e55b-45f9-b19e-4347e99a037a"},"vehicle_type_id":"4","last_reported":1732720210,"current_range_meters":38800,"station_id":"ce4bhi12rcd13ifvqfo0","pricing_plan_id":"cebpf4jnsgd1na2vs0mg"},{"bike_id":"17c48214-1bb9-4ded-aaf4-8b92b0712932","system_id":"levelo_inurba_marseille","lat":43.31495,"lon":5.37311,"is_reserved":false,"is_disabled":true,"rental_uris":{"android":"levelo://app?vid=17c48214-1bb9-4ded-aaf4-8b92b0712932","ios":"levelo://app?vid=17c48214-1bb9-4ded-aaf4-8b92b0712932"},"vehicle_type_id":"4","last_reported":1732720210,"current_range_meters":2000,"station_id":"ce4bgt12rcd13ifvqcd0","pricing_plan_id":"cebpf4jnsgd1na2vs0mg"},{"bike_id":"1cd78e3c-eca2-430e-a00b-3450b52eb373","system_id":"levelo_inurba_marseille","lat":43.22928,"lon":5.3538,"is_reserved":false,"is_disabled":false,"rental_uris":{"android":"levelo://app?vid=1cd78e3c-eca2-430e-a00b-3450b52eb373","ios":"levelo://app?vid=1cd78e3c-eca2-430e-a00b-3450b52eb373"},"vehicle_type_id":"4","last_reported":1732720210,"current_range_meters":37600,"station_id":"cpo3532slgdg3j2ikp40","pricing_plan_id":"cebpf4jnsgd1na2vs0mg"},{"bike_id":"e880ec50-a13a-4284-90b8-6f79648e0ca2","system_id":"levelo_inurba_marseille","lat":43.27575,"lon":5.38434,"is_reserved":false,"is_disabled":true,"rental_uris":{"android":"levelo://app?vid=e880ec50-a13a-4284-90b8-6f79648e0ca2","ios":"levelo://app?vid=e880ec50-a13a-4284-90b8-6f79648e0ca2"},"vehicle_type_id":"4","last_reported":1732720210,"current_range_meters":1200,"station_id":"ce4bhh92rcd13ifvqfi0","pricing_plan_id":"cebpf4jnsgd1na2vs0mg"},{"bike_id":"681460a9-806c-471b-88e8-ce403c82f10b","system_id":"levelo_inurba_marseille","lat":43.30669,"lon":5.36858,"is_reserved":false,"is_disabled":true,"rental_uris":{"android":"levelo://app?vid=681460a9-806c-471b-88e8-ce403c82f10b","ios":"levelo://app?vid=681460a9-806c-471b-88e8-ce403c82f10b"},"vehicle_type_id":"4","last_reported":1732720210,"current_range_meters":0,"station_id":"","pricing_plan_id":"cebpf4jnsgd1na2vs0mg"},{"bike_id":"6e326f0e-21bc-476c-9c53-f498249af970","system_id":"levelo_inurba_marseille","lat":43.29201,"lon":5.35792,"is_reserved":false,"is_disabled":false,"rental_uris":{"android":"levelo://app?vid=6e326f0e-21bc-476c-9c53-f498249af970","ios":"levelo://app?vid=6e326f0e-21bc-476c-9c53-f498249af970"},"vehicle_type_id":"4","last_reported":1732720210,"current_range_meters":38800,"station_id":"ce4bhb12rcd13ifvqel0","pricing_plan_id":"cebpf4jnsgd1na2vs0mg"},{"bike_id":"047b60a4-27a6-4f78-be26-ed7ff07bce5e","system_id":"levelo_inurba_marseille","lat":43.29525,"lon":5.37514,"is_reserved":false,"is_disabled":true,"rental_uris":{"android":"levelo://app?vid=047b60a4-27a6-4f78-be26-ed7ff07bce5e","ios":"levelo://app?vid=047b60a4-27a6-4f78-be26-ed7ff07bce5e"},"vehicle_type_id":"4","last_reported":1732720210,"current_range_meters":0,"station_id":"ce4bgkp2rcd13ifvqbmg","pricing_plan_id":"cebpf4jnsgd1na2vs0mg"},{"bike_id":"78cef642-a0b1-46d4-ae22-e2900f040d1a","system_id":"levelo_inurba_marseille","lat":43.28616,"lon":5.35104,"is_reserved":false,"is_disabled":false,"rental_uris":{"android":"levelo://app?vid=78cef642-a0b1-46d4-ae22-e2900f040d1a","ios":"levelo://app?vid=78cef642-a0b1-46d4-ae22-e2900f040d1a"},"vehicle_type_id":"4","last_reported":1732720210,"current_range_meters":23200,"station_id":"ce4bhch2rcd13ifvqeug","pricing_plan_id":"cebpf4jnsgd1na2vs0mg"},{"bike_id":"c1f3a133-feac-4321-aa98-d75866b42056","system_id":"levelo_inurba_marseille","lat":43.25945,"lon":5.40924,"is_reserved":false,"is_disabled":false,"rental_uris":{"android":"levelo://app?vid=c1f3a133-feac-4321-aa98-d75866b42056","ios":"levelo://app?vid=c1f3a133-feac-4321-aa98-d75866b42056"},"vehicle_type_id":"4","last_reported":1732720210,"current_range_meters":8000,"station_id":"ce4bhm92rcd13ifvqglg","pricing_plan_id":"cebpf4jnsgd1na2vs0mg"},{"bike_id":"146859be-050c-4fa7-9473-10d8176aeefd","system_id":"levelo_inurba_marseille","lat":43.25937,"lon":5.40918,"is_reserved":false,"is_disabled":true,"rental_uris":{"android":"levelo://app?vid=146859be-050c-4fa7-9473-10d8176aeefd","ios":"levelo://app?vid=146859be-050c-4fa7-9473-10d8176aeefd"},"vehicle_type_id":"4","last_reported":1732720210,"current_range_meters":0,"station_id":"ce4bhm92rcd13ifvqglg","pricing_plan_id":"cebpf4jnsgd1na2vs0mg"},{"bike_id":"4095543c-2dd8-4ac5-81c8-beb44fb66a1f","system_id":"levelo_inurba_marseille","lat":43.28704,"lon":5.37405,"is_reserved":false,"is_disabled":false,"rental_uris":{"android":"levelo://app?vid=4095543c-2dd8-4ac5-81c8-beb44fb66a1f","ios":"levelo://app?vid=4095543c-2dd8-4ac5-81c8-beb44fb66a1f"},"vehicle_type_id":"4","last_reported":1732720210,"current_range_meters":18000,"station_id":"ce4bhb12rcd13ifvqel0","pricing_plan_id":"cebpf4jnsgd1na2vs0mg"},{"bike_id":"4d7ee38a-c0a4-4fef-bb34-eec8009f290e","system_id":"levelo_inurba_marseille","lat":43.29629,"lon":5.37147,"is_reserved":false,"is_disabled":false,"rental_uris":{"android":"levelo://app?vid=4d7ee38a-c0a4-4fef-bb34-eec8009f290e","ios":"levelo://app?vid=4d7ee38a-c0a4-4fef-bb34-eec8009f290e"},"vehicle_type_id":"4","last_reported":1732720210,"current_range_meters":26800,"station_id":"ce4bgnh2rcd13ifvqc0g","pricing_plan_id":"cebpf4jnsgd1na2vs0mg"},{"bike_id":"5781354f-3bf6-41d4-8b08-552aca39c784","system_id":"levelo_inurba_marseille","lat":43.33613,"lon":5.4104,"is_reserved":false,"is_disabled":false,"rental_uris":{"android":"levelo://app?vid=5781354f-3bf6-41d4-8b08-552aca39c784","ios":"levelo://app?vid=5781354f-3bf6-41d4-8b08-552aca39c784"},"vehicle_type_id":"4","last_reported":1732720210,"current_range_meters":34800,"station_id":"ce4bhqh2rcd13ifvqhmg","pricing_plan_id":"cebpf4jnsgd1na2vs0mg"},{"bike_id":"23ec46d2-63f9-4f62-bae8-093d6665931e","system_id":"levelo_inurba_marseille","lat":43.30547,"lon":5.36546,"is_reserved":false,"is_disabled":false,"rental_uris":{"android":"levelo://app?vid=23ec46d2-63f9-4f62-bae8-093d6665931e","ios":"levelo://app?vid=23ec46d2-63f9-4f62-bae8-093d6665931e"},"vehicle_type_id":"4","last_reported":1732720210,"current_range_meters":12400,"station_id":"ce4bgs12rcd13ifvqcag","pricing_plan_id":"cebpf4jnsgd1na2vs0mg"},{"bike_id":"7acf64e6-102c-4b24-bfca-4cd2f2ab9f83","system_id":"levelo_inurba_marseille","lat":43.30597,"lon":5.36491,"is_reserved":false,"is_disabled":true,"rental_uris":{"android":"levelo://app?vid=7acf64e6-102c-4b24-bfca-4cd2f2ab9f83","ios":"levelo://app?vid=7acf64e6-102c-4b24-bfca-4cd2f2ab9f83"},"vehicle_type_id":"4","last_reported":1732720210,"current_range_meters":1200,"station_id":"","pricing_plan_id":"cebpf4jnsgd1na2vs0mg"},{"bike_id":"2e95a691-d7d8-426b-8dba-47b6b56c6a41","system_id":"levelo_inurba_marseille","lat":43.2815,"lon":5.4265,"is_reserved":false,"is_disabled":true,"rental_uris":{"android":"levelo://app?vid=2e95a691-d7d8-426b-8dba-47b6b56c6a41","ios":"levelo://app?vid=2e95a691-d7d8-426b-8dba-47b6b56c6a41"},"vehicle_type_id":"4","last_reported":1732720210,"current_range_meters":1200,"station_id":"ce4bhnh2rcd13ifvqgug","pricing_plan_id":"cebpf4jnsgd1na2vs0mg"},{"bike_id":"d9aac17f-5c86-4428-b3e4-bc62eba8b8f3","system_id":"levelo_inurba_marseille","lat":43.32298,"lon":5.38827,"is_reserved":false,"is_disabled":false,"rental_uris":{"android":"levelo://app?vid=d9aac17f-5c86-4428-b3e4-bc62eba8b8f3","ios":"levelo://app?vid=d9aac17f-5c86-4428-b3e4-bc62eba8b8f3"},"vehicle_type_id":"4","last_reported":1732720210,"current_range_meters":13600,"station_id":"","pricing_plan_id":"cebpf4jnsgd1na2vs0mg"},{"bike_id":"6ae7f038-302b-4122-878f-847a901a0664","system_id":"levelo_inurba_marseille","lat":43.295524,"lon":5.423009,"is_reserved":false,"is_disabled":false,"rental_uris":{"android":"levelo://app?vid=6ae7f038-302b-4122-878f-847a901a0664","ios":"levelo://app?vid=6ae7f038-302b-4122-878f-847a901a0664"},"vehicle_type_id":"4","last_reported":1732720210,"current_range_meters":4400,"station_id":"ce4bhph2rcd13ifvqhdg","pricing_plan_id":"cebpf4jnsgd1na2vs0mg"},{"bike_id":"4ce77049-21b6-4d6a-92bb-52f369ce9b7b","system_id":"levelo_inurba_marseille","lat":43.31359,"lon":5.36703,"is_reserved":false,"is_disabled":false,"rental_uris":{"android":"levelo://app?vid=4ce77049-21b6-4d6a-92bb-52f369ce9b7b","ios":"levelo://app?vid=4ce77049-21b6-4d6a-92bb-52f369ce9b7b"},"vehicle_type_id":"4","last_reported":1732720210,"current_range_meters":39200,"station_id":"ce4bgr92rcd13ifvqc6g","pricing_plan_id":"cebpf4jnsgd1na2vs0mg"},{"bike_id":"a5848fc1-9c38-4c0f-8cd3-7a1f74903e08","system_id":"levelo_inurba_marseille","lat":43.23175,"lon":5.40003,"is_reserved":false,"is_disabled":false,"rental_uris":{"android":"levelo://app?vid=a5848fc1-9c38-4c0f-8cd3-7a1f74903e08","ios":"levelo://app?vid=a5848fc1-9c38-4c0f-8cd3-7a1f74903e08"},"vehicle_type_id":"4","last_reported":1732720210,"current_range_meters":38800,"station_id":"ce4bhn12rcd13ifvqgqg","pricing_plan_id":"cebpf4jnsgd1na2vs0mg"},{"bike_id":"bf85c0ae-48e0-4e50-a503-48187d5c9650","system_id":"levelo_inurba_marseille","lat":43.30139,"lon":5.37419,"is_reserved":false,"is_disabled":false,"rental_uris":{"android":"levelo://app?vid=bf85c0ae-48e0-4e50-a503-48187d5c9650","ios":"levelo://app?vid=bf85c0ae-48e0-4e50-a503-48187d5c9650"},"vehicle_type_id":"4","last_reported":1732720210,"current_range_meters":38800,"station_id":"ce4bgs92rcd13ifvqcc0","pricing_plan_id":"cebpf4jnsgd1na2vs0mg"},{"bike_id":"16ad57bb-ba2e-4d25-96f6-bb956c61e82c","system_id":"levelo_inurba_marseille","lat":43.23153,"lon":5.43704,"is_reserved":false,"is_disabled":false,"rental_uris":{"android":"levelo://app?vid=16ad57bb-ba2e-4d25-96f6-bb956c61e82c","ios":"levelo://app?vid=16ad57bb-ba2e-4d25-96f6-bb956c61e82c"},"vehicle_type_id":"4","last_reported":1732720210,"current_range_meters":37600,"station_id":"ce4bhmp2rcd13ifvqgog","pricing_plan_id":"cebpf4jnsgd1na2vs0mg"},{"bike_id":"1606c510-b735-4fc8-8ac9-1879292672fd","system_id":"levelo_inurba_marseille","lat":43.25867,"lon":5.39905,"is_reserved":false,"is_disabled":false,"rental_uris":{"android":"levelo://app?vid=1606c510-b735-4fc8-8ac9-1879292672fd","ios":"levelo://app?vid=1606c510-b735-4fc8-8ac9-1879292672fd"},"vehicle_type_id":"4","last_reported":1732720210,"current_range_meters":6800,"station_id":"ce4bhl92rcd13ifvqghg","pricing_plan_id":"cebpf4jnsgd1na2vs0mg"},{"bike_id":"858b65e1-94fc-4151-a71e-8b168cb19dcb","system_id":"levelo_inurba_marseille","lat":43.32249,"lon":5.39241,"is_reserved":false,"is_disabled":true,"rental_uris":{"android":"levelo://app?vid=858b65e1-94fc-4151-a71e-8b168cb19dcb","ios":"levelo://app?vid=858b65e1-94fc-4151-a71e-8b168cb19dcb"},"vehicle_type_id":"4","last_reported":1732720210,"current_range_meters":0,"station_id":"","pricing_plan_id":"cebpf4jnsgd1na2vs0mg"},{"bike_id":"e51b2acb-d883-446b-9ce9-347608453ece","system_id":"levelo_inurba_marseille","lat":43.2293,"lon":5.35372,"is_reserved":false,"is_disabled":false,"rental_uris":{"android":"levelo://app?vid=e51b2acb-d883-446b-9ce9-347608453ece","ios":"levelo://app?vid=e51b2acb-d883-446b-9ce9-347608453ece"},"vehicle_type_id":"4","last_reported":1732720210,"current_range_meters":36800,"station_id":"cpo3532slgdg3j2ikp40","pricing_plan_id":"cebpf4jnsgd1na2vs0mg"},{"bike_id":"844ec8e9-1291-4e83-a299-880eb52e8b86","system_id":"levelo_inurba_marseille","lat":43.28084,"lon":5.39646,"is_reserved":false,"is_disabled":true,"rental_uris":{"android":"levelo://app?vid=844ec8e9-1291-4e83-a299-880eb52e8b86","ios":"levelo://app?vid=844ec8e9-1291-4e83-a299-880eb52e8b86"},"vehicle_type_id":"4","last_reported":1732720210,"current_range_meters":0,"station_id":"ce4bho12rcd13ifvqh2g","pricing_plan_id":"cebpf4jnsgd1na2vs0mg"},{"bike_id":"54fd086a-38f1-41c9-9ab8-409b5bc3571b","system_id":"levelo_inurba_marseille","lat":43.27924,"lon":5.39578,"is_reserved":false,"is_disabled":false,"rental_uris":{"android":"levelo://app?vid=54fd086a-38f1-41c9-9ab8-409b5bc3571b","ios":"levelo://app?vid=54fd086a-38f1-41c9-9ab8-409b5bc3571b"},"vehicle_type_id":"4","last_reported":1732720210,"current_range_meters":10000,"station_id":"ce4bhf92rcd13ifvqf40","pricing_plan_id":"cebpf4jnsgd1na2vs0mg"},{"bike_id":"ab4af578-d368-4602-bbc5-360f325a79eb","system_id":"levelo_inurba_marseille","lat":43.29866,"lon":5.39744,"is_reserved":false,"is_disabled":false,"rental_uris":{"android":"levelo://app?vid=ab4af578-d368-4602-bbc5-360f325a79eb","ios":"levelo://app?vid=ab4af578-d368-4602-bbc5-360f325a79eb"},"vehicle_type_id":"4","last_reported":1732720210,"current_range_meters":16400,"station_id":"ce4bh0h2rcd13ifvqd50","pricing_plan_id":"cebpf4jnsgd1na2vs0mg"},{"bike_id":"1485adb2-b43f-48b8-ae8d-11d7a4a09a13","system_id":"levelo_inurba_marseille","lat":43.30365,"lon":5.41848,"is_reserved":false,"is_disabled":false,"rental_uris":{"android":"levelo://app?vid=1485adb2-b43f-48b8-ae8d-11d7a4a09a13","ios":"levelo://app?vid=1485adb2-b43f-48b8-ae8d-11d7a4a09a13"},"vehicle_type_id":"4","last_reported":1732720210,"current_range_meters":20000,"station_id":"ce4bhop2rcd13ifvqh7g","pricing_plan_id":"cebpf4jnsgd1na2vs0mg"},{"bike_id":"98dc5e47-2bf2-4b2d-bbc4-ae8a7c0a3542","system_id":"levelo_inurba_marseille","lat":43.30535,"lon":5.36548,"is_reserved":false,"is_disabled":false,"rental_uris":{"android":"levelo://app?vid=98dc5e47-2bf2-4b2d-bbc4-ae8a7c0a3542","ios":"levelo://app?vid=98dc5e47-2bf2-4b2d-bbc4-ae8a7c0a3542"},"vehicle_type_id":"4","last_reported":1732720210,"current_range_meters":36400,"station_id":"ce4bgs12rcd13ifvqcag","pricing_plan_id":"cebpf4jnsgd1na2vs0mg"},{"bike_id":"f7f3756c-1ec7-4782-9c87-6273f87b6774","system_id":"levelo_inurba_marseille","lat":43.337444,"lon":5.374475,"is_reserved":false,"is_disabled":true,"rental_uris":{"android":"levelo://app?vid=f7f3756c-1ec7-4782-9c87-6273f87b6774","ios":"levelo://app?vid=f7f3756c-1ec7-4782-9c87-6273f87b6774"},"vehicle_type_id":"4","last_reported":1732720210,"current_range_meters":14400,"station_id":"","pricing_plan_id":"cebpf4jnsgd1na2vs0mg"},{"bike_id":"9a7fc65c-a473-4df1-8da8-b97e38cbdb89","system_id":"levelo_inurba_marseille","lat":43.231459,"lon":5.43716,"is_reserved":false,"is_disabled":false,"rental_uris":{"android":"levelo://app?vid=9a7fc65c-a473-4df1-8da8-b97e38cbdb89","ios":"levelo://app?vid=9a7fc65c-a473-4df1-8da8-b97e38cbdb89"},"vehicle_type_id":"4","last_reported":1732720210,"current_range_meters":38800,"station_id":"ce4bhmp2rcd13ifvqgog","pricing_plan_id":"cebpf4jnsgd1na2vs0mg"},{"bike_id":"703e8aa1-dcfb-4cea-8282-43c583c4255c","system_id":"levelo_inurba_marseille","lat":43.24544,"lon":5.39527,"is_reserved":false,"is_disabled":true,"rental_uris":{"android":"levelo://app?vid=703e8aa1-dcfb-4cea-8282-43c583c4255c","ios":"levelo://app?vid=703e8aa1-dcfb-4cea-8282-43c583c4255c"},"vehicle_type_id":"4","last_reported":1732720210,"current_range_meters":1600,"station_id":"ce4bhlp2rcd13ifvqgjg","pricing_plan_id":"cebpf4jnsgd1na2vs0mg"},{"bike_id":"4d5d6102-6968-4b2d-909b-e210262b41d0","system_id":"levelo_inurba_marseille","lat":43.295524,"lon":5.423009,"is_reserved":false,"is_disabled":false,"rental_uris":{"android":"levelo://app?vid=4d5d6102-6968-4b2d-909b-e210262b41d0","ios":"levelo://app?vid=4d5d6102-6968-4b2d-909b-e210262b41d0"},"vehicle_type_id":"4","last_reported":1732720210,"current_range_meters":32000,"station_id":"ce4bhph2rcd13ifvqhdg","pricing_plan_id":"cebpf4jnsgd1na2vs0mg"},{"bike_id":"79248b71-e381-4425-958e-44a988ca2b76","system_id":"levelo_inurba_marseille","lat":43.23151,"lon":5.43717,"is_reserved":false,"is_disabled":false,"rental_uris":{"android":"levelo://app?vid=79248b71-e381-4425-958e-44a988ca2b76","ios":"levelo://app?vid=79248b71-e381-4425-958e-44a988ca2b76"},"vehicle_type_id":"4","last_reported":1732720210,"current_range_meters":38800,"station_id":"ce4bhmp2rcd13ifvqgog","pricing_plan_id":"cebpf4jnsgd1na2vs0mg"},{"bike_id":"fd12b71c-4f83-48b5-921e-0be79170051e","system_id":"levelo_inurba_marseille","lat":43.26809,"lon":5.40274,"is_reserved":false,"is_disabled":false,"rental_uris":{"android":"levelo://app?vid=fd12b71c-4f83-48b5-921e-0be79170051e","ios":"levelo://app?vid=fd12b71c-4f83-48b5-921e-0be79170051e"},"vehicle_type_id":"4","last_reported":1732720210,"current_range_meters":9200,"station_id":"ce501612rcd8frsf0b60","pricing_plan_id":"cebpf4jnsgd1na2vs0mg"},{"bike_id":"b50e75d4-512b-4841-acaa-2bfeea75bcc7","system_id":"levelo_inurba_marseille","lat":43.24808,"lon":5.37463,"is_reserved":false,"is_disabled":false,"rental_uris":{"android":"levelo://app?vid=b50e75d4-512b-4841-acaa-2bfeea75bcc7","ios":"levelo://app?vid=b50e75d4-512b-4841-acaa-2bfeea75bcc7"},"vehicle_type_id":"4","last_reported":1732720210,"current_range_meters":2800,"station_id":"ce4bhgh2rcd13ifvqfb0","pricing_plan_id":"cebpf4jnsgd1na2vs0mg"},{"bike_id":"7617ca2d-aca3-4ae4-a971-181fa999e943","system_id":"levelo_inurba_marseille","lat":43.24805,"lon":5.37451,"is_reserved":false,"is_disabled":false,"rental_uris":{"android":"levelo://app?vid=7617ca2d-aca3-4ae4-a971-181fa999e943","ios":"levelo://app?vid=7617ca2d-aca3-4ae4-a971-181fa999e943"},"vehicle_type_id":"4","last_reported":1732720210,"current_range_meters":35200,"station_id":"ce4bhgh2rcd13ifvqfb0","pricing_plan_id":"cebpf4jnsgd1na2vs0mg"},{"bike_id":"c9fe4c77-ed2c-41bd-93c3-273c631862d6","system_id":"levelo_inurba_marseille","lat":43.25868,"lon":5.39905,"is_reserved":false,"is_disabled":false,"rental_uris":{"android":"levelo://app?vid=c9fe4c77-ed2c-41bd-93c3-273c631862d6","ios":"levelo://app?vid=c9fe4c77-ed2c-41bd-93c3-273c631862d6"},"vehicle_type_id":"4","last_reported":1732720210,"current_range_meters":8400,"station_id":"ce4bhl92rcd13ifvqghg","pricing_plan_id":"cebpf4jnsgd1na2vs0mg"},{"bike_id":"a5909545-3e09-4859-9fda-9ffe4e6e4883","system_id":"levelo_inurba_marseille","lat":43.23065,"lon":5.35491,"is_reserved":false,"is_disabled":false,"rental_uris":{"android":"levelo://app?vid=a5909545-3e09-4859-9fda-9ffe4e6e4883","ios":"levelo://app?vid=a5909545-3e09-4859-9fda-9ffe4e6e4883"},"vehicle_type_id":"4","last_reported":1732720210,"current_range_meters":27200,"station_id":"cpo3342slgdg3j2ifvpg","pricing_plan_id":"cebpf4jnsgd1na2vs0mg"},{"bike_id":"96ebcf99-ae20-4d9a-a73b-d481ec55bd6e","system_id":"levelo_inurba_marseille","lat":43.29616,"lon":5.37735,"is_reserved":false,"is_disabled":false,"rental_uris":{"android":"levelo://app?vid=96ebcf99-ae20-4d9a-a73b-d481ec55bd6e","ios":"levelo://app?vid=96ebcf99-ae20-4d9a-a73b-d481ec55bd6e"},"vehicle_type_id":"4","last_reported":1732720210,"current_range_meters":9200,"station_id":"ce4bgi92rcd13ifvqb90","pricing_plan_id":"cebpf4jnsgd1na2vs0mg"},{"bike_id":"34e5131a-de5c-4b75-ae7a-7d1700202cf1","system_id":"levelo_inurba_marseille","lat":43.31222,"lon":5.36844,"is_reserved":false,"is_disabled":false,"rental_uris":{"android":"levelo://app?vid=34e5131a-de5c-4b75-ae7a-7d1700202cf1","ios":"levelo://app?vid=34e5131a-de5c-4b75-ae7a-7d1700202cf1"},"vehicle_type_id":"4","last_reported":1732720210,"current_range_meters":10800,"station_id":"ce4bgl92rcd13ifvqbq0","pricing_plan_id":"cebpf4jnsgd1na2vs0mg"},{"bike_id":"5be1675a-51c4-474f-8f58-627231db95d5","system_id":"levelo_inurba_marseille","lat":43.32123,"lon":5.36774,"is_reserved":false,"is_disabled":false,"rental_uris":{"android":"levelo://app?vid=5be1675a-51c4-474f-8f58-627231db95d5","ios":"levelo://app?vid=5be1675a-51c4-474f-8f58-627231db95d5"},"vehicle_type_id":"4","last_reported":1732720210,"current_range_meters":25200,"station_id":"ce4bhrh2rcd13ifvqhug","pricing_plan_id":"cebpf4jnsgd1na2vs0mg"},{"bike_id":"067fa05f-104c-454c-aa07-e227f2f2c2d2","system_id":"levelo_inurba_marseille","lat":43.23184,"lon":5.39991,"is_reserved":false,"is_disabled":false,"rental_uris":{"android":"levelo://app?vid=067fa05f-104c-454c-aa07-e227f2f2c2d2","ios":"levelo://app?vid=067fa05f-104c-454c-aa07-e227f2f2c2d2"},"vehicle_type_id":"4","last_reported":1732720210,"current_range_meters":10800,"station_id":"ce4bhn12rcd13ifvqgqg","pricing_plan_id":"cebpf4jnsgd1na2vs0mg"},{"bike_id":"04530541-b8ec-4b8d-a7db-053948e42afb","system_id":"levelo_inurba_marseille","lat":43.29933,"lon":5.36551,"is_reserved":false,"is_disabled":false,"rental_uris":{"android":"levelo://app?vid=04530541-b8ec-4b8d-a7db-053948e42afb","ios":"levelo://app?vid=04530541-b8ec-4b8d-a7db-053948e42afb"},"vehicle_type_id":"4","last_reported":1732720210,"current_range_meters":28000,"station_id":"ce4bgm92rcd13ifvqbr0","pricing_plan_id":"cebpf4jnsgd1na2vs0mg"},{"bike_id":"e5951ee3-4a5a-4ebb-b469-096c5188dfa3","system_id":"levelo_inurba_marseille","lat":43.231838,"lon":5.355615,"is_reserved":false,"is_disabled":false,"rental_uris":{"android":"levelo://app?vid=e5951ee3-4a5a-4ebb-b469-096c5188dfa3","ios":"levelo://app?vid=e5951ee3-4a5a-4ebb-b469-096c5188dfa3"},"vehicle_type_id":"4","last_reported":1732720210,"current_range_meters":31200,"station_id":"ce4bhu92rcd13ifvqi70","pricing_plan_id":"cebpf4jnsgd1na2vs0mg"},{"bike_id":"39a99b8e-53e2-4290-9e7d-e23bcdf36e26","system_id":"levelo_inurba_marseille","lat":43.25556,"lon":5.38251,"is_reserved":false,"is_disabled":false,"rental_uris":{"android":"levelo://app?vid=39a99b8e-53e2-4290-9e7d-e23bcdf36e26","ios":"levelo://app?vid=39a99b8e-53e2-4290-9e7d-e23bcdf36e26"},"vehicle_type_id":"4","last_reported":1732720210,"current_range_meters":18000,"station_id":"ce4bhih2rcd13ifvqfs0","pricing_plan_id":"cebpf4jnsgd1na2vs0mg"},{"bike_id":"6c948e9c-d5b3-4fe5-a918-1bd2f7c83b02","system_id":"levelo_inurba_marseille","lat":43.32104,"lon":5.36776,"is_reserved":false,"is_disabled":false,"rental_uris":{"android":"levelo://app?vid=6c948e9c-d5b3-4fe5-a918-1bd2f7c83b02","ios":"levelo://app?vid=6c948e9c-d5b3-4fe5-a918-1bd2f7c83b02"},"vehicle_type_id":"4","last_reported":1732720210,"current_range_meters":12000,"station_id":"ce4bhrh2rcd13ifvqhug","pricing_plan_id":"cebpf4jnsgd1na2vs0mg"},{"bike_id":"1ef94bba-96f0-4318-b447-0a96238e676c","system_id":"levelo_inurba_marseille","lat":43.30657,"lon":5.39455,"is_reserved":false,"is_disabled":false,"rental_uris":{"android":"levelo://app?vid=1ef94bba-96f0-4318-b447-0a96238e676c","ios":"levelo://app?vid=1ef94bba-96f0-4318-b447-0a96238e676c"},"vehicle_type_id":"4","last_reported":1732720210,"current_range_meters":38800,"station_id":"ce4bh012rcd13ifvqcv0","pricing_plan_id":"cebpf4jnsgd1na2vs0mg"},{"bike_id":"b5451932-7fa1-4f5c-9cf1-89ee033bd9d5","system_id":"levelo_inurba_marseille","lat":43.2901,"lon":5.35619,"is_reserved":false,"is_disabled":false,"rental_uris":{"android":"levelo://app?vid=b5451932-7fa1-4f5c-9cf1-89ee033bd9d5","ios":"levelo://app?vid=b5451932-7fa1-4f5c-9cf1-89ee033bd9d5"},"vehicle_type_id":"4","last_reported":1732720210,"current_range_meters":32400,"station_id":"ce4bhb92rcd13ifvqen0","pricing_plan_id":"cebpf4jnsgd1na2vs0mg"},{"bike_id":"39020d63-c07a-4de4-89dc-722727b2ae03","system_id":"levelo_inurba_marseille","lat":43.27076,"lon":5.42281,"is_reserved":false,"is_disabled":false,"rental_uris":{"android":"levelo://app?vid=39020d63-c07a-4de4-89dc-722727b2ae03","ios":"levelo://app?vid=39020d63-c07a-4de4-89dc-722727b2ae03"},"vehicle_type_id":"4","last_reported":1732720210,"current_range_meters":11200,"station_id":"ce4bhk92rcd13ifvqgb0","pricing_plan_id":"cebpf4jnsgd1na2vs0mg"},{"bike_id":"5c53cfbd-2547-413a-b79a-f8cc3b1ca992","system_id":"levelo_inurba_marseille","lat":43.32109,"lon":5.3678,"is_reserved":false,"is_disabled":false,"rental_uris":{"android":"levelo://app?vid=5c53cfbd-2547-413a-b79a-f8cc3b1ca992","ios":"levelo://app?vid=5c53cfbd-2547-413a-b79a-f8cc3b1ca992"},"vehicle_type_id":"4","last_reported":1732720210,"current_range_meters":27600,"station_id":"ce4bhrh2rcd13ifvqhug","pricing_plan_id":"cebpf4jnsgd1na2vs0mg"},{"bike_id":"da1c7e47-7423-41db-b4e8-850cb8b74ed4","system_id":"levelo_inurba_marseille","lat":43.29704,"lon":5.37697,"is_reserved":false,"is_disabled":false,"rental_uris":{"android":"levelo://app?vid=da1c7e47-7423-41db-b4e8-850cb8b74ed4","ios":"levelo://app?vid=da1c7e47-7423-41db-b4e8-850cb8b74ed4"},"vehicle_type_id":"4","last_reported":1732720210,"current_range_meters":38800,"station_id":"ce4bgkh2rcd13ifvqbl0","pricing_plan_id":"cebpf4jnsgd1na2vs0mg"},{"bike_id":"fb270e8d-41be-4f6a-aa67-3213668ac662","system_id":"levelo_inurba_marseille","lat":43.26554,"lon":5.37286,"is_reserved":false,"is_disabled":false,"rental_uris":{"android":"levelo://app?vid=fb270e8d-41be-4f6a-aa67-3213668ac662","ios":"levelo://app?vid=fb270e8d-41be-4f6a-aa67-3213668ac662"},"vehicle_type_id":"4","last_reported":1732720210,"current_range_meters":35200,"station_id":"ce4bhg12rcd13ifvqf70","pricing_plan_id":"cebpf4jnsgd1na2vs0mg"},{"bike_id":"c6aef39e-71f7-496a-a481-d56a6acc9615","system_id":"levelo_inurba_marseille","lat":43.30803,"lon":5.43525,"is_reserved":false,"is_disabled":false,"rental_uris":{"android":"levelo://app?vid=c6aef39e-71f7-496a-a481-d56a6acc9615","ios":"levelo://app?vid=c6aef39e-71f7-496a-a481-d56a6acc9615"},"vehicle_type_id":"4","last_reported":1732720210,"current_range_meters":11600,"station_id":"ce4bhph2rcd13ifvqheg","pricing_plan_id":"cebpf4jnsgd1na2vs0mg"},{"bike_id":"c32aafd8-8905-4559-a1d0-f74aa7efcf0e","system_id":"levelo_inurba_marseille","lat":43.338,"lon":5.37474,"is_reserved":false,"is_disabled":false,"rental_uris":{"android":"levelo://app?vid=c32aafd8-8905-4559-a1d0-f74aa7efcf0e","ios":"levelo://app?vid=c32aafd8-8905-4559-a1d0-f74aa7efcf0e"},"vehicle_type_id":"4","last_reported":1732720210,"current_range_meters":37600,"station_id":"","pricing_plan_id":"cebpf4jnsgd1na2vs0mg"},{"bike_id":"e28b12c4-cbe3-4a89-bfc4-9e1c6be9fff2","system_id":"levelo_inurba_marseille","lat":43.29524,"lon":5.39403,"is_reserved":false,"is_disabled":false,"rental_uris":{"android":"levelo://app?vid=e28b12c4-cbe3-4a89-bfc4-9e1c6be9fff2","ios":"levelo://app?vid=e28b12c4-cbe3-4a89-bfc4-9e1c6be9fff2"},"vehicle_type_id":"4","last_reported":1732720210,"current_range_meters":32800,"station_id":"ce4bh292rcd13ifvqdf0","pricing_plan_id":"cebpf4jnsgd1na2vs0mg"},{"bike_id":"2967b0ca-4e1a-4783-9987-d7bd5da13dd8","system_id":"levelo_inurba_marseille","lat":43.31484,"lon":5.37307,"is_reserved":false,"is_disabled":false,"rental_uris":{"android":"levelo://app?vid=2967b0ca-4e1a-4783-9987-d7bd5da13dd8","ios":"levelo://app?vid=2967b0ca-4e1a-4783-9987-d7bd5da13dd8"},"vehicle_type_id":"4","last_reported":1732720210,"current_range_meters":9600,"station_id":"ce4bgt12rcd13ifvqcd0","pricing_plan_id":"cebpf4jnsgd1na2vs0mg"},{"bike_id":"0dbf4a25-0b81-4076-980f-2de46488ffa7","system_id":"levelo_inurba_marseille","lat":43.28615,"lon":5.35098,"is_reserved":false,"is_disabled":false,"rental_uris":{"android":"levelo://app?vid=0dbf4a25-0b81-4076-980f-2de46488ffa7","ios":"levelo://app?vid=0dbf4a25-0b81-4076-980f-2de46488ffa7"},"vehicle_type_id":"4","last_reported":1732720210,"current_range_meters":12800,"station_id":"ce4bhch2rcd13ifvqeug","pricing_plan_id":"cebpf4jnsgd1na2vs0mg"},{"bike_id":"b0532d77-a652-43de-8ae1-079cd29bfc13","system_id":"levelo_inurba_marseille","lat":43.32387,"lon":5.38871,"is_reserved":false,"is_disabled":false,"rental_uris":{"android":"levelo://app?vid=b0532d77-a652-43de-8ae1-079cd29bfc13","ios":"levelo://app?vid=b0532d77-a652-43de-8ae1-079cd29bfc13"},"vehicle_type_id":"4","last_reported":1732720210,"current_range_meters":19200,"station_id":"ce4bhqp2rcd13ifvqhog","pricing_plan_id":"cebpf4jnsgd1na2vs0mg"},{"bike_id":"43746d86-8a13-4845-9faf-ae69b548d714","system_id":"levelo_inurba_marseille","lat":43.29459,"lon":5.37917,"is_reserved":false,"is_disabled":true,"rental_uris":{"android":"levelo://app?vid=43746d86-8a13-4845-9faf-ae69b548d714","ios":"levelo://app?vid=43746d86-8a13-4845-9faf-ae69b548d714"},"vehicle_type_id":"4","last_reported":1732720210,"current_range_meters":0,"station_id":"","pricing_plan_id":"cebpf4jnsgd1na2vs0mg"},{"bike_id":"7c41b238-5075-4eba-aec2-8f68e388a130","system_id":"levelo_inurba_marseille","lat":43.30783,"lon":5.3766,"is_reserved":false,"is_disabled":false,"rental_uris":{"android":"levelo://app?vid=7c41b238-5075-4eba-aec2-8f68e388a130","ios":"levelo://app?vid=7c41b238-5075-4eba-aec2-8f68e388a130"},"vehicle_type_id":"4","last_reported":1732720210,"current_range_meters":13600,"station_id":"ce4bgv92rcd13ifvqcq0","pricing_plan_id":"cebpf4jnsgd1na2vs0mg"},{"bike_id":"c4a7e894-f878-4bab-a8aa-1db498e677c5","system_id":"levelo_inurba_marseille","lat":43.26801,"lon":5.40268,"is_reserved":false,"is_disabled":true,"rental_uris":{"android":"levelo://app?vid=c4a7e894-f878-4bab-a8aa-1db498e677c5","ios":"levelo://app?vid=c4a7e894-f878-4bab-a8aa-1db498e677c5"},"vehicle_type_id":"4","last_reported":1732720210,"current_range_meters":0,"station_id":"ce501612rcd8frsf0b60","pricing_plan_id":"cebpf4jnsgd1na2vs0mg"},{"bike_id":"df76b7bf-b879-4e94-9796-439ee296ef0a","system_id":"levelo_inurba_marseille","lat":43.22925,"lon":5.35381,"is_reserved":false,"is_disabled":false,"rental_uris":{"android":"levelo://app?vid=df76b7bf-b879-4e94-9796-439ee296ef0a","ios":"levelo://app?vid=df76b7bf-b879-4e94-9796-439ee296ef0a"},"vehicle_type_id":"4","last_reported":1732720210,"current_range_meters":37600,"station_id":"cpo3532slgdg3j2ikp40","pricing_plan_id":"cebpf4jnsgd1na2vs0mg"},{"bike_id":"e5ddf0df-03ca-4aa1-873f-b657b1296777","system_id":"levelo_inurba_marseille","lat":43.30457,"lon":5.37895,"is_reserved":false,"is_disabled":false,"rental_uris":{"android":"levelo://app?vid=e5ddf0df-03ca-4aa1-873f-b657b1296777","ios":"levelo://app?vid=e5ddf0df-03ca-4aa1-873f-b657b1296777"},"vehicle_type_id":"4","last_reported":1732720210,"current_range_meters":28400,"station_id":"ce4bgup2rcd13ifvqcn0","pricing_plan_id":"cebpf4jnsgd1na2vs0mg"},{"bike_id":"bd91fc41-bbca-4e2e-b536-fa2d4344c76a","system_id":"levelo_inurba_marseille","lat":43.31271,"lon":5.4017,"is_reserved":false,"is_disabled":false,"rental_uris":{"android":"levelo://app?vid=bd91fc41-bbca-4e2e-b536-fa2d4344c76a","ios":"levelo://app?vid=bd91fc41-bbca-4e2e-b536-fa2d4344c76a"},"vehicle_type_id":"4","last_reported":1732720210,"current_range_meters":17200,"station_id":"ce4bh092rcd13ifvqd30","pricing_plan_id":"cebpf4jnsgd1na2vs0mg"},{"bike_id":"d3f920e5-45bc-4d54-9e56-f353ee798a51","system_id":"levelo_inurba_marseille","lat":43.28937,"lon":5.36641,"is_reserved":false,"is_disabled":false,"rental_uris":{"android":"levelo://app?vid=d3f920e5-45bc-4d54-9e56-f353ee798a51","ios":"levelo://app?vid=d3f920e5-45bc-4d54-9e56-f353ee798a51"},"vehicle_type_id":"4","last_reported":1732720210,"current_range_meters":4000,"station_id":"ce4bhap2rcd13ifvqek0","pricing_plan_id":"cebpf4jnsgd1na2vs0mg"},{"bike_id":"5f66fd09-4192-4141-ad2a-3638d70eba5b","system_id":"levelo_inurba_marseille","lat":43.24807,"lon":5.37459,"is_reserved":false,"is_disabled":false,"rental_uris":{"android":"levelo://app?vid=5f66fd09-4192-4141-ad2a-3638d70eba5b","ios":"levelo://app?vid=5f66fd09-4192-4141-ad2a-3638d70eba5b"},"vehicle_type_id":"4","last_reported":1732720210,"current_range_meters":32000,"station_id":"ce4bhgh2rcd13ifvqfb0","pricing_plan_id":"cebpf4jnsgd1na2vs0mg"},{"bike_id":"b257af45-8f94-461f-b20b-8d3cf1e47a3b","system_id":"levelo_inurba_marseille","lat":43.32036,"lon":5.41562,"is_reserved":false,"is_disabled":false,"rental_uris":{"android":"levelo://app?vid=b257af45-8f94-461f-b20b-8d3cf1e47a3b","ios":"levelo://app?vid=b257af45-8f94-461f-b20b-8d3cf1e47a3b"},"vehicle_type_id":"4","last_reported":1732720210,"current_range_meters":25200,"station_id":"ce4bhq92rcd13ifvqhkg","pricing_plan_id":"cebpf4jnsgd1na2vs0mg"},{"bike_id":"c7c8eb9f-a72f-46cc-a7d7-36fb49eb8a83","system_id":"levelo_inurba_marseille","lat":43.337444,"lon":5.374475,"is_reserved":false,"is_disabled":true,"rental_uris":{"android":"levelo://app?vid=c7c8eb9f-a72f-46cc-a7d7-36fb49eb8a83","ios":"levelo://app?vid=c7c8eb9f-a72f-46cc-a7d7-36fb49eb8a83"},"vehicle_type_id":"4","last_reported":1732720210,"current_range_meters":0,"station_id":"","pricing_plan_id":"cebpf4jnsgd1na2vs0mg"},{"bike_id":"0475d691-409f-4186-9fbf-9871c4c0ff7e","system_id":"levelo_inurba_marseille","lat":43.26777,"lon":5.39422,"is_reserved":false,"is_disabled":true,"rental_uris":{"android":"levelo://app?vid=0475d691-409f-4186-9fbf-9871c4c0ff7e","ios":"levelo://app?vid=0475d691-409f-4186-9fbf-9871c4c0ff7e"},"vehicle_type_id":"4","last_reported":1732720210,"current_range_meters":0,"station_id":"ce4bhh12rcd13ifvqfg0","pricing_plan_id":"cebpf4jnsgd1na2vs0mg"},{"bike_id":"cf298d8c-a0c9-4883-b341-ff4459ca7832","system_id":"levelo_inurba_marseille","lat":43.22932,"lon":5.35378,"is_reserved":false,"is_disabled":false,"rental_uris":{"android":"levelo://app?vid=cf298d8c-a0c9-4883-b341-ff4459ca7832","ios":"levelo://app?vid=cf298d8c-a0c9-4883-b341-ff4459ca7832"},"vehicle_type_id":"4","last_reported":1732720210,"current_range_meters":37600,"station_id":"cpo3532slgdg3j2ikp40","pricing_plan_id":"cebpf4jnsgd1na2vs0mg"},{"bike_id":"8c86b039-1e89-496b-85bb-526480b54945","system_id":"levelo_inurba_marseille","lat":43.24945,"lon":5.39,"is_reserved":false,"is_disabled":false,"rental_uris":{"android":"levelo://app?vid=8c86b039-1e89-496b-85bb-526480b54945","ios":"levelo://app?vid=8c86b039-1e89-496b-85bb-526480b54945"},"vehicle_type_id":"4","last_reported":1732720210,"current_range_meters":6000,"station_id":"ce4bhgp2rcd13ifvqfd0","pricing_plan_id":"cebpf4jnsgd1na2vs0mg"},{"bike_id":"1c076ba8-90cc-4e7d-9fac-99abb192a12f","system_id":"levelo_inurba_marseille","lat":43.31121,"lon":5.37775,"is_reserved":false,"is_disabled":false,"rental_uris":{"android":"levelo://app?vid=1c076ba8-90cc-4e7d-9fac-99abb192a12f","ios":"levelo://app?vid=1c076ba8-90cc-4e7d-9fac-99abb192a12f"},"vehicle_type_id":"4","last_reported":1732720210,"current_range_meters":25600,"station_id":"ce4bgt92rcd13ifvqcg0","pricing_plan_id":"cebpf4jnsgd1na2vs0mg"},{"bike_id":"d9ef5ed5-65f4-4a4b-8dbb-274b0e908852","system_id":"levelo_inurba_marseille","lat":43.24171,"lon":5.36396,"is_reserved":false,"is_disabled":false,"rental_uris":{"android":"levelo://app?vid=d9ef5ed5-65f4-4a4b-8dbb-274b0e908852","ios":"levelo://app?vid=d9ef5ed5-65f4-4a4b-8dbb-274b0e908852"},"vehicle_type_id":"4","last_reported":1732720210,"current_range_meters":24800,"station_id":"cpo36qri1sfpv3e86is0","pricing_plan_id":"cebpf4jnsgd1na2vs0mg"},{"bike_id":"3bda0192-441f-448b-a44b-62afdb2df3e6","system_id":"levelo_inurba_marseille","lat":43.27806,"lon":5.40712,"is_reserved":false,"is_disabled":true,"rental_uris":{"android":"levelo://app?vid=3bda0192-441f-448b-a44b-62afdb2df3e6","ios":"levelo://app?vid=3bda0192-441f-448b-a44b-62afdb2df3e6"},"vehicle_type_id":"4","last_reported":1732720210,"current_range_meters":38800,"station_id":"ce4bhnh2rcd13ifvqgtg","pricing_plan_id":"cebpf4jnsgd1na2vs0mg"},{"bike_id":"c88f8730-1176-4717-97e2-17c27b15274f","system_id":"levelo_inurba_marseille","lat":43.23194,"lon":5.35553,"is_reserved":false,"is_disabled":true,"rental_uris":{"android":"levelo://app?vid=c88f8730-1176-4717-97e2-17c27b15274f","ios":"levelo://app?vid=c88f8730-1176-4717-97e2-17c27b15274f"},"vehicle_type_id":"4","last_reported":1732720210,"current_range_meters":800,"station_id":"ce4bhu92rcd13ifvqi70","pricing_plan_id":"cebpf4jnsgd1na2vs0mg"},{"bike_id":"f4bad123-b5d3-4f39-99a6-e9b6459c5826","system_id":"levelo_inurba_marseille","lat":43.27058,"lon":5.40263,"is_reserved":false,"is_disabled":false,"rental_uris":{"android":"levelo://app?vid=f4bad123-b5d3-4f39-99a6-e9b6459c5826","ios":"levelo://app?vid=f4bad123-b5d3-4f39-99a6-e9b6459c5826"},"vehicle_type_id":"4","last_reported":1732720210,"current_range_meters":8400,"station_id":"ce4bhk92rcd13ifvqgc0","pricing_plan_id":"cebpf4jnsgd1na2vs0mg"},{"bike_id":"45cc0129-d320-4c4f-95cc-6b85bf99203c","system_id":"levelo_inurba_marseille","lat":43.32297,"lon":5.38274,"is_reserved":false,"is_disabled":false,"rental_uris":{"android":"levelo://app?vid=45cc0129-d320-4c4f-95cc-6b85bf99203c","ios":"levelo://app?vid=45cc0129-d320-4c4f-95cc-6b85bf99203c"},"vehicle_type_id":"4","last_reported":1732720210,"current_range_meters":25200,"station_id":"ce4bhr12rcd13ifvqhqg","pricing_plan_id":"cebpf4jnsgd1na2vs0mg"},{"bike_id":"1d491570-34a1-4266-9dd8-096aad79ce71","system_id":"levelo_inurba_marseille","lat":43.28432,"lon":5.34991,"is_reserved":false,"is_disabled":false,"rental_uris":{"android":"levelo://app?vid=1d491570-34a1-4266-9dd8-096aad79ce71","ios":"levelo://app?vid=1d491570-34a1-4266-9dd8-096aad79ce71"},"vehicle_type_id":"4","last_reported":1732720210,"current_range_meters":38800,"station_id":"ce4bhbh2rcd13ifvqepg","pricing_plan_id":"cebpf4jnsgd1na2vs0mg"},{"bike_id":"5383479e-e9f1-48cf-b76c-b49cd29dcdeb","system_id":"levelo_inurba_marseille","lat":43.27377,"lon":5.36263,"is_reserved":false,"is_disabled":false,"rental_uris":{"android":"levelo://app?vid=5383479e-e9f1-48cf-b76c-b49cd29dcdeb","ios":"levelo://app?vid=5383479e-e9f1-48cf-b76c-b49cd29dcdeb"},"vehicle_type_id":"4","last_reported":1732720210,"current_range_meters":29600,"station_id":"ce4bhbh2rcd13ifvqeo0","pricing_plan_id":"cebpf4jnsgd1na2vs0mg"},{"bike_id":"1614e2a5-eff6-4651-9d69-3a3985cf0ea9","system_id":"levelo_inurba_marseille","lat":43.28229,"lon":5.39849,"is_reserved":false,"is_disabled":false,"rental_uris":{"android":"levelo://app?vid=1614e2a5-eff6-4651-9d69-3a3985cf0ea9","ios":"levelo://app?vid=1614e2a5-eff6-4651-9d69-3a3985cf0ea9"},"vehicle_type_id":"4","last_reported":1732720210,"current_range_meters":10000,"station_id":"","pricing_plan_id":"cebpf4jnsgd1na2vs0mg"},{"bike_id":"d4d0a8c6-c21c-451e-a5ce-ead5fab28b2c","system_id":"levelo_inurba_marseille","lat":43.29011,"lon":5.35617,"is_reserved":false,"is_disabled":false,"rental_uris":{"android":"levelo://app?vid=d4d0a8c6-c21c-451e-a5ce-ead5fab28b2c","ios":"levelo://app?vid=d4d0a8c6-c21c-451e-a5ce-ead5fab28b2c"},"vehicle_type_id":"4","last_reported":1732720210,"current_range_meters":8800,"station_id":"ce4bhb92rcd13ifvqen0","pricing_plan_id":"cebpf4jnsgd1na2vs0mg"},{"bike_id":"d8b94ed5-b46d-4302-8378-2d083aa7f259","system_id":"levelo_inurba_marseille","lat":43.23184,"lon":5.39997,"is_reserved":false,"is_disabled":false,"rental_uris":{"android":"levelo://app?vid=d8b94ed5-b46d-4302-8378-2d083aa7f259","ios":"levelo://app?vid=d8b94ed5-b46d-4302-8378-2d083aa7f259"},"vehicle_type_id":"4","last_reported":1732720210,"current_range_meters":34000,"station_id":"ce4bhn12rcd13ifvqgqg","pricing_plan_id":"cebpf4jnsgd1na2vs0mg"},{"bike_id":"387f384f-5e90-4552-a4c6-218836cd0323","system_id":"levelo_inurba_marseille","lat":43.29554,"lon":5.42284,"is_reserved":false,"is_disabled":false,"rental_uris":{"android":"levelo://app?vid=387f384f-5e90-4552-a4c6-218836cd0323","ios":"levelo://app?vid=387f384f-5e90-4552-a4c6-218836cd0323"},"vehicle_type_id":"4","last_reported":1732720210,"current_range_meters":38000,"station_id":"ce4bhph2rcd13ifvqhdg","pricing_plan_id":"cebpf4jnsgd1na2vs0mg"},{"bike_id":"a5ce7078-bf7d-472c-bbb6-2d070261ff8c","system_id":"levelo_inurba_marseille","lat":43.33608,"lon":5.41033,"is_reserved":false,"is_disabled":false,"rental_uris":{"android":"levelo://app?vid=a5ce7078-bf7d-472c-bbb6-2d070261ff8c","ios":"levelo://app?vid=a5ce7078-bf7d-472c-bbb6-2d070261ff8c"},"vehicle_type_id":"4","last_reported":1732720210,"current_range_meters":24000,"station_id":"ce4bhqh2rcd13ifvqhmg","pricing_plan_id":"cebpf4jnsgd1na2vs0mg"},{"bike_id":"e9c17faa-0a50-4311-9b95-9e8911926bd0","system_id":"levelo_inurba_marseille","lat":43.30545,"lon":5.36701,"is_reserved":false,"is_disabled":false,"rental_uris":{"android":"levelo://app?vid=e9c17faa-0a50-4311-9b95-9e8911926bd0","ios":"levelo://app?vid=e9c17faa-0a50-4311-9b95-9e8911926bd0"},"vehicle_type_id":"4","last_reported":1732720210,"current_range_meters":14400,"station_id":"ce4bgrp2rcd13ifvqc9g","pricing_plan_id":"cebpf4jnsgd1na2vs0mg"},{"bike_id":"5ede82b6-b28d-4e08-abaa-ba1486b4d1ee","system_id":"levelo_inurba_marseille","lat":43.28486,"lon":5.38436,"is_reserved":false,"is_disabled":false,"rental_uris":{"android":"levelo://app?vid=5ede82b6-b28d-4e08-abaa-ba1486b4d1ee","ios":"levelo://app?vid=5ede82b6-b28d-4e08-abaa-ba1486b4d1ee"},"vehicle_type_id":"4","last_reported":1732720210,"current_range_meters":37600,"station_id":"ce4bh512rcd13ifvqe3g","pricing_plan_id":"cebpf4jnsgd1na2vs0mg"},{"bike_id":"155eea07-29b4-4b29-95ad-2429708ae2fe","system_id":"levelo_inurba_marseille","lat":43.31229,"lon":5.36864,"is_reserved":false,"is_disabled":false,"rental_uris":{"android":"levelo://app?vid=155eea07-29b4-4b29-95ad-2429708ae2fe","ios":"levelo://app?vid=155eea07-29b4-4b29-95ad-2429708ae2fe"},"vehicle_type_id":"4","last_reported":1732720210,"current_range_meters":4800,"station_id":"ce4bgl92rcd13ifvqbq0","pricing_plan_id":"cebpf4jnsgd1na2vs0mg"},{"bike_id":"a3e24219-8efe-4b7b-94df-3a2130940116","system_id":"levelo_inurba_marseille","lat":43.29517,"lon":5.39033,"is_reserved":false,"is_disabled":false,"rental_uris":{"android":"levelo://app?vid=a3e24219-8efe-4b7b-94df-3a2130940116","ios":"levelo://app?vid=a3e24219-8efe-4b7b-94df-3a2130940116"},"vehicle_type_id":"4","last_reported":1732720210,"current_range_meters":16800,"station_id":"ce4bh3p2rcd13ifvqdp0","pricing_plan_id":"cebpf4jnsgd1na2vs0mg"},{"bike_id":"65c5b7a0-2741-4674-9e62-324f44553665","system_id":"levelo_inurba_marseille","lat":43.27964,"lon":5.38707,"is_reserved":false,"is_disabled":true,"rental_uris":{"android":"levelo://app?vid=65c5b7a0-2741-4674-9e62-324f44553665","ios":"levelo://app?vid=65c5b7a0-2741-4674-9e62-324f44553665"},"vehicle_type_id":"4","last_reported":1732720210,"current_range_meters":0,"station_id":"ce4bhg12rcd13ifvqf80","pricing_plan_id":"cebpf4jnsgd1na2vs0mg"},{"bike_id":"1e83ccd9-141a-486b-905e-242f076286b7","system_id":"levelo_inurba_marseille","lat":43.24081,"lon":5.37747,"is_reserved":false,"is_disabled":false,"rental_uris":{"android":"levelo://app?vid=1e83ccd9-141a-486b-905e-242f076286b7","ios":"levelo://app?vid=1e83ccd9-141a-486b-905e-242f076286b7"},"vehicle_type_id":"4","last_reported":1732720210,"current_range_meters":24800,"station_id":"ce4bhnp2rcd13ifvqgvg","pricing_plan_id":"cebpf4jnsgd1na2vs0mg"},{"bike_id":"35a9fa9f-ba12-4568-8c38-abe28fa937b6","system_id":"levelo_inurba_marseille","lat":43.30537,"lon":5.38427,"is_reserved":false,"is_disabled":false,"rental_uris":{"android":"levelo://app?vid=35a9fa9f-ba12-4568-8c38-abe28fa937b6","ios":"levelo://app?vid=35a9fa9f-ba12-4568-8c38-abe28fa937b6"},"vehicle_type_id":"4","last_reported":1732720210,"current_range_meters":36800,"station_id":"ce4bgg92rcd13ifvqb30","pricing_plan_id":"cebpf4jnsgd1na2vs0mg"},{"bike_id":"562a76b4-6ab9-4ff0-9faf-2020d86f5e9a","system_id":"levelo_inurba_marseille","lat":43.24174,"lon":5.39728,"is_reserved":false,"is_disabled":true,"rental_uris":{"android":"levelo://app?vid=562a76b4-6ab9-4ff0-9faf-2020d86f5e9a","ios":"levelo://app?vid=562a76b4-6ab9-4ff0-9faf-2020d86f5e9a"},"vehicle_type_id":"4","last_reported":1732720210,"current_range_meters":0,"station_id":"ce4bhn12rcd13ifvqgpg","pricing_plan_id":"cebpf4jnsgd1na2vs0mg"},{"bike_id":"7db9c639-3177-4805-92ec-95540cb7e1d6","system_id":"levelo_inurba_marseille","lat":43.3055,"lon":5.36711,"is_reserved":false,"is_disabled":true,"rental_uris":{"android":"levelo://app?vid=7db9c639-3177-4805-92ec-95540cb7e1d6","ios":"levelo://app?vid=7db9c639-3177-4805-92ec-95540cb7e1d6"},"vehicle_type_id":"4","last_reported":1732720210,"current_range_meters":16000,"station_id":"ce4bgrp2rcd13ifvqc9g","pricing_plan_id":"cebpf4jnsgd1na2vs0mg"},{"bike_id":"5f06479c-a26d-40e1-99fa-76b3322f9226","system_id":"levelo_inurba_marseille","lat":43.26685,"lon":5.38273,"is_reserved":false,"is_disabled":false,"rental_uris":{"android":"levelo://app?vid=5f06479c-a26d-40e1-99fa-76b3322f9226","ios":"levelo://app?vid=5f06479c-a26d-40e1-99fa-76b3322f9226"},"vehicle_type_id":"4","last_reported":1732720210,"current_range_meters":27600,"station_id":"ce4bhg92rcd13ifvqf90","pricing_plan_id":"cebpf4jnsgd1na2vs0mg"},{"bike_id":"e8c3745d-4b9e-400a-bc7a-0764243f0800","system_id":"levelo_inurba_marseille","lat":43.26557,"lon":5.37281,"is_reserved":false,"is_disabled":false,"rental_uris":{"android":"levelo://app?vid=e8c3745d-4b9e-400a-bc7a-0764243f0800","ios":"levelo://app?vid=e8c3745d-4b9e-400a-bc7a-0764243f0800"},"vehicle_type_id":"4","last_reported":1732720210,"current_range_meters":36400,"station_id":"ce4bhg12rcd13ifvqf70","pricing_plan_id":"cebpf4jnsgd1na2vs0mg"},{"bike_id":"9e944db9-d48e-4848-b5fa-4af701aee80b","system_id":"levelo_inurba_marseille","lat":48.80792,"lon":2.40125,"is_reserved":false,"is_disabled":true,"rental_uris":{"android":"levelo://app?vid=9e944db9-d48e-4848-b5fa-4af701aee80b","ios":"levelo://app?vid=9e944db9-d48e-4848-b5fa-4af701aee80b"},"vehicle_type_id":"4","last_reported":1732720210,"current_range_meters":28000,"station_id":"","pricing_plan_id":"cebpf4jnsgd1na2vs0mg"},{"bike_id":"1c904766-d668-43ef-b46c-8a8c67c87660","system_id":"levelo_inurba_marseille","lat":43.23194,"lon":5.35556,"is_reserved":false,"is_disabled":false,"rental_uris":{"android":"levelo://app?vid=1c904766-d668-43ef-b46c-8a8c67c87660","ios":"levelo://app?vid=1c904766-d668-43ef-b46c-8a8c67c87660"},"vehicle_type_id":"4","last_reported":1732720210,"current_range_meters":38800,"station_id":"ce4bhu92rcd13ifvqi70","pricing_plan_id":"cebpf4jnsgd1na2vs0mg"},{"bike_id":"055d8f3c-7a9e-4d3b-97a0-292fce0a999b","system_id":"levelo_inurba_marseille","lat":43.29258,"lon":5.40909,"is_reserved":false,"is_disabled":false,"rental_uris":{"android":"levelo://app?vid=055d8f3c-7a9e-4d3b-97a0-292fce0a999b","ios":"levelo://app?vid=055d8f3c-7a9e-4d3b-97a0-292fce0a999b"},"vehicle_type_id":"4","last_reported":1732720210,"current_range_meters":26000,"station_id":"ce4bh192rcd13ifvqdc0","pricing_plan_id":"cebpf4jnsgd1na2vs0mg"},{"bike_id":"53e89594-abf2-468f-8a5f-fe885ab54eb4","system_id":"levelo_inurba_marseille","lat":43.28658,"lon":5.38658,"is_reserved":false,"is_disabled":false,"rental_uris":{"android":"levelo://app?vid=53e89594-abf2-468f-8a5f-fe885ab54eb4","ios":"levelo://app?vid=53e89594-abf2-468f-8a5f-fe885ab54eb4"},"vehicle_type_id":"4","last_reported":1732720210,"current_range_meters":16000,"station_id":"ce4bh492rcd13ifvqdug","pricing_plan_id":"cebpf4jnsgd1na2vs0mg"},{"bike_id":"85c6807d-adb2-4c55-89d5-379a914608be","system_id":"levelo_inurba_marseille","lat":43.337444,"lon":5.374475,"is_reserved":false,"is_disabled":false,"rental_uris":{"android":"levelo://app?vid=85c6807d-adb2-4c55-89d5-379a914608be","ios":"levelo://app?vid=85c6807d-adb2-4c55-89d5-379a914608be"},"vehicle_type_id":"4","last_reported":1732720210,"current_range_meters":36800,"station_id":"","pricing_plan_id":"cebpf4jnsgd1na2vs0mg"},{"bike_id":"85a5cfde-3b61-40b5-8fda-a1acde978b80","system_id":"levelo_inurba_marseille","lat":43.23052,"lon":5.35506,"is_reserved":false,"is_disabled":false,"rental_uris":{"android":"levelo://app?vid=85a5cfde-3b61-40b5-8fda-a1acde978b80","ios":"levelo://app?vid=85a5cfde-3b61-40b5-8fda-a1acde978b80"},"vehicle_type_id":"4","last_reported":1732720210,"current_range_meters":36800,"station_id":"cpo3342slgdg3j2ifvpg","pricing_plan_id":"cebpf4jnsgd1na2vs0mg"},{"bike_id":"2a4b48ff-f15e-4529-ac7f-d91f65542b5e","system_id":"levelo_inurba_marseille","lat":43.24654,"lon":5.38895,"is_reserved":false,"is_disabled":false,"rental_uris":{"android":"levelo://app?vid=2a4b48ff-f15e-4529-ac7f-d91f65542b5e","ios":"levelo://app?vid=2a4b48ff-f15e-4529-ac7f-d91f65542b5e"},"vehicle_type_id":"4","last_reported":1732720210,"current_range_meters":30000,"station_id":"ce4bhg12rcd13ifvqf60","pricing_plan_id":"cebpf4jnsgd1na2vs0mg"},{"bike_id":"6ee15eab-303d-4146-a703-589cc13bf7d1","system_id":"levelo_inurba_marseille","lat":43.29557,"lon":5.4229,"is_reserved":false,"is_disabled":true,"rental_uris":{"android":"levelo://app?vid=6ee15eab-303d-4146-a703-589cc13bf7d1","ios":"levelo://app?vid=6ee15eab-303d-4146-a703-589cc13bf7d1"},"vehicle_type_id":"4","last_reported":1732720210,"current_range_meters":0,"station_id":"ce4bhph2rcd13ifvqhdg","pricing_plan_id":"cebpf4jnsgd1na2vs0mg"},{"bike_id":"e90518ef-5cf2-4e67-9525-b8f5e2b9c3a2","system_id":"levelo_inurba_marseille","lat":43.27379,"lon":5.36265,"is_reserved":false,"is_disabled":true,"rental_uris":{"android":"levelo://app?vid=e90518ef-5cf2-4e67-9525-b8f5e2b9c3a2","ios":"levelo://app?vid=e90518ef-5cf2-4e67-9525-b8f5e2b9c3a2"},"vehicle_type_id":"4","last_reported":1732720210,"current_range_meters":400,"station_id":"ce4bhbh2rcd13ifvqeo0","pricing_plan_id":"cebpf4jnsgd1na2vs0mg"},{"bike_id":"5d418990-4329-4391-987e-22074359d512","system_id":"levelo_inurba_marseille","lat":43.23195,"lon":5.35553,"is_reserved":false,"is_disabled":false,"rental_uris":{"android":"levelo://app?vid=5d418990-4329-4391-987e-22074359d512","ios":"levelo://app?vid=5d418990-4329-4391-987e-22074359d512"},"vehicle_type_id":"4","last_reported":1732720210,"current_range_meters":17600,"station_id":"ce4bhu92rcd13ifvqi70","pricing_plan_id":"cebpf4jnsgd1na2vs0mg"},{"bike_id":"4b4a1a19-19a4-4aa7-882d-efdb55e702a3","system_id":"levelo_inurba_marseille","lat":43.29917,"lon":5.37476,"is_reserved":false,"is_disabled":false,"rental_uris":{"android":"levelo://app?vid=4b4a1a19-19a4-4aa7-882d-efdb55e702a3","ios":"levelo://app?vid=4b4a1a19-19a4-4aa7-882d-efdb55e702a3"},"vehicle_type_id":"4","last_reported":1732720210,"current_range_meters":38400,"station_id":"ce4bgjh2rcd13ifvqbg0","pricing_plan_id":"cebpf4jnsgd1na2vs0mg"},{"bike_id":"f7f6a96a-20cb-4e65-816d-53e397856901","system_id":"levelo_inurba_marseille","lat":43.27171,"lon":5.40996,"is_reserved":false,"is_disabled":false,"rental_uris":{"android":"levelo://app?vid=f7f6a96a-20cb-4e65-816d-53e397856901","ios":"levelo://app?vid=f7f6a96a-20cb-4e65-816d-53e397856901"},"vehicle_type_id":"4","last_reported":1732720210,"current_range_meters":31200,"station_id":"ce4bhl12rcd13ifvqgf0","pricing_plan_id":"cebpf4jnsgd1na2vs0mg"},{"bike_id":"7933cfd1-5013-467d-adf5-0e3247a25526","system_id":"levelo_inurba_marseille","lat":43.28706,"lon":5.39994,"is_reserved":false,"is_disabled":false,"rental_uris":{"android":"levelo://app?vid=7933cfd1-5013-467d-adf5-0e3247a25526","ios":"levelo://app?vid=7933cfd1-5013-467d-adf5-0e3247a25526"},"vehicle_type_id":"4","last_reported":1732720210,"current_range_meters":22800,"station_id":"ce4bho92rcd13ifvqh3g","pricing_plan_id":"cebpf4jnsgd1na2vs0mg"},{"bike_id":"6412a5a5-b204-43dc-b7ff-45e01b742c65","system_id":"levelo_inurba_marseille","lat":43.27999,"lon":5.40009,"is_reserved":false,"is_disabled":false,"rental_uris":{"android":"levelo://app?vid=6412a5a5-b204-43dc-b7ff-45e01b742c65","ios":"levelo://app?vid=6412a5a5-b204-43dc-b7ff-45e01b742c65"},"vehicle_type_id":"4","last_reported":1732720210,"current_range_meters":14000,"station_id":"ce4bho92rcd13ifvqh4g","pricing_plan_id":"cebpf4jnsgd1na2vs0mg"},{"bike_id":"a7cbc1dc-f0f8-4875-bbb5-195f6fbe1dd8","system_id":"levelo_inurba_marseille","lat":43.2901,"lon":5.35609,"is_reserved":false,"is_disabled":false,"rental_uris":{"android":"levelo://app?vid=a7cbc1dc-f0f8-4875-bbb5-195f6fbe1dd8","ios":"levelo://app?vid=a7cbc1dc-f0f8-4875-bbb5-195f6fbe1dd8"},"vehicle_type_id":"4","last_reported":1732720210,"current_range_meters":32400,"station_id":"ce4bhb92rcd13ifvqen0","pricing_plan_id":"cebpf4jnsgd1na2vs0mg"},{"bike_id":"1d53b8a4-d427-47ed-a67e-5baca0b22496","system_id":"levelo_inurba_marseille","lat":43.29592,"lon":5.37533,"is_reserved":false,"is_disabled":true,"rental_uris":{"android":"levelo://app?vid=1d53b8a4-d427-47ed-a67e-5baca0b22496","ios":"levelo://app?vid=1d53b8a4-d427-47ed-a67e-5baca0b22496"},"vehicle_type_id":"4","last_reported":1732720210,"current_range_meters":36400,"station_id":"ce4bgh92rcd13ifvqb50","pricing_plan_id":"cebpf4jnsgd1na2vs0mg"},{"bike_id":"6f1f8dda-57ee-4778-a172-f1293520ef6e","system_id":"levelo_inurba_marseille","lat":43.32297,"lon":5.38292,"is_reserved":false,"is_disabled":false,"rental_uris":{"android":"levelo://app?vid=6f1f8dda-57ee-4778-a172-f1293520ef6e","ios":"levelo://app?vid=6f1f8dda-57ee-4778-a172-f1293520ef6e"},"vehicle_type_id":"4","last_reported":1732720210,"current_range_meters":38800,"station_id":"ce4bhr12rcd13ifvqhqg","pricing_plan_id":"cebpf4jnsgd1na2vs0mg"},{"bike_id":"6a183b96-1b96-4d88-9308-3239877e209c","system_id":"levelo_inurba_marseille","lat":43.30421,"lon":5.41281,"is_reserved":false,"is_disabled":false,"rental_uris":{"android":"levelo://app?vid=6a183b96-1b96-4d88-9308-3239877e209c","ios":"levelo://app?vid=6a183b96-1b96-4d88-9308-3239877e209c"},"vehicle_type_id":"4","last_reported":1732720210,"current_range_meters":36400,"station_id":"ce4bhop2rcd13ifvqh8g","pricing_plan_id":"cebpf4jnsgd1na2vs0mg"},{"bike_id":"c87f4b6a-d864-4f5e-a351-73476ca52ed5","system_id":"levelo_inurba_marseille","lat":43.28471,"lon":5.39281,"is_reserved":false,"is_disabled":false,"rental_uris":{"android":"levelo://app?vid=c87f4b6a-d864-4f5e-a351-73476ca52ed5","ios":"levelo://app?vid=c87f4b6a-d864-4f5e-a351-73476ca52ed5"},"vehicle_type_id":"4","last_reported":1732720210,"current_range_meters":17600,"station_id":"","pricing_plan_id":"cebpf4jnsgd1na2vs0mg"},{"bike_id":"11e33eb7-9888-468a-a37e-59711cc3dd96","system_id":"levelo_inurba_marseille","lat":43.30511,"lon":5.37098,"is_reserved":false,"is_disabled":false,"rental_uris":{"android":"levelo://app?vid=11e33eb7-9888-468a-a37e-59711cc3dd96","ios":"levelo://app?vid=11e33eb7-9888-468a-a37e-59711cc3dd96"},"vehicle_type_id":"4","last_reported":1732720210,"current_range_meters":38000,"station_id":"","pricing_plan_id":"cebpf4jnsgd1na2vs0mg"},{"bike_id":"0c82d68e-7c93-4d2e-aff2-b990061d770e","system_id":"levelo_inurba_marseille","lat":43.32464,"lon":5.36565,"is_reserved":false,"is_disabled":false,"rental_uris":{"android":"levelo://app?vid=0c82d68e-7c93-4d2e-aff2-b990061d770e","ios":"levelo://app?vid=0c82d68e-7c93-4d2e-aff2-b990061d770e"},"vehicle_type_id":"4","last_reported":1732720210,"current_range_meters":38000,"station_id":"ce4bhs12rcd13ifvqhvg","pricing_plan_id":"cebpf4jnsgd1na2vs0mg"},{"bike_id":"5af795bd-1be6-40c3-9eb4-314b3a593482","system_id":"levelo_inurba_marseille","lat":43.2508,"lon":5.39514,"is_reserved":false,"is_disabled":false,"rental_uris":{"android":"levelo://app?vid=5af795bd-1be6-40c3-9eb4-314b3a593482","ios":"levelo://app?vid=5af795bd-1be6-40c3-9eb4-314b3a593482"},"vehicle_type_id":"4","last_reported":1732720210,"current_range_meters":38800,"station_id":"ce4bhm12rcd13ifvqgkg","pricing_plan_id":"cebpf4jnsgd1na2vs0mg"},{"bike_id":"49b7caa5-ccea-410a-a008-1d405e625e30","system_id":"levelo_inurba_marseille","lat":43.29863,"lon":5.38901,"is_reserved":false,"is_disabled":false,"rental_uris":{"android":"levelo://app?vid=49b7caa5-ccea-410a-a008-1d405e625e30","ios":"levelo://app?vid=49b7caa5-ccea-410a-a008-1d405e625e30"},"vehicle_type_id":"4","last_reported":1732720210,"current_range_meters":38000,"station_id":"ce4bh392rcd13ifvqdl0","pricing_plan_id":"cebpf4jnsgd1na2vs0mg"},{"bike_id":"0782617b-cfe2-4368-bb4a-9851f343875c","system_id":"levelo_inurba_marseille","lat":43.29612,"lon":5.37714,"is_reserved":false,"is_disabled":false,"rental_uris":{"android":"levelo://app?vid=0782617b-cfe2-4368-bb4a-9851f343875c","ios":"levelo://app?vid=0782617b-cfe2-4368-bb4a-9851f343875c"},"vehicle_type_id":"4","last_reported":1732720210,"current_range_meters":12800,"station_id":"ce4bgi92rcd13ifvqb90","pricing_plan_id":"cebpf4jnsgd1na2vs0mg"},{"bike_id":"19d15acd-2011-4f27-b78c-ab43bf81225a","system_id":"levelo_inurba_marseille","lat":43.26558,"lon":5.37303,"is_reserved":false,"is_disabled":true,"rental_uris":{"android":"levelo://app?vid=19d15acd-2011-4f27-b78c-ab43bf81225a","ios":"levelo://app?vid=19d15acd-2011-4f27-b78c-ab43bf81225a"},"vehicle_type_id":"4","last_reported":1732720210,"current_range_meters":0,"station_id":"ce4bhg12rcd13ifvqf70","pricing_plan_id":"cebpf4jnsgd1na2vs0mg"},{"bike_id":"ff48d038-d7f5-43f0-a6fa-243d7a2691d9","system_id":"levelo_inurba_marseille","lat":43.24995,"lon":5.38932,"is_reserved":false,"is_disabled":false,"rental_uris":{"android":"levelo://app?vid=ff48d038-d7f5-43f0-a6fa-243d7a2691d9","ios":"levelo://app?vid=ff48d038-d7f5-43f0-a6fa-243d7a2691d9"},"vehicle_type_id":"4","last_reported":1732720210,"current_range_meters":25200,"station_id":"ce4bhgp2rcd13ifvqfd0","pricing_plan_id":"cebpf4jnsgd1na2vs0mg"},{"bike_id":"fa87c63e-b59b-4a5e-870d-81f8aaec5938","system_id":"levelo_inurba_marseille","lat":43.31995,"lon":5.38158,"is_reserved":false,"is_disabled":false,"rental_uris":{"android":"levelo://app?vid=fa87c63e-b59b-4a5e-870d-81f8aaec5938","ios":"levelo://app?vid=fa87c63e-b59b-4a5e-870d-81f8aaec5938"},"vehicle_type_id":"4","last_reported":1732720210,"current_range_meters":38800,"station_id":"ce4bhr12rcd13ifvqhpg","pricing_plan_id":"cebpf4jnsgd1na2vs0mg"},{"bike_id":"5f6b0a5c-553e-4624-a52a-ca7d4b2f501d","system_id":"levelo_inurba_marseille","lat":43.28933,"lon":5.36637,"is_reserved":false,"is_disabled":false,"rental_uris":{"android":"levelo://app?vid=5f6b0a5c-553e-4624-a52a-ca7d4b2f501d","ios":"levelo://app?vid=5f6b0a5c-553e-4624-a52a-ca7d4b2f501d"},"vehicle_type_id":"4","last_reported":1732720210,"current_range_meters":24800,"station_id":"ce4bhap2rcd13ifvqek0","pricing_plan_id":"cebpf4jnsgd1na2vs0mg"},