{"last_updated":1743906295,"ttl":60,"version":"2.2","data":{"bikes":[{"bike_id":"293d590c-ef72-4926-9355-e9d8f98b522c","system_id":"levelo_inurba_marseille","lat":43.30331,"lon":5.40452,"is_reserved":false,"is_disabled":false,"rental_uris":{"android":"levelo://app?vid=293d590c-ef72-4926-9355-e9d8f98b522c","ios":"levelo://app?vid=293d590c-ef72-4926-9355-e9d8f98b522c"},"vehicle_type_id":"4","last_reported":1743906295,"current_range_meters":2800,"station_id":"ce4bh012rcd13ifvqd10","pricing_plan_id":"cebpf4jnsgd1na2vs0mg"},{"bike_id":"7c7f0e84-b938-421f-ba51-f3a9e4bfdd8e","system_id":"levelo_inurba_marseille","lat":43.28687,"lon":5.39987,"is_reserved":false,"is_disabled":false,"rental_uris":{"android":"levelo://app?vid=7c7f0e84-b938-421f-ba51-f3a9e4bfdd8e","ios":"levelo://app?vid=7c7f0e84-b938-421f-ba51-f3a9e4bfdd8e"},"vehicle_type_id":"4","last_reported":1743906295,"current_range_meters":3200,"station_id":"ce4bho92rcd13ifvqh3g","pricing_plan_id":"cebpf4jnsgd1na2vs0mg"},{"bike_id":"9646ab3d-e520-4f4a-9f92-d1e85e785b4a","system_id":"levelo_inurba_marseille","lat":43.3012,"lon":5.39898,"is_reserved":false,"is_disabled":false,"rental_uris":{"android":"levelo://app?vid=9646ab3d-e520-4f4a-9f92-d1e85e785b4a","ios":"levelo://app?vid=9646ab3d-e520-4f4a-9f92-d1e85e785b4a"},"vehicle_type_id":"4","last_reported":1743906295,"current_range_meters":3200,"station_id":"ce4bh0h2rcd13ifvqd40","pricing_plan_id":"cebpf4jnsgd1na2vs0mg"},{"bike_id":"e758fc19-b2e3-4298-a2c5-166cfc54196d","system_id":"levelo_inurba_marseille","lat":43.311676,"lon":5.38713,"is_reserved":false,"is_disabled":false,"rental_uris":{"android":"levelo://app?vid=e758fc19-b2e3-4298-a2c5-166cfc54196d","ios":"levelo://app?vid=e758fc19-b2e3-4298-a2c5-166cfc54196d"},"vehicle_type_id":"4","last_reported":1743906295,"current_range_meters":3600,"station_id":"ce4bgv12rcd13ifvqcp0","pricing_plan_id":"cebpf4jnsgd1na2vs0mg"},{"bike_id":"b991118a-b3fd-4081-a6c6-23b69168496a","system_id":"levelo_inurba_marseille","lat":43.21774,"lon":5.34517,"is_reserved":false,"is_disabled":true,"rental_uris":{"android":"levelo://app?vid=b991118a-b3fd-4081-a6c6-23b69168496a","ios":"levelo://app?vid=b991118a-b3fd-4081-a6c6-23b69168496a"},"vehicle_type_id":"4","last_reported":1743906295,"current_range_meters":3600,"station_id":"","pricing_plan_id":"cebpf4jnsgd1na2vs0mg"},{"bike_id":"32bf51bb-97b5-4077-a61d-920c581ee021","system_id":"levelo_inurba_marseille","lat":43.30784,"lon":5.37644,"is_reserved":false,"is_disabled":false,"rental_uris":{"android":"levelo://app?vid=32bf51bb-97b5-4077-a61d-920c581ee021","ios":"levelo://app?vid=32bf51bb-97b5-4077-a61d-920c581ee021"},"vehicle_type_id":"4","last_reported":1743906295,"current_range_meters":3600,"station_id":"ce4bgv92rcd13ifvqcq0","pricing_plan_id":"cebpf4jnsgd1na2vs0mg"},{"bike_id":"9f11ddad-f9cf-432b-8e0c-b6536f5e7092","system_id":"levelo_inurba_marseille","lat":43.27955,"lon":5.41032,"is_reserved":false,"is_disabled":false,"rental_uris":{"android":"levelo://app?vid=9f11ddad-f9cf-432b-8e0c-b6536f5e7092","ios":"levelo://app?vid=9f11ddad-f9cf-432b-8e0c-b6536f5e7092"},"vehicle_type_id":"4","last_reported":1743906295,"current_range_meters":3600,"station_id":"ce4bhnp2rcd13ifvqh0g","pricing_plan_id":"cebpf4jnsgd1na2vs0mg"},{"bike_id":"e12865bf-ad01-44a1-854d-bd6412a6e31b","system_id":"levelo_inurba_marseille","lat":43.307981,"lon":5.381656,"is_reserved":false,"is_disabled":false,"rental_uris":{"android":"levelo://app?vid=e12865bf-ad01-44a1-854d-bd6412a6e31b","ios":"levelo://app?vid=e12865bf-ad01-44a1-854d-bd6412a6e31b"},"vehicle_type_id":"4","last_reported":1743906295,"current_range_meters":3600,"station_id":"ce4bgt12rcd13ifvqce0","pricing_plan_id":"cebpf4jnsgd1na2vs0mg"},{"bike_id":"50297066-959d-45c5-a71e-b062cc3724ec","system_id":"levelo_inurba_marseille","lat":43.307897,"lon":5.373197,"is_reserved":false,"is_disabled":false,"rental_uris":{"android":"levelo://app?vid=50297066-959d-45c5-a71e-b062cc3724ec","ios":"levelo://app?vid=50297066-959d-45c5-a71e-b062cc3724ec"},"vehicle_type_id":"4","last_reported":1743906295,"current_range_meters":3600,"station_id":"","pricing_plan_id":"cebpf4jnsgd1na2vs0mg"},{"bike_id":"02dd5f37-e4ce-4efc-9ce6-2776472fc632","system_id":"levelo_inurba_marseille","lat":43.25115,"lon":5.40314,"is_reserved":false,"is_disabled":false,"rental_uris":{"android":"levelo://app?vid=02dd5f37-e4ce-4efc-9ce6-2776472fc632","ios":"levelo://app?vid=02dd5f37-e4ce-4efc-9ce6-2776472fc632"},"vehicle_type_id":"4","last_reported":1743906295,"current_range_meters":3600,"station_id":"ce4bhlh2rcd13ifvqgig","pricing_plan_id":"cebpf4jnsgd1na2vs0mg"},{"bike_id":"40d86564-5d7f-4f9b-a447-03cd0a10ad79","system_id":"levelo_inurba_marseille","lat":43.30442,"lon":5.38872,"is_reserved":false,"is_disabled":false,"rental_uris":{"android":"levelo://app?vid=40d86564-5d7f-4f9b-a447-03cd0a10ad79","ios":"levelo://app?vid=40d86564-5d7f-4f9b-a447-03cd0a10ad79"},"vehicle_type_id":"4","last_reported":1743906295,"current_range_meters":4000,"station_id":"ce4bgk12rcd13ifvqbi0","pricing_plan_id":"cebpf4jnsgd1na2vs0mg"},{"bike_id":"351fe75b-eb04-4abc-9eb5-865028629e1f","system_id":"levelo_inurba_marseille","lat":43.29273,"lon":5.40148,"is_reserved":false,"is_disabled":false,"rental_uris":{"android":"levelo://app?vid=351fe75b-eb04-4abc-9eb5-865028629e1f","ios":"levelo://app?vid=351fe75b-eb04-4abc-9eb5-865028629e1f"},"vehicle_type_id":"4","last_reported":1743906295,"current_range_meters":4400,"station_id":"ce4bh312rcd13ifvqdk0","pricing_plan_id":"cebpf4jnsgd1na2vs0mg"},{"bike_id":"964597bd-5979-41d5-94ee-3e1c7f3d3241","system_id":"levelo_inurba_marseille","lat":43.29052,"lon":5.37163,"is_reserved":false,"is_disabled":false,"rental_uris":{"android":"levelo://app?vid=964597bd-5979-41d5-94ee-3e1c7f3d3241","ios":"levelo://app?vid=964597bd-5979-41d5-94ee-3e1c7f3d3241"},"vehicle_type_id":"4","last_reported":1743906295,"current_range_meters":4400,"station_id":"ce4bh5p2rcd13ifvqe4g","pricing_plan_id":"cebpf4jnsgd1na2vs0mg"},{"bike_id":"1acf6de2-3dfc-42e1-a78a-a8d9b3cf9f62","system_id":"levelo_inurba_marseille","lat":43.292725,"lon":5.368463,"is_reserved":false,"is_disabled":false,"rental_uris":{"android":"levelo://app?vid=1acf6de2-3dfc-42e1-a78a-a8d9b3cf9f62","ios":"levelo://app?vid=1acf6de2-3dfc-42e1-a78a-a8d9b3cf9f62"},"vehicle_type_id":"4","last_reported":1743906295,"current_range_meters":4000,"station_id":"ce4bhip2rcd13ifvqft0","pricing_plan_id":"cebpf4jnsgd1na2vs0mg"},{"bike_id":"67bfd585-c195-4c9f-97cc-5e77c96701dd","system_id":"levelo_inurba_marseille","lat":43.30442,"lon":5.3975,"is_reserved":false,"is_disabled":false,"rental_uris":{"android":"levelo://app?vid=67bfd585-c195-4c9f-97cc-5e77c96701dd","ios":"levelo://app?vid=67bfd585-c195-4c9f-97cc-5e77c96701dd"},"vehicle_type_id":"4","last_reported":1743906295,"current_range_meters":4400,"station_id":"ce4bh092rcd13ifvqd20","pricing_plan_id":"cebpf4jnsgd1na2vs0mg"},{"bike_id":"c73a85e2-fb2d-4d21-bea0-c717ffa7bb89","system_id":"levelo_inurba_marseille","lat":43.30447,"lon":5.36704,"is_reserved":false,"is_disabled":true,"rental_uris":{"android":"levelo://app?vid=c73a85e2-fb2d-4d21-bea0-c717ffa7bb89","ios":"levelo://app?vid=c73a85e2-fb2d-4d21-bea0-c717ffa7bb89"},"vehicle_type_id":"4","last_reported":1743906295,"current_range_meters":4800,"station_id":"","pricing_plan_id":"cebpf4jnsgd1na2vs0mg"},{"bike_id":"74aa386e-40bb-4033-8cf4-8be7f9c96b67","system_id":"levelo_inurba_marseille","lat":43.26226,"lon":5.37919,"is_reserved":false,"is_disabled":true,"rental_uris":{"android":"levelo://app?vid=74aa386e-40bb-4033-8cf4-8be7f9c96b67","ios":"levelo://app?vid=74aa386e-40bb-4033-8cf4-8be7f9c96b67"},"vehicle_type_id":"4","last_reported":1743906295,"current_range_meters":4800,"station_id":"","pricing_plan_id":"cebpf4jnsgd1na2vs0mg"},{"bike_id":"193d19dd-1c9d-4422-aa49-2eafd510e946","system_id":"levelo_inurba_marseille","lat":43.28857,"lon":5.39325,"is_reserved":false,"is_disabled":false,"rental_uris":{"android":"levelo://app?vid=193d19dd-1c9d-4422-aa49-2eafd510e946","ios":"levelo://app?vid=193d19dd-1c9d-4422-aa49-2eafd510e946"},"vehicle_type_id":"4","last_reported":1743906295,"current_range_meters":4800,"station_id":"ce4bh2p2rcd13ifvqdi0","pricing_plan_id":"cebpf4jnsgd1na2vs0mg"},{"bike_id":"21f8acc6-ad6e-4601-b104-7de5e76cb194","system_id":"levelo_inurba_marseille","lat":43.28151,"lon":5.42643,"is_reserved":false,"is_disabled":false,"rental_uris":{"android":"levelo://app?vid=21f8acc6-ad6e-4601-b104-7de5e76cb194","ios":"levelo://app?vid=21f8acc6-ad6e-4601-b104-7de5e76cb194"},"vehicle_type_id":"4","last_reported":1743906295,"current_range_meters":4800,"station_id":"ce4bhnh2rcd13ifvqgug","pricing_plan_id":"cebpf4jnsgd1na2vs0mg"},{"bike_id":"de50bbab-1368-4da3-a92a-1e482f1dcc12","system_id":"levelo_inurba_marseille","lat":43.29057,"lon":5.37151,"is_reserved":false,"is_disabled":false,"rental_uris":{"android":"levelo://app?vid=de50bbab-1368-4da3-a92a-1e482f1dcc12","ios":"levelo://app?vid=de50bbab-1368-4da3-a92a-1e482f1dcc12"},"vehicle_type_id":"4","last_reported":1743906295,"current_range_meters":4800,"station_id":"ce4bh5p2rcd13ifvqe4g","pricing_plan_id":"cebpf4jnsgd1na2vs0mg"},{"bike_id":"dc7e3549-ceba-4c23-bcc5-f429c3b0f5d7","system_id":"levelo_inurba_marseille","lat":43.28403,"lon":5.375183,"is_reserved":false,"is_disabled":false,"rental_uris":{"android":"levelo://app?vid=dc7e3549-ceba-4c23-bcc5-f429c3b0f5d7","ios":"levelo://app?vid=dc7e3549-ceba-4c23-bcc5-f429c3b0f5d7"},"vehicle_type_id":"4","last_reported":1743906295,"current_range_meters":4800,"station_id":"ce4bh412rcd13ifvqds0","pricing_plan_id":"cebpf4jnsgd1na2vs0mg"},{"bike_id":"11101b03-02c0-4bb4-a9dc-326497f91f4e","system_id":"levelo_inurba_marseille","lat":43.29252,"lon":5.40911,"is_reserved":false,"is_disabled":true,"rental_uris":{"android":"levelo://app?vid=11101b03-02c0-4bb4-a9dc-326497f91f4e","ios":"levelo://app?vid=11101b03-02c0-4bb4-a9dc-326497f91f4e"},"vehicle_type_id":"4","last_reported":1743906295,"current_range_meters":4800,"station_id":"ce4bh192rcd13ifvqdc0","pricing_plan_id":"cebpf4jnsgd1na2vs0mg"},{"bike_id":"95ebc31d-ba2c-4855-9413-141191b5e202","system_id":"levelo_inurba_marseille","lat":43.29299,"lon":5.40116,"is_reserved":false,"is_disabled":true,"rental_uris":{"android":"levelo://app?vid=95ebc31d-ba2c-4855-9413-141191b5e202","ios":"levelo://app?vid=95ebc31d-ba2c-4855-9413-141191b5e202"},"vehicle_type_id":"4","last_reported":1743906295,"current_range_meters":4800,"station_id":"ce4bh312rcd13ifvqdk0","pricing_plan_id":"cebpf4jnsgd1na2vs0mg"},{"bike_id":"4f1b2510-6b89-4469-8841-e8ba00c73ccf","system_id":"levelo_inurba_marseille","lat":43.28377,"lon":5.3864,"is_reserved":false,"is_disabled":false,"rental_uris":{"android":"levelo://app?vid=4f1b2510-6b89-4469-8841-e8ba00c73ccf","ios":"levelo://app?vid=4f1b2510-6b89-4469-8841-e8ba00c73ccf"},"vehicle_type_id":"4","last_reported":1743906295,"current_range_meters":5600,"station_id":"ce4bh492rcd13ifvqdvg","pricing_plan_id":"cebpf4jnsgd1na2vs0mg"},{"bike_id":"9a15121a-5462-466d-985c-935e6e5e6b97","system_id":"levelo_inurba_marseille","lat":43.30249,"lon":5.40049,"is_reserved":false,"is_disabled":false,"rental_uris":{"android":"levelo://app?vid=9a15121a-5462-466d-985c-935e6e5e6b97","ios":"levelo://app?vid=9a15121a-5462-466d-985c-935e6e5e6b97"},"vehicle_type_id":"4","last_reported":1743906295,"current_range_meters":5600,"station_id":"ce4bgvh2rcd13ifvqcs0","pricing_plan_id":"cebpf4jnsgd1na2vs0mg"},{"bike_id":"9190e7bb-cbf9-4279-b7c3-a106570cc86b","system_id":"levelo_inurba_marseille","lat":43.30245,"lon":5.40054,"is_reserved":false,"is_disabled":false,"rental_uris":{"android":"levelo://app?vid=9190e7bb-cbf9-4279-b7c3-a106570cc86b","ios":"levelo://app?vid=9190e7bb-cbf9-4279-b7c3-a106570cc86b"},"vehicle_type_id":"4","last_reported":1743906295,"current_range_meters":5600,"station_id":"ce4bgvh2rcd13ifvqcs0","pricing_plan_id":"cebpf4jnsgd1na2vs0mg"},{"bike_id":"ca519737-f34f-4e55-baab-dc89f354b8df","system_id":"levelo_inurba_marseille","lat":43.30327,"lon":5.40428,"is_reserved":false,"is_disabled":false,"rental_uris":{"android":"levelo://app?vid=ca519737-f34f-4e55-baab-dc89f354b8df","ios":"levelo://app?vid=ca519737-f34f-4e55-baab-dc89f354b8df"},"vehicle_type_id":"4","last_reported":1743906295,"current_range_meters":5600,"station_id":"ce4bh012rcd13ifvqd10","pricing_plan_id":"cebpf4jnsgd1na2vs0mg"},{"bike_id":"e7b956ce-2ab2-4301-8fd3-6312d753e8f6","system_id":"levelo_inurba_marseille","lat":43.24655,"lon":5.38154,"is_reserved":false,"is_disabled":true,"rental_uris":{"android":"levelo://app?vid=e7b956ce-2ab2-4301-8fd3-6312d753e8f6","ios":"levelo://app?vid=e7b956ce-2ab2-4301-8fd3-6312d753e8f6"},"vehicle_type_id":"4","last_reported":1743906295,"current_range_meters":6000,"station_id":"ce4bhih2rcd13ifvqfr0","pricing_plan_id":"cebpf4jnsgd1na2vs0mg"},{"bike_id":"05736583-a4df-4140-bff4-80483d983a4a","system_id":"levelo_inurba_marseille","lat":43.30038,"lon":5.3998,"is_reserved":false,"is_disabled":false,"rental_uris":{"android":"levelo://app?vid=05736583-a4df-4140-bff4-80483d983a4a","ios":"levelo://app?vid=05736583-a4df-4140-bff4-80483d983a4a"},"vehicle_type_id":"4","last_reported":1743906295,"current_range_meters":6000,"station_id":"","pricing_plan_id":"cebpf4jnsgd1na2vs0mg"},{"bike_id":"3f83aad8-3e3b-4d5a-9f28-c15287cc1e10","system_id":"levelo_inurba_marseille","lat":43.284121,"lon":5.375158,"is_reserved":false,"is_disabled":false,"rental_uris":{"android":"levelo://app?vid=3f83aad8-3e3b-4d5a-9f28-c15287cc1e10","ios":"levelo://app?vid=3f83aad8-3e3b-4d5a-9f28-c15287cc1e10"},"vehicle_type_id":"4","last_reported":1743906295,"current_range_meters":6400,"station_id":"ce4bh412rcd13ifvqds0","pricing_plan_id":"cebpf4jnsgd1na2vs0mg"},{"bike_id":"8fa92ff1-c2cb-4fa2-b3ce-e14c12ce1bf4","system_id":"levelo_inurba_marseille","lat":43.28163,"lon":5.42629,"is_reserved":false,"is_disabled":false,"rental_uris":{"android":"levelo://app?vid=8fa92ff1-c2cb-4fa2-b3ce-e14c12ce1bf4","ios":"levelo://app?vid=8fa92ff1-c2cb-4fa2-b3ce-e14c12ce1bf4"},"vehicle_type_id":"4","last_reported":1743906295,"current_range_meters":6400,"station_id":"ce4bhnh2rcd13ifvqgug","pricing_plan_id":"cebpf4jnsgd1na2vs0mg"},{"bike_id":"91c1edaf-977d-4632-affd-dc0004bc3721","system_id":"levelo_inurba_marseille","lat":43.279111,"lon":5.395905,"is_reserved":false,"is_disabled":false,"rental_uris":{"android":"levelo://app?vid=91c1edaf-977d-4632-affd-dc0004bc3721","ios":"levelo://app?vid=91c1edaf-977d-4632-affd-dc0004bc3721"},"vehicle_type_id":"4","last_reported":1743906295,"current_range_meters":6400,"station_id":"ce4bhf92rcd13ifvqf40","pricing_plan_id":"cebpf4jnsgd1na2vs0mg"},{"bike_id":"2089321a-808d-4e73-8e35-bbbd6284c52b","system_id":"levelo_inurba_marseille","lat":43.29727,"lon":5.36602,"is_reserved":false,"is_disabled":false,"rental_uris":{"android":"levelo://app?vid=2089321a-808d-4e73-8e35-bbbd6284c52b","ios":"levelo://app?vid=2089321a-808d-4e73-8e35-bbbd6284c52b"},"vehicle_type_id":"4","last_reported":1743906295,"current_range_meters":6400,"station_id":"ce4bgn12rcd13ifvqbt0","pricing_plan_id":"cebpf4jnsgd1na2vs0mg"},{"bike_id":"c129ecbc-fa81-4169-8f04-cc6466a8fd4b","system_id":"levelo_inurba_marseille","lat":43.295593,"lon":5.422812,"is_reserved":false,"is_disabled":false,"rental_uris":{"android":"levelo://app?vid=c129ecbc-fa81-4169-8f04-cc6466a8fd4b","ios":"levelo://app?vid=c129ecbc-fa81-4169-8f04-cc6466a8fd4b"},"vehicle_type_id":"4","last_reported":1743906295,"current_range_meters":6400,"station_id":"ce4bhph2rcd13ifvqhdg","pricing_plan_id":"cebpf4jnsgd1na2vs0mg"},{"bike_id":"b71a90bd-6f85-4770-a515-2d0fa5402a88","system_id":"levelo_inurba_marseille","lat":43.30989,"lon":5.37957,"is_reserved":false,"is_disabled":false,"rental_uris":{"android":"levelo://app?vid=b71a90bd-6f85-4770-a515-2d0fa5402a88","ios":"levelo://app?vid=b71a90bd-6f85-4770-a515-2d0fa5402a88"},"vehicle_type_id":"4","last_reported":1743906295,"current_range_meters":6400,"station_id":"","pricing_plan_id":"cebpf4jnsgd1na2vs0mg"},{"bike_id":"6c6d4a54-f7f8-4fcb-9518-22e12af63f19","system_id":"levelo_inurba_marseille","lat":43.25823,"lon":5.39431,"is_reserved":false,"is_disabled":false,"rental_uris":{"android":"levelo://app?vid=6c6d4a54-f7f8-4fcb-9518-22e12af63f19","ios":"levelo://app?vid=6c6d4a54-f7f8-4fcb-9518-22e12af63f19"},"vehicle_type_id":"4","last_reported":1743906295,"current_range_meters":6400,"station_id":"ce4bhip2rcd13ifvqft0","pricing_plan_id":"cebpf4jnsgd1na2vs0mg"},{"bike_id":"feb6e46c-3fb2-45a9-a2fb-22ac62feb505","system_id":"levelo_inurba_marseille","lat":43.23049,"lon":5.35501,"is_reserved":false,"is_disabled":true,"rental_uris":{"android":"levelo://app?vid=feb6e46c-3fb2-45a9-a2fb-22ac62feb505","ios":"levelo://app?vid=feb6e46c-3fb2-45a9-a2fb-22ac62feb505"},"vehicle_type_id":"4","last_reported":1743906295,"current_range_meters":6400,"station_id":"cpo3342slgdg3j2ifvpg","pricing_plan_id":"cebpf4jnsgd1na2vs0mg"},{"bike_id":"0b23ddcf-b2fd-41c4-a6a0-db8ee83174a8","system_id":"levelo_inurba_marseille","lat":43.27973,"lon":5.38733,"is_reserved":false,"is_disabled":false,"rental_uris":{"android":"levelo://app?vid=0b23ddcf-b2fd-41c4-a6a0-db8ee83174a8","ios":"levelo://app?vid=0b23ddcf-b2fd-41c4-a6a0-db8ee83174a8"},"vehicle_type_id":"4","last_reported":1743906295,"current_range_meters":6800,"station_id":"ce4bhg12rcd13ifvqf80","pricing_plan_id":"cebpf4jnsgd1na2vs0mg"},{"bike_id":"9a36e749-313f-43fc-ac90-b52b5015306e","system_id":"levelo_inurba_marseille","lat":43.21178,"lon":5.35078,"is_reserved":false,"is_disabled":false,"rental_uris":{"android":"levelo://app?vid=9a36e749-313f-43fc-ac90-b52b5015306e","ios":"levelo://app?vid=9a36e749-313f-43fc-ac90-b52b5015306e"},"vehicle_type_id":"4","last_reported":1743906295,"current_range_meters":6800,"station_id":"st_cvj6sg6p6f1abm77japg","pricing_plan_id":"cebpf4jnsgd1na2vs0mg"},{"bike_id":"8ff7d88d-e165-4c8e-847a-c04ec538a98f","system_id":"levelo_inurba_marseille","lat":43.2926,"lon":5.40905,"is_reserved":false,"is_disabled":false,"rental_uris":{"android":"levelo://app?vid=8ff7d88d-e165-4c8e-847a-c04ec538a98f","ios":"levelo://app?vid=8ff7d88d-e165-4c8e-847a-c04ec538a98f"},"vehicle_type_id":"4","last_reported":1743906295,"current_range_meters":6800,"station_id":"ce4bh192rcd13ifvqdc0","pricing_plan_id":"cebpf4jnsgd1na2vs0mg"},{"bike_id":"d1335f24-6f00-4cf8-9341-b411caf17b68","system_id":"levelo_inurba_marseille","lat":43.30303,"lon":5.40475,"is_reserved":false,"is_disabled":false,"rental_uris":{"android":"levelo://app?vid=d1335f24-6f00-4cf8-9341-b411caf17b68","ios":"levelo://app?vid=d1335f24-6f00-4cf8-9341-b411caf17b68"},"vehicle_type_id":"4","last_reported":1743906295,"current_range_meters":6800,"station_id":"ce4bh012rcd13ifvqd10","pricing_plan_id":"cebpf4jnsgd1na2vs0mg"},{"bike_id":"0868e417-7cc5-4742-b16e-4407ef2bf098","system_id":"levelo_inurba_marseille","lat":43.30607,"lon":5.37214,"is_reserved":false,"is_disabled":false,"rental_uris":{"android":"levelo://app?vid=0868e417-7cc5-4742-b16e-4407ef2bf098","ios":"levelo://app?vid=0868e417-7cc5-4742-b16e-4407ef2bf098"},"vehicle_type_id":"4","last_reported":1743906295,"current_range_meters":6800,"station_id":"ce4bgqh2rcd13ifvqc4g","pricing_plan_id":"cebpf4jnsgd1na2vs0mg"},{"bike_id":"aee5ad9a-f0e6-4325-aab2-0d740c441f15","system_id":"levelo_inurba_marseille","lat":43.2871,"lon":5.39983,"is_reserved":false,"is_disabled":false,"rental_uris":{"android":"levelo://app?vid=aee5ad9a-f0e6-4325-aab2-0d740c441f15","ios":"levelo://app?vid=aee5ad9a-f0e6-4325-aab2-0d740c441f15"},"vehicle_type_id":"4","last_reported":1743906295,"current_range_meters":6800,"station_id":"ce4bho92rcd13ifvqh3g","pricing_plan_id":"cebpf4jnsgd1na2vs0mg"},{"bike_id":"db59c848-e5e3-4e93-b7fc-b83a882bd7f3","system_id":"levelo_inurba_marseille","lat":43.30644,"lon":5.40074,"is_reserved":false,"is_disabled":false,"rental_uris":{"android":"levelo://app?vid=db59c848-e5e3-4e93-b7fc-b83a882bd7f3","ios":"levelo://app?vid=db59c848-e5e3-4e93-b7fc-b83a882bd7f3"},"vehicle_type_id":"4","last_reported":1743906295,"current_range_meters":6800,"station_id":"ce4bh112rcd13ifvqda0","pricing_plan_id":"cebpf4jnsgd1na2vs0mg"},{"bike_id":"c952d374-5ef3-47bc-b922-879cef5c36f2","system_id":"levelo_inurba_marseille","lat":43.30322,"lon":5.4043,"is_reserved":false,"is_disabled":false,"rental_uris":{"android":"levelo://app?vid=c952d374-5ef3-47bc-b922-879cef5c36f2","ios":"levelo://app?vid=c952d374-5ef3-47bc-b922-879cef5c36f2"},"vehicle_type_id":"4","last_reported":1743906295,"current_range_meters":6800,"station_id":"ce4bh012rcd13ifvqd10","pricing_plan_id":"cebpf4jnsgd1na2vs0mg"},{"bike_id":"fb0d4993-67fa-4314-9525-ef2ba9197c72","system_id":"levelo_inurba_marseille","lat":43.30321,"lon":5.4059,"is_reserved":false,"is_disabled":false,"rental_uris":{"android":"levelo://app?vid=fb0d4993-67fa-4314-9525-ef2ba9197c72","ios":"levelo://app?vid=fb0d4993-67fa-4314-9525-ef2ba9197c72"},"vehicle_type_id":"4","last_reported":1743906295,"current_range_meters":7200,"station_id":"","pricing_plan_id":"cebpf4jnsgd1na2vs0mg"},{"bike_id":"ac7a85da-6a1d-42f4-b3e0-decaec458451","system_id":"levelo_inurba_marseille","lat":43.22922,"lon":5.35384,"is_reserved":false,"is_disabled":true,"rental_uris":{"android":"levelo://app?vid=ac7a85da-6a1d-42f4-b3e0-decaec458451","ios":"levelo://app?vid=ac7a85da-6a1d-42f4-b3e0-decaec458451"},"vehicle_type_id":"4","last_reported":1743906295,"current_range_meters":7200,"station_id":"cpo3532slgdg3j2ikp40","pricing_plan_id":"cebpf4jnsgd1na2vs0mg"},{"bike_id":"0d521fea-8d2e-4143-a269-c4dc173ef288","system_id":"levelo_inurba_marseille","lat":43.287024,"lon":5.399748,"is_reserved":false,"is_disabled":false,"rental_uris":{"android":"levelo://app?vid=0d521fea-8d2e-4143-a269-c4dc173ef288","ios":"levelo://app?vid=0d521fea-8d2e-4143-a269-c4dc173ef288"},"vehicle_type_id":"4","last_reported":1743906295,"current_range_meters":7200,"station_id":"ce4bho92rcd13ifvqh3g","pricing_plan_id":"cebpf4jnsgd1na2vs0mg"},{"bike_id":"4de2753b-47dd-45d8-8907-cb5207b9492d","system_id":"levelo_inurba_marseille","lat":43.283656,"lon":5.386226,"is_reserved":false,"is_disabled":false,"rental_uris":{"android":"levelo://app?vid=4de2753b-47dd-45d8-8907-cb5207b9492d","ios":"levelo://app?vid=4de2753b-47dd-45d8-8907-cb5207b9492d"},"vehicle_type_id":"4","last_reported":1743906295,"current_range_meters":7200,"station_id":"ce4bh492rcd13ifvqdvg","pricing_plan_id":"cebpf4jnsgd1na2vs0mg"},{"bike_id":"86950742-2a83-439a-b6d7-c0601bd4f799","system_id":"levelo_inurba_marseille","lat":43.28035,"lon":5.36942,"is_reserved":false,"is_disabled":false,"rental_uris":{"android":"levelo://app?vid=86950742-2a83-439a-b6d7-c0601bd4f799","ios":"levelo://app?vid=86950742-2a83-439a-b6d7-c0601bd4f799"},"vehicle_type_id":"4","last_reported":1743906295,"current_range_meters":7200,"station_id":"ce4bha12rcd13ifvqef0","pricing_plan_id":"cebpf4jnsgd1na2vs0mg"},{"bike_id":"eb79d1f9-7c91-4ea2-b5f8-796189743e1a","system_id":"levelo_inurba_marseille","lat":43.33722,"lon":5.39175,"is_reserved":false,"is_disabled":false,"rental_uris":{"android":"levelo://app?vid=eb79d1f9-7c91-4ea2-b5f8-796189743e1a","ios":"levelo://app?vid=eb79d1f9-7c91-4ea2-b5f8-796189743e1a"},"vehicle_type_id":"4","last_reported":1743906295,"current_range_meters":8000,"station_id":"ce4bhr92rcd13ifvqhsg","pricing_plan_id":"cebpf4jnsgd1na2vs0mg"},{"bike_id":"fa5e7a26-4eaf-41ce-9120-d31ec113c950","system_id":"levelo_inurba_marseille","lat":43.31178,"lon":5.38698,"is_reserved":false,"is_disabled":false,"rental_uris":{"android":"levelo://app?vid=fa5e7a26-4eaf-41ce-9120-d31ec113c950","ios":"levelo://app?vid=fa5e7a26-4eaf-41ce-9120-d31ec113c950"},"vehicle_type_id":"4","last_reported":1743906295,"current_range_meters":8000,"station_id":"ce4bgv12rcd13ifvqcp0","pricing_plan_id":"cebpf4jnsgd1na2vs0mg"},{"bike_id":"b58ad8a0-c08d-46b4-aa19-7fbb9bd04d04","system_id":"levelo_inurba_marseille","lat":43.30324,"lon":5.40429,"is_reserved":false,"is_disabled":false,"rental_uris":{"android":"levelo://app?vid=b58ad8a0-c08d-46b4-aa19-7fbb9bd04d04","ios":"levelo://app?vid=b58ad8a0-c08d-46b4-aa19-7fbb9bd04d04"},"vehicle_type_id":"4","last_reported":1743906295,"current_range_meters":8000,"station_id":"ce4bh012rcd13ifvqd10","pricing_plan_id":"cebpf4jnsgd1na2vs0mg"},{"bike_id":"bff09b07-b803-4e75-ad5e-1dd4320a5024","system_id":"levelo_inurba_marseille","lat":43.29445,"lon":5.39748,"is_reserved":false,"is_disabled":false,"rental_uris":{"android":"levelo://app?vid=bff09b07-b803-4e75-ad5e-1dd4320a5024","ios":"levelo://app?vid=bff09b07-b803-4e75-ad5e-1dd4320a5024"},"vehicle_type_id":"4","last_reported":1743906295,"current_range_meters":7200,"station_id":"ce4bh3h2rcd13ifvqdo0","pricing_plan_id":"cebpf4jnsgd1na2vs0mg"},{"bike_id":"98514e77-22f5-4e2b-9f65-8efc32d06320","system_id":"levelo_inurba_marseille","lat":43.25103,"lon":5.40319,"is_reserved":false,"is_disabled":false,"rental_uris":{"android":"levelo://app?vid=98514e77-22f5-4e2b-9f65-8efc32d06320","ios":"levelo://app?vid=98514e77-22f5-4e2b-9f65-8efc32d06320"},"vehicle_type_id":"4","last_reported":1743906295,"current_range_meters":8000,"station_id":"ce4bhlh2rcd13ifvqgig","pricing_plan_id":"cebpf4jnsgd1na2vs0mg"},{"bike_id":"9378cab7-1ef7-47d6-af28-c6473192be1a","system_id":"levelo_inurba_marseille","lat":43.31179,"lon":5.40765,"is_reserved":false,"is_disabled":false,"rental_uris":{"android":"levelo://app?vid=9378cab7-1ef7-47d6-af28-c6473192be1a","ios":"levelo://app?vid=9378cab7-1ef7-47d6-af28-c6473192be1a"},"vehicle_type_id":"4","last_reported":1743906295,"current_range_meters":8000,"station_id":"","pricing_plan_id":"cebpf4jnsgd1na2vs0mg"},{"bike_id":"da2c0523-95d2-4536-9674-1400e7cb2212","system_id":"levelo_inurba_marseille","lat":43.241804,"lon":5.397209,"is_reserved":false,"is_disabled":false,"rental_uris":{"android":"levelo://app?vid=da2c0523-95d2-4536-9674-1400e7cb2212","ios":"levelo://app?vid=da2c0523-95d2-4536-9674-1400e7cb2212"},"vehicle_type_id":"4","last_reported":1743906295,"current_range_meters":8000,"station_id":"ce4bhn12rcd13ifvqgpg","pricing_plan_id":"cebpf4jnsgd1na2vs0mg"},{"bike_id":"fdad6e5e-1467-4616-9d72-68b29d343e00","system_id":"levelo_inurba_marseille","lat":43.32298,"lon":5.38274,"is_reserved":false,"is_disabled":false,"rental_uris":{"android":"levelo://app?vid=fdad6e5e-1467-4616-9d72-68b29d343e00","ios":"levelo://app?vid=fdad6e5e-1467-4616-9d72-68b29d343e00"},"vehicle_type_id":"4","last_reported":1743906295,"current_range_meters":8000,"station_id":"ce4bhr12rcd13ifvqhqg","pricing_plan_id":"cebpf4jnsgd1na2vs0mg"},{"bike_id":"7b67800d-f82f-4a84-a388-fe0fb5c5cf2e","system_id":"levelo_inurba_marseille","lat":43.30406,"lon":5.39761,"is_reserved":false,"is_disabled":false,"rental_uris":{"android":"levelo://app?vid=7b67800d-f82f-4a84-a388-fe0fb5c5cf2e","ios":"levelo://app?vid=7b67800d-f82f-4a84-a388-fe0fb5c5cf2e"},"vehicle_type_id":"4","last_reported":1743906295,"current_range_meters":8000,"station_id":"ce4bh092rcd13ifvqd20","pricing_plan_id":"cebpf4jnsgd1na2vs0mg"},{"bike_id":"d144cdeb-94c3-4a1d-92d5-9d5462e2a94e","system_id":"levelo_inurba_marseille","lat":43.28032,"lon":5.36946,"is_reserved":false,"is_disabled":false,"rental_uris":{"android":"levelo://app?vid=d144cdeb-94c3-4a1d-92d5-9d5462e2a94e","ios":"levelo://app?vid=d144cdeb-94c3-4a1d-92d5-9d5462e2a94e"},"vehicle_type_id":"4","last_reported":1743906295,"current_range_meters":8000,"station_id":"ce4bha12rcd13ifvqef0","pricing_plan_id":"cebpf4jnsgd1na2vs0mg"},{"bike_id":"8e8105ce-63e2-4441-9ebe-d6a09a08a22e","system_id":"levelo_inurba_marseille","lat":43.29668,"lon":5.36204,"is_reserved":false,"is_disabled":false,"rental_uris":{"android":"levelo://app?vid=8e8105ce-63e2-4441-9ebe-d6a09a08a22e","ios":"levelo://app?vid=8e8105ce-63e2-4441-9ebe-d6a09a08a22e"},"vehicle_type_id":"4","last_reported":1743906295,"current_range_meters":8000,"station_id":"","pricing_plan_id":"cebpf4jnsgd1na2vs0mg"},{"bike_id":"9714c52f-0614-468a-ab4a-b727bdadc121","system_id":"levelo_inurba_marseille","lat":43.28456,"lon":5.35885,"is_reserved":false,"is_disabled":false,"rental_uris":{"android":"levelo://app?vid=9714c52f-0614-468a-ab4a-b727bdadc121","ios":"levelo://app?vid=9714c52f-0614-468a-ab4a-b727bdadc121"},"vehicle_type_id":"4","last_reported":1743906295,"current_range_meters":8000,"station_id":"ce4bhah2rcd13ifvqei0","pricing_plan_id":"cebpf4jnsgd1na2vs0mg"},{"bike_id":"cc281636-5b31-4cb8-9bca-c4010602b2cf","system_id":"levelo_inurba_marseille","lat":43.28459,"lon":5.3589,"is_reserved":false,"is_disabled":false,"rental_uris":{"android":"levelo://app?vid=cc281636-5b31-4cb8-9bca-c4010602b2cf","ios":"levelo://app?vid=cc281636-5b31-4cb8-9bca-c4010602b2cf"},"vehicle_type_id":"4","last_reported":1743906295,"current_range_meters":8000,"station_id":"ce4bhah2rcd13ifvqei0","pricing_plan_id":"cebpf4jnsgd1na2vs0mg"},{"bike_id":"820e00b9-22a9-4c8a-884d-a6d5542f1894","system_id":"levelo_inurba_marseille","lat":43.26799,"lon":5.40276,"is_reserved":false,"is_disabled":false,"rental_uris":{"android":"levelo://app?vid=820e00b9-22a9-4c8a-884d-a6d5542f1894","ios":"levelo://app?vid=820e00b9-22a9-4c8a-884d-a6d5542f1894"},"vehicle_type_id":"4","last_reported":1743906295,"current_range_meters":8000,"station_id":"ce501612rcd8frsf0b60","pricing_plan_id":"cebpf4jnsgd1na2vs0mg"},{"bike_id":"20441dc7-dc53-4ae0-9823-3c81cdd5dac5","system_id":"levelo_inurba_marseille","lat":43.27954,"lon":5.41044,"is_reserved":false,"is_disabled":false,"rental_uris":{"android":"levelo://app?vid=20441dc7-dc53-4ae0-9823-3c81cdd5dac5","ios":"levelo://app?vid=20441dc7-dc53-4ae0-9823-3c81cdd5dac5"},"vehicle_type_id":"4","last_reported":1743906295,"current_range_meters":8000,"station_id":"ce4bhnp2rcd13ifvqh0g","pricing_plan_id":"cebpf4jnsgd1na2vs0mg"},{"bike_id":"d5e984d3-343e-4e16-bd54-bc3ebbd48639","system_id":"levelo_inurba_marseille","lat":43.30114,"lon":5.38785,"is_reserved":false,"is_disabled":true,"rental_uris":{"android":"levelo://app?vid=d5e984d3-343e-4e16-bd54-bc3ebbd48639","ios":"levelo://app?vid=d5e984d3-343e-4e16-bd54-bc3ebbd48639"},"vehicle_type_id":"4","last_reported":1743906295,"current_range_meters":8400,"station_id":"ce4bghh2rcd13ifvqb60","pricing_plan_id":"cebpf4jnsgd1na2vs0mg"},{"bike_id":"12d0ccda-50f4-46c3-8993-b3198d8c313b","system_id":"levelo_inurba_marseille","lat":43.3112,"lon":5.37767,"is_reserved":false,"is_disabled":false,"rental_uris":{"android":"levelo://app?vid=12d0ccda-50f4-46c3-8993-b3198d8c313b","ios":"levelo://app?vid=12d0ccda-50f4-46c3-8993-b3198d8c313b"},"vehicle_type_id":"4","last_reported":1743906295,"current_range_meters":8400,"station_id":"ce4bgt92rcd13ifvqcg0","pricing_plan_id":"cebpf4jnsgd1na2vs0mg"},{"bike_id":"597e3cb0-7bf1-4c5c-814c-bff699977597","system_id":"levelo_inurba_marseille","lat":43.331571,"lon":5.381804,"is_reserved":false,"is_disabled":false,"rental_uris":{"android":"levelo://app?vid=597e3cb0-7bf1-4c5c-814c-bff699977597","ios":"levelo://app?vid=597e3cb0-7bf1-4c5c-814c-bff699977597"},"vehicle_type_id":"4","last_reported":1743906295,"current_range_meters":8400,"station_id":"","pricing_plan_id":"cebpf4jnsgd1na2vs0mg"},{"bike_id":"b5f7c507-44db-40d3-a7d0-d8cd7fd3f572","system_id":"levelo_inurba_marseille","lat":43.28709,"lon":5.39978,"is_reserved":false,"is_disabled":false,"rental_uris":{"android":"levelo://app?vid=b5f7c507-44db-40d3-a7d0-d8cd7fd3f572","ios":"levelo://app?vid=b5f7c507-44db-40d3-a7d0-d8cd7fd3f572"},"vehicle_type_id":"4","last_reported":1743906295,"current_range_meters":8400,"station_id":"ce4bho92rcd13ifvqh3g","pricing_plan_id":"cebpf4jnsgd1na2vs0mg"},{"bike_id":"f825fa0b-561d-4b58-a029-a279b1a7e45d","system_id":"levelo_inurba_marseille","lat":43.310705,"lon":5.383555,"is_reserved":false,"is_disabled":false,"rental_uris":{"android":"levelo://app?vid=f825fa0b-561d-4b58-a029-a279b1a7e45d","ios":"levelo://app?vid=f825fa0b-561d-4b58-a029-a279b1a7e45d"},"vehicle_type_id":"4","last_reported":1743906295,"current_range_meters":8400,"station_id":"ce4bgv92rcd13ifvqcr0","pricing_plan_id":"cebpf4jnsgd1na2vs0mg"},{"bike_id":"b54f6066-2c39-43c6-81e1-f9f70a5cdd22","system_id":"levelo_inurba_marseille","lat":43.28615,"lon":5.35107,"is_reserved":false,"is_disabled":false,"rental_uris":{"android":"levelo://app?vid=b54f6066-2c39-43c6-81e1-f9f70a5cdd22","ios":"levelo://app?vid=b54f6066-2c39-43c6-81e1-f9f70a5cdd22"},"vehicle_type_id":"4","last_reported":1743906295,"current_range_meters":8400,"station_id":"ce4bhch2rcd13ifvqeug","pricing_plan_id":"cebpf4jnsgd1na2vs0mg"},{"bike_id":"fb7a6658-65a4-4af9-acc1-679ce624548f","system_id":"levelo_inurba_marseille","lat":43.26197,"lon":5.40445,"is_reserved":false,"is_disabled":false,"rental_uris":{"android":"levelo://app?vid=fb7a6658-65a4-4af9-acc1-679ce624548f","ios":"levelo://app?vid=fb7a6658-65a4-4af9-acc1-679ce624548f"},"vehicle_type_id":"4","last_reported":1743906295,"current_range_meters":8800,"station_id":"ce4bhmh2rcd13ifvqgmg","pricing_plan_id":"cebpf4jnsgd1na2vs0mg"},{"bike_id":"4ac6dfb0-5fb3-41d5-9e83-0029602112f6","system_id":"levelo_inurba_marseille","lat":43.29718,"lon":5.36617,"is_reserved":false,"is_disabled":true,"rental_uris":{"android":"levelo://app?vid=4ac6dfb0-5fb3-41d5-9e83-0029602112f6","ios":"levelo://app?vid=4ac6dfb0-5fb3-41d5-9e83-0029602112f6"},"vehicle_type_id":"4","last_reported":1743906295,"current_range_meters":8800,"station_id":"ce4bgn12rcd13ifvqbt0","pricing_plan_id":"cebpf4jnsgd1na2vs0mg"},{"bike_id":"fdfd01fc-093d-4c48-8c80-06fe1b4633e3","system_id":"levelo_inurba_marseille","lat":43.29261,"lon":5.38424,"is_reserved":false,"is_disabled":true,"rental_uris":{"android":"levelo://app?vid=fdfd01fc-093d-4c48-8c80-06fe1b4633e3","ios":"levelo://app?vid=fdfd01fc-093d-4c48-8c80-06fe1b4633e3"},"vehicle_type_id":"4","last_reported":1743906295,"current_range_meters":8800,"station_id":"ce4bh692rcd13ifvqea0","pricing_plan_id":"cebpf4jnsgd1na2vs0mg"},{"bike_id":"17a6b79d-0f55-410e-bc56-bc1bcf6a9d7e","system_id":"levelo_inurba_marseille","lat":43.30802,"lon":5.38163,"is_reserved":false,"is_disabled":false,"rental_uris":{"android":"levelo://app?vid=17a6b79d-0f55-410e-bc56-bc1bcf6a9d7e","ios":"levelo://app?vid=17a6b79d-0f55-410e-bc56-bc1bcf6a9d7e"},"vehicle_type_id":"4","last_reported":1743906295,"current_range_meters":8800,"station_id":"ce4bgt12rcd13ifvqce0","pricing_plan_id":"cebpf4jnsgd1na2vs0mg"},{"bike_id":"9d5e033b-05b5-411f-8f82-5b44142c931e","system_id":"levelo_inurba_marseille","lat":43.25833,"lon":5.39431,"is_reserved":false,"is_disabled":false,"rental_uris":{"android":"levelo://app?vid=9d5e033b-05b5-411f-8f82-5b44142c931e","ios":"levelo://app?vid=9d5e033b-05b5-411f-8f82-5b44142c931e"},"vehicle_type_id":"4","last_reported":1743906295,"current_range_meters":8800,"station_id":"ce4bhip2rcd13ifvqft0","pricing_plan_id":"cebpf4jnsgd1na2vs0mg"},{"bike_id":"267eeb16-6453-4fb7-8038-3b408a6bb427","system_id":"levelo_inurba_marseille","lat":43.31441,"lon":5.36989,"is_reserved":false,"is_disabled":false,"rental_uris":{"android":"levelo://app?vid=267eeb16-6453-4fb7-8038-3b408a6bb427","ios":"levelo://app?vid=267eeb16-6453-4fb7-8038-3b408a6bb427"},"vehicle_type_id":"4","last_reported":1743906295,"current_range_meters":8800,"station_id":"","pricing_plan_id":"cebpf4jnsgd1na2vs0mg"},{"bike_id":"b7a6d371-4cea-45c6-b168-85005dec8f56","system_id":"levelo_inurba_marseille","lat":43.31328,"lon":5.39695,"is_reserved":false,"is_disabled":false,"rental_uris":{"android":"levelo://app?vid=b7a6d371-4cea-45c6-b168-85005dec8f56","ios":"levelo://app?vid=b7a6d371-4cea-45c6-b168-85005dec8f56"},"vehicle_type_id":"4","last_reported":1743906295,"current_range_meters":8800,"station_id":"ce4bgvp2rcd13ifvqcu0","pricing_plan_id":"cebpf4jnsgd1na2vs0mg"},{"bike_id":"990da929-1cb7-46ce-a5e3-a46343bfffe7","system_id":"levelo_inurba_marseille","lat":43.297694,"lon":5.381333,"is_reserved":false,"is_disabled":true,"rental_uris":{"android":"levelo://app?vid=990da929-1cb7-46ce-a5e3-a46343bfffe7","ios":"levelo://app?vid=990da929-1cb7-46ce-a5e3-a46343bfffe7"},"vehicle_type_id":"4","last_reported":1743906295,"current_range_meters":8800,"station_id":"ce4bgip2rcd13ifvqbb0","pricing_plan_id":"cebpf4jnsgd1na2vs0mg"},{"bike_id":"d8eb8419-2a6d-4025-8ddd-20ce83a6f065","system_id":"levelo_inurba_marseille","lat":43.29529,"lon":5.38538,"is_reserved":false,"is_disabled":false,"rental_uris":{"android":"levelo://app?vid=d8eb8419-2a6d-4025-8ddd-20ce83a6f065","ios":"levelo://app?vid=d8eb8419-2a6d-4025-8ddd-20ce83a6f065"},"vehicle_type_id":"4","last_reported":1743906295,"current_range_meters":8800,"station_id":"ce4bgih2rcd13ifvqba0","pricing_plan_id":"cebpf4jnsgd1na2vs0mg"},{"bike_id":"19e5e026-6d23-4689-a279-bec1f0dfe8ef","system_id":"levelo_inurba_marseille","lat":43.22936,"lon":5.35373,"is_reserved":false,"is_disabled":false,"rental_uris":{"android":"levelo://app?vid=19e5e026-6d23-4689-a279-bec1f0dfe8ef","ios":"levelo://app?vid=19e5e026-6d23-4689-a279-bec1f0dfe8ef"},"vehicle_type_id":"4","last_reported":1743906295,"current_range_meters":8800,"station_id":"cpo3532slgdg3j2ikp40","pricing_plan_id":"cebpf4jnsgd1na2vs0mg"},{"bike_id":"30b57730-cb66-4122-bd93-7dabcaba84e7","system_id":"levelo_inurba_marseille","lat":43.24911,"lon":5.40669,"is_reserved":false,"is_disabled":false,"rental_uris":{"android":"levelo://app?vid=30b57730-cb66-4122-bd93-7dabcaba84e7","ios":"levelo://app?vid=30b57730-cb66-4122-bd93-7dabcaba84e7"},"vehicle_type_id":"4","last_reported":1743906295,"current_range_meters":8800,"station_id":"","pricing_plan_id":"cebpf4jnsgd1na2vs0mg"},{"bike_id":"1e72d3fb-accb-4636-a1fd-813f0b952e02","system_id":"levelo_inurba_marseille","lat":43.30894,"lon":5.39649,"is_reserved":false,"is_disabled":false,"rental_uris":{"android":"levelo://app?vid=1e72d3fb-accb-4636-a1fd-813f0b952e02","ios":"levelo://app?vid=1e72d3fb-accb-4636-a1fd-813f0b952e02"},"vehicle_type_id":"4","last_reported":1743906295,"current_range_meters":8800,"station_id":"ce4bh012rcd13ifvqcv0","pricing_plan_id":"cebpf4jnsgd1na2vs0mg"},{"bike_id":"5519561e-6a78-4e38-8de4-84b7f76a38b0","system_id":"levelo_inurba_marseille","lat":43.30914,"lon":5.40164,"is_reserved":false,"is_disabled":true,"rental_uris":{"android":"levelo://app?vid=5519561e-6a78-4e38-8de4-84b7f76a38b0","ios":"levelo://app?vid=5519561e-6a78-4e38-8de4-84b7f76a38b0"},"vehicle_type_id":"4","last_reported":1743906295,"current_range_meters":8800,"station_id":"ce4bgvp2rcd13ifvqct0","pricing_plan_id":"cebpf4jnsgd1na2vs0mg"},{"bike_id":"45b4008f-54c1-4d17-8bbf-96f80d4fa84f","system_id":"levelo_inurba_marseille","lat":43.32119,"lon":5.36771,"is_reserved":false,"is_disabled":false,"rental_uris":{"android":"levelo://app?vid=45b4008f-54c1-4d17-8bbf-96f80d4fa84f","ios":"levelo://app?vid=45b4008f-54c1-4d17-8bbf-96f80d4fa84f"},"vehicle_type_id":"4","last_reported":1743906295,"current_range_meters":8800,"station_id":"ce4bhrh2rcd13ifvqhug","pricing_plan_id":"cebpf4jnsgd1na2vs0mg"},{"bike_id":"da9c8c5a-aa54-4242-9f06-c4b2da0ddccb","system_id":"levelo_inurba_marseille","lat":43.279116,"lon":5.380066,"is_reserved":false,"is_disabled":false,"rental_uris":{"android":"levelo://app?vid=da9c8c5a-aa54-4242-9f06-c4b2da0ddccb","ios":"levelo://app?vid=da9c8c5a-aa54-4242-9f06-c4b2da0ddccb"},"vehicle_type_id":"4","last_reported":1743906295,"current_range_meters":9200,"station_id":"ce4bhf92rcd13ifvqf50","pricing_plan_id":"cebpf4jnsgd1na2vs0mg"},{"bike_id":"db29433a-c7f6-40d6-b0e1-3a1f0abf15ab","system_id":"levelo_inurba_marseille","lat":43.241712,"lon":5.364041,"is_reserved":false,"is_disabled":true,"rental_uris":{"android":"levelo://app?vid=db29433a-c7f6-40d6-b0e1-3a1f0abf15ab","ios":"levelo://app?vid=db29433a-c7f6-40d6-b0e1-3a1f0abf15ab"},"vehicle_type_id":"4","last_reported":1743906295,"current_range_meters":9200,"station_id":"ce4bh412rcd13ifvqdr0","pricing_plan_id":"cebpf4jnsgd1na2vs0mg"},{"bike_id":"a6a4aada-4dec-4c66-9029-bd9ebff46b38","system_id":"levelo_inurba_marseille","lat":43.31341,"lon":5.39748,"is_reserved":false,"is_disabled":false,"rental_uris":{"android":"levelo://app?vid=a6a4aada-4dec-4c66-9029-bd9ebff46b38","ios":"levelo://app?vid=a6a4aada-4dec-4c66-9029-bd9ebff46b38"},"vehicle_type_id":"4","last_reported":1743906295,"current_range_meters":9200,"station_id":"","pricing_plan_id":"cebpf4jnsgd1na2vs0mg"},{"bike_id":"301b6729-c45c-4915-8ef6-dadde3959d3d","system_id":"levelo_inurba_marseille","lat":43.26559,"lon":5.39004,"is_reserved":false,"is_disabled":true,"rental_uris":{"android":"levelo://app?vid=301b6729-c45c-4915-8ef6-dadde3959d3d","ios":"levelo://app?vid=301b6729-c45c-4915-8ef6-dadde3959d3d"},"vehicle_type_id":"4","last_reported":1743906295,"current_range_meters":9200,"station_id":"ce4bhe12rcd13ifvqf30","pricing_plan_id":"cebpf4jnsgd1na2vs0mg"},{"bike_id":"66bd6e2d-3170-42d5-91d3-6f6cc114323c","system_id":"levelo_inurba_marseille","lat":43.28736,"lon":5.3608,"is_reserved":false,"is_disabled":false,"rental_uris":{"android":"levelo://app?vid=66bd6e2d-3170-42d5-91d3-6f6cc114323c","ios":"levelo://app?vid=66bd6e2d-3170-42d5-91d3-6f6cc114323c"},"vehicle_type_id":"4","last_reported":1743906295,"current_range_meters":9200,"station_id":"cki0cbj6b192h4jlfktg","pricing_plan_id":"cebpf4jnsgd1na2vs0mg"},{"bike_id":"4c25fb76-cd0e-4544-8837-d2585ee48375","system_id":"levelo_inurba_marseille","lat":43.298956,"lon":5.436631,"is_reserved":false,"is_disabled":false,"rental_uris":{"android":"levelo://app?vid=4c25fb76-cd0e-4544-8837-d2585ee48375","ios":"levelo://app?vid=4c25fb76-cd0e-4544-8837-d2585ee48375"},"vehicle_type_id":"4","last_reported":1743906295,"current_range_meters":9200,"station_id":"ce4bhpp2rcd13ifvqhfg","pricing_plan_id":"cebpf4jnsgd1na2vs0mg"},{"bike_id":"e5a7e6b1-2168-407f-8739-469989498272","system_id":"levelo_inurba_marseille","lat":43.31693,"lon":5.437,"is_reserved":false,"is_disabled":false,"rental_uris":{"android":"levelo://app?vid=e5a7e6b1-2168-407f-8739-469989498272","ios":"levelo://app?vid=e5a7e6b1-2168-407f-8739-469989498272"},"vehicle_type_id":"4","last_reported":1743906295,"current_range_meters":9200,"station_id":"ce4bhp92rcd13ifvqhcg","pricing_plan_id":"cebpf4jnsgd1na2vs0mg"},{"bike_id":"c9bc89cd-58d1-4a47-b4fa-ac99803a3fe2","system_id":"levelo_inurba_marseille","lat":43.284143,"lon":5.375225,"is_reserved":false,"is_disabled":false,"rental_uris":{"android":"levelo://app?vid=c9bc89cd-58d1-4a47-b4fa-ac99803a3fe2","ios":"levelo://app?vid=c9bc89cd-58d1-4a47-b4fa-ac99803a3fe2"},"vehicle_type_id":"4","last_reported":1743906295,"current_range_meters":9200,"station_id":"ce4bh412rcd13ifvqds0","pricing_plan_id":"cebpf4jnsgd1na2vs0mg"},{"bike_id":"68ea0086-76a8-4c6e-b84d-9082869e46b1","system_id":"levelo_inurba_marseille","lat":43.3036,"lon":5.4187,"is_reserved":false,"is_disabled":false,"rental_uris":{"android":"levelo://app?vid=68ea0086-76a8-4c6e-b84d-9082869e46b1","ios":"levelo://app?vid=68ea0086-76a8-4c6e-b84d-9082869e46b1"},"vehicle_type_id":"4","last_reported":1743906295,"current_range_meters":9200,"station_id":"ce4bhop2rcd13ifvqh7g","pricing_plan_id":"cebpf4jnsgd1na2vs0mg"},{"bike_id":"02779b29-7a5d-439e-936a-d77d08eab911","system_id":"levelo_inurba_marseille","lat":43.24977,"lon":5.38942,"is_reserved":false,"is_disabled":false,"rental_uris":{"android":"levelo://app?vid=02779b29-7a5d-439e-936a-d77d08eab911","ios":"levelo://app?vid=02779b29-7a5d-439e-936a-d77d08eab911"},"vehicle_type_id":"4","last_reported":1743906295,"current_range_meters":9200,"station_id":"ce4bhgp2rcd13ifvqfd0","pricing_plan_id":"cebpf4jnsgd1na2vs0mg"},{"bike_id":"4d7b7b7e-65ec-4356-8a6b-372d46c1b5f2","system_id":"levelo_inurba_marseille","lat":43.29863,"lon":5.3891,"is_reserved":false,"is_disabled":false,"rental_uris":{"android":"levelo://app?vid=4d7b7b7e-65ec-4356-8a6b-372d46c1b5f2","ios":"levelo://app?vid=4d7b7b7e-65ec-4356-8a6b-372d46c1b5f2"},"vehicle_type_id":"4","last_reported":1743906295,"current_range_meters":9200,"station_id":"ce4bh392rcd13ifvqdl0","pricing_plan_id":"cebpf4jnsgd1na2vs0mg"},{"bike_id":"57bf4e8a-9c9a-4b4c-967c-a6a1430f9b98","system_id":"levelo_inurba_marseille","lat":43.22929,"lon":5.35374,"is_reserved":false,"is_disabled":false,"rental_uris":{"android":"levelo://app?vid=57bf4e8a-9c9a-4b4c-967c-a6a1430f9b98","ios":"levelo://app?vid=57bf4e8a-9c9a-4b4c-967c-a6a1430f9b98"},"vehicle_type_id":"4","last_reported":1743906295,"current_range_meters":9600,"station_id":"cpo3532slgdg3j2ikp40","pricing_plan_id":"cebpf4jnsgd1na2vs0mg"},{"bike_id":"43718d37-b132-4a2d-9430-23101833a89e","system_id":"levelo_inurba_marseille","lat":43.308463,"lon":5.380896,"is_reserved":false,"is_disabled":false,"rental_uris":{"android":"levelo://app?vid=43718d37-b132-4a2d-9430-23101833a89e","ios":"levelo://app?vid=43718d37-b132-4a2d-9430-23101833a89e"},"vehicle_type_id":"4","last_reported":1743906295,"current_range_meters":9600,"station_id":"","pricing_plan_id":"cebpf4jnsgd1na2vs0mg"},{"bike_id":"1d16e172-d477-4a96-8d7d-42ff6a622d2e","system_id":"levelo_inurba_marseille","lat":43.24688,"lon":5.41178,"is_reserved":false,"is_disabled":false,"rental_uris":{"android":"levelo://app?vid=1d16e172-d477-4a96-8d7d-42ff6a622d2e","ios":"levelo://app?vid=1d16e172-d477-4a96-8d7d-42ff6a622d2e"},"vehicle_type_id":"4","last_reported":1743906295,"current_range_meters":9600,"station_id":"","pricing_plan_id":"cebpf4jnsgd1na2vs0mg"},{"bike_id":"dcfa7d8b-8535-4cc9-8cdb-dcc1058e4607","system_id":"levelo_inurba_marseille","lat":43.29275,"lon":5.40108,"is_reserved":false,"is_disabled":false,"rental_uris":{"android":"levelo://app?vid=dcfa7d8b-8535-4cc9-8cdb-dcc1058e4607","ios":"levelo://app?vid=dcfa7d8b-8535-4cc9-8cdb-dcc1058e4607"},"vehicle_type_id":"4","last_reported":1743906295,"current_range_meters":9600,"station_id":"ce4bh312rcd13ifvqdk0","pricing_plan_id":"cebpf4jnsgd1na2vs0mg"},{"bike_id":"b15f50ff-f9b1-4c07-9098-5883ec7eb833","system_id":"levelo_inurba_marseille","lat":43.29272,"lon":5.40909,"is_reserved":false,"is_disabled":false,"rental_uris":{"android":"levelo://app?vid=b15f50ff-f9b1-4c07-9098-5883ec7eb833","ios":"levelo://app?vid=b15f50ff-f9b1-4c07-9098-5883ec7eb833"},"vehicle_type_id":"4","last_reported":1743906295,"current_range_meters":9600,"station_id":"ce4bh192rcd13ifvqdc0","pricing_plan_id":"cebpf4jnsgd1na2vs0mg"},{"bike_id":"1a3f6b3e-83e6-47c7-b945-212e231f4c7a","system_id":"levelo_inurba_marseille","lat":43.30585,"lon":5.39352,"is_reserved":false,"is_disabled":false,"rental_uris":{"android":"levelo://app?vid=1a3f6b3e-83e6-47c7-b945-212e231f4c7a","ios":"levelo://app?vid=1a3f6b3e-83e6-47c7-b945-212e231f4c7a"},"vehicle_type_id":"4","last_reported":1743906295,"current_range_meters":9600,"station_id":"ce4bh0p2rcd13ifvqd80","pricing_plan_id":"cebpf4jnsgd1na2vs0mg"},{"bike_id":"bead49ad-4f08-409b-b5dc-f17872424c3c","system_id":"levelo_inurba_marseille","lat":43.295561,"lon":5.422854,"is_reserved":false,"is_disabled":false,"rental_uris":{"android":"levelo://app?vid=bead49ad-4f08-409b-b5dc-f17872424c3c","ios":"levelo://app?vid=bead49ad-4f08-409b-b5dc-f17872424c3c"},"vehicle_type_id":"4","last_reported":1743906295,"current_range_meters":9600,"station_id":"ce4bhph2rcd13ifvqhdg","pricing_plan_id":"cebpf4jnsgd1na2vs0mg"},{"bike_id":"7a935817-47e2-4cb3-8324-a647fdf3a140","system_id":"levelo_inurba_marseille","lat":43.295349,"lon":5.385428,"is_reserved":false,"is_disabled":true,"rental_uris":{"android":"levelo://app?vid=7a935817-47e2-4cb3-8324-a647fdf3a140","ios":"levelo://app?vid=7a935817-47e2-4cb3-8324-a647fdf3a140"},"vehicle_type_id":"4","last_reported":1743906295,"current_range_meters":9600,"station_id":"ce4bgih2rcd13ifvqba0","pricing_plan_id":"cebpf4jnsgd1na2vs0mg"},{"bike_id":"c0259057-5c87-4e25-aac9-1ccb60068e35","system_id":"levelo_inurba_marseille","lat":43.299338,"lon":5.365425,"is_reserved":false,"is_disabled":false,"rental_uris":{"android":"levelo://app?vid=c0259057-5c87-4e25-aac9-1ccb60068e35","ios":"levelo://app?vid=c0259057-5c87-4e25-aac9-1ccb60068e35"},"vehicle_type_id":"4","last_reported":1743906295,"current_range_meters":9600,"station_id":"ce4bgm92rcd13ifvqbr0","pricing_plan_id":"cebpf4jnsgd1na2vs0mg"},{"bike_id":"596c8839-b7cf-45b4-a690-17d962944c1f","system_id":"levelo_inurba_marseille","lat":43.24651,"lon":5.38892,"is_reserved":false,"is_disabled":false,"rental_uris":{"android":"levelo://app?vid=596c8839-b7cf-45b4-a690-17d962944c1f","ios":"levelo://app?vid=596c8839-b7cf-45b4-a690-17d962944c1f"},"vehicle_type_id":"4","last_reported":1743906295,"current_range_meters":9600,"station_id":"ce4bhg12rcd13ifvqf60","pricing_plan_id":"cebpf4jnsgd1na2vs0mg"},{"bike_id":"1429256b-0ddc-4bae-aa2c-55502fc7def0","system_id":"levelo_inurba_marseille","lat":43.31715,"lon":5.42385,"is_reserved":false,"is_disabled":false,"rental_uris":{"android":"levelo://app?vid=1429256b-0ddc-4bae-aa2c-55502fc7def0","ios":"levelo://app?vid=1429256b-0ddc-4bae-aa2c-55502fc7def0"},"vehicle_type_id":"4","last_reported":1743906295,"current_range_meters":9600,"station_id":"ce4bhp92rcd13ifvqhbg","pricing_plan_id":"cebpf4jnsgd1na2vs0mg"},{"bike_id":"1d7e034e-3553-4b69-9eb8-32c77ea26169","system_id":"levelo_inurba_marseille","lat":43.287286,"lon":5.360836,"is_reserved":false,"is_disabled":false,"rental_uris":{"android":"levelo://app?vid=1d7e034e-3553-4b69-9eb8-32c77ea26169","ios":"levelo://app?vid=1d7e034e-3553-4b69-9eb8-32c77ea26169"},"vehicle_type_id":"4","last_reported":1743906295,"current_range_meters":9600,"station_id":"cki0cbj6b192h4jlfktg","pricing_plan_id":"cebpf4jnsgd1na2vs0mg"},{"bike_id":"ae2491ec-6c71-4a54-8266-8b04f74c4c6b","system_id":"levelo_inurba_marseille","lat":43.31992,"lon":5.38149,"is_reserved":false,"is_disabled":false,"rental_uris":{"android":"levelo://app?vid=ae2491ec-6c71-4a54-8266-8b04f74c4c6b","ios":"levelo://app?vid=ae2491ec-6c71-4a54-8266-8b04f74c4c6b"},"vehicle_type_id":"4","last_reported":1743906295,"current_range_meters":10000,"station_id":"ce4bhr12rcd13ifvqhpg","pricing_plan_id":"cebpf4jnsgd1na2vs0mg"},{"bike_id":"64ef4aca-2f76-454a-86f0-57d107f9d4b8","system_id":"levelo_inurba_marseille","lat":43.28723,"lon":5.36106,"is_reserved":false,"is_disabled":false,"rental_uris":{"android":"levelo://app?vid=64ef4aca-2f76-454a-86f0-57d107f9d4b8","ios":"levelo://app?vid=64ef4aca-2f76-454a-86f0-57d107f9d4b8"},"vehicle_type_id":"4","last_reported":1743906295,"current_range_meters":10000,"station_id":"cki0cbj6b192h4jlfktg","pricing_plan_id":"cebpf4jnsgd1na2vs0mg"},{"bike_id":"6e6f236f-7ca2-4fce-922f-f0a173b85613","system_id":"levelo_inurba_marseille","lat":43.30432,"lon":5.38892,"is_reserved":false,"is_disabled":false,"rental_uris":{"android":"levelo://app?vid=6e6f236f-7ca2-4fce-922f-f0a173b85613","ios":"levelo://app?vid=6e6f236f-7ca2-4fce-922f-f0a173b85613"},"vehicle_type_id":"4","last_reported":1743906295,"current_range_meters":10000,"station_id":"ce4bgk12rcd13ifvqbi0","pricing_plan_id":"cebpf4jnsgd1na2vs0mg"},{"bike_id":"e82f7598-ef71-4a7a-9107-2754e23fe2bf","system_id":"levelo_inurba_marseille","lat":43.2842,"lon":5.37519,"is_reserved":false,"is_disabled":false,"rental_uris":{"android":"levelo://app?vid=e82f7598-ef71-4a7a-9107-2754e23fe2bf","ios":"levelo://app?vid=e82f7598-ef71-4a7a-9107-2754e23fe2bf"},"vehicle_type_id":"4","last_reported":1743906295,"current_range_meters":10000,"station_id":"ce4bh412rcd13ifvqds0","pricing_plan_id":"cebpf4jnsgd1na2vs0mg"},{"bike_id":"b5f3b18d-8873-4dfa-9bc0-e17109e88ce1","system_id":"levelo_inurba_marseille","lat":43.29403,"lon":5.37576,"is_reserved":false,"is_disabled":false,"rental_uris":{"android":"levelo://app?vid=b5f3b18d-8873-4dfa-9bc0-e17109e88ce1","ios":"levelo://app?vid=b5f3b18d-8873-4dfa-9bc0-e17109e88ce1"},"vehicle_type_id":"4","last_reported":1743906295,"current_range_meters":10000,"station_id":"","pricing_plan_id":"cebpf4jnsgd1na2vs0mg"},{"bike_id":"b70cced5-dc6e-4ac4-aef4-4cfbee9a2e11","system_id":"levelo_inurba_marseille","lat":43.296103,"lon":5.377128,"is_reserved":false,"is_disabled":true,"rental_uris":{"android":"levelo://app?vid=b70cced5-dc6e-4ac4-aef4-4cfbee9a2e11","ios":"levelo://app?vid=b70cced5-dc6e-4ac4-aef4-4cfbee9a2e11"},"vehicle_type_id":"4","last_reported":1743906295,"current_range_meters":10000,"station_id":"ce4bgi92rcd13ifvqb90","pricing_plan_id":"cebpf4jnsgd1na2vs0mg"},{"bike_id":"0f3d6cb8-7efe-42ee-ab50-2a663f90e5af","system_id":"levelo_inurba_marseille","lat":43.27613,"lon":5.36104,"is_reserved":false,"is_disabled":false,"rental_uris":{"android":"levelo://app?vid=0f3d6cb8-7efe-42ee-ab50-2a663f90e5af","ios":"levelo://app?vid=0f3d6cb8-7efe-42ee-ab50-2a663f90e5af"},"vehicle_type_id":"4","last_reported":1743906295,"current_range_meters":10000,"station_id":"ce4bgj92rcd13ifvqbe0","pricing_plan_id":"cebpf4jnsgd1na2vs0mg"},{"bike_id":"83f72f2e-1d74-47c8-a665-7663d334199b","system_id":"levelo_inurba_marseille","lat":43.287259,"lon":5.360907,"is_reserved":false,"is_disabled":false,"rental_uris":{"android":"levelo://app?vid=83f72f2e-1d74-47c8-a665-7663d334199b","ios":"levelo://app?vid=83f72f2e-1d74-47c8-a665-7663d334199b"},"vehicle_type_id":"4","last_reported":1743906295,"current_range_meters":10000,"station_id":"cki0cbj6b192h4jlfktg","pricing_plan_id":"cebpf4jnsgd1na2vs0mg"},{"bike_id":"aeaafdce-072b-410b-bb71-bd5216dc505b","system_id":"levelo_inurba_marseille","lat":43.2313,"lon":5.40048,"is_reserved":false,"is_disabled":false,"rental_uris":{"android":"levelo://app?vid=aeaafdce-072b-410b-bb71-bd5216dc505b","ios":"levelo://app?vid=aeaafdce-072b-410b-bb71-bd5216dc505b"},"vehicle_type_id":"4","last_reported":1743906295,"current_range_meters":10800,"station_id":"","pricing_plan_id":"cebpf4jnsgd1na2vs0mg"},{"bike_id":"5ed85862-8a09-4b95-a2aa-7fe225e41cfe","system_id":"levelo_inurba_marseille","lat":43.30776,"lon":5.3769,"is_reserved":false,"is_disabled":false,"rental_uris":{"android":"levelo://app?vid=5ed85862-8a09-4b95-a2aa-7fe225e41cfe","ios":"levelo://app?vid=5ed85862-8a09-4b95-a2aa-7fe225e41cfe"},"vehicle_type_id":"4","last_reported":1743906295,"current_range_meters":10800,"station_id":"ce4bgv92rcd13ifvqcq0","pricing_plan_id":"cebpf4jnsgd1na2vs0mg"},{"bike_id":"6b652b17-4709-4398-8896-6b070cee45a3","system_id":"levelo_inurba_marseille","lat":43.31511,"lon":5.38019,"is_reserved":false,"is_disabled":false,"rental_uris":{"android":"levelo://app?vid=6b652b17-4709-4398-8896-6b070cee45a3","ios":"levelo://app?vid=6b652b17-4709-4398-8896-6b070cee45a3"},"vehicle_type_id":"4","last_reported":1743906295,"current_range_meters":10800,"station_id":"ce4bhsp2rcd13ifvqi50","pricing_plan_id":"cebpf4jnsgd1na2vs0mg"},{"bike_id":"1a86e247-337a-4db8-8e60-400e01dd3247","system_id":"levelo_inurba_marseille","lat":43.28565,"lon":5.39505,"is_reserved":false,"is_disabled":false,"rental_uris":{"android":"levelo://app?vid=1a86e247-337a-4db8-8e60-400e01dd3247","ios":"levelo://app?vid=1a86e247-337a-4db8-8e60-400e01dd3247"},"vehicle_type_id":"4","last_reported":1743906295,"current_range_meters":10800,"station_id":"ce4bh292rcd13ifvqdg0","pricing_plan_id":"cebpf4jnsgd1na2vs0mg"},{"bike_id":"1622461e-25a5-4ec6-9188-643400d8cf0e","system_id":"levelo_inurba_marseille","lat":43.30799,"lon":5.43519,"is_reserved":false,"is_disabled":false,"rental_uris":{"android":"levelo://app?vid=1622461e-25a5-4ec6-9188-643400d8cf0e","ios":"levelo://app?vid=1622461e-25a5-4ec6-9188-643400d8cf0e"},"vehicle_type_id":"4","last_reported":1743906295,"current_range_meters":10800,"station_id":"ce4bhph2rcd13ifvqheg","pricing_plan_id":"cebpf4jnsgd1na2vs0mg"},{"bike_id":"1eb9f1ad-8239-4684-9920-b4a2ac456140","system_id":"levelo_inurba_marseille","lat":43.29276,"lon":5.40127,"is_reserved":false,"is_disabled":false,"rental_uris":{"android":"levelo://app?vid=1eb9f1ad-8239-4684-9920-b4a2ac456140","ios":"levelo://app?vid=1eb9f1ad-8239-4684-9920-b4a2ac456140"},"vehicle_type_id":"4","last_reported":1743906295,"current_range_meters":10800,"station_id":"ce4bh312rcd13ifvqdk0","pricing_plan_id":"cebpf4jnsgd1na2vs0mg"},{"bike_id":"0390015b-5bef-448b-bc10-44e5f8ab3c5f","system_id":"levelo_inurba_marseille","lat":43.2583,"lon":5.39428,"is_reserved":false,"is_disabled":false,"rental_uris":{"android":"levelo://app?vid=0390015b-5bef-448b-bc10-44e5f8ab3c5f","ios":"levelo://app?vid=0390015b-5bef-448b-bc10-44e5f8ab3c5f"},"vehicle_type_id":"4","last_reported":1743906295,"current_range_meters":10800,"station_id":"ce4bhip2rcd13ifvqft0","pricing_plan_id":"cebpf4jnsgd1na2vs0mg"},{"bike_id":"1bf28fcd-357a-43a7-b215-31bb2951a59c","system_id":"levelo_inurba_marseille","lat":43.295925,"lon":5.422703,"is_reserved":false,"is_disabled":false,"rental_uris":{"android":"levelo://app?vid=1bf28fcd-357a-43a7-b215-31bb2951a59c","ios":"levelo://app?vid=1bf28fcd-357a-43a7-b215-31bb2951a59c"},"vehicle_type_id":"4","last_reported":1743906295,"current_range_meters":10800,"station_id":"ce4bhph2rcd13ifvqhdg","pricing_plan_id":"cebpf4jnsgd1na2vs0mg"},{"bike_id":"64928ba1-df5f-4bed-a597-6dab5f3f4879","system_id":"levelo_inurba_marseille","lat":43.21754,"lon":5.34609,"is_reserved":false,"is_disabled":false,"rental_uris":{"android":"levelo://app?vid=64928ba1-df5f-4bed-a597-6dab5f3f4879","ios":"levelo://app?vid=64928ba1-df5f-4bed-a597-6dab5f3f4879"},"vehicle_type_id":"4","last_reported":1743906295,"current_range_meters":10800,"station_id":"ce4bhgh2rcd13ifvqfb0","pricing_plan_id":"cebpf4jnsgd1na2vs0mg"},{"bike_id":"b6db97d3-b4ae-4421-91cd-b6ce323b6de2","system_id":"levelo_inurba_marseille","lat":43.30808,"lon":5.38152,"is_reserved":false,"is_disabled":false,"rental_uris":{"android":"levelo://app?vid=b6db97d3-b4ae-4421-91cd-b6ce323b6de2","ios":"levelo://app?vid=b6db97d3-b4ae-4421-91cd-b6ce323b6de2"},"vehicle_type_id":"4","last_reported":1743906295,"current_range_meters":10800,"station_id":"ce4bgt12rcd13ifvqce0","pricing_plan_id":"cebpf4jnsgd1na2vs0mg"},{"bike_id":"f470b7ff-8985-4014-b9d1-2d1b82ce3088","system_id":"levelo_inurba_marseille","lat":43.28714,"lon":5.37926,"is_reserved":false,"is_disabled":false,"rental_uris":{"android":"levelo://app?vid=f470b7ff-8985-4014-b9d1-2d1b82ce3088","ios":"levelo://app?vid=f470b7ff-8985-4014-b9d1-2d1b82ce3088"},"vehicle_type_id":"4","last_reported":1743906295,"current_range_meters":10800,"station_id":"ce4bh9p2rcd13ifvqec0","pricing_plan_id":"cebpf4jnsgd1na2vs0mg"},{"bike_id":"b7ee7aed-09b2-4789-a41c-a569428ae849","system_id":"levelo_inurba_marseille","lat":43.30789,"lon":5.37653,"is_reserved":false,"is_disabled":false,"rental_uris":{"android":"levelo://app?vid=b7ee7aed-09b2-4789-a41c-a569428ae849","ios":"levelo://app?vid=b7ee7aed-09b2-4789-a41c-a569428ae849"},"vehicle_type_id":"4","last_reported":1743906295,"current_range_meters":10800,"station_id":"ce4bgv92rcd13ifvqcq0","pricing_plan_id":"cebpf4jnsgd1na2vs0mg"},{"bike_id":"4f766fdd-f1b5-46e8-9580-52c1decd1645","system_id":"levelo_inurba_marseille","lat":43.30649,"lon":5.401,"is_reserved":false,"is_disabled":false,"rental_uris":{"android":"levelo://app?vid=4f766fdd-f1b5-46e8-9580-52c1decd1645","ios":"levelo://app?vid=4f766fdd-f1b5-46e8-9580-52c1decd1645"},"vehicle_type_id":"4","last_reported":1743906295,"current_range_meters":10800,"station_id":"ce4bh112rcd13ifvqda0","pricing_plan_id":"cebpf4jnsgd1na2vs0mg"},{"bike_id":"4c1aaeaf-05fb-40a2-ac2f-a52a3a50ef57","system_id":"levelo_inurba_marseille","lat":43.29253,"lon":5.40898,"is_reserved":false,"is_disabled":false,"rental_uris":{"android":"levelo://app?vid=4c1aaeaf-05fb-40a2-ac2f-a52a3a50ef57","ios":"levelo://app?vid=4c1aaeaf-05fb-40a2-ac2f-a52a3a50ef57"},"vehicle_type_id":"4","last_reported":1743906295,"current_range_meters":10800,"station_id":"ce4bh192rcd13ifvqdc0","pricing_plan_id":"cebpf4jnsgd1na2vs0mg"},{"bike_id":"048baa14-41a1-4854-b930-24ae08b403d5","system_id":"levelo_inurba_marseille","lat":43.3265,"lon":5.40979,"is_reserved":false,"is_disabled":false,"rental_uris":{"android":"levelo://app?vid=048baa14-41a1-4854-b930-24ae08b403d5","ios":"levelo://app?vid=048baa14-41a1-4854-b930-24ae08b403d5"},"vehicle_type_id":"4","last_reported":1743906295,"current_range_meters":10800,"station_id":"ce4bhpp2rcd13ifvqhgg","pricing_plan_id":"cebpf4jnsgd1na2vs0mg"},{"bike_id":"97d77224-5748-4443-848a-6ab951c45d6d","system_id":"levelo_inurba_marseille","lat":43.32283,"lon":5.38274,"is_reserved":false,"is_disabled":false,"rental_uris":{"android":"levelo://app?vid=97d77224-5748-4443-848a-6ab951c45d6d","ios":"levelo://app?vid=97d77224-5748-4443-848a-6ab951c45d6d"},"vehicle_type_id":"4","last_reported":1743906295,"current_range_meters":11200,"station_id":"ce4bhr12rcd13ifvqhqg","pricing_plan_id":"cebpf4jnsgd1na2vs0mg"},{"bike_id":"867fb900-f56e-4c6b-83c4-e5102d4bd393","system_id":"levelo_inurba_marseille","lat":43.32337,"lon":5.4062,"is_reserved":false,"is_disabled":false,"rental_uris":{"android":"levelo://app?vid=867fb900-f56e-4c6b-83c4-e5102d4bd393","ios":"levelo://app?vid=867fb900-f56e-4c6b-83c4-e5102d4bd393"},"vehicle_type_id":"4","last_reported":1743906295,"current_range_meters":11200,"station_id":"ce4bhq92rcd13ifvqhjg","pricing_plan_id":"cebpf4jnsgd1na2vs0mg"},{"bike_id":"01da542b-ce27-4a44-9a9a-bd145ac5f04c","system_id":"levelo_inurba_marseille","lat":43.30114,"lon":5.39876,"is_reserved":false,"is_disabled":false,"rental_uris":{"android":"levelo://app?vid=01da542b-ce27-4a44-9a9a-bd145ac5f04c","ios":"levelo://app?vid=01da542b-ce27-4a44-9a9a-bd145ac5f04c"},"vehicle_type_id":"4","last_reported":1743906295,"current_range_meters":11200,"station_id":"ce4bh0h2rcd13ifvqd40","pricing_plan_id":"cebpf4jnsgd1na2vs0mg"},{"bike_id":"d4286db4-b3a4-4b8e-9578-24abb2935477","system_id":"levelo_inurba_marseille","lat":43.27933,"lon":5.4104,"is_reserved":false,"is_disabled":false,"rental_uris":{"android":"levelo://app?vid=d4286db4-b3a4-4b8e-9578-24abb2935477","ios":"levelo://app?vid=d4286db4-b3a4-4b8e-9578-24abb2935477"},"vehicle_type_id":"4","last_reported":1743906295,"current_range_meters":11200,"station_id":"ce4bhnp2rcd13ifvqh0g","pricing_plan_id":"cebpf4jnsgd1na2vs0mg"},{"bike_id":"00393ee2-317d-4e98-a30d-fd25773ef49f","system_id":"levelo_inurba_marseille","lat":43.35255,"lon":5.35766,"is_reserved":false,"is_disabled":false,"rental_uris":{"android":"levelo://app?vid=00393ee2-317d-4e98-a30d-fd25773ef49f","ios":"levelo://app?vid=00393ee2-317d-4e98-a30d-fd25773ef49f"},"vehicle_type_id":"4","last_reported":1743906295,"current_range_meters":11600,"station_id":"","pricing_plan_id":"cebpf4jnsgd1na2vs0mg"},{"bike_id":"be0592d1-8673-41de-b066-b2109d8e8167","system_id":"levelo_inurba_marseille","lat":43.30314,"lon":5.36893,"is_reserved":false,"is_disabled":false,"rental_uris":{"android":"levelo://app?vid=be0592d1-8673-41de-b066-b2109d8e8167","ios":"levelo://app?vid=be0592d1-8673-41de-b066-b2109d8e8167"},"vehicle_type_id":"4","last_reported":1743906295,"current_range_meters":11600,"station_id":"ce4bgqh2rcd13ifvqc5g","pricing_plan_id":"cebpf4jnsgd1na2vs0mg"},{"bike_id":"9c9e91df-e133-414a-8295-3f6a292805f6","system_id":"levelo_inurba_marseille","lat":43.23186,"lon":5.35557,"is_reserved":false,"is_disabled":true,"rental_uris":{"android":"levelo://app?vid=9c9e91df-e133-414a-8295-3f6a292805f6","ios":"levelo://app?vid=9c9e91df-e133-414a-8295-3f6a292805f6"},"vehicle_type_id":"4","last_reported":1743906295,"current_range_meters":11600,"station_id":"ce4bhu92rcd13ifvqi70","pricing_plan_id":"cebpf4jnsgd1na2vs0mg"},{"bike_id":"4fb49432-e938-4018-8849-d2e72e50a49a","system_id":"levelo_inurba_marseille","lat":43.30795,"lon":5.38156,"is_reserved":false,"is_disabled":false,"rental_uris":{"android":"levelo://app?vid=4fb49432-e938-4018-8849-d2e72e50a49a","ios":"levelo://app?vid=4fb49432-e938-4018-8849-d2e72e50a49a"},"vehicle_type_id":"4","last_reported":1743906295,"current_range_meters":11600,"station_id":"ce4bgt12rcd13ifvqce0","pricing_plan_id":"cebpf4jnsgd1na2vs0mg"},{"bike_id":"a5f8fe53-2f9c-4672-9bdc-1433af05ee91","system_id":"levelo_inurba_marseille","lat":43.27909,"lon":5.39579,"is_reserved":false,"is_disabled":false,"rental_uris":{"android":"levelo://app?vid=a5f8fe53-2f9c-4672-9bdc-1433af05ee91","ios":"levelo://app?vid=a5f8fe53-2f9c-4672-9bdc-1433af05ee91"},"vehicle_type_id":"4","last_reported":1743906295,"current_range_meters":11600,"station_id":"ce4bhf92rcd13ifvqf40","pricing_plan_id":"cebpf4jnsgd1na2vs0mg"},{"bike_id":"331ea854-5ef0-408d-9b23-b2372e32220a","system_id":"levelo_inurba_marseille","lat":43.30167,"lon":5.38093,"is_reserved":false,"is_disabled":false,"rental_uris":{"android":"levelo://app?vid=331ea854-5ef0-408d-9b23-b2372e32220a","ios":"levelo://app?vid=331ea854-5ef0-408d-9b23-b2372e32220a"},"vehicle_type_id":"4","last_reported":1743906295,"current_range_meters":11600,"station_id":"ce4bgjp2rcd13ifvqbh0","pricing_plan_id":"cebpf4jnsgd1na2vs0mg"},{"bike_id":"3199c6c2-15d2-4a75-8c35-25b4a8137af0","system_id":"levelo_inurba_marseille","lat":43.29027,"lon":5.38641,"is_reserved":false,"is_disabled":false,"rental_uris":{"android":"levelo://app?vid=3199c6c2-15d2-4a75-8c35-25b4a8137af0","ios":"levelo://app?vid=3199c6c2-15d2-4a75-8c35-25b4a8137af0"},"vehicle_type_id":"4","last_reported":1743906295,"current_range_meters":11600,"station_id":"ce4bh4p2rcd13ifvqe0g","pricing_plan_id":"cebpf4jnsgd1na2vs0mg"},{"bike_id":"45ce4757-4936-48c5-ab54-4232bf91f22e","system_id":"levelo_inurba_marseille","lat":43.30128,"lon":5.39892,"is_reserved":false,"is_disabled":false,"rental_uris":{"android":"levelo://app?vid=45ce4757-4936-48c5-ab54-4232bf91f22e","ios":"levelo://app?vid=45ce4757-4936-48c5-ab54-4232bf91f22e"},"vehicle_type_id":"4","last_reported":1743906295,"current_range_meters":11200,"station_id":"ce4bh0h2rcd13ifvqd40","pricing_plan_id":"cebpf4jnsgd1na2vs0mg"},{"bike_id":"936233dd-1e5b-4f07-9529-f0ff53a06c61","system_id":"levelo_inurba_marseille","lat":43.24669,"lon":5.38161,"is_reserved":false,"is_disabled":false,"rental_uris":{"android":"levelo://app?vid=936233dd-1e5b-4f07-9529-f0ff53a06c61","ios":"levelo://app?vid=936233dd-1e5b-4f07-9529-f0ff53a06c61"},"vehicle_type_id":"4","last_reported":1743906295,"current_range_meters":12000,"station_id":"ce4bhih2rcd13ifvqfr0","pricing_plan_id":"cebpf4jnsgd1na2vs0mg"},{"bike_id":"abde5d83-9b30-4b2f-8a88-f914ca452329","system_id":"levelo_inurba_marseille","lat":43.312146,"lon":5.386832,"is_reserved":false,"is_disabled":false,"rental_uris":{"android":"levelo://app?vid=abde5d83-9b30-4b2f-8a88-f914ca452329","ios":"levelo://app?vid=abde5d83-9b30-4b2f-8a88-f914ca452329"},"vehicle_type_id":"4","last_reported":1743906295,"current_range_meters":12000,"station_id":"","pricing_plan_id":"cebpf4jnsgd1na2vs0mg"},{"bike_id":"625c7f88-f421-41b1-8bda-76b07c36098e","system_id":"levelo_inurba_marseille","lat":43.265684,"lon":5.390205,"is_reserved":false,"is_disabled":false,"rental_uris":{"android":"levelo://app?vid=625c7f88-f421-41b1-8bda-76b07c36098e","ios":"levelo://app?vid=625c7f88-f421-41b1-8bda-76b07c36098e"},"vehicle_type_id":"4","last_reported":1743906295,"current_range_meters":12000,"station_id":"ce4bhe12rcd13ifvqf30","pricing_plan_id":"cebpf4jnsgd1na2vs0mg"},{"bike_id":"1b0f2b83-0e4e-48f0-805f-48633619073a","system_id":"levelo_inurba_marseille","lat":43.271805,"lon":5.409859,"is_reserved":false,"is_disabled":false,"rental_uris":{"android":"levelo://app?vid=1b0f2b83-0e4e-48f0-805f-48633619073a","ios":"levelo://app?vid=1b0f2b83-0e4e-48f0-805f-48633619073a"},"vehicle_type_id":"4","last_reported":1743906295,"current_range_meters":12000,"station_id":"ce4bhl12rcd13ifvqgf0","pricing_plan_id":"cebpf4jnsgd1na2vs0mg"},{"bike_id":"e82f7f02-1218-4d63-b2ef-c5b20d402fa4","system_id":"levelo_inurba_marseille","lat":43.28105,"lon":5.37841,"is_reserved":false,"is_disabled":false,"rental_uris":{"android":"levelo://app?vid=e82f7f02-1218-4d63-b2ef-c5b20d402fa4","ios":"levelo://app?vid=e82f7f02-1218-4d63-b2ef-c5b20d402fa4"},"vehicle_type_id":"4","last_reported":1743906295,"current_range_meters":12000,"station_id":"ce4bha12rcd13ifvqee0","pricing_plan_id":"cebpf4jnsgd1na2vs0mg"},{"bike_id":"6023584e-870f-454d-88b0-bf3dc0e21fbe","system_id":"levelo_inurba_marseille","lat":43.24392,"lon":5.37088,"is_reserved":false,"is_disabled":true,"rental_uris":{"android":"levelo://app?vid=6023584e-870f-454d-88b0-bf3dc0e21fbe","ios":"levelo://app?vid=6023584e-870f-454d-88b0-bf3dc0e21fbe"},"vehicle_type_id":"4","last_reported":1743906295,"current_range_meters":12000,"station_id":"ce4bhhh2rcd13ifvqfk0","pricing_plan_id":"cebpf4jnsgd1na2vs0mg"},{"bike_id":"b598b6b8-69a3-4491-bd9b-eb0a2b32b0cf","system_id":"levelo_inurba_marseille","lat":43.310325,"lon":5.380889,"is_reserved":false,"is_disabled":false,"rental_uris":{"android":"levelo://app?vid=b598b6b8-69a3-4491-bd9b-eb0a2b32b0cf","ios":"levelo://app?vid=b598b6b8-69a3-4491-bd9b-eb0a2b32b0cf"},"vehicle_type_id":"4","last_reported":1743906295,"current_range_meters":12400,"station_id":"","pricing_plan_id":"cebpf4jnsgd1na2vs0mg"},{"bike_id":"ceba594e-ff69-4140-828e-f8a961103e51","system_id":"levelo_inurba_marseille","lat":43.241681,"lon":5.363883,"is_reserved":false,"is_disabled":false,"rental_uris":{"android":"levelo://app?vid=ceba594e-ff69-4140-828e-f8a961103e51","ios":"levelo://app?vid=ceba594e-ff69-4140-828e-f8a961103e51"},"vehicle_type_id":"4","last_reported":1743906295,"current_range_meters":12400,"station_id":"cpo36qri1sfpv3e86is0","pricing_plan_id":"cebpf4jnsgd1na2vs0mg"},{"bike_id":"97701ac3-cfa4-4f07-87c0-26acad567d6a","system_id":"levelo_inurba_marseille","lat":43.290405,"lon":5.359085,"is_reserved":false,"is_disabled":false,"rental_uris":{"android":"levelo://app?vid=97701ac3-cfa4-4f07-87c0-26acad567d6a","ios":"levelo://app?vid=97701ac3-cfa4-4f07-87c0-26acad567d6a"},"vehicle_type_id":"4","last_reported":1743906295,"current_range_meters":12400,"station_id":"ce4bha92rcd13ifvqeg0","pricing_plan_id":"cebpf4jnsgd1na2vs0mg"},{"bike_id":"b1ce8b7b-c4b8-4a00-be3c-16a99eebf500","system_id":"levelo_inurba_marseille","lat":43.2706,"lon":5.42286,"is_reserved":false,"is_disabled":false,"rental_uris":{"android":"levelo://app?vid=b1ce8b7b-c4b8-4a00-be3c-16a99eebf500","ios":"levelo://app?vid=b1ce8b7b-c4b8-4a00-be3c-16a99eebf500"},"vehicle_type_id":"4","last_reported":1743906295,"current_range_meters":12400,"station_id":"ce4bhk92rcd13ifvqgb0","pricing_plan_id":"cebpf4jnsgd1na2vs0mg"},{"bike_id":"bcf7c07f-b391-45d6-a419-1493f771d4df","system_id":"levelo_inurba_marseille","lat":43.305912,"lon":5.393488,"is_reserved":false,"is_disabled":false,"rental_uris":{"android":"levelo://app?vid=bcf7c07f-b391-45d6-a419-1493f771d4df","ios":"levelo://app?vid=bcf7c07f-b391-45d6-a419-1493f771d4df"},"vehicle_type_id":"4","last_reported":1743906295,"current_range_meters":12400,"station_id":"ce4bh0p2rcd13ifvqd80","pricing_plan_id":"cebpf4jnsgd1na2vs0mg"},{"bike_id":"136b6e45-ee21-453e-aa22-e07947db9071","system_id":"levelo_inurba_marseille","lat":43.2315,"lon":5.43698,"is_reserved":false,"is_disabled":true,"rental_uris":{"android":"levelo://app?vid=136b6e45-ee21-453e-aa22-e07947db9071","ios":"levelo://app?vid=136b6e45-ee21-453e-aa22-e07947db9071"},"vehicle_type_id":"4","last_reported":1743906295,"current_range_meters":12400,"station_id":"ce4bhmp2rcd13ifvqgog","pricing_plan_id":"cebpf4jnsgd1na2vs0mg"},{"bike_id":"1f9006c0-6130-498f-9399-ca1c8ff0c462","system_id":"levelo_inurba_marseille","lat":43.32104,"lon":5.36757,"is_reserved":false,"is_disabled":false,"rental_uris":{"android":"levelo://app?vid=1f9006c0-6130-498f-9399-ca1c8ff0c462","ios":"levelo://app?vid=1f9006c0-6130-498f-9399-ca1c8ff0c462"},"vehicle_type_id":"4","last_reported":1743906295,"current_range_meters":12400,"station_id":"ce4bhrh2rcd13ifvqhug","pricing_plan_id":"cebpf4jnsgd1na2vs0mg"},{"bike_id":"9f934b58-f1ea-480f-8936-f14b081c3420","system_id":"levelo_inurba_marseille","lat":43.26199,"lon":5.37443,"is_reserved":false,"is_disabled":false,"rental_uris":{"android":"levelo://app?vid=9f934b58-f1ea-480f-8936-f14b081c3420","ios":"levelo://app?vid=9f934b58-f1ea-480f-8936-f14b081c3420"},"vehicle_type_id":"4","last_reported":1743906295,"current_range_meters":12800,"station_id":"ce4bhgp2rcd13ifvqfc0","pricing_plan_id":"cebpf4jnsgd1na2vs0mg"},{"bike_id":"5420e474-5232-43f0-bd62-51e2359e3157","system_id":"levelo_inurba_marseille","lat":43.313598,"lon":5.370146,"is_reserved":false,"is_disabled":false,"rental_uris":{"android":"levelo://app?vid=5420e474-5232-43f0-bd62-51e2359e3157","ios":"levelo://app?vid=5420e474-5232-43f0-bd62-51e2359e3157"},"vehicle_type_id":"4","last_reported":1743906295,"current_range_meters":12800,"station_id":"","pricing_plan_id":"cebpf4jnsgd1na2vs0mg"},{"bike_id":"308ccf60-9009-43f8-bb03-6f4f6c34706f","system_id":"levelo_inurba_marseille","lat":43.30251,"lon":5.40076,"is_reserved":false,"is_disabled":false,"rental_uris":{"android":"levelo://app?vid=308ccf60-9009-43f8-bb03-6f4f6c34706f","ios":"levelo://app?vid=308ccf60-9009-43f8-bb03-6f4f6c34706f"},"vehicle_type_id":"4","last_reported":1743906295,"current_range_meters":12800,"station_id":"ce4bgvh2rcd13ifvqcs0","pricing_plan_id":"cebpf4jnsgd1na2vs0mg"},{"bike_id":"7afda8a2-fa95-4781-be89-80b687076b94","system_id":"levelo_inurba_marseille","lat":43.33582,"lon":5.40962,"is_reserved":false,"is_disabled":false,"rental_uris":{"android":"levelo://app?vid=7afda8a2-fa95-4781-be89-80b687076b94","ios":"levelo://app?vid=7afda8a2-fa95-4781-be89-80b687076b94"},"vehicle_type_id":"4","last_reported":1743906295,"current_range_meters":12800,"station_id":"ce4bhqh2rcd13ifvqhmg","pricing_plan_id":"cebpf4jnsgd1na2vs0mg"},{"bike_id":"6139488f-b70f-40ae-a83b-7181496761d9","system_id":"levelo_inurba_marseille","lat":43.30438,"lon":5.38898,"is_reserved":false,"is_disabled":false,"rental_uris":{"android":"levelo://app?vid=6139488f-b70f-40ae-a83b-7181496761d9","ios":"levelo://app?vid=6139488f-b70f-40ae-a83b-7181496761d9"},"vehicle_type_id":"4","last_reported":1743906295,"current_range_meters":12800,"station_id":"ce4bgk12rcd13ifvqbi0","pricing_plan_id":"cebpf4jnsgd1na2vs0mg"},{"bike_id":"8f6dc4df-021c-4b49-b773-41ad9c5221cf","system_id":"levelo_inurba_marseille","lat":43.31081,"lon":5.37173,"is_reserved":false,"is_disabled":false,"rental_uris":{"android":"levelo://app?vid=8f6dc4df-021c-4b49-b773-41ad9c5221cf","ios":"levelo://app?vid=8f6dc4df-021c-4b49-b773-41ad9c5221cf"},"vehicle_type_id":"4","last_reported":1743906295,"current_range_meters":12800,"station_id":"","pricing_plan_id":"cebpf4jnsgd1na2vs0mg"},{"bike_id":"97c1701e-ad11-4e7e-92b1-742af6d82d4f","system_id":"levelo_inurba_marseille","lat":43.29257,"lon":5.4089,"is_reserved":false,"is_disabled":false,"rental_uris":{"android":"levelo://app?vid=97c1701e-ad11-4e7e-92b1-742af6d82d4f","ios":"levelo://app?vid=97c1701e-ad11-4e7e-92b1-742af6d82d4f"},"vehicle_type_id":"4","last_reported":1743906295,"current_range_meters":12800,"station_id":"ce4bh192rcd13ifvqdc0","pricing_plan_id":"cebpf4jnsgd1na2vs0mg"},{"bike_id":"77fb35d2-28de-4101-8dd2-278f833d51b4","system_id":"levelo_inurba_marseille","lat":43.30785,"lon":5.37644,"is_reserved":false,"is_disabled":false,"rental_uris":{"android":"levelo://app?vid=77fb35d2-28de-4101-8dd2-278f833d51b4","ios":"levelo://app?vid=77fb35d2-28de-4101-8dd2-278f833d51b4"},"vehicle_type_id":"4","last_reported":1743906295,"current_range_meters":12800,"station_id":"ce4bgv92rcd13ifvqcq0","pricing_plan_id":"cebpf4jnsgd1na2vs0mg"},{"bike_id":"7fd0635d-68ad-4ce6-a52b-daef56987b4b","system_id":"levelo_inurba_marseille","lat":43.30859,"lon":5.38592,"is_reserved":false,"is_disabled":false,"rental_uris":{"android":"levelo://app?vid=7fd0635d-68ad-4ce6-a52b-daef56987b4b","ios":"levelo://app?vid=7fd0635d-68ad-4ce6-a52b-daef56987b4b"},"vehicle_type_id":"4","last_reported":1743906295,"current_range_meters":12800,"station_id":"","pricing_plan_id":"cebpf4jnsgd1na2vs0mg"},{"bike_id":"efe359c6-9a16-4a01-b52f-9f3d2b04dd09","system_id":"levelo_inurba_marseille","lat":43.30447,"lon":5.39729,"is_reserved":false,"is_disabled":false,"rental_uris":{"android":"levelo://app?vid=efe359c6-9a16-4a01-b52f-9f3d2b04dd09","ios":"levelo://app?vid=efe359c6-9a16-4a01-b52f-9f3d2b04dd09"},"vehicle_type_id":"4","last_reported":1743906295,"current_range_meters":12800,"station_id":"ce4bh092rcd13ifvqd20","pricing_plan_id":"cebpf4jnsgd1na2vs0mg"},{"bike_id":"c89a749e-492a-4edb-8fe9-5254d4113a2d","system_id":"levelo_inurba_marseille","lat":43.279951,"lon":5.416568,"is_reserved":false,"is_disabled":false,"rental_uris":{"android":"levelo://app?vid=c89a749e-492a-4edb-8fe9-5254d4113a2d","ios":"levelo://app?vid=c89a749e-492a-4edb-8fe9-5254d4113a2d"},"vehicle_type_id":"4","last_reported":1743906295,"current_range_meters":12800,"station_id":"ce4bho12rcd13ifvqh1g","pricing_plan_id":"cebpf4jnsgd1na2vs0mg"},{"bike_id":"c9bcb9ed-89fa-4f1d-bf29-12fb5d644696","system_id":"levelo_inurba_marseille","lat":43.279934,"lon":5.416621,"is_reserved":false,"is_disabled":false,"rental_uris":{"android":"levelo://app?vid=c9bcb9ed-89fa-4f1d-bf29-12fb5d644696","ios":"levelo://app?vid=c9bcb9ed-89fa-4f1d-bf29-12fb5d644696"},"vehicle_type_id":"4","last_reported":1743906295,"current_range_meters":13600,"station_id":"ce4bho12rcd13ifvqh1g","pricing_plan_id":"cebpf4jnsgd1na2vs0mg"},{"bike_id":"347b59a6-7fab-4bf0-a924-eac626981b6e","system_id":"levelo_inurba_marseille","lat":43.241795,"lon":5.397294,"is_reserved":false,"is_disabled":false,"rental_uris":{"android":"levelo://app?vid=347b59a6-7fab-4bf0-a924-eac626981b6e","ios":"levelo://app?vid=347b59a6-7fab-4bf0-a924-eac626981b6e"},"vehicle_type_id":"4","last_reported":1743906295,"current_range_meters":13600,"station_id":"ce4bhn12rcd13ifvqgpg","pricing_plan_id":"cebpf4jnsgd1na2vs0mg"},{"bike_id":"c3e6d442-6282-4c88-9f90-93d85aff9e76","system_id":"levelo_inurba_marseille","lat":43.28144,"lon":5.42655,"is_reserved":false,"is_disabled":false,"rental_uris":{"android":"levelo://app?vid=c3e6d442-6282-4c88-9f90-93d85aff9e76","ios":"levelo://app?vid=c3e6d442-6282-4c88-9f90-93d85aff9e76"},"vehicle_type_id":"4","last_reported":1743906295,"current_range_meters":13600,"station_id":"ce4bhnh2rcd13ifvqgug","pricing_plan_id":"cebpf4jnsgd1na2vs0mg"},{"bike_id":"4d7b5bba-54ec-4f46-b586-1bbcd8197903","system_id":"levelo_inurba_marseille","lat":43.26555,"lon":5.37272,"is_reserved":false,"is_disabled":false,"rental_uris":{"android":"levelo://app?vid=4d7b5bba-54ec-4f46-b586-1bbcd8197903","ios":"levelo://app?vid=4d7b5bba-54ec-4f46-b586-1bbcd8197903"},"vehicle_type_id":"4","last_reported":1743906295,"current_range_meters":13600,"station_id":"ce4bhg12rcd13ifvqf70","pricing_plan_id":"cebpf4jnsgd1na2vs0mg"},{"bike_id":"cdba44aa-a105-4f1b-b51d-73fa7a4d54d2","system_id":"levelo_inurba_marseille","lat":43.31174,"lon":5.38706,"is_reserved":false,"is_disabled":false,"rental_uris":{"android":"levelo://app?vid=cdba44aa-a105-4f1b-b51d-73fa7a4d54d2","ios":"levelo://app?vid=cdba44aa-a105-4f1b-b51d-73fa7a4d54d2"},"vehicle_type_id":"4","last_reported":1743906295,"current_range_meters":14000,"station_id":"ce4bgv12rcd13ifvqcp0","pricing_plan_id":"cebpf4jnsgd1na2vs0mg"},{"bike_id":"bff1f6ae-49dc-4b51-83a2-55b35b74eafe","system_id":"levelo_inurba_marseille","lat":43.3089,"lon":5.39636,"is_reserved":false,"is_disabled":false,"rental_uris":{"android":"levelo://app?vid=bff1f6ae-49dc-4b51-83a2-55b35b74eafe","ios":"levelo://app?vid=bff1f6ae-49dc-4b51-83a2-55b35b74eafe"},"vehicle_type_id":"4","last_reported":1743906295,"current_range_meters":14000,"station_id":"ce4bh012rcd13ifvqcv0","pricing_plan_id":"cebpf4jnsgd1na2vs0mg"},{"bike_id":"29f11379-58b8-4f95-8f1b-9fcbd186b65f","system_id":"levelo_inurba_marseille","lat":43.28686,"lon":5.39976,"is_reserved":false,"is_disabled":false,"rental_uris":{"android":"levelo://app?vid=29f11379-58b8-4f95-8f1b-9fcbd186b65f","ios":"levelo://app?vid=29f11379-58b8-4f95-8f1b-9fcbd186b65f"},"vehicle_type_id":"4","last_reported":1743906295,"current_range_meters":14000,"station_id":"ce4bho92rcd13ifvqh3g","pricing_plan_id":"cebpf4jnsgd1na2vs0mg"},{"bike_id":"95710e0e-ff76-4185-aa4e-b63f5f7ca8e2","system_id":"levelo_inurba_marseille","lat":43.30443,"lon":5.38894,"is_reserved":false,"is_disabled":false,"rental_uris":{"android":"levelo://app?vid=95710e0e-ff76-4185-aa4e-b63f5f7ca8e2","ios":"levelo://app?vid=95710e0e-ff76-4185-aa4e-b63f5f7ca8e2"},"vehicle_type_id":"4","last_reported":1743906295,"current_range_meters":14000,"station_id":"ce4bgk12rcd13ifvqbi0","pricing_plan_id":"cebpf4jnsgd1na2vs0mg"},{"bike_id":"a9205477-1e06-40c5-91b2-845a271a0b01","system_id":"levelo_inurba_marseille","lat":43.287311,"lon":5.36094,"is_reserved":false,"is_disabled":false,"rental_uris":{"android":"levelo://app?vid=a9205477-1e06-40c5-91b2-845a271a0b01","ios":"levelo://app?vid=a9205477-1e06-40c5-91b2-845a271a0b01"},"vehicle_type_id":"4","last_reported":1743906295,"current_range_meters":14000,"station_id":"cki0cbj6b192h4jlfktg","pricing_plan_id":"cebpf4jnsgd1na2vs0mg"},{"bike_id":"4c37ba17-dd09-40d8-a29c-6f932748c036","system_id":"levelo_inurba_marseille","lat":43.302502,"lon":5.400581,"is_reserved":false,"is_disabled":false,"rental_uris":{"android":"levelo://app?vid=4c37ba17-dd09-40d8-a29c-6f932748c036","ios":"levelo://app?vid=4c37ba17-dd09-40d8-a29c-6f932748c036"},"vehicle_type_id":"4","last_reported":1743906295,"current_range_meters":14000,"station_id":"ce4bgvh2rcd13ifvqcs0","pricing_plan_id":"cebpf4jnsgd1na2vs0mg"},{"bike_id":"5fe07405-d360-4684-937d-1cb3bff342f2","system_id":"levelo_inurba_marseille","lat":43.30799,"lon":5.38158,"is_reserved":false,"is_disabled":false,"rental_uris":{"android":"levelo://app?vid=5fe07405-d360-4684-937d-1cb3bff342f2","ios":"levelo://app?vid=5fe07405-d360-4684-937d-1cb3bff342f2"},"vehicle_type_id":"4","last_reported":1743906295,"current_range_meters":14000,"station_id":"ce4bgt12rcd13ifvqce0","pricing_plan_id":"cebpf4jnsgd1na2vs0mg"},{"bike_id":"7d2dde4f-5a6a-4005-a47e-231c9dacefe3","system_id":"levelo_inurba_marseille","lat":43.30794,"lon":5.4351,"is_reserved":false,"is_disabled":false,"rental_uris":{"android":"levelo://app?vid=7d2dde4f-5a6a-4005-a47e-231c9dacefe3","ios":"levelo://app?vid=7d2dde4f-5a6a-4005-a47e-231c9dacefe3"},"vehicle_type_id":"4","last_reported":1743906295,"current_range_meters":14400,"station_id":"ce4bhph2rcd13ifvqheg","pricing_plan_id":"cebpf4jnsgd1na2vs0mg"},{"bike_id":"3f9f60e9-46e5-408d-a83f-6ffb283e0d47","system_id":"levelo_inurba_marseille","lat":43.24161,"lon":5.39731,"is_reserved":false,"is_disabled":false,"rental_uris":{"android":"levelo://app?vid=3f9f60e9-46e5-408d-a83f-6ffb283e0d47","ios":"levelo://app?vid=3f9f60e9-46e5-408d-a83f-6ffb283e0d47"},"vehicle_type_id":"4","last_reported":1743906295,"current_range_meters":14400,"station_id":"ce4bhn12rcd13ifvqgpg","pricing_plan_id":"cebpf4jnsgd1na2vs0mg"},{"bike_id":"1ae7beda-2129-429f-8a9e-081a31a5273d","system_id":"levelo_inurba_marseille","lat":43.308027,"lon":5.381513,"is_reserved":false,"is_disabled":false,"rental_uris":{"android":"levelo://app?vid=1ae7beda-2129-429f-8a9e-081a31a5273d","ios":"levelo://app?vid=1ae7beda-2129-429f-8a9e-081a31a5273d"},"vehicle_type_id":"4","last_reported":1743906295,"current_range_meters":14400,"station_id":"ce4bgt12rcd13ifvqce0","pricing_plan_id":"cebpf4jnsgd1na2vs0mg"},{"bike_id":"a6064373-4863-4de1-99db-ff063ca1121f","system_id":"levelo_inurba_marseille","lat":43.2756,"lon":5.3841,"is_reserved":false,"is_disabled":false,"rental_uris":{"android":"levelo://app?vid=a6064373-4863-4de1-99db-ff063ca1121f","ios":"levelo://app?vid=a6064373-4863-4de1-99db-ff063ca1121f"},"vehicle_type_id":"4","last_reported":1743906295,"current_range_meters":14400,"station_id":"ce4bhh92rcd13ifvqfi0","pricing_plan_id":"cebpf4jnsgd1na2vs0mg"},{"bike_id":"f2a4a726-900d-43d4-8328-76c9d2f6012d","system_id":"levelo_inurba_marseille","lat":43.29011,"lon":5.35602,"is_reserved":false,"is_disabled":true,"rental_uris":{"android":"levelo://app?vid=f2a4a726-900d-43d4-8328-76c9d2f6012d","ios":"levelo://app?vid=f2a4a726-900d-43d4-8328-76c9d2f6012d"},"vehicle_type_id":"4","last_reported":1743906295,"current_range_meters":14400,"station_id":"ce4bhb92rcd13ifvqen0","pricing_plan_id":"cebpf4jnsgd1na2vs0mg"},{"bike_id":"c38030f9-cf9d-4d54-956e-0166a9954e63","system_id":"levelo_inurba_marseille","lat":43.30333,"lon":5.40436,"is_reserved":false,"is_disabled":false,"rental_uris":{"android":"levelo://app?vid=c38030f9-cf9d-4d54-956e-0166a9954e63","ios":"levelo://app?vid=c38030f9-cf9d-4d54-956e-0166a9954e63"},"vehicle_type_id":"4","last_reported":1743906295,"current_range_meters":14800,"station_id":"ce4bh012rcd13ifvqd10","pricing_plan_id":"cebpf4jnsgd1na2vs0mg"},{"bike_id":"6ee85d75-9576-48a6-9ea1-92da0dac2d73","system_id":"levelo_inurba_marseille","lat":43.30811,"lon":5.435,"is_reserved":false,"is_disabled":false,"rental_uris":{"android":"levelo://app?vid=6ee85d75-9576-48a6-9ea1-92da0dac2d73","ios":"levelo://app?vid=6ee85d75-9576-48a6-9ea1-92da0dac2d73"},"vehicle_type_id":"4","last_reported":1743906295,"current_range_meters":14800,"station_id":"ce4bhph2rcd13ifvqheg","pricing_plan_id":"cebpf4jnsgd1na2vs0mg"},{"bike_id":"a409c3f0-8991-4228-afb5-57b19bb06658","system_id":"levelo_inurba_marseille","lat":43.32401,"lon":5.38997,"is_reserved":false,"is_disabled":false,"rental_uris":{"android":"levelo://app?vid=a409c3f0-8991-4228-afb5-57b19bb06658","ios":"levelo://app?vid=a409c3f0-8991-4228-afb5-57b19bb06658"},"vehicle_type_id":"4","last_reported":1743906295,"current_range_meters":14800,"station_id":"","pricing_plan_id":"cebpf4jnsgd1na2vs0mg"},{"bike_id":"9d9ecd7f-1e89-42e7-a812-6a77504eca65","system_id":"levelo_inurba_marseille","lat":43.26801,"lon":5.40267,"is_reserved":false,"is_disabled":false,"rental_uris":{"android":"levelo://app?vid=9d9ecd7f-1e89-42e7-a812-6a77504eca65","ios":"levelo://app?vid=9d9ecd7f-1e89-42e7-a812-6a77504eca65"},"vehicle_type_id":"4","last_reported":1743906295,"current_range_meters":14800,"station_id":"ce501612rcd8frsf0b60","pricing_plan_id":"cebpf4jnsgd1na2vs0mg"},{"bike_id":"c2c27c97-cdb9-4118-84ef-b2dc6e9357e6","system_id":"levelo_inurba_marseille","lat":43.30611,"lon":5.37171,"is_reserved":false,"is_disabled":false,"rental_uris":{"android":"levelo://app?vid=c2c27c97-cdb9-4118-84ef-b2dc6e9357e6","ios":"levelo://app?vid=c2c27c97-cdb9-4118-84ef-b2dc6e9357e6"},"vehicle_type_id":"4","last_reported":1743906295,"current_range_meters":14800,"station_id":"ce4bgqh2rcd13ifvqc4g","pricing_plan_id":"cebpf4jnsgd1na2vs0mg"},{"bike_id":"f7e3b8fa-9062-4469-bcee-58c5aa5cfb6e","system_id":"levelo_inurba_marseille","lat":43.29503,"lon":5.38617,"is_reserved":false,"is_disabled":true,"rental_uris":{"android":"levelo://app?vid=f7e3b8fa-9062-4469-bcee-58c5aa5cfb6e","ios":"levelo://app?vid=f7e3b8fa-9062-4469-bcee-58c5aa5cfb6e"},"vehicle_type_id":"4","last_reported":1743906295,"current_range_meters":14800,"station_id":"ce4bgih2rcd13ifvqba0","pricing_plan_id":"cebpf4jnsgd1na2vs0mg"},{"bike_id":"8a38320c-a733-4cf5-8c8e-152497fe8f8f","system_id":"levelo_inurba_marseille","lat":43.281556,"lon":5.426329,"is_reserved":false,"is_disabled":false,"rental_uris":{"android":"levelo://app?vid=8a38320c-a733-4cf5-8c8e-152497fe8f8f","ios":"levelo://app?vid=8a38320c-a733-4cf5-8c8e-152497fe8f8f"},"vehicle_type_id":"4","last_reported":1743906295,"current_range_meters":15200,"station_id":"ce4bhnh2rcd13ifvqgug","pricing_plan_id":"cebpf4jnsgd1na2vs0mg"},{"bike_id":"68000d2f-3fea-40d6-9720-3ed0065e96ea","system_id":"levelo_inurba_marseille","lat":43.30149,"lon":5.38073,"is_reserved":false,"is_disabled":false,"rental_uris":{"android":"levelo://app?vid=68000d2f-3fea-40d6-9720-3ed0065e96ea","ios":"levelo://app?vid=68000d2f-3fea-40d6-9720-3ed0065e96ea"},"vehicle_type_id":"4","last_reported":1743906295,"current_range_meters":14800,"station_id":"ce4bgjp2rcd13ifvqbh0","pricing_plan_id":"cebpf4jnsgd1na2vs0mg"},{"bike_id":"40a621c0-90fc-49e7-b4b6-60f8184e982f","system_id":"levelo_inurba_marseille","lat":43.32279,"lon":5.38286,"is_reserved":false,"is_disabled":false,"rental_uris":{"android":"levelo://app?vid=40a621c0-90fc-49e7-b4b6-60f8184e982f","ios":"levelo://app?vid=40a621c0-90fc-49e7-b4b6-60f8184e982f"},"vehicle_type_id":"4","last_reported":1743906295,"current_range_meters":15200,"station_id":"ce4bhr12rcd13ifvqhqg","pricing_plan_id":"cebpf4jnsgd1na2vs0mg"},{"bike_id":"63e1d95c-79be-4b82-a868-e312bf827ceb","system_id":"levelo_inurba_marseille","lat":43.29024,"lon":5.38647,"is_reserved":false,"is_disabled":true,"rental_uris":{"android":"levelo://app?vid=63e1d95c-79be-4b82-a868-e312bf827ceb","ios":"levelo://app?vid=63e1d95c-79be-4b82-a868-e312bf827ceb"},"vehicle_type_id":"4","last_reported":1743906295,"current_range_meters":15200,"station_id":"ce4bh4p2rcd13ifvqe0g","pricing_plan_id":"cebpf4jnsgd1na2vs0mg"},{"bike_id":"73272853-088e-4b39-8e6e-94fe10fc353c","system_id":"levelo_inurba_marseille","lat":43.33752,"lon":5.37482,"is_reserved":false,"is_disabled":false,"rental_uris":{"android":"levelo://app?vid=73272853-088e-4b39-8e6e-94fe10fc353c","ios":"levelo://app?vid=73272853-088e-4b39-8e6e-94fe10fc353c"},"vehicle_type_id":"4","last_reported":1743906295,"current_range_meters":15200,"station_id":"","pricing_plan_id":"cebpf4jnsgd1na2vs0mg"},{"bike_id":"ce20ece9-fd7c-4e76-9da2-20464a57b067","system_id":"levelo_inurba_marseille","lat":43.287105,"lon":5.399803,"is_reserved":false,"is_disabled":false,"rental_uris":{"android":"levelo://app?vid=ce20ece9-fd7c-4e76-9da2-20464a57b067","ios":"levelo://app?vid=ce20ece9-fd7c-4e76-9da2-20464a57b067"},"vehicle_type_id":"4","last_reported":1743906295,"current_range_meters":15200,"station_id":"ce4bho92rcd13ifvqh3g","pricing_plan_id":"cebpf4jnsgd1na2vs0mg"},{"bike_id":"90eefabd-bdae-4624-872e-20a02839d612","system_id":"levelo_inurba_marseille","lat":43.30651,"lon":5.40084,"is_reserved":false,"is_disabled":false,"rental_uris":{"android":"levelo://app?vid=90eefabd-bdae-4624-872e-20a02839d612","ios":"levelo://app?vid=90eefabd-bdae-4624-872e-20a02839d612"},"vehicle_type_id":"4","last_reported":1743906295,"current_range_meters":15200,"station_id":"ce4bh112rcd13ifvqda0","pricing_plan_id":"cebpf4jnsgd1na2vs0mg"},{"bike_id":"fefe83d6-22ae-4bdc-9846-80fca8c3f8b6","system_id":"levelo_inurba_marseille","lat":43.26226,"lon":5.40451,"is_reserved":false,"is_disabled":false,"rental_uris":{"android":"levelo://app?vid=fefe83d6-22ae-4bdc-9846-80fca8c3f8b6","ios":"levelo://app?vid=fefe83d6-22ae-4bdc-9846-80fca8c3f8b6"},"vehicle_type_id":"4","last_reported":1743906295,"current_range_meters":15200,"station_id":"ce4bhmh2rcd13ifvqgmg","pricing_plan_id":"cebpf4jnsgd1na2vs0mg"},{"bike_id":"ec7bf5c8-52be-428c-8ec7-f34a907b13e2","system_id":"levelo_inurba_marseille","lat":43.302993,"lon":5.368853,"is_reserved":false,"is_disabled":false,"rental_uris":{"android":"levelo://app?vid=ec7bf5c8-52be-428c-8ec7-f34a907b13e2","ios":"levelo://app?vid=ec7bf5c8-52be-428c-8ec7-f34a907b13e2"},"vehicle_type_id":"4","last_reported":1743906295,"current_range_meters":15200,"station_id":"ce4bgqh2rcd13ifvqc5g","pricing_plan_id":"cebpf4jnsgd1na2vs0mg"},{"bike_id":"e332aab8-1fe3-40e9-8086-1f7d5ff35118","system_id":"levelo_inurba_marseille","lat":43.33142,"lon":5.38166,"is_reserved":false,"is_disabled":false,"rental_uris":{"android":"levelo://app?vid=e332aab8-1fe3-40e9-8086-1f7d5ff35118","ios":"levelo://app?vid=e332aab8-1fe3-40e9-8086-1f7d5ff35118"},"vehicle_type_id":"4","last_reported":1743906295,"current_range_meters":16000,"station_id":"","pricing_plan_id":"cebpf4jnsgd1na2vs0mg"},{"bike_id":"d6c3d7f4-760c-422c-8667-25e15a7934b3","system_id":"levelo_inurba_marseille","lat":43.30775,"lon":5.37465,"is_reserved":false,"is_disabled":false,"rental_uris":{"android":"levelo://app?vid=d6c3d7f4-760c-422c-8667-25e15a7934b3","ios":"levelo://app?vid=d6c3d7f4-760c-422c-8667-25e15a7934b3"},"vehicle_type_id":"4","last_reported":1743906295,"current_range_meters":16000,"station_id":"","pricing_plan_id":"cebpf4jnsgd1na2vs0mg"},{"bike_id":"873b9cb9-411d-441c-81fa-204f209e04e7","system_id":"levelo_inurba_marseille","lat":43.30861,"lon":5.37404,"is_reserved":false,"is_disabled":false,"rental_uris":{"android":"levelo://app?vid=873b9cb9-411d-441c-81fa-204f209e04e7","ios":"levelo://app?vid=873b9cb9-411d-441c-81fa-204f209e04e7"},"vehicle_type_id":"4","last_reported":1743906295,"current_range_meters":16000,"station_id":"","pricing_plan_id":"cebpf4jnsgd1na2vs0mg"},{"bike_id":"8c2a7989-7558-4fed-bf99-3812f8d03874","system_id":"levelo_inurba_marseille","lat":43.28102,"lon":5.37849,"is_reserved":false,"is_disabled":false,"rental_uris":{"android":"levelo://app?vid=8c2a7989-7558-4fed-bf99-3812f8d03874","ios":"levelo://app?vid=8c2a7989-7558-4fed-bf99-3812f8d03874"},"vehicle_type_id":"4","last_reported":1743906295,"current_range_meters":16000,"station_id":"ce4bha12rcd13ifvqee0","pricing_plan_id":"cebpf4jnsgd1na2vs0mg"},{"bike_id":"428002cd-714e-4f16-889f-7ab5216addc2","system_id":"levelo_inurba_marseille","lat":43.27915,"lon":5.39577,"is_reserved":false,"is_disabled":false,"rental_uris":{"android":"levelo://app?vid=428002cd-714e-4f16-889f-7ab5216addc2","ios":"levelo://app?vid=428002cd-714e-4f16-889f-7ab5216addc2"},"vehicle_type_id":"4","last_reported":1743906295,"current_range_meters":16000,"station_id":"ce4bhf92rcd13ifvqf40","pricing_plan_id":"cebpf4jnsgd1na2vs0mg"},{"bike_id":"0eb63064-fdac-46db-8828-83c6999ff221","system_id":"levelo_inurba_marseille","lat":43.28641,"lon":5.38534,"is_reserved":false,"is_disabled":false,"rental_uris":{"android":"levelo://app?vid=0eb63064-fdac-46db-8828-83c6999ff221","ios":"levelo://app?vid=0eb63064-fdac-46db-8828-83c6999ff221"},"vehicle_type_id":"4","last_reported":1743906295,"current_range_meters":16000,"station_id":"","pricing_plan_id":"cebpf4jnsgd1na2vs0mg"},{"bike_id":"28b08876-aa27-4b49-aa26-386ac99a9990","system_id":"levelo_inurba_marseille","lat":43.27952,"lon":5.41048,"is_reserved":false,"is_disabled":false,"rental_uris":{"android":"levelo://app?vid=28b08876-aa27-4b49-aa26-386ac99a9990","ios":"levelo://app?vid=28b08876-aa27-4b49-aa26-386ac99a9990"},"vehicle_type_id":"4","last_reported":1743906295,"current_range_meters":16000,"station_id":"ce4bhnp2rcd13ifvqh0g","pricing_plan_id":"cebpf4jnsgd1na2vs0mg"},{"bike_id":"772d9e3c-48b4-4bb6-9a76-6b61b74a32a9","system_id":"levelo_inurba_marseille","lat":43.29572,"lon":5.39967,"is_reserved":false,"is_disabled":true,"rental_uris":{"android":"levelo://app?vid=772d9e3c-48b4-4bb6-9a76-6b61b74a32a9","ios":"levelo://app?vid=772d9e3c-48b4-4bb6-9a76-6b61b74a32a9"},"vehicle_type_id":"4","last_reported":1743906295,"current_range_meters":16000,"station_id":"ce4bh312rcd13ifvqdj0","pricing_plan_id":"cebpf4jnsgd1na2vs0mg"},{"bike_id":"d6e93743-0add-423b-a91f-326fbcbf944f","system_id":"levelo_inurba_marseille","lat":43.24074,"lon":5.37771,"is_reserved":false,"is_disabled":false,"rental_uris":{"android":"levelo://app?vid=d6e93743-0add-423b-a91f-326fbcbf944f","ios":"levelo://app?vid=d6e93743-0add-423b-a91f-326fbcbf944f"},"vehicle_type_id":"4","last_reported":1743906295,"current_range_meters":16000,"station_id":"ce4bhnp2rcd13ifvqgvg","pricing_plan_id":"cebpf4jnsgd1na2vs0mg"},{"bike_id":"350e666a-10b7-4b84-9afa-fe3bebb82833","system_id":"levelo_inurba_marseille","lat":43.31117,"lon":5.38355,"is_reserved":false,"is_disabled":false,"rental_uris":{"android":"levelo://app?vid=350e666a-10b7-4b84-9afa-fe3bebb82833","ios":"levelo://app?vid=350e666a-10b7-4b84-9afa-fe3bebb82833"},"vehicle_type_id":"4","last_reported":1743906295,"current_range_meters":16000,"station_id":"ce4bgv92rcd13ifvqcr0","pricing_plan_id":"cebpf4jnsgd1na2vs0mg"},{"bike_id":"74157f86-074d-454c-9a36-ea55e1110ec5","system_id":"levelo_inurba_marseille","lat":43.26062,"lon":5.39379,"is_reserved":false,"is_disabled":false,"rental_uris":{"android":"levelo://app?vid=74157f86-074d-454c-9a36-ea55e1110ec5","ios":"levelo://app?vid=74157f86-074d-454c-9a36-ea55e1110ec5"},"vehicle_type_id":"4","last_reported":1743906295,"current_range_meters":16000,"station_id":"ce4bhh92rcd13ifvqfj0","pricing_plan_id":"cebpf4jnsgd1na2vs0mg"},{"bike_id":"d553dd87-8cd1-4b81-808e-8aeb82a0fa0c","system_id":"levelo_inurba_marseille","lat":43.28039,"lon":5.36939,"is_reserved":false,"is_disabled":true,"rental_uris":{"android":"levelo://app?vid=d553dd87-8cd1-4b81-808e-8aeb82a0fa0c","ios":"levelo://app?vid=d553dd87-8cd1-4b81-808e-8aeb82a0fa0c"},"vehicle_type_id":"4","last_reported":1743906295,"current_range_meters":16000,"station_id":"ce4bha12rcd13ifvqef0","pricing_plan_id":"cebpf4jnsgd1na2vs0mg"},{"bike_id":"3ee5b928-6773-4cf5-9057-1398c053b6b2","system_id":"levelo_inurba_marseille","lat":43.28452,"lon":5.35878,"is_reserved":false,"is_disabled":false,"rental_uris":{"android":"levelo://app?vid=3ee5b928-6773-4cf5-9057-1398c053b6b2","ios":"levelo://app?vid=3ee5b928-6773-4cf5-9057-1398c053b6b2"},"vehicle_type_id":"4","last_reported":1743906295,"current_range_meters":16400,"station_id":"ce4bhah2rcd13ifvqei0","pricing_plan_id":"cebpf4jnsgd1na2vs0mg"},{"bike_id":"18749cdf-f608-4a9e-930e-261c1cb6f38f","system_id":"levelo_inurba_marseille","lat":43.29279,"lon":5.4012,"is_reserved":false,"is_disabled":false,"rental_uris":{"android":"levelo://app?vid=18749cdf-f608-4a9e-930e-261c1cb6f38f","ios":"levelo://app?vid=18749cdf-f608-4a9e-930e-261c1cb6f38f"},"vehicle_type_id":"4","last_reported":1743906295,"current_range_meters":16400,"station_id":"ce4bh312rcd13ifvqdk0","pricing_plan_id":"cebpf4jnsgd1na2vs0mg"},{"bike_id":"c89b7457-08f2-4f20-a231-5d1d545645d6","system_id":"levelo_inurba_marseille","lat":43.301267,"lon":5.39853,"is_reserved":false,"is_disabled":false,"rental_uris":{"android":"levelo://app?vid=c89b7457-08f2-4f20-a231-5d1d545645d6","ios":"levelo://app?vid=c89b7457-08f2-4f20-a231-5d1d545645d6"},"vehicle_type_id":"4","last_reported":1743906295,"current_range_meters":16400,"station_id":"ce4bh0h2rcd13ifvqd40","pricing_plan_id":"cebpf4jnsgd1na2vs0mg"},{"bike_id":"a19c4734-6ad4-4c3c-9f6b-8d0a9b35b3f2","system_id":"levelo_inurba_marseille","lat":43.25088,"lon":5.39514,"is_reserved":false,"is_disabled":false,"rental_uris":{"android":"levelo://app?vid=a19c4734-6ad4-4c3c-9f6b-8d0a9b35b3f2","ios":"levelo://app?vid=a19c4734-6ad4-4c3c-9f6b-8d0a9b35b3f2"},"vehicle_type_id":"4","last_reported":1743906295,"current_range_meters":16400,"station_id":"ce4bhm12rcd13ifvqgkg","pricing_plan_id":"cebpf4jnsgd1na2vs0mg"},{"bike_id":"7124513d-6ad9-47b2-b934-dbe93b3cba04","system_id":"levelo_inurba_marseille","lat":43.30643,"lon":5.40062,"is_reserved":false,"is_disabled":false,"rental_uris":{"android":"levelo://app?vid=7124513d-6ad9-47b2-b934-dbe93b3cba04","ios":"levelo://app?vid=7124513d-6ad9-47b2-b934-dbe93b3cba04"},"vehicle_type_id":"4","last_reported":1743906295,"current_range_meters":16400,"station_id":"ce4bh112rcd13ifvqda0","pricing_plan_id":"cebpf4jnsgd1na2vs0mg"},{"bike_id":"ece386c2-0345-47e9-84ab-7b1754fbfe3d","system_id":"levelo_inurba_marseille","lat":43.30684,"lon":5.40045,"is_reserved":false,"is_disabled":false,"rental_uris":{"android":"levelo://app?vid=ece386c2-0345-47e9-84ab-7b1754fbfe3d","ios":"levelo://app?vid=ece386c2-0345-47e9-84ab-7b1754fbfe3d"},"vehicle_type_id":"4","last_reported":1743906295,"current_range_meters":16400,"station_id":"ce4bh112rcd13ifvqda0","pricing_plan_id":"cebpf4jnsgd1na2vs0mg"},{"bike_id":"fda449e2-5ae5-47f8-bc2d-ff12dd44c5cf","system_id":"levelo_inurba_marseille","lat":43.30776,"lon":5.37642,"is_reserved":false,"is_disabled":false,"rental_uris":{"android":"levelo://app?vid=fda449e2-5ae5-47f8-bc2d-ff12dd44c5cf","ios":"levelo://app?vid=fda449e2-5ae5-47f8-bc2d-ff12dd44c5cf"},"vehicle_type_id":"4","last_reported":1743906295,"current_range_meters":16800,"station_id":"ce4bgv92rcd13ifvqcq0","pricing_plan_id":"cebpf4jnsgd1na2vs0mg"},{"bike_id":"c080dbc5-9a0b-4be2-88b8-b17e9d606a89","system_id":"levelo_inurba_marseille","lat":43.308,"lon":5.38159,"is_reserved":false,"is_disabled":false,"rental_uris":{"android":"levelo://app?vid=c080dbc5-9a0b-4be2-88b8-b17e9d606a89","ios":"levelo://app?vid=c080dbc5-9a0b-4be2-88b8-b17e9d606a89"},"vehicle_type_id":"4","last_reported":1743906295,"current_range_meters":16800,"station_id":"ce4bgt12rcd13ifvqce0","pricing_plan_id":"cebpf4jnsgd1na2vs0mg"},{"bike_id":"c203778a-75a7-40b5-be08-c11ddfa8b60e","system_id":"levelo_inurba_marseille","lat":43.27995,"lon":5.40011,"is_reserved":false,"is_disabled":false,"rental_uris":{"android":"levelo://app?vid=c203778a-75a7-40b5-be08-c11ddfa8b60e","ios":"levelo://app?vid=c203778a-75a7-40b5-be08-c11ddfa8b60e"},"vehicle_type_id":"4","last_reported":1743906295,"current_range_meters":16800,"station_id":"ce4bho92rcd13ifvqh4g","pricing_plan_id":"cebpf4jnsgd1na2vs0mg"},{"bike_id":"6894baeb-b14a-4bcc-b39e-719f8d966e7f","system_id":"levelo_inurba_marseille","lat":43.31126,"lon":5.37767,"is_reserved":false,"is_disabled":false,"rental_uris":{"android":"levelo://app?vid=6894baeb-b14a-4bcc-b39e-719f8d966e7f","ios":"levelo://app?vid=6894baeb-b14a-4bcc-b39e-719f8d966e7f"},"vehicle_type_id":"4","last_reported":1743906295,"current_range_meters":16800,"station_id":"ce4bgt92rcd13ifvqcg0","pricing_plan_id":"cebpf4jnsgd1na2vs0mg"},