{"last_updated":1719349670,"ttl":30,"version":"2.2","data":{"bikes":[{"bike_id":"41bfaa2c-329f-475a-ba8c-116498b9b427","system_id":"levelo_inurba_marseille","lat":43.31344,"lon":5.36706,"is_reserved":false,"is_disabled":false,"rental_uris":{"android":"levelo://app?vid=41bfaa2c-329f-475a-ba8c-116498b9b427","ios":"levelo://app?vid=41bfaa2c-329f-475a-ba8c-116498b9b427"},"vehicle_type_id":"4","last_reported":1719349670,"current_range_meters":27600,"station_id":"","pricing_plan_id":"cebpf4jnsgd1na2vs0mg"},{"bike_id":"59048cd0-fe37-4c21-b741-6436d33b02df","system_id":"levelo_inurba_marseille","lat":43.312239,"lon":5.368562,"is_reserved":false,"is_disabled":false,"rental_uris":{"android":"levelo://app?vid=59048cd0-fe37-4c21-b741-6436d33b02df","ios":"levelo://app?vid=59048cd0-fe37-4c21-b741-6436d33b02df"},"vehicle_type_id":"4","last_reported":1719349670,"current_range_meters":5200,"station_id":"ce4bgl92rcd13ifvqbq0","pricing_plan_id":"cebpf4jnsgd1na2vs0mg"},{"bike_id":"a2c85d3d-98a7-4ab9-9855-2332dc0411ed","system_id":"levelo_inurba_marseille","lat":43.312239,"lon":5.368562,"is_reserved":false,"is_disabled":false,"rental_uris":{"android":"levelo://app?vid=a2c85d3d-98a7-4ab9-9855-2332dc0411ed","ios":"levelo://app?vid=a2c85d3d-98a7-4ab9-9855-2332dc0411ed"},"vehicle_type_id":"4","last_reported":1719349670,"current_range_meters":7200,"station_id":"ce4bgl92rcd13ifvqbq0","pricing_plan_id":"cebpf4jnsgd1na2vs0mg"},{"bike_id":"45f60f7e-35b1-42ad-a93c-32733ac58da9","system_id":"levelo_inurba_marseille","lat":43.312239,"lon":5.368562,"is_reserved":false,"is_disabled":false,"rental_uris":{"android":"levelo://app?vid=45f60f7e-35b1-42ad-a93c-32733ac58da9","ios":"levelo://app?vid=45f60f7e-35b1-42ad-a93c-32733ac58da9"},"vehicle_type_id":"4","last_reported":1719349670,"current_range_meters":11200,"station_id":"ce4bgl92rcd13ifvqbq0","pricing_plan_id":"cebpf4jnsgd1na2vs0mg"},{"bike_id":"bcc3e4e7-49ad-4827-ad72-a8aac5cd29e6","system_id":"levelo_inurba_marseille","lat":43.31509,"lon":5.37089,"is_reserved":false,"is_disabled":false,"rental_uris":{"android":"levelo://app?vid=bcc3e4e7-49ad-4827-ad72-a8aac5cd29e6","ios":"levelo://app?vid=bcc3e4e7-49ad-4827-ad72-a8aac5cd29e6"},"vehicle_type_id":"4","last_reported":1719349670,"current_range_meters":18400,"station_id":"","pricing_plan_id":"cebpf4jnsgd1na2vs0mg"},{"bike_id":"8f9e5e9d-ad81-41da-88a8-df7996a4dbc4","system_id":"levelo_inurba_marseille","lat":43.314811,"lon":5.373104,"is_reserved":false,"is_disabled":false,"rental_uris":{"android":"levelo://app?vid=8f9e5e9d-ad81-41da-88a8-df7996a4dbc4","ios":"levelo://app?vid=8f9e5e9d-ad81-41da-88a8-df7996a4dbc4"},"vehicle_type_id":"4","last_reported":1719349670,"current_range_meters":5600,"station_id":"ce4bgt12rcd13ifvqcd0","pricing_plan_id":"cebpf4jnsgd1na2vs0mg"},{"bike_id":"f853bb5c-7105-44dd-af53-5ecbc2504190","system_id":"levelo_inurba_marseille","lat":43.309039,"lon":5.371797,"is_reserved":false,"is_disabled":false,"rental_uris":{"android":"levelo://app?vid=f853bb5c-7105-44dd-af53-5ecbc2504190","ios":"levelo://app?vid=f853bb5c-7105-44dd-af53-5ecbc2504190"},"vehicle_type_id":"4","last_reported":1719349670,"current_range_meters":27200,"station_id":"ce4bguh2rcd13ifvqckg","pricing_plan_id":"cebpf4jnsgd1na2vs0mg"},{"bike_id":"aa2d9578-7484-4192-a0cc-a0ddd9e7ebd9","system_id":"levelo_inurba_marseille","lat":43.309039,"lon":5.371797,"is_reserved":false,"is_disabled":false,"rental_uris":{"android":"levelo://app?vid=aa2d9578-7484-4192-a0cc-a0ddd9e7ebd9","ios":"levelo://app?vid=aa2d9578-7484-4192-a0cc-a0ddd9e7ebd9"},"vehicle_type_id":"4","last_reported":1719349670,"current_range_meters":29600,"station_id":"ce4bguh2rcd13ifvqckg","pricing_plan_id":"cebpf4jnsgd1na2vs0mg"},{"bike_id":"d36b2489-a891-41ce-9032-7600d97d683d","system_id":"levelo_inurba_marseille","lat":43.309034,"lon":5.371783,"is_reserved":false,"is_disabled":false,"rental_uris":{"android":"levelo://app?vid=d36b2489-a891-41ce-9032-7600d97d683d","ios":"levelo://app?vid=d36b2489-a891-41ce-9032-7600d97d683d"},"vehicle_type_id":"4","last_reported":1719349670,"current_range_meters":31200,"station_id":"ce4bguh2rcd13ifvqckg","pricing_plan_id":"cebpf4jnsgd1na2vs0mg"},{"bike_id":"6455a47e-097c-4676-8639-93fa3be59378","system_id":"levelo_inurba_marseille","lat":43.309039,"lon":5.371797,"is_reserved":false,"is_disabled":false,"rental_uris":{"android":"levelo://app?vid=6455a47e-097c-4676-8639-93fa3be59378","ios":"levelo://app?vid=6455a47e-097c-4676-8639-93fa3be59378"},"vehicle_type_id":"4","last_reported":1719349670,"current_range_meters":30800,"station_id":"ce4bguh2rcd13ifvqckg","pricing_plan_id":"cebpf4jnsgd1na2vs0mg"},{"bike_id":"4f68b602-75da-4034-9271-43bfa64fb954","system_id":"levelo_inurba_marseille","lat":43.309034,"lon":5.371783,"is_reserved":false,"is_disabled":false,"rental_uris":{"android":"levelo://app?vid=4f68b602-75da-4034-9271-43bfa64fb954","ios":"levelo://app?vid=4f68b602-75da-4034-9271-43bfa64fb954"},"vehicle_type_id":"4","last_reported":1719349670,"current_range_meters":17600,"station_id":"ce4bguh2rcd13ifvqckg","pricing_plan_id":"cebpf4jnsgd1na2vs0mg"},{"bike_id":"ead18698-b369-4961-a1eb-ff90c633ea77","system_id":"levelo_inurba_marseille","lat":43.308026,"lon":5.373088,"is_reserved":false,"is_disabled":false,"rental_uris":{"android":"levelo://app?vid=ead18698-b369-4961-a1eb-ff90c633ea77","ios":"levelo://app?vid=ead18698-b369-4961-a1eb-ff90c633ea77"},"vehicle_type_id":"4","last_reported":1719349670,"current_range_meters":5600,"station_id":"","pricing_plan_id":"cebpf4jnsgd1na2vs0mg"},{"bike_id":"05fff46e-dddf-4705-922c-9fb2c7b0e32d","system_id":"levelo_inurba_marseille","lat":43.305989,"lon":5.37225,"is_reserved":false,"is_disabled":false,"rental_uris":{"android":"levelo://app?vid=05fff46e-dddf-4705-922c-9fb2c7b0e32d","ios":"levelo://app?vid=05fff46e-dddf-4705-922c-9fb2c7b0e32d"},"vehicle_type_id":"4","last_reported":1719349670,"current_range_meters":30800,"station_id":"ce4bgqh2rcd13ifvqc4g","pricing_plan_id":"cebpf4jnsgd1na2vs0mg"},{"bike_id":"6417ee1c-9d68-4a38-abd2-5477cdcd4e09","system_id":"levelo_inurba_marseille","lat":43.305989,"lon":5.37225,"is_reserved":false,"is_disabled":false,"rental_uris":{"android":"levelo://app?vid=6417ee1c-9d68-4a38-abd2-5477cdcd4e09","ios":"levelo://app?vid=6417ee1c-9d68-4a38-abd2-5477cdcd4e09"},"vehicle_type_id":"4","last_reported":1719349670,"current_range_meters":17200,"station_id":"ce4bgqh2rcd13ifvqc4g","pricing_plan_id":"cebpf4jnsgd1na2vs0mg"},{"bike_id":"67e867d6-f699-4c7c-9636-cb0b4052a85b","system_id":"levelo_inurba_marseille","lat":43.311125,"lon":5.377624,"is_reserved":false,"is_disabled":false,"rental_uris":{"android":"levelo://app?vid=67e867d6-f699-4c7c-9636-cb0b4052a85b","ios":"levelo://app?vid=67e867d6-f699-4c7c-9636-cb0b4052a85b"},"vehicle_type_id":"4","last_reported":1719349670,"current_range_meters":2000,"station_id":"ce4bgt92rcd13ifvqcg0","pricing_plan_id":"cebpf4jnsgd1na2vs0mg"},{"bike_id":"36c140fe-d18f-4ff5-be8f-386de33eddf0","system_id":"levelo_inurba_marseille","lat":43.311178,"lon":5.377647,"is_reserved":false,"is_disabled":false,"rental_uris":{"android":"levelo://app?vid=36c140fe-d18f-4ff5-be8f-386de33eddf0","ios":"levelo://app?vid=36c140fe-d18f-4ff5-be8f-386de33eddf0"},"vehicle_type_id":"4","last_reported":1719349670,"current_range_meters":28000,"station_id":"ce4bgt92rcd13ifvqcg0","pricing_plan_id":"cebpf4jnsgd1na2vs0mg"},{"bike_id":"7af25567-72ec-453c-af81-4becf615c635","system_id":"levelo_inurba_marseille","lat":43.311183,"lon":5.377657,"is_reserved":false,"is_disabled":false,"rental_uris":{"android":"levelo://app?vid=7af25567-72ec-453c-af81-4becf615c635","ios":"levelo://app?vid=7af25567-72ec-453c-af81-4becf615c635"},"vehicle_type_id":"4","last_reported":1719349670,"current_range_meters":12400,"station_id":"ce4bgt92rcd13ifvqcg0","pricing_plan_id":"cebpf4jnsgd1na2vs0mg"},{"bike_id":"6eb20e78-f70b-4c35-96b7-ce45275fa3d0","system_id":"levelo_inurba_marseille","lat":43.311125,"lon":5.377624,"is_reserved":false,"is_disabled":false,"rental_uris":{"android":"levelo://app?vid=6eb20e78-f70b-4c35-96b7-ce45275fa3d0","ios":"levelo://app?vid=6eb20e78-f70b-4c35-96b7-ce45275fa3d0"},"vehicle_type_id":"4","last_reported":1719349670,"current_range_meters":10000,"station_id":"ce4bgt92rcd13ifvqcg0","pricing_plan_id":"cebpf4jnsgd1na2vs0mg"},{"bike_id":"7f5b54e1-3bb5-41a6-b510-3721826330be","system_id":"levelo_inurba_marseille","lat":43.304493,"lon":5.368917,"is_reserved":false,"is_disabled":false,"rental_uris":{"android":"levelo://app?vid=7f5b54e1-3bb5-41a6-b510-3721826330be","ios":"levelo://app?vid=7f5b54e1-3bb5-41a6-b510-3721826330be"},"vehicle_type_id":"4","last_reported":1719349670,"current_range_meters":27200,"station_id":"","pricing_plan_id":"cebpf4jnsgd1na2vs0mg"},{"bike_id":"57192d1b-3d6d-437e-9d85-dc4e7d45c595","system_id":"levelo_inurba_marseille","lat":43.307945,"lon":5.376487,"is_reserved":false,"is_disabled":false,"rental_uris":{"android":"levelo://app?vid=57192d1b-3d6d-437e-9d85-dc4e7d45c595","ios":"levelo://app?vid=57192d1b-3d6d-437e-9d85-dc4e7d45c595"},"vehicle_type_id":"4","last_reported":1719349670,"current_range_meters":23200,"station_id":"ce4bgv92rcd13ifvqcq0","pricing_plan_id":"cebpf4jnsgd1na2vs0mg"},{"bike_id":"c492b39d-fc11-422c-bf3e-9dbc37aa36d1","system_id":"levelo_inurba_marseille","lat":43.303046,"lon":5.368981,"is_reserved":false,"is_disabled":false,"rental_uris":{"android":"levelo://app?vid=c492b39d-fc11-422c-bf3e-9dbc37aa36d1","ios":"levelo://app?vid=c492b39d-fc11-422c-bf3e-9dbc37aa36d1"},"vehicle_type_id":"4","last_reported":1719349670,"current_range_meters":1600,"station_id":"ce4bgqh2rcd13ifvqc5g","pricing_plan_id":"cebpf4jnsgd1na2vs0mg"},{"bike_id":"bc94d466-5b4c-45f2-9ea0-d720e53bca80","system_id":"levelo_inurba_marseille","lat":43.315289,"lon":5.380349,"is_reserved":false,"is_disabled":false,"rental_uris":{"android":"levelo://app?vid=bc94d466-5b4c-45f2-9ea0-d720e53bca80","ios":"levelo://app?vid=bc94d466-5b4c-45f2-9ea0-d720e53bca80"},"vehicle_type_id":"4","last_reported":1719349670,"current_range_meters":12000,"station_id":"ce4bhsp2rcd13ifvqi50","pricing_plan_id":"cebpf4jnsgd1na2vs0mg"},{"bike_id":"d27b8864-8ef3-4f82-b21a-d747e296925e","system_id":"levelo_inurba_marseille","lat":43.315289,"lon":5.380349,"is_reserved":false,"is_disabled":false,"rental_uris":{"android":"levelo://app?vid=d27b8864-8ef3-4f82-b21a-d747e296925e","ios":"levelo://app?vid=d27b8864-8ef3-4f82-b21a-d747e296925e"},"vehicle_type_id":"4","last_reported":1719349670,"current_range_meters":22800,"station_id":"ce4bhsp2rcd13ifvqi50","pricing_plan_id":"cebpf4jnsgd1na2vs0mg"},{"bike_id":"ce3cd3b1-bec0-4adc-8d0d-cb3727c7cb2e","system_id":"levelo_inurba_marseille","lat":43.315289,"lon":5.380349,"is_reserved":false,"is_disabled":false,"rental_uris":{"android":"levelo://app?vid=ce3cd3b1-bec0-4adc-8d0d-cb3727c7cb2e","ios":"levelo://app?vid=ce3cd3b1-bec0-4adc-8d0d-cb3727c7cb2e"},"vehicle_type_id":"4","last_reported":1719349670,"current_range_meters":29200,"station_id":"ce4bhsp2rcd13ifvqi50","pricing_plan_id":"cebpf4jnsgd1na2vs0mg"},{"bike_id":"79a1ce24-fd33-437d-9e7c-88b5d4d8ab1e","system_id":"levelo_inurba_marseille","lat":43.301939,"lon":5.366286,"is_reserved":false,"is_disabled":false,"rental_uris":{"android":"levelo://app?vid=79a1ce24-fd33-437d-9e7c-88b5d4d8ab1e","ios":"levelo://app?vid=79a1ce24-fd33-437d-9e7c-88b5d4d8ab1e"},"vehicle_type_id":"4","last_reported":1719349670,"current_range_meters":27600,"station_id":"ce4bgrh2rcd13ifvqc8g","pricing_plan_id":"cebpf4jnsgd1na2vs0mg"},{"bike_id":"829f7855-e64e-4d90-83fe-05e292252764","system_id":"levelo_inurba_marseille","lat":43.301885,"lon":5.366223,"is_reserved":false,"is_disabled":false,"rental_uris":{"android":"levelo://app?vid=829f7855-e64e-4d90-83fe-05e292252764","ios":"levelo://app?vid=829f7855-e64e-4d90-83fe-05e292252764"},"vehicle_type_id":"4","last_reported":1719349670,"current_range_meters":22800,"station_id":"","pricing_plan_id":"cebpf4jnsgd1na2vs0mg"},{"bike_id":"23eb8da3-cf58-4d3b-8ab5-e53b41886aa3","system_id":"levelo_inurba_marseille","lat":43.301939,"lon":5.366286,"is_reserved":false,"is_disabled":false,"rental_uris":{"android":"levelo://app?vid=23eb8da3-cf58-4d3b-8ab5-e53b41886aa3","ios":"levelo://app?vid=23eb8da3-cf58-4d3b-8ab5-e53b41886aa3"},"vehicle_type_id":"4","last_reported":1719349670,"current_range_meters":14400,"station_id":"ce4bgrh2rcd13ifvqc8g","pricing_plan_id":"cebpf4jnsgd1na2vs0mg"},{"bike_id":"c5db7861-0b3d-471e-8f22-aaf857f06c34","system_id":"levelo_inurba_marseille","lat":43.308012,"lon":5.381511,"is_reserved":false,"is_disabled":false,"rental_uris":{"android":"levelo://app?vid=c5db7861-0b3d-471e-8f22-aaf857f06c34","ios":"levelo://app?vid=c5db7861-0b3d-471e-8f22-aaf857f06c34"},"vehicle_type_id":"4","last_reported":1719349670,"current_range_meters":0,"station_id":"ce4bgt12rcd13ifvqce0","pricing_plan_id":"cebpf4jnsgd1na2vs0mg"},{"bike_id":"b1dee092-c5b2-456f-8de4-f5db12013750","system_id":"levelo_inurba_marseille","lat":43.304606,"lon":5.379026,"is_reserved":false,"is_disabled":false,"rental_uris":{"android":"levelo://app?vid=b1dee092-c5b2-456f-8de4-f5db12013750","ios":"levelo://app?vid=b1dee092-c5b2-456f-8de4-f5db12013750"},"vehicle_type_id":"4","last_reported":1719349670,"current_range_meters":26400,"station_id":"ce4bgup2rcd13ifvqcn0","pricing_plan_id":"cebpf4jnsgd1na2vs0mg"},{"bike_id":"864bb52d-89d1-41e0-9aeb-116204898887","system_id":"levelo_inurba_marseille","lat":43.324771,"lon":5.36557,"is_reserved":false,"is_disabled":false,"rental_uris":{"android":"levelo://app?vid=864bb52d-89d1-41e0-9aeb-116204898887","ios":"levelo://app?vid=864bb52d-89d1-41e0-9aeb-116204898887"},"vehicle_type_id":"4","last_reported":1719349670,"current_range_meters":30400,"station_id":"ce4bhs12rcd13ifvqhvg","pricing_plan_id":"cebpf4jnsgd1na2vs0mg"},{"bike_id":"623b164a-038d-4797-874b-f22b340fecde","system_id":"levelo_inurba_marseille","lat":43.324771,"lon":5.36557,"is_reserved":false,"is_disabled":false,"rental_uris":{"android":"levelo://app?vid=623b164a-038d-4797-874b-f22b340fecde","ios":"levelo://app?vid=623b164a-038d-4797-874b-f22b340fecde"},"vehicle_type_id":"4","last_reported":1719349670,"current_range_meters":4400,"station_id":"ce4bhs12rcd13ifvqhvg","pricing_plan_id":"cebpf4jnsgd1na2vs0mg"},{"bike_id":"b5775679-4ca6-4cce-8295-031cf4e3a3d5","system_id":"levelo_inurba_marseille","lat":43.324771,"lon":5.36557,"is_reserved":false,"is_disabled":false,"rental_uris":{"android":"levelo://app?vid=b5775679-4ca6-4cce-8295-031cf4e3a3d5","ios":"levelo://app?vid=b5775679-4ca6-4cce-8295-031cf4e3a3d5"},"vehicle_type_id":"4","last_reported":1719349670,"current_range_meters":22800,"station_id":"ce4bhs12rcd13ifvqhvg","pricing_plan_id":"cebpf4jnsgd1na2vs0mg"},{"bike_id":"cb133328-4c21-452e-aaf0-ae24f5cfdc8e","system_id":"levelo_inurba_marseille","lat":43.324771,"lon":5.36557,"is_reserved":false,"is_disabled":false,"rental_uris":{"android":"levelo://app?vid=cb133328-4c21-452e-aaf0-ae24f5cfdc8e","ios":"levelo://app?vid=cb133328-4c21-452e-aaf0-ae24f5cfdc8e"},"vehicle_type_id":"4","last_reported":1719349670,"current_range_meters":23600,"station_id":"ce4bhs12rcd13ifvqhvg","pricing_plan_id":"cebpf4jnsgd1na2vs0mg"},{"bike_id":"c8170bb6-a2e2-4e02-b09e-8929f05ef0b6","system_id":"levelo_inurba_marseille","lat":43.324771,"lon":5.36557,"is_reserved":false,"is_disabled":false,"rental_uris":{"android":"levelo://app?vid=c8170bb6-a2e2-4e02-b09e-8929f05ef0b6","ios":"levelo://app?vid=c8170bb6-a2e2-4e02-b09e-8929f05ef0b6"},"vehicle_type_id":"4","last_reported":1719349670,"current_range_meters":5600,"station_id":"ce4bhs12rcd13ifvqhvg","pricing_plan_id":"cebpf4jnsgd1na2vs0mg"},{"bike_id":"83a54e10-4605-450d-ab4c-6865e7de2824","system_id":"levelo_inurba_marseille","lat":43.310804,"lon":5.38359,"is_reserved":false,"is_disabled":false,"rental_uris":{"android":"levelo://app?vid=83a54e10-4605-450d-ab4c-6865e7de2824","ios":"levelo://app?vid=83a54e10-4605-450d-ab4c-6865e7de2824"},"vehicle_type_id":"4","last_reported":1719349670,"current_range_meters":27200,"station_id":"ce4bgv92rcd13ifvqcr0","pricing_plan_id":"cebpf4jnsgd1na2vs0mg"},{"bike_id":"6d67e90c-705e-4762-9200-680a9336fd32","system_id":"levelo_inurba_marseille","lat":43.310804,"lon":5.38359,"is_reserved":false,"is_disabled":false,"rental_uris":{"android":"levelo://app?vid=6d67e90c-705e-4762-9200-680a9336fd32","ios":"levelo://app?vid=6d67e90c-705e-4762-9200-680a9336fd32"},"vehicle_type_id":"4","last_reported":1719349670,"current_range_meters":20000,"station_id":"ce4bgv92rcd13ifvqcr0","pricing_plan_id":"cebpf4jnsgd1na2vs0mg"},{"bike_id":"a81dbfbe-c5be-4126-88e4-3ed3684f4506","system_id":"levelo_inurba_marseille","lat":43.302784,"lon":5.377158,"is_reserved":false,"is_disabled":false,"rental_uris":{"android":"levelo://app?vid=a81dbfbe-c5be-4126-88e4-3ed3684f4506","ios":"levelo://app?vid=a81dbfbe-c5be-4126-88e4-3ed3684f4506"},"vehicle_type_id":"4","last_reported":1719349670,"current_range_meters":27200,"station_id":"ce4bguh2rcd13ifvqcj0","pricing_plan_id":"cebpf4jnsgd1na2vs0mg"},{"bike_id":"bebc17bf-ab67-4e6f-a0e1-21a1c2ba5cea","system_id":"levelo_inurba_marseille","lat":43.319935,"lon":5.381699,"is_reserved":false,"is_disabled":false,"rental_uris":{"android":"levelo://app?vid=bebc17bf-ab67-4e6f-a0e1-21a1c2ba5cea","ios":"levelo://app?vid=bebc17bf-ab67-4e6f-a0e1-21a1c2ba5cea"},"vehicle_type_id":"4","last_reported":1719349670,"current_range_meters":0,"station_id":"ce4bhr12rcd13ifvqhpg","pricing_plan_id":"cebpf4jnsgd1na2vs0mg"},{"bike_id":"c7bdf379-00aa-4336-959c-5642af13e581","system_id":"levelo_inurba_marseille","lat":43.313571,"lon":5.384829,"is_reserved":false,"is_disabled":false,"rental_uris":{"android":"levelo://app?vid=c7bdf379-00aa-4336-959c-5642af13e581","ios":"levelo://app?vid=c7bdf379-00aa-4336-959c-5642af13e581"},"vehicle_type_id":"4","last_reported":1719349670,"current_range_meters":13600,"station_id":"ce4bgt92rcd13ifvqcf0","pricing_plan_id":"cebpf4jnsgd1na2vs0mg"},{"bike_id":"4e1058df-b64a-469f-90c6-72235ffa546c","system_id":"levelo_inurba_marseille","lat":43.31364,"lon":5.3849,"is_reserved":false,"is_disabled":false,"rental_uris":{"android":"levelo://app?vid=4e1058df-b64a-469f-90c6-72235ffa546c","ios":"levelo://app?vid=4e1058df-b64a-469f-90c6-72235ffa546c"},"vehicle_type_id":"4","last_reported":1719349670,"current_range_meters":16400,"station_id":"ce4bgt92rcd13ifvqcf0","pricing_plan_id":"cebpf4jnsgd1na2vs0mg"},{"bike_id":"8a377d8c-8a00-4a19-85de-d15178ac94b5","system_id":"levelo_inurba_marseille","lat":43.31358,"lon":5.38494,"is_reserved":false,"is_disabled":false,"rental_uris":{"android":"levelo://app?vid=8a377d8c-8a00-4a19-85de-d15178ac94b5","ios":"levelo://app?vid=8a377d8c-8a00-4a19-85de-d15178ac94b5"},"vehicle_type_id":"4","last_reported":1719349670,"current_range_meters":1600,"station_id":"ce4bgt92rcd13ifvqcf0","pricing_plan_id":"cebpf4jnsgd1na2vs0mg"},{"bike_id":"e306c1bb-64f8-49c6-9d29-0937b5692969","system_id":"levelo_inurba_marseille","lat":43.29938,"lon":5.3656,"is_reserved":false,"is_disabled":false,"rental_uris":{"android":"levelo://app?vid=e306c1bb-64f8-49c6-9d29-0937b5692969","ios":"levelo://app?vid=e306c1bb-64f8-49c6-9d29-0937b5692969"},"vehicle_type_id":"4","last_reported":1719349670,"current_range_meters":22400,"station_id":"ce4bgm92rcd13ifvqbr0","pricing_plan_id":"cebpf4jnsgd1na2vs0mg"},{"bike_id":"266d1d06-a273-4ed2-8c96-ed4644379e4b","system_id":"levelo_inurba_marseille","lat":43.30048,"lon":5.377212,"is_reserved":false,"is_disabled":false,"rental_uris":{"android":"levelo://app?vid=266d1d06-a273-4ed2-8c96-ed4644379e4b","ios":"levelo://app?vid=266d1d06-a273-4ed2-8c96-ed4644379e4b"},"vehicle_type_id":"4","last_reported":1719349670,"current_range_meters":6800,"station_id":"","pricing_plan_id":"cebpf4jnsgd1na2vs0mg"},{"bike_id":"0ac34d10-96e1-4ac0-9782-10b118adb7b7","system_id":"levelo_inurba_marseille","lat":43.29837,"lon":5.36742,"is_reserved":false,"is_disabled":false,"rental_uris":{"android":"levelo://app?vid=0ac34d10-96e1-4ac0-9782-10b118adb7b7","ios":"levelo://app?vid=0ac34d10-96e1-4ac0-9782-10b118adb7b7"},"vehicle_type_id":"4","last_reported":1719349670,"current_range_meters":6000,"station_id":"","pricing_plan_id":"cebpf4jnsgd1na2vs0mg"},{"bike_id":"5d251275-2677-41cf-aec0-f2b8e42cda21","system_id":"levelo_inurba_marseille","lat":43.305364,"lon":5.384119,"is_reserved":false,"is_disabled":false,"rental_uris":{"android":"levelo://app?vid=5d251275-2677-41cf-aec0-f2b8e42cda21","ios":"levelo://app?vid=5d251275-2677-41cf-aec0-f2b8e42cda21"},"vehicle_type_id":"4","last_reported":1719349670,"current_range_meters":22800,"station_id":"ce4bgg92rcd13ifvqb30","pricing_plan_id":"cebpf4jnsgd1na2vs0mg"},{"bike_id":"19d2c7fc-49c1-4346-a09e-630e75f693cf","system_id":"levelo_inurba_marseille","lat":43.305377,"lon":5.38417,"is_reserved":false,"is_disabled":false,"rental_uris":{"android":"levelo://app?vid=19d2c7fc-49c1-4346-a09e-630e75f693cf","ios":"levelo://app?vid=19d2c7fc-49c1-4346-a09e-630e75f693cf"},"vehicle_type_id":"4","last_reported":1719349670,"current_range_meters":15200,"station_id":"ce4bgg92rcd13ifvqb30","pricing_plan_id":"cebpf4jnsgd1na2vs0mg"},{"bike_id":"44dcb368-00a3-4d7a-b010-d3e903bd4392","system_id":"levelo_inurba_marseille","lat":43.305364,"lon":5.384119,"is_reserved":false,"is_disabled":false,"rental_uris":{"android":"levelo://app?vid=44dcb368-00a3-4d7a-b010-d3e903bd4392","ios":"levelo://app?vid=44dcb368-00a3-4d7a-b010-d3e903bd4392"},"vehicle_type_id":"4","last_reported":1719349670,"current_range_meters":2800,"station_id":"ce4bgg92rcd13ifvqb30","pricing_plan_id":"cebpf4jnsgd1na2vs0mg"},{"bike_id":"b30c222d-f52e-42cb-ac95-851f65656057","system_id":"levelo_inurba_marseille","lat":43.311722,"lon":5.387247,"is_reserved":false,"is_disabled":false,"rental_uris":{"android":"levelo://app?vid=b30c222d-f52e-42cb-ac95-851f65656057","ios":"levelo://app?vid=b30c222d-f52e-42cb-ac95-851f65656057"},"vehicle_type_id":"4","last_reported":1719349670,"current_range_meters":2800,"station_id":"ce4bgv12rcd13ifvqcp0","pricing_plan_id":"cebpf4jnsgd1na2vs0mg"},{"bike_id":"e7521d48-fa62-4296-9d38-2c54356d1ce1","system_id":"levelo_inurba_marseille","lat":43.311722,"lon":5.387247,"is_reserved":false,"is_disabled":false,"rental_uris":{"android":"levelo://app?vid=e7521d48-fa62-4296-9d38-2c54356d1ce1","ios":"levelo://app?vid=e7521d48-fa62-4296-9d38-2c54356d1ce1"},"vehicle_type_id":"4","last_reported":1719349670,"current_range_meters":28400,"station_id":"ce4bgv12rcd13ifvqcp0","pricing_plan_id":"cebpf4jnsgd1na2vs0mg"},{"bike_id":"1d61f0b2-eaab-44b3-8b06-4b88aab63361","system_id":"levelo_inurba_marseille","lat":43.311722,"lon":5.387247,"is_reserved":false,"is_disabled":false,"rental_uris":{"android":"levelo://app?vid=1d61f0b2-eaab-44b3-8b06-4b88aab63361","ios":"levelo://app?vid=1d61f0b2-eaab-44b3-8b06-4b88aab63361"},"vehicle_type_id":"4","last_reported":1719349670,"current_range_meters":5600,"station_id":"ce4bgv12rcd13ifvqcp0","pricing_plan_id":"cebpf4jnsgd1na2vs0mg"},{"bike_id":"c832b964-5d0b-46f5-8e11-735d97946ebc","system_id":"levelo_inurba_marseille","lat":43.311847,"lon":5.387167,"is_reserved":false,"is_disabled":false,"rental_uris":{"android":"levelo://app?vid=c832b964-5d0b-46f5-8e11-735d97946ebc","ios":"levelo://app?vid=c832b964-5d0b-46f5-8e11-735d97946ebc"},"vehicle_type_id":"4","last_reported":1719349670,"current_range_meters":800,"station_id":"ce4bgv12rcd13ifvqcp0","pricing_plan_id":"cebpf4jnsgd1na2vs0mg"},{"bike_id":"f0814065-a87a-4239-9fae-c0239b7cb3d3","system_id":"levelo_inurba_marseille","lat":43.311722,"lon":5.387247,"is_reserved":false,"is_disabled":false,"rental_uris":{"android":"levelo://app?vid=f0814065-a87a-4239-9fae-c0239b7cb3d3","ios":"levelo://app?vid=f0814065-a87a-4239-9fae-c0239b7cb3d3"},"vehicle_type_id":"4","last_reported":1719349670,"current_range_meters":12800,"station_id":"ce4bgv12rcd13ifvqcp0","pricing_plan_id":"cebpf4jnsgd1na2vs0mg"},{"bike_id":"bf5cefff-329e-4c66-a29f-8bbad1d21f4d","system_id":"levelo_inurba_marseille","lat":43.311722,"lon":5.387247,"is_reserved":false,"is_disabled":false,"rental_uris":{"android":"levelo://app?vid=bf5cefff-329e-4c66-a29f-8bbad1d21f4d","ios":"levelo://app?vid=bf5cefff-329e-4c66-a29f-8bbad1d21f4d"},"vehicle_type_id":"4","last_reported":1719349670,"current_range_meters":10800,"station_id":"ce4bgv12rcd13ifvqcp0","pricing_plan_id":"cebpf4jnsgd1na2vs0mg"},{"bike_id":"397d07e2-7d0f-4af9-bfbd-0a1526caab49","system_id":"levelo_inurba_marseille","lat":43.311722,"lon":5.387247,"is_reserved":false,"is_disabled":false,"rental_uris":{"android":"levelo://app?vid=397d07e2-7d0f-4af9-bfbd-0a1526caab49","ios":"levelo://app?vid=397d07e2-7d0f-4af9-bfbd-0a1526caab49"},"vehicle_type_id":"4","last_reported":1719349670,"current_range_meters":30800,"station_id":"ce4bgv12rcd13ifvqcp0","pricing_plan_id":"cebpf4jnsgd1na2vs0mg"},{"bike_id":"c8867ec8-5fb8-4574-8645-d1dc517918de","system_id":"levelo_inurba_marseille","lat":43.311722,"lon":5.387247,"is_reserved":false,"is_disabled":false,"rental_uris":{"android":"levelo://app?vid=c8867ec8-5fb8-4574-8645-d1dc517918de","ios":"levelo://app?vid=c8867ec8-5fb8-4574-8645-d1dc517918de"},"vehicle_type_id":"4","last_reported":1719349670,"current_range_meters":6000,"station_id":"ce4bgv12rcd13ifvqcp0","pricing_plan_id":"cebpf4jnsgd1na2vs0mg"},{"bike_id":"b635d72d-83e2-42d0-8fd6-30c57ab562a7","system_id":"levelo_inurba_marseille","lat":43.311722,"lon":5.387247,"is_reserved":false,"is_disabled":false,"rental_uris":{"android":"levelo://app?vid=b635d72d-83e2-42d0-8fd6-30c57ab562a7","ios":"levelo://app?vid=b635d72d-83e2-42d0-8fd6-30c57ab562a7"},"vehicle_type_id":"4","last_reported":1719349670,"current_range_meters":20000,"station_id":"ce4bgv12rcd13ifvqcp0","pricing_plan_id":"cebpf4jnsgd1na2vs0mg"},{"bike_id":"2d7fccec-0bd8-4cc2-968e-28a7bc2285ee","system_id":"levelo_inurba_marseille","lat":43.311722,"lon":5.387247,"is_reserved":false,"is_disabled":false,"rental_uris":{"android":"levelo://app?vid=2d7fccec-0bd8-4cc2-968e-28a7bc2285ee","ios":"levelo://app?vid=2d7fccec-0bd8-4cc2-968e-28a7bc2285ee"},"vehicle_type_id":"4","last_reported":1719349670,"current_range_meters":18400,"station_id":"ce4bgv12rcd13ifvqcp0","pricing_plan_id":"cebpf4jnsgd1na2vs0mg"},{"bike_id":"ef4e475d-5be1-4696-a4dc-64caaab9ca44","system_id":"levelo_inurba_marseille","lat":43.322872,"lon":5.382756,"is_reserved":false,"is_disabled":false,"rental_uris":{"android":"levelo://app?vid=ef4e475d-5be1-4696-a4dc-64caaab9ca44","ios":"levelo://app?vid=ef4e475d-5be1-4696-a4dc-64caaab9ca44"},"vehicle_type_id":"4","last_reported":1719349670,"current_range_meters":24000,"station_id":"ce4bhr12rcd13ifvqhqg","pricing_plan_id":"cebpf4jnsgd1na2vs0mg"},{"bike_id":"7b088697-f624-4b41-aa95-73f77c59c884","system_id":"levelo_inurba_marseille","lat":43.322872,"lon":5.382756,"is_reserved":false,"is_disabled":false,"rental_uris":{"android":"levelo://app?vid=7b088697-f624-4b41-aa95-73f77c59c884","ios":"levelo://app?vid=7b088697-f624-4b41-aa95-73f77c59c884"},"vehicle_type_id":"4","last_reported":1719349670,"current_range_meters":22000,"station_id":"ce4bhr12rcd13ifvqhqg","pricing_plan_id":"cebpf4jnsgd1na2vs0mg"},{"bike_id":"e406fe5a-7dcd-4a4c-b887-f5c382e14000","system_id":"levelo_inurba_marseille","lat":43.322872,"lon":5.382756,"is_reserved":false,"is_disabled":false,"rental_uris":{"android":"levelo://app?vid=e406fe5a-7dcd-4a4c-b887-f5c382e14000","ios":"levelo://app?vid=e406fe5a-7dcd-4a4c-b887-f5c382e14000"},"vehicle_type_id":"4","last_reported":1719349670,"current_range_meters":30400,"station_id":"ce4bhr12rcd13ifvqhqg","pricing_plan_id":"cebpf4jnsgd1na2vs0mg"},{"bike_id":"79205c85-a611-4572-9521-847426b7b3e7","system_id":"levelo_inurba_marseille","lat":43.322872,"lon":5.382756,"is_reserved":false,"is_disabled":false,"rental_uris":{"android":"levelo://app?vid=79205c85-a611-4572-9521-847426b7b3e7","ios":"levelo://app?vid=79205c85-a611-4572-9521-847426b7b3e7"},"vehicle_type_id":"4","last_reported":1719349670,"current_range_meters":11200,"station_id":"ce4bhr12rcd13ifvqhqg","pricing_plan_id":"cebpf4jnsgd1na2vs0mg"},{"bike_id":"95dd2308-3e24-4908-b651-ac9df1a164a8","system_id":"levelo_inurba_marseille","lat":43.297163,"lon":5.365866,"is_reserved":false,"is_disabled":false,"rental_uris":{"android":"levelo://app?vid=95dd2308-3e24-4908-b651-ac9df1a164a8","ios":"levelo://app?vid=95dd2308-3e24-4908-b651-ac9df1a164a8"},"vehicle_type_id":"4","last_reported":1719349670,"current_range_meters":21200,"station_id":"ce4bgn12rcd13ifvqbt0","pricing_plan_id":"cebpf4jnsgd1na2vs0mg"},{"bike_id":"4137d1cd-a17f-4a69-9d09-a5fce377b9c6","system_id":"levelo_inurba_marseille","lat":43.29711,"lon":5.36799,"is_reserved":false,"is_disabled":false,"rental_uris":{"android":"levelo://app?vid=4137d1cd-a17f-4a69-9d09-a5fce377b9c6","ios":"levelo://app?vid=4137d1cd-a17f-4a69-9d09-a5fce377b9c6"},"vehicle_type_id":"4","last_reported":1719349670,"current_range_meters":22400,"station_id":"","pricing_plan_id":"cebpf4jnsgd1na2vs0mg"},{"bike_id":"a33a5221-8373-4040-8b10-3ef01b92cd50","system_id":"levelo_inurba_marseille","lat":43.297163,"lon":5.365866,"is_reserved":false,"is_disabled":false,"rental_uris":{"android":"levelo://app?vid=a33a5221-8373-4040-8b10-3ef01b92cd50","ios":"levelo://app?vid=a33a5221-8373-4040-8b10-3ef01b92cd50"},"vehicle_type_id":"4","last_reported":1719349670,"current_range_meters":8400,"station_id":"ce4bgn12rcd13ifvqbt0","pricing_plan_id":"cebpf4jnsgd1na2vs0mg"},{"bike_id":"8a3dee68-befb-495c-8c53-779d24084da1","system_id":"levelo_inurba_marseille","lat":43.297066,"lon":5.365485,"is_reserved":false,"is_disabled":false,"rental_uris":{"android":"levelo://app?vid=8a3dee68-befb-495c-8c53-779d24084da1","ios":"levelo://app?vid=8a3dee68-befb-495c-8c53-779d24084da1"},"vehicle_type_id":"4","last_reported":1719349670,"current_range_meters":26000,"station_id":"ce4bgn12rcd13ifvqbt0","pricing_plan_id":"cebpf4jnsgd1na2vs0mg"},{"bike_id":"1a034fde-a5f8-4c92-ac64-fd77d19ce181","system_id":"levelo_inurba_marseille","lat":43.30949,"lon":5.39024,"is_reserved":false,"is_disabled":false,"rental_uris":{"android":"levelo://app?vid=1a034fde-a5f8-4c92-ac64-fd77d19ce181","ios":"levelo://app?vid=1a034fde-a5f8-4c92-ac64-fd77d19ce181"},"vehicle_type_id":"4","last_reported":1719349670,"current_range_meters":0,"station_id":"ce4bgup2rcd13ifvqco0","pricing_plan_id":"cebpf4jnsgd1na2vs0mg"},{"bike_id":"85eb8e79-27bc-4b93-95d2-0c9a09c55d8c","system_id":"levelo_inurba_marseille","lat":43.299028,"lon":5.381509,"is_reserved":false,"is_disabled":false,"rental_uris":{"android":"levelo://app?vid=85eb8e79-27bc-4b93-95d2-0c9a09c55d8c","ios":"levelo://app?vid=85eb8e79-27bc-4b93-95d2-0c9a09c55d8c"},"vehicle_type_id":"4","last_reported":1719349670,"current_range_meters":31200,"station_id":"ce4bgj12rcd13ifvqbc0","pricing_plan_id":"cebpf4jnsgd1na2vs0mg"},{"bike_id":"94a727f8-e7a3-45d6-a3a5-db6219ad5036","system_id":"levelo_inurba_marseille","lat":43.30956,"lon":5.39034,"is_reserved":false,"is_disabled":false,"rental_uris":{"android":"levelo://app?vid=94a727f8-e7a3-45d6-a3a5-db6219ad5036","ios":"levelo://app?vid=94a727f8-e7a3-45d6-a3a5-db6219ad5036"},"vehicle_type_id":"4","last_reported":1719349670,"current_range_meters":0,"station_id":"ce4bgup2rcd13ifvqco0","pricing_plan_id":"cebpf4jnsgd1na2vs0mg"},{"bike_id":"245659fb-ab4a-4007-98b4-6fd5a6e7751c","system_id":"levelo_inurba_marseille","lat":43.29906,"lon":5.38165,"is_reserved":false,"is_disabled":false,"rental_uris":{"android":"levelo://app?vid=245659fb-ab4a-4007-98b4-6fd5a6e7751c","ios":"levelo://app?vid=245659fb-ab4a-4007-98b4-6fd5a6e7751c"},"vehicle_type_id":"4","last_reported":1719349670,"current_range_meters":29600,"station_id":"","pricing_plan_id":"cebpf4jnsgd1na2vs0mg"},{"bike_id":"b5510391-b001-4fb8-a167-c11385187fe6","system_id":"levelo_inurba_marseille","lat":43.317557,"lon":5.390173,"is_reserved":false,"is_disabled":false,"rental_uris":{"android":"levelo://app?vid=b5510391-b001-4fb8-a167-c11385187fe6","ios":"levelo://app?vid=b5510391-b001-4fb8-a167-c11385187fe6"},"vehicle_type_id":"4","last_reported":1719349670,"current_range_meters":8400,"station_id":"ce4bhqp2rcd13ifvqhng","pricing_plan_id":"cebpf4jnsgd1na2vs0mg"},{"bike_id":"168376db-915e-4adb-997e-4056391e328c","system_id":"levelo_inurba_marseille","lat":43.317557,"lon":5.390173,"is_reserved":false,"is_disabled":false,"rental_uris":{"android":"levelo://app?vid=168376db-915e-4adb-997e-4056391e328c","ios":"levelo://app?vid=168376db-915e-4adb-997e-4056391e328c"},"vehicle_type_id":"4","last_reported":1719349670,"current_range_meters":31200,"station_id":"ce4bhqp2rcd13ifvqhng","pricing_plan_id":"cebpf4jnsgd1na2vs0mg"},{"bike_id":"2683d493-9f56-4d56-8fc0-8d8c1c5b7088","system_id":"levelo_inurba_marseille","lat":43.317557,"lon":5.390173,"is_reserved":false,"is_disabled":false,"rental_uris":{"android":"levelo://app?vid=2683d493-9f56-4d56-8fc0-8d8c1c5b7088","ios":"levelo://app?vid=2683d493-9f56-4d56-8fc0-8d8c1c5b7088"},"vehicle_type_id":"4","last_reported":1719349670,"current_range_meters":13600,"station_id":"ce4bhqp2rcd13ifvqhng","pricing_plan_id":"cebpf4jnsgd1na2vs0mg"},{"bike_id":"671964b3-e4bd-43c5-9ca2-3f78bbc16a2f","system_id":"levelo_inurba_marseille","lat":43.31759,"lon":5.390187,"is_reserved":false,"is_disabled":false,"rental_uris":{"android":"levelo://app?vid=671964b3-e4bd-43c5-9ca2-3f78bbc16a2f","ios":"levelo://app?vid=671964b3-e4bd-43c5-9ca2-3f78bbc16a2f"},"vehicle_type_id":"4","last_reported":1719349670,"current_range_meters":9600,"station_id":"ce4bhqp2rcd13ifvqhng","pricing_plan_id":"cebpf4jnsgd1na2vs0mg"},{"bike_id":"62ad006d-09bb-4561-bfdd-5f68cfea8156","system_id":"levelo_inurba_marseille","lat":43.302784,"lon":5.377158,"is_reserved":false,"is_disabled":false,"rental_uris":{"android":"levelo://app?vid=62ad006d-09bb-4561-bfdd-5f68cfea8156","ios":"levelo://app?vid=62ad006d-09bb-4561-bfdd-5f68cfea8156"},"vehicle_type_id":"4","last_reported":1719349670,"current_range_meters":17600,"station_id":"ce4bguh2rcd13ifvqcj0","pricing_plan_id":"cebpf4jnsgd1na2vs0mg"},{"bike_id":"e4f6077e-746e-42c1-9d7e-adfd1de18a3a","system_id":"levelo_inurba_marseille","lat":43.304278,"lon":5.388868,"is_reserved":false,"is_disabled":false,"rental_uris":{"android":"levelo://app?vid=e4f6077e-746e-42c1-9d7e-adfd1de18a3a","ios":"levelo://app?vid=e4f6077e-746e-42c1-9d7e-adfd1de18a3a"},"vehicle_type_id":"4","last_reported":1719349670,"current_range_meters":25200,"station_id":"ce4bgk12rcd13ifvqbi0","pricing_plan_id":"cebpf4jnsgd1na2vs0mg"},{"bike_id":"d62a321e-5fc6-4f85-8dc5-ccbb4372eba7","system_id":"levelo_inurba_marseille","lat":43.298037,"lon":5.381066,"is_reserved":false,"is_disabled":false,"rental_uris":{"android":"levelo://app?vid=d62a321e-5fc6-4f85-8dc5-ccbb4372eba7","ios":"levelo://app?vid=d62a321e-5fc6-4f85-8dc5-ccbb4372eba7"},"vehicle_type_id":"4","last_reported":1719349670,"current_range_meters":18800,"station_id":"ce4bgip2rcd13ifvqbb0","pricing_plan_id":"cebpf4jnsgd1na2vs0mg"},{"bike_id":"8c83a519-daa3-4ea7-ab41-91f54bc74211","system_id":"levelo_inurba_marseille","lat":43.304274,"lon":5.388873,"is_reserved":false,"is_disabled":false,"rental_uris":{"android":"levelo://app?vid=8c83a519-daa3-4ea7-ab41-91f54bc74211","ios":"levelo://app?vid=8c83a519-daa3-4ea7-ab41-91f54bc74211"},"vehicle_type_id":"4","last_reported":1719349670,"current_range_meters":14400,"station_id":"ce4bgk12rcd13ifvqbi0","pricing_plan_id":"cebpf4jnsgd1na2vs0mg"},{"bike_id":"ab97ffe2-fa01-4916-8ac2-7c837d40dc4f","system_id":"levelo_inurba_marseille","lat":43.304278,"lon":5.388868,"is_reserved":false,"is_disabled":false,"rental_uris":{"android":"levelo://app?vid=ab97ffe2-fa01-4916-8ac2-7c837d40dc4f","ios":"levelo://app?vid=ab97ffe2-fa01-4916-8ac2-7c837d40dc4f"},"vehicle_type_id":"4","last_reported":1719349670,"current_range_meters":8400,"station_id":"ce4bgk12rcd13ifvqbi0","pricing_plan_id":"cebpf4jnsgd1na2vs0mg"},{"bike_id":"88ac6dd6-f823-4c27-af51-1ccbb862a479","system_id":"levelo_inurba_marseille","lat":43.296277,"lon":5.377108,"is_reserved":false,"is_disabled":false,"rental_uris":{"android":"levelo://app?vid=88ac6dd6-f823-4c27-af51-1ccbb862a479","ios":"levelo://app?vid=88ac6dd6-f823-4c27-af51-1ccbb862a479"},"vehicle_type_id":"4","last_reported":1719349670,"current_range_meters":1200,"station_id":"ce4bgi92rcd13ifvqb90","pricing_plan_id":"cebpf4jnsgd1na2vs0mg"},{"bike_id":"99d8d479-8a23-458a-9075-7ca814c347dd","system_id":"levelo_inurba_marseille","lat":43.304278,"lon":5.388868,"is_reserved":false,"is_disabled":false,"rental_uris":{"android":"levelo://app?vid=99d8d479-8a23-458a-9075-7ca814c347dd","ios":"levelo://app?vid=99d8d479-8a23-458a-9075-7ca814c347dd"},"vehicle_type_id":"4","last_reported":1719349670,"current_range_meters":0,"station_id":"ce4bgk12rcd13ifvqbi0","pricing_plan_id":"cebpf4jnsgd1na2vs0mg"},{"bike_id":"34164724-f9ab-49ba-8e05-2b95fd7dae8d","system_id":"levelo_inurba_marseille","lat":43.30432,"lon":5.38893,"is_reserved":false,"is_disabled":false,"rental_uris":{"android":"levelo://app?vid=34164724-f9ab-49ba-8e05-2b95fd7dae8d","ios":"levelo://app?vid=34164724-f9ab-49ba-8e05-2b95fd7dae8d"},"vehicle_type_id":"4","last_reported":1719349670,"current_range_meters":10400,"station_id":"ce4bgk12rcd13ifvqbi0","pricing_plan_id":"cebpf4jnsgd1na2vs0mg"},{"bike_id":"1b73f4ec-0af5-47dc-a21a-9847ad2d0aad","system_id":"levelo_inurba_marseille","lat":43.299724,"lon":5.384848,"is_reserved":false,"is_disabled":false,"rental_uris":{"android":"levelo://app?vid=1b73f4ec-0af5-47dc-a21a-9847ad2d0aad","ios":"levelo://app?vid=1b73f4ec-0af5-47dc-a21a-9847ad2d0aad"},"vehicle_type_id":"4","last_reported":1719349670,"current_range_meters":29200,"station_id":"ce4bgj92rcd13ifvqbd0","pricing_plan_id":"cebpf4jnsgd1na2vs0mg"},{"bike_id":"2991f8e4-c683-46df-b224-b936a72a5dbe","system_id":"levelo_inurba_marseille","lat":43.299724,"lon":5.384848,"is_reserved":false,"is_disabled":false,"rental_uris":{"android":"levelo://app?vid=2991f8e4-c683-46df-b224-b936a72a5dbe","ios":"levelo://app?vid=2991f8e4-c683-46df-b224-b936a72a5dbe"},"vehicle_type_id":"4","last_reported":1719349670,"current_range_meters":14400,"station_id":"ce4bgj92rcd13ifvqbd0","pricing_plan_id":"cebpf4jnsgd1na2vs0mg"},{"bike_id":"78ba79f5-4ba6-4e83-8ef0-0df84a04a66d","system_id":"levelo_inurba_marseille","lat":43.32363,"lon":5.38887,"is_reserved":false,"is_disabled":false,"rental_uris":{"android":"levelo://app?vid=78ba79f5-4ba6-4e83-8ef0-0df84a04a66d","ios":"levelo://app?vid=78ba79f5-4ba6-4e83-8ef0-0df84a04a66d"},"vehicle_type_id":"4","last_reported":1719349670,"current_range_meters":8800,"station_id":"ce4bhqp2rcd13ifvqhog","pricing_plan_id":"cebpf4jnsgd1na2vs0mg"},{"bike_id":"7ccd506a-3f6f-46eb-814f-1b107b5cabdf","system_id":"levelo_inurba_marseille","lat":43.32367,"lon":5.388836,"is_reserved":false,"is_disabled":false,"rental_uris":{"android":"levelo://app?vid=7ccd506a-3f6f-46eb-814f-1b107b5cabdf","ios":"levelo://app?vid=7ccd506a-3f6f-46eb-814f-1b107b5cabdf"},"vehicle_type_id":"4","last_reported":1719349670,"current_range_meters":14800,"station_id":"ce4bhqp2rcd13ifvqhog","pricing_plan_id":"cebpf4jnsgd1na2vs0mg"},{"bike_id":"656dd60e-2c65-4fc2-b18d-31ac687c03a6","system_id":"levelo_inurba_marseille","lat":43.32367,"lon":5.388836,"is_reserved":false,"is_disabled":false,"rental_uris":{"android":"levelo://app?vid=656dd60e-2c65-4fc2-b18d-31ac687c03a6","ios":"levelo://app?vid=656dd60e-2c65-4fc2-b18d-31ac687c03a6"},"vehicle_type_id":"4","last_reported":1719349670,"current_range_meters":400,"station_id":"ce4bhqp2rcd13ifvqhog","pricing_plan_id":"cebpf4jnsgd1na2vs0mg"},{"bike_id":"399e10ba-652f-42b3-8462-ca5b86319acc","system_id":"levelo_inurba_marseille","lat":43.32367,"lon":5.388836,"is_reserved":false,"is_disabled":false,"rental_uris":{"android":"levelo://app?vid=399e10ba-652f-42b3-8462-ca5b86319acc","ios":"levelo://app?vid=399e10ba-652f-42b3-8462-ca5b86319acc"},"vehicle_type_id":"4","last_reported":1719349670,"current_range_meters":4800,"station_id":"ce4bhqp2rcd13ifvqhog","pricing_plan_id":"cebpf4jnsgd1na2vs0mg"},{"bike_id":"1e058a78-b650-47e5-a3a3-e41f3d7d055f","system_id":"levelo_inurba_marseille","lat":43.32367,"lon":5.388836,"is_reserved":false,"is_disabled":false,"rental_uris":{"android":"levelo://app?vid=1e058a78-b650-47e5-a3a3-e41f3d7d055f","ios":"levelo://app?vid=1e058a78-b650-47e5-a3a3-e41f3d7d055f"},"vehicle_type_id":"4","last_reported":1719349670,"current_range_meters":20800,"station_id":"ce4bhqp2rcd13ifvqhog","pricing_plan_id":"cebpf4jnsgd1na2vs0mg"},{"bike_id":"f11f1e64-4854-4e40-914e-8948337f4718","system_id":"levelo_inurba_marseille","lat":43.29602,"lon":5.381084,"is_reserved":false,"is_disabled":false,"rental_uris":{"android":"levelo://app?vid=f11f1e64-4854-4e40-914e-8948337f4718","ios":"levelo://app?vid=f11f1e64-4854-4e40-914e-8948337f4718"},"vehicle_type_id":"4","last_reported":1719349670,"current_range_meters":26000,"station_id":"ce4bgl12rcd13ifvqbo0","pricing_plan_id":"cebpf4jnsgd1na2vs0mg"},{"bike_id":"dd312926-e0be-4347-9cba-6e562546a324","system_id":"levelo_inurba_marseille","lat":43.29602,"lon":5.381084,"is_reserved":false,"is_disabled":false,"rental_uris":{"android":"levelo://app?vid=dd312926-e0be-4347-9cba-6e562546a324","ios":"levelo://app?vid=dd312926-e0be-4347-9cba-6e562546a324"},"vehicle_type_id":"4","last_reported":1719349670,"current_range_meters":29600,"station_id":"ce4bgl12rcd13ifvqbo0","pricing_plan_id":"cebpf4jnsgd1na2vs0mg"},{"bike_id":"8470d7b7-06aa-48ac-beed-17f23ca9a8ff","system_id":"levelo_inurba_marseille","lat":43.29602,"lon":5.381084,"is_reserved":false,"is_disabled":false,"rental_uris":{"android":"levelo://app?vid=8470d7b7-06aa-48ac-beed-17f23ca9a8ff","ios":"levelo://app?vid=8470d7b7-06aa-48ac-beed-17f23ca9a8ff"},"vehicle_type_id":"4","last_reported":1719349670,"current_range_meters":30400,"station_id":"ce4bgl12rcd13ifvqbo0","pricing_plan_id":"cebpf4jnsgd1na2vs0mg"},{"bike_id":"ac196284-48b1-49bf-aa29-00b2a77da4d4","system_id":"levelo_inurba_marseille","lat":43.301974,"lon":5.389548,"is_reserved":false,"is_disabled":false,"rental_uris":{"android":"levelo://app?vid=ac196284-48b1-49bf-aa29-00b2a77da4d4","ios":"levelo://app?vid=ac196284-48b1-49bf-aa29-00b2a77da4d4"},"vehicle_type_id":"4","last_reported":1719349670,"current_range_meters":12800,"station_id":"","pricing_plan_id":"cebpf4jnsgd1na2vs0mg"},{"bike_id":"85aca21b-61d4-4366-8ffb-350c78009b7a","system_id":"levelo_inurba_marseille","lat":43.29961,"lon":5.38728,"is_reserved":false,"is_disabled":false,"rental_uris":{"android":"levelo://app?vid=85aca21b-61d4-4366-8ffb-350c78009b7a","ios":"levelo://app?vid=85aca21b-61d4-4366-8ffb-350c78009b7a"},"vehicle_type_id":"4","last_reported":1719349670,"current_range_meters":17200,"station_id":"","pricing_plan_id":"cebpf4jnsgd1na2vs0mg"},{"bike_id":"f24036c0-bf17-4099-9392-0699d424b8af","system_id":"levelo_inurba_marseille","lat":43.30601,"lon":5.39359,"is_reserved":false,"is_disabled":false,"rental_uris":{"android":"levelo://app?vid=f24036c0-bf17-4099-9392-0699d424b8af","ios":"levelo://app?vid=f24036c0-bf17-4099-9392-0699d424b8af"},"vehicle_type_id":"4","last_reported":1719349670,"current_range_meters":25200,"station_id":"ce4bh0p2rcd13ifvqd80","pricing_plan_id":"cebpf4jnsgd1na2vs0mg"},{"bike_id":"c896c3af-8352-465f-abc9-30a8bb892f19","system_id":"levelo_inurba_marseille","lat":43.305994,"lon":5.393687,"is_reserved":false,"is_disabled":false,"rental_uris":{"android":"levelo://app?vid=c896c3af-8352-465f-abc9-30a8bb892f19","ios":"levelo://app?vid=c896c3af-8352-465f-abc9-30a8bb892f19"},"vehicle_type_id":"4","last_reported":1719349670,"current_range_meters":22800,"station_id":"ce4bh0p2rcd13ifvqd80","pricing_plan_id":"cebpf4jnsgd1na2vs0mg"},{"bike_id":"823d6985-b40c-480e-bcb6-4a1af5e5e8b2","system_id":"levelo_inurba_marseille","lat":43.305994,"lon":5.393687,"is_reserved":false,"is_disabled":false,"rental_uris":{"android":"levelo://app?vid=823d6985-b40c-480e-bcb6-4a1af5e5e8b2","ios":"levelo://app?vid=823d6985-b40c-480e-bcb6-4a1af5e5e8b2"},"vehicle_type_id":"4","last_reported":1719349670,"current_range_meters":20400,"station_id":"ce4bh0p2rcd13ifvqd80","pricing_plan_id":"cebpf4jnsgd1na2vs0mg"},{"bike_id":"dbb352d9-5d5a-4102-b7a7-88bef8a98f1d","system_id":"levelo_inurba_marseille","lat":43.305994,"lon":5.393687,"is_reserved":false,"is_disabled":false,"rental_uris":{"android":"levelo://app?vid=dbb352d9-5d5a-4102-b7a7-88bef8a98f1d","ios":"levelo://app?vid=dbb352d9-5d5a-4102-b7a7-88bef8a98f1d"},"vehicle_type_id":"4","last_reported":1719349670,"current_range_meters":7600,"station_id":"ce4bh0p2rcd13ifvqd80","pricing_plan_id":"cebpf4jnsgd1na2vs0mg"},{"bike_id":"ebf4e844-2240-41d8-be09-add8c6b1e6df","system_id":"levelo_inurba_marseille","lat":43.293009,"lon":5.374584,"is_reserved":false,"is_disabled":false,"rental_uris":{"android":"levelo://app?vid=ebf4e844-2240-41d8-be09-add8c6b1e6df","ios":"levelo://app?vid=ebf4e844-2240-41d8-be09-add8c6b1e6df"},"vehicle_type_id":"4","last_reported":1719349670,"current_range_meters":0,"station_id":"ce4bgi12rcd13ifvqb70","pricing_plan_id":"cebpf4jnsgd1na2vs0mg"},{"bike_id":"21a4c8cc-63ab-436e-9a6e-a8c0deaf8457","system_id":"levelo_inurba_marseille","lat":43.29292,"lon":5.37452,"is_reserved":false,"is_disabled":false,"rental_uris":{"android":"levelo://app?vid=21a4c8cc-63ab-436e-9a6e-a8c0deaf8457","ios":"levelo://app?vid=21a4c8cc-63ab-436e-9a6e-a8c0deaf8457"},"vehicle_type_id":"4","last_reported":1719349670,"current_range_meters":0,"station_id":"ce4bgi12rcd13ifvqb70","pricing_plan_id":"cebpf4jnsgd1na2vs0mg"},{"bike_id":"67eb01c3-91af-4a6f-8d1e-9dafc06d8dee","system_id":"levelo_inurba_marseille","lat":43.311722,"lon":5.387247,"is_reserved":false,"is_disabled":false,"rental_uris":{"android":"levelo://app?vid=67eb01c3-91af-4a6f-8d1e-9dafc06d8dee","ios":"levelo://app?vid=67eb01c3-91af-4a6f-8d1e-9dafc06d8dee"},"vehicle_type_id":"4","last_reported":1719349670,"current_range_meters":25600,"station_id":"ce4bgv12rcd13ifvqcp0","pricing_plan_id":"cebpf4jnsgd1na2vs0mg"},{"bike_id":"894c13b7-5975-4162-a636-585a78833a80","system_id":"levelo_inurba_marseille","lat":43.305994,"lon":5.393687,"is_reserved":false,"is_disabled":false,"rental_uris":{"android":"levelo://app?vid=894c13b7-5975-4162-a636-585a78833a80","ios":"levelo://app?vid=894c13b7-5975-4162-a636-585a78833a80"},"vehicle_type_id":"4","last_reported":1719349670,"current_range_meters":22400,"station_id":"ce4bh0p2rcd13ifvqd80","pricing_plan_id":"cebpf4jnsgd1na2vs0mg"},{"bike_id":"9874c464-6197-4aa8-8f15-46add74abb8b","system_id":"levelo_inurba_marseille","lat":43.305994,"lon":5.393687,"is_reserved":false,"is_disabled":false,"rental_uris":{"android":"levelo://app?vid=9874c464-6197-4aa8-8f15-46add74abb8b","ios":"levelo://app?vid=9874c464-6197-4aa8-8f15-46add74abb8b"},"vehicle_type_id":"4","last_reported":1719349670,"current_range_meters":0,"station_id":"ce4bh0p2rcd13ifvqd80","pricing_plan_id":"cebpf4jnsgd1na2vs0mg"},{"bike_id":"8c1d7c73-8404-4655-9bf2-8c333ca2de91","system_id":"levelo_inurba_marseille","lat":43.30303,"lon":5.39207,"is_reserved":false,"is_disabled":false,"rental_uris":{"android":"levelo://app?vid=8c1d7c73-8404-4655-9bf2-8c333ca2de91","ios":"levelo://app?vid=8c1d7c73-8404-4655-9bf2-8c333ca2de91"},"vehicle_type_id":"4","last_reported":1719349670,"current_range_meters":26400,"station_id":"ce4bgkh2rcd13ifvqbk0","pricing_plan_id":"cebpf4jnsgd1na2vs0mg"},{"bike_id":"25318c5b-9635-4e02-b7fe-6d676ca359b7","system_id":"levelo_inurba_marseille","lat":43.30302,"lon":5.39208,"is_reserved":false,"is_disabled":false,"rental_uris":{"android":"levelo://app?vid=25318c5b-9635-4e02-b7fe-6d676ca359b7","ios":"levelo://app?vid=25318c5b-9635-4e02-b7fe-6d676ca359b7"},"vehicle_type_id":"4","last_reported":1719349670,"current_range_meters":10000,"station_id":"ce4bgkh2rcd13ifvqbk0","pricing_plan_id":"cebpf4jnsgd1na2vs0mg"},{"bike_id":"5c187021-1ccc-4043-ba55-deffa1d42bd9","system_id":"levelo_inurba_marseille","lat":43.303002,"lon":5.392142,"is_reserved":false,"is_disabled":false,"rental_uris":{"android":"levelo://app?vid=5c187021-1ccc-4043-ba55-deffa1d42bd9","ios":"levelo://app?vid=5c187021-1ccc-4043-ba55-deffa1d42bd9"},"vehicle_type_id":"4","last_reported":1719349670,"current_range_meters":9600,"station_id":"ce4bgkh2rcd13ifvqbk0","pricing_plan_id":"cebpf4jnsgd1na2vs0mg"},{"bike_id":"2b664c8d-a49e-406c-babc-a09cd39536b3","system_id":"levelo_inurba_marseille","lat":43.303002,"lon":5.392142,"is_reserved":false,"is_disabled":false,"rental_uris":{"android":"levelo://app?vid=2b664c8d-a49e-406c-babc-a09cd39536b3","ios":"levelo://app?vid=2b664c8d-a49e-406c-babc-a09cd39536b3"},"vehicle_type_id":"4","last_reported":1719349670,"current_range_meters":30800,"station_id":"ce4bgkh2rcd13ifvqbk0","pricing_plan_id":"cebpf4jnsgd1na2vs0mg"},{"bike_id":"e1ee4f32-e085-4525-8b12-1a13dc14da2d","system_id":"levelo_inurba_marseille","lat":43.29834,"lon":5.38753,"is_reserved":false,"is_disabled":false,"rental_uris":{"android":"levelo://app?vid=e1ee4f32-e085-4525-8b12-1a13dc14da2d","ios":"levelo://app?vid=e1ee4f32-e085-4525-8b12-1a13dc14da2d"},"vehicle_type_id":"4","last_reported":1719349670,"current_range_meters":12400,"station_id":"","pricing_plan_id":"cebpf4jnsgd1na2vs0mg"},{"bike_id":"8b8e72c9-c164-4897-a18c-84a21fb23aeb","system_id":"levelo_inurba_marseille","lat":43.30085,"lon":5.390856,"is_reserved":false,"is_disabled":false,"rental_uris":{"android":"levelo://app?vid=8b8e72c9-c164-4897-a18c-84a21fb23aeb","ios":"levelo://app?vid=8b8e72c9-c164-4897-a18c-84a21fb23aeb"},"vehicle_type_id":"4","last_reported":1719349670,"current_range_meters":27200,"station_id":"ce4bh192rcd13ifvqdb0","pricing_plan_id":"cebpf4jnsgd1na2vs0mg"},{"bike_id":"691f7e21-75e9-4ddf-a582-bd68c8a29d18","system_id":"levelo_inurba_marseille","lat":43.292311,"lon":5.360731,"is_reserved":false,"is_disabled":false,"rental_uris":{"android":"levelo://app?vid=691f7e21-75e9-4ddf-a582-bd68c8a29d18","ios":"levelo://app?vid=691f7e21-75e9-4ddf-a582-bd68c8a29d18"},"vehicle_type_id":"4","last_reported":1719349670,"current_range_meters":30800,"station_id":"ce4bhbh2rcd13ifvqeqg","pricing_plan_id":"cebpf4jnsgd1na2vs0mg"},{"bike_id":"6a2e88d7-3058-47d3-ac3b-ee436f109b98","system_id":"levelo_inurba_marseille","lat":43.29219,"lon":5.36058,"is_reserved":false,"is_disabled":false,"rental_uris":{"android":"levelo://app?vid=6a2e88d7-3058-47d3-ac3b-ee436f109b98","ios":"levelo://app?vid=6a2e88d7-3058-47d3-ac3b-ee436f109b98"},"vehicle_type_id":"4","last_reported":1719349670,"current_range_meters":31200,"station_id":"ce4bhbh2rcd13ifvqeqg","pricing_plan_id":"cebpf4jnsgd1na2vs0mg"},{"bike_id":"1eee970a-a050-42e0-bd57-202388c9a7ea","system_id":"levelo_inurba_marseille","lat":43.29529,"lon":5.385581,"is_reserved":false,"is_disabled":false,"rental_uris":{"android":"levelo://app?vid=1eee970a-a050-42e0-bd57-202388c9a7ea","ios":"levelo://app?vid=1eee970a-a050-42e0-bd57-202388c9a7ea"},"vehicle_type_id":"4","last_reported":1719349670,"current_range_meters":0,"station_id":"ce4bgih2rcd13ifvqba0","pricing_plan_id":"cebpf4jnsgd1na2vs0mg"},{"bike_id":"a2bbe409-672b-477b-852e-a7c63affc79a","system_id":"levelo_inurba_marseille","lat":43.291671,"lon":5.371575,"is_reserved":false,"is_disabled":false,"rental_uris":{"android":"levelo://app?vid=a2bbe409-672b-477b-852e-a7c63affc79a","ios":"levelo://app?vid=a2bbe409-672b-477b-852e-a7c63affc79a"},"vehicle_type_id":"4","last_reported":1719349670,"current_range_meters":0,"station_id":"ce4bha92rcd13ifvqeh0","pricing_plan_id":"cebpf4jnsgd1na2vs0mg"},{"bike_id":"1d481842-6d8b-44ee-9c30-5f901048bcbd","system_id":"levelo_inurba_marseille","lat":43.298764,"lon":5.388973,"is_reserved":false,"is_disabled":false,"rental_uris":{"android":"levelo://app?vid=1d481842-6d8b-44ee-9c30-5f901048bcbd","ios":"levelo://app?vid=1d481842-6d8b-44ee-9c30-5f901048bcbd"},"vehicle_type_id":"4","last_reported":1719349670,"current_range_meters":24800,"station_id":"ce4bh392rcd13ifvqdl0","pricing_plan_id":"cebpf4jnsgd1na2vs0mg"},{"bike_id":"7a067b4a-71c6-4700-afde-95d6fe2b52b8","system_id":"levelo_inurba_marseille","lat":43.292005,"lon":5.357875,"is_reserved":false,"is_disabled":false,"rental_uris":{"android":"levelo://app?vid=7a067b4a-71c6-4700-afde-95d6fe2b52b8","ios":"levelo://app?vid=7a067b4a-71c6-4700-afde-95d6fe2b52b8"},"vehicle_type_id":"4","last_reported":1719349670,"current_range_meters":21200,"station_id":"ce4bhb12rcd13ifvqel0","pricing_plan_id":"cebpf4jnsgd1na2vs0mg"},{"bike_id":"27a241f8-4c6d-40d1-b6ea-7a2c41a8e5fa","system_id":"levelo_inurba_marseille","lat":43.308837,"lon":5.39628,"is_reserved":false,"is_disabled":false,"rental_uris":{"android":"levelo://app?vid=27a241f8-4c6d-40d1-b6ea-7a2c41a8e5fa","ios":"levelo://app?vid=27a241f8-4c6d-40d1-b6ea-7a2c41a8e5fa"},"vehicle_type_id":"4","last_reported":1719349670,"current_range_meters":24000,"station_id":"ce4bh012rcd13ifvqcv0","pricing_plan_id":"cebpf4jnsgd1na2vs0mg"},{"bike_id":"cd218dcc-8779-412d-bccc-ac2534b488c9","system_id":"levelo_inurba_marseille","lat":43.30881,"lon":5.39632,"is_reserved":false,"is_disabled":false,"rental_uris":{"android":"levelo://app?vid=cd218dcc-8779-412d-bccc-ac2534b488c9","ios":"levelo://app?vid=cd218dcc-8779-412d-bccc-ac2534b488c9"},"vehicle_type_id":"4","last_reported":1719349670,"current_range_meters":5200,"station_id":"ce4bh012rcd13ifvqcv0","pricing_plan_id":"cebpf4jnsgd1na2vs0mg"},{"bike_id":"c872b8f2-b96e-496d-841b-69c5ec304ba9","system_id":"levelo_inurba_marseille","lat":43.30884,"lon":5.39633,"is_reserved":false,"is_disabled":false,"rental_uris":{"android":"levelo://app?vid=c872b8f2-b96e-496d-841b-69c5ec304ba9","ios":"levelo://app?vid=c872b8f2-b96e-496d-841b-69c5ec304ba9"},"vehicle_type_id":"4","last_reported":1719349670,"current_range_meters":16800,"station_id":"ce4bh012rcd13ifvqcv0","pricing_plan_id":"cebpf4jnsgd1na2vs0mg"},{"bike_id":"d0fa3130-0457-44ce-a1bc-c8726395a49d","system_id":"levelo_inurba_marseille","lat":43.30877,"lon":5.396317,"is_reserved":false,"is_disabled":false,"rental_uris":{"android":"levelo://app?vid=d0fa3130-0457-44ce-a1bc-c8726395a49d","ios":"levelo://app?vid=d0fa3130-0457-44ce-a1bc-c8726395a49d"},"vehicle_type_id":"4","last_reported":1719349670,"current_range_meters":20400,"station_id":"ce4bh012rcd13ifvqcv0","pricing_plan_id":"cebpf4jnsgd1na2vs0mg"},{"bike_id":"1e349e8d-5810-42a9-93e5-f33392c6d20b","system_id":"levelo_inurba_marseille","lat":43.30883,"lon":5.39635,"is_reserved":false,"is_disabled":false,"rental_uris":{"android":"levelo://app?vid=1e349e8d-5810-42a9-93e5-f33392c6d20b","ios":"levelo://app?vid=1e349e8d-5810-42a9-93e5-f33392c6d20b"},"vehicle_type_id":"4","last_reported":1719349670,"current_range_meters":22000,"station_id":"ce4bh012rcd13ifvqcv0","pricing_plan_id":"cebpf4jnsgd1na2vs0mg"},{"bike_id":"ab1ef7f8-5a8a-4700-b29e-c69dff5bc4f9","system_id":"levelo_inurba_marseille","lat":43.309038,"lon":5.396546,"is_reserved":false,"is_disabled":false,"rental_uris":{"android":"levelo://app?vid=ab1ef7f8-5a8a-4700-b29e-c69dff5bc4f9","ios":"levelo://app?vid=ab1ef7f8-5a8a-4700-b29e-c69dff5bc4f9"},"vehicle_type_id":"4","last_reported":1719349670,"current_range_meters":25600,"station_id":"ce4bh012rcd13ifvqcv0","pricing_plan_id":"cebpf4jnsgd1na2vs0mg"},{"bike_id":"35243b93-c831-46ee-96a9-5dfb27d48e7d","system_id":"levelo_inurba_marseille","lat":43.30878,"lon":5.39638,"is_reserved":false,"is_disabled":false,"rental_uris":{"android":"levelo://app?vid=35243b93-c831-46ee-96a9-5dfb27d48e7d","ios":"levelo://app?vid=35243b93-c831-46ee-96a9-5dfb27d48e7d"},"vehicle_type_id":"4","last_reported":1719349670,"current_range_meters":11200,"station_id":"ce4bh012rcd13ifvqcv0","pricing_plan_id":"cebpf4jnsgd1na2vs0mg"},{"bike_id":"15ec709a-9f52-4f21-80f7-87fa54dd8f0f","system_id":"levelo_inurba_marseille","lat":43.30885,"lon":5.39642,"is_reserved":false,"is_disabled":false,"rental_uris":{"android":"levelo://app?vid=15ec709a-9f52-4f21-80f7-87fa54dd8f0f","ios":"levelo://app?vid=15ec709a-9f52-4f21-80f7-87fa54dd8f0f"},"vehicle_type_id":"4","last_reported":1719349670,"current_range_meters":8000,"station_id":"ce4bh012rcd13ifvqcv0","pricing_plan_id":"cebpf4jnsgd1na2vs0mg"},{"bike_id":"9fab94a2-463f-4a54-ae35-b80838c45d03","system_id":"levelo_inurba_marseille","lat":43.30886,"lon":5.39643,"is_reserved":false,"is_disabled":false,"rental_uris":{"android":"levelo://app?vid=9fab94a2-463f-4a54-ae35-b80838c45d03","ios":"levelo://app?vid=9fab94a2-463f-4a54-ae35-b80838c45d03"},"vehicle_type_id":"4","last_reported":1719349670,"current_range_meters":5600,"station_id":"ce4bh012rcd13ifvqcv0","pricing_plan_id":"cebpf4jnsgd1na2vs0mg"},{"bike_id":"04403c5c-d6d8-4bbf-9b3d-de9176215cae","system_id":"levelo_inurba_marseille","lat":43.30888,"lon":5.39644,"is_reserved":false,"is_disabled":false,"rental_uris":{"android":"levelo://app?vid=04403c5c-d6d8-4bbf-9b3d-de9176215cae","ios":"levelo://app?vid=04403c5c-d6d8-4bbf-9b3d-de9176215cae"},"vehicle_type_id":"4","last_reported":1719349670,"current_range_meters":6000,"station_id":"ce4bh012rcd13ifvqcv0","pricing_plan_id":"cebpf4jnsgd1na2vs0mg"},{"bike_id":"f7e112ec-a2ff-46aa-91c4-1871b063f8a7","system_id":"levelo_inurba_marseille","lat":43.309038,"lon":5.396546,"is_reserved":false,"is_disabled":false,"rental_uris":{"android":"levelo://app?vid=f7e112ec-a2ff-46aa-91c4-1871b063f8a7","ios":"levelo://app?vid=f7e112ec-a2ff-46aa-91c4-1871b063f8a7"},"vehicle_type_id":"4","last_reported":1719349670,"current_range_meters":4000,"station_id":"ce4bh012rcd13ifvqcv0","pricing_plan_id":"cebpf4jnsgd1na2vs0mg"},{"bike_id":"3fb3bfc0-2e96-4228-b7e1-a240a675761d","system_id":"levelo_inurba_marseille","lat":43.313291,"lon":5.396838,"is_reserved":false,"is_disabled":false,"rental_uris":{"android":"levelo://app?vid=3fb3bfc0-2e96-4228-b7e1-a240a675761d","ios":"levelo://app?vid=3fb3bfc0-2e96-4228-b7e1-a240a675761d"},"vehicle_type_id":"4","last_reported":1719349670,"current_range_meters":6000,"station_id":"ce4bgvp2rcd13ifvqcu0","pricing_plan_id":"cebpf4jnsgd1na2vs0mg"},{"bike_id":"387c2116-d782-4414-be34-c7fa53a33b12","system_id":"levelo_inurba_marseille","lat":43.309038,"lon":5.396546,"is_reserved":false,"is_disabled":false,"rental_uris":{"android":"levelo://app?vid=387c2116-d782-4414-be34-c7fa53a33b12","ios":"levelo://app?vid=387c2116-d782-4414-be34-c7fa53a33b12"},"vehicle_type_id":"4","last_reported":1719349670,"current_range_meters":14000,"station_id":"ce4bh012rcd13ifvqcv0","pricing_plan_id":"cebpf4jnsgd1na2vs0mg"},{"bike_id":"c8fe6185-d141-4084-b481-c81ef152b952","system_id":"levelo_inurba_marseille","lat":43.30886,"lon":5.39653,"is_reserved":false,"is_disabled":false,"rental_uris":{"android":"levelo://app?vid=c8fe6185-d141-4084-b481-c81ef152b952","ios":"levelo://app?vid=c8fe6185-d141-4084-b481-c81ef152b952"},"vehicle_type_id":"4","last_reported":1719349670,"current_range_meters":14000,"station_id":"ce4bh012rcd13ifvqcv0","pricing_plan_id":"cebpf4jnsgd1na2vs0mg"},{"bike_id":"092b78f5-41c1-4aba-8d99-cbb54238a3a0","system_id":"levelo_inurba_marseille","lat":43.309013,"lon":5.396751,"is_reserved":false,"is_disabled":false,"rental_uris":{"android":"levelo://app?vid=092b78f5-41c1-4aba-8d99-cbb54238a3a0","ios":"levelo://app?vid=092b78f5-41c1-4aba-8d99-cbb54238a3a0"},"vehicle_type_id":"4","last_reported":1719349670,"current_range_meters":20400,"station_id":"ce4bh012rcd13ifvqcv0","pricing_plan_id":"cebpf4jnsgd1na2vs0mg"},{"bike_id":"59013b30-0bc6-4af4-9490-ef69fa6fb930","system_id":"levelo_inurba_marseille","lat":43.290779,"lon":5.371482,"is_reserved":false,"is_disabled":false,"rental_uris":{"android":"levelo://app?vid=59013b30-0bc6-4af4-9490-ef69fa6fb930","ios":"levelo://app?vid=59013b30-0bc6-4af4-9490-ef69fa6fb930"},"vehicle_type_id":"4","last_reported":1719349670,"current_range_meters":0,"station_id":"ce4bh5p2rcd13ifvqe4g","pricing_plan_id":"cebpf4jnsgd1na2vs0mg"},{"bike_id":"037f1fbe-a2a6-4001-9161-bd461de1ef65","system_id":"levelo_inurba_marseille","lat":43.290624,"lon":5.359245,"is_reserved":false,"is_disabled":false,"rental_uris":{"android":"levelo://app?vid=037f1fbe-a2a6-4001-9161-bd461de1ef65","ios":"levelo://app?vid=037f1fbe-a2a6-4001-9161-bd461de1ef65"},"vehicle_type_id":"4","last_reported":1719349670,"current_range_meters":30800,"station_id":"ce4bha92rcd13ifvqeg0","pricing_plan_id":"cebpf4jnsgd1na2vs0mg"},{"bike_id":"798d167a-492a-4d27-9099-78cb42f5543f","system_id":"levelo_inurba_marseille","lat":43.289184,"lon":5.366408,"is_reserved":false,"is_disabled":false,"rental_uris":{"android":"levelo://app?vid=798d167a-492a-4d27-9099-78cb42f5543f","ios":"levelo://app?vid=798d167a-492a-4d27-9099-78cb42f5543f"},"vehicle_type_id":"4","last_reported":1719349670,"current_range_meters":23600,"station_id":"ce4bhap2rcd13ifvqek0","pricing_plan_id":"cebpf4jnsgd1na2vs0mg"},{"bike_id":"d7695334-61e0-4663-ae75-b11bbd44ed2a","system_id":"levelo_inurba_marseille","lat":43.289465,"lon":5.36717,"is_reserved":false,"is_disabled":false,"rental_uris":{"android":"levelo://app?vid=d7695334-61e0-4663-ae75-b11bbd44ed2a","ios":"levelo://app?vid=d7695334-61e0-4663-ae75-b11bbd44ed2a"},"vehicle_type_id":"4","last_reported":1719349670,"current_range_meters":30800,"station_id":"ce4bhap2rcd13ifvqek0","pricing_plan_id":"cebpf4jnsgd1na2vs0mg"},{"bike_id":"58911086-648f-4a71-a74e-a68f584d02f6","system_id":"levelo_inurba_marseille","lat":43.290327,"lon":5.375711,"is_reserved":false,"is_disabled":false,"rental_uris":{"android":"levelo://app?vid=58911086-648f-4a71-a74e-a68f584d02f6","ios":"levelo://app?vid=58911086-648f-4a71-a74e-a68f584d02f6"},"vehicle_type_id":"4","last_reported":1719349670,"current_range_meters":0,"station_id":"ce4bh692rcd13ifvqe90","pricing_plan_id":"cebpf4jnsgd1na2vs0mg"},{"bike_id":"b7dbb902-0a2e-45e7-965e-a4a098933dcf","system_id":"levelo_inurba_marseille","lat":43.294153,"lon":5.386305,"is_reserved":false,"is_disabled":false,"rental_uris":{"android":"levelo://app?vid=b7dbb902-0a2e-45e7-965e-a4a098933dcf","ios":"levelo://app?vid=b7dbb902-0a2e-45e7-965e-a4a098933dcf"},"vehicle_type_id":"4","last_reported":1719349670,"current_range_meters":14000,"station_id":"ce4bh2h2rcd13ifvqdh0","pricing_plan_id":"cebpf4jnsgd1na2vs0mg"},{"bike_id":"8abbd8e1-189a-49bc-a345-f93d32262c47","system_id":"levelo_inurba_marseille","lat":43.290319,"lon":5.375732,"is_reserved":false,"is_disabled":false,"rental_uris":{"android":"levelo://app?vid=8abbd8e1-189a-49bc-a345-f93d32262c47","ios":"levelo://app?vid=8abbd8e1-189a-49bc-a345-f93d32262c47"},"vehicle_type_id":"4","last_reported":1719349670,"current_range_meters":28800,"station_id":"ce4bh692rcd13ifvqe90","pricing_plan_id":"cebpf4jnsgd1na2vs0mg"},{"bike_id":"0b87708e-4f0e-4fde-8f41-c9e0b1de15d5","system_id":"levelo_inurba_marseille","lat":43.2894,"lon":5.36635,"is_reserved":false,"is_disabled":false,"rental_uris":{"android":"levelo://app?vid=0b87708e-4f0e-4fde-8f41-c9e0b1de15d5","ios":"levelo://app?vid=0b87708e-4f0e-4fde-8f41-c9e0b1de15d5"},"vehicle_type_id":"4","last_reported":1719349670,"current_range_meters":16400,"station_id":"ce4bhap2rcd13ifvqek0","pricing_plan_id":"cebpf4jnsgd1na2vs0mg"},{"bike_id":"30f97107-12d7-4e03-88de-c2c52c5684d2","system_id":"levelo_inurba_marseille","lat":43.289184,"lon":5.366408,"is_reserved":false,"is_disabled":false,"rental_uris":{"android":"levelo://app?vid=30f97107-12d7-4e03-88de-c2c52c5684d2","ios":"levelo://app?vid=30f97107-12d7-4e03-88de-c2c52c5684d2"},"vehicle_type_id":"4","last_reported":1719349670,"current_range_meters":30800,"station_id":"ce4bhap2rcd13ifvqek0","pricing_plan_id":"cebpf4jnsgd1na2vs0mg"},{"bike_id":"589fd068-4ef9-4456-9361-be190e005d7c","system_id":"levelo_inurba_marseille","lat":43.289184,"lon":5.366408,"is_reserved":false,"is_disabled":false,"rental_uris":{"android":"levelo://app?vid=589fd068-4ef9-4456-9361-be190e005d7c","ios":"levelo://app?vid=589fd068-4ef9-4456-9361-be190e005d7c"},"vehicle_type_id":"4","last_reported":1719349670,"current_range_meters":30800,"station_id":"ce4bhap2rcd13ifvqek0","pricing_plan_id":"cebpf4jnsgd1na2vs0mg"},{"bike_id":"8ae86ad7-f3c6-46ec-9032-81344059886f","system_id":"levelo_inurba_marseille","lat":43.289468,"lon":5.363719,"is_reserved":false,"is_disabled":false,"rental_uris":{"android":"levelo://app?vid=8ae86ad7-f3c6-46ec-9032-81344059886f","ios":"levelo://app?vid=8ae86ad7-f3c6-46ec-9032-81344059886f"},"vehicle_type_id":"4","last_reported":1719349670,"current_range_meters":16800,"station_id":"ce4bhc92rcd13ifvqetg","pricing_plan_id":"cebpf4jnsgd1na2vs0mg"},{"bike_id":"3cb81038-958f-4029-ba20-29a52e77fcd3","system_id":"levelo_inurba_marseille","lat":43.289184,"lon":5.366408,"is_reserved":false,"is_disabled":false,"rental_uris":{"android":"levelo://app?vid=3cb81038-958f-4029-ba20-29a52e77fcd3","ios":"levelo://app?vid=3cb81038-958f-4029-ba20-29a52e77fcd3"},"vehicle_type_id":"4","last_reported":1719349670,"current_range_meters":31200,"station_id":"ce4bhap2rcd13ifvqek0","pricing_plan_id":"cebpf4jnsgd1na2vs0mg"},{"bike_id":"96fe8401-82be-4eb3-844e-b0c396078866","system_id":"levelo_inurba_marseille","lat":43.289468,"lon":5.363719,"is_reserved":false,"is_disabled":false,"rental_uris":{"android":"levelo://app?vid=96fe8401-82be-4eb3-844e-b0c396078866","ios":"levelo://app?vid=96fe8401-82be-4eb3-844e-b0c396078866"},"vehicle_type_id":"4","last_reported":1719349670,"current_range_meters":31600,"station_id":"ce4bhc92rcd13ifvqetg","pricing_plan_id":"cebpf4jnsgd1na2vs0mg"},{"bike_id":"5d539f2d-9339-4b0a-8c70-bdc220fac9d8","system_id":"levelo_inurba_marseille","lat":43.292644,"lon":5.384257,"is_reserved":false,"is_disabled":false,"rental_uris":{"android":"levelo://app?vid=5d539f2d-9339-4b0a-8c70-bdc220fac9d8","ios":"levelo://app?vid=5d539f2d-9339-4b0a-8c70-bdc220fac9d8"},"vehicle_type_id":"4","last_reported":1719349670,"current_range_meters":0,"station_id":"ce4bh692rcd13ifvqea0","pricing_plan_id":"cebpf4jnsgd1na2vs0mg"},{"bike_id":"ba2dbc5d-ec76-457a-9f31-f7ca35613bf7","system_id":"levelo_inurba_marseille","lat":43.290103,"lon":5.356114,"is_reserved":false,"is_disabled":false,"rental_uris":{"android":"levelo://app?vid=ba2dbc5d-ec76-457a-9f31-f7ca35613bf7","ios":"levelo://app?vid=ba2dbc5d-ec76-457a-9f31-f7ca35613bf7"},"vehicle_type_id":"4","last_reported":1719349670,"current_range_meters":28800,"station_id":"ce4bhb92rcd13ifvqen0","pricing_plan_id":"cebpf4jnsgd1na2vs0mg"},{"bike_id":"2607cdec-3cf1-416f-8eb5-69941fe30752","system_id":"levelo_inurba_marseille","lat":43.29002,"lon":5.35613,"is_reserved":false,"is_disabled":false,"rental_uris":{"android":"levelo://app?vid=2607cdec-3cf1-416f-8eb5-69941fe30752","ios":"levelo://app?vid=2607cdec-3cf1-416f-8eb5-69941fe30752"},"vehicle_type_id":"4","last_reported":1719349670,"current_range_meters":28400,"station_id":"ce4bhb92rcd13ifvqen0","pricing_plan_id":"cebpf4jnsgd1na2vs0mg"},{"bike_id":"8620d0a0-b595-4209-97dd-eec1d133f4d5","system_id":"levelo_inurba_marseille","lat":43.290104,"lon":5.356111,"is_reserved":false,"is_disabled":false,"rental_uris":{"android":"levelo://app?vid=8620d0a0-b595-4209-97dd-eec1d133f4d5","ios":"levelo://app?vid=8620d0a0-b595-4209-97dd-eec1d133f4d5"},"vehicle_type_id":"4","last_reported":1719349670,"current_range_meters":26000,"station_id":"ce4bhb92rcd13ifvqen0","pricing_plan_id":"cebpf4jnsgd1na2vs0mg"},{"bike_id":"cffedc66-7a33-4c6f-ac06-49219f1021ee","system_id":"levelo_inurba_marseille","lat":43.290995,"lon":5.381361,"is_reserved":false,"is_disabled":false,"rental_uris":{"android":"levelo://app?vid=cffedc66-7a33-4c6f-ac06-49219f1021ee","ios":"levelo://app?vid=cffedc66-7a33-4c6f-ac06-49219f1021ee"},"vehicle_type_id":"4","last_reported":1719349670,"current_range_meters":29600,"station_id":"ce4bh512rcd13ifvqe2g","pricing_plan_id":"cebpf4jnsgd1na2vs0mg"},{"bike_id":"709249f5-6147-48bb-a1cf-8e753a33b0e1","system_id":"levelo_inurba_marseille","lat":43.290995,"lon":5.381361,"is_reserved":false,"is_disabled":false,"rental_uris":{"android":"levelo://app?vid=709249f5-6147-48bb-a1cf-8e753a33b0e1","ios":"levelo://app?vid=709249f5-6147-48bb-a1cf-8e753a33b0e1"},"vehicle_type_id":"4","last_reported":1719349670,"current_range_meters":17200,"station_id":"ce4bh512rcd13ifvqe2g","pricing_plan_id":"cebpf4jnsgd1na2vs0mg"},{"bike_id":"75b45e0f-c989-48ad-809f-fa5f0a2830ea","system_id":"levelo_inurba_marseille","lat":43.290995,"lon":5.381361,"is_reserved":false,"is_disabled":false,"rental_uris":{"android":"levelo://app?vid=75b45e0f-c989-48ad-809f-fa5f0a2830ea","ios":"levelo://app?vid=75b45e0f-c989-48ad-809f-fa5f0a2830ea"},"vehicle_type_id":"4","last_reported":1719349670,"current_range_meters":0,"station_id":"ce4bh512rcd13ifvqe2g","pricing_plan_id":"cebpf4jnsgd1na2vs0mg"},{"bike_id":"f74a5eb1-e5ee-4cb0-a5e8-b1f432e368ce","system_id":"levelo_inurba_marseille","lat":43.29775,"lon":5.39328,"is_reserved":false,"is_disabled":false,"rental_uris":{"android":"levelo://app?vid=f74a5eb1-e5ee-4cb0-a5e8-b1f432e368ce","ios":"levelo://app?vid=f74a5eb1-e5ee-4cb0-a5e8-b1f432e368ce"},"vehicle_type_id":"4","last_reported":1719349670,"current_range_meters":29600,"station_id":"chh1huq6cuj3fo74tm60","pricing_plan_id":"cebpf4jnsgd1na2vs0mg"},{"bike_id":"e1d09ae4-a13c-4f45-b906-2f850ab37cbf","system_id":"levelo_inurba_marseille","lat":43.2978,"lon":5.39335,"is_reserved":false,"is_disabled":false,"rental_uris":{"android":"levelo://app?vid=e1d09ae4-a13c-4f45-b906-2f850ab37cbf","ios":"levelo://app?vid=e1d09ae4-a13c-4f45-b906-2f850ab37cbf"},"vehicle_type_id":"4","last_reported":1719349670,"current_range_meters":31600,"station_id":"chh1huq6cuj3fo74tm60","pricing_plan_id":"cebpf4jnsgd1na2vs0mg"},{"bike_id":"63aea35a-2ffa-40c0-9a11-1a4859319ce5","system_id":"levelo_inurba_marseille","lat":43.330442,"lon":5.389148,"is_reserved":false,"is_disabled":false,"rental_uris":{"android":"levelo://app?vid=63aea35a-2ffa-40c0-9a11-1a4859319ce5","ios":"levelo://app?vid=63aea35a-2ffa-40c0-9a11-1a4859319ce5"},"vehicle_type_id":"4","last_reported":1719349670,"current_range_meters":14400,"station_id":"ce4bhr92rcd13ifvqhrg","pricing_plan_id":"cebpf4jnsgd1na2vs0mg"},{"bike_id":"8b2d4b72-674e-4e8a-bfed-ea7a59e1f9ed","system_id":"levelo_inurba_marseille","lat":43.29773,"lon":5.39337,"is_reserved":false,"is_disabled":false,"rental_uris":{"android":"levelo://app?vid=8b2d4b72-674e-4e8a-bfed-ea7a59e1f9ed","ios":"levelo://app?vid=8b2d4b72-674e-4e8a-bfed-ea7a59e1f9ed"},"vehicle_type_id":"4","last_reported":1719349670,"current_range_meters":17200,"station_id":"chh1huq6cuj3fo74tm60","pricing_plan_id":"cebpf4jnsgd1na2vs0mg"},{"bike_id":"2fc29a03-3a03-43d0-b4f2-1460a5d190a9","system_id":"levelo_inurba_marseille","lat":43.330442,"lon":5.389148,"is_reserved":false,"is_disabled":false,"rental_uris":{"android":"levelo://app?vid=2fc29a03-3a03-43d0-b4f2-1460a5d190a9","ios":"levelo://app?vid=2fc29a03-3a03-43d0-b4f2-1460a5d190a9"},"vehicle_type_id":"4","last_reported":1719349670,"current_range_meters":10400,"station_id":"ce4bhr92rcd13ifvqhrg","pricing_plan_id":"cebpf4jnsgd1na2vs0mg"},{"bike_id":"518b4ddc-113c-466d-b011-b7bc04774c33","system_id":"levelo_inurba_marseille","lat":43.330442,"lon":5.389148,"is_reserved":false,"is_disabled":false,"rental_uris":{"android":"levelo://app?vid=518b4ddc-113c-466d-b011-b7bc04774c33","ios":"levelo://app?vid=518b4ddc-113c-466d-b011-b7bc04774c33"},"vehicle_type_id":"4","last_reported":1719349670,"current_range_meters":14800,"station_id":"ce4bhr92rcd13ifvqhrg","pricing_plan_id":"cebpf4jnsgd1na2vs0mg"},{"bike_id":"45349dd2-4c29-41ce-b0c6-6e8738b11140","system_id":"levelo_inurba_marseille","lat":43.29784,"lon":5.3936,"is_reserved":false,"is_disabled":false,"rental_uris":{"android":"levelo://app?vid=45349dd2-4c29-41ce-b0c6-6e8738b11140","ios":"levelo://app?vid=45349dd2-4c29-41ce-b0c6-6e8738b11140"},"vehicle_type_id":"4","last_reported":1719349670,"current_range_meters":30800,"station_id":"chh1huq6cuj3fo74tm60","pricing_plan_id":"cebpf4jnsgd1na2vs0mg"},{"bike_id":"30df3595-6163-4e19-895a-094c2145d531","system_id":"levelo_inurba_marseille","lat":43.330442,"lon":5.389148,"is_reserved":false,"is_disabled":false,"rental_uris":{"android":"levelo://app?vid=30df3595-6163-4e19-895a-094c2145d531","ios":"levelo://app?vid=30df3595-6163-4e19-895a-094c2145d531"},"vehicle_type_id":"4","last_reported":1719349670,"current_range_meters":15600,"station_id":"ce4bhr92rcd13ifvqhrg","pricing_plan_id":"cebpf4jnsgd1na2vs0mg"},{"bike_id":"8bd9c8e6-1b91-4ee5-82f0-9335edf72a30","system_id":"levelo_inurba_marseille","lat":43.330442,"lon":5.389148,"is_reserved":false,"is_disabled":false,"rental_uris":{"android":"levelo://app?vid=8bd9c8e6-1b91-4ee5-82f0-9335edf72a30","ios":"levelo://app?vid=8bd9c8e6-1b91-4ee5-82f0-9335edf72a30"},"vehicle_type_id":"4","last_reported":1719349670,"current_range_meters":26000,"station_id":"ce4bhr92rcd13ifvqhrg","pricing_plan_id":"cebpf4jnsgd1na2vs0mg"},{"bike_id":"fca805ad-50c8-4d3a-a519-54302aa506a6","system_id":"levelo_inurba_marseille","lat":43.309371,"lon":5.401449,"is_reserved":false,"is_disabled":false,"rental_uris":{"android":"levelo://app?vid=fca805ad-50c8-4d3a-a519-54302aa506a6","ios":"levelo://app?vid=fca805ad-50c8-4d3a-a519-54302aa506a6"},"vehicle_type_id":"4","last_reported":1719349670,"current_range_meters":0,"station_id":"ce4bgvp2rcd13ifvqct0","pricing_plan_id":"cebpf4jnsgd1na2vs0mg"},{"bike_id":"210cf3ea-718c-42fe-b65a-2c8fed4f2ed8","system_id":"levelo_inurba_marseille","lat":43.2901,"lon":5.381269,"is_reserved":false,"is_disabled":false,"rental_uris":{"android":"levelo://app?vid=210cf3ea-718c-42fe-b65a-2c8fed4f2ed8","ios":"levelo://app?vid=210cf3ea-718c-42fe-b65a-2c8fed4f2ed8"},"vehicle_type_id":"4","last_reported":1719349670,"current_range_meters":19200,"station_id":"ce4bh4p2rcd13ifvqe1g","pricing_plan_id":"cebpf4jnsgd1na2vs0mg"},{"bike_id":"a932f85f-ccce-46f3-8c8a-8a187a5ca103","system_id":"levelo_inurba_marseille","lat":43.28856,"lon":5.358371,"is_reserved":false,"is_disabled":false,"rental_uris":{"android":"levelo://app?vid=a932f85f-ccce-46f3-8c8a-8a187a5ca103","ios":"levelo://app?vid=a932f85f-ccce-46f3-8c8a-8a187a5ca103"},"vehicle_type_id":"4","last_reported":1719349670,"current_range_meters":17600,"station_id":"ce4bhb12rcd13ifvqem0","pricing_plan_id":"cebpf4jnsgd1na2vs0mg"},{"bike_id":"e7c05c57-bb6f-4b75-876d-6579ed205b06","system_id":"levelo_inurba_marseille","lat":43.28856,"lon":5.358371,"is_reserved":false,"is_disabled":false,"rental_uris":{"android":"levelo://app?vid=e7c05c57-bb6f-4b75-876d-6579ed205b06","ios":"levelo://app?vid=e7c05c57-bb6f-4b75-876d-6579ed205b06"},"vehicle_type_id":"4","last_reported":1719349670,"current_range_meters":19600,"station_id":"ce4bhb12rcd13ifvqem0","pricing_plan_id":"cebpf4jnsgd1na2vs0mg"},{"bike_id":"4ebfdfc1-7f29-424a-92ce-f382fd9ecea6","system_id":"levelo_inurba_marseille","lat":43.28856,"lon":5.358371,"is_reserved":false,"is_disabled":false,"rental_uris":{"android":"levelo://app?vid=4ebfdfc1-7f29-424a-92ce-f382fd9ecea6","ios":"levelo://app?vid=4ebfdfc1-7f29-424a-92ce-f382fd9ecea6"},"vehicle_type_id":"4","last_reported":1719349670,"current_range_meters":30000,"station_id":"ce4bhb12rcd13ifvqem0","pricing_plan_id":"cebpf4jnsgd1na2vs0mg"},{"bike_id":"c3ddbe4a-157d-4893-acf1-f1f626a65d21","system_id":"levelo_inurba_marseille","lat":43.33715,"lon":5.37426,"is_reserved":false,"is_disabled":false,"rental_uris":{"android":"levelo://app?vid=c3ddbe4a-157d-4893-acf1-f1f626a65d21","ios":"levelo://app?vid=c3ddbe4a-157d-4893-acf1-f1f626a65d21"},"vehicle_type_id":"0","last_reported":1719349670,"current_range_meters":19200,"station_id":"","pricing_plan_id":"cebpf4jnsgd1na2vs0mg"},{"bike_id":"7c07fa38-ae85-4156-a469-02dfe8dd6bad","system_id":"levelo_inurba_marseille","lat":43.28856,"lon":5.358371,"is_reserved":false,"is_disabled":false,"rental_uris":{"android":"levelo://app?vid=7c07fa38-ae85-4156-a469-02dfe8dd6bad","ios":"levelo://app?vid=7c07fa38-ae85-4156-a469-02dfe8dd6bad"},"vehicle_type_id":"4","last_reported":1719349670,"current_range_meters":29200,"station_id":"ce4bhb12rcd13ifvqem0","pricing_plan_id":"cebpf4jnsgd1na2vs0mg"},{"bike_id":"86b75f50-d8c3-46b1-99c1-65b24385830c","system_id":"levelo_inurba_marseille","lat":43.312609,"lon":5.401662,"is_reserved":false,"is_disabled":false,"rental_uris":{"android":"levelo://app?vid=86b75f50-d8c3-46b1-99c1-65b24385830c","ios":"levelo://app?vid=86b75f50-d8c3-46b1-99c1-65b24385830c"},"vehicle_type_id":"4","last_reported":1719349670,"current_range_meters":19600,"station_id":"ce4bh092rcd13ifvqd30","pricing_plan_id":"cebpf4jnsgd1na2vs0mg"},{"bike_id":"bb65fb70-df82-47d8-b27f-438620895501","system_id":"levelo_inurba_marseille","lat":43.337364,"lon":5.374614,"is_reserved":false,"is_disabled":false,"rental_uris":{"android":"levelo://app?vid=bb65fb70-df82-47d8-b27f-438620895501","ios":"levelo://app?vid=bb65fb70-df82-47d8-b27f-438620895501"},"vehicle_type_id":"0","last_reported":1719349670,"current_range_meters":16400,"station_id":"","pricing_plan_id":"cebpf4jnsgd1na2vs0mg"},{"bike_id":"c25a3696-e1cc-43ba-8656-23d4a118ee2e","system_id":"levelo_inurba_marseille","lat":43.337356,"lon":5.374673,"is_reserved":false,"is_disabled":false,"rental_uris":{"android":"levelo://app?vid=c25a3696-e1cc-43ba-8656-23d4a118ee2e","ios":"levelo://app?vid=c25a3696-e1cc-43ba-8656-23d4a118ee2e"},"vehicle_type_id":"4","last_reported":1719349670,"current_range_meters":22400,"station_id":"","pricing_plan_id":"cebpf4jnsgd1na2vs0mg"},{"bike_id":"913cf5bf-6e38-42d1-8250-fcc2802e76b0","system_id":"levelo_inurba_marseille","lat":43.312609,"lon":5.401662,"is_reserved":false,"is_disabled":false,"rental_uris":{"android":"levelo://app?vid=913cf5bf-6e38-42d1-8250-fcc2802e76b0","ios":"levelo://app?vid=913cf5bf-6e38-42d1-8250-fcc2802e76b0"},"vehicle_type_id":"4","last_reported":1719349670,"current_range_meters":8400,"station_id":"ce4bh092rcd13ifvqd30","pricing_plan_id":"cebpf4jnsgd1na2vs0mg"},{"bike_id":"8043cc8a-f702-4e45-9523-d56dfd7ee432","system_id":"levelo_inurba_marseille","lat":43.337376,"lon":5.374671,"is_reserved":false,"is_disabled":false,"rental_uris":{"android":"levelo://app?vid=8043cc8a-f702-4e45-9523-d56dfd7ee432","ios":"levelo://app?vid=8043cc8a-f702-4e45-9523-d56dfd7ee432"},"vehicle_type_id":"0","last_reported":1719349670,"current_range_meters":21200,"station_id":"","pricing_plan_id":"cebpf4jnsgd1na2vs0mg"},{"bike_id":"bd9a6c26-2db3-4e30-92c7-c85ae97147aa","system_id":"levelo_inurba_marseille","lat":43.33739,"lon":5.3746,"is_reserved":false,"is_disabled":false,"rental_uris":{"android":"levelo://app?vid=bd9a6c26-2db3-4e30-92c7-c85ae97147aa","ios":"levelo://app?vid=bd9a6c26-2db3-4e30-92c7-c85ae97147aa"},"vehicle_type_id":"0","last_reported":1719349670,"current_range_meters":24800,"station_id":"","pricing_plan_id":"cebpf4jnsgd1na2vs0mg"},{"bike_id":"aa527c2c-31a5-479b-bfbe-daae0d9bb514","system_id":"levelo_inurba_marseille","lat":43.337387,"lon":5.374655,"is_reserved":false,"is_disabled":false,"rental_uris":{"android":"levelo://app?vid=aa527c2c-31a5-479b-bfbe-daae0d9bb514","ios":"levelo://app?vid=aa527c2c-31a5-479b-bfbe-daae0d9bb514"},"vehicle_type_id":"0","last_reported":1719349670,"current_range_meters":11600,"station_id":"","pricing_plan_id":"cebpf4jnsgd1na2vs0mg"},{"bike_id":"81f3b553-8793-429e-bdf8-35ca3752f904","system_id":"levelo_inurba_marseille","lat":43.309371,"lon":5.401449,"is_reserved":false,"is_disabled":false,"rental_uris":{"android":"levelo://app?vid=81f3b553-8793-429e-bdf8-35ca3752f904","ios":"levelo://app?vid=81f3b553-8793-429e-bdf8-35ca3752f904"},"vehicle_type_id":"4","last_reported":1719349670,"current_range_meters":19600,"station_id":"ce4bgvp2rcd13ifvqct0","pricing_plan_id":"cebpf4jnsgd1na2vs0mg"},{"bike_id":"2bffac18-a8fe-485f-be52-f67a471a544f","system_id":"levelo_inurba_marseille","lat":43.312821,"lon":5.401679,"is_reserved":false,"is_disabled":false,"rental_uris":{"android":"levelo://app?vid=2bffac18-a8fe-485f-be52-f67a471a544f","ios":"levelo://app?vid=2bffac18-a8fe-485f-be52-f67a471a544f"},"vehicle_type_id":"4","last_reported":1719349670,"current_range_meters":0,"station_id":"ce4bh092rcd13ifvqd30","pricing_plan_id":"cebpf4jnsgd1na2vs0mg"},{"bike_id":"f987180d-160b-49a3-acd1-d70c132d352e","system_id":"levelo_inurba_marseille","lat":43.312743,"lon":5.40168,"is_reserved":false,"is_disabled":false,"rental_uris":{"android":"levelo://app?vid=f987180d-160b-49a3-acd1-d70c132d352e","ios":"levelo://app?vid=f987180d-160b-49a3-acd1-d70c132d352e"},"vehicle_type_id":"4","last_reported":1719349670,"current_range_meters":0,"station_id":"ce4bh092rcd13ifvqd30","pricing_plan_id":"cebpf4jnsgd1na2vs0mg"},{"bike_id":"70df0eff-7892-4d64-8b33-f9b25d3cdb77","system_id":"levelo_inurba_marseille","lat":43.337396,"lon":5.374652,"is_reserved":false,"is_disabled":false,"rental_uris":{"android":"levelo://app?vid=70df0eff-7892-4d64-8b33-f9b25d3cdb77","ios":"levelo://app?vid=70df0eff-7892-4d64-8b33-f9b25d3cdb77"},"vehicle_type_id":"4","last_reported":1719349670,"current_range_meters":22000,"station_id":"","pricing_plan_id":"cebpf4jnsgd1na2vs0mg"},{"bike_id":"985eda3a-8205-4c72-8b0d-a44593dd15b5","system_id":"levelo_inurba_marseille","lat":43.337403,"lon":5.374679,"is_reserved":false,"is_disabled":false,"rental_uris":{"android":"levelo://app?vid=985eda3a-8205-4c72-8b0d-a44593dd15b5","ios":"levelo://app?vid=985eda3a-8205-4c72-8b0d-a44593dd15b5"},"vehicle_type_id":"0","last_reported":1719349670,"current_range_meters":15200,"station_id":"","pricing_plan_id":"cebpf4jnsgd1na2vs0mg"},{"bike_id":"bf709b1a-1e81-4c69-a36a-dfef45d67fee","system_id":"levelo_inurba_marseille","lat":43.337396,"lon":5.374727,"is_reserved":false,"is_disabled":false,"rental_uris":{"android":"levelo://app?vid=bf709b1a-1e81-4c69-a36a-dfef45d67fee","ios":"levelo://app?vid=bf709b1a-1e81-4c69-a36a-dfef45d67fee"},"vehicle_type_id":"4","last_reported":1719349670,"current_range_meters":22000,"station_id":"","pricing_plan_id":"cebpf4jnsgd1na2vs0mg"},{"bike_id":"cbff8e2e-87ad-4d9e-a09d-9b1fba1c0aeb","system_id":"levelo_inurba_marseille","lat":43.337406,"lon":5.374683,"is_reserved":false,"is_disabled":false,"rental_uris":{"android":"levelo://app?vid=cbff8e2e-87ad-4d9e-a09d-9b1fba1c0aeb","ios":"levelo://app?vid=cbff8e2e-87ad-4d9e-a09d-9b1fba1c0aeb"},"vehicle_type_id":"0","last_reported":1719349670,"current_range_meters":21600,"station_id":"","pricing_plan_id":"cebpf4jnsgd1na2vs0mg"},{"bike_id":"11da98ef-d0c3-43c2-a7e4-890f2c23ccbc","system_id":"levelo_inurba_marseille","lat":43.337415,"lon":5.374645,"is_reserved":false,"is_disabled":false,"rental_uris":{"android":"levelo://app?vid=11da98ef-d0c3-43c2-a7e4-890f2c23ccbc","ios":"levelo://app?vid=11da98ef-d0c3-43c2-a7e4-890f2c23ccbc"},"vehicle_type_id":"4","last_reported":1719349670,"current_range_meters":15600,"station_id":"","pricing_plan_id":"cebpf4jnsgd1na2vs0mg"},{"bike_id":"9b81675f-44cd-4cbe-9733-2d36a516d8f7","system_id":"levelo_inurba_marseille","lat":43.337414,"lon":5.374701,"is_reserved":false,"is_disabled":false,"rental_uris":{"android":"levelo://app?vid=9b81675f-44cd-4cbe-9733-2d36a516d8f7","ios":"levelo://app?vid=9b81675f-44cd-4cbe-9733-2d36a516d8f7"},"vehicle_type_id":"0","last_reported":1719349670,"current_range_meters":23200,"station_id":"","pricing_plan_id":"cebpf4jnsgd1na2vs0mg"},{"bike_id":"3aee49bc-6005-47f0-8d87-533cb129d5c4","system_id":"levelo_inurba_marseille","lat":43.309371,"lon":5.401449,"is_reserved":false,"is_disabled":false,"rental_uris":{"android":"levelo://app?vid=3aee49bc-6005-47f0-8d87-533cb129d5c4","ios":"levelo://app?vid=3aee49bc-6005-47f0-8d87-533cb129d5c4"},"vehicle_type_id":"4","last_reported":1719349670,"current_range_meters":6000,"station_id":"ce4bgvp2rcd13ifvqct0","pricing_plan_id":"cebpf4jnsgd1na2vs0mg"},{"bike_id":"20626a48-ddb6-4b45-97c4-dfb09d3171d8","system_id":"levelo_inurba_marseille","lat":43.309371,"lon":5.401449,"is_reserved":false,"is_disabled":false,"rental_uris":{"android":"levelo://app?vid=20626a48-ddb6-4b45-97c4-dfb09d3171d8","ios":"levelo://app?vid=20626a48-ddb6-4b45-97c4-dfb09d3171d8"},"vehicle_type_id":"4","last_reported":1719349670,"current_range_meters":0,"station_id":"ce4bgvp2rcd13ifvqct0","pricing_plan_id":"cebpf4jnsgd1na2vs0mg"},{"bike_id":"2a0fb516-a307-4861-b129-104556c40f00","system_id":"levelo_inurba_marseille","lat":43.337429,"lon":5.374659,"is_reserved":false,"is_disabled":false,"rental_uris":{"android":"levelo://app?vid=2a0fb516-a307-4861-b129-104556c40f00","ios":"levelo://app?vid=2a0fb516-a307-4861-b129-104556c40f00"},"vehicle_type_id":"0","last_reported":1719349670,"current_range_meters":13600,"station_id":"","pricing_plan_id":"cebpf4jnsgd1na2vs0mg"},{"bike_id":"a02d2fd3-f401-4d61-ae41-297fd2281190","system_id":"levelo_inurba_marseille","lat":43.3093,"lon":5.40147,"is_reserved":false,"is_disabled":false,"rental_uris":{"android":"levelo://app?vid=a02d2fd3-f401-4d61-ae41-297fd2281190","ios":"levelo://app?vid=a02d2fd3-f401-4d61-ae41-297fd2281190"},"vehicle_type_id":"4","last_reported":1719349670,"current_range_meters":14000,"station_id":"ce4bgvp2rcd13ifvqct0","pricing_plan_id":"cebpf4jnsgd1na2vs0mg"},{"bike_id":"da738374-e31e-4f0c-b3a7-73bef2992083","system_id":"levelo_inurba_marseille","lat":43.309371,"lon":5.401449,"is_reserved":false,"is_disabled":false,"rental_uris":{"android":"levelo://app?vid=da738374-e31e-4f0c-b3a7-73bef2992083","ios":"levelo://app?vid=da738374-e31e-4f0c-b3a7-73bef2992083"},"vehicle_type_id":"4","last_reported":1719349670,"current_range_meters":16800,"station_id":"ce4bgvp2rcd13ifvqct0","pricing_plan_id":"cebpf4jnsgd1na2vs0mg"},{"bike_id":"f867320b-b3ee-4d44-8ef3-37d72db21942","system_id":"levelo_inurba_marseille","lat":43.33754,"lon":5.37456,"is_reserved":false,"is_disabled":false,"rental_uris":{"android":"levelo://app?vid=f867320b-b3ee-4d44-8ef3-37d72db21942","ios":"levelo://app?vid=f867320b-b3ee-4d44-8ef3-37d72db21942"},"vehicle_type_id":"4","last_reported":1719349670,"current_range_meters":25200,"station_id":"","pricing_plan_id":"cebpf4jnsgd1na2vs0mg"},{"bike_id":"4cc1275e-a0b7-4657-afab-0ac4d0824ff2","system_id":"levelo_inurba_marseille","lat":43.306412,"lon":5.401035,"is_reserved":false,"is_disabled":false,"rental_uris":{"android":"levelo://app?vid=4cc1275e-a0b7-4657-afab-0ac4d0824ff2","ios":"levelo://app?vid=4cc1275e-a0b7-4657-afab-0ac4d0824ff2"},"vehicle_type_id":"4","last_reported":1719349670,"current_range_meters":20000,"station_id":"ce4bh112rcd13ifvqda0","pricing_plan_id":"cebpf4jnsgd1na2vs0mg"},{"bike_id":"66db5d4a-489e-46e9-b8fe-0712d0d797c1","system_id":"levelo_inurba_marseille","lat":43.30644,"lon":5.40091,"is_reserved":false,"is_disabled":false,"rental_uris":{"android":"levelo://app?vid=66db5d4a-489e-46e9-b8fe-0712d0d797c1","ios":"levelo://app?vid=66db5d4a-489e-46e9-b8fe-0712d0d797c1"},"vehicle_type_id":"4","last_reported":1719349670,"current_range_meters":6400,"station_id":"ce4bh112rcd13ifvqda0","pricing_plan_id":"cebpf4jnsgd1na2vs0mg"},{"bike_id":"322fefe1-3914-487b-9b1e-c8cb7feb04b8","system_id":"levelo_inurba_marseille","lat":43.3064,"lon":5.4009,"is_reserved":false,"is_disabled":false,"rental_uris":{"android":"levelo://app?vid=322fefe1-3914-487b-9b1e-c8cb7feb04b8","ios":"levelo://app?vid=322fefe1-3914-487b-9b1e-c8cb7feb04b8"},"vehicle_type_id":"4","last_reported":1719349670,"current_range_meters":1600,"station_id":"ce4bh112rcd13ifvqda0","pricing_plan_id":"cebpf4jnsgd1na2vs0mg"},{"bike_id":"19c239d3-5a4b-4aff-8085-66266dba085d","system_id":"levelo_inurba_marseille","lat":43.337654,"lon":5.374816,"is_reserved":false,"is_disabled":false,"rental_uris":{"android":"levelo://app?vid=19c239d3-5a4b-4aff-8085-66266dba085d","ios":"levelo://app?vid=19c239d3-5a4b-4aff-8085-66266dba085d"},"vehicle_type_id":"4","last_reported":1719349670,"current_range_meters":30800,"station_id":"","pricing_plan_id":"cebpf4jnsgd1na2vs0mg"},{"bike_id":"db52029b-d9c2-48bc-88d6-838526b327cb","system_id":"levelo_inurba_marseille","lat":43.306412,"lon":5.401035,"is_reserved":false,"is_disabled":false,"rental_uris":{"android":"levelo://app?vid=db52029b-d9c2-48bc-88d6-838526b327cb","ios":"levelo://app?vid=db52029b-d9c2-48bc-88d6-838526b327cb"},"vehicle_type_id":"4","last_reported":1719349670,"current_range_meters":24800,"station_id":"ce4bh112rcd13ifvqda0","pricing_plan_id":"cebpf4jnsgd1na2vs0mg"},{"bike_id":"7e7153ed-cc57-4c15-8eb8-836dfffb192a","system_id":"levelo_inurba_marseille","lat":43.306412,"lon":5.401035,"is_reserved":false,"is_disabled":false,"rental_uris":{"android":"levelo://app?vid=7e7153ed-cc57-4c15-8eb8-836dfffb192a","ios":"levelo://app?vid=7e7153ed-cc57-4c15-8eb8-836dfffb192a"},"vehicle_type_id":"4","last_reported":1719349670,"current_range_meters":3600,"station_id":"ce4bh112rcd13ifvqda0","pricing_plan_id":"cebpf4jnsgd1na2vs0mg"},{"bike_id":"4e960f84-c396-44c3-bd44-7eef9a803904","system_id":"levelo_inurba_marseille","lat":43.306412,"lon":5.401035,"is_reserved":false,"is_disabled":false,"rental_uris":{"android":"levelo://app?vid=4e960f84-c396-44c3-bd44-7eef9a803904","ios":"levelo://app?vid=4e960f84-c396-44c3-bd44-7eef9a803904"},"vehicle_type_id":"4","last_reported":1719349670,"current_range_meters":10800,"station_id":"ce4bh112rcd13ifvqda0","pricing_plan_id":"cebpf4jnsgd1na2vs0mg"},{"bike_id":"4e161393-e580-450f-a9a0-0ae3e195c63a","system_id":"levelo_inurba_marseille","lat":43.28727,"lon":5.36078,"is_reserved":false,"is_disabled":false,"rental_uris":{"android":"levelo://app?vid=4e161393-e580-450f-a9a0-0ae3e195c63a","ios":"levelo://app?vid=4e161393-e580-450f-a9a0-0ae3e195c63a"},"vehicle_type_id":"4","last_reported":1719349670,"current_range_meters":8400,"station_id":"cki0cbj6b192h4jlfktg","pricing_plan_id":"cebpf4jnsgd1na2vs0mg"},{"bike_id":"faa0a369-66bd-4b5d-8513-52bbf37e575a","system_id":"levelo_inurba_marseille","lat":43.28727,"lon":5.36078,"is_reserved":false,"is_disabled":false,"rental_uris":{"android":"levelo://app?vid=faa0a369-66bd-4b5d-8513-52bbf37e575a","ios":"levelo://app?vid=faa0a369-66bd-4b5d-8513-52bbf37e575a"},"vehicle_type_id":"4","last_reported":1719349670,"current_range_meters":16400,"station_id":"cki0cbj6b192h4jlfktg","pricing_plan_id":"cebpf4jnsgd1na2vs0mg"},{"bike_id":"56de231d-7a6a-4959-9946-2978fa52f748","system_id":"levelo_inurba_marseille","lat":43.28727,"lon":5.36078,"is_reserved":false,"is_disabled":false,"rental_uris":{"android":"levelo://app?vid=56de231d-7a6a-4959-9946-2978fa52f748","ios":"levelo://app?vid=56de231d-7a6a-4959-9946-2978fa52f748"},"vehicle_type_id":"4","last_reported":1719349670,"current_range_meters":18000,"station_id":"cki0cbj6b192h4jlfktg","pricing_plan_id":"cebpf4jnsgd1na2vs0mg"},{"bike_id":"aaa089fa-29ec-4ba0-9d46-2baca2cc8751","system_id":"levelo_inurba_marseille","lat":43.298681,"lon":5.397225,"is_reserved":false,"is_disabled":false,"rental_uris":{"android":"levelo://app?vid=aaa089fa-29ec-4ba0-9d46-2baca2cc8751","ios":"levelo://app?vid=aaa089fa-29ec-4ba0-9d46-2baca2cc8751"},"vehicle_type_id":"4","last_reported":1719349670,"current_range_meters":24000,"station_id":"ce4bh0h2rcd13ifvqd50","pricing_plan_id":"cebpf4jnsgd1na2vs0mg"},{"bike_id":"4effb7bc-c907-48e9-8103-60027c7b72d5","system_id":"levelo_inurba_marseille","lat":43.298681,"lon":5.397225,"is_reserved":false,"is_disabled":false,"rental_uris":{"android":"levelo://app?vid=4effb7bc-c907-48e9-8103-60027c7b72d5","ios":"levelo://app?vid=4effb7bc-c907-48e9-8103-60027c7b72d5"},"vehicle_type_id":"4","last_reported":1719349670,"current_range_meters":6000,"station_id":"ce4bh0h2rcd13ifvqd50","pricing_plan_id":"cebpf4jnsgd1na2vs0mg"},{"bike_id":"c725a0df-8ef3-40e0-99dd-ddc452a9e5bf","system_id":"levelo_inurba_marseille","lat":43.286591,"lon":5.363346,"is_reserved":false,"is_disabled":false,"rental_uris":{"android":"levelo://app?vid=c725a0df-8ef3-40e0-99dd-ddc452a9e5bf","ios":"levelo://app?vid=c725a0df-8ef3-40e0-99dd-ddc452a9e5bf"},"vehicle_type_id":"4","last_reported":1719349670,"current_range_meters":21200,"station_id":"ce4bhah2rcd13ifvqej0","pricing_plan_id":"cebpf4jnsgd1na2vs0mg"},{"bike_id":"63357f15-5aa9-4edb-89ba-e02b57372f45","system_id":"levelo_inurba_marseille","lat":43.29869,"lon":5.39724,"is_reserved":false,"is_disabled":false,"rental_uris":{"android":"levelo://app?vid=63357f15-5aa9-4edb-89ba-e02b57372f45","ios":"levelo://app?vid=63357f15-5aa9-4edb-89ba-e02b57372f45"},"vehicle_type_id":"4","last_reported":1719349670,"current_range_meters":27200,"station_id":"ce4bh0h2rcd13ifvqd50","pricing_plan_id":"cebpf4jnsgd1na2vs0mg"},{"bike_id":"277dbe4e-e4d1-4d81-8619-f14ce9b5ef87","system_id":"levelo_inurba_marseille","lat":43.286961,"lon":5.373785,"is_reserved":false,"is_disabled":false,"rental_uris":{"android":"levelo://app?vid=277dbe4e-e4d1-4d81-8619-f14ce9b5ef87","ios":"levelo://app?vid=277dbe4e-e4d1-4d81-8619-f14ce9b5ef87"},"vehicle_type_id":"4","last_reported":1719349670,"current_range_meters":4000,"station_id":"ce4bh3p2rcd13ifvqdq0","pricing_plan_id":"cebpf4jnsgd1na2vs0mg"},{"bike_id":"822676aa-5862-4cf2-a86d-50b209442036","system_id":"levelo_inurba_marseille","lat":43.298681,"lon":5.397225,"is_reserved":false,"is_disabled":false,"rental_uris":{"android":"levelo://app?vid=822676aa-5862-4cf2-a86d-50b209442036","ios":"levelo://app?vid=822676aa-5862-4cf2-a86d-50b209442036"},"vehicle_type_id":"4","last_reported":1719349670,"current_range_meters":14400,"station_id":"ce4bh0h2rcd13ifvqd50","pricing_plan_id":"cebpf4jnsgd1na2vs0mg"},{"bike_id":"dd39cb3c-76f9-4a9a-a7f1-8d330009022e","system_id":"levelo_inurba_marseille","lat":43.286591,"lon":5.363346,"is_reserved":false,"is_disabled":false,"rental_uris":{"android":"levelo://app?vid=dd39cb3c-76f9-4a9a-a7f1-8d330009022e","ios":"levelo://app?vid=dd39cb3c-76f9-4a9a-a7f1-8d330009022e"},"vehicle_type_id":"4","last_reported":1719349670,"current_range_meters":13200,"station_id":"ce4bhah2rcd13ifvqej0","pricing_plan_id":"cebpf4jnsgd1na2vs0mg"},{"bike_id":"e6af916d-9fc6-45fd-8961-dada53bb021a","system_id":"levelo_inurba_marseille","lat":43.298681,"lon":5.397225,"is_reserved":false,"is_disabled":false,"rental_uris":{"android":"levelo://app?vid=e6af916d-9fc6-45fd-8961-dada53bb021a","ios":"levelo://app?vid=e6af916d-9fc6-45fd-8961-dada53bb021a"},"vehicle_type_id":"4","last_reported":1719349670,"current_range_meters":25200,"station_id":"ce4bh0h2rcd13ifvqd50","pricing_plan_id":"cebpf4jnsgd1na2vs0mg"},{"bike_id":"6ecc65de-be7b-4a65-bf85-637f433a056f","system_id":"levelo_inurba_marseille","lat":43.286591,"lon":5.363346,"is_reserved":false,"is_disabled":false,"rental_uris":{"android":"levelo://app?vid=6ecc65de-be7b-4a65-bf85-637f433a056f","ios":"levelo://app?vid=6ecc65de-be7b-4a65-bf85-637f433a056f"},"vehicle_type_id":"4","last_reported":1719349670,"current_range_meters":24400,"station_id":"ce4bhah2rcd13ifvqej0","pricing_plan_id":"cebpf4jnsgd1na2vs0mg"},{"bike_id":"3faf5b3d-c463-4417-bdff-50d710965ca4","system_id":"levelo_inurba_marseille","lat":43.286591,"lon":5.363346,"is_reserved":false,"is_disabled":false,"rental_uris":{"android":"levelo://app?vid=3faf5b3d-c463-4417-bdff-50d710965ca4","ios":"levelo://app?vid=3faf5b3d-c463-4417-bdff-50d710965ca4"},"vehicle_type_id":"4","last_reported":1719349670,"current_range_meters":15600,"station_id":"ce4bhah2rcd13ifvqej0","pricing_plan_id":"cebpf4jnsgd1na2vs0mg"},{"bike_id":"f293968d-746f-413d-bb67-23610b0f6229","system_id":"levelo_inurba_marseille","lat":43.286593,"lon":5.363346,"is_reserved":false,"is_disabled":false,"rental_uris":{"android":"levelo://app?vid=f293968d-746f-413d-bb67-23610b0f6229","ios":"levelo://app?vid=f293968d-746f-413d-bb67-23610b0f6229"},"vehicle_type_id":"4","last_reported":1719349670,"current_range_meters":24800,"station_id":"ce4bhah2rcd13ifvqej0","pricing_plan_id":"cebpf4jnsgd1na2vs0mg"},{"bike_id":"6d7cb14e-d5bf-48e2-822f-140225e1bac9","system_id":"levelo_inurba_marseille","lat":43.286591,"lon":5.363346,"is_reserved":false,"is_disabled":false,"rental_uris":{"android":"levelo://app?vid=6d7cb14e-d5bf-48e2-822f-140225e1bac9","ios":"levelo://app?vid=6d7cb14e-d5bf-48e2-822f-140225e1bac9"},"vehicle_type_id":"4","last_reported":1719349670,"current_range_meters":12000,"station_id":"ce4bhah2rcd13ifvqej0","pricing_plan_id":"cebpf4jnsgd1na2vs0mg"},{"bike_id":"2c27db0d-4323-4426-8520-ea6529626238","system_id":"levelo_inurba_marseille","lat":43.28662,"lon":5.363487,"is_reserved":false,"is_disabled":false,"rental_uris":{"android":"levelo://app?vid=2c27db0d-4323-4426-8520-ea6529626238","ios":"levelo://app?vid=2c27db0d-4323-4426-8520-ea6529626238"},"vehicle_type_id":"4","last_reported":1719349670,"current_range_meters":28800,"station_id":"ce4bhah2rcd13ifvqej0","pricing_plan_id":"cebpf4jnsgd1na2vs0mg"},{"bike_id":"d45d449a-6996-44bc-84ca-9af6f55d1322","system_id":"levelo_inurba_marseille","lat":43.28661,"lon":5.36354,"is_reserved":false,"is_disabled":false,"rental_uris":{"android":"levelo://app?vid=d45d449a-6996-44bc-84ca-9af6f55d1322","ios":"levelo://app?vid=d45d449a-6996-44bc-84ca-9af6f55d1322"},"vehicle_type_id":"4","last_reported":1719349670,"current_range_meters":6800,"station_id":"ce4bhah2rcd13ifvqej0","pricing_plan_id":"cebpf4jnsgd1na2vs0mg"},{"bike_id":"9197da40-16ca-438d-8608-1c5359165510","system_id":"levelo_inurba_marseille","lat":43.286593,"lon":5.363346,"is_reserved":false,"is_disabled":false,"rental_uris":{"android":"levelo://app?vid=9197da40-16ca-438d-8608-1c5359165510","ios":"levelo://app?vid=9197da40-16ca-438d-8608-1c5359165510"},"vehicle_type_id":"4","last_reported":1719349670,"current_range_meters":30000,"station_id":"ce4bhah2rcd13ifvqej0","pricing_plan_id":"cebpf4jnsgd1na2vs0mg"},{"bike_id":"2c638ab5-9853-46de-8fb6-78132a23a47d","system_id":"levelo_inurba_marseille","lat":43.286961,"lon":5.373785,"is_reserved":false,"is_disabled":false,"rental_uris":{"android":"levelo://app?vid=2c638ab5-9853-46de-8fb6-78132a23a47d","ios":"levelo://app?vid=2c638ab5-9853-46de-8fb6-78132a23a47d"},"vehicle_type_id":"4","last_reported":1719349670,"current_range_meters":23200,"station_id":"ce4bh3p2rcd13ifvqdq0","pricing_plan_id":"cebpf4jnsgd1na2vs0mg"},{"bike_id":"b191e467-025a-448c-8b5c-85e0eb14ee72","system_id":"levelo_inurba_marseille","lat":43.286961,"lon":5.373785,"is_reserved":false,"is_disabled":false,"rental_uris":{"android":"levelo://app?vid=b191e467-025a-448c-8b5c-85e0eb14ee72","ios":"levelo://app?vid=b191e467-025a-448c-8b5c-85e0eb14ee72"},"vehicle_type_id":"4","last_reported":1719349670,"current_range_meters":7200,"station_id":"ce4bh3p2rcd13ifvqdq0","pricing_plan_id":"cebpf4jnsgd1na2vs0mg"},{"bike_id":"43917f22-3a6b-46ee-8a12-e7b5bee46adb","system_id":"levelo_inurba_marseille","lat":43.286961,"lon":5.373785,"is_reserved":false,"is_disabled":false,"rental_uris":{"android":"levelo://app?vid=43917f22-3a6b-46ee-8a12-e7b5bee46adb","ios":"levelo://app?vid=43917f22-3a6b-46ee-8a12-e7b5bee46adb"},"vehicle_type_id":"4","last_reported":1719349670,"current_range_meters":0,"station_id":"ce4bh3p2rcd13ifvqdq0","pricing_plan_id":"cebpf4jnsgd1na2vs0mg"},{"bike_id":"b7b5fc6a-2ba2-489b-a832-07b2dddc688b","system_id":"levelo_inurba_marseille","lat":43.28692,"lon":5.37386,"is_reserved":false,"is_disabled":false,"rental_uris":{"android":"levelo://app?vid=b7b5fc6a-2ba2-489b-a832-07b2dddc688b","ios":"levelo://app?vid=b7b5fc6a-2ba2-489b-a832-07b2dddc688b"},"vehicle_type_id":"4","last_reported":1719349670,"current_range_meters":22400,"station_id":"ce4bh3p2rcd13ifvqdq0","pricing_plan_id":"cebpf4jnsgd1na2vs0mg"},{"bike_id":"aec8f8fe-56b2-41ea-a2b2-cf56d5add8a2","system_id":"levelo_inurba_marseille","lat":43.289307,"lon":5.38406,"is_reserved":false,"is_disabled":false,"rental_uris":{"android":"levelo://app?vid=aec8f8fe-56b2-41ea-a2b2-cf56d5add8a2","ios":"levelo://app?vid=aec8f8fe-56b2-41ea-a2b2-cf56d5add8a2"},"vehicle_type_id":"4","last_reported":1719349670,"current_range_meters":14400,"station_id":"ce4bh612rcd13ifvqe6g","pricing_plan_id":"cebpf4jnsgd1na2vs0mg"},{"bike_id":"1744a9b8-270b-48b4-a0d6-e4145ac6c893","system_id":"levelo_inurba_marseille","lat":43.30247,"lon":5.40065,"is_reserved":false,"is_disabled":false,"rental_uris":{"android":"levelo://app?vid=1744a9b8-270b-48b4-a0d6-e4145ac6c893","ios":"levelo://app?vid=1744a9b8-270b-48b4-a0d6-e4145ac6c893"},"vehicle_type_id":"4","last_reported":1719349670,"current_range_meters":5200,"station_id":"ce4bgvh2rcd13ifvqcs0","pricing_plan_id":"cebpf4jnsgd1na2vs0mg"},{"bike_id":"79f59387-c26d-4f08-a43d-1531a07bfedd","system_id":"levelo_inurba_marseille","lat":43.28616,"lon":5.37057,"is_reserved":false,"is_disabled":false,"rental_uris":{"android":"levelo://app?vid=79f59387-c26d-4f08-a43d-1531a07bfedd","ios":"levelo://app?vid=79f59387-c26d-4f08-a43d-1531a07bfedd"},"vehicle_type_id":"4","last_reported":1719349670,"current_range_meters":30800,"station_id":"ce4bht12rcd13ifvqi60","pricing_plan_id":"cebpf4jnsgd1na2vs0mg"},