{"last_updated":1690560511,"ttl":30,"version":"2.2","data":{"bikes":[{"bike_id":"8921ec7d-f569-478a-bebd-6b8a43e68a3f","system_id":"levelo_inurba_marseille","lat":43.31223,"lon":5.3686,"is_reserved":false,"is_disabled":false,"rental_uris":{"android":"levelo://app?vid=8921ec7d-f569-478a-bebd-6b8a43e68a3f","ios":"levelo://app?vid=8921ec7d-f569-478a-bebd-6b8a43e68a3f"},"vehicle_type_id":"4","last_reported":1690560513,"current_range_meters":19200,"station_id":"ce4bgl92rcd13ifvqbq0","pricing_plan_id":"free"},{"bike_id":"e526d4e2-849c-44ae-a0d7-5572a62df909","system_id":"levelo_inurba_marseille","lat":43.312239,"lon":5.368562,"is_reserved":false,"is_disabled":false,"rental_uris":{"android":"levelo://app?vid=e526d4e2-849c-44ae-a0d7-5572a62df909","ios":"levelo://app?vid=e526d4e2-849c-44ae-a0d7-5572a62df909"},"vehicle_type_id":"4","last_reported":1690560513,"current_range_meters":31600,"station_id":"ce4bgl92rcd13ifvqbq0","pricing_plan_id":"free"},{"bike_id":"94f6579a-6918-4dd8-b72d-1b93cc0e36be","system_id":"levelo_inurba_marseille","lat":43.309076,"lon":5.368465,"is_reserved":false,"is_disabled":false,"rental_uris":{"android":"levelo://app?vid=94f6579a-6918-4dd8-b72d-1b93cc0e36be","ios":"levelo://app?vid=94f6579a-6918-4dd8-b72d-1b93cc0e36be"},"vehicle_type_id":"4","last_reported":1690560513,"current_range_meters":12800,"station_id":"ce4bgn92rcd13ifvqbvg","pricing_plan_id":"free"},{"bike_id":"27ec7b46-3530-478c-bae0-ee788957b520","system_id":"levelo_inurba_marseille","lat":43.314811,"lon":5.373103,"is_reserved":false,"is_disabled":false,"rental_uris":{"android":"levelo://app?vid=27ec7b46-3530-478c-bae0-ee788957b520","ios":"levelo://app?vid=27ec7b46-3530-478c-bae0-ee788957b520"},"vehicle_type_id":"4","last_reported":1690560513,"current_range_meters":31200,"station_id":"ce4bgt12rcd13ifvqcd0","pricing_plan_id":"free"},{"bike_id":"f688cb07-6a23-4877-8004-8ed1ccb71172","system_id":"levelo_inurba_marseille","lat":43.3148,"lon":5.37305,"is_reserved":false,"is_disabled":false,"rental_uris":{"android":"levelo://app?vid=f688cb07-6a23-4877-8004-8ed1ccb71172","ios":"levelo://app?vid=f688cb07-6a23-4877-8004-8ed1ccb71172"},"vehicle_type_id":"4","last_reported":1690560513,"current_range_meters":31600,"station_id":"","pricing_plan_id":"free"},{"bike_id":"7a7b855e-8c83-4f3e-896d-b14cd90614ac","system_id":"levelo_inurba_marseille","lat":43.314811,"lon":5.373104,"is_reserved":false,"is_disabled":false,"rental_uris":{"android":"levelo://app?vid=7a7b855e-8c83-4f3e-896d-b14cd90614ac","ios":"levelo://app?vid=7a7b855e-8c83-4f3e-896d-b14cd90614ac"},"vehicle_type_id":"4","last_reported":1690560513,"current_range_meters":26800,"station_id":"ce4bgt12rcd13ifvqcd0","pricing_plan_id":"free"},{"bike_id":"566f5ece-d51d-4263-a5de-148b8a2ae4a4","system_id":"levelo_inurba_marseille","lat":43.314811,"lon":5.373103,"is_reserved":false,"is_disabled":false,"rental_uris":{"android":"levelo://app?vid=566f5ece-d51d-4263-a5de-148b8a2ae4a4","ios":"levelo://app?vid=566f5ece-d51d-4263-a5de-148b8a2ae4a4"},"vehicle_type_id":"4","last_reported":1690560513,"current_range_meters":19200,"station_id":"ce4bgt12rcd13ifvqcd0","pricing_plan_id":"free"},{"bike_id":"08280049-f560-4ad7-b020-3d1653614a69","system_id":"levelo_inurba_marseille","lat":43.314811,"lon":5.373103,"is_reserved":false,"is_disabled":false,"rental_uris":{"android":"levelo://app?vid=08280049-f560-4ad7-b020-3d1653614a69","ios":"levelo://app?vid=08280049-f560-4ad7-b020-3d1653614a69"},"vehicle_type_id":"4","last_reported":1690560513,"current_range_meters":25600,"station_id":"ce4bgt12rcd13ifvqcd0","pricing_plan_id":"free"},{"bike_id":"6755d64d-bcd2-4f57-9113-4c508be41006","system_id":"levelo_inurba_marseille","lat":43.314811,"lon":5.373104,"is_reserved":false,"is_disabled":false,"rental_uris":{"android":"levelo://app?vid=6755d64d-bcd2-4f57-9113-4c508be41006","ios":"levelo://app?vid=6755d64d-bcd2-4f57-9113-4c508be41006"},"vehicle_type_id":"4","last_reported":1690560513,"current_range_meters":31200,"station_id":"ce4bgt12rcd13ifvqcd0","pricing_plan_id":"free"},{"bike_id":"14a175d1-43e1-449a-93b5-102db9c55055","system_id":"levelo_inurba_marseille","lat":43.314811,"lon":5.373103,"is_reserved":false,"is_disabled":false,"rental_uris":{"android":"levelo://app?vid=14a175d1-43e1-449a-93b5-102db9c55055","ios":"levelo://app?vid=14a175d1-43e1-449a-93b5-102db9c55055"},"vehicle_type_id":"4","last_reported":1690560513,"current_range_meters":29200,"station_id":"ce4bgt12rcd13ifvqcd0","pricing_plan_id":"free"},{"bike_id":"a67dc363-6981-41cf-9048-de356a454ec5","system_id":"levelo_inurba_marseille","lat":43.314811,"lon":5.373103,"is_reserved":false,"is_disabled":false,"rental_uris":{"android":"levelo://app?vid=a67dc363-6981-41cf-9048-de356a454ec5","ios":"levelo://app?vid=a67dc363-6981-41cf-9048-de356a454ec5"},"vehicle_type_id":"4","last_reported":1690560513,"current_range_meters":15200,"station_id":"ce4bgt12rcd13ifvqcd0","pricing_plan_id":"free"},{"bike_id":"e99631de-3de9-46a6-8056-34408558bb94","system_id":"levelo_inurba_marseille","lat":43.305989,"lon":5.37225,"is_reserved":false,"is_disabled":false,"rental_uris":{"android":"levelo://app?vid=e99631de-3de9-46a6-8056-34408558bb94","ios":"levelo://app?vid=e99631de-3de9-46a6-8056-34408558bb94"},"vehicle_type_id":"4","last_reported":1690560513,"current_range_meters":28400,"station_id":"ce4bgqh2rcd13ifvqc4g","pricing_plan_id":"free"},{"bike_id":"f20ea888-8740-440b-bfeb-8eb2a7c1f652","system_id":"levelo_inurba_marseille","lat":43.305989,"lon":5.37225,"is_reserved":false,"is_disabled":false,"rental_uris":{"android":"levelo://app?vid=f20ea888-8740-440b-bfeb-8eb2a7c1f652","ios":"levelo://app?vid=f20ea888-8740-440b-bfeb-8eb2a7c1f652"},"vehicle_type_id":"4","last_reported":1690560513,"current_range_meters":31200,"station_id":"ce4bgqh2rcd13ifvqc4g","pricing_plan_id":"free"},{"bike_id":"d28dcdd5-1114-4ff1-ae0e-b9daf98661a6","system_id":"levelo_inurba_marseille","lat":43.305989,"lon":5.37225,"is_reserved":false,"is_disabled":false,"rental_uris":{"android":"levelo://app?vid=d28dcdd5-1114-4ff1-ae0e-b9daf98661a6","ios":"levelo://app?vid=d28dcdd5-1114-4ff1-ae0e-b9daf98661a6"},"vehicle_type_id":"4","last_reported":1690560513,"current_range_meters":20800,"station_id":"ce4bgqh2rcd13ifvqc4g","pricing_plan_id":"free"},{"bike_id":"b22df362-d533-4064-873f-ba0ec3eb6ad8","system_id":"levelo_inurba_marseille","lat":43.305989,"lon":5.37225,"is_reserved":false,"is_disabled":false,"rental_uris":{"android":"levelo://app?vid=b22df362-d533-4064-873f-ba0ec3eb6ad8","ios":"levelo://app?vid=b22df362-d533-4064-873f-ba0ec3eb6ad8"},"vehicle_type_id":"4","last_reported":1690560513,"current_range_meters":14800,"station_id":"ce4bgqh2rcd13ifvqc4g","pricing_plan_id":"free"},{"bike_id":"eb2b40d6-a622-4dde-91d2-5882e670e439","system_id":"levelo_inurba_marseille","lat":43.30791,"lon":5.37652,"is_reserved":false,"is_disabled":false,"rental_uris":{"android":"levelo://app?vid=eb2b40d6-a622-4dde-91d2-5882e670e439","ios":"levelo://app?vid=eb2b40d6-a622-4dde-91d2-5882e670e439"},"vehicle_type_id":"4","last_reported":1690560513,"current_range_meters":18800,"station_id":"ce4bgv92rcd13ifvqcq0","pricing_plan_id":"free"},{"bike_id":"205fa035-5d5c-44b5-af1c-1ee89bddfc93","system_id":"levelo_inurba_marseille","lat":43.30786,"lon":5.3765,"is_reserved":false,"is_disabled":false,"rental_uris":{"android":"levelo://app?vid=205fa035-5d5c-44b5-af1c-1ee89bddfc93","ios":"levelo://app?vid=205fa035-5d5c-44b5-af1c-1ee89bddfc93"},"vehicle_type_id":"4","last_reported":1690560513,"current_range_meters":9200,"station_id":"","pricing_plan_id":"free"},{"bike_id":"0814e5f6-f00c-452e-9900-835399e75aca","system_id":"levelo_inurba_marseille","lat":43.307945,"lon":5.376487,"is_reserved":false,"is_disabled":false,"rental_uris":{"android":"levelo://app?vid=0814e5f6-f00c-452e-9900-835399e75aca","ios":"levelo://app?vid=0814e5f6-f00c-452e-9900-835399e75aca"},"vehicle_type_id":"4","last_reported":1690560513,"current_range_meters":24800,"station_id":"ce4bgv92rcd13ifvqcq0","pricing_plan_id":"free"},{"bike_id":"5eb85d80-c06a-4f25-bd81-c53b2d295275","system_id":"levelo_inurba_marseille","lat":43.307945,"lon":5.376487,"is_reserved":false,"is_disabled":false,"rental_uris":{"android":"levelo://app?vid=5eb85d80-c06a-4f25-bd81-c53b2d295275","ios":"levelo://app?vid=5eb85d80-c06a-4f25-bd81-c53b2d295275"},"vehicle_type_id":"4","last_reported":1690560513,"current_range_meters":26800,"station_id":"ce4bgv92rcd13ifvqcq0","pricing_plan_id":"free"},{"bike_id":"c47c7af5-8140-46a3-a11e-4fb7fb0ab5cc","system_id":"levelo_inurba_marseille","lat":43.30779,"lon":5.37656,"is_reserved":false,"is_disabled":false,"rental_uris":{"android":"levelo://app?vid=c47c7af5-8140-46a3-a11e-4fb7fb0ab5cc","ios":"levelo://app?vid=c47c7af5-8140-46a3-a11e-4fb7fb0ab5cc"},"vehicle_type_id":"4","last_reported":1690560513,"current_range_meters":17600,"station_id":"ce4bgv92rcd13ifvqcq0","pricing_plan_id":"free"},{"bike_id":"9dcf1ae2-99eb-41c8-a9d6-ccef7a60dd1e","system_id":"levelo_inurba_marseille","lat":43.3116,"lon":5.37862,"is_reserved":false,"is_disabled":false,"rental_uris":{"android":"levelo://app?vid=9dcf1ae2-99eb-41c8-a9d6-ccef7a60dd1e","ios":"levelo://app?vid=9dcf1ae2-99eb-41c8-a9d6-ccef7a60dd1e"},"vehicle_type_id":"4","last_reported":1690560513,"current_range_meters":9200,"station_id":"","pricing_plan_id":"free"},{"bike_id":"e16b4d90-eae7-408f-82e9-44c2371cf15d","system_id":"levelo_inurba_marseille","lat":43.317011,"lon":5.377293,"is_reserved":false,"is_disabled":false,"rental_uris":{"android":"levelo://app?vid=e16b4d90-eae7-408f-82e9-44c2371cf15d","ios":"levelo://app?vid=e16b4d90-eae7-408f-82e9-44c2371cf15d"},"vehicle_type_id":"4","last_reported":1690560513,"current_range_meters":29600,"station_id":"","pricing_plan_id":"free"},{"bike_id":"1288a8f6-8aed-4f30-b787-22deaf254165","system_id":"levelo_inurba_marseille","lat":43.317075,"lon":5.377367,"is_reserved":false,"is_disabled":false,"rental_uris":{"android":"levelo://app?vid=1288a8f6-8aed-4f30-b787-22deaf254165","ios":"levelo://app?vid=1288a8f6-8aed-4f30-b787-22deaf254165"},"vehicle_type_id":"4","last_reported":1690560513,"current_range_meters":26000,"station_id":"ce4bgth2rcd13ifvqch0","pricing_plan_id":"free"},{"bike_id":"28423d17-0e84-454b-82b5-2a69e817e7b1","system_id":"levelo_inurba_marseille","lat":43.317075,"lon":5.377367,"is_reserved":false,"is_disabled":false,"rental_uris":{"android":"levelo://app?vid=28423d17-0e84-454b-82b5-2a69e817e7b1","ios":"levelo://app?vid=28423d17-0e84-454b-82b5-2a69e817e7b1"},"vehicle_type_id":"4","last_reported":1690560513,"current_range_meters":27600,"station_id":"ce4bgth2rcd13ifvqch0","pricing_plan_id":"free"},{"bike_id":"542bdd3f-8324-4c52-b635-d451819ed430","system_id":"levelo_inurba_marseille","lat":43.317075,"lon":5.377367,"is_reserved":false,"is_disabled":false,"rental_uris":{"android":"levelo://app?vid=542bdd3f-8324-4c52-b635-d451819ed430","ios":"levelo://app?vid=542bdd3f-8324-4c52-b635-d451819ed430"},"vehicle_type_id":"4","last_reported":1690560513,"current_range_meters":31200,"station_id":"ce4bgth2rcd13ifvqch0","pricing_plan_id":"free"},{"bike_id":"32721d8e-9fea-467d-9101-89d508ef176d","system_id":"levelo_inurba_marseille","lat":43.303046,"lon":5.368981,"is_reserved":false,"is_disabled":false,"rental_uris":{"android":"levelo://app?vid=32721d8e-9fea-467d-9101-89d508ef176d","ios":"levelo://app?vid=32721d8e-9fea-467d-9101-89d508ef176d"},"vehicle_type_id":"4","last_reported":1690560513,"current_range_meters":400,"station_id":"ce4bgqh2rcd13ifvqc5g","pricing_plan_id":"free"},{"bike_id":"e09e3e5a-8ad5-4da6-b86b-95caa3f66e39","system_id":"levelo_inurba_marseille","lat":43.31529,"lon":5.38041,"is_reserved":false,"is_disabled":false,"rental_uris":{"android":"levelo://app?vid=e09e3e5a-8ad5-4da6-b86b-95caa3f66e39","ios":"levelo://app?vid=e09e3e5a-8ad5-4da6-b86b-95caa3f66e39"},"vehicle_type_id":"4","last_reported":1690560513,"current_range_meters":4400,"station_id":"ce4bhsp2rcd13ifvqi50","pricing_plan_id":"free"},{"bike_id":"33a0eccc-dc88-422f-8890-f0d03cd17aa2","system_id":"levelo_inurba_marseille","lat":43.304606,"lon":5.379026,"is_reserved":false,"is_disabled":false,"rental_uris":{"android":"levelo://app?vid=33a0eccc-dc88-422f-8890-f0d03cd17aa2","ios":"levelo://app?vid=33a0eccc-dc88-422f-8890-f0d03cd17aa2"},"vehicle_type_id":"4","last_reported":1690560513,"current_range_meters":21200,"station_id":"ce4bgup2rcd13ifvqcn0","pricing_plan_id":"free"},{"bike_id":"a2e9896a-e7f6-46f6-bd4f-dd4bae4e3b0e","system_id":"levelo_inurba_marseille","lat":43.31995,"lon":5.38166,"is_reserved":false,"is_disabled":false,"rental_uris":{"android":"levelo://app?vid=a2e9896a-e7f6-46f6-bd4f-dd4bae4e3b0e","ios":"levelo://app?vid=a2e9896a-e7f6-46f6-bd4f-dd4bae4e3b0e"},"vehicle_type_id":"4","last_reported":1690560513,"current_range_meters":3600,"station_id":"ce4bhr12rcd13ifvqhpg","pricing_plan_id":"free"},{"bike_id":"86439fb9-4f53-4b03-840d-f71cf6e10d8c","system_id":"levelo_inurba_marseille","lat":43.298433,"lon":5.362774,"is_reserved":false,"is_disabled":false,"rental_uris":{"android":"levelo://app?vid=86439fb9-4f53-4b03-840d-f71cf6e10d8c","ios":"levelo://app?vid=86439fb9-4f53-4b03-840d-f71cf6e10d8c"},"vehicle_type_id":"4","last_reported":1690560513,"current_range_meters":0,"station_id":"ce4bgpp2rcd13ifvqc3g","pricing_plan_id":"free"},{"bike_id":"30537d43-af02-4a10-b928-7b9b8cf633d2","system_id":"levelo_inurba_marseille","lat":43.305364,"lon":5.384119,"is_reserved":false,"is_disabled":false,"rental_uris":{"android":"levelo://app?vid=30537d43-af02-4a10-b928-7b9b8cf633d2","ios":"levelo://app?vid=30537d43-af02-4a10-b928-7b9b8cf633d2"},"vehicle_type_id":"4","last_reported":1690560513,"current_range_meters":30400,"station_id":"ce4bgg92rcd13ifvqb30","pricing_plan_id":"free"},{"bike_id":"5eed8e70-9b05-4f66-9d2f-015b775a4fb4","system_id":"levelo_inurba_marseille","lat":43.32285,"lon":5.3827,"is_reserved":false,"is_disabled":false,"rental_uris":{"android":"levelo://app?vid=5eed8e70-9b05-4f66-9d2f-015b775a4fb4","ios":"levelo://app?vid=5eed8e70-9b05-4f66-9d2f-015b775a4fb4"},"vehicle_type_id":"4","last_reported":1690560513,"current_range_meters":22800,"station_id":"ce4bhr12rcd13ifvqhqg","pricing_plan_id":"free"},{"bike_id":"fead3f1e-e9e6-4830-9da4-e98cba309113","system_id":"levelo_inurba_marseille","lat":43.32289,"lon":5.38271,"is_reserved":false,"is_disabled":false,"rental_uris":{"android":"levelo://app?vid=fead3f1e-e9e6-4830-9da4-e98cba309113","ios":"levelo://app?vid=fead3f1e-e9e6-4830-9da4-e98cba309113"},"vehicle_type_id":"4","last_reported":1690560513,"current_range_meters":20800,"station_id":"ce4bhr12rcd13ifvqhqg","pricing_plan_id":"free"},{"bike_id":"4687bd85-9ab0-4844-b313-ec4d8c390bbc","system_id":"levelo_inurba_marseille","lat":43.32289,"lon":5.38275,"is_reserved":false,"is_disabled":false,"rental_uris":{"android":"levelo://app?vid=4687bd85-9ab0-4844-b313-ec4d8c390bbc","ios":"levelo://app?vid=4687bd85-9ab0-4844-b313-ec4d8c390bbc"},"vehicle_type_id":"4","last_reported":1690560513,"current_range_meters":31200,"station_id":"ce4bhr12rcd13ifvqhqg","pricing_plan_id":"free"},{"bike_id":"a196dbb0-0ca2-44b0-8b03-b7d3a734d20c","system_id":"levelo_inurba_marseille","lat":43.32294,"lon":5.38269,"is_reserved":false,"is_disabled":false,"rental_uris":{"android":"levelo://app?vid=a196dbb0-0ca2-44b0-8b03-b7d3a734d20c","ios":"levelo://app?vid=a196dbb0-0ca2-44b0-8b03-b7d3a734d20c"},"vehicle_type_id":"4","last_reported":1690560513,"current_range_meters":31200,"station_id":"ce4bhr12rcd13ifvqhqg","pricing_plan_id":"free"},{"bike_id":"82f1e03d-e4c3-4aac-b6f0-c9fc3950fe62","system_id":"levelo_inurba_marseille","lat":43.322929,"lon":5.382715,"is_reserved":false,"is_disabled":false,"rental_uris":{"android":"levelo://app?vid=82f1e03d-e4c3-4aac-b6f0-c9fc3950fe62","ios":"levelo://app?vid=82f1e03d-e4c3-4aac-b6f0-c9fc3950fe62"},"vehicle_type_id":"4","last_reported":1690560513,"current_range_meters":28400,"station_id":"","pricing_plan_id":"free"},{"bike_id":"3641a761-0636-4e0b-b047-72e86565129d","system_id":"levelo_inurba_marseille","lat":43.32297,"lon":5.38269,"is_reserved":false,"is_disabled":false,"rental_uris":{"android":"levelo://app?vid=3641a761-0636-4e0b-b047-72e86565129d","ios":"levelo://app?vid=3641a761-0636-4e0b-b047-72e86565129d"},"vehicle_type_id":"4","last_reported":1690560513,"current_range_meters":31200,"station_id":"ce4bhr12rcd13ifvqhqg","pricing_plan_id":"free"},{"bike_id":"d6a0fed4-cb78-4fef-8536-2b5612ab4427","system_id":"levelo_inurba_marseille","lat":43.32351,"lon":5.38201,"is_reserved":false,"is_disabled":false,"rental_uris":{"android":"levelo://app?vid=d6a0fed4-cb78-4fef-8536-2b5612ab4427","ios":"levelo://app?vid=d6a0fed4-cb78-4fef-8536-2b5612ab4427"},"vehicle_type_id":"4","last_reported":1690560513,"current_range_meters":11600,"station_id":"","pricing_plan_id":"free"},{"bike_id":"79bf6da4-5f08-488b-96b1-6e23f74ec5ec","system_id":"levelo_inurba_marseille","lat":43.32291,"lon":5.38279,"is_reserved":false,"is_disabled":false,"rental_uris":{"android":"levelo://app?vid=79bf6da4-5f08-488b-96b1-6e23f74ec5ec","ios":"levelo://app?vid=79bf6da4-5f08-488b-96b1-6e23f74ec5ec"},"vehicle_type_id":"4","last_reported":1690560513,"current_range_meters":20000,"station_id":"ce4bhr12rcd13ifvqhqg","pricing_plan_id":"free"},{"bike_id":"25ade45d-b420-4f6e-9a61-a6fb26eedcd0","system_id":"levelo_inurba_marseille","lat":43.32827,"lon":5.36691,"is_reserved":false,"is_disabled":false,"rental_uris":{"android":"levelo://app?vid=25ade45d-b420-4f6e-9a61-a6fb26eedcd0","ios":"levelo://app?vid=25ade45d-b420-4f6e-9a61-a6fb26eedcd0"},"vehicle_type_id":"4","last_reported":1690560513,"current_range_meters":0,"station_id":"ce4bhs92rcd13ifvqi0g","pricing_plan_id":"free"},{"bike_id":"dd789220-e7b5-42c1-b9dc-dc4243148021","system_id":"levelo_inurba_marseille","lat":43.297163,"lon":5.365866,"is_reserved":false,"is_disabled":false,"rental_uris":{"android":"levelo://app?vid=dd789220-e7b5-42c1-b9dc-dc4243148021","ios":"levelo://app?vid=dd789220-e7b5-42c1-b9dc-dc4243148021"},"vehicle_type_id":"4","last_reported":1690560513,"current_range_meters":31200,"station_id":"ce4bgn12rcd13ifvqbt0","pricing_plan_id":"free"},{"bike_id":"c95a2fd1-76d3-4785-b662-52d3eb1cb971","system_id":"levelo_inurba_marseille","lat":43.32832,"lon":5.36674,"is_reserved":false,"is_disabled":false,"rental_uris":{"android":"levelo://app?vid=c95a2fd1-76d3-4785-b662-52d3eb1cb971","ios":"levelo://app?vid=c95a2fd1-76d3-4785-b662-52d3eb1cb971"},"vehicle_type_id":"4","last_reported":1690560513,"current_range_meters":30000,"station_id":"ce4bhs92rcd13ifvqi0g","pricing_plan_id":"free"},{"bike_id":"afc70fcf-e90e-438e-86d8-43d97d65eda5","system_id":"levelo_inurba_marseille","lat":43.29573,"lon":5.367355,"is_reserved":false,"is_disabled":false,"rental_uris":{"android":"levelo://app?vid=afc70fcf-e90e-438e-86d8-43d97d65eda5","ios":"levelo://app?vid=afc70fcf-e90e-438e-86d8-43d97d65eda5"},"vehicle_type_id":"4","last_reported":1690560513,"current_range_meters":10800,"station_id":"ce4bgph2rcd13ifvqc2g","pricing_plan_id":"free"},{"bike_id":"dbf37558-4c92-4e9d-88b8-71e52f26b51d","system_id":"levelo_inurba_marseille","lat":43.29573,"lon":5.367355,"is_reserved":false,"is_disabled":false,"rental_uris":{"android":"levelo://app?vid=dbf37558-4c92-4e9d-88b8-71e52f26b51d","ios":"levelo://app?vid=dbf37558-4c92-4e9d-88b8-71e52f26b51d"},"vehicle_type_id":"4","last_reported":1690560513,"current_range_meters":14000,"station_id":"ce4bgph2rcd13ifvqc2g","pricing_plan_id":"free"},{"bike_id":"6e4a898d-b19d-4901-bd16-e36fd51ffcc9","system_id":"levelo_inurba_marseille","lat":43.29573,"lon":5.367355,"is_reserved":false,"is_disabled":false,"rental_uris":{"android":"levelo://app?vid=6e4a898d-b19d-4901-bd16-e36fd51ffcc9","ios":"levelo://app?vid=6e4a898d-b19d-4901-bd16-e36fd51ffcc9"},"vehicle_type_id":"4","last_reported":1690560513,"current_range_meters":8400,"station_id":"ce4bgph2rcd13ifvqc2g","pricing_plan_id":"free"},{"bike_id":"a2c1a5f6-e5c7-4535-983a-130200d1ee59","system_id":"levelo_inurba_marseille","lat":43.297203,"lon":5.376971,"is_reserved":false,"is_disabled":false,"rental_uris":{"android":"levelo://app?vid=a2c1a5f6-e5c7-4535-983a-130200d1ee59","ios":"levelo://app?vid=a2c1a5f6-e5c7-4535-983a-130200d1ee59"},"vehicle_type_id":"4","last_reported":1690560513,"current_range_meters":22800,"station_id":"","pricing_plan_id":"free"},{"bike_id":"80996baf-8597-4552-b66a-a0139bedf903","system_id":"levelo_inurba_marseille","lat":43.309502,"lon":5.390365,"is_reserved":false,"is_disabled":false,"rental_uris":{"android":"levelo://app?vid=80996baf-8597-4552-b66a-a0139bedf903","ios":"levelo://app?vid=80996baf-8597-4552-b66a-a0139bedf903"},"vehicle_type_id":"4","last_reported":1690560513,"current_range_meters":6000,"station_id":"","pricing_plan_id":"free"},{"bike_id":"f0b1921d-8fc5-42f6-8214-26455e772ce5","system_id":"levelo_inurba_marseille","lat":43.309589,"lon":5.390258,"is_reserved":false,"is_disabled":false,"rental_uris":{"android":"levelo://app?vid=f0b1921d-8fc5-42f6-8214-26455e772ce5","ios":"levelo://app?vid=f0b1921d-8fc5-42f6-8214-26455e772ce5"},"vehicle_type_id":"4","last_reported":1690560513,"current_range_meters":28000,"station_id":"ce4bgup2rcd13ifvqco0","pricing_plan_id":"free"},{"bike_id":"a0f12647-7595-4ad3-af95-b1d986330f80","system_id":"levelo_inurba_marseille","lat":43.317557,"lon":5.390173,"is_reserved":false,"is_disabled":false,"rental_uris":{"android":"levelo://app?vid=a0f12647-7595-4ad3-af95-b1d986330f80","ios":"levelo://app?vid=a0f12647-7595-4ad3-af95-b1d986330f80"},"vehicle_type_id":"4","last_reported":1690560513,"current_range_meters":14400,"station_id":"ce4bhqp2rcd13ifvqhng","pricing_plan_id":"free"},{"bike_id":"19799d98-a880-4e65-bcc0-36988df15152","system_id":"levelo_inurba_marseille","lat":43.317557,"lon":5.390173,"is_reserved":false,"is_disabled":false,"rental_uris":{"android":"levelo://app?vid=19799d98-a880-4e65-bcc0-36988df15152","ios":"levelo://app?vid=19799d98-a880-4e65-bcc0-36988df15152"},"vehicle_type_id":"4","last_reported":1690560513,"current_range_meters":31200,"station_id":"ce4bhqp2rcd13ifvqhng","pricing_plan_id":"free"},{"bike_id":"4c21200a-f432-4436-87bc-3bae883532ba","system_id":"levelo_inurba_marseille","lat":43.317557,"lon":5.390173,"is_reserved":false,"is_disabled":false,"rental_uris":{"android":"levelo://app?vid=4c21200a-f432-4436-87bc-3bae883532ba","ios":"levelo://app?vid=4c21200a-f432-4436-87bc-3bae883532ba"},"vehicle_type_id":"4","last_reported":1690560513,"current_range_meters":31200,"station_id":"ce4bhqp2rcd13ifvqhng","pricing_plan_id":"free"},{"bike_id":"72157df5-214e-4a97-9eac-aa9798533f8b","system_id":"levelo_inurba_marseille","lat":43.295,"lon":5.36329,"is_reserved":false,"is_disabled":false,"rental_uris":{"android":"levelo://app?vid=72157df5-214e-4a97-9eac-aa9798533f8b","ios":"levelo://app?vid=72157df5-214e-4a97-9eac-aa9798533f8b"},"vehicle_type_id":"4","last_reported":1690560513,"current_range_meters":28000,"station_id":"","pricing_plan_id":"free"},{"bike_id":"111eb17b-8472-4d7e-b474-920dffb35b9f","system_id":"levelo_inurba_marseille","lat":43.295748,"lon":5.37522,"is_reserved":false,"is_disabled":false,"rental_uris":{"android":"levelo://app?vid=111eb17b-8472-4d7e-b474-920dffb35b9f","ios":"levelo://app?vid=111eb17b-8472-4d7e-b474-920dffb35b9f"},"vehicle_type_id":"4","last_reported":1690560513,"current_range_meters":25600,"station_id":"ce4bgh92rcd13ifvqb50","pricing_plan_id":"free"},{"bike_id":"41105cda-0189-482b-8a55-1954137c2218","system_id":"levelo_inurba_marseille","lat":43.295748,"lon":5.37522,"is_reserved":false,"is_disabled":false,"rental_uris":{"android":"levelo://app?vid=41105cda-0189-482b-8a55-1954137c2218","ios":"levelo://app?vid=41105cda-0189-482b-8a55-1954137c2218"},"vehicle_type_id":"4","last_reported":1690560513,"current_range_meters":23600,"station_id":"ce4bgh92rcd13ifvqb50","pricing_plan_id":"free"},{"bike_id":"61dd8d2e-0452-4fc9-94a2-042769422228","system_id":"levelo_inurba_marseille","lat":43.304274,"lon":5.388873,"is_reserved":false,"is_disabled":false,"rental_uris":{"android":"levelo://app?vid=61dd8d2e-0452-4fc9-94a2-042769422228","ios":"levelo://app?vid=61dd8d2e-0452-4fc9-94a2-042769422228"},"vehicle_type_id":"4","last_reported":1690560513,"current_range_meters":27200,"station_id":"ce4bgk12rcd13ifvqbi0","pricing_plan_id":"free"},{"bike_id":"ca92df80-700c-491f-ac6a-9f7d14812f74","system_id":"levelo_inurba_marseille","lat":43.295748,"lon":5.37522,"is_reserved":false,"is_disabled":false,"rental_uris":{"android":"levelo://app?vid=ca92df80-700c-491f-ac6a-9f7d14812f74","ios":"levelo://app?vid=ca92df80-700c-491f-ac6a-9f7d14812f74"},"vehicle_type_id":"4","last_reported":1690560513,"current_range_meters":22000,"station_id":"ce4bgh92rcd13ifvqb50","pricing_plan_id":"free"},{"bike_id":"2f433b4b-992a-4d2b-afbc-3ab5d538de3c","system_id":"levelo_inurba_marseille","lat":43.296277,"lon":5.377108,"is_reserved":false,"is_disabled":false,"rental_uris":{"android":"levelo://app?vid=2f433b4b-992a-4d2b-afbc-3ab5d538de3c","ios":"levelo://app?vid=2f433b4b-992a-4d2b-afbc-3ab5d538de3c"},"vehicle_type_id":"4","last_reported":1690560513,"current_range_meters":24000,"station_id":"ce4bgi92rcd13ifvqb90","pricing_plan_id":"free"},{"bike_id":"6798f6cb-db83-4cae-ba10-bcd97bf717a8","system_id":"levelo_inurba_marseille","lat":43.296263,"lon":5.377094,"is_reserved":false,"is_disabled":false,"rental_uris":{"android":"levelo://app?vid=6798f6cb-db83-4cae-ba10-bcd97bf717a8","ios":"levelo://app?vid=6798f6cb-db83-4cae-ba10-bcd97bf717a8"},"vehicle_type_id":"4","last_reported":1690560513,"current_range_meters":2400,"station_id":"ce4bgi92rcd13ifvqb90","pricing_plan_id":"free"},{"bike_id":"3cd0f79d-c847-4e9d-8b06-a374c810b2a0","system_id":"levelo_inurba_marseille","lat":43.299717,"lon":5.384845,"is_reserved":false,"is_disabled":false,"rental_uris":{"android":"levelo://app?vid=3cd0f79d-c847-4e9d-8b06-a374c810b2a0","ios":"levelo://app?vid=3cd0f79d-c847-4e9d-8b06-a374c810b2a0"},"vehicle_type_id":"4","last_reported":1690560513,"current_range_meters":4400,"station_id":"ce4bgj92rcd13ifvqbd0","pricing_plan_id":"free"},{"bike_id":"906d3d36-614f-4146-8da4-4526bb9bd655","system_id":"levelo_inurba_marseille","lat":43.301117,"lon":5.398795,"is_reserved":false,"is_disabled":false,"rental_uris":{"android":"levelo://app?vid=906d3d36-614f-4146-8da4-4526bb9bd655","ios":"levelo://app?vid=906d3d36-614f-4146-8da4-4526bb9bd655"},"vehicle_type_id":"4","last_reported":1690560513,"current_range_meters":18400,"station_id":"ce4bh0h2rcd13ifvqd40","pricing_plan_id":"free"},{"bike_id":"366aa51c-846b-464d-a22d-0e8328ffc8ec","system_id":"levelo_inurba_marseille","lat":43.293249,"lon":5.371578,"is_reserved":false,"is_disabled":false,"rental_uris":{"android":"levelo://app?vid=366aa51c-846b-464d-a22d-0e8328ffc8ec","ios":"levelo://app?vid=366aa51c-846b-464d-a22d-0e8328ffc8ec"},"vehicle_type_id":"4","last_reported":1690560513,"current_range_meters":0,"station_id":"ce4bgh92rcd13ifvqb40","pricing_plan_id":"free"},{"bike_id":"b35982da-79c6-414b-9ab5-8b4d13d9121a","system_id":"levelo_inurba_marseille","lat":43.305994,"lon":5.393687,"is_reserved":false,"is_disabled":false,"rental_uris":{"android":"levelo://app?vid=b35982da-79c6-414b-9ab5-8b4d13d9121a","ios":"levelo://app?vid=b35982da-79c6-414b-9ab5-8b4d13d9121a"},"vehicle_type_id":"4","last_reported":1690560513,"current_range_meters":27200,"station_id":"ce4bh0p2rcd13ifvqd80","pricing_plan_id":"free"},{"bike_id":"59f80a69-4dfb-4b63-8bc9-3ff5834bed11","system_id":"levelo_inurba_marseille","lat":43.305994,"lon":5.393687,"is_reserved":false,"is_disabled":false,"rental_uris":{"android":"levelo://app?vid=59f80a69-4dfb-4b63-8bc9-3ff5834bed11","ios":"levelo://app?vid=59f80a69-4dfb-4b63-8bc9-3ff5834bed11"},"vehicle_type_id":"4","last_reported":1690560513,"current_range_meters":19600,"station_id":"ce4bh0p2rcd13ifvqd80","pricing_plan_id":"free"},{"bike_id":"9f87e58c-0581-4b7b-8ea7-7435a9a2be91","system_id":"levelo_inurba_marseille","lat":43.305994,"lon":5.393687,"is_reserved":false,"is_disabled":false,"rental_uris":{"android":"levelo://app?vid=9f87e58c-0581-4b7b-8ea7-7435a9a2be91","ios":"levelo://app?vid=9f87e58c-0581-4b7b-8ea7-7435a9a2be91"},"vehicle_type_id":"4","last_reported":1690560513,"current_range_meters":18400,"station_id":"ce4bh0p2rcd13ifvqd80","pricing_plan_id":"free"},{"bike_id":"46d3a899-1262-4226-9400-7e177d6b6d8f","system_id":"levelo_inurba_marseille","lat":43.29272,"lon":5.35978,"is_reserved":false,"is_disabled":false,"rental_uris":{"android":"levelo://app?vid=46d3a899-1262-4226-9400-7e177d6b6d8f","ios":"levelo://app?vid=46d3a899-1262-4226-9400-7e177d6b6d8f"},"vehicle_type_id":"4","last_reported":1690560513,"current_range_meters":30800,"station_id":"","pricing_plan_id":"free"},{"bike_id":"6a15c86b-ffd5-4cbc-9438-0e7a7e14c30e","system_id":"levelo_inurba_marseille","lat":43.29224,"lon":5.3607,"is_reserved":false,"is_disabled":false,"rental_uris":{"android":"levelo://app?vid=6a15c86b-ffd5-4cbc-9438-0e7a7e14c30e","ios":"levelo://app?vid=6a15c86b-ffd5-4cbc-9438-0e7a7e14c30e"},"vehicle_type_id":"4","last_reported":1690560513,"current_range_meters":29200,"station_id":"","pricing_plan_id":"free"},{"bike_id":"b3f0d743-5675-4f61-88b4-58cd11a0d1a4","system_id":"levelo_inurba_marseille","lat":43.292663,"lon":5.376394,"is_reserved":false,"is_disabled":false,"rental_uris":{"android":"levelo://app?vid=b3f0d743-5675-4f61-88b4-58cd11a0d1a4","ios":"levelo://app?vid=b3f0d743-5675-4f61-88b4-58cd11a0d1a4"},"vehicle_type_id":"4","last_reported":1690560513,"current_range_meters":14400,"station_id":"ce4bgi12rcd13ifvqb80","pricing_plan_id":"free"},{"bike_id":"999781a9-9778-4787-a521-6d201c882af5","system_id":"levelo_inurba_marseille","lat":43.313291,"lon":5.396838,"is_reserved":false,"is_disabled":false,"rental_uris":{"android":"levelo://app?vid=999781a9-9778-4787-a521-6d201c882af5","ios":"levelo://app?vid=999781a9-9778-4787-a521-6d201c882af5"},"vehicle_type_id":"4","last_reported":1690560513,"current_range_meters":19200,"station_id":"ce4bgvp2rcd13ifvqcu0","pricing_plan_id":"free"},{"bike_id":"24a084b3-5d2c-45f5-9b22-7a82476c8a8c","system_id":"levelo_inurba_marseille","lat":43.309038,"lon":5.396546,"is_reserved":false,"is_disabled":false,"rental_uris":{"android":"levelo://app?vid=24a084b3-5d2c-45f5-9b22-7a82476c8a8c","ios":"levelo://app?vid=24a084b3-5d2c-45f5-9b22-7a82476c8a8c"},"vehicle_type_id":"4","last_reported":1690560513,"current_range_meters":23200,"station_id":"ce4bh012rcd13ifvqcv0","pricing_plan_id":"free"},{"bike_id":"912876e5-fdef-48db-bd58-001377715843","system_id":"levelo_inurba_marseille","lat":43.313284,"lon":5.396906,"is_reserved":false,"is_disabled":false,"rental_uris":{"android":"levelo://app?vid=912876e5-fdef-48db-bd58-001377715843","ios":"levelo://app?vid=912876e5-fdef-48db-bd58-001377715843"},"vehicle_type_id":"4","last_reported":1690560513,"current_range_meters":27200,"station_id":"ce4bh512rcd13ifvqe2g","pricing_plan_id":"free"},{"bike_id":"18c25a10-fd95-4fdc-81f6-4f2f4f13511c","system_id":"levelo_inurba_marseille","lat":43.31322,"lon":5.39692,"is_reserved":false,"is_disabled":false,"rental_uris":{"android":"levelo://app?vid=18c25a10-fd95-4fdc-81f6-4f2f4f13511c","ios":"levelo://app?vid=18c25a10-fd95-4fdc-81f6-4f2f4f13511c"},"vehicle_type_id":"4","last_reported":1690560513,"current_range_meters":400,"station_id":"ce4bgvp2rcd13ifvqcu0","pricing_plan_id":"free"},{"bike_id":"595f3df9-0d2a-4250-91b9-4728978ce387","system_id":"levelo_inurba_marseille","lat":43.313291,"lon":5.396838,"is_reserved":false,"is_disabled":false,"rental_uris":{"android":"levelo://app?vid=595f3df9-0d2a-4250-91b9-4728978ce387","ios":"levelo://app?vid=595f3df9-0d2a-4250-91b9-4728978ce387"},"vehicle_type_id":"4","last_reported":1690560513,"current_range_meters":25600,"station_id":"ce4bgvp2rcd13ifvqcu0","pricing_plan_id":"free"},{"bike_id":"edfa8426-99b5-4552-b1fc-428974543e5c","system_id":"levelo_inurba_marseille","lat":43.31318,"lon":5.39694,"is_reserved":false,"is_disabled":false,"rental_uris":{"android":"levelo://app?vid=edfa8426-99b5-4552-b1fc-428974543e5c","ios":"levelo://app?vid=edfa8426-99b5-4552-b1fc-428974543e5c"},"vehicle_type_id":"4","last_reported":1690560513,"current_range_meters":23600,"station_id":"ce4bgvp2rcd13ifvqcu0","pricing_plan_id":"free"},{"bike_id":"50608572-1622-406b-8881-b3f769f231db","system_id":"levelo_inurba_marseille","lat":43.313291,"lon":5.396838,"is_reserved":false,"is_disabled":false,"rental_uris":{"android":"levelo://app?vid=50608572-1622-406b-8881-b3f769f231db","ios":"levelo://app?vid=50608572-1622-406b-8881-b3f769f231db"},"vehicle_type_id":"4","last_reported":1690560513,"current_range_meters":29200,"station_id":"ce4bgvp2rcd13ifvqcu0","pricing_plan_id":"free"},{"bike_id":"c1283aae-a5b2-4b88-b6f5-7d7481de71e2","system_id":"levelo_inurba_marseille","lat":43.29427,"lon":5.38315,"is_reserved":false,"is_disabled":false,"rental_uris":{"android":"levelo://app?vid=c1283aae-a5b2-4b88-b6f5-7d7481de71e2","ios":"levelo://app?vid=c1283aae-a5b2-4b88-b6f5-7d7481de71e2"},"vehicle_type_id":"4","last_reported":1690560513,"current_range_meters":13200,"station_id":"","pricing_plan_id":"free"},{"bike_id":"7305f0ae-51cf-4ef4-882d-4aa18b9c8dd4","system_id":"levelo_inurba_marseille","lat":43.31322,"lon":5.39705,"is_reserved":false,"is_disabled":false,"rental_uris":{"android":"levelo://app?vid=7305f0ae-51cf-4ef4-882d-4aa18b9c8dd4","ios":"levelo://app?vid=7305f0ae-51cf-4ef4-882d-4aa18b9c8dd4"},"vehicle_type_id":"4","last_reported":1690560513,"current_range_meters":21200,"station_id":"ce4bgvp2rcd13ifvqcu0","pricing_plan_id":"free"},{"bike_id":"c524e58a-fe57-4ef8-8198-7b76b2b17b7a","system_id":"levelo_inurba_marseille","lat":43.308926,"lon":5.396631,"is_reserved":false,"is_disabled":false,"rental_uris":{"android":"levelo://app?vid=c524e58a-fe57-4ef8-8198-7b76b2b17b7a","ios":"levelo://app?vid=c524e58a-fe57-4ef8-8198-7b76b2b17b7a"},"vehicle_type_id":"4","last_reported":1690560513,"current_range_meters":6000,"station_id":"ce4bgk12rcd13ifvqbi0","pricing_plan_id":"free"},{"bike_id":"79b4a8b5-9081-4e8b-b1a8-5788baeeab74","system_id":"levelo_inurba_marseille","lat":43.309038,"lon":5.396546,"is_reserved":false,"is_disabled":false,"rental_uris":{"android":"levelo://app?vid=79b4a8b5-9081-4e8b-b1a8-5788baeeab74","ios":"levelo://app?vid=79b4a8b5-9081-4e8b-b1a8-5788baeeab74"},"vehicle_type_id":"4","last_reported":1690560513,"current_range_meters":25600,"station_id":"ce4bh012rcd13ifvqcv0","pricing_plan_id":"free"},{"bike_id":"14918274-4207-48fd-9208-cc1107750e9e","system_id":"levelo_inurba_marseille","lat":43.303002,"lon":5.392142,"is_reserved":false,"is_disabled":false,"rental_uris":{"android":"levelo://app?vid=14918274-4207-48fd-9208-cc1107750e9e","ios":"levelo://app?vid=14918274-4207-48fd-9208-cc1107750e9e"},"vehicle_type_id":"4","last_reported":1690560513,"current_range_meters":0,"station_id":"ce4bgkh2rcd13ifvqbk0","pricing_plan_id":"free"},{"bike_id":"d6c418e6-12d2-4863-a44d-d7ab78b1ece0","system_id":"levelo_inurba_marseille","lat":43.2906,"lon":5.37169,"is_reserved":false,"is_disabled":false,"rental_uris":{"android":"levelo://app?vid=d6c418e6-12d2-4863-a44d-d7ab78b1ece0","ios":"levelo://app?vid=d6c418e6-12d2-4863-a44d-d7ab78b1ece0"},"vehicle_type_id":"4","last_reported":1690560513,"current_range_meters":17600,"station_id":"ce4bh5p2rcd13ifvqe4g","pricing_plan_id":"free"},{"bike_id":"7df029ce-fadb-4db9-aef4-1d02d5c888e4","system_id":"levelo_inurba_marseille","lat":43.290624,"lon":5.359245,"is_reserved":false,"is_disabled":false,"rental_uris":{"android":"levelo://app?vid=7df029ce-fadb-4db9-aef4-1d02d5c888e4","ios":"levelo://app?vid=7df029ce-fadb-4db9-aef4-1d02d5c888e4"},"vehicle_type_id":"4","last_reported":1690560513,"current_range_meters":20000,"station_id":"ce4bha92rcd13ifvqeg0","pricing_plan_id":"free"},{"bike_id":"9f397343-a025-451c-b2c3-b049df8102a5","system_id":"levelo_inurba_marseille","lat":43.290631,"lon":5.359244,"is_reserved":false,"is_disabled":false,"rental_uris":{"android":"levelo://app?vid=9f397343-a025-451c-b2c3-b049df8102a5","ios":"levelo://app?vid=9f397343-a025-451c-b2c3-b049df8102a5"},"vehicle_type_id":"4","last_reported":1690560513,"current_range_meters":20000,"station_id":"ce4bha92rcd13ifvqeg0","pricing_plan_id":"free"},{"bike_id":"f5f3c236-c84c-461a-8bf1-8540d1ca2726","system_id":"levelo_inurba_marseille","lat":43.289184,"lon":5.366408,"is_reserved":false,"is_disabled":false,"rental_uris":{"android":"levelo://app?vid=f5f3c236-c84c-461a-8bf1-8540d1ca2726","ios":"levelo://app?vid=f5f3c236-c84c-461a-8bf1-8540d1ca2726"},"vehicle_type_id":"4","last_reported":1690560513,"current_range_meters":14800,"station_id":"ce4bhap2rcd13ifvqek0","pricing_plan_id":"free"},{"bike_id":"67867fd6-acee-4742-be32-48b5ab7b0404","system_id":"levelo_inurba_marseille","lat":43.2941,"lon":5.386257,"is_reserved":false,"is_disabled":false,"rental_uris":{"android":"levelo://app?vid=67867fd6-acee-4742-be32-48b5ab7b0404","ios":"levelo://app?vid=67867fd6-acee-4742-be32-48b5ab7b0404"},"vehicle_type_id":"4","last_reported":1690560513,"current_range_meters":24400,"station_id":"","pricing_plan_id":"free"},{"bike_id":"21776b16-06d3-4b10-ab88-87dd9572dde7","system_id":"levelo_inurba_marseille","lat":43.289468,"lon":5.363719,"is_reserved":false,"is_disabled":false,"rental_uris":{"android":"levelo://app?vid=21776b16-06d3-4b10-ab88-87dd9572dde7","ios":"levelo://app?vid=21776b16-06d3-4b10-ab88-87dd9572dde7"},"vehicle_type_id":"4","last_reported":1690560513,"current_range_meters":21200,"station_id":"ce4bhc92rcd13ifvqetg","pricing_plan_id":"free"},{"bike_id":"6b0fc4d8-95fb-4604-8dad-0ed2b093f129","system_id":"levelo_inurba_marseille","lat":43.28929,"lon":5.36406,"is_reserved":false,"is_disabled":false,"rental_uris":{"android":"levelo://app?vid=6b0fc4d8-95fb-4604-8dad-0ed2b093f129","ios":"levelo://app?vid=6b0fc4d8-95fb-4604-8dad-0ed2b093f129"},"vehicle_type_id":"4","last_reported":1690560513,"current_range_meters":7200,"station_id":"","pricing_plan_id":"free"},{"bike_id":"f6b03f27-e5f8-4427-a6fd-efd9beeacf0a","system_id":"levelo_inurba_marseille","lat":43.292644,"lon":5.384257,"is_reserved":false,"is_disabled":false,"rental_uris":{"android":"levelo://app?vid=f6b03f27-e5f8-4427-a6fd-efd9beeacf0a","ios":"levelo://app?vid=f6b03f27-e5f8-4427-a6fd-efd9beeacf0a"},"vehicle_type_id":"4","last_reported":1690560513,"current_range_meters":3600,"station_id":"ce4bh692rcd13ifvqea0","pricing_plan_id":"free"},{"bike_id":"04a671da-55cb-4048-882c-fc205aa218f1","system_id":"levelo_inurba_marseille","lat":43.292644,"lon":5.384257,"is_reserved":false,"is_disabled":false,"rental_uris":{"android":"levelo://app?vid=04a671da-55cb-4048-882c-fc205aa218f1","ios":"levelo://app?vid=04a671da-55cb-4048-882c-fc205aa218f1"},"vehicle_type_id":"4","last_reported":1690560513,"current_range_meters":19600,"station_id":"ce4bh692rcd13ifvqea0","pricing_plan_id":"free"},{"bike_id":"750e6b95-ad8d-4a20-be5e-1bbaf0c920a9","system_id":"levelo_inurba_marseille","lat":43.292642,"lon":5.384254,"is_reserved":false,"is_disabled":false,"rental_uris":{"android":"levelo://app?vid=750e6b95-ad8d-4a20-be5e-1bbaf0c920a9","ios":"levelo://app?vid=750e6b95-ad8d-4a20-be5e-1bbaf0c920a9"},"vehicle_type_id":"4","last_reported":1690560513,"current_range_meters":2000,"station_id":"ce4bh692rcd13ifvqea0","pricing_plan_id":"free"},{"bike_id":"66737016-b952-40f6-8b54-77b38744c19a","system_id":"levelo_inurba_marseille","lat":43.292642,"lon":5.384254,"is_reserved":false,"is_disabled":false,"rental_uris":{"android":"levelo://app?vid=66737016-b952-40f6-8b54-77b38744c19a","ios":"levelo://app?vid=66737016-b952-40f6-8b54-77b38744c19a"},"vehicle_type_id":"4","last_reported":1690560513,"current_range_meters":400,"station_id":"ce4bh692rcd13ifvqea0","pricing_plan_id":"free"},{"bike_id":"5cf65cd0-fb9e-4bfa-9164-eca2802ff459","system_id":"levelo_inurba_marseille","lat":43.30487,"lon":5.39795,"is_reserved":false,"is_disabled":false,"rental_uris":{"android":"levelo://app?vid=5cf65cd0-fb9e-4bfa-9164-eca2802ff459","ios":"levelo://app?vid=5cf65cd0-fb9e-4bfa-9164-eca2802ff459"},"vehicle_type_id":"4","last_reported":1690560513,"current_range_meters":24000,"station_id":"","pricing_plan_id":"free"},{"bike_id":"198a91cd-f90e-44b9-b124-d15f43d9259d","system_id":"levelo_inurba_marseille","lat":43.33035,"lon":5.38919,"is_reserved":false,"is_disabled":false,"rental_uris":{"android":"levelo://app?vid=198a91cd-f90e-44b9-b124-d15f43d9259d","ios":"levelo://app?vid=198a91cd-f90e-44b9-b124-d15f43d9259d"},"vehicle_type_id":"4","last_reported":1690560513,"current_range_meters":19200,"station_id":"ce4bhr92rcd13ifvqhrg","pricing_plan_id":"free"},{"bike_id":"86f7e702-5a91-4401-ab78-a4b2963e3f33","system_id":"levelo_inurba_marseille","lat":43.3304,"lon":5.38917,"is_reserved":false,"is_disabled":false,"rental_uris":{"android":"levelo://app?vid=86f7e702-5a91-4401-ab78-a4b2963e3f33","ios":"levelo://app?vid=86f7e702-5a91-4401-ab78-a4b2963e3f33"},"vehicle_type_id":"4","last_reported":1690560513,"current_range_meters":1200,"station_id":"ce4bhr92rcd13ifvqhrg","pricing_plan_id":"free"},{"bike_id":"91968ac7-8a8f-40b0-b07b-8508661b31de","system_id":"levelo_inurba_marseille","lat":43.3304,"lon":5.38923,"is_reserved":false,"is_disabled":false,"rental_uris":{"android":"levelo://app?vid=91968ac7-8a8f-40b0-b07b-8508661b31de","ios":"levelo://app?vid=91968ac7-8a8f-40b0-b07b-8508661b31de"},"vehicle_type_id":"4","last_reported":1690560513,"current_range_meters":21200,"station_id":"ce4bhr92rcd13ifvqhrg","pricing_plan_id":"free"},{"bike_id":"2c914af5-3f76-4c26-ae2e-a98cca55902c","system_id":"levelo_inurba_marseille","lat":43.33043,"lon":5.38919,"is_reserved":false,"is_disabled":false,"rental_uris":{"android":"levelo://app?vid=2c914af5-3f76-4c26-ae2e-a98cca55902c","ios":"levelo://app?vid=2c914af5-3f76-4c26-ae2e-a98cca55902c"},"vehicle_type_id":"4","last_reported":1690560513,"current_range_meters":30800,"station_id":"ce4bhr92rcd13ifvqhrg","pricing_plan_id":"free"},{"bike_id":"f56db9a8-b4b7-4400-bf17-8a65adc21520","system_id":"levelo_inurba_marseille","lat":43.33045,"lon":5.38916,"is_reserved":false,"is_disabled":false,"rental_uris":{"android":"levelo://app?vid=f56db9a8-b4b7-4400-bf17-8a65adc21520","ios":"levelo://app?vid=f56db9a8-b4b7-4400-bf17-8a65adc21520"},"vehicle_type_id":"4","last_reported":1690560513,"current_range_meters":26400,"station_id":"ce4bhr92rcd13ifvqhrg","pricing_plan_id":"free"},{"bike_id":"7c2c3720-d424-462d-971e-d3463100e661","system_id":"levelo_inurba_marseille","lat":43.33042,"lon":5.38922,"is_reserved":false,"is_disabled":false,"rental_uris":{"android":"levelo://app?vid=7c2c3720-d424-462d-971e-d3463100e661","ios":"levelo://app?vid=7c2c3720-d424-462d-971e-d3463100e661"},"vehicle_type_id":"4","last_reported":1690560513,"current_range_meters":1600,"station_id":"ce4bhr92rcd13ifvqhrg","pricing_plan_id":"free"},{"bike_id":"3ad392a5-8356-4057-aa0f-a21c95d4dadd","system_id":"levelo_inurba_marseille","lat":43.33038,"lon":5.38929,"is_reserved":false,"is_disabled":false,"rental_uris":{"android":"levelo://app?vid=3ad392a5-8356-4057-aa0f-a21c95d4dadd","ios":"levelo://app?vid=3ad392a5-8356-4057-aa0f-a21c95d4dadd"},"vehicle_type_id":"4","last_reported":1690560513,"current_range_meters":29600,"station_id":"ce4bhr92rcd13ifvqhrg","pricing_plan_id":"free"},{"bike_id":"51ceaf4e-dad2-418b-a676-c4296d5d3490","system_id":"levelo_inurba_marseille","lat":43.33044,"lon":5.38924,"is_reserved":false,"is_disabled":false,"rental_uris":{"android":"levelo://app?vid=51ceaf4e-dad2-418b-a676-c4296d5d3490","ios":"levelo://app?vid=51ceaf4e-dad2-418b-a676-c4296d5d3490"},"vehicle_type_id":"4","last_reported":1690560513,"current_range_meters":6800,"station_id":"ce4bhr92rcd13ifvqhrg","pricing_plan_id":"free"},{"bike_id":"91fec792-a5a5-4820-af7d-3c6be3109af2","system_id":"levelo_inurba_marseille","lat":43.29002,"lon":5.35605,"is_reserved":false,"is_disabled":false,"rental_uris":{"android":"levelo://app?vid=91fec792-a5a5-4820-af7d-3c6be3109af2","ios":"levelo://app?vid=91fec792-a5a5-4820-af7d-3c6be3109af2"},"vehicle_type_id":"4","last_reported":1690560513,"current_range_meters":30000,"station_id":"ce4bhb92rcd13ifvqen0","pricing_plan_id":"free"},{"bike_id":"00c7c267-c527-4ec8-8c74-4ac590ef61d5","system_id":"levelo_inurba_marseille","lat":43.29779,"lon":5.39332,"is_reserved":false,"is_disabled":false,"rental_uris":{"android":"levelo://app?vid=00c7c267-c527-4ec8-8c74-4ac590ef61d5","ios":"levelo://app?vid=00c7c267-c527-4ec8-8c74-4ac590ef61d5"},"vehicle_type_id":"4","last_reported":1690560513,"current_range_meters":12000,"station_id":"chh1huq6cuj3fo74tm60","pricing_plan_id":"free"},{"bike_id":"a893a174-2bdf-4072-8e81-3f7668693c97","system_id":"levelo_inurba_marseille","lat":43.29784,"lon":5.39341,"is_reserved":false,"is_disabled":false,"rental_uris":{"android":"levelo://app?vid=a893a174-2bdf-4072-8e81-3f7668693c97","ios":"levelo://app?vid=a893a174-2bdf-4072-8e81-3f7668693c97"},"vehicle_type_id":"4","last_reported":1690560513,"current_range_meters":15600,"station_id":"chh1huq6cuj3fo74tm60","pricing_plan_id":"free"},{"bike_id":"daeb3b61-fc20-4542-9ca5-0e3c78f7ad8c","system_id":"levelo_inurba_marseille","lat":43.292644,"lon":5.384257,"is_reserved":false,"is_disabled":false,"rental_uris":{"android":"levelo://app?vid=daeb3b61-fc20-4542-9ca5-0e3c78f7ad8c","ios":"levelo://app?vid=daeb3b61-fc20-4542-9ca5-0e3c78f7ad8c"},"vehicle_type_id":"4","last_reported":1690560513,"current_range_meters":21600,"station_id":"ce4bh692rcd13ifvqea0","pricing_plan_id":"free"},{"bike_id":"9d3e2946-a9ff-4a9a-8a56-715eda99497b","system_id":"levelo_inurba_marseille","lat":43.28856,"lon":5.358371,"is_reserved":false,"is_disabled":false,"rental_uris":{"android":"levelo://app?vid=9d3e2946-a9ff-4a9a-8a56-715eda99497b","ios":"levelo://app?vid=9d3e2946-a9ff-4a9a-8a56-715eda99497b"},"vehicle_type_id":"4","last_reported":1690560513,"current_range_meters":4800,"station_id":"ce4bhb12rcd13ifvqem0","pricing_plan_id":"free"},{"bike_id":"f0712067-c9c4-47fc-86ae-60034eceaa82","system_id":"levelo_inurba_marseille","lat":43.28856,"lon":5.358371,"is_reserved":false,"is_disabled":false,"rental_uris":{"android":"levelo://app?vid=f0712067-c9c4-47fc-86ae-60034eceaa82","ios":"levelo://app?vid=f0712067-c9c4-47fc-86ae-60034eceaa82"},"vehicle_type_id":"4","last_reported":1690560513,"current_range_meters":12400,"station_id":"ce4bhb12rcd13ifvqem0","pricing_plan_id":"free"},{"bike_id":"0af32868-d5a5-4441-ab9f-f8efffcba1f6","system_id":"levelo_inurba_marseille","lat":43.28844,"lon":5.35855,"is_reserved":false,"is_disabled":false,"rental_uris":{"android":"levelo://app?vid=0af32868-d5a5-4441-ab9f-f8efffcba1f6","ios":"levelo://app?vid=0af32868-d5a5-4441-ab9f-f8efffcba1f6"},"vehicle_type_id":"4","last_reported":1690560513,"current_range_meters":11600,"station_id":"ce4bhb12rcd13ifvqem0","pricing_plan_id":"free"},{"bike_id":"44ce7ae3-ce0c-4639-98ff-edfa252071ef","system_id":"levelo_inurba_marseille","lat":43.31272,"lon":5.40165,"is_reserved":false,"is_disabled":false,"rental_uris":{"android":"levelo://app?vid=44ce7ae3-ce0c-4639-98ff-edfa252071ef","ios":"levelo://app?vid=44ce7ae3-ce0c-4639-98ff-edfa252071ef"},"vehicle_type_id":"4","last_reported":1690560513,"current_range_meters":23200,"station_id":"ce4bh092rcd13ifvqd30","pricing_plan_id":"free"},{"bike_id":"03d3a26e-e6bc-4ca7-a39c-af46aabc529f","system_id":"levelo_inurba_marseille","lat":43.31269,"lon":5.40166,"is_reserved":false,"is_disabled":false,"rental_uris":{"android":"levelo://app?vid=03d3a26e-e6bc-4ca7-a39c-af46aabc529f","ios":"levelo://app?vid=03d3a26e-e6bc-4ca7-a39c-af46aabc529f"},"vehicle_type_id":"4","last_reported":1690560513,"current_range_meters":19200,"station_id":"ce4bh092rcd13ifvqd30","pricing_plan_id":"free"},{"bike_id":"4377c084-fb78-4f94-aa74-cbf6cee938ee","system_id":"levelo_inurba_marseille","lat":43.31268,"lon":5.40166,"is_reserved":false,"is_disabled":false,"rental_uris":{"android":"levelo://app?vid=4377c084-fb78-4f94-aa74-cbf6cee938ee","ios":"levelo://app?vid=4377c084-fb78-4f94-aa74-cbf6cee938ee"},"vehicle_type_id":"4","last_reported":1690560513,"current_range_meters":20400,"station_id":"ce4bh092rcd13ifvqd30","pricing_plan_id":"free"},{"bike_id":"b0e02498-09cb-43a9-957e-45f4ad80126d","system_id":"levelo_inurba_marseille","lat":43.31276,"lon":5.40171,"is_reserved":false,"is_disabled":false,"rental_uris":{"android":"levelo://app?vid=b0e02498-09cb-43a9-957e-45f4ad80126d","ios":"levelo://app?vid=b0e02498-09cb-43a9-957e-45f4ad80126d"},"vehicle_type_id":"4","last_reported":1690560513,"current_range_meters":15200,"station_id":"ce4bh092rcd13ifvqd30","pricing_plan_id":"free"},{"bike_id":"e702046f-51fd-46ae-a85b-22eb26b4607d","system_id":"levelo_inurba_marseille","lat":43.31267,"lon":5.40171,"is_reserved":false,"is_disabled":false,"rental_uris":{"android":"levelo://app?vid=e702046f-51fd-46ae-a85b-22eb26b4607d","ios":"levelo://app?vid=e702046f-51fd-46ae-a85b-22eb26b4607d"},"vehicle_type_id":"4","last_reported":1690560513,"current_range_meters":25200,"station_id":"ce4bh092rcd13ifvqd30","pricing_plan_id":"free"},{"bike_id":"cc381cae-48e1-43d1-a3ca-9c32b4726a9d","system_id":"levelo_inurba_marseille","lat":43.31274,"lon":5.40173,"is_reserved":false,"is_disabled":false,"rental_uris":{"android":"levelo://app?vid=cc381cae-48e1-43d1-a3ca-9c32b4726a9d","ios":"levelo://app?vid=cc381cae-48e1-43d1-a3ca-9c32b4726a9d"},"vehicle_type_id":"4","last_reported":1690560513,"current_range_meters":1600,"station_id":"ce4bh092rcd13ifvqd30","pricing_plan_id":"free"},{"bike_id":"ac8a7264-fa87-45cf-bb7d-245e5c155253","system_id":"levelo_inurba_marseille","lat":43.309252,"lon":5.401433,"is_reserved":false,"is_disabled":false,"rental_uris":{"android":"levelo://app?vid=ac8a7264-fa87-45cf-bb7d-245e5c155253","ios":"levelo://app?vid=ac8a7264-fa87-45cf-bb7d-245e5c155253"},"vehicle_type_id":"4","last_reported":1690560513,"current_range_meters":800,"station_id":"","pricing_plan_id":"free"},{"bike_id":"b2d2b287-7b3f-4477-b36d-8313e8877366","system_id":"levelo_inurba_marseille","lat":43.309371,"lon":5.401449,"is_reserved":false,"is_disabled":false,"rental_uris":{"android":"levelo://app?vid=b2d2b287-7b3f-4477-b36d-8313e8877366","ios":"levelo://app?vid=b2d2b287-7b3f-4477-b36d-8313e8877366"},"vehicle_type_id":"4","last_reported":1690560513,"current_range_meters":4800,"station_id":"ce4bgvp2rcd13ifvqct0","pricing_plan_id":"free"},{"bike_id":"3197f34f-3e73-4230-9935-9d4d2a0d2440","system_id":"levelo_inurba_marseille","lat":43.309371,"lon":5.401449,"is_reserved":false,"is_disabled":false,"rental_uris":{"android":"levelo://app?vid=3197f34f-3e73-4230-9935-9d4d2a0d2440","ios":"levelo://app?vid=3197f34f-3e73-4230-9935-9d4d2a0d2440"},"vehicle_type_id":"4","last_reported":1690560513,"current_range_meters":14000,"station_id":"ce4bgvp2rcd13ifvqct0","pricing_plan_id":"free"},{"bike_id":"6d1cba07-b7a8-459f-ba14-2c8badac174e","system_id":"levelo_inurba_marseille","lat":43.30642,"lon":5.401031,"is_reserved":false,"is_disabled":false,"rental_uris":{"android":"levelo://app?vid=6d1cba07-b7a8-459f-ba14-2c8badac174e","ios":"levelo://app?vid=6d1cba07-b7a8-459f-ba14-2c8badac174e"},"vehicle_type_id":"4","last_reported":1690560513,"current_range_meters":13200,"station_id":"ce4bh112rcd13ifvqda0","pricing_plan_id":"free"},{"bike_id":"80b5d12d-2649-4004-97ce-ee82b560ad6a","system_id":"levelo_inurba_marseille","lat":43.30155,"lon":5.39845,"is_reserved":false,"is_disabled":false,"rental_uris":{"android":"levelo://app?vid=80b5d12d-2649-4004-97ce-ee82b560ad6a","ios":"levelo://app?vid=80b5d12d-2649-4004-97ce-ee82b560ad6a"},"vehicle_type_id":"4","last_reported":1690560513,"current_range_meters":6400,"station_id":"","pricing_plan_id":"free"},{"bike_id":"e140594d-9c4a-4b3a-ad56-b720c2902d45","system_id":"levelo_inurba_marseille","lat":43.30135,"lon":5.39876,"is_reserved":false,"is_disabled":false,"rental_uris":{"android":"levelo://app?vid=e140594d-9c4a-4b3a-ad56-b720c2902d45","ios":"levelo://app?vid=e140594d-9c4a-4b3a-ad56-b720c2902d45"},"vehicle_type_id":"4","last_reported":1690560513,"current_range_meters":30400,"station_id":"ce4bh0h2rcd13ifvqd40","pricing_plan_id":"free"},{"bike_id":"1b686c31-19d3-4e1b-9d12-a092c64cc5b4","system_id":"levelo_inurba_marseille","lat":43.301117,"lon":5.398795,"is_reserved":false,"is_disabled":false,"rental_uris":{"android":"levelo://app?vid=1b686c31-19d3-4e1b-9d12-a092c64cc5b4","ios":"levelo://app?vid=1b686c31-19d3-4e1b-9d12-a092c64cc5b4"},"vehicle_type_id":"4","last_reported":1690560513,"current_range_meters":24000,"station_id":"ce4bh0h2rcd13ifvqd40","pricing_plan_id":"free"},{"bike_id":"75199276-b705-4ad7-b6a9-49aeaa84628a","system_id":"levelo_inurba_marseille","lat":43.286591,"lon":5.363346,"is_reserved":false,"is_disabled":false,"rental_uris":{"android":"levelo://app?vid=75199276-b705-4ad7-b6a9-49aeaa84628a","ios":"levelo://app?vid=75199276-b705-4ad7-b6a9-49aeaa84628a"},"vehicle_type_id":"4","last_reported":1690560513,"current_range_meters":31600,"station_id":"ce4bhah2rcd13ifvqej0","pricing_plan_id":"free"},{"bike_id":"cc9380e3-874b-43a4-8642-e5597ad1e39d","system_id":"levelo_inurba_marseille","lat":43.286591,"lon":5.363346,"is_reserved":false,"is_disabled":false,"rental_uris":{"android":"levelo://app?vid=cc9380e3-874b-43a4-8642-e5597ad1e39d","ios":"levelo://app?vid=cc9380e3-874b-43a4-8642-e5597ad1e39d"},"vehicle_type_id":"4","last_reported":1690560513,"current_range_meters":21600,"station_id":"ce4bhah2rcd13ifvqej0","pricing_plan_id":"free"},{"bike_id":"2452f54c-2422-4c58-8f91-1515bb0a5d5c","system_id":"levelo_inurba_marseille","lat":43.286593,"lon":5.363346,"is_reserved":false,"is_disabled":false,"rental_uris":{"android":"levelo://app?vid=2452f54c-2422-4c58-8f91-1515bb0a5d5c","ios":"levelo://app?vid=2452f54c-2422-4c58-8f91-1515bb0a5d5c"},"vehicle_type_id":"4","last_reported":1690560513,"current_range_meters":22000,"station_id":"ce4bhah2rcd13ifvqej0","pricing_plan_id":"free"},{"bike_id":"01a67974-c766-41ad-b459-7bf2ebc6b37b","system_id":"levelo_inurba_marseille","lat":43.30255,"lon":5.40031,"is_reserved":false,"is_disabled":false,"rental_uris":{"android":"levelo://app?vid=01a67974-c766-41ad-b459-7bf2ebc6b37b","ios":"levelo://app?vid=01a67974-c766-41ad-b459-7bf2ebc6b37b"},"vehicle_type_id":"4","last_reported":1690560513,"current_range_meters":30400,"station_id":"ce4bgvh2rcd13ifvqcs0","pricing_plan_id":"free"},{"bike_id":"bdd88f11-b8be-4556-ae04-eb83e286d2ee","system_id":"levelo_inurba_marseille","lat":43.29031,"lon":5.38629,"is_reserved":false,"is_disabled":false,"rental_uris":{"android":"levelo://app?vid=bdd88f11-b8be-4556-ae04-eb83e286d2ee","ios":"levelo://app?vid=bdd88f11-b8be-4556-ae04-eb83e286d2ee"},"vehicle_type_id":"4","last_reported":1690560513,"current_range_meters":0,"station_id":"ce4bh4p2rcd13ifvqe0g","pricing_plan_id":"free"},{"bike_id":"f61351de-3c6f-4dfa-85ad-4d30ae2dfe67","system_id":"levelo_inurba_marseille","lat":43.30245,"lon":5.40048,"is_reserved":false,"is_disabled":false,"rental_uris":{"android":"levelo://app?vid=f61351de-3c6f-4dfa-85ad-4d30ae2dfe67","ios":"levelo://app?vid=f61351de-3c6f-4dfa-85ad-4d30ae2dfe67"},"vehicle_type_id":"4","last_reported":1690560513,"current_range_meters":20800,"station_id":"ce4bgvh2rcd13ifvqcs0","pricing_plan_id":"free"},{"bike_id":"f62d8c2a-2e46-456a-ab6c-a3ddf98de136","system_id":"levelo_inurba_marseille","lat":43.302759,"lon":5.400793,"is_reserved":false,"is_disabled":false,"rental_uris":{"android":"levelo://app?vid=f62d8c2a-2e46-456a-ab6c-a3ddf98de136","ios":"levelo://app?vid=f62d8c2a-2e46-456a-ab6c-a3ddf98de136"},"vehicle_type_id":"4","last_reported":1690560513,"current_range_meters":21200,"station_id":"ce4bgvh2rcd13ifvqcs0","pricing_plan_id":"free"},{"bike_id":"e10d3c7f-4ac7-4065-9cdb-05c06d79d8e1","system_id":"levelo_inurba_marseille","lat":43.302759,"lon":5.400793,"is_reserved":false,"is_disabled":false,"rental_uris":{"android":"levelo://app?vid=e10d3c7f-4ac7-4065-9cdb-05c06d79d8e1","ios":"levelo://app?vid=e10d3c7f-4ac7-4065-9cdb-05c06d79d8e1"},"vehicle_type_id":"4","last_reported":1690560513,"current_range_meters":20000,"station_id":"ce4bgvh2rcd13ifvqcs0","pricing_plan_id":"free"},{"bike_id":"a44e6319-ac21-4e3d-b7e7-1265600df33c","system_id":"levelo_inurba_marseille","lat":43.302583,"lon":5.400822,"is_reserved":false,"is_disabled":false,"rental_uris":{"android":"levelo://app?vid=a44e6319-ac21-4e3d-b7e7-1265600df33c","ios":"levelo://app?vid=a44e6319-ac21-4e3d-b7e7-1265600df33c"},"vehicle_type_id":"4","last_reported":1690560513,"current_range_meters":21600,"station_id":"ce4bgvh2rcd13ifvqcs0","pricing_plan_id":"free"},{"bike_id":"5d0a485f-632c-43a9-b5c1-1e18fe1c888a","system_id":"levelo_inurba_marseille","lat":43.30256,"lon":5.40082,"is_reserved":false,"is_disabled":false,"rental_uris":{"android":"levelo://app?vid=5d0a485f-632c-43a9-b5c1-1e18fe1c888a","ios":"levelo://app?vid=5d0a485f-632c-43a9-b5c1-1e18fe1c888a"},"vehicle_type_id":"4","last_reported":1690560513,"current_range_meters":31200,"station_id":"ce4bgvh2rcd13ifvqcs0","pricing_plan_id":"free"},{"bike_id":"ec3bb501-08b2-4126-8943-0c8e09ade99f","system_id":"levelo_inurba_marseille","lat":43.30261,"lon":5.40085,"is_reserved":false,"is_disabled":false,"rental_uris":{"android":"levelo://app?vid=ec3bb501-08b2-4126-8943-0c8e09ade99f","ios":"levelo://app?vid=ec3bb501-08b2-4126-8943-0c8e09ade99f"},"vehicle_type_id":"4","last_reported":1690560513,"current_range_meters":8800,"station_id":"ce4bgvh2rcd13ifvqcs0","pricing_plan_id":"free"},{"bike_id":"c44c1f4e-4ea5-454d-8a56-8fd8e6af0615","system_id":"levelo_inurba_marseille","lat":43.302585,"lon":5.400843,"is_reserved":false,"is_disabled":false,"rental_uris":{"android":"levelo://app?vid=c44c1f4e-4ea5-454d-8a56-8fd8e6af0615","ios":"levelo://app?vid=c44c1f4e-4ea5-454d-8a56-8fd8e6af0615"},"vehicle_type_id":"4","last_reported":1690560513,"current_range_meters":800,"station_id":"","pricing_plan_id":"free"},{"bike_id":"d3a45b88-c125-4894-8028-d373cb24deb3","system_id":"levelo_inurba_marseille","lat":43.286039,"lon":5.370679,"is_reserved":false,"is_disabled":false,"rental_uris":{"android":"levelo://app?vid=d3a45b88-c125-4894-8028-d373cb24deb3","ios":"levelo://app?vid=d3a45b88-c125-4894-8028-d373cb24deb3"},"vehicle_type_id":"4","last_reported":1690560513,"current_range_meters":31200,"station_id":"ce4bht12rcd13ifvqi60","pricing_plan_id":"free"},{"bike_id":"ed40d048-34b5-496a-a60c-3b006a2a3f8b","system_id":"levelo_inurba_marseille","lat":43.302759,"lon":5.400793,"is_reserved":false,"is_disabled":false,"rental_uris":{"android":"levelo://app?vid=ed40d048-34b5-496a-a60c-3b006a2a3f8b","ios":"levelo://app?vid=ed40d048-34b5-496a-a60c-3b006a2a3f8b"},"vehicle_type_id":"4","last_reported":1690560513,"current_range_meters":21200,"station_id":"ce4bgvh2rcd13ifvqcs0","pricing_plan_id":"free"},{"bike_id":"a3e5a3ac-31ef-44c9-b34b-f7b200df2c7f","system_id":"levelo_inurba_marseille","lat":43.286039,"lon":5.370679,"is_reserved":false,"is_disabled":false,"rental_uris":{"android":"levelo://app?vid=a3e5a3ac-31ef-44c9-b34b-f7b200df2c7f","ios":"levelo://app?vid=a3e5a3ac-31ef-44c9-b34b-f7b200df2c7f"},"vehicle_type_id":"4","last_reported":1690560513,"current_range_meters":0,"station_id":"ce4bht12rcd13ifvqi60","pricing_plan_id":"free"},{"bike_id":"0fc57687-0caa-49f3-bcb4-ea4cb50aa08c","system_id":"levelo_inurba_marseille","lat":43.30254,"lon":5.40094,"is_reserved":false,"is_disabled":false,"rental_uris":{"android":"levelo://app?vid=0fc57687-0caa-49f3-bcb4-ea4cb50aa08c","ios":"levelo://app?vid=0fc57687-0caa-49f3-bcb4-ea4cb50aa08c"},"vehicle_type_id":"4","last_reported":1690560513,"current_range_meters":30000,"station_id":"ce4bgvh2rcd13ifvqcs0","pricing_plan_id":"free"},{"bike_id":"36a8943b-c1da-4d4c-b844-952a47beefdc","system_id":"levelo_inurba_marseille","lat":43.287184,"lon":5.37937,"is_reserved":false,"is_disabled":false,"rental_uris":{"android":"levelo://app?vid=36a8943b-c1da-4d4c-b844-952a47beefdc","ios":"levelo://app?vid=36a8943b-c1da-4d4c-b844-952a47beefdc"},"vehicle_type_id":"4","last_reported":1690560513,"current_range_meters":21600,"station_id":"ce4bh9p2rcd13ifvqec0","pricing_plan_id":"free"},{"bike_id":"75a7c9f1-4a64-46a8-be77-e99ac5007c1c","system_id":"levelo_inurba_marseille","lat":43.287184,"lon":5.37937,"is_reserved":false,"is_disabled":false,"rental_uris":{"android":"levelo://app?vid=75a7c9f1-4a64-46a8-be77-e99ac5007c1c","ios":"levelo://app?vid=75a7c9f1-4a64-46a8-be77-e99ac5007c1c"},"vehicle_type_id":"4","last_reported":1690560513,"current_range_meters":6400,"station_id":"ce4bh9p2rcd13ifvqec0","pricing_plan_id":"free"},{"bike_id":"e3aad4cd-b4a9-4db2-b985-9fcc07d88d28","system_id":"levelo_inurba_marseille","lat":43.287184,"lon":5.37937,"is_reserved":false,"is_disabled":false,"rental_uris":{"android":"levelo://app?vid=e3aad4cd-b4a9-4db2-b985-9fcc07d88d28","ios":"levelo://app?vid=e3aad4cd-b4a9-4db2-b985-9fcc07d88d28"},"vehicle_type_id":"4","last_reported":1690560513,"current_range_meters":28800,"station_id":"ce4bh9p2rcd13ifvqec0","pricing_plan_id":"free"},{"bike_id":"54af2cef-05ae-4139-9adb-2277b94f6fd9","system_id":"levelo_inurba_marseille","lat":43.31645,"lon":5.40435,"is_reserved":false,"is_disabled":false,"rental_uris":{"android":"levelo://app?vid=54af2cef-05ae-4139-9adb-2277b94f6fd9","ios":"levelo://app?vid=54af2cef-05ae-4139-9adb-2277b94f6fd9"},"vehicle_type_id":"4","last_reported":1690560513,"current_range_meters":29600,"station_id":"ce4bh012rcd13ifvqd00","pricing_plan_id":"free"},{"bike_id":"ad152b74-da20-431a-aa78-7b256ff0df25","system_id":"levelo_inurba_marseille","lat":43.316486,"lon":5.404358,"is_reserved":false,"is_disabled":false,"rental_uris":{"android":"levelo://app?vid=ad152b74-da20-431a-aa78-7b256ff0df25","ios":"levelo://app?vid=ad152b74-da20-431a-aa78-7b256ff0df25"},"vehicle_type_id":"4","last_reported":1690560513,"current_range_meters":17600,"station_id":"","pricing_plan_id":"free"},{"bike_id":"f949111e-69aa-4941-a4d2-87f6d4512fed","system_id":"levelo_inurba_marseille","lat":43.316517,"lon":5.404375,"is_reserved":false,"is_disabled":false,"rental_uris":{"android":"levelo://app?vid=f949111e-69aa-4941-a4d2-87f6d4512fed","ios":"levelo://app?vid=f949111e-69aa-4941-a4d2-87f6d4512fed"},"vehicle_type_id":"4","last_reported":1690560513,"current_range_meters":30400,"station_id":"ce4bh012rcd13ifvqd00","pricing_plan_id":"free"},{"bike_id":"c90eae36-a6ac-4a3b-b056-96f2e1fd3138","system_id":"levelo_inurba_marseille","lat":43.316517,"lon":5.404375,"is_reserved":false,"is_disabled":false,"rental_uris":{"android":"levelo://app?vid=c90eae36-a6ac-4a3b-b056-96f2e1fd3138","ios":"levelo://app?vid=c90eae36-a6ac-4a3b-b056-96f2e1fd3138"},"vehicle_type_id":"4","last_reported":1690560513,"current_range_meters":26400,"station_id":"ce4bh012rcd13ifvqd00","pricing_plan_id":"free"},{"bike_id":"a38e551a-cd18-4db7-8d79-792ffdb234c2","system_id":"levelo_inurba_marseille","lat":43.316499,"lon":5.404542,"is_reserved":false,"is_disabled":false,"rental_uris":{"android":"levelo://app?vid=a38e551a-cd18-4db7-8d79-792ffdb234c2","ios":"levelo://app?vid=a38e551a-cd18-4db7-8d79-792ffdb234c2"},"vehicle_type_id":"4","last_reported":1690560513,"current_range_meters":18000,"station_id":"ce4bh012rcd13ifvqd00","pricing_plan_id":"free"},{"bike_id":"959cf77d-2e2c-4d26-9a95-409e5ee2d3f3","system_id":"levelo_inurba_marseille","lat":43.291994,"lon":5.392907,"is_reserved":false,"is_disabled":false,"rental_uris":{"android":"levelo://app?vid=959cf77d-2e2c-4d26-9a95-409e5ee2d3f3","ios":"levelo://app?vid=959cf77d-2e2c-4d26-9a95-409e5ee2d3f3"},"vehicle_type_id":"4","last_reported":1690560513,"current_range_meters":20800,"station_id":"ce4bh192rcd13ifvqdd0","pricing_plan_id":"free"},{"bike_id":"e6653b2d-6f1d-49d2-865e-e894fb46ec0e","system_id":"levelo_inurba_marseille","lat":43.291994,"lon":5.392907,"is_reserved":false,"is_disabled":false,"rental_uris":{"android":"levelo://app?vid=e6653b2d-6f1d-49d2-865e-e894fb46ec0e","ios":"levelo://app?vid=e6653b2d-6f1d-49d2-865e-e894fb46ec0e"},"vehicle_type_id":"4","last_reported":1690560513,"current_range_meters":26000,"station_id":"ce4bh192rcd13ifvqdd0","pricing_plan_id":"free"},{"bike_id":"fe95711b-2f40-4951-bc23-9eb205e1ec35","system_id":"levelo_inurba_marseille","lat":43.284538,"lon":5.358657,"is_reserved":false,"is_disabled":false,"rental_uris":{"android":"levelo://app?vid=fe95711b-2f40-4951-bc23-9eb205e1ec35","ios":"levelo://app?vid=fe95711b-2f40-4951-bc23-9eb205e1ec35"},"vehicle_type_id":"4","last_reported":1690560513,"current_range_meters":17600,"station_id":"ce4bhah2rcd13ifvqei0","pricing_plan_id":"free"},{"bike_id":"3aac1bf1-c194-47c1-aeca-cc2fc6cf1fa1","system_id":"levelo_inurba_marseille","lat":43.28615,"lon":5.35111,"is_reserved":false,"is_disabled":false,"rental_uris":{"android":"levelo://app?vid=3aac1bf1-c194-47c1-aeca-cc2fc6cf1fa1","ios":"levelo://app?vid=3aac1bf1-c194-47c1-aeca-cc2fc6cf1fa1"},"vehicle_type_id":"4","last_reported":1690560513,"current_range_meters":12000,"station_id":"ce4bhch2rcd13ifvqeug","pricing_plan_id":"free"},{"bike_id":"ef0a316d-7446-44ad-a531-5f7dc1e44cae","system_id":"levelo_inurba_marseille","lat":43.285856,"lon":5.350771,"is_reserved":false,"is_disabled":false,"rental_uris":{"android":"levelo://app?vid=ef0a316d-7446-44ad-a531-5f7dc1e44cae","ios":"levelo://app?vid=ef0a316d-7446-44ad-a531-5f7dc1e44cae"},"vehicle_type_id":"4","last_reported":1690560513,"current_range_meters":31200,"station_id":"ce4bhch2rcd13ifvqeug","pricing_plan_id":"free"},{"bike_id":"a4e7b79d-4280-41de-8abd-b52c4f6a6997","system_id":"levelo_inurba_marseille","lat":43.28615,"lon":5.35101,"is_reserved":false,"is_disabled":false,"rental_uris":{"android":"levelo://app?vid=a4e7b79d-4280-41de-8abd-b52c4f6a6997","ios":"levelo://app?vid=a4e7b79d-4280-41de-8abd-b52c4f6a6997"},"vehicle_type_id":"4","last_reported":1690560513,"current_range_meters":28000,"station_id":"ce4bhch2rcd13ifvqeug","pricing_plan_id":"free"},{"bike_id":"f95dbc0d-0c01-480b-bab8-fa102be779de","system_id":"levelo_inurba_marseille","lat":43.285856,"lon":5.350771,"is_reserved":false,"is_disabled":false,"rental_uris":{"android":"levelo://app?vid=f95dbc0d-0c01-480b-bab8-fa102be779de","ios":"levelo://app?vid=f95dbc0d-0c01-480b-bab8-fa102be779de"},"vehicle_type_id":"4","last_reported":1690560513,"current_range_meters":400,"station_id":"ce4bhch2rcd13ifvqeug","pricing_plan_id":"free"},{"bike_id":"34d3cc5f-7213-4926-86a8-5b5fd6b739cc","system_id":"levelo_inurba_marseille","lat":43.28599,"lon":5.35102,"is_reserved":false,"is_disabled":false,"rental_uris":{"android":"levelo://app?vid=34d3cc5f-7213-4926-86a8-5b5fd6b739cc","ios":"levelo://app?vid=34d3cc5f-7213-4926-86a8-5b5fd6b739cc"},"vehicle_type_id":"4","last_reported":1690560513,"current_range_meters":8000,"station_id":"ce4bhbh2rcd13ifvqepg","pricing_plan_id":"free"},{"bike_id":"48ce642f-ca8c-4ad7-9313-732ab6b4a3f4","system_id":"levelo_inurba_marseille","lat":43.28416,"lon":5.3752,"is_reserved":false,"is_disabled":false,"rental_uris":{"android":"levelo://app?vid=48ce642f-ca8c-4ad7-9313-732ab6b4a3f4","ios":"levelo://app?vid=48ce642f-ca8c-4ad7-9313-732ab6b4a3f4"},"vehicle_type_id":"4","last_reported":1690560513,"current_range_meters":29600,"station_id":"ce4bh412rcd13ifvqds0","pricing_plan_id":"free"},{"bike_id":"d8a004fc-cc93-4c48-bea0-c5704b6894d2","system_id":"levelo_inurba_marseille","lat":43.286595,"lon":5.386795,"is_reserved":false,"is_disabled":false,"rental_uris":{"android":"levelo://app?vid=d8a004fc-cc93-4c48-bea0-c5704b6894d2","ios":"levelo://app?vid=d8a004fc-cc93-4c48-bea0-c5704b6894d2"},"vehicle_type_id":"4","last_reported":1690560513,"current_range_meters":20000,"station_id":"ce4bh492rcd13ifvqdug","pricing_plan_id":"free"},{"bike_id":"e5c598f8-f039-4b4d-bc5d-4e27a66dfa2d","system_id":"levelo_inurba_marseille","lat":43.319179,"lon":5.407725,"is_reserved":false,"is_disabled":false,"rental_uris":{"android":"levelo://app?vid=e5c598f8-f039-4b4d-bc5d-4e27a66dfa2d","ios":"levelo://app?vid=e5c598f8-f039-4b4d-bc5d-4e27a66dfa2d"},"vehicle_type_id":"4","last_reported":1690560513,"current_range_meters":21200,"station_id":"ce4bhq12rcd13ifvqhig","pricing_plan_id":"free"},{"bike_id":"89b3d2f1-96fb-427c-8ac6-2238ed433a49","system_id":"levelo_inurba_marseille","lat":43.28383,"lon":5.35588,"is_reserved":false,"is_disabled":false,"rental_uris":{"android":"levelo://app?vid=89b3d2f1-96fb-427c-8ac6-2238ed433a49","ios":"levelo://app?vid=89b3d2f1-96fb-427c-8ac6-2238ed433a49"},"vehicle_type_id":"4","last_reported":1690560513,"current_range_meters":22800,"station_id":"","pricing_plan_id":"free"},{"bike_id":"13564b96-022f-4ad3-8b5f-cbdd868afa66","system_id":"levelo_inurba_marseille","lat":43.28385,"lon":5.35575,"is_reserved":false,"is_disabled":false,"rental_uris":{"android":"levelo://app?vid=13564b96-022f-4ad3-8b5f-cbdd868afa66","ios":"levelo://app?vid=13564b96-022f-4ad3-8b5f-cbdd868afa66"},"vehicle_type_id":"4","last_reported":1690560513,"current_range_meters":4400,"station_id":"ce4bhah2rcd13ifvqei0","pricing_plan_id":"free"},{"bike_id":"036cbe2f-e319-486f-905e-6648dd1b93db","system_id":"levelo_inurba_marseille","lat":43.31884,"lon":5.40732,"is_reserved":false,"is_disabled":false,"rental_uris":{"android":"levelo://app?vid=036cbe2f-e319-486f-905e-6648dd1b93db","ios":"levelo://app?vid=036cbe2f-e319-486f-905e-6648dd1b93db"},"vehicle_type_id":"4","last_reported":1690560513,"current_range_meters":26800,"station_id":"","pricing_plan_id":"free"},{"bike_id":"c0c8e2fd-0464-4388-9acf-19c0edc181ad","system_id":"levelo_inurba_marseille","lat":43.31887,"lon":5.40745,"is_reserved":false,"is_disabled":false,"rental_uris":{"android":"levelo://app?vid=c0c8e2fd-0464-4388-9acf-19c0edc181ad","ios":"levelo://app?vid=c0c8e2fd-0464-4388-9acf-19c0edc181ad"},"vehicle_type_id":"4","last_reported":1690560513,"current_range_meters":28000,"station_id":"ce4bhq12rcd13ifvqhig","pricing_plan_id":"free"},{"bike_id":"af36eb9e-7e54-4312-b8f8-bbc3450e59b1","system_id":"levelo_inurba_marseille","lat":43.2837,"lon":5.35592,"is_reserved":false,"is_disabled":false,"rental_uris":{"android":"levelo://app?vid=af36eb9e-7e54-4312-b8f8-bbc3450e59b1","ios":"levelo://app?vid=af36eb9e-7e54-4312-b8f8-bbc3450e59b1"},"vehicle_type_id":"4","last_reported":1690560513,"current_range_meters":15600,"station_id":"","pricing_plan_id":"free"},{"bike_id":"838a4aae-6542-4395-bd1f-0c01c6ad5d93","system_id":"levelo_inurba_marseille","lat":43.33727,"lon":5.39178,"is_reserved":false,"is_disabled":false,"rental_uris":{"android":"levelo://app?vid=838a4aae-6542-4395-bd1f-0c01c6ad5d93","ios":"levelo://app?vid=838a4aae-6542-4395-bd1f-0c01c6ad5d93"},"vehicle_type_id":"4","last_reported":1690560513,"current_range_meters":12000,"station_id":"ce4bhr92rcd13ifvqhsg","pricing_plan_id":"free"},{"bike_id":"bfba1d51-c352-4de8-b042-a36245d6322f","system_id":"levelo_inurba_marseille","lat":43.33726,"lon":5.3918,"is_reserved":false,"is_disabled":false,"rental_uris":{"android":"levelo://app?vid=bfba1d51-c352-4de8-b042-a36245d6322f","ios":"levelo://app?vid=bfba1d51-c352-4de8-b042-a36245d6322f"},"vehicle_type_id":"4","last_reported":1690560513,"current_range_meters":25600,"station_id":"ce4bhr92rcd13ifvqhsg","pricing_plan_id":"free"},{"bike_id":"7e209f61-3c45-427c-ae4d-e4269e2dda66","system_id":"levelo_inurba_marseille","lat":43.33727,"lon":5.3918,"is_reserved":false,"is_disabled":false,"rental_uris":{"android":"levelo://app?vid=7e209f61-3c45-427c-ae4d-e4269e2dda66","ios":"levelo://app?vid=7e209f61-3c45-427c-ae4d-e4269e2dda66"},"vehicle_type_id":"4","last_reported":1690560513,"current_range_meters":19600,"station_id":"ce4bhr92rcd13ifvqhsg","pricing_plan_id":"free"},{"bike_id":"f2197b32-1790-4499-9acb-48b384ecc478","system_id":"levelo_inurba_marseille","lat":43.3373,"lon":5.39181,"is_reserved":false,"is_disabled":false,"rental_uris":{"android":"levelo://app?vid=f2197b32-1790-4499-9acb-48b384ecc478","ios":"levelo://app?vid=f2197b32-1790-4499-9acb-48b384ecc478"},"vehicle_type_id":"4","last_reported":1690560513,"current_range_meters":24800,"station_id":"ce4bhr92rcd13ifvqhsg","pricing_plan_id":"free"},{"bike_id":"29a7712d-067c-4ae1-9301-c795bf20c53f","system_id":"levelo_inurba_marseille","lat":43.33728,"lon":5.3919,"is_reserved":false,"is_disabled":false,"rental_uris":{"android":"levelo://app?vid=29a7712d-067c-4ae1-9301-c795bf20c53f","ios":"levelo://app?vid=29a7712d-067c-4ae1-9301-c795bf20c53f"},"vehicle_type_id":"4","last_reported":1690560513,"current_range_meters":25200,"station_id":"ce4bhr92rcd13ifvqhsg","pricing_plan_id":"free"},{"bike_id":"07355913-3475-48df-8d84-3e45dbf0e07b","system_id":"levelo_inurba_marseille","lat":43.33732,"lon":5.39187,"is_reserved":false,"is_disabled":false,"rental_uris":{"android":"levelo://app?vid=07355913-3475-48df-8d84-3e45dbf0e07b","ios":"levelo://app?vid=07355913-3475-48df-8d84-3e45dbf0e07b"},"vehicle_type_id":"4","last_reported":1690560513,"current_range_meters":23600,"station_id":"ce4bhr92rcd13ifvqhsg","pricing_plan_id":"free"},{"bike_id":"80d0d10d-6e2c-4a8f-a4b5-183c8411b524","system_id":"levelo_inurba_marseille","lat":43.33733,"lon":5.39189,"is_reserved":false,"is_disabled":false,"rental_uris":{"android":"levelo://app?vid=80d0d10d-6e2c-4a8f-a4b5-183c8411b524","ios":"levelo://app?vid=80d0d10d-6e2c-4a8f-a4b5-183c8411b524"},"vehicle_type_id":"4","last_reported":1690560513,"current_range_meters":4400,"station_id":"ce4bhr92rcd13ifvqhsg","pricing_plan_id":"free"},{"bike_id":"c2e0d788-06c6-4864-90af-153f10e4a9ce","system_id":"levelo_inurba_marseille","lat":43.33729,"lon":5.39198,"is_reserved":false,"is_disabled":false,"rental_uris":{"android":"levelo://app?vid=c2e0d788-06c6-4864-90af-153f10e4a9ce","ios":"levelo://app?vid=c2e0d788-06c6-4864-90af-153f10e4a9ce"},"vehicle_type_id":"4","last_reported":1690560513,"current_range_meters":24000,"station_id":"ce4bhr92rcd13ifvqhsg","pricing_plan_id":"free"},{"bike_id":"b854eebe-24f3-4106-a38d-998bbf619da1","system_id":"levelo_inurba_marseille","lat":43.28381,"lon":5.35323,"is_reserved":false,"is_disabled":false,"rental_uris":{"android":"levelo://app?vid=b854eebe-24f3-4106-a38d-998bbf619da1","ios":"levelo://app?vid=b854eebe-24f3-4106-a38d-998bbf619da1"},"vehicle_type_id":"4","last_reported":1690560513,"current_range_meters":400,"station_id":"","pricing_plan_id":"free"},{"bike_id":"c4edcc81-fed0-4645-9253-4ff9f08d3467","system_id":"levelo_inurba_marseille","lat":43.28475,"lon":5.38407,"is_reserved":false,"is_disabled":false,"rental_uris":{"android":"levelo://app?vid=c4edcc81-fed0-4645-9253-4ff9f08d3467","ios":"levelo://app?vid=c4edcc81-fed0-4645-9253-4ff9f08d3467"},"vehicle_type_id":"4","last_reported":1690560513,"current_range_meters":9600,"station_id":"ce4bh512rcd13ifvqe3g","pricing_plan_id":"free"},{"bike_id":"470cb7a8-5452-4880-855a-6f26d7274264","system_id":"levelo_inurba_marseille","lat":43.28372,"lon":5.35317,"is_reserved":false,"is_disabled":false,"rental_uris":{"android":"levelo://app?vid=470cb7a8-5452-4880-855a-6f26d7274264","ios":"levelo://app?vid=470cb7a8-5452-4880-855a-6f26d7274264"},"vehicle_type_id":"4","last_reported":1690560513,"current_range_meters":8000,"station_id":"","pricing_plan_id":"free"},{"bike_id":"db58c590-12ba-458a-ac4b-57eb321b8a73","system_id":"levelo_inurba_marseille","lat":43.284793,"lon":5.384119,"is_reserved":false,"is_disabled":false,"rental_uris":{"android":"levelo://app?vid=db58c590-12ba-458a-ac4b-57eb321b8a73","ios":"levelo://app?vid=db58c590-12ba-458a-ac4b-57eb321b8a73"},"vehicle_type_id":"4","last_reported":1690560513,"current_range_meters":0,"station_id":"ce4bh512rcd13ifvqe3g","pricing_plan_id":"free"},{"bike_id":"6c21d052-a8f7-4247-a1bf-1cbeede9f08a","system_id":"levelo_inurba_marseille","lat":43.29802,"lon":5.40409,"is_reserved":false,"is_disabled":false,"rental_uris":{"android":"levelo://app?vid=6c21d052-a8f7-4247-a1bf-1cbeede9f08a","ios":"levelo://app?vid=6c21d052-a8f7-4247-a1bf-1cbeede9f08a"},"vehicle_type_id":"4","last_reported":1690560513,"current_range_meters":22000,"station_id":"","pricing_plan_id":"free"},{"bike_id":"25c5b871-086b-471a-b712-53640f9b298b","system_id":"levelo_inurba_marseille","lat":43.28369,"lon":5.3529,"is_reserved":false,"is_disabled":false,"rental_uris":{"android":"levelo://app?vid=25c5b871-086b-471a-b712-53640f9b298b","ios":"levelo://app?vid=25c5b871-086b-471a-b712-53640f9b298b"},"vehicle_type_id":"4","last_reported":1690560513,"current_range_meters":22000,"station_id":"","pricing_plan_id":"free"},{"bike_id":"a3305938-6422-4c6f-b938-3cd020287509","system_id":"levelo_inurba_marseille","lat":43.29796,"lon":5.4041,"is_reserved":false,"is_disabled":false,"rental_uris":{"android":"levelo://app?vid=a3305938-6422-4c6f-b938-3cd020287509","ios":"levelo://app?vid=a3305938-6422-4c6f-b938-3cd020287509"},"vehicle_type_id":"4","last_reported":1690560513,"current_range_meters":16800,"station_id":"","pricing_plan_id":"free"},{"bike_id":"2bbe0aae-1c17-446a-8c51-913edd345b8d","system_id":"levelo_inurba_marseille","lat":43.283494,"lon":5.380945,"is_reserved":false,"is_disabled":false,"rental_uris":{"android":"levelo://app?vid=2bbe0aae-1c17-446a-8c51-913edd345b8d","ios":"levelo://app?vid=2bbe0aae-1c17-446a-8c51-913edd345b8d"},"vehicle_type_id":"4","last_reported":1690560513,"current_range_meters":12000,"station_id":"ce4bh412rcd13ifvqdr0","pricing_plan_id":"free"},{"bike_id":"b1ba4608-244c-4bf6-9201-b952ad965645","system_id":"levelo_inurba_marseille","lat":43.28441,"lon":5.34968,"is_reserved":false,"is_disabled":false,"rental_uris":{"android":"levelo://app?vid=b1ba4608-244c-4bf6-9201-b952ad965645","ios":"levelo://app?vid=b1ba4608-244c-4bf6-9201-b952ad965645"},"vehicle_type_id":"4","last_reported":1690560513,"current_range_meters":12800,"station_id":"ce4bhbh2rcd13ifvqepg","pricing_plan_id":"free"},{"bike_id":"de4bc684-3b4e-4ed7-89d0-919404df9793","system_id":"levelo_inurba_marseille","lat":43.28431,"lon":5.34977,"is_reserved":false,"is_disabled":false,"rental_uris":{"android":"levelo://app?vid=de4bc684-3b4e-4ed7-89d0-919404df9793","ios":"levelo://app?vid=de4bc684-3b4e-4ed7-89d0-919404df9793"},"vehicle_type_id":"4","last_reported":1690560513,"current_range_meters":26800,"station_id":"ce4bhbh2rcd13ifvqepg","pricing_plan_id":"free"},{"bike_id":"729187fc-a134-46d3-a18b-d78729b36314","system_id":"levelo_inurba_marseille","lat":43.28422,"lon":5.35,"is_reserved":false,"is_disabled":false,"rental_uris":{"android":"levelo://app?vid=729187fc-a134-46d3-a18b-d78729b36314","ios":"levelo://app?vid=729187fc-a134-46d3-a18b-d78729b36314"},"vehicle_type_id":"4","last_reported":1690560513,"current_range_meters":11600,"station_id":"ce4bhbh2rcd13ifvqepg","pricing_plan_id":"free"},{"bike_id":"ec796054-6de8-4263-b3b5-6b19a3e27720","system_id":"levelo_inurba_marseille","lat":43.28425,"lon":5.34988,"is_reserved":false,"is_disabled":false,"rental_uris":{"android":"levelo://app?vid=ec796054-6de8-4263-b3b5-6b19a3e27720","ios":"levelo://app?vid=ec796054-6de8-4263-b3b5-6b19a3e27720"},"vehicle_type_id":"4","last_reported":1690560513,"current_range_meters":20000,"station_id":"ce4bhbh2rcd13ifvqepg","pricing_plan_id":"free"},{"bike_id":"bcd82e34-b86f-4634-a07b-ade7ab3ab06f","system_id":"levelo_inurba_marseille","lat":43.28426,"lon":5.34984,"is_reserved":false,"is_disabled":false,"rental_uris":{"android":"levelo://app?vid=bcd82e34-b86f-4634-a07b-ade7ab3ab06f","ios":"levelo://app?vid=bcd82e34-b86f-4634-a07b-ade7ab3ab06f"},"vehicle_type_id":"4","last_reported":1690560513,"current_range_meters":23200,"station_id":"ce4bhbh2rcd13ifvqepg","pricing_plan_id":"free"},{"bike_id":"c6972b5a-5a21-4b63-9027-2dd3725d9d89","system_id":"levelo_inurba_marseille","lat":43.284219,"lon":5.3497,"is_reserved":false,"is_disabled":false,"rental_uris":{"android":"levelo://app?vid=c6972b5a-5a21-4b63-9027-2dd3725d9d89","ios":"levelo://app?vid=c6972b5a-5a21-4b63-9027-2dd3725d9d89"},"vehicle_type_id":"4","last_reported":1690560513,"current_range_meters":8400,"station_id":"ce4bhbh2rcd13ifvqepg","pricing_plan_id":"free"},{"bike_id":"733fdc06-d409-40d9-97eb-511d509f5e57","system_id":"levelo_inurba_marseille","lat":43.28422,"lon":5.34991,"is_reserved":false,"is_disabled":false,"rental_uris":{"android":"levelo://app?vid=733fdc06-d409-40d9-97eb-511d509f5e57","ios":"levelo://app?vid=733fdc06-d409-40d9-97eb-511d509f5e57"},"vehicle_type_id":"4","last_reported":1690560513,"current_range_meters":30000,"station_id":"ce4bhbh2rcd13ifvqepg","pricing_plan_id":"free"},{"bike_id":"28107b56-d609-4626-ad87-d00780e3f0fc","system_id":"levelo_inurba_marseille","lat":43.28419,"lon":5.34997,"is_reserved":false,"is_disabled":false,"rental_uris":{"android":"levelo://app?vid=28107b56-d609-4626-ad87-d00780e3f0fc","ios":"levelo://app?vid=28107b56-d609-4626-ad87-d00780e3f0fc"},"vehicle_type_id":"4","last_reported":1690560513,"current_range_meters":13200,"station_id":"ce4bhbh2rcd13ifvqepg","pricing_plan_id":"free"},{"bike_id":"48a8f6c1-c76c-4cc7-8bdd-383d04b7b532","system_id":"levelo_inurba_marseille","lat":43.2842,"lon":5.34992,"is_reserved":false,"is_disabled":false,"rental_uris":{"android":"levelo://app?vid=48a8f6c1-c76c-4cc7-8bdd-383d04b7b532","ios":"levelo://app?vid=48a8f6c1-c76c-4cc7-8bdd-383d04b7b532"},"vehicle_type_id":"4","last_reported":1690560513,"current_range_meters":14400,"station_id":"ce4bhbh2rcd13ifvqepg","pricing_plan_id":"free"},{"bike_id":"25f7ab45-910e-4f46-8109-9e87b11adf77","system_id":"levelo_inurba_marseille","lat":43.28422,"lon":5.34985,"is_reserved":false,"is_disabled":false,"rental_uris":{"android":"levelo://app?vid=25f7ab45-910e-4f46-8109-9e87b11adf77","ios":"levelo://app?vid=25f7ab45-910e-4f46-8109-9e87b11adf77"},"vehicle_type_id":"4","last_reported":1690560513,"current_range_meters":30800,"station_id":"ce4bhbh2rcd13ifvqepg","pricing_plan_id":"free"},{"bike_id":"5f97f34e-e3da-4381-8fc4-bb3c97bbb996","system_id":"levelo_inurba_marseille","lat":43.28423,"lon":5.34981,"is_reserved":false,"is_disabled":false,"rental_uris":{"android":"levelo://app?vid=5f97f34e-e3da-4381-8fc4-bb3c97bbb996","ios":"levelo://app?vid=5f97f34e-e3da-4381-8fc4-bb3c97bbb996"},"vehicle_type_id":"4","last_reported":1690560513,"current_range_meters":31200,"station_id":"ce4bhbh2rcd13ifvqepg","pricing_plan_id":"free"},{"bike_id":"9a11e8ba-7c87-4919-bb7e-ed7c6025b223","system_id":"levelo_inurba_marseille","lat":43.2842,"lon":5.34988,"is_reserved":false,"is_disabled":false,"rental_uris":{"android":"levelo://app?vid=9a11e8ba-7c87-4919-bb7e-ed7c6025b223","ios":"levelo://app?vid=9a11e8ba-7c87-4919-bb7e-ed7c6025b223"},"vehicle_type_id":"4","last_reported":1690560513,"current_range_meters":11200,"station_id":"ce4bhbh2rcd13ifvqepg","pricing_plan_id":"free"},{"bike_id":"37cea05f-be02-4ab0-abd3-e89b7ff81058","system_id":"levelo_inurba_marseille","lat":43.284217,"lon":5.349697,"is_reserved":false,"is_disabled":false,"rental_uris":{"android":"levelo://app?vid=37cea05f-be02-4ab0-abd3-e89b7ff81058","ios":"levelo://app?vid=37cea05f-be02-4ab0-abd3-e89b7ff81058"},"vehicle_type_id":"4","last_reported":1690560513,"current_range_meters":29200,"station_id":"ce4bhbh2rcd13ifvqepg","pricing_plan_id":"free"},{"bike_id":"448e71a1-78fe-40e2-951e-708f7c1f85ae","system_id":"levelo_inurba_marseille","lat":43.284217,"lon":5.349697,"is_reserved":false,"is_disabled":false,"rental_uris":{"android":"levelo://app?vid=448e71a1-78fe-40e2-951e-708f7c1f85ae","ios":"levelo://app?vid=448e71a1-78fe-40e2-951e-708f7c1f85ae"},"vehicle_type_id":"4","last_reported":1690560513,"current_range_meters":26800,"station_id":"ce4bhbh2rcd13ifvqepg","pricing_plan_id":"free"},{"bike_id":"dac3784f-2da9-4da9-ba28-bbe66d7b0ca3","system_id":"levelo_inurba_marseille","lat":43.28416,"lon":5.34984,"is_reserved":false,"is_disabled":false,"rental_uris":{"android":"levelo://app?vid=dac3784f-2da9-4da9-ba28-bbe66d7b0ca3","ios":"levelo://app?vid=dac3784f-2da9-4da9-ba28-bbe66d7b0ca3"},"vehicle_type_id":"4","last_reported":1690560513,"current_range_meters":17600,"station_id":"ce4bhbh2rcd13ifvqepg","pricing_plan_id":"free"},{"bike_id":"88e8e98c-2d8f-49fa-9e51-ae2bf4298107","system_id":"levelo_inurba_marseille","lat":43.28418,"lon":5.34977,"is_reserved":false,"is_disabled":false,"rental_uris":{"android":"levelo://app?vid=88e8e98c-2d8f-49fa-9e51-ae2bf4298107","ios":"levelo://app?vid=88e8e98c-2d8f-49fa-9e51-ae2bf4298107"},"vehicle_type_id":"4","last_reported":1690560513,"current_range_meters":5200,"station_id":"ce4bhbh2rcd13ifvqepg","pricing_plan_id":"free"},{"bike_id":"9eb5414c-849b-417c-8e84-16799b1009b8","system_id":"levelo_inurba_marseille","lat":43.28412,"lon":5.34995,"is_reserved":false,"is_disabled":false,"rental_uris":{"android":"levelo://app?vid=9eb5414c-849b-417c-8e84-16799b1009b8","ios":"levelo://app?vid=9eb5414c-849b-417c-8e84-16799b1009b8"},"vehicle_type_id":"4","last_reported":1690560513,"current_range_meters":7600,"station_id":"ce4bhbh2rcd13ifvqepg","pricing_plan_id":"free"},{"bike_id":"7582e9b4-8802-4caa-9e2c-b0c9d093db6d","system_id":"levelo_inurba_marseille","lat":43.28412,"lon":5.34995,"is_reserved":false,"is_disabled":false,"rental_uris":{"android":"levelo://app?vid=7582e9b4-8802-4caa-9e2c-b0c9d093db6d","ios":"levelo://app?vid=7582e9b4-8802-4caa-9e2c-b0c9d093db6d"},"vehicle_type_id":"4","last_reported":1690560513,"current_range_meters":26000,"station_id":"ce4bhbh2rcd13ifvqepg","pricing_plan_id":"free"},{"bike_id":"4c38387b-c9aa-4e98-8be2-f5c2f688abc5","system_id":"levelo_inurba_marseille","lat":43.28412,"lon":5.34994,"is_reserved":false,"is_disabled":false,"rental_uris":{"android":"levelo://app?vid=4c38387b-c9aa-4e98-8be2-f5c2f688abc5","ios":"levelo://app?vid=4c38387b-c9aa-4e98-8be2-f5c2f688abc5"},"vehicle_type_id":"4","last_reported":1690560513,"current_range_meters":28800,"station_id":"ce4bhbh2rcd13ifvqepg","pricing_plan_id":"free"},{"bike_id":"3ededa8d-4bac-4ca1-be2d-e7cda3d3224c","system_id":"levelo_inurba_marseille","lat":43.28412,"lon":5.34994,"is_reserved":false,"is_disabled":false,"rental_uris":{"android":"levelo://app?vid=3ededa8d-4bac-4ca1-be2d-e7cda3d3224c","ios":"levelo://app?vid=3ededa8d-4bac-4ca1-be2d-e7cda3d3224c"},"vehicle_type_id":"4","last_reported":1690560513,"current_range_meters":21200,"station_id":"ce4bhbh2rcd13ifvqepg","pricing_plan_id":"free"},{"bike_id":"8d494584-6c12-4133-aeb1-6185d37adf3b","system_id":"levelo_inurba_marseille","lat":43.28413,"lon":5.3499,"is_reserved":false,"is_disabled":false,"rental_uris":{"android":"levelo://app?vid=8d494584-6c12-4133-aeb1-6185d37adf3b","ios":"levelo://app?vid=8d494584-6c12-4133-aeb1-6185d37adf3b"},"vehicle_type_id":"4","last_reported":1690560513,"current_range_meters":25200,"station_id":"ce4bhbh2rcd13ifvqepg","pricing_plan_id":"free"},{"bike_id":"dc389ea6-5f3c-413b-96d4-1bdc08d3d29c","system_id":"levelo_inurba_marseille","lat":43.284219,"lon":5.3497,"is_reserved":false,"is_disabled":false,"rental_uris":{"android":"levelo://app?vid=dc389ea6-5f3c-413b-96d4-1bdc08d3d29c","ios":"levelo://app?vid=dc389ea6-5f3c-413b-96d4-1bdc08d3d29c"},"vehicle_type_id":"4","last_reported":1690560513,"current_range_meters":14400,"station_id":"ce4bhbh2rcd13ifvqepg","pricing_plan_id":"free"},{"bike_id":"dfaf7f77-fa31-4e9b-bb26-256290dbbdc5","system_id":"levelo_inurba_marseille","lat":43.284163,"lon":5.349771,"is_reserved":false,"is_disabled":false,"rental_uris":{"android":"levelo://app?vid=dfaf7f77-fa31-4e9b-bb26-256290dbbdc5","ios":"levelo://app?vid=dfaf7f77-fa31-4e9b-bb26-256290dbbdc5"},"vehicle_type_id":"4","last_reported":1690560513,"current_range_meters":12000,"station_id":"ce4bhbh2rcd13ifvqepg","pricing_plan_id":"free"},{"bike_id":"1076eaaf-3d92-4d91-ac5a-51176dbe0a3d","system_id":"levelo_inurba_marseille","lat":43.28415,"lon":5.34978,"is_reserved":false,"is_disabled":false,"rental_uris":{"android":"levelo://app?vid=1076eaaf-3d92-4d91-ac5a-51176dbe0a3d","ios":"levelo://app?vid=1076eaaf-3d92-4d91-ac5a-51176dbe0a3d"},"vehicle_type_id":"4","last_reported":1690560513,"current_range_meters":8000,"station_id":"ce4bhbh2rcd13ifvqepg","pricing_plan_id":"free"},{"bike_id":"b0180a19-85ef-4a85-9cc3-9f7cce8640be","system_id":"levelo_inurba_marseille","lat":43.284217,"lon":5.349697,"is_reserved":false,"is_disabled":false,"rental_uris":{"android":"levelo://app?vid=b0180a19-85ef-4a85-9cc3-9f7cce8640be","ios":"levelo://app?vid=b0180a19-85ef-4a85-9cc3-9f7cce8640be"},"vehicle_type_id":"4","last_reported":1690560513,"current_range_meters":19200,"station_id":"ce4bhbh2rcd13ifvqepg","pricing_plan_id":"free"},{"bike_id":"9adb753a-0921-48f5-97a6-e2bc373ace0b","system_id":"levelo_inurba_marseille","lat":43.284217,"lon":5.349697,"is_reserved":false,"is_disabled":false,"rental_uris":{"android":"levelo://app?vid=9adb753a-0921-48f5-97a6-e2bc373ace0b","ios":"levelo://app?vid=9adb753a-0921-48f5-97a6-e2bc373ace0b"},"vehicle_type_id":"4","last_reported":1690560513,"current_range_meters":29200,"station_id":"ce4bhbh2rcd13ifvqepg","pricing_plan_id":"free"},{"bike_id":"ae5e00e8-7788-475d-8c50-8fafff267a8f","system_id":"levelo_inurba_marseille","lat":43.2841,"lon":5.34984,"is_reserved":false,"is_disabled":false,"rental_uris":{"android":"levelo://app?vid=ae5e00e8-7788-475d-8c50-8fafff267a8f","ios":"levelo://app?vid=ae5e00e8-7788-475d-8c50-8fafff267a8f"},"vehicle_type_id":"4","last_reported":1690560513,"current_range_meters":3600,"station_id":"ce4bhbh2rcd13ifvqepg","pricing_plan_id":"free"},{"bike_id":"ed3523a0-cdf1-4dd2-9a23-c4ea0506511f","system_id":"levelo_inurba_marseille","lat":43.28405,"lon":5.34991,"is_reserved":false,"is_disabled":false,"rental_uris":{"android":"levelo://app?vid=ed3523a0-cdf1-4dd2-9a23-c4ea0506511f","ios":"levelo://app?vid=ed3523a0-cdf1-4dd2-9a23-c4ea0506511f"},"vehicle_type_id":"4","last_reported":1690560513,"current_range_meters":19600,"station_id":"ce4bhbh2rcd13ifvqepg","pricing_plan_id":"free"},{"bike_id":"b49596ee-f837-4f84-a8c9-f4152516e5e0","system_id":"levelo_inurba_marseille","lat":43.284217,"lon":5.349697,"is_reserved":false,"is_disabled":false,"rental_uris":{"android":"levelo://app?vid=b49596ee-f837-4f84-a8c9-f4152516e5e0","ios":"levelo://app?vid=b49596ee-f837-4f84-a8c9-f4152516e5e0"},"vehicle_type_id":"4","last_reported":1690560513,"current_range_meters":28400,"station_id":"ce4bhbh2rcd13ifvqepg","pricing_plan_id":"free"},{"bike_id":"47c4a034-1f35-41f2-8a98-787572a4dd74","system_id":"levelo_inurba_marseille","lat":43.292724,"lon":5.401131,"is_reserved":false,"is_disabled":false,"rental_uris":{"android":"levelo://app?vid=47c4a034-1f35-41f2-8a98-787572a4dd74","ios":"levelo://app?vid=47c4a034-1f35-41f2-8a98-787572a4dd74"},"vehicle_type_id":"4","last_reported":1690560513,"current_range_meters":20800,"station_id":"ce4bh312rcd13ifvqdk0","pricing_plan_id":"free"},{"bike_id":"f3257df7-2da7-41a4-b8c6-3d7cc2e75f13","system_id":"levelo_inurba_marseille","lat":43.292724,"lon":5.401131,"is_reserved":false,"is_disabled":false,"rental_uris":{"android":"levelo://app?vid=f3257df7-2da7-41a4-b8c6-3d7cc2e75f13","ios":"levelo://app?vid=f3257df7-2da7-41a4-b8c6-3d7cc2e75f13"},"vehicle_type_id":"4","last_reported":1690560513,"current_range_meters":30000,"station_id":"ce4bh312rcd13ifvqdk0","pricing_plan_id":"free"},{"bike_id":"23105b0e-79df-4cba-aa7d-1858f647031f","system_id":"levelo_inurba_marseille","lat":43.282744,"lon":5.350533,"is_reserved":false,"is_disabled":false,"rental_uris":{"android":"levelo://app?vid=23105b0e-79df-4cba-aa7d-1858f647031f","ios":"levelo://app?vid=23105b0e-79df-4cba-aa7d-1858f647031f"},"vehicle_type_id":"4","last_reported":1690560513,"current_range_meters":18800,"station_id":"ce4bhbp2rcd13ifvqerg","pricing_plan_id":"free"},{"bike_id":"145f4a43-3351-41c0-8969-0452513bf207","system_id":"levelo_inurba_marseille","lat":43.2828,"lon":5.35068,"is_reserved":false,"is_disabled":false,"rental_uris":{"android":"levelo://app?vid=145f4a43-3351-41c0-8969-0452513bf207","ios":"levelo://app?vid=145f4a43-3351-41c0-8969-0452513bf207"},"vehicle_type_id":"4","last_reported":1690560513,"current_range_meters":25600,"station_id":"ce4bhbp2rcd13ifvqerg","pricing_plan_id":"free"},{"bike_id":"89528857-ddf7-4b45-8773-52d7fcde325a","system_id":"levelo_inurba_marseille","lat":43.28283,"lon":5.35053,"is_reserved":false,"is_disabled":false,"rental_uris":{"android":"levelo://app?vid=89528857-ddf7-4b45-8773-52d7fcde325a","ios":"levelo://app?vid=89528857-ddf7-4b45-8773-52d7fcde325a"},"vehicle_type_id":"4","last_reported":1690560513,"current_range_meters":20800,"station_id":"ce4bhbh2rcd13ifvqepg","pricing_plan_id":"free"},{"bike_id":"4d662194-a087-49d9-8941-cfe9865bae50","system_id":"levelo_inurba_marseille","lat":43.28277,"lon":5.35066,"is_reserved":false,"is_disabled":false,"rental_uris":{"android":"levelo://app?vid=4d662194-a087-49d9-8941-cfe9865bae50","ios":"levelo://app?vid=4d662194-a087-49d9-8941-cfe9865bae50"},"vehicle_type_id":"4","last_reported":1690560513,"current_range_meters":16000,"station_id":"ce4bhbp2rcd13ifvqerg","pricing_plan_id":"free"},{"bike_id":"39fe184d-4e11-43ad-854e-f9a9d62f1f79","system_id":"levelo_inurba_marseille","lat":43.28274,"lon":5.35076,"is_reserved":false,"is_disabled":false,"rental_uris":{"android":"levelo://app?vid=39fe184d-4e11-43ad-854e-f9a9d62f1f79","ios":"levelo://app?vid=39fe184d-4e11-43ad-854e-f9a9d62f1f79"},"vehicle_type_id":"4","last_reported":1690560513,"current_range_meters":19200,"station_id":"ce4bhbp2rcd13ifvqerg","pricing_plan_id":"free"},{"bike_id":"b977e112-c2a3-4f28-b7a0-05988f887012","system_id":"levelo_inurba_marseille","lat":43.28275,"lon":5.35072,"is_reserved":false,"is_disabled":false,"rental_uris":{"android":"levelo://app?vid=b977e112-c2a3-4f28-b7a0-05988f887012","ios":"levelo://app?vid=b977e112-c2a3-4f28-b7a0-05988f887012"},"vehicle_type_id":"4","last_reported":1690560513,"current_range_meters":12000,"station_id":"ce4bhbp2rcd13ifvqerg","pricing_plan_id":"free"},{"bike_id":"0b32c2ae-9853-45ea-958f-3c4672f420ef","system_id":"levelo_inurba_marseille","lat":43.28276,"lon":5.35067,"is_reserved":false,"is_disabled":false,"rental_uris":{"android":"levelo://app?vid=0b32c2ae-9853-45ea-958f-3c4672f420ef","ios":"levelo://app?vid=0b32c2ae-9853-45ea-958f-3c4672f420ef"},"vehicle_type_id":"4","last_reported":1690560513,"current_range_meters":26800,"station_id":"ce4bhbp2rcd13ifvqerg","pricing_plan_id":"free"},{"bike_id":"84f4c873-6d6f-459c-9304-2997cdc68a22","system_id":"levelo_inurba_marseille","lat":43.28273,"lon":5.35074,"is_reserved":false,"is_disabled":false,"rental_uris":{"android":"levelo://app?vid=84f4c873-6d6f-459c-9304-2997cdc68a22","ios":"levelo://app?vid=84f4c873-6d6f-459c-9304-2997cdc68a22"},"vehicle_type_id":"4","last_reported":1690560513,"current_range_meters":20400,"station_id":"ce4bhbp2rcd13ifvqerg","pricing_plan_id":"free"},{"bike_id":"a2b9bdaf-a03a-480f-96cf-be380ec0d30c","system_id":"levelo_inurba_marseille","lat":43.28271,"lon":5.3508,"is_reserved":false,"is_disabled":false,"rental_uris":{"android":"levelo://app?vid=a2b9bdaf-a03a-480f-96cf-be380ec0d30c","ios":"levelo://app?vid=a2b9bdaf-a03a-480f-96cf-be380ec0d30c"},"vehicle_type_id":"4","last_reported":1690560513,"current_range_meters":17200,"station_id":"ce4bhbp2rcd13ifvqerg","pricing_plan_id":"free"},{"bike_id":"c1eef730-6218-4c6e-b2de-468313968909","system_id":"levelo_inurba_marseille","lat":43.28271,"lon":5.35079,"is_reserved":false,"is_disabled":false,"rental_uris":{"android":"levelo://app?vid=c1eef730-6218-4c6e-b2de-468313968909","ios":"levelo://app?vid=c1eef730-6218-4c6e-b2de-468313968909"},"vehicle_type_id":"4","last_reported":1690560513,"current_range_meters":27200,"station_id":"ce4bhbp2rcd13ifvqerg","pricing_plan_id":"free"},{"bike_id":"3e165867-f60e-4d95-95d9-aa0b1f2bd680","system_id":"levelo_inurba_marseille","lat":43.28286,"lon":5.35026,"is_reserved":false,"is_disabled":false,"rental_uris":{"android":"levelo://app?vid=3e165867-f60e-4d95-95d9-aa0b1f2bd680","ios":"levelo://app?vid=3e165867-f60e-4d95-95d9-aa0b1f2bd680"},"vehicle_type_id":"4","last_reported":1690560513,"current_range_meters":25600,"station_id":"ce4bhbp2rcd13ifvqerg","pricing_plan_id":"free"},{"bike_id":"54d2cc84-3093-4c58-b88a-1735f7adefc0","system_id":"levelo_inurba_marseille","lat":43.2827,"lon":5.35081,"is_reserved":false,"is_disabled":false,"rental_uris":{"android":"levelo://app?vid=54d2cc84-3093-4c58-b88a-1735f7adefc0","ios":"levelo://app?vid=54d2cc84-3093-4c58-b88a-1735f7adefc0"},"vehicle_type_id":"4","last_reported":1690560513,"current_range_meters":31200,"station_id":"ce4bhbp2rcd13ifvqerg","pricing_plan_id":"free"},{"bike_id":"29df2dec-5766-4122-96e2-877862d49df1","system_id":"levelo_inurba_marseille","lat":43.28273,"lon":5.35068,"is_reserved":false,"is_disabled":false,"rental_uris":{"android":"levelo://app?vid=29df2dec-5766-4122-96e2-877862d49df1","ios":"levelo://app?vid=29df2dec-5766-4122-96e2-877862d49df1"},"vehicle_type_id":"4","last_reported":1690560513,"current_range_meters":14000,"station_id":"ce4bhbp2rcd13ifvqerg","pricing_plan_id":"free"},{"bike_id":"76031273-912e-43af-b097-7fdea5e260f7","system_id":"levelo_inurba_marseille","lat":43.2827,"lon":5.35078,"is_reserved":false,"is_disabled":false,"rental_uris":{"android":"levelo://app?vid=76031273-912e-43af-b097-7fdea5e260f7","ios":"levelo://app?vid=76031273-912e-43af-b097-7fdea5e260f7"},"vehicle_type_id":"4","last_reported":1690560513,"current_range_meters":21200,"station_id":"ce4bhbp2rcd13ifvqerg","pricing_plan_id":"free"},{"bike_id":"10b4a153-ec23-4b12-af46-0f38219f306e","system_id":"levelo_inurba_marseille","lat":43.28273,"lon":5.35066,"is_reserved":false,"is_disabled":false,"rental_uris":{"android":"levelo://app?vid=10b4a153-ec23-4b12-af46-0f38219f306e","ios":"levelo://app?vid=10b4a153-ec23-4b12-af46-0f38219f306e"},"vehicle_type_id":"4","last_reported":1690560513,"current_range_meters":12400,"station_id":"ce4bhbp2rcd13ifvqerg","pricing_plan_id":"free"},{"bike_id":"cdc5a48f-8c5c-4a1d-aaef-925377bae5d5","system_id":"levelo_inurba_marseille","lat":43.28271,"lon":5.35072,"is_reserved":false,"is_disabled":false,"rental_uris":{"android":"levelo://app?vid=cdc5a48f-8c5c-4a1d-aaef-925377bae5d5","ios":"levelo://app?vid=cdc5a48f-8c5c-4a1d-aaef-925377bae5d5"},"vehicle_type_id":"4","last_reported":1690560513,"current_range_meters":16800,"station_id":"ce4bhbp2rcd13ifvqerg","pricing_plan_id":"free"},{"bike_id":"a3d2d0ae-ba62-46e3-89d8-3c487c7d289e","system_id":"levelo_inurba_marseille","lat":43.282744,"lon":5.350533,"is_reserved":false,"is_disabled":false,"rental_uris":{"android":"levelo://app?vid=a3d2d0ae-ba62-46e3-89d8-3c487c7d289e","ios":"levelo://app?vid=a3d2d0ae-ba62-46e3-89d8-3c487c7d289e"},"vehicle_type_id":"4","last_reported":1690560513,"current_range_meters":26400,"station_id":"ce4bhbp2rcd13ifvqerg","pricing_plan_id":"free"},{"bike_id":"1afb3f5d-31b6-40ee-b414-1a4b7c01f33f","system_id":"levelo_inurba_marseille","lat":43.28269,"lon":5.35078,"is_reserved":false,"is_disabled":false,"rental_uris":{"android":"levelo://app?vid=1afb3f5d-31b6-40ee-b414-1a4b7c01f33f","ios":"levelo://app?vid=1afb3f5d-31b6-40ee-b414-1a4b7c01f33f"},"vehicle_type_id":"4","last_reported":1690560513,"current_range_meters":31200,"station_id":"ce4bhbp2rcd13ifvqerg","pricing_plan_id":"free"},{"bike_id":"647b7074-a8a8-4ea7-88d7-6c369a01be80","system_id":"levelo_inurba_marseille","lat":43.28268,"lon":5.3508,"is_reserved":false,"is_disabled":false,"rental_uris":{"android":"levelo://app?vid=647b7074-a8a8-4ea7-88d7-6c369a01be80","ios":"levelo://app?vid=647b7074-a8a8-4ea7-88d7-6c369a01be80"},"vehicle_type_id":"4","last_reported":1690560513,"current_range_meters":23600,"station_id":"ce4bhbp2rcd13ifvqerg","pricing_plan_id":"free"},{"bike_id":"baf8bf48-a950-4ed7-8f39-915c725290dc","system_id":"levelo_inurba_marseille","lat":43.28269,"lon":5.35076,"is_reserved":false,"is_disabled":false,"rental_uris":{"android":"levelo://app?vid=baf8bf48-a950-4ed7-8f39-915c725290dc","ios":"levelo://app?vid=baf8bf48-a950-4ed7-8f39-915c725290dc"},"vehicle_type_id":"4","last_reported":1690560513,"current_range_meters":31200,"station_id":"ce4bhbp2rcd13ifvqerg","pricing_plan_id":"free"},{"bike_id":"857c5dcd-e9f5-4d7b-a01b-94f93b6fa87e","system_id":"levelo_inurba_marseille","lat":43.283502,"lon":5.386471,"is_reserved":false,"is_disabled":false,"rental_uris":{"android":"levelo://app?vid=857c5dcd-e9f5-4d7b-a01b-94f93b6fa87e","ios":"levelo://app?vid=857c5dcd-e9f5-4d7b-a01b-94f93b6fa87e"},"vehicle_type_id":"4","last_reported":1690560513,"current_range_meters":26000,"station_id":"ce4bh492rcd13ifvqdvg","pricing_plan_id":"free"},