{"last_updated":1717355121,"ttl":30,"version":"2.2","data":{"bikes":[{"bike_id":"5bd99e36-aeed-4569-ae01-e69ddaee83ef","system_id":"levelo_inurba_marseille","lat":43.313391,"lon":5.36706,"is_reserved":false,"is_disabled":false,"rental_uris":{"android":"levelo://app?vid=5bd99e36-aeed-4569-ae01-e69ddaee83ef","ios":"levelo://app?vid=5bd99e36-aeed-4569-ae01-e69ddaee83ef"},"vehicle_type_id":"4","last_reported":1717355121,"current_range_meters":3200,"station_id":"ce4bgr92rcd13ifvqc6g","pricing_plan_id":"cebpf4jnsgd1na2vs0mg"},{"bike_id":"5e3ba8a5-b019-4eff-949b-47df809a73e5","system_id":"levelo_inurba_marseille","lat":43.312239,"lon":5.368562,"is_reserved":false,"is_disabled":false,"rental_uris":{"android":"levelo://app?vid=5e3ba8a5-b019-4eff-949b-47df809a73e5","ios":"levelo://app?vid=5e3ba8a5-b019-4eff-949b-47df809a73e5"},"vehicle_type_id":"4","last_reported":1717355121,"current_range_meters":800,"station_id":"ce4bgl92rcd13ifvqbq0","pricing_plan_id":"cebpf4jnsgd1na2vs0mg"},{"bike_id":"dcd57b27-8345-4c82-a48a-f7d115856ba6","system_id":"levelo_inurba_marseille","lat":43.31222,"lon":5.36862,"is_reserved":false,"is_disabled":false,"rental_uris":{"android":"levelo://app?vid=dcd57b27-8345-4c82-a48a-f7d115856ba6","ios":"levelo://app?vid=dcd57b27-8345-4c82-a48a-f7d115856ba6"},"vehicle_type_id":"4","last_reported":1717355121,"current_range_meters":18000,"station_id":"ce4bgl92rcd13ifvqbq0","pricing_plan_id":"cebpf4jnsgd1na2vs0mg"},{"bike_id":"83d9b68e-63d2-4d8d-ba5f-3d2e8790e8c1","system_id":"levelo_inurba_marseille","lat":43.309076,"lon":5.368465,"is_reserved":false,"is_disabled":false,"rental_uris":{"android":"levelo://app?vid=83d9b68e-63d2-4d8d-ba5f-3d2e8790e8c1","ios":"levelo://app?vid=83d9b68e-63d2-4d8d-ba5f-3d2e8790e8c1"},"vehicle_type_id":"4","last_reported":1717355121,"current_range_meters":22800,"station_id":"ce4bgn92rcd13ifvqbvg","pricing_plan_id":"cebpf4jnsgd1na2vs0mg"},{"bike_id":"7ac6e6bd-5b25-44d0-81e5-cfbf03cf5747","system_id":"levelo_inurba_marseille","lat":43.309076,"lon":5.368465,"is_reserved":false,"is_disabled":false,"rental_uris":{"android":"levelo://app?vid=7ac6e6bd-5b25-44d0-81e5-cfbf03cf5747","ios":"levelo://app?vid=7ac6e6bd-5b25-44d0-81e5-cfbf03cf5747"},"vehicle_type_id":"4","last_reported":1717355121,"current_range_meters":4400,"station_id":"ce4bgn92rcd13ifvqbvg","pricing_plan_id":"cebpf4jnsgd1na2vs0mg"},{"bike_id":"7c4ceb46-5d4a-4b66-80a2-6ba6c61e0365","system_id":"levelo_inurba_marseille","lat":43.314811,"lon":5.373103,"is_reserved":false,"is_disabled":false,"rental_uris":{"android":"levelo://app?vid=7c4ceb46-5d4a-4b66-80a2-6ba6c61e0365","ios":"levelo://app?vid=7c4ceb46-5d4a-4b66-80a2-6ba6c61e0365"},"vehicle_type_id":"4","last_reported":1717355121,"current_range_meters":15200,"station_id":"ce4bgt12rcd13ifvqcd0","pricing_plan_id":"cebpf4jnsgd1na2vs0mg"},{"bike_id":"61f3c238-95fc-4d89-a7ba-99c3362b1eda","system_id":"levelo_inurba_marseille","lat":43.314811,"lon":5.373103,"is_reserved":false,"is_disabled":false,"rental_uris":{"android":"levelo://app?vid=61f3c238-95fc-4d89-a7ba-99c3362b1eda","ios":"levelo://app?vid=61f3c238-95fc-4d89-a7ba-99c3362b1eda"},"vehicle_type_id":"4","last_reported":1717355121,"current_range_meters":6000,"station_id":"ce4bgt12rcd13ifvqcd0","pricing_plan_id":"cebpf4jnsgd1na2vs0mg"},{"bike_id":"458af2a8-1231-4f21-a773-85618c249225","system_id":"levelo_inurba_marseille","lat":43.309039,"lon":5.371797,"is_reserved":false,"is_disabled":false,"rental_uris":{"android":"levelo://app?vid=458af2a8-1231-4f21-a773-85618c249225","ios":"levelo://app?vid=458af2a8-1231-4f21-a773-85618c249225"},"vehicle_type_id":"4","last_reported":1717355121,"current_range_meters":30800,"station_id":"ce4bguh2rcd13ifvqckg","pricing_plan_id":"cebpf4jnsgd1na2vs0mg"},{"bike_id":"ab277225-0f0b-41ba-adf3-53b15935c82a","system_id":"levelo_inurba_marseille","lat":43.309034,"lon":5.371783,"is_reserved":false,"is_disabled":false,"rental_uris":{"android":"levelo://app?vid=ab277225-0f0b-41ba-adf3-53b15935c82a","ios":"levelo://app?vid=ab277225-0f0b-41ba-adf3-53b15935c82a"},"vehicle_type_id":"4","last_reported":1717355121,"current_range_meters":26800,"station_id":"ce4bguh2rcd13ifvqckg","pricing_plan_id":"cebpf4jnsgd1na2vs0mg"},{"bike_id":"872ebcff-1dbc-461c-bb8f-642359a3fcc6","system_id":"levelo_inurba_marseille","lat":43.305714,"lon":5.365633,"is_reserved":false,"is_disabled":false,"rental_uris":{"android":"levelo://app?vid=872ebcff-1dbc-461c-bb8f-642359a3fcc6","ios":"levelo://app?vid=872ebcff-1dbc-461c-bb8f-642359a3fcc6"},"vehicle_type_id":"4","last_reported":1717355121,"current_range_meters":7200,"station_id":"ce4bgs12rcd13ifvqcag","pricing_plan_id":"cebpf4jnsgd1na2vs0mg"},{"bike_id":"f4a2f649-fbb8-4fcf-838f-8b48ba215964","system_id":"levelo_inurba_marseille","lat":43.305714,"lon":5.365633,"is_reserved":false,"is_disabled":false,"rental_uris":{"android":"levelo://app?vid=f4a2f649-fbb8-4fcf-838f-8b48ba215964","ios":"levelo://app?vid=f4a2f649-fbb8-4fcf-838f-8b48ba215964"},"vehicle_type_id":"4","last_reported":1717355121,"current_range_meters":18800,"station_id":"ce4bgs12rcd13ifvqcag","pricing_plan_id":"cebpf4jnsgd1na2vs0mg"},{"bike_id":"5f05a65e-6387-4d66-bfee-3811f1bf6d13","system_id":"levelo_inurba_marseille","lat":43.305368,"lon":5.367343,"is_reserved":false,"is_disabled":false,"rental_uris":{"android":"levelo://app?vid=5f05a65e-6387-4d66-bfee-3811f1bf6d13","ios":"levelo://app?vid=5f05a65e-6387-4d66-bfee-3811f1bf6d13"},"vehicle_type_id":"4","last_reported":1717355121,"current_range_meters":28000,"station_id":"ce4bgrp2rcd13ifvqc9g","pricing_plan_id":"cebpf4jnsgd1na2vs0mg"},{"bike_id":"0c0dd00a-9827-40b6-8d92-2a3cc234990c","system_id":"levelo_inurba_marseille","lat":43.305706,"lon":5.365654,"is_reserved":false,"is_disabled":false,"rental_uris":{"android":"levelo://app?vid=0c0dd00a-9827-40b6-8d92-2a3cc234990c","ios":"levelo://app?vid=0c0dd00a-9827-40b6-8d92-2a3cc234990c"},"vehicle_type_id":"4","last_reported":1717355121,"current_range_meters":2400,"station_id":"ce4bgs12rcd13ifvqcag","pricing_plan_id":"cebpf4jnsgd1na2vs0mg"},{"bike_id":"73421d27-6ea1-408e-95e6-fa1233ebc58a","system_id":"levelo_inurba_marseille","lat":43.305989,"lon":5.37225,"is_reserved":false,"is_disabled":false,"rental_uris":{"android":"levelo://app?vid=73421d27-6ea1-408e-95e6-fa1233ebc58a","ios":"levelo://app?vid=73421d27-6ea1-408e-95e6-fa1233ebc58a"},"vehicle_type_id":"4","last_reported":1717355121,"current_range_meters":31200,"station_id":"ce4bgqh2rcd13ifvqc4g","pricing_plan_id":"cebpf4jnsgd1na2vs0mg"},{"bike_id":"c767bac1-ed8e-4cbf-88f4-8b356bffbc12","system_id":"levelo_inurba_marseille","lat":43.305989,"lon":5.37225,"is_reserved":false,"is_disabled":false,"rental_uris":{"android":"levelo://app?vid=c767bac1-ed8e-4cbf-88f4-8b356bffbc12","ios":"levelo://app?vid=c767bac1-ed8e-4cbf-88f4-8b356bffbc12"},"vehicle_type_id":"4","last_reported":1717355121,"current_range_meters":5200,"station_id":"ce4bgqh2rcd13ifvqc4g","pricing_plan_id":"cebpf4jnsgd1na2vs0mg"},{"bike_id":"05edd305-8fee-4714-b80d-19db3986af2f","system_id":"levelo_inurba_marseille","lat":43.307945,"lon":5.376487,"is_reserved":false,"is_disabled":false,"rental_uris":{"android":"levelo://app?vid=05edd305-8fee-4714-b80d-19db3986af2f","ios":"levelo://app?vid=05edd305-8fee-4714-b80d-19db3986af2f"},"vehicle_type_id":"4","last_reported":1717355121,"current_range_meters":8800,"station_id":"ce4bgv92rcd13ifvqcq0","pricing_plan_id":"cebpf4jnsgd1na2vs0mg"},{"bike_id":"5515ca07-5058-4cec-9ba3-c94465cd7389","system_id":"levelo_inurba_marseille","lat":43.30786,"lon":5.37655,"is_reserved":false,"is_disabled":false,"rental_uris":{"android":"levelo://app?vid=5515ca07-5058-4cec-9ba3-c94465cd7389","ios":"levelo://app?vid=5515ca07-5058-4cec-9ba3-c94465cd7389"},"vehicle_type_id":"4","last_reported":1717355121,"current_range_meters":24800,"station_id":"","pricing_plan_id":"cebpf4jnsgd1na2vs0mg"},{"bike_id":"753509df-47d0-44d8-8ac8-0432764b8844","system_id":"levelo_inurba_marseille","lat":43.317075,"lon":5.377367,"is_reserved":false,"is_disabled":false,"rental_uris":{"android":"levelo://app?vid=753509df-47d0-44d8-8ac8-0432764b8844","ios":"levelo://app?vid=753509df-47d0-44d8-8ac8-0432764b8844"},"vehicle_type_id":"4","last_reported":1717355121,"current_range_meters":28000,"station_id":"ce4bgth2rcd13ifvqch0","pricing_plan_id":"cebpf4jnsgd1na2vs0mg"},{"bike_id":"90f32937-f06a-4e94-8f5d-4fa2494f0076","system_id":"levelo_inurba_marseille","lat":43.317075,"lon":5.377367,"is_reserved":false,"is_disabled":false,"rental_uris":{"android":"levelo://app?vid=90f32937-f06a-4e94-8f5d-4fa2494f0076","ios":"levelo://app?vid=90f32937-f06a-4e94-8f5d-4fa2494f0076"},"vehicle_type_id":"4","last_reported":1717355121,"current_range_meters":4800,"station_id":"ce4bgth2rcd13ifvqch0","pricing_plan_id":"cebpf4jnsgd1na2vs0mg"},{"bike_id":"72be7c86-695a-4103-aaeb-b9ee9c5be913","system_id":"levelo_inurba_marseille","lat":43.317075,"lon":5.377367,"is_reserved":false,"is_disabled":false,"rental_uris":{"android":"levelo://app?vid=72be7c86-695a-4103-aaeb-b9ee9c5be913","ios":"levelo://app?vid=72be7c86-695a-4103-aaeb-b9ee9c5be913"},"vehicle_type_id":"4","last_reported":1717355121,"current_range_meters":2800,"station_id":"ce4bgth2rcd13ifvqch0","pricing_plan_id":"cebpf4jnsgd1na2vs0mg"},{"bike_id":"688cb8db-659d-4351-bdd5-1f3fb86475ca","system_id":"levelo_inurba_marseille","lat":43.303046,"lon":5.368981,"is_reserved":false,"is_disabled":false,"rental_uris":{"android":"levelo://app?vid=688cb8db-659d-4351-bdd5-1f3fb86475ca","ios":"levelo://app?vid=688cb8db-659d-4351-bdd5-1f3fb86475ca"},"vehicle_type_id":"4","last_reported":1717355121,"current_range_meters":20800,"station_id":"ce4bgqh2rcd13ifvqc5g","pricing_plan_id":"cebpf4jnsgd1na2vs0mg"},{"bike_id":"53d6ef9e-1e08-437b-9744-51428100a8bc","system_id":"levelo_inurba_marseille","lat":43.30315,"lon":5.36899,"is_reserved":false,"is_disabled":false,"rental_uris":{"android":"levelo://app?vid=53d6ef9e-1e08-437b-9744-51428100a8bc","ios":"levelo://app?vid=53d6ef9e-1e08-437b-9744-51428100a8bc"},"vehicle_type_id":"4","last_reported":1717355121,"current_range_meters":20400,"station_id":"ce4bgqh2rcd13ifvqc5g","pricing_plan_id":"cebpf4jnsgd1na2vs0mg"},{"bike_id":"e5706546-01f2-4e99-8c49-b2823a36e62e","system_id":"levelo_inurba_marseille","lat":43.31522,"lon":5.38035,"is_reserved":false,"is_disabled":false,"rental_uris":{"android":"levelo://app?vid=e5706546-01f2-4e99-8c49-b2823a36e62e","ios":"levelo://app?vid=e5706546-01f2-4e99-8c49-b2823a36e62e"},"vehicle_type_id":"4","last_reported":1717355121,"current_range_meters":8000,"station_id":"ce4bhsp2rcd13ifvqi50","pricing_plan_id":"cebpf4jnsgd1na2vs0mg"},{"bike_id":"61ce56f3-8c27-423d-bbf1-b00ccc6cf763","system_id":"levelo_inurba_marseille","lat":43.315293,"lon":5.380349,"is_reserved":false,"is_disabled":false,"rental_uris":{"android":"levelo://app?vid=61ce56f3-8c27-423d-bbf1-b00ccc6cf763","ios":"levelo://app?vid=61ce56f3-8c27-423d-bbf1-b00ccc6cf763"},"vehicle_type_id":"4","last_reported":1717355121,"current_range_meters":0,"station_id":"ce4bhsp2rcd13ifvqi50","pricing_plan_id":"cebpf4jnsgd1na2vs0mg"},{"bike_id":"169958bb-6b82-46d7-904f-4c34849a134c","system_id":"levelo_inurba_marseille","lat":43.301939,"lon":5.366286,"is_reserved":false,"is_disabled":false,"rental_uris":{"android":"levelo://app?vid=169958bb-6b82-46d7-904f-4c34849a134c","ios":"levelo://app?vid=169958bb-6b82-46d7-904f-4c34849a134c"},"vehicle_type_id":"4","last_reported":1717355121,"current_range_meters":30400,"station_id":"ce4bgrh2rcd13ifvqc8g","pricing_plan_id":"cebpf4jnsgd1na2vs0mg"},{"bike_id":"1103ee30-a91d-4223-beaf-99229d73470c","system_id":"levelo_inurba_marseille","lat":43.308012,"lon":5.381511,"is_reserved":false,"is_disabled":false,"rental_uris":{"android":"levelo://app?vid=1103ee30-a91d-4223-beaf-99229d73470c","ios":"levelo://app?vid=1103ee30-a91d-4223-beaf-99229d73470c"},"vehicle_type_id":"4","last_reported":1717355121,"current_range_meters":2800,"station_id":"ce4bgt12rcd13ifvqce0","pricing_plan_id":"cebpf4jnsgd1na2vs0mg"},{"bike_id":"fb731105-1be2-4149-8ed3-4471276fc4e8","system_id":"levelo_inurba_marseille","lat":43.308012,"lon":5.381511,"is_reserved":false,"is_disabled":false,"rental_uris":{"android":"levelo://app?vid=fb731105-1be2-4149-8ed3-4471276fc4e8","ios":"levelo://app?vid=fb731105-1be2-4149-8ed3-4471276fc4e8"},"vehicle_type_id":"4","last_reported":1717355121,"current_range_meters":1600,"station_id":"ce4bgt12rcd13ifvqce0","pricing_plan_id":"cebpf4jnsgd1na2vs0mg"},{"bike_id":"8f829ca6-ae86-4f2e-b224-a62ef87274d0","system_id":"levelo_inurba_marseille","lat":43.308012,"lon":5.381511,"is_reserved":false,"is_disabled":false,"rental_uris":{"android":"levelo://app?vid=8f829ca6-ae86-4f2e-b224-a62ef87274d0","ios":"levelo://app?vid=8f829ca6-ae86-4f2e-b224-a62ef87274d0"},"vehicle_type_id":"4","last_reported":1717355121,"current_range_meters":27200,"station_id":"ce4bgt12rcd13ifvqce0","pricing_plan_id":"cebpf4jnsgd1na2vs0mg"},{"bike_id":"69c53711-aa99-4d00-9124-d37aa7d5e5be","system_id":"levelo_inurba_marseille","lat":43.304606,"lon":5.379026,"is_reserved":false,"is_disabled":false,"rental_uris":{"android":"levelo://app?vid=69c53711-aa99-4d00-9124-d37aa7d5e5be","ios":"levelo://app?vid=69c53711-aa99-4d00-9124-d37aa7d5e5be"},"vehicle_type_id":"4","last_reported":1717355121,"current_range_meters":2400,"station_id":"ce4bgup2rcd13ifvqcn0","pricing_plan_id":"cebpf4jnsgd1na2vs0mg"},{"bike_id":"4aa0b8da-869f-4f24-abe3-ff82c0d3a2f1","system_id":"levelo_inurba_marseille","lat":43.304606,"lon":5.379026,"is_reserved":false,"is_disabled":false,"rental_uris":{"android":"levelo://app?vid=4aa0b8da-869f-4f24-abe3-ff82c0d3a2f1","ios":"levelo://app?vid=4aa0b8da-869f-4f24-abe3-ff82c0d3a2f1"},"vehicle_type_id":"4","last_reported":1717355121,"current_range_meters":2800,"station_id":"ce4bgup2rcd13ifvqcn0","pricing_plan_id":"cebpf4jnsgd1na2vs0mg"},{"bike_id":"c498a2e8-e921-4f9d-b630-7aee5f42c34c","system_id":"levelo_inurba_marseille","lat":43.324771,"lon":5.36557,"is_reserved":false,"is_disabled":false,"rental_uris":{"android":"levelo://app?vid=c498a2e8-e921-4f9d-b630-7aee5f42c34c","ios":"levelo://app?vid=c498a2e8-e921-4f9d-b630-7aee5f42c34c"},"vehicle_type_id":"4","last_reported":1717355121,"current_range_meters":8800,"station_id":"ce4bhs12rcd13ifvqhvg","pricing_plan_id":"cebpf4jnsgd1na2vs0mg"},{"bike_id":"92ec211f-0b53-4f34-b1e9-036fd0d768f7","system_id":"levelo_inurba_marseille","lat":43.324771,"lon":5.36557,"is_reserved":false,"is_disabled":false,"rental_uris":{"android":"levelo://app?vid=92ec211f-0b53-4f34-b1e9-036fd0d768f7","ios":"levelo://app?vid=92ec211f-0b53-4f34-b1e9-036fd0d768f7"},"vehicle_type_id":"4","last_reported":1717355121,"current_range_meters":800,"station_id":"ce4bhs12rcd13ifvqhvg","pricing_plan_id":"cebpf4jnsgd1na2vs0mg"},{"bike_id":"b69785a0-54b9-4294-8f9a-08a9d58b8de4","system_id":"levelo_inurba_marseille","lat":43.324771,"lon":5.36557,"is_reserved":false,"is_disabled":false,"rental_uris":{"android":"levelo://app?vid=b69785a0-54b9-4294-8f9a-08a9d58b8de4","ios":"levelo://app?vid=b69785a0-54b9-4294-8f9a-08a9d58b8de4"},"vehicle_type_id":"4","last_reported":1717355121,"current_range_meters":0,"station_id":"ce4bhs12rcd13ifvqhvg","pricing_plan_id":"cebpf4jnsgd1na2vs0mg"},{"bike_id":"41f71f28-89c0-47d5-84d1-4c186c285185","system_id":"levelo_inurba_marseille","lat":43.31075,"lon":5.38359,"is_reserved":false,"is_disabled":false,"rental_uris":{"android":"levelo://app?vid=41f71f28-89c0-47d5-84d1-4c186c285185","ios":"levelo://app?vid=41f71f28-89c0-47d5-84d1-4c186c285185"},"vehicle_type_id":"4","last_reported":1717355121,"current_range_meters":10800,"station_id":"ce4bgv92rcd13ifvqcr0","pricing_plan_id":"cebpf4jnsgd1na2vs0mg"},{"bike_id":"fadc7069-0015-4740-8ccc-c04ca636dbdb","system_id":"levelo_inurba_marseille","lat":43.302784,"lon":5.377158,"is_reserved":false,"is_disabled":false,"rental_uris":{"android":"levelo://app?vid=fadc7069-0015-4740-8ccc-c04ca636dbdb","ios":"levelo://app?vid=fadc7069-0015-4740-8ccc-c04ca636dbdb"},"vehicle_type_id":"4","last_reported":1717355121,"current_range_meters":6800,"station_id":"ce4bguh2rcd13ifvqcj0","pricing_plan_id":"cebpf4jnsgd1na2vs0mg"},{"bike_id":"19400dea-4333-42c3-ac27-5601aa5a2ec6","system_id":"levelo_inurba_marseille","lat":43.310804,"lon":5.38359,"is_reserved":false,"is_disabled":false,"rental_uris":{"android":"levelo://app?vid=19400dea-4333-42c3-ac27-5601aa5a2ec6","ios":"levelo://app?vid=19400dea-4333-42c3-ac27-5601aa5a2ec6"},"vehicle_type_id":"4","last_reported":1717355121,"current_range_meters":20000,"station_id":"ce4bgv92rcd13ifvqcr0","pricing_plan_id":"cebpf4jnsgd1na2vs0mg"},{"bike_id":"4c090c07-b5f8-443d-b0bd-3924b2dce09b","system_id":"levelo_inurba_marseille","lat":43.302784,"lon":5.377158,"is_reserved":false,"is_disabled":false,"rental_uris":{"android":"levelo://app?vid=4c090c07-b5f8-443d-b0bd-3924b2dce09b","ios":"levelo://app?vid=4c090c07-b5f8-443d-b0bd-3924b2dce09b"},"vehicle_type_id":"4","last_reported":1717355121,"current_range_meters":12800,"station_id":"ce4bguh2rcd13ifvqcj0","pricing_plan_id":"cebpf4jnsgd1na2vs0mg"},{"bike_id":"183d099e-b1a3-4ae2-9e16-b4de3becc801","system_id":"levelo_inurba_marseille","lat":43.302784,"lon":5.377158,"is_reserved":false,"is_disabled":false,"rental_uris":{"android":"levelo://app?vid=183d099e-b1a3-4ae2-9e16-b4de3becc801","ios":"levelo://app?vid=183d099e-b1a3-4ae2-9e16-b4de3becc801"},"vehicle_type_id":"4","last_reported":1717355121,"current_range_meters":6000,"station_id":"ce4bguh2rcd13ifvqcj0","pricing_plan_id":"cebpf4jnsgd1na2vs0mg"},{"bike_id":"5fb3698e-7b55-478c-95cf-c904b62ba923","system_id":"levelo_inurba_marseille","lat":43.302784,"lon":5.377158,"is_reserved":false,"is_disabled":false,"rental_uris":{"android":"levelo://app?vid=5fb3698e-7b55-478c-95cf-c904b62ba923","ios":"levelo://app?vid=5fb3698e-7b55-478c-95cf-c904b62ba923"},"vehicle_type_id":"4","last_reported":1717355121,"current_range_meters":22000,"station_id":"ce4bguh2rcd13ifvqcj0","pricing_plan_id":"cebpf4jnsgd1na2vs0mg"},{"bike_id":"ced62563-7ea9-4521-b956-4be9171ebffd","system_id":"levelo_inurba_marseille","lat":43.302784,"lon":5.377158,"is_reserved":false,"is_disabled":false,"rental_uris":{"android":"levelo://app?vid=ced62563-7ea9-4521-b956-4be9171ebffd","ios":"levelo://app?vid=ced62563-7ea9-4521-b956-4be9171ebffd"},"vehicle_type_id":"4","last_reported":1717355121,"current_range_meters":18000,"station_id":"ce4bguh2rcd13ifvqcj0","pricing_plan_id":"cebpf4jnsgd1na2vs0mg"},{"bike_id":"0a1661cb-6e2c-4ed1-bebb-feea70cac81f","system_id":"levelo_inurba_marseille","lat":43.301429,"lon":5.37413,"is_reserved":false,"is_disabled":false,"rental_uris":{"android":"levelo://app?vid=0a1661cb-6e2c-4ed1-bebb-feea70cac81f","ios":"levelo://app?vid=0a1661cb-6e2c-4ed1-bebb-feea70cac81f"},"vehicle_type_id":"4","last_reported":1717355121,"current_range_meters":6400,"station_id":"ce4bgs92rcd13ifvqcc0","pricing_plan_id":"cebpf4jnsgd1na2vs0mg"},{"bike_id":"0e7f4bcc-4806-4add-b595-fd726b6d2e52","system_id":"levelo_inurba_marseille","lat":43.319935,"lon":5.381699,"is_reserved":false,"is_disabled":false,"rental_uris":{"android":"levelo://app?vid=0e7f4bcc-4806-4add-b595-fd726b6d2e52","ios":"levelo://app?vid=0e7f4bcc-4806-4add-b595-fd726b6d2e52"},"vehicle_type_id":"4","last_reported":1717355121,"current_range_meters":12000,"station_id":"ce4bhr12rcd13ifvqhpg","pricing_plan_id":"cebpf4jnsgd1na2vs0mg"},{"bike_id":"9b93a1d8-853a-479d-b3b8-795cae429c8f","system_id":"levelo_inurba_marseille","lat":43.319935,"lon":5.381699,"is_reserved":false,"is_disabled":false,"rental_uris":{"android":"levelo://app?vid=9b93a1d8-853a-479d-b3b8-795cae429c8f","ios":"levelo://app?vid=9b93a1d8-853a-479d-b3b8-795cae429c8f"},"vehicle_type_id":"4","last_reported":1717355121,"current_range_meters":24000,"station_id":"ce4bhr12rcd13ifvqhpg","pricing_plan_id":"cebpf4jnsgd1na2vs0mg"},{"bike_id":"a1b324c3-4672-4178-8f46-8f15d360dea8","system_id":"levelo_inurba_marseille","lat":43.303299,"lon":5.379291,"is_reserved":false,"is_disabled":false,"rental_uris":{"android":"levelo://app?vid=a1b324c3-4672-4178-8f46-8f15d360dea8","ios":"levelo://app?vid=a1b324c3-4672-4178-8f46-8f15d360dea8"},"vehicle_type_id":"4","last_reported":1717355121,"current_range_meters":16000,"station_id":"","pricing_plan_id":"cebpf4jnsgd1na2vs0mg"},{"bike_id":"def84737-7c83-4712-a103-897501d2dfce","system_id":"levelo_inurba_marseille","lat":43.313571,"lon":5.384829,"is_reserved":false,"is_disabled":false,"rental_uris":{"android":"levelo://app?vid=def84737-7c83-4712-a103-897501d2dfce","ios":"levelo://app?vid=def84737-7c83-4712-a103-897501d2dfce"},"vehicle_type_id":"4","last_reported":1717355121,"current_range_meters":11200,"station_id":"ce4bgt92rcd13ifvqcf0","pricing_plan_id":"cebpf4jnsgd1na2vs0mg"},{"bike_id":"00a83814-123b-4335-888b-54abba710b8a","system_id":"levelo_inurba_marseille","lat":43.313571,"lon":5.384829,"is_reserved":false,"is_disabled":false,"rental_uris":{"android":"levelo://app?vid=00a83814-123b-4335-888b-54abba710b8a","ios":"levelo://app?vid=00a83814-123b-4335-888b-54abba710b8a"},"vehicle_type_id":"4","last_reported":1717355121,"current_range_meters":16000,"station_id":"ce4bgt92rcd13ifvqcf0","pricing_plan_id":"cebpf4jnsgd1na2vs0mg"},{"bike_id":"4525cfdd-ee34-4104-b05d-6f4fb7c8b5a2","system_id":"levelo_inurba_marseille","lat":43.313571,"lon":5.384829,"is_reserved":false,"is_disabled":false,"rental_uris":{"android":"levelo://app?vid=4525cfdd-ee34-4104-b05d-6f4fb7c8b5a2","ios":"levelo://app?vid=4525cfdd-ee34-4104-b05d-6f4fb7c8b5a2"},"vehicle_type_id":"4","last_reported":1717355121,"current_range_meters":10400,"station_id":"ce4bgt92rcd13ifvqcf0","pricing_plan_id":"cebpf4jnsgd1na2vs0mg"},{"bike_id":"a7f5ede8-7c3e-4ad0-9b24-72e1d1e1cbd3","system_id":"levelo_inurba_marseille","lat":43.313571,"lon":5.384829,"is_reserved":false,"is_disabled":false,"rental_uris":{"android":"levelo://app?vid=a7f5ede8-7c3e-4ad0-9b24-72e1d1e1cbd3","ios":"levelo://app?vid=a7f5ede8-7c3e-4ad0-9b24-72e1d1e1cbd3"},"vehicle_type_id":"4","last_reported":1717355121,"current_range_meters":14800,"station_id":"ce4bgt92rcd13ifvqcf0","pricing_plan_id":"cebpf4jnsgd1na2vs0mg"},{"bike_id":"365ba7b2-59d6-4ba7-8c9f-c061b6f48be0","system_id":"levelo_inurba_marseille","lat":43.313571,"lon":5.384829,"is_reserved":false,"is_disabled":false,"rental_uris":{"android":"levelo://app?vid=365ba7b2-59d6-4ba7-8c9f-c061b6f48be0","ios":"levelo://app?vid=365ba7b2-59d6-4ba7-8c9f-c061b6f48be0"},"vehicle_type_id":"4","last_reported":1717355121,"current_range_meters":31600,"station_id":"ce4bgt92rcd13ifvqcf0","pricing_plan_id":"cebpf4jnsgd1na2vs0mg"},{"bike_id":"8966cd8c-9080-40d3-ae02-4ef9c1ef63b8","system_id":"levelo_inurba_marseille","lat":43.313667,"lon":5.38496,"is_reserved":false,"is_disabled":false,"rental_uris":{"android":"levelo://app?vid=8966cd8c-9080-40d3-ae02-4ef9c1ef63b8","ios":"levelo://app?vid=8966cd8c-9080-40d3-ae02-4ef9c1ef63b8"},"vehicle_type_id":"4","last_reported":1717355121,"current_range_meters":0,"station_id":"ce4bgt92rcd13ifvqcf0","pricing_plan_id":"cebpf4jnsgd1na2vs0mg"},{"bike_id":"c335231d-c5dc-419a-9b77-10fdd688c3ec","system_id":"levelo_inurba_marseille","lat":43.313571,"lon":5.384829,"is_reserved":false,"is_disabled":false,"rental_uris":{"android":"levelo://app?vid=c335231d-c5dc-419a-9b77-10fdd688c3ec","ios":"levelo://app?vid=c335231d-c5dc-419a-9b77-10fdd688c3ec"},"vehicle_type_id":"4","last_reported":1717355121,"current_range_meters":20400,"station_id":"ce4bgt92rcd13ifvqcf0","pricing_plan_id":"cebpf4jnsgd1na2vs0mg"},{"bike_id":"1039c165-cb2d-4e32-bdbd-065e83fa08e7","system_id":"levelo_inurba_marseille","lat":43.313571,"lon":5.384829,"is_reserved":false,"is_disabled":false,"rental_uris":{"android":"levelo://app?vid=1039c165-cb2d-4e32-bdbd-065e83fa08e7","ios":"levelo://app?vid=1039c165-cb2d-4e32-bdbd-065e83fa08e7"},"vehicle_type_id":"4","last_reported":1717355121,"current_range_meters":9200,"station_id":"ce4bgt92rcd13ifvqcf0","pricing_plan_id":"cebpf4jnsgd1na2vs0mg"},{"bike_id":"d486d1b7-40b4-41d0-ae81-0141f0773635","system_id":"levelo_inurba_marseille","lat":43.313571,"lon":5.384829,"is_reserved":false,"is_disabled":false,"rental_uris":{"android":"levelo://app?vid=d486d1b7-40b4-41d0-ae81-0141f0773635","ios":"levelo://app?vid=d486d1b7-40b4-41d0-ae81-0141f0773635"},"vehicle_type_id":"4","last_reported":1717355121,"current_range_meters":24800,"station_id":"ce4bgt92rcd13ifvqcf0","pricing_plan_id":"cebpf4jnsgd1na2vs0mg"},{"bike_id":"ec8302c8-ada0-43e3-99bb-edaa45f8e26e","system_id":"levelo_inurba_marseille","lat":43.313571,"lon":5.384829,"is_reserved":false,"is_disabled":false,"rental_uris":{"android":"levelo://app?vid=ec8302c8-ada0-43e3-99bb-edaa45f8e26e","ios":"levelo://app?vid=ec8302c8-ada0-43e3-99bb-edaa45f8e26e"},"vehicle_type_id":"4","last_reported":1717355121,"current_range_meters":31600,"station_id":"ce4bgt92rcd13ifvqcf0","pricing_plan_id":"cebpf4jnsgd1na2vs0mg"},{"bike_id":"82143a67-7f4a-4c59-9685-8d94999e81ab","system_id":"levelo_inurba_marseille","lat":43.313571,"lon":5.384829,"is_reserved":false,"is_disabled":false,"rental_uris":{"android":"levelo://app?vid=82143a67-7f4a-4c59-9685-8d94999e81ab","ios":"levelo://app?vid=82143a67-7f4a-4c59-9685-8d94999e81ab"},"vehicle_type_id":"4","last_reported":1717355121,"current_range_meters":19200,"station_id":"ce4bgt92rcd13ifvqcf0","pricing_plan_id":"cebpf4jnsgd1na2vs0mg"},{"bike_id":"7dec1f05-7322-443c-b385-e6514e3f00b1","system_id":"levelo_inurba_marseille","lat":43.313571,"lon":5.384829,"is_reserved":false,"is_disabled":false,"rental_uris":{"android":"levelo://app?vid=7dec1f05-7322-443c-b385-e6514e3f00b1","ios":"levelo://app?vid=7dec1f05-7322-443c-b385-e6514e3f00b1"},"vehicle_type_id":"4","last_reported":1717355121,"current_range_meters":31600,"station_id":"ce4bgt92rcd13ifvqcf0","pricing_plan_id":"cebpf4jnsgd1na2vs0mg"},{"bike_id":"83f92008-020b-4040-b4a9-f2accacad23c","system_id":"levelo_inurba_marseille","lat":43.299222,"lon":5.365554,"is_reserved":false,"is_disabled":false,"rental_uris":{"android":"levelo://app?vid=83f92008-020b-4040-b4a9-f2accacad23c","ios":"levelo://app?vid=83f92008-020b-4040-b4a9-f2accacad23c"},"vehicle_type_id":"4","last_reported":1717355121,"current_range_meters":3200,"station_id":"ce4bgm92rcd13ifvqbr0","pricing_plan_id":"cebpf4jnsgd1na2vs0mg"},{"bike_id":"c9fae156-57f8-497a-9793-a34b3efe3283","system_id":"levelo_inurba_marseille","lat":43.299222,"lon":5.365554,"is_reserved":false,"is_disabled":false,"rental_uris":{"android":"levelo://app?vid=c9fae156-57f8-497a-9793-a34b3efe3283","ios":"levelo://app?vid=c9fae156-57f8-497a-9793-a34b3efe3283"},"vehicle_type_id":"4","last_reported":1717355121,"current_range_meters":0,"station_id":"ce4bgm92rcd13ifvqbr0","pricing_plan_id":"cebpf4jnsgd1na2vs0mg"},{"bike_id":"6da2d9c8-62ef-4c5c-88e4-7b05011ba957","system_id":"levelo_inurba_marseille","lat":43.299724,"lon":5.371829,"is_reserved":false,"is_disabled":false,"rental_uris":{"android":"levelo://app?vid=6da2d9c8-62ef-4c5c-88e4-7b05011ba957","ios":"levelo://app?vid=6da2d9c8-62ef-4c5c-88e4-7b05011ba957"},"vehicle_type_id":"4","last_reported":1717355121,"current_range_meters":7600,"station_id":"ce4bgr92rcd13ifvqc7g","pricing_plan_id":"cebpf4jnsgd1na2vs0mg"},{"bike_id":"d7172df9-397a-4ec6-9faa-ffb30edae6e7","system_id":"levelo_inurba_marseille","lat":43.313571,"lon":5.384829,"is_reserved":false,"is_disabled":false,"rental_uris":{"android":"levelo://app?vid=d7172df9-397a-4ec6-9faa-ffb30edae6e7","ios":"levelo://app?vid=d7172df9-397a-4ec6-9faa-ffb30edae6e7"},"vehicle_type_id":"4","last_reported":1717355121,"current_range_meters":29600,"station_id":"ce4bgt92rcd13ifvqcf0","pricing_plan_id":"cebpf4jnsgd1na2vs0mg"},{"bike_id":"aee4b6a1-71fd-4d9b-aa18-92a4a72069b1","system_id":"levelo_inurba_marseille","lat":43.29845,"lon":5.36605,"is_reserved":false,"is_disabled":false,"rental_uris":{"android":"levelo://app?vid=aee4b6a1-71fd-4d9b-aa18-92a4a72069b1","ios":"levelo://app?vid=aee4b6a1-71fd-4d9b-aa18-92a4a72069b1"},"vehicle_type_id":"4","last_reported":1717355121,"current_range_meters":21200,"station_id":"ce4bh2h2rcd13ifvqdh0","pricing_plan_id":"cebpf4jnsgd1na2vs0mg"},{"bike_id":"c989592f-a2a1-4700-a039-b0017a4b5150","system_id":"levelo_inurba_marseille","lat":43.305364,"lon":5.384119,"is_reserved":false,"is_disabled":false,"rental_uris":{"android":"levelo://app?vid=c989592f-a2a1-4700-a039-b0017a4b5150","ios":"levelo://app?vid=c989592f-a2a1-4700-a039-b0017a4b5150"},"vehicle_type_id":"4","last_reported":1717355121,"current_range_meters":13200,"station_id":"ce4bgg92rcd13ifvqb30","pricing_plan_id":"cebpf4jnsgd1na2vs0mg"},{"bike_id":"5d433197-cbc0-4bd6-abe1-fa3b485d4cdf","system_id":"levelo_inurba_marseille","lat":43.298433,"lon":5.362774,"is_reserved":false,"is_disabled":false,"rental_uris":{"android":"levelo://app?vid=5d433197-cbc0-4bd6-abe1-fa3b485d4cdf","ios":"levelo://app?vid=5d433197-cbc0-4bd6-abe1-fa3b485d4cdf"},"vehicle_type_id":"4","last_reported":1717355121,"current_range_meters":17200,"station_id":"ce4bgpp2rcd13ifvqc3g","pricing_plan_id":"cebpf4jnsgd1na2vs0mg"},{"bike_id":"ba58a536-638a-4f6f-ac06-49f81556d892","system_id":"levelo_inurba_marseille","lat":43.298433,"lon":5.362774,"is_reserved":false,"is_disabled":false,"rental_uris":{"android":"levelo://app?vid=ba58a536-638a-4f6f-ac06-49f81556d892","ios":"levelo://app?vid=ba58a536-638a-4f6f-ac06-49f81556d892"},"vehicle_type_id":"4","last_reported":1717355121,"current_range_meters":6000,"station_id":"ce4bgpp2rcd13ifvqc3g","pricing_plan_id":"cebpf4jnsgd1na2vs0mg"},{"bike_id":"7c0279c4-785e-41cc-9875-11b1aa5697b0","system_id":"levelo_inurba_marseille","lat":43.298433,"lon":5.362774,"is_reserved":false,"is_disabled":false,"rental_uris":{"android":"levelo://app?vid=7c0279c4-785e-41cc-9875-11b1aa5697b0","ios":"levelo://app?vid=7c0279c4-785e-41cc-9875-11b1aa5697b0"},"vehicle_type_id":"4","last_reported":1717355121,"current_range_meters":29600,"station_id":"ce4bgpp2rcd13ifvqc3g","pricing_plan_id":"cebpf4jnsgd1na2vs0mg"},{"bike_id":"2237a994-7b83-43e4-acb0-7c023620e922","system_id":"levelo_inurba_marseille","lat":43.299243,"lon":5.37481,"is_reserved":false,"is_disabled":false,"rental_uris":{"android":"levelo://app?vid=2237a994-7b83-43e4-acb0-7c023620e922","ios":"levelo://app?vid=2237a994-7b83-43e4-acb0-7c023620e922"},"vehicle_type_id":"4","last_reported":1717355121,"current_range_meters":1600,"station_id":"ce4bgjh2rcd13ifvqbg0","pricing_plan_id":"cebpf4jnsgd1na2vs0mg"},{"bike_id":"68294ac3-f1c9-40dd-a24f-fd0b1f0c0fea","system_id":"levelo_inurba_marseille","lat":43.305364,"lon":5.384119,"is_reserved":false,"is_disabled":false,"rental_uris":{"android":"levelo://app?vid=68294ac3-f1c9-40dd-a24f-fd0b1f0c0fea","ios":"levelo://app?vid=68294ac3-f1c9-40dd-a24f-fd0b1f0c0fea"},"vehicle_type_id":"4","last_reported":1717355121,"current_range_meters":19200,"station_id":"ce4bgg92rcd13ifvqb30","pricing_plan_id":"cebpf4jnsgd1na2vs0mg"},{"bike_id":"0870cf45-a72b-4979-966a-121161adf9d2","system_id":"levelo_inurba_marseille","lat":43.311722,"lon":5.387247,"is_reserved":false,"is_disabled":false,"rental_uris":{"android":"levelo://app?vid=0870cf45-a72b-4979-966a-121161adf9d2","ios":"levelo://app?vid=0870cf45-a72b-4979-966a-121161adf9d2"},"vehicle_type_id":"4","last_reported":1717355121,"current_range_meters":27600,"station_id":"ce4bgv12rcd13ifvqcp0","pricing_plan_id":"cebpf4jnsgd1na2vs0mg"},{"bike_id":"e2d26072-bc84-4448-b9c2-391e4cd5e6d1","system_id":"levelo_inurba_marseille","lat":43.311722,"lon":5.387247,"is_reserved":false,"is_disabled":false,"rental_uris":{"android":"levelo://app?vid=e2d26072-bc84-4448-b9c2-391e4cd5e6d1","ios":"levelo://app?vid=e2d26072-bc84-4448-b9c2-391e4cd5e6d1"},"vehicle_type_id":"4","last_reported":1717355121,"current_range_meters":15200,"station_id":"ce4bgv12rcd13ifvqcp0","pricing_plan_id":"cebpf4jnsgd1na2vs0mg"},{"bike_id":"188594c7-cf16-40f8-9b8e-7cd3e1bf72d7","system_id":"levelo_inurba_marseille","lat":43.299243,"lon":5.37481,"is_reserved":false,"is_disabled":false,"rental_uris":{"android":"levelo://app?vid=188594c7-cf16-40f8-9b8e-7cd3e1bf72d7","ios":"levelo://app?vid=188594c7-cf16-40f8-9b8e-7cd3e1bf72d7"},"vehicle_type_id":"4","last_reported":1717355121,"current_range_meters":21600,"station_id":"ce4bgjh2rcd13ifvqbg0","pricing_plan_id":"cebpf4jnsgd1na2vs0mg"},{"bike_id":"4fdbafc7-1cd5-48d0-8472-3c81d02de1cc","system_id":"levelo_inurba_marseille","lat":43.297794,"lon":5.370888,"is_reserved":false,"is_disabled":false,"rental_uris":{"android":"levelo://app?vid=4fdbafc7-1cd5-48d0-8472-3c81d02de1cc","ios":"levelo://app?vid=4fdbafc7-1cd5-48d0-8472-3c81d02de1cc"},"vehicle_type_id":"4","last_reported":1717355121,"current_range_meters":31200,"station_id":"ce4bgop2rcd13ifvqc1g","pricing_plan_id":"cebpf4jnsgd1na2vs0mg"},{"bike_id":"38e07670-9d73-4226-ab84-f3f587d8cd0d","system_id":"levelo_inurba_marseille","lat":43.29787,"lon":5.37107,"is_reserved":false,"is_disabled":false,"rental_uris":{"android":"levelo://app?vid=38e07670-9d73-4226-ab84-f3f587d8cd0d","ios":"levelo://app?vid=38e07670-9d73-4226-ab84-f3f587d8cd0d"},"vehicle_type_id":"4","last_reported":1717355121,"current_range_meters":6400,"station_id":"ce4bgop2rcd13ifvqc1g","pricing_plan_id":"cebpf4jnsgd1na2vs0mg"},{"bike_id":"10fb4334-c940-4455-979b-d3f1ca32e262","system_id":"levelo_inurba_marseille","lat":43.297774,"lon":5.370875,"is_reserved":false,"is_disabled":false,"rental_uris":{"android":"levelo://app?vid=10fb4334-c940-4455-979b-d3f1ca32e262","ios":"levelo://app?vid=10fb4334-c940-4455-979b-d3f1ca32e262"},"vehicle_type_id":"4","last_reported":1717355121,"current_range_meters":29200,"station_id":"ce4bgop2rcd13ifvqc1g","pricing_plan_id":"cebpf4jnsgd1na2vs0mg"},{"bike_id":"1483d2f9-57d4-4699-8dcd-024814df6d60","system_id":"levelo_inurba_marseille","lat":43.29778,"lon":5.37107,"is_reserved":false,"is_disabled":false,"rental_uris":{"android":"levelo://app?vid=1483d2f9-57d4-4699-8dcd-024814df6d60","ios":"levelo://app?vid=1483d2f9-57d4-4699-8dcd-024814df6d60"},"vehicle_type_id":"4","last_reported":1717355121,"current_range_meters":9200,"station_id":"ce4bgop2rcd13ifvqc1g","pricing_plan_id":"cebpf4jnsgd1na2vs0mg"},{"bike_id":"dd9bb377-f85b-4ac6-bb91-569ab2468233","system_id":"levelo_inurba_marseille","lat":43.322872,"lon":5.382756,"is_reserved":false,"is_disabled":false,"rental_uris":{"android":"levelo://app?vid=dd9bb377-f85b-4ac6-bb91-569ab2468233","ios":"levelo://app?vid=dd9bb377-f85b-4ac6-bb91-569ab2468233"},"vehicle_type_id":"4","last_reported":1717355121,"current_range_meters":2800,"station_id":"ce4bhr12rcd13ifvqhqg","pricing_plan_id":"cebpf4jnsgd1na2vs0mg"},{"bike_id":"c6c941bd-e2fd-411f-9d1b-c17b17b55f58","system_id":"levelo_inurba_marseille","lat":43.297163,"lon":5.365866,"is_reserved":false,"is_disabled":false,"rental_uris":{"android":"levelo://app?vid=c6c941bd-e2fd-411f-9d1b-c17b17b55f58","ios":"levelo://app?vid=c6c941bd-e2fd-411f-9d1b-c17b17b55f58"},"vehicle_type_id":"4","last_reported":1717355121,"current_range_meters":1200,"station_id":"ce4bgn12rcd13ifvqbt0","pricing_plan_id":"cebpf4jnsgd1na2vs0mg"},{"bike_id":"eefa52d8-0645-4a72-91aa-aea5b4f128c7","system_id":"levelo_inurba_marseille","lat":43.297163,"lon":5.365866,"is_reserved":false,"is_disabled":false,"rental_uris":{"android":"levelo://app?vid=eefa52d8-0645-4a72-91aa-aea5b4f128c7","ios":"levelo://app?vid=eefa52d8-0645-4a72-91aa-aea5b4f128c7"},"vehicle_type_id":"4","last_reported":1717355121,"current_range_meters":0,"station_id":"ce4bgn12rcd13ifvqbt0","pricing_plan_id":"cebpf4jnsgd1na2vs0mg"},{"bike_id":"de82c7ce-e19c-4460-879b-0f60ebb04cb6","system_id":"levelo_inurba_marseille","lat":43.297163,"lon":5.365866,"is_reserved":false,"is_disabled":false,"rental_uris":{"android":"levelo://app?vid=de82c7ce-e19c-4460-879b-0f60ebb04cb6","ios":"levelo://app?vid=de82c7ce-e19c-4460-879b-0f60ebb04cb6"},"vehicle_type_id":"4","last_reported":1717355121,"current_range_meters":22000,"station_id":"ce4bgn12rcd13ifvqbt0","pricing_plan_id":"cebpf4jnsgd1na2vs0mg"},{"bike_id":"741ebd13-b53a-4cd6-90dd-e137c1f83e62","system_id":"levelo_inurba_marseille","lat":43.297163,"lon":5.365866,"is_reserved":false,"is_disabled":false,"rental_uris":{"android":"levelo://app?vid=741ebd13-b53a-4cd6-90dd-e137c1f83e62","ios":"levelo://app?vid=741ebd13-b53a-4cd6-90dd-e137c1f83e62"},"vehicle_type_id":"4","last_reported":1717355121,"current_range_meters":20400,"station_id":"ce4bgn12rcd13ifvqbt0","pricing_plan_id":"cebpf4jnsgd1na2vs0mg"},{"bike_id":"97ccab9f-cc67-4abb-b7db-c564a91a4f0c","system_id":"levelo_inurba_marseille","lat":43.299222,"lon":5.365554,"is_reserved":false,"is_disabled":false,"rental_uris":{"android":"levelo://app?vid=97ccab9f-cc67-4abb-b7db-c564a91a4f0c","ios":"levelo://app?vid=97ccab9f-cc67-4abb-b7db-c564a91a4f0c"},"vehicle_type_id":"4","last_reported":1717355121,"current_range_meters":0,"station_id":"ce4bgm92rcd13ifvqbr0","pricing_plan_id":"cebpf4jnsgd1na2vs0mg"},{"bike_id":"b39954a8-14d2-4f04-9f13-bf654217275f","system_id":"levelo_inurba_marseille","lat":43.29612,"lon":5.3698,"is_reserved":false,"is_disabled":false,"rental_uris":{"android":"levelo://app?vid=b39954a8-14d2-4f04-9f13-bf654217275f","ios":"levelo://app?vid=b39954a8-14d2-4f04-9f13-bf654217275f"},"vehicle_type_id":"4","last_reported":1717355121,"current_range_meters":27200,"station_id":"","pricing_plan_id":"cebpf4jnsgd1na2vs0mg"},{"bike_id":"9f1f872c-730e-4298-890e-488981624285","system_id":"levelo_inurba_marseille","lat":43.296131,"lon":5.370791,"is_reserved":false,"is_disabled":false,"rental_uris":{"android":"levelo://app?vid=9f1f872c-730e-4298-890e-488981624285","ios":"levelo://app?vid=9f1f872c-730e-4298-890e-488981624285"},"vehicle_type_id":"4","last_reported":1717355121,"current_range_meters":31200,"station_id":"ce4bgnh2rcd13ifvqc0g","pricing_plan_id":"cebpf4jnsgd1na2vs0mg"},{"bike_id":"c667835c-b716-43e6-8907-1a25451cfc81","system_id":"levelo_inurba_marseille","lat":43.296129,"lon":5.370777,"is_reserved":false,"is_disabled":false,"rental_uris":{"android":"levelo://app?vid=c667835c-b716-43e6-8907-1a25451cfc81","ios":"levelo://app?vid=c667835c-b716-43e6-8907-1a25451cfc81"},"vehicle_type_id":"4","last_reported":1717355121,"current_range_meters":24000,"station_id":"ce4bgnh2rcd13ifvqc0g","pricing_plan_id":"cebpf4jnsgd1na2vs0mg"},{"bike_id":"1b463e33-ce10-4e03-bddd-414d7fe54958","system_id":"levelo_inurba_marseille","lat":43.2962,"lon":5.37167,"is_reserved":false,"is_disabled":false,"rental_uris":{"android":"levelo://app?vid=1b463e33-ce10-4e03-bddd-414d7fe54958","ios":"levelo://app?vid=1b463e33-ce10-4e03-bddd-414d7fe54958"},"vehicle_type_id":"4","last_reported":1717355121,"current_range_meters":0,"station_id":"","pricing_plan_id":"cebpf4jnsgd1na2vs0mg"},{"bike_id":"bbaa446f-c039-4895-8617-f3a685024471","system_id":"levelo_inurba_marseille","lat":43.29584,"lon":5.36747,"is_reserved":false,"is_disabled":false,"rental_uris":{"android":"levelo://app?vid=bbaa446f-c039-4895-8617-f3a685024471","ios":"levelo://app?vid=bbaa446f-c039-4895-8617-f3a685024471"},"vehicle_type_id":"4","last_reported":1717355121,"current_range_meters":28400,"station_id":"ce4bgph2rcd13ifvqc2g","pricing_plan_id":"cebpf4jnsgd1na2vs0mg"},{"bike_id":"7dd4e8cc-0b76-41b9-a55b-07875b317564","system_id":"levelo_inurba_marseille","lat":43.29573,"lon":5.367355,"is_reserved":false,"is_disabled":false,"rental_uris":{"android":"levelo://app?vid=7dd4e8cc-0b76-41b9-a55b-07875b317564","ios":"levelo://app?vid=7dd4e8cc-0b76-41b9-a55b-07875b317564"},"vehicle_type_id":"4","last_reported":1717355121,"current_range_meters":16800,"station_id":"ce4bgph2rcd13ifvqc2g","pricing_plan_id":"cebpf4jnsgd1na2vs0mg"},{"bike_id":"d6dc0c7a-6423-4f2b-8176-92cbfd911b0f","system_id":"levelo_inurba_marseille","lat":43.29573,"lon":5.367355,"is_reserved":false,"is_disabled":false,"rental_uris":{"android":"levelo://app?vid=d6dc0c7a-6423-4f2b-8176-92cbfd911b0f","ios":"levelo://app?vid=d6dc0c7a-6423-4f2b-8176-92cbfd911b0f"},"vehicle_type_id":"4","last_reported":1717355121,"current_range_meters":19200,"station_id":"ce4bgph2rcd13ifvqc2g","pricing_plan_id":"cebpf4jnsgd1na2vs0mg"},{"bike_id":"d1733db9-5089-4c7a-962d-d809cdcecd7b","system_id":"levelo_inurba_marseille","lat":43.309589,"lon":5.390258,"is_reserved":false,"is_disabled":false,"rental_uris":{"android":"levelo://app?vid=d1733db9-5089-4c7a-962d-d809cdcecd7b","ios":"levelo://app?vid=d1733db9-5089-4c7a-962d-d809cdcecd7b"},"vehicle_type_id":"4","last_reported":1717355121,"current_range_meters":0,"station_id":"ce4bgup2rcd13ifvqco0","pricing_plan_id":"cebpf4jnsgd1na2vs0mg"},{"bike_id":"2762165f-24ab-4f8d-8d3e-30ab6b2e59a1","system_id":"levelo_inurba_marseille","lat":43.30945,"lon":5.39039,"is_reserved":false,"is_disabled":false,"rental_uris":{"android":"levelo://app?vid=2762165f-24ab-4f8d-8d3e-30ab6b2e59a1","ios":"levelo://app?vid=2762165f-24ab-4f8d-8d3e-30ab6b2e59a1"},"vehicle_type_id":"4","last_reported":1717355121,"current_range_meters":0,"station_id":"ce4bgup2rcd13ifvqco0","pricing_plan_id":"cebpf4jnsgd1na2vs0mg"},{"bike_id":"264d5031-f029-42ba-8ab9-221c2f94c49b","system_id":"levelo_inurba_marseille","lat":43.317557,"lon":5.390173,"is_reserved":false,"is_disabled":false,"rental_uris":{"android":"levelo://app?vid=264d5031-f029-42ba-8ab9-221c2f94c49b","ios":"levelo://app?vid=264d5031-f029-42ba-8ab9-221c2f94c49b"},"vehicle_type_id":"4","last_reported":1717355121,"current_range_meters":15200,"station_id":"ce4bhqp2rcd13ifvqhng","pricing_plan_id":"cebpf4jnsgd1na2vs0mg"},{"bike_id":"fd7dd085-8c30-4d40-9c88-5849344cbde7","system_id":"levelo_inurba_marseille","lat":43.317557,"lon":5.390173,"is_reserved":false,"is_disabled":false,"rental_uris":{"android":"levelo://app?vid=fd7dd085-8c30-4d40-9c88-5849344cbde7","ios":"levelo://app?vid=fd7dd085-8c30-4d40-9c88-5849344cbde7"},"vehicle_type_id":"4","last_reported":1717355121,"current_range_meters":8800,"station_id":"ce4bhqp2rcd13ifvqhng","pricing_plan_id":"cebpf4jnsgd1na2vs0mg"},{"bike_id":"0dc92469-42ed-4ca0-b961-d9d138e3d953","system_id":"levelo_inurba_marseille","lat":43.317557,"lon":5.390173,"is_reserved":false,"is_disabled":false,"rental_uris":{"android":"levelo://app?vid=0dc92469-42ed-4ca0-b961-d9d138e3d953","ios":"levelo://app?vid=0dc92469-42ed-4ca0-b961-d9d138e3d953"},"vehicle_type_id":"4","last_reported":1717355121,"current_range_meters":16000,"station_id":"ce4bhqp2rcd13ifvqhng","pricing_plan_id":"cebpf4jnsgd1na2vs0mg"},{"bike_id":"a3a2aa9b-3bf8-4a82-93b8-4e8c95fa38ba","system_id":"levelo_inurba_marseille","lat":43.317557,"lon":5.390173,"is_reserved":false,"is_disabled":false,"rental_uris":{"android":"levelo://app?vid=a3a2aa9b-3bf8-4a82-93b8-4e8c95fa38ba","ios":"levelo://app?vid=a3a2aa9b-3bf8-4a82-93b8-4e8c95fa38ba"},"vehicle_type_id":"4","last_reported":1717355121,"current_range_meters":20000,"station_id":"ce4bhqp2rcd13ifvqhng","pricing_plan_id":"cebpf4jnsgd1na2vs0mg"},{"bike_id":"ecd77e19-61a7-45d5-be81-a8b24d802e10","system_id":"levelo_inurba_marseille","lat":43.317557,"lon":5.390173,"is_reserved":false,"is_disabled":false,"rental_uris":{"android":"levelo://app?vid=ecd77e19-61a7-45d5-be81-a8b24d802e10","ios":"levelo://app?vid=ecd77e19-61a7-45d5-be81-a8b24d802e10"},"vehicle_type_id":"4","last_reported":1717355121,"current_range_meters":800,"station_id":"ce4bhqp2rcd13ifvqhng","pricing_plan_id":"cebpf4jnsgd1na2vs0mg"},{"bike_id":"04354cfc-f94a-4f7a-96c6-02b9a99d8ca2","system_id":"levelo_inurba_marseille","lat":43.317557,"lon":5.390173,"is_reserved":false,"is_disabled":false,"rental_uris":{"android":"levelo://app?vid=04354cfc-f94a-4f7a-96c6-02b9a99d8ca2","ios":"levelo://app?vid=04354cfc-f94a-4f7a-96c6-02b9a99d8ca2"},"vehicle_type_id":"4","last_reported":1717355121,"current_range_meters":4000,"station_id":"ce4bhqp2rcd13ifvqhng","pricing_plan_id":"cebpf4jnsgd1na2vs0mg"},{"bike_id":"ea63aa1c-2cb3-437f-9edf-cf04af897e68","system_id":"levelo_inurba_marseille","lat":43.304278,"lon":5.388868,"is_reserved":false,"is_disabled":false,"rental_uris":{"android":"levelo://app?vid=ea63aa1c-2cb3-437f-9edf-cf04af897e68","ios":"levelo://app?vid=ea63aa1c-2cb3-437f-9edf-cf04af897e68"},"vehicle_type_id":"4","last_reported":1717355121,"current_range_meters":23600,"station_id":"ce4bgk12rcd13ifvqbi0","pricing_plan_id":"cebpf4jnsgd1na2vs0mg"},{"bike_id":"e479048d-3364-446c-9bb1-3f75107f7b13","system_id":"levelo_inurba_marseille","lat":43.304278,"lon":5.388868,"is_reserved":false,"is_disabled":false,"rental_uris":{"android":"levelo://app?vid=e479048d-3364-446c-9bb1-3f75107f7b13","ios":"levelo://app?vid=e479048d-3364-446c-9bb1-3f75107f7b13"},"vehicle_type_id":"4","last_reported":1717355121,"current_range_meters":25600,"station_id":"ce4bgk12rcd13ifvqbi0","pricing_plan_id":"cebpf4jnsgd1na2vs0mg"},{"bike_id":"d548a18f-c1a3-46f9-83e3-85e90accdb7d","system_id":"levelo_inurba_marseille","lat":43.304278,"lon":5.388868,"is_reserved":false,"is_disabled":false,"rental_uris":{"android":"levelo://app?vid=d548a18f-c1a3-46f9-83e3-85e90accdb7d","ios":"levelo://app?vid=d548a18f-c1a3-46f9-83e3-85e90accdb7d"},"vehicle_type_id":"4","last_reported":1717355121,"current_range_meters":6800,"station_id":"ce4bgk12rcd13ifvqbi0","pricing_plan_id":"cebpf4jnsgd1na2vs0mg"},{"bike_id":"113542fb-b513-48e6-b247-a7518ee5ce2e","system_id":"levelo_inurba_marseille","lat":43.304274,"lon":5.388873,"is_reserved":false,"is_disabled":false,"rental_uris":{"android":"levelo://app?vid=113542fb-b513-48e6-b247-a7518ee5ce2e","ios":"levelo://app?vid=113542fb-b513-48e6-b247-a7518ee5ce2e"},"vehicle_type_id":"4","last_reported":1717355121,"current_range_meters":14400,"station_id":"ce4bgk12rcd13ifvqbi0","pricing_plan_id":"cebpf4jnsgd1na2vs0mg"},{"bike_id":"0f219757-7972-4c72-9c8a-22085fc7fbf2","system_id":"levelo_inurba_marseille","lat":43.296098,"lon":5.377203,"is_reserved":false,"is_disabled":false,"rental_uris":{"android":"levelo://app?vid=0f219757-7972-4c72-9c8a-22085fc7fbf2","ios":"levelo://app?vid=0f219757-7972-4c72-9c8a-22085fc7fbf2"},"vehicle_type_id":"4","last_reported":1717355121,"current_range_meters":31200,"station_id":"ce4bgi92rcd13ifvqb90","pricing_plan_id":"cebpf4jnsgd1na2vs0mg"},{"bike_id":"c7a4513b-a250-4974-836e-341796c7a07c","system_id":"levelo_inurba_marseille","lat":43.300578,"lon":5.385643,"is_reserved":false,"is_disabled":false,"rental_uris":{"android":"levelo://app?vid=c7a4513b-a250-4974-836e-341796c7a07c","ios":"levelo://app?vid=c7a4513b-a250-4974-836e-341796c7a07c"},"vehicle_type_id":"4","last_reported":1717355121,"current_range_meters":19600,"station_id":"","pricing_plan_id":"cebpf4jnsgd1na2vs0mg"},{"bike_id":"5d4fb8d9-8612-44a0-a8fa-328cb344716f","system_id":"levelo_inurba_marseille","lat":43.295279,"lon":5.375048,"is_reserved":false,"is_disabled":false,"rental_uris":{"android":"levelo://app?vid=5d4fb8d9-8612-44a0-a8fa-328cb344716f","ios":"levelo://app?vid=5d4fb8d9-8612-44a0-a8fa-328cb344716f"},"vehicle_type_id":"4","last_reported":1717355121,"current_range_meters":21200,"station_id":"ce4bgkp2rcd13ifvqbmg","pricing_plan_id":"cebpf4jnsgd1na2vs0mg"},{"bike_id":"a90ecd24-5706-44d0-9f3f-ac772f520bc4","system_id":"levelo_inurba_marseille","lat":43.299707,"lon":5.384859,"is_reserved":false,"is_disabled":false,"rental_uris":{"android":"levelo://app?vid=a90ecd24-5706-44d0-9f3f-ac772f520bc4","ios":"levelo://app?vid=a90ecd24-5706-44d0-9f3f-ac772f520bc4"},"vehicle_type_id":"4","last_reported":1717355121,"current_range_meters":16800,"station_id":"ce4bgj92rcd13ifvqbd0","pricing_plan_id":"cebpf4jnsgd1na2vs0mg"},{"bike_id":"4caf61db-6947-401a-8f82-8710ed458df5","system_id":"levelo_inurba_marseille","lat":43.299724,"lon":5.384848,"is_reserved":false,"is_disabled":false,"rental_uris":{"android":"levelo://app?vid=4caf61db-6947-401a-8f82-8710ed458df5","ios":"levelo://app?vid=4caf61db-6947-401a-8f82-8710ed458df5"},"vehicle_type_id":"4","last_reported":1717355121,"current_range_meters":400,"station_id":"ce4bgj92rcd13ifvqbd0","pricing_plan_id":"cebpf4jnsgd1na2vs0mg"},{"bike_id":"ca107653-9610-43ee-9a52-98e88d775fef","system_id":"levelo_inurba_marseille","lat":43.299717,"lon":5.384845,"is_reserved":false,"is_disabled":false,"rental_uris":{"android":"levelo://app?vid=ca107653-9610-43ee-9a52-98e88d775fef","ios":"levelo://app?vid=ca107653-9610-43ee-9a52-98e88d775fef"},"vehicle_type_id":"4","last_reported":1717355121,"current_range_meters":13600,"station_id":"ce4bgj92rcd13ifvqbd0","pricing_plan_id":"cebpf4jnsgd1na2vs0mg"},{"bike_id":"9acb491e-1894-4897-a5ff-a493317cbe92","system_id":"levelo_inurba_marseille","lat":43.32368,"lon":5.38871,"is_reserved":false,"is_disabled":false,"rental_uris":{"android":"levelo://app?vid=9acb491e-1894-4897-a5ff-a493317cbe92","ios":"levelo://app?vid=9acb491e-1894-4897-a5ff-a493317cbe92"},"vehicle_type_id":"4","last_reported":1717355121,"current_range_meters":0,"station_id":"ce4bhqp2rcd13ifvqhog","pricing_plan_id":"cebpf4jnsgd1na2vs0mg"},{"bike_id":"e3eec531-8697-49f6-aee0-9ab34809c9bf","system_id":"levelo_inurba_marseille","lat":43.32367,"lon":5.38884,"is_reserved":false,"is_disabled":false,"rental_uris":{"android":"levelo://app?vid=e3eec531-8697-49f6-aee0-9ab34809c9bf","ios":"levelo://app?vid=e3eec531-8697-49f6-aee0-9ab34809c9bf"},"vehicle_type_id":"4","last_reported":1717355121,"current_range_meters":4800,"station_id":"ce4bhqp2rcd13ifvqhog","pricing_plan_id":"cebpf4jnsgd1na2vs0mg"},{"bike_id":"d0e60592-95e7-4143-a582-7ed29d0071c3","system_id":"levelo_inurba_marseille","lat":43.32368,"lon":5.38884,"is_reserved":false,"is_disabled":false,"rental_uris":{"android":"levelo://app?vid=d0e60592-95e7-4143-a582-7ed29d0071c3","ios":"levelo://app?vid=d0e60592-95e7-4143-a582-7ed29d0071c3"},"vehicle_type_id":"4","last_reported":1717355121,"current_range_meters":17600,"station_id":"ce4bhqp2rcd13ifvqhog","pricing_plan_id":"cebpf4jnsgd1na2vs0mg"},{"bike_id":"ad6fc73a-7e80-493e-9416-f26864af230d","system_id":"levelo_inurba_marseille","lat":43.323634,"lon":5.388888,"is_reserved":false,"is_disabled":false,"rental_uris":{"android":"levelo://app?vid=ad6fc73a-7e80-493e-9416-f26864af230d","ios":"levelo://app?vid=ad6fc73a-7e80-493e-9416-f26864af230d"},"vehicle_type_id":"4","last_reported":1717355121,"current_range_meters":0,"station_id":"ce4bhqp2rcd13ifvqhog","pricing_plan_id":"cebpf4jnsgd1na2vs0mg"},{"bike_id":"530d9659-d1ca-48c0-b6fd-5f620da5a9a7","system_id":"levelo_inurba_marseille","lat":43.296001,"lon":5.380896,"is_reserved":false,"is_disabled":false,"rental_uris":{"android":"levelo://app?vid=530d9659-d1ca-48c0-b6fd-5f620da5a9a7","ios":"levelo://app?vid=530d9659-d1ca-48c0-b6fd-5f620da5a9a7"},"vehicle_type_id":"4","last_reported":1717355121,"current_range_meters":11600,"station_id":"ce4bgl12rcd13ifvqbo0","pricing_plan_id":"cebpf4jnsgd1na2vs0mg"},{"bike_id":"db4d735f-51f5-4b4c-b20b-9eb328645722","system_id":"levelo_inurba_marseille","lat":43.301792,"lon":5.389249,"is_reserved":false,"is_disabled":false,"rental_uris":{"android":"levelo://app?vid=db4d735f-51f5-4b4c-b20b-9eb328645722","ios":"levelo://app?vid=db4d735f-51f5-4b4c-b20b-9eb328645722"},"vehicle_type_id":"4","last_reported":1717355121,"current_range_meters":8000,"station_id":"","pricing_plan_id":"cebpf4jnsgd1na2vs0mg"},{"bike_id":"58559c12-4fb5-4bc0-9c05-b75bebb759c6","system_id":"levelo_inurba_marseille","lat":43.29302,"lon":5.36372,"is_reserved":false,"is_disabled":false,"rental_uris":{"android":"levelo://app?vid=58559c12-4fb5-4bc0-9c05-b75bebb759c6","ios":"levelo://app?vid=58559c12-4fb5-4bc0-9c05-b75bebb759c6"},"vehicle_type_id":"4","last_reported":1717355121,"current_range_meters":15600,"station_id":"","pricing_plan_id":"cebpf4jnsgd1na2vs0mg"},{"bike_id":"bdcac60a-7922-4ceb-b1d3-3c8a094615a3","system_id":"levelo_inurba_marseille","lat":43.292612,"lon":5.367283,"is_reserved":false,"is_disabled":false,"rental_uris":{"android":"levelo://app?vid=bdcac60a-7922-4ceb-b1d3-3c8a094615a3","ios":"levelo://app?vid=bdcac60a-7922-4ceb-b1d3-3c8a094615a3"},"vehicle_type_id":"4","last_reported":1717355121,"current_range_meters":0,"station_id":"","pricing_plan_id":"cebpf4jnsgd1na2vs0mg"},{"bike_id":"10dfc685-1eb1-4476-b341-b690da734446","system_id":"levelo_inurba_marseille","lat":43.293009,"lon":5.374584,"is_reserved":false,"is_disabled":false,"rental_uris":{"android":"levelo://app?vid=10dfc685-1eb1-4476-b341-b690da734446","ios":"levelo://app?vid=10dfc685-1eb1-4476-b341-b690da734446"},"vehicle_type_id":"4","last_reported":1717355121,"current_range_meters":25200,"station_id":"ce4bgi12rcd13ifvqb70","pricing_plan_id":"cebpf4jnsgd1na2vs0mg"},{"bike_id":"7ecfc2cf-15b4-40aa-b806-6d3400431bf6","system_id":"levelo_inurba_marseille","lat":43.2936,"lon":5.37835,"is_reserved":false,"is_disabled":false,"rental_uris":{"android":"levelo://app?vid=7ecfc2cf-15b4-40aa-b806-6d3400431bf6","ios":"levelo://app?vid=7ecfc2cf-15b4-40aa-b806-6d3400431bf6"},"vehicle_type_id":"4","last_reported":1717355121,"current_range_meters":6400,"station_id":"ce4bgjh2rcd13ifvqbf0","pricing_plan_id":"cebpf4jnsgd1na2vs0mg"},{"bike_id":"c44097f0-4fc5-4862-b8c7-3727a31e4a87","system_id":"levelo_inurba_marseille","lat":43.29545,"lon":5.38323,"is_reserved":false,"is_disabled":false,"rental_uris":{"android":"levelo://app?vid=c44097f0-4fc5-4862-b8c7-3727a31e4a87","ios":"levelo://app?vid=c44097f0-4fc5-4862-b8c7-3727a31e4a87"},"vehicle_type_id":"4","last_reported":1717355121,"current_range_meters":28800,"station_id":"","pricing_plan_id":"cebpf4jnsgd1na2vs0mg"},{"bike_id":"60f04c17-7553-44af-aaee-1b42e886b285","system_id":"levelo_inurba_marseille","lat":43.30085,"lon":5.390856,"is_reserved":false,"is_disabled":false,"rental_uris":{"android":"levelo://app?vid=60f04c17-7553-44af-aaee-1b42e886b285","ios":"levelo://app?vid=60f04c17-7553-44af-aaee-1b42e886b285"},"vehicle_type_id":"4","last_reported":1717355121,"current_range_meters":25600,"station_id":"ce4bh192rcd13ifvqdb0","pricing_plan_id":"cebpf4jnsgd1na2vs0mg"},{"bike_id":"94dc59ba-7c59-4198-83d8-7c33d4e6c18a","system_id":"levelo_inurba_marseille","lat":43.292311,"lon":5.360731,"is_reserved":false,"is_disabled":false,"rental_uris":{"android":"levelo://app?vid=94dc59ba-7c59-4198-83d8-7c33d4e6c18a","ios":"levelo://app?vid=94dc59ba-7c59-4198-83d8-7c33d4e6c18a"},"vehicle_type_id":"4","last_reported":1717355121,"current_range_meters":0,"station_id":"ce4bhbh2rcd13ifvqeqg","pricing_plan_id":"cebpf4jnsgd1na2vs0mg"},{"bike_id":"b575f340-cfb5-4499-8e53-e191d906449d","system_id":"levelo_inurba_marseille","lat":43.298764,"lon":5.388973,"is_reserved":false,"is_disabled":false,"rental_uris":{"android":"levelo://app?vid=b575f340-cfb5-4499-8e53-e191d906449d","ios":"levelo://app?vid=b575f340-cfb5-4499-8e53-e191d906449d"},"vehicle_type_id":"4","last_reported":1717355121,"current_range_meters":14400,"station_id":"ce4bh392rcd13ifvqdl0","pricing_plan_id":"cebpf4jnsgd1na2vs0mg"},{"bike_id":"e53b31de-2a7c-45e8-8bdf-969b1ce506b5","system_id":"levelo_inurba_marseille","lat":43.293009,"lon":5.374584,"is_reserved":false,"is_disabled":false,"rental_uris":{"android":"levelo://app?vid=e53b31de-2a7c-45e8-8bdf-969b1ce506b5","ios":"levelo://app?vid=e53b31de-2a7c-45e8-8bdf-969b1ce506b5"},"vehicle_type_id":"4","last_reported":1717355121,"current_range_meters":18800,"station_id":"ce4bgi12rcd13ifvqb70","pricing_plan_id":"cebpf4jnsgd1na2vs0mg"},{"bike_id":"c0eabf4a-36ed-4a1a-a0e0-92d13e8277f0","system_id":"levelo_inurba_marseille","lat":43.298764,"lon":5.388973,"is_reserved":false,"is_disabled":false,"rental_uris":{"android":"levelo://app?vid=c0eabf4a-36ed-4a1a-a0e0-92d13e8277f0","ios":"levelo://app?vid=c0eabf4a-36ed-4a1a-a0e0-92d13e8277f0"},"vehicle_type_id":"4","last_reported":1717355121,"current_range_meters":6400,"station_id":"ce4bh392rcd13ifvqdl0","pricing_plan_id":"cebpf4jnsgd1na2vs0mg"},{"bike_id":"ad7958aa-4007-48b1-a1c8-a44759453cfd","system_id":"levelo_inurba_marseille","lat":43.313291,"lon":5.396838,"is_reserved":false,"is_disabled":false,"rental_uris":{"android":"levelo://app?vid=ad7958aa-4007-48b1-a1c8-a44759453cfd","ios":"levelo://app?vid=ad7958aa-4007-48b1-a1c8-a44759453cfd"},"vehicle_type_id":"4","last_reported":1717355121,"current_range_meters":8400,"station_id":"ce4bgvp2rcd13ifvqcu0","pricing_plan_id":"cebpf4jnsgd1na2vs0mg"},{"bike_id":"b3edb4f0-963b-46ba-a79f-776b8f50b991","system_id":"levelo_inurba_marseille","lat":43.313291,"lon":5.396838,"is_reserved":false,"is_disabled":false,"rental_uris":{"android":"levelo://app?vid=b3edb4f0-963b-46ba-a79f-776b8f50b991","ios":"levelo://app?vid=b3edb4f0-963b-46ba-a79f-776b8f50b991"},"vehicle_type_id":"4","last_reported":1717355121,"current_range_meters":23600,"station_id":"ce4bgvp2rcd13ifvqcu0","pricing_plan_id":"cebpf4jnsgd1na2vs0mg"},{"bike_id":"88d85188-9462-4941-8600-f60d2bfd0bdf","system_id":"levelo_inurba_marseille","lat":43.3132,"lon":5.39688,"is_reserved":false,"is_disabled":false,"rental_uris":{"android":"levelo://app?vid=88d85188-9462-4941-8600-f60d2bfd0bdf","ios":"levelo://app?vid=88d85188-9462-4941-8600-f60d2bfd0bdf"},"vehicle_type_id":"4","last_reported":1717355121,"current_range_meters":18000,"station_id":"","pricing_plan_id":"cebpf4jnsgd1na2vs0mg"},{"bike_id":"a7a25b32-3c08-4b39-90ad-5c1ed9b4ed93","system_id":"levelo_inurba_marseille","lat":43.29529,"lon":5.385581,"is_reserved":false,"is_disabled":false,"rental_uris":{"android":"levelo://app?vid=a7a25b32-3c08-4b39-90ad-5c1ed9b4ed93","ios":"levelo://app?vid=a7a25b32-3c08-4b39-90ad-5c1ed9b4ed93"},"vehicle_type_id":"4","last_reported":1717355121,"current_range_meters":400,"station_id":"ce4bgih2rcd13ifvqba0","pricing_plan_id":"cebpf4jnsgd1na2vs0mg"},{"bike_id":"33fb34f0-b69d-4be1-b6c3-e64d9d473fc2","system_id":"levelo_inurba_marseille","lat":43.291994,"lon":5.357886,"is_reserved":false,"is_disabled":false,"rental_uris":{"android":"levelo://app?vid=33fb34f0-b69d-4be1-b6c3-e64d9d473fc2","ios":"levelo://app?vid=33fb34f0-b69d-4be1-b6c3-e64d9d473fc2"},"vehicle_type_id":"4","last_reported":1717355121,"current_range_meters":20000,"station_id":"ce4bhb12rcd13ifvqel0","pricing_plan_id":"cebpf4jnsgd1na2vs0mg"},{"bike_id":"7d0e3ed1-ddbc-4142-9a46-50a916f00d86","system_id":"levelo_inurba_marseille","lat":43.313297,"lon":5.396997,"is_reserved":false,"is_disabled":false,"rental_uris":{"android":"levelo://app?vid=7d0e3ed1-ddbc-4142-9a46-50a916f00d86","ios":"levelo://app?vid=7d0e3ed1-ddbc-4142-9a46-50a916f00d86"},"vehicle_type_id":"4","last_reported":1717355121,"current_range_meters":7200,"station_id":"ce4bgvp2rcd13ifvqcu0","pricing_plan_id":"cebpf4jnsgd1na2vs0mg"},{"bike_id":"5c49fed4-5274-4457-b368-4a3792eec1c6","system_id":"levelo_inurba_marseille","lat":43.309038,"lon":5.396546,"is_reserved":false,"is_disabled":false,"rental_uris":{"android":"levelo://app?vid=5c49fed4-5274-4457-b368-4a3792eec1c6","ios":"levelo://app?vid=5c49fed4-5274-4457-b368-4a3792eec1c6"},"vehicle_type_id":"4","last_reported":1717355121,"current_range_meters":11600,"station_id":"ce4bh012rcd13ifvqcv0","pricing_plan_id":"cebpf4jnsgd1na2vs0mg"},{"bike_id":"d82649a0-8ec3-4a48-8c91-2dd18de73ba3","system_id":"levelo_inurba_marseille","lat":43.29529,"lon":5.385581,"is_reserved":false,"is_disabled":false,"rental_uris":{"android":"levelo://app?vid=d82649a0-8ec3-4a48-8c91-2dd18de73ba3","ios":"levelo://app?vid=d82649a0-8ec3-4a48-8c91-2dd18de73ba3"},"vehicle_type_id":"4","last_reported":1717355121,"current_range_meters":1200,"station_id":"ce4bgih2rcd13ifvqba0","pricing_plan_id":"cebpf4jnsgd1na2vs0mg"},{"bike_id":"350a6476-b860-441e-b648-b069bcc83fc0","system_id":"levelo_inurba_marseille","lat":43.309047,"lon":5.396551,"is_reserved":false,"is_disabled":false,"rental_uris":{"android":"levelo://app?vid=350a6476-b860-441e-b648-b069bcc83fc0","ios":"levelo://app?vid=350a6476-b860-441e-b648-b069bcc83fc0"},"vehicle_type_id":"4","last_reported":1717355121,"current_range_meters":25600,"station_id":"ce4bh012rcd13ifvqcv0","pricing_plan_id":"cebpf4jnsgd1na2vs0mg"},{"bike_id":"4d3c82a3-c6c6-4d5c-a61a-301f82f9bcdc","system_id":"levelo_inurba_marseille","lat":43.31328,"lon":5.39702,"is_reserved":false,"is_disabled":false,"rental_uris":{"android":"levelo://app?vid=4d3c82a3-c6c6-4d5c-a61a-301f82f9bcdc","ios":"levelo://app?vid=4d3c82a3-c6c6-4d5c-a61a-301f82f9bcdc"},"vehicle_type_id":"4","last_reported":1717355121,"current_range_meters":27200,"station_id":"ce4bgvp2rcd13ifvqcu0","pricing_plan_id":"cebpf4jnsgd1na2vs0mg"},{"bike_id":"4942629d-c7b8-4478-a8ac-cf6cc8315dda","system_id":"levelo_inurba_marseille","lat":43.309038,"lon":5.396546,"is_reserved":false,"is_disabled":false,"rental_uris":{"android":"levelo://app?vid=4942629d-c7b8-4478-a8ac-cf6cc8315dda","ios":"levelo://app?vid=4942629d-c7b8-4478-a8ac-cf6cc8315dda"},"vehicle_type_id":"4","last_reported":1717355121,"current_range_meters":16800,"station_id":"ce4bh012rcd13ifvqcv0","pricing_plan_id":"cebpf4jnsgd1na2vs0mg"},{"bike_id":"a2792459-74f2-4390-b2b5-a04834c7858f","system_id":"levelo_inurba_marseille","lat":43.309047,"lon":5.396551,"is_reserved":false,"is_disabled":false,"rental_uris":{"android":"levelo://app?vid=a2792459-74f2-4390-b2b5-a04834c7858f","ios":"levelo://app?vid=a2792459-74f2-4390-b2b5-a04834c7858f"},"vehicle_type_id":"4","last_reported":1717355121,"current_range_meters":7600,"station_id":"ce4bh012rcd13ifvqcv0","pricing_plan_id":"cebpf4jnsgd1na2vs0mg"},{"bike_id":"524afe21-3752-48b2-a171-1bda6ec16b10","system_id":"levelo_inurba_marseille","lat":43.309038,"lon":5.396546,"is_reserved":false,"is_disabled":false,"rental_uris":{"android":"levelo://app?vid=524afe21-3752-48b2-a171-1bda6ec16b10","ios":"levelo://app?vid=524afe21-3752-48b2-a171-1bda6ec16b10"},"vehicle_type_id":"4","last_reported":1717355121,"current_range_meters":7600,"station_id":"ce4bh012rcd13ifvqcv0","pricing_plan_id":"cebpf4jnsgd1na2vs0mg"},{"bike_id":"31c2d018-42e7-461f-823c-3366ad68faab","system_id":"levelo_inurba_marseille","lat":43.29529,"lon":5.385581,"is_reserved":false,"is_disabled":false,"rental_uris":{"android":"levelo://app?vid=31c2d018-42e7-461f-823c-3366ad68faab","ios":"levelo://app?vid=31c2d018-42e7-461f-823c-3366ad68faab"},"vehicle_type_id":"4","last_reported":1717355121,"current_range_meters":800,"station_id":"ce4bgih2rcd13ifvqba0","pricing_plan_id":"cebpf4jnsgd1na2vs0mg"},{"bike_id":"e30efe1c-ad20-40cf-bd89-f726863dd1bd","system_id":"levelo_inurba_marseille","lat":43.29529,"lon":5.385581,"is_reserved":false,"is_disabled":false,"rental_uris":{"android":"levelo://app?vid=e30efe1c-ad20-40cf-bd89-f726863dd1bd","ios":"levelo://app?vid=e30efe1c-ad20-40cf-bd89-f726863dd1bd"},"vehicle_type_id":"4","last_reported":1717355121,"current_range_meters":4400,"station_id":"ce4bgih2rcd13ifvqba0","pricing_plan_id":"cebpf4jnsgd1na2vs0mg"},{"bike_id":"a47eec14-bbde-417d-969f-c48555f8417e","system_id":"levelo_inurba_marseille","lat":43.309038,"lon":5.396546,"is_reserved":false,"is_disabled":false,"rental_uris":{"android":"levelo://app?vid=a47eec14-bbde-417d-969f-c48555f8417e","ios":"levelo://app?vid=a47eec14-bbde-417d-969f-c48555f8417e"},"vehicle_type_id":"4","last_reported":1717355121,"current_range_meters":13200,"station_id":"ce4bh012rcd13ifvqcv0","pricing_plan_id":"cebpf4jnsgd1na2vs0mg"},{"bike_id":"a0ffdf8b-b486-4fd1-bdd2-950d318d02cb","system_id":"levelo_inurba_marseille","lat":43.295194,"lon":5.39397,"is_reserved":false,"is_disabled":false,"rental_uris":{"android":"levelo://app?vid=a0ffdf8b-b486-4fd1-bdd2-950d318d02cb","ios":"levelo://app?vid=a0ffdf8b-b486-4fd1-bdd2-950d318d02cb"},"vehicle_type_id":"4","last_reported":1717355121,"current_range_meters":26400,"station_id":"ce4bh292rcd13ifvqdf0","pricing_plan_id":"cebpf4jnsgd1na2vs0mg"},{"bike_id":"417f76a2-f404-4d3c-95c0-c05996d23091","system_id":"levelo_inurba_marseille","lat":43.29541,"lon":5.38547,"is_reserved":false,"is_disabled":false,"rental_uris":{"android":"levelo://app?vid=417f76a2-f404-4d3c-95c0-c05996d23091","ios":"levelo://app?vid=417f76a2-f404-4d3c-95c0-c05996d23091"},"vehicle_type_id":"4","last_reported":1717355121,"current_range_meters":24800,"station_id":"ce4bgih2rcd13ifvqba0","pricing_plan_id":"cebpf4jnsgd1na2vs0mg"},{"bike_id":"fa05695c-be87-48cc-8a7a-fdc70cf56f08","system_id":"levelo_inurba_marseille","lat":43.29529,"lon":5.385581,"is_reserved":false,"is_disabled":false,"rental_uris":{"android":"levelo://app?vid=fa05695c-be87-48cc-8a7a-fdc70cf56f08","ios":"levelo://app?vid=fa05695c-be87-48cc-8a7a-fdc70cf56f08"},"vehicle_type_id":"4","last_reported":1717355121,"current_range_meters":16400,"station_id":"ce4bgih2rcd13ifvqba0","pricing_plan_id":"cebpf4jnsgd1na2vs0mg"},{"bike_id":"e6b851dc-68b6-47b8-9f3a-3ec80018f39b","system_id":"levelo_inurba_marseille","lat":43.29529,"lon":5.385581,"is_reserved":false,"is_disabled":false,"rental_uris":{"android":"levelo://app?vid=e6b851dc-68b6-47b8-9f3a-3ec80018f39b","ios":"levelo://app?vid=e6b851dc-68b6-47b8-9f3a-3ec80018f39b"},"vehicle_type_id":"4","last_reported":1717355121,"current_range_meters":21200,"station_id":"ce4bgih2rcd13ifvqba0","pricing_plan_id":"cebpf4jnsgd1na2vs0mg"},{"bike_id":"00ef30e1-b018-4f55-81f0-39a51ca56591","system_id":"levelo_inurba_marseille","lat":43.29529,"lon":5.385581,"is_reserved":false,"is_disabled":false,"rental_uris":{"android":"levelo://app?vid=00ef30e1-b018-4f55-81f0-39a51ca56591","ios":"levelo://app?vid=00ef30e1-b018-4f55-81f0-39a51ca56591"},"vehicle_type_id":"4","last_reported":1717355121,"current_range_meters":2800,"station_id":"ce4bgih2rcd13ifvqba0","pricing_plan_id":"cebpf4jnsgd1na2vs0mg"},{"bike_id":"93df4ab7-311c-4047-82d0-266fedec7cb7","system_id":"levelo_inurba_marseille","lat":43.29529,"lon":5.385581,"is_reserved":false,"is_disabled":false,"rental_uris":{"android":"levelo://app?vid=93df4ab7-311c-4047-82d0-266fedec7cb7","ios":"levelo://app?vid=93df4ab7-311c-4047-82d0-266fedec7cb7"},"vehicle_type_id":"4","last_reported":1717355121,"current_range_meters":14400,"station_id":"ce4bgih2rcd13ifvqba0","pricing_plan_id":"cebpf4jnsgd1na2vs0mg"},{"bike_id":"386d8fec-b7ff-4ab6-bfb6-a7ea6b953e77","system_id":"levelo_inurba_marseille","lat":43.29529,"lon":5.385581,"is_reserved":false,"is_disabled":false,"rental_uris":{"android":"levelo://app?vid=386d8fec-b7ff-4ab6-bfb6-a7ea6b953e77","ios":"levelo://app?vid=386d8fec-b7ff-4ab6-bfb6-a7ea6b953e77"},"vehicle_type_id":"4","last_reported":1717355121,"current_range_meters":1200,"station_id":"ce4bgih2rcd13ifvqba0","pricing_plan_id":"cebpf4jnsgd1na2vs0mg"},{"bike_id":"aaf78f2e-a08a-4b88-835c-40e437ab0af1","system_id":"levelo_inurba_marseille","lat":43.29529,"lon":5.385581,"is_reserved":false,"is_disabled":false,"rental_uris":{"android":"levelo://app?vid=aaf78f2e-a08a-4b88-835c-40e437ab0af1","ios":"levelo://app?vid=aaf78f2e-a08a-4b88-835c-40e437ab0af1"},"vehicle_type_id":"4","last_reported":1717355121,"current_range_meters":18800,"station_id":"ce4bgih2rcd13ifvqba0","pricing_plan_id":"cebpf4jnsgd1na2vs0mg"},{"bike_id":"b8ad1603-ca57-4f86-9ae8-48dc712515a0","system_id":"levelo_inurba_marseille","lat":43.29529,"lon":5.385581,"is_reserved":false,"is_disabled":false,"rental_uris":{"android":"levelo://app?vid=b8ad1603-ca57-4f86-9ae8-48dc712515a0","ios":"levelo://app?vid=b8ad1603-ca57-4f86-9ae8-48dc712515a0"},"vehicle_type_id":"4","last_reported":1717355121,"current_range_meters":0,"station_id":"ce4bgih2rcd13ifvqba0","pricing_plan_id":"cebpf4jnsgd1na2vs0mg"},{"bike_id":"9cf0532b-98a1-42da-b52d-971459a8efc2","system_id":"levelo_inurba_marseille","lat":43.29529,"lon":5.385581,"is_reserved":false,"is_disabled":false,"rental_uris":{"android":"levelo://app?vid=9cf0532b-98a1-42da-b52d-971459a8efc2","ios":"levelo://app?vid=9cf0532b-98a1-42da-b52d-971459a8efc2"},"vehicle_type_id":"4","last_reported":1717355121,"current_range_meters":22400,"station_id":"ce4bgih2rcd13ifvqba0","pricing_plan_id":"cebpf4jnsgd1na2vs0mg"},{"bike_id":"f7dd29ce-0697-48af-937c-5e45072dbf9a","system_id":"levelo_inurba_marseille","lat":43.29529,"lon":5.385581,"is_reserved":false,"is_disabled":false,"rental_uris":{"android":"levelo://app?vid=f7dd29ce-0697-48af-937c-5e45072dbf9a","ios":"levelo://app?vid=f7dd29ce-0697-48af-937c-5e45072dbf9a"},"vehicle_type_id":"4","last_reported":1717355121,"current_range_meters":16400,"station_id":"ce4bgih2rcd13ifvqba0","pricing_plan_id":"cebpf4jnsgd1na2vs0mg"},{"bike_id":"d0df3d28-3331-4e0a-a7f8-26e1c54c67a5","system_id":"levelo_inurba_marseille","lat":43.29529,"lon":5.385581,"is_reserved":false,"is_disabled":false,"rental_uris":{"android":"levelo://app?vid=d0df3d28-3331-4e0a-a7f8-26e1c54c67a5","ios":"levelo://app?vid=d0df3d28-3331-4e0a-a7f8-26e1c54c67a5"},"vehicle_type_id":"4","last_reported":1717355121,"current_range_meters":20000,"station_id":"ce4bgih2rcd13ifvqba0","pricing_plan_id":"cebpf4jnsgd1na2vs0mg"},{"bike_id":"8338810a-db6e-4fa9-9862-8c5236bb59a6","system_id":"levelo_inurba_marseille","lat":43.29529,"lon":5.385581,"is_reserved":false,"is_disabled":false,"rental_uris":{"android":"levelo://app?vid=8338810a-db6e-4fa9-9862-8c5236bb59a6","ios":"levelo://app?vid=8338810a-db6e-4fa9-9862-8c5236bb59a6"},"vehicle_type_id":"4","last_reported":1717355121,"current_range_meters":8400,"station_id":"ce4bgih2rcd13ifvqba0","pricing_plan_id":"cebpf4jnsgd1na2vs0mg"},{"bike_id":"1d4cedbd-ad31-46f7-9bf4-3efd18b8834d","system_id":"levelo_inurba_marseille","lat":43.29529,"lon":5.385581,"is_reserved":false,"is_disabled":false,"rental_uris":{"android":"levelo://app?vid=1d4cedbd-ad31-46f7-9bf4-3efd18b8834d","ios":"levelo://app?vid=1d4cedbd-ad31-46f7-9bf4-3efd18b8834d"},"vehicle_type_id":"4","last_reported":1717355121,"current_range_meters":14800,"station_id":"ce4bgih2rcd13ifvqba0","pricing_plan_id":"cebpf4jnsgd1na2vs0mg"},{"bike_id":"41be1cd5-ee19-4ea4-8569-f3ebe41ae9d3","system_id":"levelo_inurba_marseille","lat":43.295311,"lon":5.385492,"is_reserved":false,"is_disabled":false,"rental_uris":{"android":"levelo://app?vid=41be1cd5-ee19-4ea4-8569-f3ebe41ae9d3","ios":"levelo://app?vid=41be1cd5-ee19-4ea4-8569-f3ebe41ae9d3"},"vehicle_type_id":"4","last_reported":1717355121,"current_range_meters":15600,"station_id":"ce4bgih2rcd13ifvqba0","pricing_plan_id":"cebpf4jnsgd1na2vs0mg"},{"bike_id":"0fd67d17-44a4-4af1-9550-02cc66bbf4db","system_id":"levelo_inurba_marseille","lat":43.29529,"lon":5.385581,"is_reserved":false,"is_disabled":false,"rental_uris":{"android":"levelo://app?vid=0fd67d17-44a4-4af1-9550-02cc66bbf4db","ios":"levelo://app?vid=0fd67d17-44a4-4af1-9550-02cc66bbf4db"},"vehicle_type_id":"4","last_reported":1717355121,"current_range_meters":2400,"station_id":"ce4bgih2rcd13ifvqba0","pricing_plan_id":"cebpf4jnsgd1na2vs0mg"},{"bike_id":"bd8cb891-d04b-46b3-9473-feaefc97d3dc","system_id":"levelo_inurba_marseille","lat":43.29529,"lon":5.385581,"is_reserved":false,"is_disabled":false,"rental_uris":{"android":"levelo://app?vid=bd8cb891-d04b-46b3-9473-feaefc97d3dc","ios":"levelo://app?vid=bd8cb891-d04b-46b3-9473-feaefc97d3dc"},"vehicle_type_id":"4","last_reported":1717355121,"current_range_meters":800,"station_id":"ce4bgih2rcd13ifvqba0","pricing_plan_id":"cebpf4jnsgd1na2vs0mg"},{"bike_id":"2cb31991-c550-4f83-bf2b-c0c4eefb2d00","system_id":"levelo_inurba_marseille","lat":43.29529,"lon":5.385581,"is_reserved":false,"is_disabled":false,"rental_uris":{"android":"levelo://app?vid=2cb31991-c550-4f83-bf2b-c0c4eefb2d00","ios":"levelo://app?vid=2cb31991-c550-4f83-bf2b-c0c4eefb2d00"},"vehicle_type_id":"4","last_reported":1717355121,"current_range_meters":13200,"station_id":"ce4bgih2rcd13ifvqba0","pricing_plan_id":"cebpf4jnsgd1na2vs0mg"},{"bike_id":"7c1f33bd-31bb-43d3-9065-d7c8d171ebdd","system_id":"levelo_inurba_marseille","lat":43.29529,"lon":5.385581,"is_reserved":false,"is_disabled":false,"rental_uris":{"android":"levelo://app?vid=7c1f33bd-31bb-43d3-9065-d7c8d171ebdd","ios":"levelo://app?vid=7c1f33bd-31bb-43d3-9065-d7c8d171ebdd"},"vehicle_type_id":"4","last_reported":1717355121,"current_range_meters":21600,"station_id":"ce4bgih2rcd13ifvqba0","pricing_plan_id":"cebpf4jnsgd1na2vs0mg"},{"bike_id":"7044abe3-3eee-46b5-b922-47c86091d15a","system_id":"levelo_inurba_marseille","lat":43.29529,"lon":5.385581,"is_reserved":false,"is_disabled":false,"rental_uris":{"android":"levelo://app?vid=7044abe3-3eee-46b5-b922-47c86091d15a","ios":"levelo://app?vid=7044abe3-3eee-46b5-b922-47c86091d15a"},"vehicle_type_id":"4","last_reported":1717355121,"current_range_meters":15200,"station_id":"ce4bgih2rcd13ifvqba0","pricing_plan_id":"cebpf4jnsgd1na2vs0mg"},{"bike_id":"ad529d20-5fe3-4ea6-81a5-0174e5336665","system_id":"levelo_inurba_marseille","lat":43.29529,"lon":5.385581,"is_reserved":false,"is_disabled":false,"rental_uris":{"android":"levelo://app?vid=ad529d20-5fe3-4ea6-81a5-0174e5336665","ios":"levelo://app?vid=ad529d20-5fe3-4ea6-81a5-0174e5336665"},"vehicle_type_id":"4","last_reported":1717355121,"current_range_meters":26400,"station_id":"ce4bgih2rcd13ifvqba0","pricing_plan_id":"cebpf4jnsgd1na2vs0mg"},{"bike_id":"629c5c0b-80ab-49e0-a567-a0a49f7ae1dc","system_id":"levelo_inurba_marseille","lat":43.290631,"lon":5.359244,"is_reserved":false,"is_disabled":false,"rental_uris":{"android":"levelo://app?vid=629c5c0b-80ab-49e0-a567-a0a49f7ae1dc","ios":"levelo://app?vid=629c5c0b-80ab-49e0-a567-a0a49f7ae1dc"},"vehicle_type_id":"4","last_reported":1717355121,"current_range_meters":23600,"station_id":"ce4bha92rcd13ifvqeg0","pricing_plan_id":"cebpf4jnsgd1na2vs0mg"},{"bike_id":"dbc73ec8-3d03-4bae-9bec-4c699451e840","system_id":"levelo_inurba_marseille","lat":43.29424,"lon":5.38617,"is_reserved":false,"is_disabled":false,"rental_uris":{"android":"levelo://app?vid=dbc73ec8-3d03-4bae-9bec-4c699451e840","ios":"levelo://app?vid=dbc73ec8-3d03-4bae-9bec-4c699451e840"},"vehicle_type_id":"4","last_reported":1717355121,"current_range_meters":11200,"station_id":"ce4bh2h2rcd13ifvqdh0","pricing_plan_id":"cebpf4jnsgd1na2vs0mg"},{"bike_id":"3a08ce44-836c-41d6-9b35-7cf6b9ee33e1","system_id":"levelo_inurba_marseille","lat":43.29423,"lon":5.3862,"is_reserved":false,"is_disabled":false,"rental_uris":{"android":"levelo://app?vid=3a08ce44-836c-41d6-9b35-7cf6b9ee33e1","ios":"levelo://app?vid=3a08ce44-836c-41d6-9b35-7cf6b9ee33e1"},"vehicle_type_id":"4","last_reported":1717355121,"current_range_meters":11200,"station_id":"ce4bh2h2rcd13ifvqdh0","pricing_plan_id":"cebpf4jnsgd1na2vs0mg"},{"bike_id":"6dc5eff6-996c-47b8-bf64-7304cac26d7e","system_id":"levelo_inurba_marseille","lat":43.290319,"lon":5.375732,"is_reserved":false,"is_disabled":false,"rental_uris":{"android":"levelo://app?vid=6dc5eff6-996c-47b8-bf64-7304cac26d7e","ios":"levelo://app?vid=6dc5eff6-996c-47b8-bf64-7304cac26d7e"},"vehicle_type_id":"4","last_reported":1717355121,"current_range_meters":12000,"station_id":"ce4bh692rcd13ifvqe90","pricing_plan_id":"cebpf4jnsgd1na2vs0mg"},{"bike_id":"ef310f24-0d3e-4f19-b314-4a69ff2a03f8","system_id":"levelo_inurba_marseille","lat":43.294162,"lon":5.386292,"is_reserved":false,"is_disabled":false,"rental_uris":{"android":"levelo://app?vid=ef310f24-0d3e-4f19-b314-4a69ff2a03f8","ios":"levelo://app?vid=ef310f24-0d3e-4f19-b314-4a69ff2a03f8"},"vehicle_type_id":"4","last_reported":1717355121,"current_range_meters":17200,"station_id":"ce4bh2h2rcd13ifvqdh0","pricing_plan_id":"cebpf4jnsgd1na2vs0mg"},{"bike_id":"0d9d9748-4e05-49ab-a69c-0aefe10e4a42","system_id":"levelo_inurba_marseille","lat":43.29416,"lon":5.38613,"is_reserved":false,"is_disabled":false,"rental_uris":{"android":"levelo://app?vid=0d9d9748-4e05-49ab-a69c-0aefe10e4a42","ios":"levelo://app?vid=0d9d9748-4e05-49ab-a69c-0aefe10e4a42"},"vehicle_type_id":"4","last_reported":1717355121,"current_range_meters":18800,"station_id":"ce4bh2h2rcd13ifvqdh0","pricing_plan_id":"cebpf4jnsgd1na2vs0mg"},{"bike_id":"35857bb1-5ce9-447b-8bc6-5b103310042a","system_id":"levelo_inurba_marseille","lat":43.29418,"lon":5.38617,"is_reserved":false,"is_disabled":false,"rental_uris":{"android":"levelo://app?vid=35857bb1-5ce9-447b-8bc6-5b103310042a","ios":"levelo://app?vid=35857bb1-5ce9-447b-8bc6-5b103310042a"},"vehicle_type_id":"4","last_reported":1717355121,"current_range_meters":0,"station_id":"ce4bh2h2rcd13ifvqdh0","pricing_plan_id":"cebpf4jnsgd1na2vs0mg"},{"bike_id":"39685e47-6cc4-444c-a685-ef1df26f4f37","system_id":"levelo_inurba_marseille","lat":43.290319,"lon":5.375732,"is_reserved":false,"is_disabled":false,"rental_uris":{"android":"levelo://app?vid=39685e47-6cc4-444c-a685-ef1df26f4f37","ios":"levelo://app?vid=39685e47-6cc4-444c-a685-ef1df26f4f37"},"vehicle_type_id":"4","last_reported":1717355121,"current_range_meters":22800,"station_id":"ce4bh692rcd13ifvqe90","pricing_plan_id":"cebpf4jnsgd1na2vs0mg"},{"bike_id":"bd83b6cd-d578-495b-a2c2-f8cf4065df6c","system_id":"levelo_inurba_marseille","lat":43.29421,"lon":5.38624,"is_reserved":false,"is_disabled":false,"rental_uris":{"android":"levelo://app?vid=bd83b6cd-d578-495b-a2c2-f8cf4065df6c","ios":"levelo://app?vid=bd83b6cd-d578-495b-a2c2-f8cf4065df6c"},"vehicle_type_id":"4","last_reported":1717355121,"current_range_meters":0,"station_id":"ce4bh2h2rcd13ifvqdh0","pricing_plan_id":"cebpf4jnsgd1na2vs0mg"},{"bike_id":"03b66644-eccf-409a-970a-661e62c086c2","system_id":"levelo_inurba_marseille","lat":43.294162,"lon":5.386292,"is_reserved":false,"is_disabled":false,"rental_uris":{"android":"levelo://app?vid=03b66644-eccf-409a-970a-661e62c086c2","ios":"levelo://app?vid=03b66644-eccf-409a-970a-661e62c086c2"},"vehicle_type_id":"4","last_reported":1717355121,"current_range_meters":4400,"station_id":"ce4bh2h2rcd13ifvqdh0","pricing_plan_id":"cebpf4jnsgd1na2vs0mg"},{"bike_id":"78fe11af-b476-47fb-ad71-a27bb3fe63f0","system_id":"levelo_inurba_marseille","lat":43.29424,"lon":5.3863,"is_reserved":false,"is_disabled":false,"rental_uris":{"android":"levelo://app?vid=78fe11af-b476-47fb-ad71-a27bb3fe63f0","ios":"levelo://app?vid=78fe11af-b476-47fb-ad71-a27bb3fe63f0"},"vehicle_type_id":"4","last_reported":1717355121,"current_range_meters":25200,"station_id":"ce4bh2h2rcd13ifvqdh0","pricing_plan_id":"cebpf4jnsgd1na2vs0mg"},{"bike_id":"e707befa-dd33-42bf-a88f-522143f119b8","system_id":"levelo_inurba_marseille","lat":43.2942,"lon":5.38623,"is_reserved":false,"is_disabled":false,"rental_uris":{"android":"levelo://app?vid=e707befa-dd33-42bf-a88f-522143f119b8","ios":"levelo://app?vid=e707befa-dd33-42bf-a88f-522143f119b8"},"vehicle_type_id":"4","last_reported":1717355121,"current_range_meters":24000,"station_id":"ce4bh2h2rcd13ifvqdh0","pricing_plan_id":"cebpf4jnsgd1na2vs0mg"},{"bike_id":"318a81a7-de6f-40ea-b2d3-e8a6d4c75b0d","system_id":"levelo_inurba_marseille","lat":43.294162,"lon":5.386292,"is_reserved":false,"is_disabled":false,"rental_uris":{"android":"levelo://app?vid=318a81a7-de6f-40ea-b2d3-e8a6d4c75b0d","ios":"levelo://app?vid=318a81a7-de6f-40ea-b2d3-e8a6d4c75b0d"},"vehicle_type_id":"4","last_reported":1717355121,"current_range_meters":22000,"station_id":"ce4bh2h2rcd13ifvqdh0","pricing_plan_id":"cebpf4jnsgd1na2vs0mg"},{"bike_id":"ef886ae6-3738-4633-9a73-632c1f8a1bbe","system_id":"levelo_inurba_marseille","lat":43.294162,"lon":5.386292,"is_reserved":false,"is_disabled":false,"rental_uris":{"android":"levelo://app?vid=ef886ae6-3738-4633-9a73-632c1f8a1bbe","ios":"levelo://app?vid=ef886ae6-3738-4633-9a73-632c1f8a1bbe"},"vehicle_type_id":"4","last_reported":1717355121,"current_range_meters":800,"station_id":"ce4bh2h2rcd13ifvqdh0","pricing_plan_id":"cebpf4jnsgd1na2vs0mg"},{"bike_id":"7094beeb-db06-40bc-b4d9-696e93ea4431","system_id":"levelo_inurba_marseille","lat":43.294182,"lon":5.386233,"is_reserved":false,"is_disabled":false,"rental_uris":{"android":"levelo://app?vid=7094beeb-db06-40bc-b4d9-696e93ea4431","ios":"levelo://app?vid=7094beeb-db06-40bc-b4d9-696e93ea4431"},"vehicle_type_id":"4","last_reported":1717355121,"current_range_meters":11200,"station_id":"ce4bh2h2rcd13ifvqdh0","pricing_plan_id":"cebpf4jnsgd1na2vs0mg"},{"bike_id":"bf02669d-85ce-41cb-ba48-36082a1c2fb4","system_id":"levelo_inurba_marseille","lat":43.29418,"lon":5.38623,"is_reserved":false,"is_disabled":false,"rental_uris":{"android":"levelo://app?vid=bf02669d-85ce-41cb-ba48-36082a1c2fb4","ios":"levelo://app?vid=bf02669d-85ce-41cb-ba48-36082a1c2fb4"},"vehicle_type_id":"4","last_reported":1717355121,"current_range_meters":10800,"station_id":"ce4bh2h2rcd13ifvqdh0","pricing_plan_id":"cebpf4jnsgd1na2vs0mg"},{"bike_id":"910c4fef-5224-498f-98f5-26dd6d7e987a","system_id":"levelo_inurba_marseille","lat":43.294162,"lon":5.386292,"is_reserved":false,"is_disabled":false,"rental_uris":{"android":"levelo://app?vid=910c4fef-5224-498f-98f5-26dd6d7e987a","ios":"levelo://app?vid=910c4fef-5224-498f-98f5-26dd6d7e987a"},"vehicle_type_id":"4","last_reported":1717355121,"current_range_meters":12000,"station_id":"ce4bh2h2rcd13ifvqdh0","pricing_plan_id":"cebpf4jnsgd1na2vs0mg"},{"bike_id":"1f559de1-384a-4ba6-acc8-c3b80a0aa8f7","system_id":"levelo_inurba_marseille","lat":43.29418,"lon":5.38624,"is_reserved":false,"is_disabled":false,"rental_uris":{"android":"levelo://app?vid=1f559de1-384a-4ba6-acc8-c3b80a0aa8f7","ios":"levelo://app?vid=1f559de1-384a-4ba6-acc8-c3b80a0aa8f7"},"vehicle_type_id":"4","last_reported":1717355121,"current_range_meters":4400,"station_id":"ce4bh2h2rcd13ifvqdh0","pricing_plan_id":"cebpf4jnsgd1na2vs0mg"},{"bike_id":"50429305-a8b4-4a70-ad84-8ed472a98a3d","system_id":"levelo_inurba_marseille","lat":43.29419,"lon":5.38626,"is_reserved":false,"is_disabled":false,"rental_uris":{"android":"levelo://app?vid=50429305-a8b4-4a70-ad84-8ed472a98a3d","ios":"levelo://app?vid=50429305-a8b4-4a70-ad84-8ed472a98a3d"},"vehicle_type_id":"4","last_reported":1717355121,"current_range_meters":800,"station_id":"ce4bh2h2rcd13ifvqdh0","pricing_plan_id":"cebpf4jnsgd1na2vs0mg"},{"bike_id":"e6c0422f-49fe-4fc9-a83d-0b2f4029bf62","system_id":"levelo_inurba_marseille","lat":43.29418,"lon":5.38625,"is_reserved":false,"is_disabled":false,"rental_uris":{"android":"levelo://app?vid=e6c0422f-49fe-4fc9-a83d-0b2f4029bf62","ios":"levelo://app?vid=e6c0422f-49fe-4fc9-a83d-0b2f4029bf62"},"vehicle_type_id":"4","last_reported":1717355121,"current_range_meters":8000,"station_id":"ce4bh2h2rcd13ifvqdh0","pricing_plan_id":"cebpf4jnsgd1na2vs0mg"},{"bike_id":"dd82117c-f51a-4d6e-8f6c-99a1a905b801","system_id":"levelo_inurba_marseille","lat":43.29416,"lon":5.38622,"is_reserved":false,"is_disabled":false,"rental_uris":{"android":"levelo://app?vid=dd82117c-f51a-4d6e-8f6c-99a1a905b801","ios":"levelo://app?vid=dd82117c-f51a-4d6e-8f6c-99a1a905b801"},"vehicle_type_id":"4","last_reported":1717355121,"current_range_meters":20800,"station_id":"ce4bh2h2rcd13ifvqdh0","pricing_plan_id":"cebpf4jnsgd1na2vs0mg"},{"bike_id":"674ac3a0-dbff-4c70-9695-1886f9141007","system_id":"levelo_inurba_marseille","lat":43.29417,"lon":5.38624,"is_reserved":false,"is_disabled":false,"rental_uris":{"android":"levelo://app?vid=674ac3a0-dbff-4c70-9695-1886f9141007","ios":"levelo://app?vid=674ac3a0-dbff-4c70-9695-1886f9141007"},"vehicle_type_id":"4","last_reported":1717355121,"current_range_meters":17600,"station_id":"ce4bh2h2rcd13ifvqdh0","pricing_plan_id":"cebpf4jnsgd1na2vs0mg"},{"bike_id":"ba86959e-8981-426c-be8a-44b761c34add","system_id":"levelo_inurba_marseille","lat":43.294239,"lon":5.386376,"is_reserved":false,"is_disabled":false,"rental_uris":{"android":"levelo://app?vid=ba86959e-8981-426c-be8a-44b761c34add","ios":"levelo://app?vid=ba86959e-8981-426c-be8a-44b761c34add"},"vehicle_type_id":"4","last_reported":1717355121,"current_range_meters":19600,"station_id":"ce4bh2h2rcd13ifvqdh0","pricing_plan_id":"cebpf4jnsgd1na2vs0mg"},{"bike_id":"2f9925b3-821d-456d-a81f-a9fc782ef5df","system_id":"levelo_inurba_marseille","lat":43.294162,"lon":5.386292,"is_reserved":false,"is_disabled":false,"rental_uris":{"android":"levelo://app?vid=2f9925b3-821d-456d-a81f-a9fc782ef5df","ios":"levelo://app?vid=2f9925b3-821d-456d-a81f-a9fc782ef5df"},"vehicle_type_id":"4","last_reported":1717355121,"current_range_meters":6800,"station_id":"ce4bh2h2rcd13ifvqdh0","pricing_plan_id":"cebpf4jnsgd1na2vs0mg"},{"bike_id":"6ea4c548-8a6e-4c25-bfbe-151e744026f5","system_id":"levelo_inurba_marseille","lat":43.294162,"lon":5.386292,"is_reserved":false,"is_disabled":false,"rental_uris":{"android":"levelo://app?vid=6ea4c548-8a6e-4c25-bfbe-151e744026f5","ios":"levelo://app?vid=6ea4c548-8a6e-4c25-bfbe-151e744026f5"},"vehicle_type_id":"4","last_reported":1717355121,"current_range_meters":18000,"station_id":"ce4bh2h2rcd13ifvqdh0","pricing_plan_id":"cebpf4jnsgd1na2vs0mg"},{"bike_id":"6e183e2e-d758-4791-bcb8-4bea6ac1acfc","system_id":"levelo_inurba_marseille","lat":43.29414,"lon":5.38622,"is_reserved":false,"is_disabled":false,"rental_uris":{"android":"levelo://app?vid=6e183e2e-d758-4791-bcb8-4bea6ac1acfc","ios":"levelo://app?vid=6e183e2e-d758-4791-bcb8-4bea6ac1acfc"},"vehicle_type_id":"4","last_reported":1717355121,"current_range_meters":15200,"station_id":"ce4bh2h2rcd13ifvqdh0","pricing_plan_id":"cebpf4jnsgd1na2vs0mg"},{"bike_id":"847292f1-6e84-4a64-a5f6-71f26086a2d2","system_id":"levelo_inurba_marseille","lat":43.294162,"lon":5.386292,"is_reserved":false,"is_disabled":false,"rental_uris":{"android":"levelo://app?vid=847292f1-6e84-4a64-a5f6-71f26086a2d2","ios":"levelo://app?vid=847292f1-6e84-4a64-a5f6-71f26086a2d2"},"vehicle_type_id":"4","last_reported":1717355121,"current_range_meters":2800,"station_id":"ce4bh2h2rcd13ifvqdh0","pricing_plan_id":"cebpf4jnsgd1na2vs0mg"},{"bike_id":"30a77b0c-88ed-4688-89fc-64c7a0da20f8","system_id":"levelo_inurba_marseille","lat":43.294162,"lon":5.386292,"is_reserved":false,"is_disabled":false,"rental_uris":{"android":"levelo://app?vid=30a77b0c-88ed-4688-89fc-64c7a0da20f8","ios":"levelo://app?vid=30a77b0c-88ed-4688-89fc-64c7a0da20f8"},"vehicle_type_id":"4","last_reported":1717355121,"current_range_meters":1600,"station_id":"ce4bh2h2rcd13ifvqdh0","pricing_plan_id":"cebpf4jnsgd1na2vs0mg"},{"bike_id":"b90a3235-fba4-4c56-a508-e81d02db0cdf","system_id":"levelo_inurba_marseille","lat":43.29415,"lon":5.38631,"is_reserved":false,"is_disabled":false,"rental_uris":{"android":"levelo://app?vid=b90a3235-fba4-4c56-a508-e81d02db0cdf","ios":"levelo://app?vid=b90a3235-fba4-4c56-a508-e81d02db0cdf"},"vehicle_type_id":"4","last_reported":1717355121,"current_range_meters":8000,"station_id":"ce4bh2h2rcd13ifvqdh0","pricing_plan_id":"cebpf4jnsgd1na2vs0mg"},{"bike_id":"7200062d-e27a-46c5-84a3-81f111d0c304","system_id":"levelo_inurba_marseille","lat":43.294162,"lon":5.386292,"is_reserved":false,"is_disabled":false,"rental_uris":{"android":"levelo://app?vid=7200062d-e27a-46c5-84a3-81f111d0c304","ios":"levelo://app?vid=7200062d-e27a-46c5-84a3-81f111d0c304"},"vehicle_type_id":"4","last_reported":1717355121,"current_range_meters":4400,"station_id":"ce4bh2h2rcd13ifvqdh0","pricing_plan_id":"cebpf4jnsgd1na2vs0mg"},{"bike_id":"580131cd-1088-4958-aefc-a7594e72a11e","system_id":"levelo_inurba_marseille","lat":43.29415,"lon":5.38633,"is_reserved":false,"is_disabled":false,"rental_uris":{"android":"levelo://app?vid=580131cd-1088-4958-aefc-a7594e72a11e","ios":"levelo://app?vid=580131cd-1088-4958-aefc-a7594e72a11e"},"vehicle_type_id":"4","last_reported":1717355121,"current_range_meters":2000,"station_id":"ce4bh2h2rcd13ifvqdh0","pricing_plan_id":"cebpf4jnsgd1na2vs0mg"},{"bike_id":"d7b6ed03-4dfe-496c-8e10-d669067fec07","system_id":"levelo_inurba_marseille","lat":43.29418,"lon":5.38639,"is_reserved":false,"is_disabled":false,"rental_uris":{"android":"levelo://app?vid=d7b6ed03-4dfe-496c-8e10-d669067fec07","ios":"levelo://app?vid=d7b6ed03-4dfe-496c-8e10-d669067fec07"},"vehicle_type_id":"4","last_reported":1717355121,"current_range_meters":7600,"station_id":"ce4bh2h2rcd13ifvqdh0","pricing_plan_id":"cebpf4jnsgd1na2vs0mg"},{"bike_id":"21d68d82-689c-453d-8247-73c603975f64","system_id":"levelo_inurba_marseille","lat":43.289379,"lon":5.363947,"is_reserved":false,"is_disabled":false,"rental_uris":{"android":"levelo://app?vid=21d68d82-689c-453d-8247-73c603975f64","ios":"levelo://app?vid=21d68d82-689c-453d-8247-73c603975f64"},"vehicle_type_id":"4","last_reported":1717355121,"current_range_meters":0,"station_id":"ce4bhc92rcd13ifvqetg","pricing_plan_id":"cebpf4jnsgd1na2vs0mg"},{"bike_id":"dc23784a-8273-4158-9edb-9eff1281f512","system_id":"levelo_inurba_marseille","lat":43.289468,"lon":5.363719,"is_reserved":false,"is_disabled":false,"rental_uris":{"android":"levelo://app?vid=dc23784a-8273-4158-9edb-9eff1281f512","ios":"levelo://app?vid=dc23784a-8273-4158-9edb-9eff1281f512"},"vehicle_type_id":"4","last_reported":1717355121,"current_range_meters":3200,"station_id":"ce4bhc92rcd13ifvqetg","pricing_plan_id":"cebpf4jnsgd1na2vs0mg"},{"bike_id":"99901629-a8bf-4062-8d1b-3361a9385396","system_id":"levelo_inurba_marseille","lat":43.292644,"lon":5.384257,"is_reserved":false,"is_disabled":false,"rental_uris":{"android":"levelo://app?vid=99901629-a8bf-4062-8d1b-3361a9385396","ios":"levelo://app?vid=99901629-a8bf-4062-8d1b-3361a9385396"},"vehicle_type_id":"4","last_reported":1717355121,"current_range_meters":27200,"station_id":"ce4bh692rcd13ifvqea0","pricing_plan_id":"cebpf4jnsgd1na2vs0mg"},{"bike_id":"eda1e853-73f0-48c8-b51e-161a2e3952a9","system_id":"levelo_inurba_marseille","lat":43.29264,"lon":5.38431,"is_reserved":false,"is_disabled":false,"rental_uris":{"android":"levelo://app?vid=eda1e853-73f0-48c8-b51e-161a2e3952a9","ios":"levelo://app?vid=eda1e853-73f0-48c8-b51e-161a2e3952a9"},"vehicle_type_id":"4","last_reported":1717355121,"current_range_meters":13200,"station_id":"ce4bh692rcd13ifvqea0","pricing_plan_id":"cebpf4jnsgd1na2vs0mg"},{"bike_id":"f4099601-98f4-4e49-b39e-3c713535b0f3","system_id":"levelo_inurba_marseille","lat":43.292644,"lon":5.384257,"is_reserved":false,"is_disabled":false,"rental_uris":{"android":"levelo://app?vid=f4099601-98f4-4e49-b39e-3c713535b0f3","ios":"levelo://app?vid=f4099601-98f4-4e49-b39e-3c713535b0f3"},"vehicle_type_id":"4","last_reported":1717355121,"current_range_meters":20000,"station_id":"ce4bh692rcd13ifvqea0","pricing_plan_id":"cebpf4jnsgd1na2vs0mg"},{"bike_id":"20699664-75f3-4998-b225-43349b501b5d","system_id":"levelo_inurba_marseille","lat":43.292644,"lon":5.384257,"is_reserved":false,"is_disabled":false,"rental_uris":{"android":"levelo://app?vid=20699664-75f3-4998-b225-43349b501b5d","ios":"levelo://app?vid=20699664-75f3-4998-b225-43349b501b5d"},"vehicle_type_id":"4","last_reported":1717355121,"current_range_meters":20400,"station_id":"ce4bh692rcd13ifvqea0","pricing_plan_id":"cebpf4jnsgd1na2vs0mg"},{"bike_id":"a65f8825-cdf0-45c9-af16-38a3e4530347","system_id":"levelo_inurba_marseille","lat":43.292644,"lon":5.384257,"is_reserved":false,"is_disabled":false,"rental_uris":{"android":"levelo://app?vid=a65f8825-cdf0-45c9-af16-38a3e4530347","ios":"levelo://app?vid=a65f8825-cdf0-45c9-af16-38a3e4530347"},"vehicle_type_id":"4","last_reported":1717355121,"current_range_meters":3200,"station_id":"ce4bh692rcd13ifvqea0","pricing_plan_id":"cebpf4jnsgd1na2vs0mg"},{"bike_id":"93d2c50e-c1c7-4cd0-992e-4674d94f76e9","system_id":"levelo_inurba_marseille","lat":43.29264,"lon":5.38438,"is_reserved":false,"is_disabled":false,"rental_uris":{"android":"levelo://app?vid=93d2c50e-c1c7-4cd0-992e-4674d94f76e9","ios":"levelo://app?vid=93d2c50e-c1c7-4cd0-992e-4674d94f76e9"},"vehicle_type_id":"4","last_reported":1717355121,"current_range_meters":24000,"station_id":"ce4bh692rcd13ifvqea0","pricing_plan_id":"cebpf4jnsgd1na2vs0mg"},{"bike_id":"27dcb9e8-7417-4b0c-a0cd-13bcdb938fe1","system_id":"levelo_inurba_marseille","lat":43.292644,"lon":5.384257,"is_reserved":false,"is_disabled":false,"rental_uris":{"android":"levelo://app?vid=27dcb9e8-7417-4b0c-a0cd-13bcdb938fe1","ios":"levelo://app?vid=27dcb9e8-7417-4b0c-a0cd-13bcdb938fe1"},"vehicle_type_id":"4","last_reported":1717355121,"current_range_meters":16800,"station_id":"ce4bh692rcd13ifvqea0","pricing_plan_id":"cebpf4jnsgd1na2vs0mg"},{"bike_id":"06dcef17-7e22-479b-8082-a98fd29caec5","system_id":"levelo_inurba_marseille","lat":43.292638,"lon":5.38438,"is_reserved":false,"is_disabled":false,"rental_uris":{"android":"levelo://app?vid=06dcef17-7e22-479b-8082-a98fd29caec5","ios":"levelo://app?vid=06dcef17-7e22-479b-8082-a98fd29caec5"},"vehicle_type_id":"4","last_reported":1717355121,"current_range_meters":20000,"station_id":"ce4bh692rcd13ifvqea0","pricing_plan_id":"cebpf4jnsgd1na2vs0mg"},{"bike_id":"4dd2fbb4-e0df-40c6-9490-4c3e321ce3f1","system_id":"levelo_inurba_marseille","lat":43.29265,"lon":5.38442,"is_reserved":false,"is_disabled":false,"rental_uris":{"android":"levelo://app?vid=4dd2fbb4-e0df-40c6-9490-4c3e321ce3f1","ios":"levelo://app?vid=4dd2fbb4-e0df-40c6-9490-4c3e321ce3f1"},"vehicle_type_id":"4","last_reported":1717355121,"current_range_meters":20400,"station_id":"ce4bh692rcd13ifvqea0","pricing_plan_id":"cebpf4jnsgd1na2vs0mg"},{"bike_id":"b8be38b3-1539-400f-9152-db2ba964d557","system_id":"levelo_inurba_marseille","lat":43.29265,"lon":5.38442,"is_reserved":false,"is_disabled":false,"rental_uris":{"android":"levelo://app?vid=b8be38b3-1539-400f-9152-db2ba964d557","ios":"levelo://app?vid=b8be38b3-1539-400f-9152-db2ba964d557"},"vehicle_type_id":"4","last_reported":1717355121,"current_range_meters":15600,"station_id":"ce4bh692rcd13ifvqea0","pricing_plan_id":"cebpf4jnsgd1na2vs0mg"},{"bike_id":"22a5aeec-0430-4a57-ad25-fa67dcbf564a","system_id":"levelo_inurba_marseille","lat":43.29263,"lon":5.3844,"is_reserved":false,"is_disabled":false,"rental_uris":{"android":"levelo://app?vid=22a5aeec-0430-4a57-ad25-fa67dcbf564a","ios":"levelo://app?vid=22a5aeec-0430-4a57-ad25-fa67dcbf564a"},"vehicle_type_id":"4","last_reported":1717355121,"current_range_meters":17600,"station_id":"ce4bh692rcd13ifvqea0","pricing_plan_id":"cebpf4jnsgd1na2vs0mg"},{"bike_id":"0170cd19-8fe5-4dfe-9513-8ad1bcd115f9","system_id":"levelo_inurba_marseille","lat":43.29265,"lon":5.38445,"is_reserved":false,"is_disabled":false,"rental_uris":{"android":"levelo://app?vid=0170cd19-8fe5-4dfe-9513-8ad1bcd115f9","ios":"levelo://app?vid=0170cd19-8fe5-4dfe-9513-8ad1bcd115f9"},"vehicle_type_id":"4","last_reported":1717355121,"current_range_meters":12800,"station_id":"ce4bh692rcd13ifvqea0","pricing_plan_id":"cebpf4jnsgd1na2vs0mg"},{"bike_id":"c7339a13-d1e6-4c09-85a7-2c580bdad0d8","system_id":"levelo_inurba_marseille","lat":43.292644,"lon":5.384257,"is_reserved":false,"is_disabled":false,"rental_uris":{"android":"levelo://app?vid=c7339a13-d1e6-4c09-85a7-2c580bdad0d8","ios":"levelo://app?vid=c7339a13-d1e6-4c09-85a7-2c580bdad0d8"},"vehicle_type_id":"4","last_reported":1717355121,"current_range_meters":31600,"station_id":"ce4bh692rcd13ifvqea0","pricing_plan_id":"cebpf4jnsgd1na2vs0mg"},{"bike_id":"667e1632-0f56-4360-81c0-1d6cedf5bf15","system_id":"levelo_inurba_marseille","lat":43.292642,"lon":5.384254,"is_reserved":false,"is_disabled":false,"rental_uris":{"android":"levelo://app?vid=667e1632-0f56-4360-81c0-1d6cedf5bf15","ios":"levelo://app?vid=667e1632-0f56-4360-81c0-1d6cedf5bf15"},"vehicle_type_id":"4","last_reported":1717355121,"current_range_meters":4400,"station_id":"ce4bh692rcd13ifvqea0","pricing_plan_id":"cebpf4jnsgd1na2vs0mg"},{"bike_id":"90f0c5e7-76d8-494e-9f06-7ca881651540","system_id":"levelo_inurba_marseille","lat":43.292642,"lon":5.384254,"is_reserved":false,"is_disabled":false,"rental_uris":{"android":"levelo://app?vid=90f0c5e7-76d8-494e-9f06-7ca881651540","ios":"levelo://app?vid=90f0c5e7-76d8-494e-9f06-7ca881651540"},"vehicle_type_id":"4","last_reported":1717355121,"current_range_meters":17200,"station_id":"ce4bh692rcd13ifvqea0","pricing_plan_id":"cebpf4jnsgd1na2vs0mg"},{"bike_id":"808fac07-a66b-4b2b-839c-6765ed6dcc4a","system_id":"levelo_inurba_marseille","lat":43.292642,"lon":5.384254,"is_reserved":false,"is_disabled":false,"rental_uris":{"android":"levelo://app?vid=808fac07-a66b-4b2b-839c-6765ed6dcc4a","ios":"levelo://app?vid=808fac07-a66b-4b2b-839c-6765ed6dcc4a"},"vehicle_type_id":"4","last_reported":1717355121,"current_range_meters":8400,"station_id":"ce4bh692rcd13ifvqea0","pricing_plan_id":"cebpf4jnsgd1na2vs0mg"},{"bike_id":"f9c45c5d-5b8a-4b5c-9ab9-d5c983690928","system_id":"levelo_inurba_marseille","lat":43.292644,"lon":5.384257,"is_reserved":false,"is_disabled":false,"rental_uris":{"android":"levelo://app?vid=f9c45c5d-5b8a-4b5c-9ab9-d5c983690928","ios":"levelo://app?vid=f9c45c5d-5b8a-4b5c-9ab9-d5c983690928"},"vehicle_type_id":"4","last_reported":1717355121,"current_range_meters":14000,"station_id":"ce4bh692rcd13ifvqea0","pricing_plan_id":"cebpf4jnsgd1na2vs0mg"},{"bike_id":"c63f4dc0-ded8-49b4-b961-340af751fe4a","system_id":"levelo_inurba_marseille","lat":43.292642,"lon":5.384254,"is_reserved":false,"is_disabled":false,"rental_uris":{"android":"levelo://app?vid=c63f4dc0-ded8-49b4-b961-340af751fe4a","ios":"levelo://app?vid=c63f4dc0-ded8-49b4-b961-340af751fe4a"},"vehicle_type_id":"4","last_reported":1717355121,"current_range_meters":800,"station_id":"ce4bh692rcd13ifvqea0","pricing_plan_id":"cebpf4jnsgd1na2vs0mg"},{"bike_id":"5045fc6f-cd5c-4f5d-b6ec-f4447e762c42","system_id":"levelo_inurba_marseille","lat":43.292642,"lon":5.384254,"is_reserved":false,"is_disabled":false,"rental_uris":{"android":"levelo://app?vid=5045fc6f-cd5c-4f5d-b6ec-f4447e762c42","ios":"levelo://app?vid=5045fc6f-cd5c-4f5d-b6ec-f4447e762c42"},"vehicle_type_id":"4","last_reported":1717355121,"current_range_meters":12000,"station_id":"ce4bh692rcd13ifvqea0","pricing_plan_id":"cebpf4jnsgd1na2vs0mg"},{"bike_id":"d49b5aa0-fd82-4c8f-bd37-20d9d2cd60a0","system_id":"levelo_inurba_marseille","lat":43.292642,"lon":5.384254,"is_reserved":false,"is_disabled":false,"rental_uris":{"android":"levelo://app?vid=d49b5aa0-fd82-4c8f-bd37-20d9d2cd60a0","ios":"levelo://app?vid=d49b5aa0-fd82-4c8f-bd37-20d9d2cd60a0"},"vehicle_type_id":"4","last_reported":1717355121,"current_range_meters":16800,"station_id":"ce4bh692rcd13ifvqea0","pricing_plan_id":"cebpf4jnsgd1na2vs0mg"},{"bike_id":"e79ad575-3595-48da-bcab-012aa410bf2e","system_id":"levelo_inurba_marseille","lat":43.292644,"lon":5.384257,"is_reserved":false,"is_disabled":false,"rental_uris":{"android":"levelo://app?vid=e79ad575-3595-48da-bcab-012aa410bf2e","ios":"levelo://app?vid=e79ad575-3595-48da-bcab-012aa410bf2e"},"vehicle_type_id":"4","last_reported":1717355121,"current_range_meters":400,"station_id":"ce4bh692rcd13ifvqea0","pricing_plan_id":"cebpf4jnsgd1na2vs0mg"},{"bike_id":"e46fe1b3-01b3-4d78-a897-ca4ca4c63ac1","system_id":"levelo_inurba_marseille","lat":43.292644,"lon":5.384257,"is_reserved":false,"is_disabled":false,"rental_uris":{"android":"levelo://app?vid=e46fe1b3-01b3-4d78-a897-ca4ca4c63ac1","ios":"levelo://app?vid=e46fe1b3-01b3-4d78-a897-ca4ca4c63ac1"},"vehicle_type_id":"4","last_reported":1717355121,"current_range_meters":5600,"station_id":"ce4bh692rcd13ifvqea0","pricing_plan_id":"cebpf4jnsgd1na2vs0mg"},{"bike_id":"ea88f1c0-eb22-434e-8e8e-bd606d2bf982","system_id":"levelo_inurba_marseille","lat":43.29262,"lon":5.38446,"is_reserved":false,"is_disabled":false,"rental_uris":{"android":"levelo://app?vid=ea88f1c0-eb22-434e-8e8e-bd606d2bf982","ios":"levelo://app?vid=ea88f1c0-eb22-434e-8e8e-bd606d2bf982"},"vehicle_type_id":"4","last_reported":1717355121,"current_range_meters":8400,"station_id":"ce4bh692rcd13ifvqea0","pricing_plan_id":"cebpf4jnsgd1na2vs0mg"},{"bike_id":"30d18ddc-6999-4ca3-a394-15b86dff87a0","system_id":"levelo_inurba_marseille","lat":43.292595,"lon":5.38441,"is_reserved":false,"is_disabled":false,"rental_uris":{"android":"levelo://app?vid=30d18ddc-6999-4ca3-a394-15b86dff87a0","ios":"levelo://app?vid=30d18ddc-6999-4ca3-a394-15b86dff87a0"},"vehicle_type_id":"4","last_reported":1717355121,"current_range_meters":2000,"station_id":"ce4bh692rcd13ifvqea0","pricing_plan_id":"cebpf4jnsgd1na2vs0mg"},{"bike_id":"22a14222-0068-4ce1-a561-273437fa4399","system_id":"levelo_inurba_marseille","lat":43.292642,"lon":5.384254,"is_reserved":false,"is_disabled":false,"rental_uris":{"android":"levelo://app?vid=22a14222-0068-4ce1-a561-273437fa4399","ios":"levelo://app?vid=22a14222-0068-4ce1-a561-273437fa4399"},"vehicle_type_id":"4","last_reported":1717355121,"current_range_meters":17600,"station_id":"ce4bh692rcd13ifvqea0","pricing_plan_id":"cebpf4jnsgd1na2vs0mg"},{"bike_id":"ff9eb5d1-4d5a-4b42-b88f-6181696cd1c9","system_id":"levelo_inurba_marseille","lat":43.292642,"lon":5.384254,"is_reserved":false,"is_disabled":false,"rental_uris":{"android":"levelo://app?vid=ff9eb5d1-4d5a-4b42-b88f-6181696cd1c9","ios":"levelo://app?vid=ff9eb5d1-4d5a-4b42-b88f-6181696cd1c9"},"vehicle_type_id":"4","last_reported":1717355121,"current_range_meters":25200,"station_id":"ce4bh692rcd13ifvqea0","pricing_plan_id":"cebpf4jnsgd1na2vs0mg"},{"bike_id":"7676ced9-1422-4643-b44b-78747f0a403a","system_id":"levelo_inurba_marseille","lat":43.2926,"lon":5.38445,"is_reserved":false,"is_disabled":false,"rental_uris":{"android":"levelo://app?vid=7676ced9-1422-4643-b44b-78747f0a403a","ios":"levelo://app?vid=7676ced9-1422-4643-b44b-78747f0a403a"},