{"last_updated":1758716463,"ttl":60,"version":"2.2","data":{"bikes":[{"bike_id":"da3478c0-7b34-4d6c-ab30-9e03069435b6","system_id":"levelo_inurba_marseille","lat":43.30555,"lon":5.36528,"is_reserved":false,"is_disabled":false,"rental_uris":{"android":"levelo://app?vid=da3478c0-7b34-4d6c-ab30-9e03069435b6","ios":"levelo://app?vid=da3478c0-7b34-4d6c-ab30-9e03069435b6"},"vehicle_type_id":"4","last_reported":1758716463,"current_range_meters":2800,"station_id":"ce4bgs12rcd13ifvqcag","pricing_plan_id":"cebpf4jnsgd1na2vs0mg"},{"bike_id":"b9b5048b-3880-4fe4-8acc-3882a1c8a150","system_id":"levelo_inurba_marseille","lat":43.2898,"lon":5.37834,"is_reserved":false,"is_disabled":false,"rental_uris":{"android":"levelo://app?vid=b9b5048b-3880-4fe4-8acc-3882a1c8a150","ios":"levelo://app?vid=b9b5048b-3880-4fe4-8acc-3882a1c8a150"},"vehicle_type_id":"4","last_reported":1758716463,"current_range_meters":3200,"station_id":"ce4bh9p2rcd13ifvqed0","pricing_plan_id":"cebpf4jnsgd1na2vs0mg"},{"bike_id":"12c4c0bb-7cd0-487a-b08b-7995ab806901","system_id":"levelo_inurba_marseille","lat":43.29277,"lon":5.36849,"is_reserved":false,"is_disabled":false,"rental_uris":{"android":"levelo://app?vid=12c4c0bb-7cd0-487a-b08b-7995ab806901","ios":"levelo://app?vid=12c4c0bb-7cd0-487a-b08b-7995ab806901"},"vehicle_type_id":"4","last_reported":1758716463,"current_range_meters":3200,"station_id":"ce4bhbp2rcd13ifvqesg","pricing_plan_id":"cebpf4jnsgd1na2vs0mg"},{"bike_id":"c7afab79-9e12-4c0d-9720-b7bebfd39ed7","system_id":"levelo_inurba_marseille","lat":43.3089,"lon":5.39638,"is_reserved":false,"is_disabled":false,"rental_uris":{"android":"levelo://app?vid=c7afab79-9e12-4c0d-9720-b7bebfd39ed7","ios":"levelo://app?vid=c7afab79-9e12-4c0d-9720-b7bebfd39ed7"},"vehicle_type_id":"4","last_reported":1758716463,"current_range_meters":2800,"station_id":"ce4bh012rcd13ifvqcv0","pricing_plan_id":"cebpf4jnsgd1na2vs0mg"},{"bike_id":"61be5ff3-48dd-45f3-a072-c7ae8e81939d","system_id":"levelo_inurba_marseille","lat":43.32469,"lon":5.36562,"is_reserved":false,"is_disabled":false,"rental_uris":{"android":"levelo://app?vid=61be5ff3-48dd-45f3-a072-c7ae8e81939d","ios":"levelo://app?vid=61be5ff3-48dd-45f3-a072-c7ae8e81939d"},"vehicle_type_id":"4","last_reported":1758716463,"current_range_meters":3200,"station_id":"ce4bhs12rcd13ifvqhvg","pricing_plan_id":"cebpf4jnsgd1na2vs0mg"},{"bike_id":"c01f598a-4b24-467c-b8ab-a113dd4a438b","system_id":"levelo_inurba_marseille","lat":43.26553,"lon":5.37292,"is_reserved":false,"is_disabled":false,"rental_uris":{"android":"levelo://app?vid=c01f598a-4b24-467c-b8ab-a113dd4a438b","ios":"levelo://app?vid=c01f598a-4b24-467c-b8ab-a113dd4a438b"},"vehicle_type_id":"4","last_reported":1758716463,"current_range_meters":3200,"station_id":"ce4bhg12rcd13ifvqf70","pricing_plan_id":"cebpf4jnsgd1na2vs0mg"},{"bike_id":"61e6b46d-4224-42d1-91fa-78a48f5d0e6a","system_id":"levelo_inurba_marseille","lat":43.326611,"lon":5.409906,"is_reserved":false,"is_disabled":false,"rental_uris":{"android":"levelo://app?vid=61e6b46d-4224-42d1-91fa-78a48f5d0e6a","ios":"levelo://app?vid=61e6b46d-4224-42d1-91fa-78a48f5d0e6a"},"vehicle_type_id":"4","last_reported":1758716463,"current_range_meters":3600,"station_id":"","pricing_plan_id":"cebpf4jnsgd1na2vs0mg"},{"bike_id":"da7c3da2-1785-45c7-8cff-44ef4c940a0d","system_id":"levelo_inurba_marseille","lat":43.31503,"lon":5.37308,"is_reserved":false,"is_disabled":false,"rental_uris":{"android":"levelo://app?vid=da7c3da2-1785-45c7-8cff-44ef4c940a0d","ios":"levelo://app?vid=da7c3da2-1785-45c7-8cff-44ef4c940a0d"},"vehicle_type_id":"4","last_reported":1758716463,"current_range_meters":3200,"station_id":"ce4bgt12rcd13ifvqcd0","pricing_plan_id":"cebpf4jnsgd1na2vs0mg"},{"bike_id":"bd6039c4-f1ab-4292-b245-e38e78f9ce3d","system_id":"levelo_inurba_marseille","lat":43.33014,"lon":5.39054,"is_reserved":false,"is_disabled":true,"rental_uris":{"android":"levelo://app?vid=bd6039c4-f1ab-4292-b245-e38e78f9ce3d","ios":"levelo://app?vid=bd6039c4-f1ab-4292-b245-e38e78f9ce3d"},"vehicle_type_id":"4","last_reported":1758716463,"current_range_meters":3600,"station_id":"ce4bhr92rcd13ifvqhrg","pricing_plan_id":"cebpf4jnsgd1na2vs0mg"},{"bike_id":"213937f4-0cd9-48b8-9d64-0b73c37bc721","system_id":"levelo_inurba_marseille","lat":43.29558,"lon":5.38174,"is_reserved":false,"is_disabled":false,"rental_uris":{"android":"levelo://app?vid=213937f4-0cd9-48b8-9d64-0b73c37bc721","ios":"levelo://app?vid=213937f4-0cd9-48b8-9d64-0b73c37bc721"},"vehicle_type_id":"4","last_reported":1758716463,"current_range_meters":3600,"station_id":"","pricing_plan_id":"cebpf4jnsgd1na2vs0mg"},{"bike_id":"d25fe0ce-95ac-44cd-adb6-9b477cfcb65f","system_id":"levelo_inurba_marseille","lat":43.225364,"lon":5.348375,"is_reserved":false,"is_disabled":false,"rental_uris":{"android":"levelo://app?vid=d25fe0ce-95ac-44cd-adb6-9b477cfcb65f","ios":"levelo://app?vid=d25fe0ce-95ac-44cd-adb6-9b477cfcb65f"},"vehicle_type_id":"4","last_reported":1758716463,"current_range_meters":3600,"station_id":"","pricing_plan_id":"cebpf4jnsgd1na2vs0mg"},{"bike_id":"c3ccbf09-5bbf-4439-ab62-cd1f4f69efb3","system_id":"levelo_inurba_marseille","lat":43.33602,"lon":5.41022,"is_reserved":false,"is_disabled":false,"rental_uris":{"android":"levelo://app?vid=c3ccbf09-5bbf-4439-ab62-cd1f4f69efb3","ios":"levelo://app?vid=c3ccbf09-5bbf-4439-ab62-cd1f4f69efb3"},"vehicle_type_id":"4","last_reported":1758716463,"current_range_meters":3600,"station_id":"ce4bhqh2rcd13ifvqhmg","pricing_plan_id":"cebpf4jnsgd1na2vs0mg"},{"bike_id":"bafa6adf-4a36-46a3-aff7-0dbcb9a1a4d3","system_id":"levelo_inurba_marseille","lat":43.27564,"lon":5.38436,"is_reserved":false,"is_disabled":false,"rental_uris":{"android":"levelo://app?vid=bafa6adf-4a36-46a3-aff7-0dbcb9a1a4d3","ios":"levelo://app?vid=bafa6adf-4a36-46a3-aff7-0dbcb9a1a4d3"},"vehicle_type_id":"4","last_reported":1758716463,"current_range_meters":3600,"station_id":"ce4bhh92rcd13ifvqfi0","pricing_plan_id":"cebpf4jnsgd1na2vs0mg"},{"bike_id":"3025065c-0c17-464e-a846-e8824732cf21","system_id":"levelo_inurba_marseille","lat":43.28438,"lon":5.39199,"is_reserved":false,"is_disabled":false,"rental_uris":{"android":"levelo://app?vid=3025065c-0c17-464e-a846-e8824732cf21","ios":"levelo://app?vid=3025065c-0c17-464e-a846-e8824732cf21"},"vehicle_type_id":"4","last_reported":1758716463,"current_range_meters":4000,"station_id":"ce4bhoh2rcd13ifvqh5g","pricing_plan_id":"cebpf4jnsgd1na2vs0mg"},{"bike_id":"0a1ab1a5-b85e-4ac3-936e-fe171b7ebe82","system_id":"levelo_inurba_marseille","lat":43.296295,"lon":5.381289,"is_reserved":false,"is_disabled":false,"rental_uris":{"android":"levelo://app?vid=0a1ab1a5-b85e-4ac3-936e-fe171b7ebe82","ios":"levelo://app?vid=0a1ab1a5-b85e-4ac3-936e-fe171b7ebe82"},"vehicle_type_id":"4","last_reported":1758716463,"current_range_meters":4000,"station_id":"","pricing_plan_id":"cebpf4jnsgd1na2vs0mg"},{"bike_id":"a1f22ed6-2177-4325-b857-0fcc22cb32d5","system_id":"levelo_inurba_marseille","lat":43.31115,"lon":5.37785,"is_reserved":false,"is_disabled":false,"rental_uris":{"android":"levelo://app?vid=a1f22ed6-2177-4325-b857-0fcc22cb32d5","ios":"levelo://app?vid=a1f22ed6-2177-4325-b857-0fcc22cb32d5"},"vehicle_type_id":"4","last_reported":1758716463,"current_range_meters":4000,"station_id":"ce4bgt92rcd13ifvqcg0","pricing_plan_id":"cebpf4jnsgd1na2vs0mg"},{"bike_id":"8cf107b7-2ac4-4c7f-83cb-634d5aff4893","system_id":"levelo_inurba_marseille","lat":43.30533,"lon":5.36542,"is_reserved":false,"is_disabled":false,"rental_uris":{"android":"levelo://app?vid=8cf107b7-2ac4-4c7f-83cb-634d5aff4893","ios":"levelo://app?vid=8cf107b7-2ac4-4c7f-83cb-634d5aff4893"},"vehicle_type_id":"4","last_reported":1758716463,"current_range_meters":4000,"station_id":"ce4bgs12rcd13ifvqcag","pricing_plan_id":"cebpf4jnsgd1na2vs0mg"},{"bike_id":"27deb97d-6f48-4a76-865e-7aa05c7d29f9","system_id":"levelo_inurba_marseille","lat":43.30234,"lon":5.39436,"is_reserved":false,"is_disabled":false,"rental_uris":{"android":"levelo://app?vid=27deb97d-6f48-4a76-865e-7aa05c7d29f9","ios":"levelo://app?vid=27deb97d-6f48-4a76-865e-7aa05c7d29f9"},"vehicle_type_id":"4","last_reported":1758716463,"current_range_meters":4000,"station_id":"ce4bh0p2rcd13ifvqd70","pricing_plan_id":"cebpf4jnsgd1na2vs0mg"},{"bike_id":"55e99175-9ac2-4b1d-bfc1-d397957375d0","system_id":"levelo_inurba_marseille","lat":43.33606,"lon":5.41018,"is_reserved":false,"is_disabled":false,"rental_uris":{"android":"levelo://app?vid=55e99175-9ac2-4b1d-bfc1-d397957375d0","ios":"levelo://app?vid=55e99175-9ac2-4b1d-bfc1-d397957375d0"},"vehicle_type_id":"4","last_reported":1758716463,"current_range_meters":4000,"station_id":"ce4bhqh2rcd13ifvqhmg","pricing_plan_id":"cebpf4jnsgd1na2vs0mg"},{"bike_id":"1efddf8d-578f-4e4c-8c3f-e3a8bd592ba4","system_id":"levelo_inurba_marseille","lat":43.299611,"lon":5.373902,"is_reserved":false,"is_disabled":false,"rental_uris":{"android":"levelo://app?vid=1efddf8d-578f-4e4c-8c3f-e3a8bd592ba4","ios":"levelo://app?vid=1efddf8d-578f-4e4c-8c3f-e3a8bd592ba4"},"vehicle_type_id":"4","last_reported":1758716463,"current_range_meters":4400,"station_id":"","pricing_plan_id":"cebpf4jnsgd1na2vs0mg"},{"bike_id":"6f340c1b-ef55-49a7-be3d-93df20afb31d","system_id":"levelo_inurba_marseille","lat":43.3029,"lon":5.36909,"is_reserved":false,"is_disabled":false,"rental_uris":{"android":"levelo://app?vid=6f340c1b-ef55-49a7-be3d-93df20afb31d","ios":"levelo://app?vid=6f340c1b-ef55-49a7-be3d-93df20afb31d"},"vehicle_type_id":"4","last_reported":1758716463,"current_range_meters":4400,"station_id":"ce4bgqh2rcd13ifvqc5g","pricing_plan_id":"cebpf4jnsgd1na2vs0mg"},{"bike_id":"89587538-6df9-4ba6-901c-2c86bc7bbdd1","system_id":"levelo_inurba_marseille","lat":43.30872,"lon":5.37208,"is_reserved":false,"is_disabled":false,"rental_uris":{"android":"levelo://app?vid=89587538-6df9-4ba6-901c-2c86bc7bbdd1","ios":"levelo://app?vid=89587538-6df9-4ba6-901c-2c86bc7bbdd1"},"vehicle_type_id":"4","last_reported":1758716463,"current_range_meters":6400,"station_id":"ce4bguh2rcd13ifvqckg","pricing_plan_id":"cebpf4jnsgd1na2vs0mg"},{"bike_id":"46830693-1df8-4f66-b747-68731faf634f","system_id":"levelo_inurba_marseille","lat":43.27216,"lon":5.39166,"is_reserved":false,"is_disabled":false,"rental_uris":{"android":"levelo://app?vid=46830693-1df8-4f66-b747-68731faf634f","ios":"levelo://app?vid=46830693-1df8-4f66-b747-68731faf634f"},"vehicle_type_id":"4","last_reported":1758716463,"current_range_meters":4400,"station_id":"ce4bhhp2rcd13ifvqfm0","pricing_plan_id":"cebpf4jnsgd1na2vs0mg"},{"bike_id":"cdd4eec4-6196-49d2-99a3-6a59dea39af7","system_id":"levelo_inurba_marseille","lat":43.29202,"lon":5.35867,"is_reserved":false,"is_disabled":false,"rental_uris":{"android":"levelo://app?vid=cdd4eec4-6196-49d2-99a3-6a59dea39af7","ios":"levelo://app?vid=cdd4eec4-6196-49d2-99a3-6a59dea39af7"},"vehicle_type_id":"4","last_reported":1758716463,"current_range_meters":4400,"station_id":"ce4bhb12rcd13ifvqel0","pricing_plan_id":"cebpf4jnsgd1na2vs0mg"},{"bike_id":"28fe443f-7a9f-4e7a-b1e2-1fdc28d5f5f3","system_id":"levelo_inurba_marseille","lat":43.23151,"lon":5.43724,"is_reserved":false,"is_disabled":false,"rental_uris":{"android":"levelo://app?vid=28fe443f-7a9f-4e7a-b1e2-1fdc28d5f5f3","ios":"levelo://app?vid=28fe443f-7a9f-4e7a-b1e2-1fdc28d5f5f3"},"vehicle_type_id":"4","last_reported":1758716463,"current_range_meters":4800,"station_id":"ce4bhmp2rcd13ifvqgog","pricing_plan_id":"cebpf4jnsgd1na2vs0mg"},{"bike_id":"82304ba4-71d4-444b-a52b-5e234edb762c","system_id":"levelo_inurba_marseille","lat":43.22945,"lon":5.35374,"is_reserved":false,"is_disabled":false,"rental_uris":{"android":"levelo://app?vid=82304ba4-71d4-444b-a52b-5e234edb762c","ios":"levelo://app?vid=82304ba4-71d4-444b-a52b-5e234edb762c"},"vehicle_type_id":"4","last_reported":1758716463,"current_range_meters":4800,"station_id":"","pricing_plan_id":"cebpf4jnsgd1na2vs0mg"},{"bike_id":"cb6bf7d2-2ed1-47c4-b0a7-9c935f0ebf1a","system_id":"levelo_inurba_marseille","lat":43.26855,"lon":5.40671,"is_reserved":false,"is_disabled":false,"rental_uris":{"android":"levelo://app?vid=cb6bf7d2-2ed1-47c4-b0a7-9c935f0ebf1a","ios":"levelo://app?vid=cb6bf7d2-2ed1-47c4-b0a7-9c935f0ebf1a"},"vehicle_type_id":"4","last_reported":1758716463,"current_range_meters":5600,"station_id":"","pricing_plan_id":"cebpf4jnsgd1na2vs0mg"},{"bike_id":"2dc690c0-d537-4ea2-95dc-f2470e271547","system_id":"levelo_inurba_marseille","lat":43.23161,"lon":5.43713,"is_reserved":false,"is_disabled":false,"rental_uris":{"android":"levelo://app?vid=2dc690c0-d537-4ea2-95dc-f2470e271547","ios":"levelo://app?vid=2dc690c0-d537-4ea2-95dc-f2470e271547"},"vehicle_type_id":"4","last_reported":1758716463,"current_range_meters":5600,"station_id":"ce4bhmp2rcd13ifvqgog","pricing_plan_id":"cebpf4jnsgd1na2vs0mg"},{"bike_id":"620a0e03-374d-40e0-929f-7a8e59fdf6fa","system_id":"levelo_inurba_marseille","lat":43.298,"lon":5.38101,"is_reserved":false,"is_disabled":false,"rental_uris":{"android":"levelo://app?vid=620a0e03-374d-40e0-929f-7a8e59fdf6fa","ios":"levelo://app?vid=620a0e03-374d-40e0-929f-7a8e59fdf6fa"},"vehicle_type_id":"4","last_reported":1758716463,"current_range_meters":5600,"station_id":"ce4bgip2rcd13ifvqbb0","pricing_plan_id":"cebpf4jnsgd1na2vs0mg"},{"bike_id":"642c0d83-6a95-4f87-86b9-a4d2853229d9","system_id":"levelo_inurba_marseille","lat":43.29345,"lon":5.40626,"is_reserved":false,"is_disabled":false,"rental_uris":{"android":"levelo://app?vid=642c0d83-6a95-4f87-86b9-a4d2853229d9","ios":"levelo://app?vid=642c0d83-6a95-4f87-86b9-a4d2853229d9"},"vehicle_type_id":"4","last_reported":1758716463,"current_range_meters":5600,"station_id":"","pricing_plan_id":"cebpf4jnsgd1na2vs0mg"},{"bike_id":"962b15bf-a341-4469-9450-c0428eb337e2","system_id":"levelo_inurba_marseille","lat":43.23166,"lon":5.43699,"is_reserved":false,"is_disabled":true,"rental_uris":{"android":"levelo://app?vid=962b15bf-a341-4469-9450-c0428eb337e2","ios":"levelo://app?vid=962b15bf-a341-4469-9450-c0428eb337e2"},"vehicle_type_id":"4","last_reported":1758716463,"current_range_meters":6000,"station_id":"ce4bhmp2rcd13ifvqgog","pricing_plan_id":"cebpf4jnsgd1na2vs0mg"},{"bike_id":"d368ecbf-26cc-492c-a771-84a3df711f36","system_id":"levelo_inurba_marseille","lat":43.273794,"lon":5.362619,"is_reserved":false,"is_disabled":false,"rental_uris":{"android":"levelo://app?vid=d368ecbf-26cc-492c-a771-84a3df711f36","ios":"levelo://app?vid=d368ecbf-26cc-492c-a771-84a3df711f36"},"vehicle_type_id":"4","last_reported":1758716463,"current_range_meters":6000,"station_id":"ce4bhbh2rcd13ifvqeo0","pricing_plan_id":"cebpf4jnsgd1na2vs0mg"},{"bike_id":"1c640a90-0d8d-4b13-a60e-0501de6a7c32","system_id":"levelo_inurba_marseille","lat":43.29629,"lon":5.37147,"is_reserved":false,"is_disabled":false,"rental_uris":{"android":"levelo://app?vid=1c640a90-0d8d-4b13-a60e-0501de6a7c32","ios":"levelo://app?vid=1c640a90-0d8d-4b13-a60e-0501de6a7c32"},"vehicle_type_id":"4","last_reported":1758716463,"current_range_meters":6000,"station_id":"ce4bgnh2rcd13ifvqc0g","pricing_plan_id":"cebpf4jnsgd1na2vs0mg"},{"bike_id":"61418c48-e3a3-4dc5-a404-4c63e11a200c","system_id":"levelo_inurba_marseille","lat":43.30135,"lon":5.38777,"is_reserved":false,"is_disabled":false,"rental_uris":{"android":"levelo://app?vid=61418c48-e3a3-4dc5-a404-4c63e11a200c","ios":"levelo://app?vid=61418c48-e3a3-4dc5-a404-4c63e11a200c"},"vehicle_type_id":"4","last_reported":1758716463,"current_range_meters":6400,"station_id":"ce4bghh2rcd13ifvqb60","pricing_plan_id":"cebpf4jnsgd1na2vs0mg"},{"bike_id":"8ece7954-0c5a-405b-93f8-7f4154183b5a","system_id":"levelo_inurba_marseille","lat":43.26551,"lon":5.37287,"is_reserved":false,"is_disabled":false,"rental_uris":{"android":"levelo://app?vid=8ece7954-0c5a-405b-93f8-7f4154183b5a","ios":"levelo://app?vid=8ece7954-0c5a-405b-93f8-7f4154183b5a"},"vehicle_type_id":"4","last_reported":1758716463,"current_range_meters":6400,"station_id":"ce4bhg12rcd13ifvqf70","pricing_plan_id":"cebpf4jnsgd1na2vs0mg"},{"bike_id":"e4ecdab1-0787-46f8-8064-6832e304dba7","system_id":"levelo_inurba_marseille","lat":43.33611,"lon":5.41027,"is_reserved":false,"is_disabled":false,"rental_uris":{"android":"levelo://app?vid=e4ecdab1-0787-46f8-8064-6832e304dba7","ios":"levelo://app?vid=e4ecdab1-0787-46f8-8064-6832e304dba7"},"vehicle_type_id":"4","last_reported":1758716463,"current_range_meters":6400,"station_id":"ce4bhqh2rcd13ifvqhmg","pricing_plan_id":"cebpf4jnsgd1na2vs0mg"},{"bike_id":"40ff4f86-6d9d-4f4c-948b-90961616c300","system_id":"levelo_inurba_marseille","lat":43.30467,"lon":5.37901,"is_reserved":false,"is_disabled":false,"rental_uris":{"android":"levelo://app?vid=40ff4f86-6d9d-4f4c-948b-90961616c300","ios":"levelo://app?vid=40ff4f86-6d9d-4f4c-948b-90961616c300"},"vehicle_type_id":"4","last_reported":1758716463,"current_range_meters":6400,"station_id":"ce4bgup2rcd13ifvqcn0","pricing_plan_id":"cebpf4jnsgd1na2vs0mg"},{"bike_id":"d24426fc-1850-43c7-96d0-bd3334ac6d5d","system_id":"levelo_inurba_marseille","lat":43.290076,"lon":5.356013,"is_reserved":false,"is_disabled":false,"rental_uris":{"android":"levelo://app?vid=d24426fc-1850-43c7-96d0-bd3334ac6d5d","ios":"levelo://app?vid=d24426fc-1850-43c7-96d0-bd3334ac6d5d"},"vehicle_type_id":"4","last_reported":1758716463,"current_range_meters":6400,"station_id":"ce4bhb92rcd13ifvqen0","pricing_plan_id":"cebpf4jnsgd1na2vs0mg"},{"bike_id":"c7f9107e-c1fa-4250-a038-85929f5bfb38","system_id":"levelo_inurba_marseille","lat":43.24072,"lon":5.37769,"is_reserved":false,"is_disabled":false,"rental_uris":{"android":"levelo://app?vid=c7f9107e-c1fa-4250-a038-85929f5bfb38","ios":"levelo://app?vid=c7f9107e-c1fa-4250-a038-85929f5bfb38"},"vehicle_type_id":"4","last_reported":1758716463,"current_range_meters":6400,"station_id":"ce4bhnp2rcd13ifvqgvg","pricing_plan_id":"cebpf4jnsgd1na2vs0mg"},{"bike_id":"9c12f999-3f0a-4b06-99a7-b1ca28255a8f","system_id":"levelo_inurba_marseille","lat":43.34143,"lon":5.40902,"is_reserved":false,"is_disabled":false,"rental_uris":{"android":"levelo://app?vid=9c12f999-3f0a-4b06-99a7-b1ca28255a8f","ios":"levelo://app?vid=9c12f999-3f0a-4b06-99a7-b1ca28255a8f"},"vehicle_type_id":"4","last_reported":1758716463,"current_range_meters":6000,"station_id":"ce4bhqh2rcd13ifvqhlg","pricing_plan_id":"cebpf4jnsgd1na2vs0mg"},{"bike_id":"c95e0c05-dd94-491f-8092-9c7978400114","system_id":"levelo_inurba_marseille","lat":43.33484,"lon":5.36254,"is_reserved":false,"is_disabled":false,"rental_uris":{"android":"levelo://app?vid=c95e0c05-dd94-491f-8092-9c7978400114","ios":"levelo://app?vid=c95e0c05-dd94-491f-8092-9c7978400114"},"vehicle_type_id":"4","last_reported":1758716463,"current_range_meters":6800,"station_id":"ce4bhs12rcd13ifvqhvg","pricing_plan_id":"cebpf4jnsgd1na2vs0mg"},{"bike_id":"3a84f290-f714-4db1-a3a1-9d35162ff122","system_id":"levelo_inurba_marseille","lat":43.29314,"lon":5.37185,"is_reserved":false,"is_disabled":false,"rental_uris":{"android":"levelo://app?vid=3a84f290-f714-4db1-a3a1-9d35162ff122","ios":"levelo://app?vid=3a84f290-f714-4db1-a3a1-9d35162ff122"},"vehicle_type_id":"4","last_reported":1758716463,"current_range_meters":6800,"station_id":"ce4bgh92rcd13ifvqb40","pricing_plan_id":"cebpf4jnsgd1na2vs0mg"},{"bike_id":"e967e24f-be94-461e-b2f1-6bd4b9d34ba4","system_id":"levelo_inurba_marseille","lat":43.2857,"lon":5.39495,"is_reserved":false,"is_disabled":false,"rental_uris":{"android":"levelo://app?vid=e967e24f-be94-461e-b2f1-6bd4b9d34ba4","ios":"levelo://app?vid=e967e24f-be94-461e-b2f1-6bd4b9d34ba4"},"vehicle_type_id":"4","last_reported":1758716463,"current_range_meters":6400,"station_id":"ce4bh292rcd13ifvqdg0","pricing_plan_id":"cebpf4jnsgd1na2vs0mg"},{"bike_id":"5cbbdb89-56ec-4c1b-9220-3944bc551cba","system_id":"levelo_inurba_marseille","lat":43.30197,"lon":5.36615,"is_reserved":false,"is_disabled":false,"rental_uris":{"android":"levelo://app?vid=5cbbdb89-56ec-4c1b-9220-3944bc551cba","ios":"levelo://app?vid=5cbbdb89-56ec-4c1b-9220-3944bc551cba"},"vehicle_type_id":"4","last_reported":1758716463,"current_range_meters":7200,"station_id":"ce4bgrh2rcd13ifvqc8g","pricing_plan_id":"cebpf4jnsgd1na2vs0mg"},{"bike_id":"a18d2bbb-0bf3-46bc-bec9-7eece5d1cc0b","system_id":"levelo_inurba_marseille","lat":43.2558,"lon":5.38235,"is_reserved":false,"is_disabled":false,"rental_uris":{"android":"levelo://app?vid=a18d2bbb-0bf3-46bc-bec9-7eece5d1cc0b","ios":"levelo://app?vid=a18d2bbb-0bf3-46bc-bec9-7eece5d1cc0b"},"vehicle_type_id":"4","last_reported":1758716463,"current_range_meters":6800,"station_id":"ce4bhih2rcd13ifvqfs0","pricing_plan_id":"cebpf4jnsgd1na2vs0mg"},{"bike_id":"2a833e40-1822-47f2-81d2-f4f3fc6094d4","system_id":"levelo_inurba_marseille","lat":43.22568,"lon":5.41629,"is_reserved":false,"is_disabled":false,"rental_uris":{"android":"levelo://app?vid=2a833e40-1822-47f2-81d2-f4f3fc6094d4","ios":"levelo://app?vid=2a833e40-1822-47f2-81d2-f4f3fc6094d4"},"vehicle_type_id":"4","last_reported":1758716463,"current_range_meters":7200,"station_id":"st_d2o4gvlbi1j2169b742g","pricing_plan_id":"cebpf4jnsgd1na2vs0mg"},{"bike_id":"d5748f11-c747-445a-ba16-03e2bc50ef5f","system_id":"levelo_inurba_marseille","lat":43.23178,"lon":5.39998,"is_reserved":false,"is_disabled":false,"rental_uris":{"android":"levelo://app?vid=d5748f11-c747-445a-ba16-03e2bc50ef5f","ios":"levelo://app?vid=d5748f11-c747-445a-ba16-03e2bc50ef5f"},"vehicle_type_id":"4","last_reported":1758716463,"current_range_meters":8000,"station_id":"ce4bhn12rcd13ifvqgqg","pricing_plan_id":"cebpf4jnsgd1na2vs0mg"},{"bike_id":"147cb10d-de7e-4c23-8c61-60e3d194d777","system_id":"levelo_inurba_marseille","lat":43.28262,"lon":5.35068,"is_reserved":false,"is_disabled":false,"rental_uris":{"android":"levelo://app?vid=147cb10d-de7e-4c23-8c61-60e3d194d777","ios":"levelo://app?vid=147cb10d-de7e-4c23-8c61-60e3d194d777"},"vehicle_type_id":"4","last_reported":1758716463,"current_range_meters":8000,"station_id":"ce4bhbp2rcd13ifvqerg","pricing_plan_id":"cebpf4jnsgd1na2vs0mg"},{"bike_id":"76aa3566-e331-4cbe-a48e-3dd212987155","system_id":"levelo_inurba_marseille","lat":43.31337,"lon":5.36731,"is_reserved":false,"is_disabled":false,"rental_uris":{"android":"levelo://app?vid=76aa3566-e331-4cbe-a48e-3dd212987155","ios":"levelo://app?vid=76aa3566-e331-4cbe-a48e-3dd212987155"},"vehicle_type_id":"4","last_reported":1758716463,"current_range_meters":7200,"station_id":"ce4bgr92rcd13ifvqc6g","pricing_plan_id":"cebpf4jnsgd1na2vs0mg"},{"bike_id":"7a1b6221-238e-46ff-9ed8-7c045fc26d76","system_id":"levelo_inurba_marseille","lat":43.30964,"lon":5.39048,"is_reserved":false,"is_disabled":false,"rental_uris":{"android":"levelo://app?vid=7a1b6221-238e-46ff-9ed8-7c045fc26d76","ios":"levelo://app?vid=7a1b6221-238e-46ff-9ed8-7c045fc26d76"},"vehicle_type_id":"4","last_reported":1758716463,"current_range_meters":8000,"station_id":"ce4bgup2rcd13ifvqco0","pricing_plan_id":"cebpf4jnsgd1na2vs0mg"},{"bike_id":"530aa403-a020-4abc-afe7-94700d37798c","system_id":"levelo_inurba_marseille","lat":43.23963,"lon":5.36637,"is_reserved":false,"is_disabled":false,"rental_uris":{"android":"levelo://app?vid=530aa403-a020-4abc-afe7-94700d37798c","ios":"levelo://app?vid=530aa403-a020-4abc-afe7-94700d37798c"},"vehicle_type_id":"4","last_reported":1758716463,"current_range_meters":8000,"station_id":"ce4bhi12rcd13ifvqfp0","pricing_plan_id":"cebpf4jnsgd1na2vs0mg"},{"bike_id":"314600e1-8c06-48d8-93b2-0e07b118a015","system_id":"levelo_inurba_marseille","lat":43.21206,"lon":5.35068,"is_reserved":false,"is_disabled":false,"rental_uris":{"android":"levelo://app?vid=314600e1-8c06-48d8-93b2-0e07b118a015","ios":"levelo://app?vid=314600e1-8c06-48d8-93b2-0e07b118a015"},"vehicle_type_id":"4","last_reported":1758716463,"current_range_meters":8000,"station_id":"st_cvj6sg6p6f1abm77japg","pricing_plan_id":"cebpf4jnsgd1na2vs0mg"},{"bike_id":"5b2fec9d-3c73-4089-9434-8c3d58d85716","system_id":"levelo_inurba_marseille","lat":43.23057,"lon":5.35497,"is_reserved":false,"is_disabled":false,"rental_uris":{"android":"levelo://app?vid=5b2fec9d-3c73-4089-9434-8c3d58d85716","ios":"levelo://app?vid=5b2fec9d-3c73-4089-9434-8c3d58d85716"},"vehicle_type_id":"4","last_reported":1758716463,"current_range_meters":8000,"station_id":"cpo3342slgdg3j2ifvpg","pricing_plan_id":"cebpf4jnsgd1na2vs0mg"},{"bike_id":"59332951-160a-4458-8b5a-46d3821ad3d6","system_id":"levelo_inurba_marseille","lat":43.298703,"lon":5.362312,"is_reserved":false,"is_disabled":false,"rental_uris":{"android":"levelo://app?vid=59332951-160a-4458-8b5a-46d3821ad3d6","ios":"levelo://app?vid=59332951-160a-4458-8b5a-46d3821ad3d6"},"vehicle_type_id":"4","last_reported":1758716463,"current_range_meters":8400,"station_id":"ce4bgpp2rcd13ifvqc3g","pricing_plan_id":"cebpf4jnsgd1na2vs0mg"},{"bike_id":"88b93e6c-b677-419a-9e5c-f9bd897477a6","system_id":"levelo_inurba_marseille","lat":43.28264,"lon":5.35071,"is_reserved":false,"is_disabled":false,"rental_uris":{"android":"levelo://app?vid=88b93e6c-b677-419a-9e5c-f9bd897477a6","ios":"levelo://app?vid=88b93e6c-b677-419a-9e5c-f9bd897477a6"},"vehicle_type_id":"4","last_reported":1758716463,"current_range_meters":8400,"station_id":"ce4bhbp2rcd13ifvqerg","pricing_plan_id":"cebpf4jnsgd1na2vs0mg"},{"bike_id":"b30d3b9c-c719-433a-9884-60844a3126ad","system_id":"levelo_inurba_marseille","lat":43.231537,"lon":5.437027,"is_reserved":false,"is_disabled":false,"rental_uris":{"android":"levelo://app?vid=b30d3b9c-c719-433a-9884-60844a3126ad","ios":"levelo://app?vid=b30d3b9c-c719-433a-9884-60844a3126ad"},"vehicle_type_id":"4","last_reported":1758716463,"current_range_meters":8000,"station_id":"ce4bhmp2rcd13ifvqgog","pricing_plan_id":"cebpf4jnsgd1na2vs0mg"},{"bike_id":"e8e953ff-cf06-48c0-9eb6-692317dadc43","system_id":"levelo_inurba_marseille","lat":43.23972,"lon":5.36625,"is_reserved":false,"is_disabled":false,"rental_uris":{"android":"levelo://app?vid=e8e953ff-cf06-48c0-9eb6-692317dadc43","ios":"levelo://app?vid=e8e953ff-cf06-48c0-9eb6-692317dadc43"},"vehicle_type_id":"4","last_reported":1758716463,"current_range_meters":8800,"station_id":"ce4bhi12rcd13ifvqfp0","pricing_plan_id":"cebpf4jnsgd1na2vs0mg"},{"bike_id":"c7cbf2ab-3acb-4199-8447-a862293afa1c","system_id":"levelo_inurba_marseille","lat":43.23204,"lon":5.35556,"is_reserved":false,"is_disabled":false,"rental_uris":{"android":"levelo://app?vid=c7cbf2ab-3acb-4199-8447-a862293afa1c","ios":"levelo://app?vid=c7cbf2ab-3acb-4199-8447-a862293afa1c"},"vehicle_type_id":"4","last_reported":1758716463,"current_range_meters":8800,"station_id":"ce4bhu92rcd13ifvqi70","pricing_plan_id":"cebpf4jnsgd1na2vs0mg"},{"bike_id":"6111b3b5-a63e-41f2-9b7e-8e325e8d3d54","system_id":"levelo_inurba_marseille","lat":43.33604,"lon":5.41033,"is_reserved":false,"is_disabled":false,"rental_uris":{"android":"levelo://app?vid=6111b3b5-a63e-41f2-9b7e-8e325e8d3d54","ios":"levelo://app?vid=6111b3b5-a63e-41f2-9b7e-8e325e8d3d54"},"vehicle_type_id":"4","last_reported":1758716463,"current_range_meters":8800,"station_id":"ce4bhqh2rcd13ifvqhmg","pricing_plan_id":"cebpf4jnsgd1na2vs0mg"},{"bike_id":"2a6dad2b-1950-449d-bc70-ed6930623e94","system_id":"levelo_inurba_marseille","lat":43.28849,"lon":5.39304,"is_reserved":false,"is_disabled":false,"rental_uris":{"android":"levelo://app?vid=2a6dad2b-1950-449d-bc70-ed6930623e94","ios":"levelo://app?vid=2a6dad2b-1950-449d-bc70-ed6930623e94"},"vehicle_type_id":"4","last_reported":1758716463,"current_range_meters":8800,"station_id":"ce4bh2p2rcd13ifvqdi0","pricing_plan_id":"cebpf4jnsgd1na2vs0mg"},{"bike_id":"a050a8bf-5274-4b2e-adb5-e80609d7030b","system_id":"levelo_inurba_marseille","lat":43.27993,"lon":5.40022,"is_reserved":false,"is_disabled":false,"rental_uris":{"android":"levelo://app?vid=a050a8bf-5274-4b2e-adb5-e80609d7030b","ios":"levelo://app?vid=a050a8bf-5274-4b2e-adb5-e80609d7030b"},"vehicle_type_id":"4","last_reported":1758716463,"current_range_meters":8800,"station_id":"ce4bho92rcd13ifvqh4g","pricing_plan_id":"cebpf4jnsgd1na2vs0mg"},{"bike_id":"5c73625a-e6ad-4666-a4cc-4d8d69b11c00","system_id":"levelo_inurba_marseille","lat":43.299104,"lon":5.385358,"is_reserved":false,"is_disabled":false,"rental_uris":{"android":"levelo://app?vid=5c73625a-e6ad-4666-a4cc-4d8d69b11c00","ios":"levelo://app?vid=5c73625a-e6ad-4666-a4cc-4d8d69b11c00"},"vehicle_type_id":"4","last_reported":1758716463,"current_range_meters":8800,"station_id":"ce4bgj92rcd13ifvqbd0","pricing_plan_id":"cebpf4jnsgd1na2vs0mg"},{"bike_id":"5f821429-4de9-49c5-ab78-f1530bd5056e","system_id":"levelo_inurba_marseille","lat":43.29562,"lon":5.3752,"is_reserved":false,"is_disabled":false,"rental_uris":{"android":"levelo://app?vid=5f821429-4de9-49c5-ab78-f1530bd5056e","ios":"levelo://app?vid=5f821429-4de9-49c5-ab78-f1530bd5056e"},"vehicle_type_id":"4","last_reported":1758716463,"current_range_meters":8800,"station_id":"ce4bgh92rcd13ifvqb50","pricing_plan_id":"cebpf4jnsgd1na2vs0mg"},{"bike_id":"38700831-23d8-4235-a846-295ef3fb5d0b","system_id":"levelo_inurba_marseille","lat":43.2418,"lon":5.39731,"is_reserved":false,"is_disabled":false,"rental_uris":{"android":"levelo://app?vid=38700831-23d8-4235-a846-295ef3fb5d0b","ios":"levelo://app?vid=38700831-23d8-4235-a846-295ef3fb5d0b"},"vehicle_type_id":"4","last_reported":1758716463,"current_range_meters":8800,"station_id":"ce4bhn12rcd13ifvqgpg","pricing_plan_id":"cebpf4jnsgd1na2vs0mg"},{"bike_id":"9cc9ff01-c33f-4fd4-814c-db7e4adbbcc0","system_id":"levelo_inurba_marseille","lat":43.259372,"lon":5.40913,"is_reserved":false,"is_disabled":false,"rental_uris":{"android":"levelo://app?vid=9cc9ff01-c33f-4fd4-814c-db7e4adbbcc0","ios":"levelo://app?vid=9cc9ff01-c33f-4fd4-814c-db7e4adbbcc0"},"vehicle_type_id":"4","last_reported":1758716463,"current_range_meters":9200,"station_id":"ce4bhm92rcd13ifvqglg","pricing_plan_id":"cebpf4jnsgd1na2vs0mg"},{"bike_id":"ffc2dfaf-3813-4800-83d0-eccca5fd5c8a","system_id":"levelo_inurba_marseille","lat":43.30907,"lon":5.36843,"is_reserved":false,"is_disabled":false,"rental_uris":{"android":"levelo://app?vid=ffc2dfaf-3813-4800-83d0-eccca5fd5c8a","ios":"levelo://app?vid=ffc2dfaf-3813-4800-83d0-eccca5fd5c8a"},"vehicle_type_id":"4","last_reported":1758716463,"current_range_meters":9200,"station_id":"ce4bgn92rcd13ifvqbvg","pricing_plan_id":"cebpf4jnsgd1na2vs0mg"},{"bike_id":"9c4a7bdb-c552-4dfd-8efb-40b9e0b0b147","system_id":"levelo_inurba_marseille","lat":43.30936,"lon":5.36703,"is_reserved":false,"is_disabled":false,"rental_uris":{"android":"levelo://app?vid=9c4a7bdb-c552-4dfd-8efb-40b9e0b0b147","ios":"levelo://app?vid=9c4a7bdb-c552-4dfd-8efb-40b9e0b0b147"},"vehicle_type_id":"4","last_reported":1758716463,"current_range_meters":9200,"station_id":"","pricing_plan_id":"cebpf4jnsgd1na2vs0mg"},{"bike_id":"28e4f8b7-d3df-4f94-832c-eb28378d3d42","system_id":"levelo_inurba_marseille","lat":43.3188,"lon":5.40739,"is_reserved":false,"is_disabled":false,"rental_uris":{"android":"levelo://app?vid=28e4f8b7-d3df-4f94-832c-eb28378d3d42","ios":"levelo://app?vid=28e4f8b7-d3df-4f94-832c-eb28378d3d42"},"vehicle_type_id":"4","last_reported":1758716463,"current_range_meters":8800,"station_id":"ce4bhq12rcd13ifvqhig","pricing_plan_id":"cebpf4jnsgd1na2vs0mg"},{"bike_id":"025c2ffb-be99-435a-bf72-9402d44d9cf9","system_id":"levelo_inurba_marseille","lat":43.290018,"lon":5.356121,"is_reserved":false,"is_disabled":false,"rental_uris":{"android":"levelo://app?vid=025c2ffb-be99-435a-bf72-9402d44d9cf9","ios":"levelo://app?vid=025c2ffb-be99-435a-bf72-9402d44d9cf9"},"vehicle_type_id":"4","last_reported":1758716463,"current_range_meters":9200,"station_id":"ce4bhb92rcd13ifvqen0","pricing_plan_id":"cebpf4jnsgd1na2vs0mg"},{"bike_id":"11fc6479-00ff-4e75-9b4b-14418287f5d9","system_id":"levelo_inurba_marseille","lat":43.30555,"lon":5.38416,"is_reserved":false,"is_disabled":false,"rental_uris":{"android":"levelo://app?vid=11fc6479-00ff-4e75-9b4b-14418287f5d9","ios":"levelo://app?vid=11fc6479-00ff-4e75-9b4b-14418287f5d9"},"vehicle_type_id":"4","last_reported":1758716463,"current_range_meters":8800,"station_id":"ce4bgg92rcd13ifvqb30","pricing_plan_id":"cebpf4jnsgd1na2vs0mg"},{"bike_id":"3bc62f9a-05e8-40ba-9ead-b386bf9c380a","system_id":"levelo_inurba_marseille","lat":43.29168,"lon":5.37146,"is_reserved":false,"is_disabled":false,"rental_uris":{"android":"levelo://app?vid=3bc62f9a-05e8-40ba-9ead-b386bf9c380a","ios":"levelo://app?vid=3bc62f9a-05e8-40ba-9ead-b386bf9c380a"},"vehicle_type_id":"4","last_reported":1758716463,"current_range_meters":9600,"station_id":"ce4bha92rcd13ifvqeh0","pricing_plan_id":"cebpf4jnsgd1na2vs0mg"},{"bike_id":"4ce67155-9f15-4130-9400-f86685d8ecda","system_id":"levelo_inurba_marseille","lat":43.2977,"lon":5.36499,"is_reserved":false,"is_disabled":false,"rental_uris":{"android":"levelo://app?vid=4ce67155-9f15-4130-9400-f86685d8ecda","ios":"levelo://app?vid=4ce67155-9f15-4130-9400-f86685d8ecda"},"vehicle_type_id":"4","last_reported":1758716463,"current_range_meters":9600,"station_id":"","pricing_plan_id":"cebpf4jnsgd1na2vs0mg"},{"bike_id":"b32ce189-8f6c-4d4d-bd61-a890327ed595","system_id":"levelo_inurba_marseille","lat":43.25822,"lon":5.39439,"is_reserved":false,"is_disabled":false,"rental_uris":{"android":"levelo://app?vid=b32ce189-8f6c-4d4d-bd61-a890327ed595","ios":"levelo://app?vid=b32ce189-8f6c-4d4d-bd61-a890327ed595"},"vehicle_type_id":"4","last_reported":1758716463,"current_range_meters":9600,"station_id":"ce4bhip2rcd13ifvqft0","pricing_plan_id":"cebpf4jnsgd1na2vs0mg"},{"bike_id":"ee324131-7f1e-4c44-8cd4-8facf81a76e2","system_id":"levelo_inurba_marseille","lat":43.27991,"lon":5.39997,"is_reserved":false,"is_disabled":false,"rental_uris":{"android":"levelo://app?vid=ee324131-7f1e-4c44-8cd4-8facf81a76e2","ios":"levelo://app?vid=ee324131-7f1e-4c44-8cd4-8facf81a76e2"},"vehicle_type_id":"4","last_reported":1758716463,"current_range_meters":9600,"station_id":"ce4bho92rcd13ifvqh4g","pricing_plan_id":"cebpf4jnsgd1na2vs0mg"},{"bike_id":"619d3ce1-a32d-47c6-852b-01bda671add1","system_id":"levelo_inurba_marseille","lat":43.22567,"lon":5.41634,"is_reserved":false,"is_disabled":false,"rental_uris":{"android":"levelo://app?vid=619d3ce1-a32d-47c6-852b-01bda671add1","ios":"levelo://app?vid=619d3ce1-a32d-47c6-852b-01bda671add1"},"vehicle_type_id":"4","last_reported":1758716463,"current_range_meters":9600,"station_id":"st_d2o4gvlbi1j2169b742g","pricing_plan_id":"cebpf4jnsgd1na2vs0mg"},{"bike_id":"7c0482c3-9253-4d1b-b4f3-be55cdb7721d","system_id":"levelo_inurba_marseille","lat":43.33757,"lon":5.37466,"is_reserved":false,"is_disabled":false,"rental_uris":{"android":"levelo://app?vid=7c0482c3-9253-4d1b-b4f3-be55cdb7721d","ios":"levelo://app?vid=7c0482c3-9253-4d1b-b4f3-be55cdb7721d"},"vehicle_type_id":"4","last_reported":1758716463,"current_range_meters":10000,"station_id":"","pricing_plan_id":"cebpf4jnsgd1na2vs0mg"},{"bike_id":"93587c12-a9b4-4f50-9313-6d0232c123f9","system_id":"levelo_inurba_marseille","lat":43.30603,"lon":5.39357,"is_reserved":false,"is_disabled":false,"rental_uris":{"android":"levelo://app?vid=93587c12-a9b4-4f50-9313-6d0232c123f9","ios":"levelo://app?vid=93587c12-a9b4-4f50-9313-6d0232c123f9"},"vehicle_type_id":"4","last_reported":1758716463,"current_range_meters":10800,"station_id":"ce4bh0p2rcd13ifvqd80","pricing_plan_id":"cebpf4jnsgd1na2vs0mg"},{"bike_id":"4c0b651b-953c-4759-a0f7-0074f59a45eb","system_id":"levelo_inurba_marseille","lat":43.257651,"lon":5.39247,"is_reserved":false,"is_disabled":false,"rental_uris":{"android":"levelo://app?vid=4c0b651b-953c-4759-a0f7-0074f59a45eb","ios":"levelo://app?vid=4c0b651b-953c-4759-a0f7-0074f59a45eb"},"vehicle_type_id":"4","last_reported":1758716463,"current_range_meters":10000,"station_id":"","pricing_plan_id":"cebpf4jnsgd1na2vs0mg"},{"bike_id":"43d57fd4-047e-4ac8-97e5-ec9b96239472","system_id":"levelo_inurba_marseille","lat":43.33231,"lon":5.39821,"is_reserved":false,"is_disabled":false,"rental_uris":{"android":"levelo://app?vid=43d57fd4-047e-4ac8-97e5-ec9b96239472","ios":"levelo://app?vid=43d57fd4-047e-4ac8-97e5-ec9b96239472"},"vehicle_type_id":"4","last_reported":1758716463,"current_range_meters":10000,"station_id":"","pricing_plan_id":"cebpf4jnsgd1na2vs0mg"},{"bike_id":"d96f14f4-2c68-4e87-8540-4a26141adf20","system_id":"levelo_inurba_marseille","lat":43.21193,"lon":5.35073,"is_reserved":false,"is_disabled":false,"rental_uris":{"android":"levelo://app?vid=d96f14f4-2c68-4e87-8540-4a26141adf20","ios":"levelo://app?vid=d96f14f4-2c68-4e87-8540-4a26141adf20"},"vehicle_type_id":"4","last_reported":1758716463,"current_range_meters":10000,"station_id":"st_cvj6sg6p6f1abm77japg","pricing_plan_id":"cebpf4jnsgd1na2vs0mg"},{"bike_id":"e35dc3d8-0dfe-4bd4-87f7-5d3ca8bee4e5","system_id":"levelo_inurba_marseille","lat":43.2508,"lon":5.42603,"is_reserved":false,"is_disabled":false,"rental_uris":{"android":"levelo://app?vid=e35dc3d8-0dfe-4bd4-87f7-5d3ca8bee4e5","ios":"levelo://app?vid=e35dc3d8-0dfe-4bd4-87f7-5d3ca8bee4e5"},"vehicle_type_id":"4","last_reported":1758716463,"current_range_meters":10000,"station_id":"","pricing_plan_id":"cebpf4jnsgd1na2vs0mg"},{"bike_id":"3783c0c7-6897-4f1d-8590-74a056c7eac7","system_id":"levelo_inurba_marseille","lat":43.27899,"lon":5.38002,"is_reserved":false,"is_disabled":false,"rental_uris":{"android":"levelo://app?vid=3783c0c7-6897-4f1d-8590-74a056c7eac7","ios":"levelo://app?vid=3783c0c7-6897-4f1d-8590-74a056c7eac7"},"vehicle_type_id":"4","last_reported":1758716463,"current_range_meters":10000,"station_id":"ce4bhf92rcd13ifvqf50","pricing_plan_id":"cebpf4jnsgd1na2vs0mg"},{"bike_id":"d25ea62f-67e4-45a8-83f3-4e59e22ad782","system_id":"levelo_inurba_marseille","lat":43.29309,"lon":5.37461,"is_reserved":false,"is_disabled":false,"rental_uris":{"android":"levelo://app?vid=d25ea62f-67e4-45a8-83f3-4e59e22ad782","ios":"levelo://app?vid=d25ea62f-67e4-45a8-83f3-4e59e22ad782"},"vehicle_type_id":"4","last_reported":1758716463,"current_range_meters":10800,"station_id":"ce4bgi12rcd13ifvqb70","pricing_plan_id":"cebpf4jnsgd1na2vs0mg"},{"bike_id":"f746730a-01df-4aaf-8b03-2432ec0f5a0e","system_id":"levelo_inurba_marseille","lat":43.27395,"lon":5.36271,"is_reserved":false,"is_disabled":false,"rental_uris":{"android":"levelo://app?vid=f746730a-01df-4aaf-8b03-2432ec0f5a0e","ios":"levelo://app?vid=f746730a-01df-4aaf-8b03-2432ec0f5a0e"},"vehicle_type_id":"4","last_reported":1758716463,"current_range_meters":10800,"station_id":"ce4bhbh2rcd13ifvqeo0","pricing_plan_id":"cebpf4jnsgd1na2vs0mg"},{"bike_id":"b3ec3379-5c3f-4624-9266-6edb4f07b01e","system_id":"levelo_inurba_marseille","lat":43.30309,"lon":5.37727,"is_reserved":false,"is_disabled":false,"rental_uris":{"android":"levelo://app?vid=b3ec3379-5c3f-4624-9266-6edb4f07b01e","ios":"levelo://app?vid=b3ec3379-5c3f-4624-9266-6edb4f07b01e"},"vehicle_type_id":"4","last_reported":1758716463,"current_range_meters":10800,"station_id":"ce4bguh2rcd13ifvqcj0","pricing_plan_id":"cebpf4jnsgd1na2vs0mg"},{"bike_id":"8f2b37bf-a4dd-4c3b-b622-be5a8c022f7b","system_id":"levelo_inurba_marseille","lat":43.2952,"lon":5.39048,"is_reserved":false,"is_disabled":false,"rental_uris":{"android":"levelo://app?vid=8f2b37bf-a4dd-4c3b-b622-be5a8c022f7b","ios":"levelo://app?vid=8f2b37bf-a4dd-4c3b-b622-be5a8c022f7b"},"vehicle_type_id":"4","last_reported":1758716463,"current_range_meters":10800,"station_id":"ce4bh3p2rcd13ifvqdp0","pricing_plan_id":"cebpf4jnsgd1na2vs0mg"},{"bike_id":"05c71d1b-93ca-41b5-9e26-6b92b9d131f5","system_id":"levelo_inurba_marseille","lat":43.305359,"lon":5.365471,"is_reserved":false,"is_disabled":false,"rental_uris":{"android":"levelo://app?vid=05c71d1b-93ca-41b5-9e26-6b92b9d131f5","ios":"levelo://app?vid=05c71d1b-93ca-41b5-9e26-6b92b9d131f5"},"vehicle_type_id":"4","last_reported":1758716463,"current_range_meters":11200,"station_id":"ce4bgs12rcd13ifvqcag","pricing_plan_id":"cebpf4jnsgd1na2vs0mg"},{"bike_id":"2884e01e-e8e5-4f64-839a-a54c238e1ae3","system_id":"levelo_inurba_marseille","lat":43.22537,"lon":5.34824,"is_reserved":false,"is_disabled":false,"rental_uris":{"android":"levelo://app?vid=2884e01e-e8e5-4f64-839a-a54c238e1ae3","ios":"levelo://app?vid=2884e01e-e8e5-4f64-839a-a54c238e1ae3"},"vehicle_type_id":"4","last_reported":1758716463,"current_range_meters":11200,"station_id":"","pricing_plan_id":"cebpf4jnsgd1na2vs0mg"},{"bike_id":"a97c5f3a-89d2-4741-940f-600f22b16835","system_id":"levelo_inurba_marseille","lat":43.24182,"lon":5.39729,"is_reserved":false,"is_disabled":false,"rental_uris":{"android":"levelo://app?vid=a97c5f3a-89d2-4741-940f-600f22b16835","ios":"levelo://app?vid=a97c5f3a-89d2-4741-940f-600f22b16835"},"vehicle_type_id":"4","last_reported":1758716463,"current_range_meters":11200,"station_id":"ce4bhn12rcd13ifvqgpg","pricing_plan_id":"cebpf4jnsgd1na2vs0mg"},{"bike_id":"7981bd57-1a91-436b-8601-50130d20e8be","system_id":"levelo_inurba_marseille","lat":43.21207,"lon":5.35065,"is_reserved":false,"is_disabled":false,"rental_uris":{"android":"levelo://app?vid=7981bd57-1a91-436b-8601-50130d20e8be","ios":"levelo://app?vid=7981bd57-1a91-436b-8601-50130d20e8be"},"vehicle_type_id":"4","last_reported":1758716463,"current_range_meters":11600,"station_id":"st_cvj6sg6p6f1abm77japg","pricing_plan_id":"cebpf4jnsgd1na2vs0mg"},{"bike_id":"5d93178e-9df8-409e-9875-7e68c6516015","system_id":"levelo_inurba_marseille","lat":43.337444,"lon":5.374475,"is_reserved":false,"is_disabled":false,"rental_uris":{"android":"levelo://app?vid=5d93178e-9df8-409e-9875-7e68c6516015","ios":"levelo://app?vid=5d93178e-9df8-409e-9875-7e68c6516015"},"vehicle_type_id":"4","last_reported":1758716463,"current_range_meters":11600,"station_id":"","pricing_plan_id":"cebpf4jnsgd1na2vs0mg"},{"bike_id":"e719e89d-6db9-4003-93ca-2ded7b306099","system_id":"levelo_inurba_marseille","lat":43.29764,"lon":5.37081,"is_reserved":false,"is_disabled":false,"rental_uris":{"android":"levelo://app?vid=e719e89d-6db9-4003-93ca-2ded7b306099","ios":"levelo://app?vid=e719e89d-6db9-4003-93ca-2ded7b306099"},"vehicle_type_id":"4","last_reported":1758716463,"current_range_meters":11200,"station_id":"ce4bgop2rcd13ifvqc1g","pricing_plan_id":"cebpf4jnsgd1na2vs0mg"},{"bike_id":"e92dd605-5039-432d-8739-2562f9154e8c","system_id":"levelo_inurba_marseille","lat":43.31121,"lon":5.37766,"is_reserved":false,"is_disabled":true,"rental_uris":{"android":"levelo://app?vid=e92dd605-5039-432d-8739-2562f9154e8c","ios":"levelo://app?vid=e92dd605-5039-432d-8739-2562f9154e8c"},"vehicle_type_id":"4","last_reported":1758716463,"current_range_meters":11600,"station_id":"ce4bgt92rcd13ifvqcg0","pricing_plan_id":"cebpf4jnsgd1na2vs0mg"},{"bike_id":"61568951-d55d-4a59-b3ea-060a1248783d","system_id":"levelo_inurba_marseille","lat":43.26924,"lon":5.38921,"is_reserved":false,"is_disabled":false,"rental_uris":{"android":"levelo://app?vid=61568951-d55d-4a59-b3ea-060a1248783d","ios":"levelo://app?vid=61568951-d55d-4a59-b3ea-060a1248783d"},"vehicle_type_id":"4","last_reported":1758716463,"current_range_meters":11200,"station_id":"ce4bhhh2rcd13ifvqfl0","pricing_plan_id":"cebpf4jnsgd1na2vs0mg"},{"bike_id":"e04ea157-5d88-4c41-83d2-4a63a78992f9","system_id":"levelo_inurba_marseille","lat":43.30119,"lon":5.37417,"is_reserved":false,"is_disabled":false,"rental_uris":{"android":"levelo://app?vid=e04ea157-5d88-4c41-83d2-4a63a78992f9","ios":"levelo://app?vid=e04ea157-5d88-4c41-83d2-4a63a78992f9"},"vehicle_type_id":"4","last_reported":1758716463,"current_range_meters":12000,"station_id":"ce4bgs92rcd13ifvqcc0","pricing_plan_id":"cebpf4jnsgd1na2vs0mg"},{"bike_id":"a60abba9-f9b8-477b-8786-175fc2b6218b","system_id":"levelo_inurba_marseille","lat":43.30871,"lon":5.37175,"is_reserved":false,"is_disabled":false,"rental_uris":{"android":"levelo://app?vid=a60abba9-f9b8-477b-8786-175fc2b6218b","ios":"levelo://app?vid=a60abba9-f9b8-477b-8786-175fc2b6218b"},"vehicle_type_id":"4","last_reported":1758716463,"current_range_meters":12000,"station_id":"ce4bguh2rcd13ifvqckg","pricing_plan_id":"cebpf4jnsgd1na2vs0mg"},{"bike_id":"d45e55fd-bdef-4148-a4fe-c963d9428301","system_id":"levelo_inurba_marseille","lat":43.25941,"lon":5.4089,"is_reserved":false,"is_disabled":false,"rental_uris":{"android":"levelo://app?vid=d45e55fd-bdef-4148-a4fe-c963d9428301","ios":"levelo://app?vid=d45e55fd-bdef-4148-a4fe-c963d9428301"},"vehicle_type_id":"4","last_reported":1758716463,"current_range_meters":12000,"station_id":"ce4bhm92rcd13ifvqglg","pricing_plan_id":"cebpf4jnsgd1na2vs0mg"},{"bike_id":"dda9beec-fae2-4162-a862-094d668dd4dd","system_id":"levelo_inurba_marseille","lat":43.3148,"lon":5.37314,"is_reserved":false,"is_disabled":false,"rental_uris":{"android":"levelo://app?vid=dda9beec-fae2-4162-a862-094d668dd4dd","ios":"levelo://app?vid=dda9beec-fae2-4162-a862-094d668dd4dd"},"vehicle_type_id":"4","last_reported":1758716463,"current_range_meters":12000,"station_id":"ce4bgt12rcd13ifvqcd0","pricing_plan_id":"cebpf4jnsgd1na2vs0mg"},{"bike_id":"0f1650fe-7e07-4db9-9c9e-440f7f5b47d4","system_id":"levelo_inurba_marseille","lat":43.21207,"lon":5.35065,"is_reserved":false,"is_disabled":false,"rental_uris":{"android":"levelo://app?vid=0f1650fe-7e07-4db9-9c9e-440f7f5b47d4","ios":"levelo://app?vid=0f1650fe-7e07-4db9-9c9e-440f7f5b47d4"},"vehicle_type_id":"4","last_reported":1758716463,"current_range_meters":12000,"station_id":"st_cvj6sg6p6f1abm77japg","pricing_plan_id":"cebpf4jnsgd1na2vs0mg"},{"bike_id":"40c1e12a-e957-4f6e-881a-f1b4ed5d19b1","system_id":"levelo_inurba_marseille","lat":43.28831,"lon":5.35856,"is_reserved":false,"is_disabled":false,"rental_uris":{"android":"levelo://app?vid=40c1e12a-e957-4f6e-881a-f1b4ed5d19b1","ios":"levelo://app?vid=40c1e12a-e957-4f6e-881a-f1b4ed5d19b1"},"vehicle_type_id":"4","last_reported":1758716463,"current_range_meters":12000,"station_id":"ce4bhb12rcd13ifvqem0","pricing_plan_id":"cebpf4jnsgd1na2vs0mg"},{"bike_id":"e3a4b8c2-189a-491b-8948-bc9d1e39d22f","system_id":"levelo_inurba_marseille","lat":43.269727,"lon":5.386606,"is_reserved":false,"is_disabled":false,"rental_uris":{"android":"levelo://app?vid=e3a4b8c2-189a-491b-8948-bc9d1e39d22f","ios":"levelo://app?vid=e3a4b8c2-189a-491b-8948-bc9d1e39d22f"},"vehicle_type_id":"4","last_reported":1758716463,"current_range_meters":12400,"station_id":"ce4bhh92rcd13ifvqfh0","pricing_plan_id":"cebpf4jnsgd1na2vs0mg"},{"bike_id":"44647f99-86f0-450e-8737-c038a5bfd4dd","system_id":"levelo_inurba_marseille","lat":43.290115,"lon":5.356204,"is_reserved":false,"is_disabled":false,"rental_uris":{"android":"levelo://app?vid=44647f99-86f0-450e-8737-c038a5bfd4dd","ios":"levelo://app?vid=44647f99-86f0-450e-8737-c038a5bfd4dd"},"vehicle_type_id":"4","last_reported":1758716463,"current_range_meters":12400,"station_id":"ce4bhch2rcd13ifvqeug","pricing_plan_id":"cebpf4jnsgd1na2vs0mg"},{"bike_id":"1c2a5dda-ef96-446a-8dbe-48b667744708","system_id":"levelo_inurba_marseille","lat":43.30212,"lon":5.39474,"is_reserved":false,"is_disabled":false,"rental_uris":{"android":"levelo://app?vid=1c2a5dda-ef96-446a-8dbe-48b667744708","ios":"levelo://app?vid=1c2a5dda-ef96-446a-8dbe-48b667744708"},"vehicle_type_id":"4","last_reported":1758716463,"current_range_meters":12000,"station_id":"ce4bh0p2rcd13ifvqd70","pricing_plan_id":"cebpf4jnsgd1na2vs0mg"},{"bike_id":"9feb0e0f-24fa-4463-b0f3-30472830c043","system_id":"levelo_inurba_marseille","lat":43.31757,"lon":5.39002,"is_reserved":false,"is_disabled":false,"rental_uris":{"android":"levelo://app?vid=9feb0e0f-24fa-4463-b0f3-30472830c043","ios":"levelo://app?vid=9feb0e0f-24fa-4463-b0f3-30472830c043"},"vehicle_type_id":"4","last_reported":1758716463,"current_range_meters":12800,"station_id":"ce4bhqp2rcd13ifvqhng","pricing_plan_id":"cebpf4jnsgd1na2vs0mg"},{"bike_id":"4ea71d83-c74b-45e0-95a5-e4c77af55e88","system_id":"levelo_inurba_marseille","lat":43.32119,"lon":5.36781,"is_reserved":false,"is_disabled":false,"rental_uris":{"android":"levelo://app?vid=4ea71d83-c74b-45e0-95a5-e4c77af55e88","ios":"levelo://app?vid=4ea71d83-c74b-45e0-95a5-e4c77af55e88"},"vehicle_type_id":"4","last_reported":1758716463,"current_range_meters":12800,"station_id":"ce4bhrh2rcd13ifvqhug","pricing_plan_id":"cebpf4jnsgd1na2vs0mg"},{"bike_id":"775d2ad5-89ec-4ca2-aad6-292d6d92b011","system_id":"levelo_inurba_marseille","lat":43.32481,"lon":5.36587,"is_reserved":false,"is_disabled":false,"rental_uris":{"android":"levelo://app?vid=775d2ad5-89ec-4ca2-aad6-292d6d92b011","ios":"levelo://app?vid=775d2ad5-89ec-4ca2-aad6-292d6d92b011"},"vehicle_type_id":"4","last_reported":1758716463,"current_range_meters":12800,"station_id":"ce4bhs12rcd13ifvqhvg","pricing_plan_id":"cebpf4jnsgd1na2vs0mg"},{"bike_id":"4459acd5-560d-44da-88d7-61594709014b","system_id":"levelo_inurba_marseille","lat":43.22567,"lon":5.41631,"is_reserved":false,"is_disabled":false,"rental_uris":{"android":"levelo://app?vid=4459acd5-560d-44da-88d7-61594709014b","ios":"levelo://app?vid=4459acd5-560d-44da-88d7-61594709014b"},"vehicle_type_id":"4","last_reported":1758716463,"current_range_meters":12800,"station_id":"st_d2o4gvlbi1j2169b742g","pricing_plan_id":"cebpf4jnsgd1na2vs0mg"},{"bike_id":"b5097eea-9912-4be2-9cf9-14c224c5fab6","system_id":"levelo_inurba_marseille","lat":43.23195,"lon":5.35556,"is_reserved":false,"is_disabled":false,"rental_uris":{"android":"levelo://app?vid=b5097eea-9912-4be2-9cf9-14c224c5fab6","ios":"levelo://app?vid=b5097eea-9912-4be2-9cf9-14c224c5fab6"},"vehicle_type_id":"4","last_reported":1758716463,"current_range_meters":12800,"station_id":"ce4bhu92rcd13ifvqi70","pricing_plan_id":"cebpf4jnsgd1na2vs0mg"},{"bike_id":"06c10839-75c7-457b-804b-f341157fb4f3","system_id":"levelo_inurba_marseille","lat":43.25061,"lon":5.40469,"is_reserved":false,"is_disabled":false,"rental_uris":{"android":"levelo://app?vid=06c10839-75c7-457b-804b-f341157fb4f3","ios":"levelo://app?vid=06c10839-75c7-457b-804b-f341157fb4f3"},"vehicle_type_id":"4","last_reported":1758716463,"current_range_meters":12800,"station_id":"","pricing_plan_id":"cebpf4jnsgd1na2vs0mg"},{"bike_id":"874286e0-8459-4a1e-a6a9-f92342d80ec3","system_id":"levelo_inurba_marseille","lat":43.30906,"lon":5.37175,"is_reserved":false,"is_disabled":false,"rental_uris":{"android":"levelo://app?vid=874286e0-8459-4a1e-a6a9-f92342d80ec3","ios":"levelo://app?vid=874286e0-8459-4a1e-a6a9-f92342d80ec3"},"vehicle_type_id":"4","last_reported":1758716463,"current_range_meters":12400,"station_id":"ce4bguh2rcd13ifvqckg","pricing_plan_id":"cebpf4jnsgd1na2vs0mg"},{"bike_id":"256d7e8b-6f10-45e7-998f-21b1a7616e67","system_id":"levelo_inurba_marseille","lat":43.298085,"lon":5.380729,"is_reserved":false,"is_disabled":false,"rental_uris":{"android":"levelo://app?vid=256d7e8b-6f10-45e7-998f-21b1a7616e67","ios":"levelo://app?vid=256d7e8b-6f10-45e7-998f-21b1a7616e67"},"vehicle_type_id":"4","last_reported":1758716463,"current_range_meters":12800,"station_id":"ce4bgip2rcd13ifvqbb0","pricing_plan_id":"cebpf4jnsgd1na2vs0mg"},{"bike_id":"90531cf1-c3c6-4374-9d7f-da4a9ea7fd92","system_id":"levelo_inurba_marseille","lat":43.29534,"lon":5.37495,"is_reserved":false,"is_disabled":false,"rental_uris":{"android":"levelo://app?vid=90531cf1-c3c6-4374-9d7f-da4a9ea7fd92","ios":"levelo://app?vid=90531cf1-c3c6-4374-9d7f-da4a9ea7fd92"},"vehicle_type_id":"4","last_reported":1758716463,"current_range_meters":12800,"station_id":"ce4bgkp2rcd13ifvqbmg","pricing_plan_id":"cebpf4jnsgd1na2vs0mg"},{"bike_id":"d68b9cdd-055c-48e6-b5c7-c6c683b923e5","system_id":"levelo_inurba_marseille","lat":43.28608,"lon":5.35092,"is_reserved":false,"is_disabled":false,"rental_uris":{"android":"levelo://app?vid=d68b9cdd-055c-48e6-b5c7-c6c683b923e5","ios":"levelo://app?vid=d68b9cdd-055c-48e6-b5c7-c6c683b923e5"},"vehicle_type_id":"4","last_reported":1758716463,"current_range_meters":12800,"station_id":"ce4bhch2rcd13ifvqeug","pricing_plan_id":"cebpf4jnsgd1na2vs0mg"},{"bike_id":"343c7549-bf08-44ce-9fe4-94fec5c5103f","system_id":"levelo_inurba_marseille","lat":43.299389,"lon":5.365563,"is_reserved":false,"is_disabled":false,"rental_uris":{"android":"levelo://app?vid=343c7549-bf08-44ce-9fe4-94fec5c5103f","ios":"levelo://app?vid=343c7549-bf08-44ce-9fe4-94fec5c5103f"},"vehicle_type_id":"4","last_reported":1758716463,"current_range_meters":12800,"station_id":"ce4bgm92rcd13ifvqbr0","pricing_plan_id":"cebpf4jnsgd1na2vs0mg"},{"bike_id":"438ead59-de14-4fa0-a61d-03a70a4122ae","system_id":"levelo_inurba_marseille","lat":43.97269,"lon":4.89111,"is_reserved":false,"is_disabled":true,"rental_uris":{"android":"levelo://app?vid=438ead59-de14-4fa0-a61d-03a70a4122ae","ios":"levelo://app?vid=438ead59-de14-4fa0-a61d-03a70a4122ae"},"vehicle_type_id":"4","last_reported":1758716463,"current_range_meters":12800,"station_id":"","pricing_plan_id":"cebpf4jnsgd1na2vs0mg"},{"bike_id":"222965d8-242e-4149-b2f4-940984c25049","system_id":"levelo_inurba_marseille","lat":43.23156,"lon":5.43706,"is_reserved":false,"is_disabled":false,"rental_uris":{"android":"levelo://app?vid=222965d8-242e-4149-b2f4-940984c25049","ios":"levelo://app?vid=222965d8-242e-4149-b2f4-940984c25049"},"vehicle_type_id":"4","last_reported":1758716463,"current_range_meters":12800,"station_id":"ce4bhmp2rcd13ifvqgog","pricing_plan_id":"cebpf4jnsgd1na2vs0mg"},{"bike_id":"8c0227e3-55e8-4994-aa0c-9b6ee99b7e26","system_id":"levelo_inurba_marseille","lat":43.23055,"lon":5.35498,"is_reserved":false,"is_disabled":false,"rental_uris":{"android":"levelo://app?vid=8c0227e3-55e8-4994-aa0c-9b6ee99b7e26","ios":"levelo://app?vid=8c0227e3-55e8-4994-aa0c-9b6ee99b7e26"},"vehicle_type_id":"4","last_reported":1758716463,"current_range_meters":13600,"station_id":"cpo3342slgdg3j2ifvpg","pricing_plan_id":"cebpf4jnsgd1na2vs0mg"},{"bike_id":"2d4006e7-21c9-43f0-a094-fcaaa7f929b9","system_id":"levelo_inurba_marseille","lat":43.30541,"lon":5.36541,"is_reserved":false,"is_disabled":false,"rental_uris":{"android":"levelo://app?vid=2d4006e7-21c9-43f0-a094-fcaaa7f929b9","ios":"levelo://app?vid=2d4006e7-21c9-43f0-a094-fcaaa7f929b9"},"vehicle_type_id":"4","last_reported":1758716463,"current_range_meters":13600,"station_id":"ce4bgs12rcd13ifvqcag","pricing_plan_id":"cebpf4jnsgd1na2vs0mg"},{"bike_id":"7daf761b-8195-4a54-b1c7-3e30650736f7","system_id":"levelo_inurba_marseille","lat":43.27556,"lon":5.38428,"is_reserved":false,"is_disabled":false,"rental_uris":{"android":"levelo://app?vid=7daf761b-8195-4a54-b1c7-3e30650736f7","ios":"levelo://app?vid=7daf761b-8195-4a54-b1c7-3e30650736f7"},"vehicle_type_id":"4","last_reported":1758716463,"current_range_meters":13600,"station_id":"ce4bhh92rcd13ifvqfi0","pricing_plan_id":"cebpf4jnsgd1na2vs0mg"},{"bike_id":"e49dc799-22d6-4461-a287-3b56e17be205","system_id":"levelo_inurba_marseille","lat":43.33602,"lon":5.41026,"is_reserved":false,"is_disabled":false,"rental_uris":{"android":"levelo://app?vid=e49dc799-22d6-4461-a287-3b56e17be205","ios":"levelo://app?vid=e49dc799-22d6-4461-a287-3b56e17be205"},"vehicle_type_id":"4","last_reported":1758716463,"current_range_meters":13600,"station_id":"ce4bhqh2rcd13ifvqhmg","pricing_plan_id":"cebpf4jnsgd1na2vs0mg"},{"bike_id":"1f2cac14-96bb-449f-9081-da192f8082a5","system_id":"levelo_inurba_marseille","lat":43.2756,"lon":5.38436,"is_reserved":false,"is_disabled":false,"rental_uris":{"android":"levelo://app?vid=1f2cac14-96bb-449f-9081-da192f8082a5","ios":"levelo://app?vid=1f2cac14-96bb-449f-9081-da192f8082a5"},"vehicle_type_id":"4","last_reported":1758716463,"current_range_meters":13600,"station_id":"ce4bhh92rcd13ifvqfi0","pricing_plan_id":"cebpf4jnsgd1na2vs0mg"},{"bike_id":"df972bfc-da8d-435c-a4c0-f7f35947ae31","system_id":"levelo_inurba_marseille","lat":43.25823,"lon":5.39436,"is_reserved":false,"is_disabled":false,"rental_uris":{"android":"levelo://app?vid=df972bfc-da8d-435c-a4c0-f7f35947ae31","ios":"levelo://app?vid=df972bfc-da8d-435c-a4c0-f7f35947ae31"},"vehicle_type_id":"4","last_reported":1758716463,"current_range_meters":13600,"station_id":"ce4bhip2rcd13ifvqft0","pricing_plan_id":"cebpf4jnsgd1na2vs0mg"},{"bike_id":"0f720b85-1a36-4133-9a7d-671e3a9509f1","system_id":"levelo_inurba_marseille","lat":43.30141,"lon":5.3809,"is_reserved":false,"is_disabled":false,"rental_uris":{"android":"levelo://app?vid=0f720b85-1a36-4133-9a7d-671e3a9509f1","ios":"levelo://app?vid=0f720b85-1a36-4133-9a7d-671e3a9509f1"},"vehicle_type_id":"4","last_reported":1758716463,"current_range_meters":14000,"station_id":"ce4bgjp2rcd13ifvqbh0","pricing_plan_id":"cebpf4jnsgd1na2vs0mg"},{"bike_id":"c3d280dc-bb00-45d7-bad5-ffadb40dbb44","system_id":"levelo_inurba_marseille","lat":43.23187,"lon":5.39976,"is_reserved":false,"is_disabled":false,"rental_uris":{"android":"levelo://app?vid=c3d280dc-bb00-45d7-bad5-ffadb40dbb44","ios":"levelo://app?vid=c3d280dc-bb00-45d7-bad5-ffadb40dbb44"},"vehicle_type_id":"4","last_reported":1758716463,"current_range_meters":14000,"station_id":"ce4bhn12rcd13ifvqgqg","pricing_plan_id":"cebpf4jnsgd1na2vs0mg"},{"bike_id":"0aa1d1d8-e4de-4095-ab27-a229d724fd7d","system_id":"levelo_inurba_marseille","lat":43.245443,"lon":5.395204,"is_reserved":false,"is_disabled":false,"rental_uris":{"android":"levelo://app?vid=0aa1d1d8-e4de-4095-ab27-a229d724fd7d","ios":"levelo://app?vid=0aa1d1d8-e4de-4095-ab27-a229d724fd7d"},"vehicle_type_id":"4","last_reported":1758716463,"current_range_meters":14000,"station_id":"ce4bhlp2rcd13ifvqgjg","pricing_plan_id":"cebpf4jnsgd1na2vs0mg"},{"bike_id":"528c3ca2-6e69-4088-b13a-99bd3c7e415f","system_id":"levelo_inurba_marseille","lat":43.2319,"lon":5.39979,"is_reserved":false,"is_disabled":false,"rental_uris":{"android":"levelo://app?vid=528c3ca2-6e69-4088-b13a-99bd3c7e415f","ios":"levelo://app?vid=528c3ca2-6e69-4088-b13a-99bd3c7e415f"},"vehicle_type_id":"4","last_reported":1758716463,"current_range_meters":14000,"station_id":"ce4bhn12rcd13ifvqgqg","pricing_plan_id":"cebpf4jnsgd1na2vs0mg"},{"bike_id":"cbf48c94-312b-40cb-a425-7d3037f2648d","system_id":"levelo_inurba_marseille","lat":43.22582,"lon":5.41644,"is_reserved":false,"is_disabled":false,"rental_uris":{"android":"levelo://app?vid=cbf48c94-312b-40cb-a425-7d3037f2648d","ios":"levelo://app?vid=cbf48c94-312b-40cb-a425-7d3037f2648d"},"vehicle_type_id":"4","last_reported":1758716463,"current_range_meters":14000,"station_id":"st_d2o4gvlbi1j2169b742g","pricing_plan_id":"cebpf4jnsgd1na2vs0mg"},{"bike_id":"423a0561-40f7-45f5-8b09-c3ea3b6f31bf","system_id":"levelo_inurba_marseille","lat":43.292298,"lon":5.360514,"is_reserved":false,"is_disabled":false,"rental_uris":{"android":"levelo://app?vid=423a0561-40f7-45f5-8b09-c3ea3b6f31bf","ios":"levelo://app?vid=423a0561-40f7-45f5-8b09-c3ea3b6f31bf"},"vehicle_type_id":"4","last_reported":1758716463,"current_range_meters":14400,"station_id":"ce4bhbh2rcd13ifvqeqg","pricing_plan_id":"cebpf4jnsgd1na2vs0mg"},{"bike_id":"8c28d318-3390-424f-8782-21566cc89608","system_id":"levelo_inurba_marseille","lat":43.28614,"lon":5.35105,"is_reserved":false,"is_disabled":false,"rental_uris":{"android":"levelo://app?vid=8c28d318-3390-424f-8782-21566cc89608","ios":"levelo://app?vid=8c28d318-3390-424f-8782-21566cc89608"},"vehicle_type_id":"4","last_reported":1758716463,"current_range_meters":14400,"station_id":"ce4bhch2rcd13ifvqeug","pricing_plan_id":"cebpf4jnsgd1na2vs0mg"},{"bike_id":"ef00c611-56e3-4d87-83a8-6fad9627913a","system_id":"levelo_inurba_marseille","lat":43.308894,"lon":5.371943,"is_reserved":false,"is_disabled":false,"rental_uris":{"android":"levelo://app?vid=ef00c611-56e3-4d87-83a8-6fad9627913a","ios":"levelo://app?vid=ef00c611-56e3-4d87-83a8-6fad9627913a"},"vehicle_type_id":"4","last_reported":1758716463,"current_range_meters":14400,"station_id":"ce4bguh2rcd13ifvqckg","pricing_plan_id":"cebpf4jnsgd1na2vs0mg"},{"bike_id":"fa32ac66-1868-4621-9603-33ed57153ba3","system_id":"levelo_inurba_marseille","lat":43.29991,"lon":5.40109,"is_reserved":false,"is_disabled":true,"rental_uris":{"android":"levelo://app?vid=fa32ac66-1868-4621-9603-33ed57153ba3","ios":"levelo://app?vid=fa32ac66-1868-4621-9603-33ed57153ba3"},"vehicle_type_id":"4","last_reported":1758716463,"current_range_meters":14400,"station_id":"","pricing_plan_id":"cebpf4jnsgd1na2vs0mg"},{"bike_id":"52094713-4280-421b-b417-fe5c844f4daa","system_id":"levelo_inurba_marseille","lat":43.2511,"lon":5.40325,"is_reserved":false,"is_disabled":false,"rental_uris":{"android":"levelo://app?vid=52094713-4280-421b-b417-fe5c844f4daa","ios":"levelo://app?vid=52094713-4280-421b-b417-fe5c844f4daa"},"vehicle_type_id":"4","last_reported":1758716463,"current_range_meters":14400,"station_id":"ce4bhlh2rcd13ifvqgig","pricing_plan_id":"cebpf4jnsgd1na2vs0mg"},{"bike_id":"a851cae0-b395-441e-9dd1-21300baf3396","system_id":"levelo_inurba_marseille","lat":43.31545,"lon":5.3875,"is_reserved":false,"is_disabled":false,"rental_uris":{"android":"levelo://app?vid=a851cae0-b395-441e-9dd1-21300baf3396","ios":"levelo://app?vid=a851cae0-b395-441e-9dd1-21300baf3396"},"vehicle_type_id":"4","last_reported":1758716463,"current_range_meters":14400,"station_id":"","pricing_plan_id":"cebpf4jnsgd1na2vs0mg"},{"bike_id":"1957c4b0-fd49-4fb5-8847-4d999f8d7a43","system_id":"levelo_inurba_marseille","lat":43.28968,"lon":5.37843,"is_reserved":false,"is_disabled":false,"rental_uris":{"android":"levelo://app?vid=1957c4b0-fd49-4fb5-8847-4d999f8d7a43","ios":"levelo://app?vid=1957c4b0-fd49-4fb5-8847-4d999f8d7a43"},"vehicle_type_id":"4","last_reported":1758716463,"current_range_meters":14400,"station_id":"ce4bh9p2rcd13ifvqed0","pricing_plan_id":"cebpf4jnsgd1na2vs0mg"},{"bike_id":"b48e70b2-53f1-4641-819c-a53cac59b8ed","system_id":"levelo_inurba_marseille","lat":43.258241,"lon":5.39439,"is_reserved":false,"is_disabled":false,"rental_uris":{"android":"levelo://app?vid=b48e70b2-53f1-4641-819c-a53cac59b8ed","ios":"levelo://app?vid=b48e70b2-53f1-4641-819c-a53cac59b8ed"},"vehicle_type_id":"4","last_reported":1758716463,"current_range_meters":14400,"station_id":"ce4bhip2rcd13ifvqft0","pricing_plan_id":"cebpf4jnsgd1na2vs0mg"},{"bike_id":"398fef7f-c52c-464b-b837-db7db0e2602a","system_id":"levelo_inurba_marseille","lat":43.25349,"lon":5.42171,"is_reserved":false,"is_disabled":false,"rental_uris":{"android":"levelo://app?vid=398fef7f-c52c-464b-b837-db7db0e2602a","ios":"levelo://app?vid=398fef7f-c52c-464b-b837-db7db0e2602a"},"vehicle_type_id":"4","last_reported":1758716463,"current_range_meters":14400,"station_id":"st_d2m65c5bi1j21697t3ng","pricing_plan_id":"cebpf4jnsgd1na2vs0mg"},{"bike_id":"36b070bb-df09-4433-b99c-aab79ada22d5","system_id":"levelo_inurba_marseille","lat":43.29287,"lon":5.3744,"is_reserved":false,"is_disabled":false,"rental_uris":{"android":"levelo://app?vid=36b070bb-df09-4433-b99c-aab79ada22d5","ios":"levelo://app?vid=36b070bb-df09-4433-b99c-aab79ada22d5"},"vehicle_type_id":"4","last_reported":1758716463,"current_range_meters":14400,"station_id":"","pricing_plan_id":"cebpf4jnsgd1na2vs0mg"},{"bike_id":"3f9cdc73-9ffc-4912-8c87-b76688a65528","system_id":"levelo_inurba_marseille","lat":43.30645,"lon":5.40092,"is_reserved":false,"is_disabled":false,"rental_uris":{"android":"levelo://app?vid=3f9cdc73-9ffc-4912-8c87-b76688a65528","ios":"levelo://app?vid=3f9cdc73-9ffc-4912-8c87-b76688a65528"},"vehicle_type_id":"4","last_reported":1758716463,"current_range_meters":14400,"station_id":"ce4bh112rcd13ifvqda0","pricing_plan_id":"cebpf4jnsgd1na2vs0mg"},{"bike_id":"c84206f7-dec6-4943-8039-afa2fdb3d77b","system_id":"levelo_inurba_marseille","lat":43.32497,"lon":5.36569,"is_reserved":false,"is_disabled":false,"rental_uris":{"android":"levelo://app?vid=c84206f7-dec6-4943-8039-afa2fdb3d77b","ios":"levelo://app?vid=c84206f7-dec6-4943-8039-afa2fdb3d77b"},"vehicle_type_id":"4","last_reported":1758716463,"current_range_meters":14800,"station_id":"ce4bhs12rcd13ifvqhvg","pricing_plan_id":"cebpf4jnsgd1na2vs0mg"},{"bike_id":"9ace8b35-9d9b-46ac-8c4e-8fcce01b21af","system_id":"levelo_inurba_marseille","lat":43.24805,"lon":5.37458,"is_reserved":false,"is_disabled":false,"rental_uris":{"android":"levelo://app?vid=9ace8b35-9d9b-46ac-8c4e-8fcce01b21af","ios":"levelo://app?vid=9ace8b35-9d9b-46ac-8c4e-8fcce01b21af"},"vehicle_type_id":"4","last_reported":1758716463,"current_range_meters":14800,"station_id":"ce4bhgh2rcd13ifvqfb0","pricing_plan_id":"cebpf4jnsgd1na2vs0mg"},{"bike_id":"8c165ed0-c2e8-4cfc-96d8-648257fd9e1f","system_id":"levelo_inurba_marseille","lat":43.31116,"lon":5.37778,"is_reserved":false,"is_disabled":false,"rental_uris":{"android":"levelo://app?vid=8c165ed0-c2e8-4cfc-96d8-648257fd9e1f","ios":"levelo://app?vid=8c165ed0-c2e8-4cfc-96d8-648257fd9e1f"},"vehicle_type_id":"4","last_reported":1758716463,"current_range_meters":14800,"station_id":"ce4bgt92rcd13ifvqcg0","pricing_plan_id":"cebpf4jnsgd1na2vs0mg"},{"bike_id":"c3fc2c56-8946-4650-8440-7460dd1f0882","system_id":"levelo_inurba_marseille","lat":43.23179,"lon":5.39993,"is_reserved":false,"is_disabled":false,"rental_uris":{"android":"levelo://app?vid=c3fc2c56-8946-4650-8440-7460dd1f0882","ios":"levelo://app?vid=c3fc2c56-8946-4650-8440-7460dd1f0882"},"vehicle_type_id":"4","last_reported":1758716463,"current_range_meters":15200,"station_id":"ce4bhn12rcd13ifvqgqg","pricing_plan_id":"cebpf4jnsgd1na2vs0mg"},{"bike_id":"e2017298-7010-4fcc-9644-9ccfb0f46125","system_id":"levelo_inurba_marseille","lat":43.30111,"lon":5.415184,"is_reserved":false,"is_disabled":false,"rental_uris":{"android":"levelo://app?vid=e2017298-7010-4fcc-9644-9ccfb0f46125","ios":"levelo://app?vid=e2017298-7010-4fcc-9644-9ccfb0f46125"},"vehicle_type_id":"4","last_reported":1758716463,"current_range_meters":15200,"station_id":"","pricing_plan_id":"cebpf4jnsgd1na2vs0mg"},{"bike_id":"3cb1dae7-6bcd-41e5-b1b7-c1d25c751a99","system_id":"levelo_inurba_marseille","lat":43.337594,"lon":5.374419,"is_reserved":false,"is_disabled":false,"rental_uris":{"android":"levelo://app?vid=3cb1dae7-6bcd-41e5-b1b7-c1d25c751a99","ios":"levelo://app?vid=3cb1dae7-6bcd-41e5-b1b7-c1d25c751a99"},"vehicle_type_id":"4","last_reported":1758716463,"current_range_meters":16000,"station_id":"","pricing_plan_id":"cebpf4jnsgd1na2vs0mg"},{"bike_id":"57b14c92-2a17-45b3-beb1-cbb460ef441b","system_id":"levelo_inurba_marseille","lat":43.231824,"lon":5.399921,"is_reserved":false,"is_disabled":false,"rental_uris":{"android":"levelo://app?vid=57b14c92-2a17-45b3-beb1-cbb460ef441b","ios":"levelo://app?vid=57b14c92-2a17-45b3-beb1-cbb460ef441b"},"vehicle_type_id":"4","last_reported":1758716463,"current_range_meters":16000,"station_id":"ce4bhn12rcd13ifvqgqg","pricing_plan_id":"cebpf4jnsgd1na2vs0mg"},{"bike_id":"bf1244d3-d7e7-45bd-8580-d0cbc34b36e3","system_id":"levelo_inurba_marseille","lat":43.22557,"lon":5.41613,"is_reserved":false,"is_disabled":false,"rental_uris":{"android":"levelo://app?vid=bf1244d3-d7e7-45bd-8580-d0cbc34b36e3","ios":"levelo://app?vid=bf1244d3-d7e7-45bd-8580-d0cbc34b36e3"},"vehicle_type_id":"4","last_reported":1758716463,"current_range_meters":16000,"station_id":"st_d2o4gvlbi1j2169b742g","pricing_plan_id":"cebpf4jnsgd1na2vs0mg"},{"bike_id":"9bcafe29-ffe4-4ff0-b32d-2df5570d2878","system_id":"levelo_inurba_marseille","lat":43.28998,"lon":5.35613,"is_reserved":false,"is_disabled":false,"rental_uris":{"android":"levelo://app?vid=9bcafe29-ffe4-4ff0-b32d-2df5570d2878","ios":"levelo://app?vid=9bcafe29-ffe4-4ff0-b32d-2df5570d2878"},"vehicle_type_id":"4","last_reported":1758716463,"current_range_meters":16000,"station_id":"ce4bhb92rcd13ifvqen0","pricing_plan_id":"cebpf4jnsgd1na2vs0mg"},{"bike_id":"54bc1b6d-e74c-4e29-91dc-56b5998e7aa3","system_id":"levelo_inurba_marseille","lat":43.24176,"lon":5.39735,"is_reserved":false,"is_disabled":false,"rental_uris":{"android":"levelo://app?vid=54bc1b6d-e74c-4e29-91dc-56b5998e7aa3","ios":"levelo://app?vid=54bc1b6d-e74c-4e29-91dc-56b5998e7aa3"},"vehicle_type_id":"4","last_reported":1758716463,"current_range_meters":16000,"station_id":"ce4bhn12rcd13ifvqgpg","pricing_plan_id":"cebpf4jnsgd1na2vs0mg"},{"bike_id":"2a130136-a1ec-4415-b91b-33158ad7a9ba","system_id":"levelo_inurba_marseille","lat":43.268082,"lon":5.402697,"is_reserved":false,"is_disabled":false,"rental_uris":{"android":"levelo://app?vid=2a130136-a1ec-4415-b91b-33158ad7a9ba","ios":"levelo://app?vid=2a130136-a1ec-4415-b91b-33158ad7a9ba"},"vehicle_type_id":"4","last_reported":1758716463,"current_range_meters":15200,"station_id":"ce501612rcd8frsf0b60","pricing_plan_id":"cebpf4jnsgd1na2vs0mg"},{"bike_id":"178af37d-dd54-4cf7-b80a-b996e0f2a163","system_id":"levelo_inurba_marseille","lat":43.21224,"lon":5.35045,"is_reserved":false,"is_disabled":false,"rental_uris":{"android":"levelo://app?vid=178af37d-dd54-4cf7-b80a-b996e0f2a163","ios":"levelo://app?vid=178af37d-dd54-4cf7-b80a-b996e0f2a163"},"vehicle_type_id":"4","last_reported":1758716463,"current_range_meters":16000,"station_id":"","pricing_plan_id":"cebpf4jnsgd1na2vs0mg"},{"bike_id":"50c03ce7-6089-4ca2-9f23-f4c8c568a597","system_id":"levelo_inurba_marseille","lat":43.337599,"lon":5.374362,"is_reserved":false,"is_disabled":false,"rental_uris":{"android":"levelo://app?vid=50c03ce7-6089-4ca2-9f23-f4c8c568a597","ios":"levelo://app?vid=50c03ce7-6089-4ca2-9f23-f4c8c568a597"},"vehicle_type_id":"4","last_reported":1758716463,"current_range_meters":16000,"station_id":"","pricing_plan_id":"cebpf4jnsgd1na2vs0mg"},{"bike_id":"1f245d0b-a243-4473-a434-d74cae53f5e3","system_id":"levelo_inurba_marseille","lat":43.32109,"lon":5.36789,"is_reserved":false,"is_disabled":false,"rental_uris":{"android":"levelo://app?vid=1f245d0b-a243-4473-a434-d74cae53f5e3","ios":"levelo://app?vid=1f245d0b-a243-4473-a434-d74cae53f5e3"},"vehicle_type_id":"4","last_reported":1758716463,"current_range_meters":16000,"station_id":"ce4bhrh2rcd13ifvqhug","pricing_plan_id":"cebpf4jnsgd1na2vs0mg"},{"bike_id":"fe0d0249-6789-4ddb-9565-b1b5128c0191","system_id":"levelo_inurba_marseille","lat":43.27974,"lon":5.3875,"is_reserved":false,"is_disabled":false,"rental_uris":{"android":"levelo://app?vid=fe0d0249-6789-4ddb-9565-b1b5128c0191","ios":"levelo://app?vid=fe0d0249-6789-4ddb-9565-b1b5128c0191"},"vehicle_type_id":"4","last_reported":1758716463,"current_range_meters":16000,"station_id":"ce4bhg12rcd13ifvqf80","pricing_plan_id":"cebpf4jnsgd1na2vs0mg"},{"bike_id":"e19472f1-87e0-4943-97f3-e785d2a10054","system_id":"levelo_inurba_marseille","lat":43.2887,"lon":5.42527,"is_reserved":false,"is_disabled":false,"rental_uris":{"android":"levelo://app?vid=e19472f1-87e0-4943-97f3-e785d2a10054","ios":"levelo://app?vid=e19472f1-87e0-4943-97f3-e785d2a10054"},"vehicle_type_id":"4","last_reported":1758716463,"current_range_meters":16000,"station_id":"","pricing_plan_id":"cebpf4jnsgd1na2vs0mg"},{"bike_id":"ce4d9095-bd1e-42fb-98cf-e11245de9439","system_id":"levelo_inurba_marseille","lat":43.290067,"lon":5.35621,"is_reserved":false,"is_disabled":false,"rental_uris":{"android":"levelo://app?vid=ce4d9095-bd1e-42fb-98cf-e11245de9439","ios":"levelo://app?vid=ce4d9095-bd1e-42fb-98cf-e11245de9439"},"vehicle_type_id":"4","last_reported":1758716463,"current_range_meters":16000,"station_id":"ce4bhb92rcd13ifvqen0","pricing_plan_id":"cebpf4jnsgd1na2vs0mg"},{"bike_id":"d9e1888b-5c06-4823-924b-a03611151086","system_id":"levelo_inurba_marseille","lat":43.28642,"lon":5.35089,"is_reserved":false,"is_disabled":false,"rental_uris":{"android":"levelo://app?vid=d9e1888b-5c06-4823-924b-a03611151086","ios":"levelo://app?vid=d9e1888b-5c06-4823-924b-a03611151086"},"vehicle_type_id":"4","last_reported":1758716463,"current_range_meters":16400,"station_id":"ce4bhch2rcd13ifvqeug","pricing_plan_id":"cebpf4jnsgd1na2vs0mg"},{"bike_id":"ba9a5e69-037e-4e99-9261-2befd0869cd7","system_id":"levelo_inurba_marseille","lat":43.309,"lon":5.36844,"is_reserved":false,"is_disabled":false,"rental_uris":{"android":"levelo://app?vid=ba9a5e69-037e-4e99-9261-2befd0869cd7","ios":"levelo://app?vid=ba9a5e69-037e-4e99-9261-2befd0869cd7"},"vehicle_type_id":"4","last_reported":1758716463,"current_range_meters":16400,"station_id":"ce4bgn92rcd13ifvqbvg","pricing_plan_id":"cebpf4jnsgd1na2vs0mg"},{"bike_id":"6e28c473-43c7-4359-9768-11e494b67b04","system_id":"levelo_inurba_marseille","lat":43.2708,"lon":5.42276,"is_reserved":false,"is_disabled":false,"rental_uris":{"android":"levelo://app?vid=6e28c473-43c7-4359-9768-11e494b67b04","ios":"levelo://app?vid=6e28c473-43c7-4359-9768-11e494b67b04"},"vehicle_type_id":"4","last_reported":1758716463,"current_range_meters":16400,"station_id":"ce4bhk92rcd13ifvqgb0","pricing_plan_id":"cebpf4jnsgd1na2vs0mg"},{"bike_id":"ce490468-4514-42c6-af3a-ff21f1597ad1","system_id":"levelo_inurba_marseille","lat":43.29973,"lon":5.38479,"is_reserved":false,"is_disabled":false,"rental_uris":{"android":"levelo://app?vid=ce490468-4514-42c6-af3a-ff21f1597ad1","ios":"levelo://app?vid=ce490468-4514-42c6-af3a-ff21f1597ad1"},"vehicle_type_id":"4","last_reported":1758716463,"current_range_meters":16400,"station_id":"ce4bgj92rcd13ifvqbd0","pricing_plan_id":"cebpf4jnsgd1na2vs0mg"},{"bike_id":"2bb0aae0-4ce8-4aff-adbe-c9c5d0ef8d31","system_id":"levelo_inurba_marseille","lat":43.25881,"lon":5.39884,"is_reserved":false,"is_disabled":false,"rental_uris":{"android":"levelo://app?vid=2bb0aae0-4ce8-4aff-adbe-c9c5d0ef8d31","ios":"levelo://app?vid=2bb0aae0-4ce8-4aff-adbe-c9c5d0ef8d31"},"vehicle_type_id":"4","last_reported":1758716463,"current_range_meters":16400,"station_id":"ce4bhl92rcd13ifvqghg","pricing_plan_id":"cebpf4jnsgd1na2vs0mg"},{"bike_id":"3a67dd4e-fb83-461d-9857-1da42ae82607","system_id":"levelo_inurba_marseille","lat":43.26204,"lon":5.37916,"is_reserved":false,"is_disabled":false,"rental_uris":{"android":"levelo://app?vid=3a67dd4e-fb83-461d-9857-1da42ae82607","ios":"levelo://app?vid=3a67dd4e-fb83-461d-9857-1da42ae82607"},"vehicle_type_id":"4","last_reported":1758716463,"current_range_meters":16400,"station_id":"ce4bhjp2rcd13ifvqg90","pricing_plan_id":"cebpf4jnsgd1na2vs0mg"},{"bike_id":"d2be082e-bd73-4203-addb-18871b3a9587","system_id":"levelo_inurba_marseille","lat":43.29432,"lon":5.37466,"is_reserved":false,"is_disabled":false,"rental_uris":{"android":"levelo://app?vid=d2be082e-bd73-4203-addb-18871b3a9587","ios":"levelo://app?vid=d2be082e-bd73-4203-addb-18871b3a9587"},"vehicle_type_id":"4","last_reported":1758716463,"current_range_meters":16400,"station_id":"","pricing_plan_id":"cebpf4jnsgd1na2vs0mg"},{"bike_id":"c7f6a08b-c655-4213-b2ba-7d02e7f382fe","system_id":"levelo_inurba_marseille","lat":43.27988,"lon":5.39483,"is_reserved":false,"is_disabled":false,"rental_uris":{"android":"levelo://app?vid=c7f6a08b-c655-4213-b2ba-7d02e7f382fe","ios":"levelo://app?vid=c7f6a08b-c655-4213-b2ba-7d02e7f382fe"},"vehicle_type_id":"4","last_reported":1758716463,"current_range_meters":16400,"station_id":"","pricing_plan_id":"cebpf4jnsgd1na2vs0mg"},{"bike_id":"d7a9f143-6de2-45ea-8086-2d0b2225faf1","system_id":"levelo_inurba_marseille","lat":43.33553,"lon":5.3771,"is_reserved":false,"is_disabled":false,"rental_uris":{"android":"levelo://app?vid=d7a9f143-6de2-45ea-8086-2d0b2225faf1","ios":"levelo://app?vid=d7a9f143-6de2-45ea-8086-2d0b2225faf1"},"vehicle_type_id":"4","last_reported":1758716463,"current_range_meters":16400,"station_id":"","pricing_plan_id":"cebpf4jnsgd1na2vs0mg"},{"bike_id":"727ced24-16e7-4c82-bae1-397d8c78937f","system_id":"levelo_inurba_marseille","lat":43.29779,"lon":5.39341,"is_reserved":false,"is_disabled":false,"rental_uris":{"android":"levelo://app?vid=727ced24-16e7-4c82-bae1-397d8c78937f","ios":"levelo://app?vid=727ced24-16e7-4c82-bae1-397d8c78937f"},"vehicle_type_id":"4","last_reported":1758716463,"current_range_meters":16800,"station_id":"chh1huq6cuj3fo74tm60","pricing_plan_id":"cebpf4jnsgd1na2vs0mg"},{"bike_id":"3d63dc87-0f79-48d0-92cf-4a3f647e1552","system_id":"levelo_inurba_marseille","lat":43.31379,"lon":5.38486,"is_reserved":false,"is_disabled":false,"rental_uris":{"android":"levelo://app?vid=3d63dc87-0f79-48d0-92cf-4a3f647e1552","ios":"levelo://app?vid=3d63dc87-0f79-48d0-92cf-4a3f647e1552"},"vehicle_type_id":"4","last_reported":1758716463,"current_range_meters":16800,"station_id":"ce4bgt92rcd13ifvqcf0","pricing_plan_id":"cebpf4jnsgd1na2vs0mg"},{"bike_id":"8eae954c-dab6-4303-94f5-569e1c483f62","system_id":"levelo_inurba_marseille","lat":43.29461,"lon":5.40731,"is_reserved":false,"is_disabled":false,"rental_uris":{"android":"levelo://app?vid=8eae954c-dab6-4303-94f5-569e1c483f62","ios":"levelo://app?vid=8eae954c-dab6-4303-94f5-569e1c483f62"},"vehicle_type_id":"4","last_reported":1758716463,"current_range_meters":16800,"station_id":"","pricing_plan_id":"cebpf4jnsgd1na2vs0mg"},{"bike_id":"0e9ca394-4351-4bf8-a641-f4e5215baf20","system_id":"levelo_inurba_marseille","lat":43.28281,"lon":5.35066,"is_reserved":false,"is_disabled":false,"rental_uris":{"android":"levelo://app?vid=0e9ca394-4351-4bf8-a641-f4e5215baf20","ios":"levelo://app?vid=0e9ca394-4351-4bf8-a641-f4e5215baf20"},"vehicle_type_id":"4","last_reported":1758716463,"current_range_meters":16800,"station_id":"ce4bhbp2rcd13ifvqerg","pricing_plan_id":"cebpf4jnsgd1na2vs0mg"},{"bike_id":"002673c7-e49b-40c2-82da-6cf2f4393eb8","system_id":"levelo_inurba_marseille","lat":43.30442,"lon":5.37902,"is_reserved":false,"is_disabled":true,"rental_uris":{"android":"levelo://app?vid=002673c7-e49b-40c2-82da-6cf2f4393eb8","ios":"levelo://app?vid=002673c7-e49b-40c2-82da-6cf2f4393eb8"},"vehicle_type_id":"4","last_reported":1758716463,"current_range_meters":16800,"station_id":"ce4bgup2rcd13ifvqcn0","pricing_plan_id":"cebpf4jnsgd1na2vs0mg"},{"bike_id":"129c8450-4cca-4e9f-b9f6-538b0080ad49","system_id":"levelo_inurba_marseille","lat":43.325501,"lon":5.389075,"is_reserved":false,"is_disabled":false,"rental_uris":{"android":"levelo://app?vid=129c8450-4cca-4e9f-b9f6-538b0080ad49","ios":"levelo://app?vid=129c8450-4cca-4e9f-b9f6-538b0080ad49"},"vehicle_type_id":"4","last_reported":1758716463,"current_range_meters":16800,"station_id":"","pricing_plan_id":"cebpf4jnsgd1na2vs0mg"},{"bike_id":"8a828295-28e2-4f47-bc01-1374c80f32a1","system_id":"levelo_inurba_marseille","lat":43.23967,"lon":5.36618,"is_reserved":false,"is_disabled":false,"rental_uris":{"android":"levelo://app?vid=8a828295-28e2-4f47-bc01-1374c80f32a1","ios":"levelo://app?vid=8a828295-28e2-4f47-bc01-1374c80f32a1"},"vehicle_type_id":"4","last_reported":1758716463,"current_range_meters":17200,"station_id":"","pricing_plan_id":"cebpf4jnsgd1na2vs0mg"},{"bike_id":"c466a28d-fba0-4329-ba12-a130eb482e2c","system_id":"levelo_inurba_marseille","lat":43.30152,"lon":5.38078,"is_reserved":false,"is_disabled":false,"rental_uris":{"android":"levelo://app?vid=c466a28d-fba0-4329-ba12-a130eb482e2c","ios":"levelo://app?vid=c466a28d-fba0-4329-ba12-a130eb482e2c"},"vehicle_type_id":"4","last_reported":1758716463,"current_range_meters":17200,"station_id":"ce4bgjp2rcd13ifvqbh0","pricing_plan_id":"cebpf4jnsgd1na2vs0mg"},{"bike_id":"cdd9250b-20c0-48e2-b45b-56204b8135aa","system_id":"levelo_inurba_marseille","lat":43.30296,"lon":5.37693,"is_reserved":false,"is_disabled":false,"rental_uris":{"android":"levelo://app?vid=cdd9250b-20c0-48e2-b45b-56204b8135aa","ios":"levelo://app?vid=cdd9250b-20c0-48e2-b45b-56204b8135aa"},"vehicle_type_id":"4","last_reported":1758716463,"current_range_meters":17200,"station_id":"ce4bguh2rcd13ifvqcj0","pricing_plan_id":"cebpf4jnsgd1na2vs0mg"},{"bike_id":"6ce97256-6e29-4ee4-b817-ac92bdd5aea1","system_id":"levelo_inurba_marseille","lat":43.22534,"lon":5.34835,"is_reserved":false,"is_disabled":false,"rental_uris":{"android":"levelo://app?vid=6ce97256-6e29-4ee4-b817-ac92bdd5aea1","ios":"levelo://app?vid=6ce97256-6e29-4ee4-b817-ac92bdd5aea1"},"vehicle_type_id":"4","last_reported":1758716463,"current_range_meters":17200,"station_id":"","pricing_plan_id":"cebpf4jnsgd1na2vs0mg"},{"bike_id":"e8e0a80f-25dc-47ab-ae8b-3cbce8fbad61","system_id":"levelo_inurba_marseille","lat":43.24177,"lon":5.3972,"is_reserved":false,"is_disabled":false,"rental_uris":{"android":"levelo://app?vid=e8e0a80f-25dc-47ab-ae8b-3cbce8fbad61","ios":"levelo://app?vid=e8e0a80f-25dc-47ab-ae8b-3cbce8fbad61"},"vehicle_type_id":"4","last_reported":1758716463,"current_range_meters":17200,"station_id":"ce4bhn12rcd13ifvqgpg","pricing_plan_id":"cebpf4jnsgd1na2vs0mg"},{"bike_id":"a6ad0c6c-868d-42f3-ba54-573e1a175a36","system_id":"levelo_inurba_marseille","lat":43.26259,"lon":5.4129,"is_reserved":false,"is_disabled":false,"rental_uris":{"android":"levelo://app?vid=a6ad0c6c-868d-42f3-ba54-573e1a175a36","ios":"levelo://app?vid=a6ad0c6c-868d-42f3-ba54-573e1a175a36"},"vehicle_type_id":"4","last_reported":1758716463,"current_range_meters":17200,"station_id":"","pricing_plan_id":"cebpf4jnsgd1na2vs0mg"},{"bike_id":"01e07cf5-8211-444c-b3c6-74aa7d15ada5","system_id":"levelo_inurba_marseille","lat":43.26571,"lon":5.39016,"is_reserved":false,"is_disabled":false,"rental_uris":{"android":"levelo://app?vid=01e07cf5-8211-444c-b3c6-74aa7d15ada5","ios":"levelo://app?vid=01e07cf5-8211-444c-b3c6-74aa7d15ada5"},"vehicle_type_id":"4","last_reported":1758716463,"current_range_meters":17200,"station_id":"ce4bhe12rcd13ifvqf30","pricing_plan_id":"cebpf4jnsgd1na2vs0mg"},{"bike_id":"37dbad61-99b5-4633-8b38-e5f4f0eb6c9c","system_id":"levelo_inurba_marseille","lat":43.2985,"lon":5.36282,"is_reserved":false,"is_disabled":false,"rental_uris":{"android":"levelo://app?vid=37dbad61-99b5-4633-8b38-e5f4f0eb6c9c","ios":"levelo://app?vid=37dbad61-99b5-4633-8b38-e5f4f0eb6c9c"},"vehicle_type_id":"4","last_reported":1758716463,"current_range_meters":17600,"station_id":"ce4bgpp2rcd13ifvqc3g","pricing_plan_id":"cebpf4jnsgd1na2vs0mg"},{"bike_id":"5b2e4301-8a04-44b6-bb74-5f97ee4e1633","system_id":"levelo_inurba_marseille","lat":43.27374,"lon":5.36263,"is_reserved":false,"is_disabled":false,"rental_uris":{"android":"levelo://app?vid=5b2e4301-8a04-44b6-bb74-5f97ee4e1633","ios":"levelo://app?vid=5b2e4301-8a04-44b6-bb74-5f97ee4e1633"},"vehicle_type_id":"4","last_reported":1758716463,"current_range_meters":17600,"station_id":"ce4bhbh2rcd13ifvqeo0","pricing_plan_id":"cebpf4jnsgd1na2vs0mg"},{"bike_id":"2bd2a176-8590-4e06-8b8c-a96b49b7b36a","system_id":"levelo_inurba_marseille","lat":43.262237,"lon":5.404538,"is_reserved":false,"is_disabled":false,"rental_uris":{"android":"levelo://app?vid=2bd2a176-8590-4e06-8b8c-a96b49b7b36a","ios":"levelo://app?vid=2bd2a176-8590-4e06-8b8c-a96b49b7b36a"},"vehicle_type_id":"4","last_reported":1758716463,"current_range_meters":17600,"station_id":"","pricing_plan_id":"cebpf4jnsgd1na2vs0mg"},{"bike_id":"60bb6711-c67f-48f5-980f-2f7c2db682fb","system_id":"levelo_inurba_marseille","lat":43.284824,"lon":5.384201,"is_reserved":false,"is_disabled":false,"rental_uris":{"android":"levelo://app?vid=60bb6711-c67f-48f5-980f-2f7c2db682fb","ios":"levelo://app?vid=60bb6711-c67f-48f5-980f-2f7c2db682fb"},"vehicle_type_id":"4","last_reported":1758716463,"current_range_meters":17200,"station_id":"ce4bh512rcd13ifvqe3g","pricing_plan_id":"cebpf4jnsgd1na2vs0mg"},{"bike_id":"16d9a464-95f6-4241-939a-8d28eb548d4d","system_id":"levelo_inurba_marseille","lat":43.28609,"lon":5.3511,"is_reserved":false,"is_disabled":false,"rental_uris":{"android":"levelo://app?vid=16d9a464-95f6-4241-939a-8d28eb548d4d","ios":"levelo://app?vid=16d9a464-95f6-4241-939a-8d28eb548d4d"},"vehicle_type_id":"4","last_reported":1758716463,"current_range_meters":17600,"station_id":"ce4bhch2rcd13ifvqeug","pricing_plan_id":"cebpf4jnsgd1na2vs0mg"},{"bike_id":"7f26efef-5bca-4964-9649-a135cb9baf4f","system_id":"levelo_inurba_marseille","lat":43.25088,"lon":5.39502,"is_reserved":false,"is_disabled":false,"rental_uris":{"android":"levelo://app?vid=7f26efef-5bca-4964-9649-a135cb9baf4f","ios":"levelo://app?vid=7f26efef-5bca-4964-9649-a135cb9baf4f"},"vehicle_type_id":"4","last_reported":1758716463,"current_range_meters":17600,"station_id":"ce4bhm12rcd13ifvqgkg","pricing_plan_id":"cebpf4jnsgd1na2vs0mg"},{"bike_id":"11408cb7-0658-4ef9-8469-242586e597c9","system_id":"levelo_inurba_marseille","lat":43.30948,"lon":5.390441,"is_reserved":false,"is_disabled":false,"rental_uris":{"android":"levelo://app?vid=11408cb7-0658-4ef9-8469-242586e597c9","ios":"levelo://app?vid=11408cb7-0658-4ef9-8469-242586e597c9"},"vehicle_type_id":"4","last_reported":1758716463,"current_range_meters":17600,"station_id":"ce4bgup2rcd13ifvqco0","pricing_plan_id":"cebpf4jnsgd1na2vs0mg"},{"bike_id":"c5e35d50-1334-4251-9e23-b568a1a449ad","system_id":"levelo_inurba_marseille","lat":43.30273,"lon":5.37703,"is_reserved":false,"is_disabled":false,"rental_uris":{"android":"levelo://app?vid=c5e35d50-1334-4251-9e23-b568a1a449ad","ios":"levelo://app?vid=c5e35d50-1334-4251-9e23-b568a1a449ad"},"vehicle_type_id":"4","last_reported":1758716463,"current_range_meters":17600,"station_id":"ce4bguh2rcd13ifvqcj0","pricing_plan_id":"cebpf4jnsgd1na2vs0mg"},{"bike_id":"aef30870-1e91-4809-ab35-bf969d0e4f3f","system_id":"levelo_inurba_marseille","lat":43.2843,"lon":5.3499,"is_reserved":false,"is_disabled":false,"rental_uris":{"android":"levelo://app?vid=aef30870-1e91-4809-ab35-bf969d0e4f3f","ios":"levelo://app?vid=aef30870-1e91-4809-ab35-bf969d0e4f3f"},"vehicle_type_id":"4","last_reported":1758716463,"current_range_meters":17600,"station_id":"ce4bhbh2rcd13ifvqepg","pricing_plan_id":"cebpf4jnsgd1na2vs0mg"},{"bike_id":"c53a8e17-9975-4b48-87b9-9f76dde84867","system_id":"levelo_inurba_marseille","lat":43.2757,"lon":5.38429,"is_reserved":false,"is_disabled":false,"rental_uris":{"android":"levelo://app?vid=c53a8e17-9975-4b48-87b9-9f76dde84867","ios":"levelo://app?vid=c53a8e17-9975-4b48-87b9-9f76dde84867"},"vehicle_type_id":"4","last_reported":1758716463,"current_range_meters":17600,"station_id":"ce4bhh92rcd13ifvqfi0","pricing_plan_id":"cebpf4jnsgd1na2vs0mg"},{"bike_id":"3faf8d32-aa97-4672-a06e-1d2afe2fa345","system_id":"levelo_inurba_marseille","lat":43.32484,"lon":5.36617,"is_reserved":false,"is_disabled":false,"rental_uris":{"android":"levelo://app?vid=3faf8d32-aa97-4672-a06e-1d2afe2fa345","ios":"levelo://app?vid=3faf8d32-aa97-4672-a06e-1d2afe2fa345"},"vehicle_type_id":"4","last_reported":1758716463,"current_range_meters":17600,"station_id":"ce4bhs12rcd13ifvqhvg","pricing_plan_id":"cebpf4jnsgd1na2vs0mg"},{"bike_id":"53812b58-9ac3-431d-9ae0-cf5a2600f457","system_id":"levelo_inurba_marseille","lat":43.28418,"lon":5.3498,"is_reserved":false,"is_disabled":false,"rental_uris":{"android":"levelo://app?vid=53812b58-9ac3-431d-9ae0-cf5a2600f457","ios":"levelo://app?vid=53812b58-9ac3-431d-9ae0-cf5a2600f457"},"vehicle_type_id":"4","last_reported":1758716463,"current_range_meters":18000,"station_id":"ce4bhbh2rcd13ifvqepg","pricing_plan_id":"cebpf4jnsgd1na2vs0mg"},{"bike_id":"003515e8-8117-44bb-979d-5f47e8d50fda","system_id":"levelo_inurba_marseille","lat":43.30635,"lon":5.37571,"is_reserved":false,"is_disabled":false,"rental_uris":{"android":"levelo://app?vid=003515e8-8117-44bb-979d-5f47e8d50fda","ios":"levelo://app?vid=003515e8-8117-44bb-979d-5f47e8d50fda"},"vehicle_type_id":"4","last_reported":1758716463,"current_range_meters":18000,"station_id":"","pricing_plan_id":"cebpf4jnsgd1na2vs0mg"},{"bike_id":"429b97eb-f7cc-4d35-b219-e8e26e3f47e0","system_id":"levelo_inurba_marseille","lat":43.273755,"lon":5.362626,"is_reserved":false,"is_disabled":false,"rental_uris":{"android":"levelo://app?vid=429b97eb-f7cc-4d35-b219-e8e26e3f47e0","ios":"levelo://app?vid=429b97eb-f7cc-4d35-b219-e8e26e3f47e0"},"vehicle_type_id":"4","last_reported":1758716463,"current_range_meters":18000,"station_id":"ce4bhbh2rcd13ifvqeo0","pricing_plan_id":"cebpf4jnsgd1na2vs0mg"},{"bike_id":"1211aadb-ee34-4155-a25d-29c939b49c5a","system_id":"levelo_inurba_marseille","lat":43.23155,"lon":5.43722,"is_reserved":false,"is_disabled":false,"rental_uris":{"android":"levelo://app?vid=1211aadb-ee34-4155-a25d-29c939b49c5a","ios":"levelo://app?vid=1211aadb-ee34-4155-a25d-29c939b49c5a"},"vehicle_type_id":"4","last_reported":1758716463,"current_range_meters":18000,"station_id":"ce4bhmp2rcd13ifvqgog","pricing_plan_id":"cebpf4jnsgd1na2vs0mg"},{"bike_id":"2865e8a9-e6fd-47b8-8029-33c3420fdb82","system_id":"levelo_inurba_marseille","lat":43.29938,"lon":5.36541,"is_reserved":false,"is_disabled":false,"rental_uris":{"android":"levelo://app?vid=2865e8a9-e6fd-47b8-8029-33c3420fdb82","ios":"levelo://app?vid=2865e8a9-e6fd-47b8-8029-33c3420fdb82"},"vehicle_type_id":"4","last_reported":1758716463,"current_range_meters":18000,"station_id":"ce4bgm92rcd13ifvqbr0","pricing_plan_id":"cebpf4jnsgd1na2vs0mg"},{"bike_id":"e1864d3e-b11d-4ddc-8504-46d411ba79ba","system_id":"levelo_inurba_marseille","lat":43.25131,"lon":5.40346,"is_reserved":false,"is_disabled":false,"rental_uris":{"android":"levelo://app?vid=e1864d3e-b11d-4ddc-8504-46d411ba79ba","ios":"levelo://app?vid=e1864d3e-b11d-4ddc-8504-46d411ba79ba"},"vehicle_type_id":"4","last_reported":1758716463,"current_range_meters":18000,"station_id":"ce4bhlh2rcd13ifvqgig","pricing_plan_id":"cebpf4jnsgd1na2vs0mg"},{"bike_id":"990ba792-dc2d-4efa-87ef-fb5523db7cc4","system_id":"levelo_inurba_marseille","lat":43.27312,"lon":5.3907,"is_reserved":false,"is_disabled":false,"rental_uris":{"android":"levelo://app?vid=990ba792-dc2d-4efa-87ef-fb5523db7cc4","ios":"levelo://app?vid=990ba792-dc2d-4efa-87ef-fb5523db7cc4"},"vehicle_type_id":"4","last_reported":1758716463,"current_range_meters":17600,"station_id":"ce4bhgp2rcd13ifvqfe0","pricing_plan_id":"cebpf4jnsgd1na2vs0mg"},{"bike_id":"53b7bcc6-b46c-4df8-9d52-52f46ac90baf","system_id":"levelo_inurba_marseille","lat":43.3135,"lon":5.36716,"is_reserved":false,"is_disabled":false,"rental_uris":{"android":"levelo://app?vid=53b7bcc6-b46c-4df8-9d52-52f46ac90baf","ios":"levelo://app?vid=53b7bcc6-b46c-4df8-9d52-52f46ac90baf"},"vehicle_type_id":"4","last_reported":1758716463,"current_range_meters":18000,"station_id":"ce4bgr92rcd13ifvqc6g","pricing_plan_id":"cebpf4jnsgd1na2vs0mg"},{"bike_id":"212de2eb-8bbc-413c-b204-9fe1facd76e8","system_id":"levelo_inurba_marseille","lat":43.31288,"lon":5.3776,"is_reserved":false,"is_disabled":false,"rental_uris":{"android":"levelo://app?vid=212de2eb-8bbc-413c-b204-9fe1facd76e8","ios":"levelo://app?vid=212de2eb-8bbc-413c-b204-9fe1facd76e8"},"vehicle_type_id":"4","last_reported":1758716463,"current_range_meters":18000,"station_id":"","pricing_plan_id":"cebpf4jnsgd1na2vs0mg"},{"bike_id":"0dc8c7c3-84cd-4e36-aa7c-e01b81bb379e","system_id":"levelo_inurba_marseille","lat":43.28854,"lon":5.35866,"is_reserved":false,"is_disabled":false,"rental_uris":{"android":"levelo://app?vid=0dc8c7c3-84cd-4e36-aa7c-e01b81bb379e","ios":"levelo://app?vid=0dc8c7c3-84cd-4e36-aa7c-e01b81bb379e"},"vehicle_type_id":"4","last_reported":1758716463,"current_range_meters":18800,"station_id":"ce4bhb12rcd13ifvqem0","pricing_plan_id":"cebpf4jnsgd1na2vs0mg"},{"bike_id":"71b530dc-16dd-4ef7-b73c-63c1d69cb1d4","system_id":"levelo_inurba_marseille","lat":43.257309,"lon":5.410982,"is_reserved":false,"is_disabled":false,"rental_uris":{"android":"levelo://app?vid=71b530dc-16dd-4ef7-b73c-63c1d69cb1d4","ios":"levelo://app?vid=71b530dc-16dd-4ef7-b73c-63c1d69cb1d4"},"vehicle_type_id":"4","last_reported":1758716463,"current_range_meters":18800,"station_id":"ce4bhkp2rcd13ifvqgd0","pricing_plan_id":"cebpf4jnsgd1na2vs0mg"},{"bike_id":"da9d9da0-c16c-4937-a246-2efd71bbf6b7","system_id":"levelo_inurba_marseille","lat":43.295348,"lon":5.385468,"is_reserved":false,"is_disabled":false,"rental_uris":{"android":"levelo://app?vid=da9d9da0-c16c-4937-a246-2efd71bbf6b7","ios":"levelo://app?vid=da9d9da0-c16c-4937-a246-2efd71bbf6b7"},"vehicle_type_id":"4","last_reported":1758716463,"current_range_meters":18800,"station_id":"ce4bgih2rcd13ifvqba0","pricing_plan_id":"cebpf4jnsgd1na2vs0mg"},{"bike_id":"b33afcb9-323b-4b25-b34a-d7ff770bee10","system_id":"levelo_inurba_marseille","lat":43.27373,"lon":5.362649,"is_reserved":false,"is_disabled":false,"rental_uris":{"android":"levelo://app?vid=b33afcb9-323b-4b25-b34a-d7ff770bee10","ios":"levelo://app?vid=b33afcb9-323b-4b25-b34a-d7ff770bee10"},"vehicle_type_id":"4","last_reported":1758716463,"current_range_meters":18800,"station_id":"ce4bhbh2rcd13ifvqeo0","pricing_plan_id":"cebpf4jnsgd1na2vs0mg"},{"bike_id":"7f57effa-33de-4b13-b1a9-92ae0044b1d0","system_id":"levelo_inurba_marseille","lat":43.26039,"lon":5.37546,"is_reserved":false,"is_disabled":false,"rental_uris":{"android":"levelo://app?vid=7f57effa-33de-4b13-b1a9-92ae0044b1d0","ios":"levelo://app?vid=7f57effa-33de-4b13-b1a9-92ae0044b1d0"},"vehicle_type_id":"4","last_reported":1758716463,"current_range_meters":18800,"station_id":"ce4bhgh2rcd13ifvqfa0","pricing_plan_id":"cebpf4jnsgd1na2vs0mg"},{"bike_id":"b15170a6-7d67-41e7-ae17-21693ff080a3","system_id":"levelo_inurba_marseille","lat":43.25876,"lon":5.39893,"is_reserved":false,"is_disabled":false,"rental_uris":{"android":"levelo://app?vid=b15170a6-7d67-41e7-ae17-21693ff080a3","ios":"levelo://app?vid=b15170a6-7d67-41e7-ae17-21693ff080a3"},"vehicle_type_id":"4","last_reported":1758716463,"current_range_meters":18800,"station_id":"ce4bhl92rcd13ifvqghg","pricing_plan_id":"cebpf4jnsgd1na2vs0mg"},{"bike_id":"61dac284-ed12-40f7-87d4-2a4b14a01811","system_id":"levelo_inurba_marseille","lat":43.30142,"lon":5.38126,"is_reserved":false,"is_disabled":false,"rental_uris":{"android":"levelo://app?vid=61dac284-ed12-40f7-87d4-2a4b14a01811","ios":"levelo://app?vid=61dac284-ed12-40f7-87d4-2a4b14a01811"},"vehicle_type_id":"4","last_reported":1758716463,"current_range_meters":18800,"station_id":"ce4bgjp2rcd13ifvqbh0","pricing_plan_id":"cebpf4jnsgd1na2vs0mg"},{"bike_id":"e835ad84-156d-42ba-9cb0-b97753ff0db4","system_id":"levelo_inurba_marseille","lat":43.2895,"lon":5.36426,"is_reserved":false,"is_disabled":false,"rental_uris":{"android":"levelo://app?vid=e835ad84-156d-42ba-9cb0-b97753ff0db4","ios":"levelo://app?vid=e835ad84-156d-42ba-9cb0-b97753ff0db4"},"vehicle_type_id":"4","last_reported":1758716463,"current_range_meters":18800,"station_id":"ce4bhc92rcd13ifvqetg","pricing_plan_id":"cebpf4jnsgd1na2vs0mg"},{"bike_id":"03ff77bd-ede2-4d5a-9f54-eda1555bfd56","system_id":"levelo_inurba_marseille","lat":43.29534,"lon":5.385404,"is_reserved":false,"is_disabled":false,"rental_uris":{"android":"levelo://app?vid=03ff77bd-ede2-4d5a-9f54-eda1555bfd56","ios":"levelo://app?vid=03ff77bd-ede2-4d5a-9f54-eda1555bfd56"},"vehicle_type_id":"4","last_reported":1758716463,"current_range_meters":18000,"station_id":"ce4bgih2rcd13ifvqba0","pricing_plan_id":"cebpf4jnsgd1na2vs0mg"},{"bike_id":"b5449f1b-c65a-46a9-b35e-f7fb812114a3","system_id":"levelo_inurba_marseille","lat":43.23147,"lon":5.43721,"is_reserved":false,"is_disabled":false,"rental_uris":{"android":"levelo://app?vid=b5449f1b-c65a-46a9-b35e-f7fb812114a3","ios":"levelo://app?vid=b5449f1b-c65a-46a9-b35e-f7fb812114a3"},"vehicle_type_id":"4","last_reported":1758716463,"current_range_meters":18800,"station_id":"ce4bhmp2rcd13ifvqgog","pricing_plan_id":"cebpf4jnsgd1na2vs0mg"},{"bike_id":"327c041e-5c9e-4b0d-a97c-a2dbaab036ae","system_id":"levelo_inurba_marseille","lat":43.32817,"lon":5.41136,"is_reserved":false,"is_disabled":false,"rental_uris":{"android":"levelo://app?vid=327c041e-5c9e-4b0d-a97c-a2dbaab036ae","ios":"levelo://app?vid=327c041e-5c9e-4b0d-a97c-a2dbaab036ae"},"vehicle_type_id":"4","last_reported":1758716463,"current_range_meters":19200,"station_id":"","pricing_plan_id":"cebpf4jnsgd1na2vs0mg"},{"bike_id":"ef6558a1-aae9-4158-9d1e-a03efb171c32","system_id":"levelo_inurba_marseille","lat":43.31223,"lon":5.368576,"is_reserved":false,"is_disabled":false,"rental_uris":{"android":"levelo://app?vid=ef6558a1-aae9-4158-9d1e-a03efb171c32","ios":"levelo://app?vid=ef6558a1-aae9-4158-9d1e-a03efb171c32"},"vehicle_type_id":"4","last_reported":1758716463,"current_range_meters":18800,"station_id":"ce4bgl92rcd13ifvqbq0","pricing_plan_id":"cebpf4jnsgd1na2vs0mg"},{"bike_id":"3b86c134-9b53-4bc2-ba64-90ce3f117a7d","system_id":"levelo_inurba_marseille","lat":43.30195,"lon":5.36623,"is_reserved":false,"is_disabled":false,"rental_uris":{"android":"levelo://app?vid=3b86c134-9b53-4bc2-ba64-90ce3f117a7d","ios":"levelo://app?vid=3b86c134-9b53-4bc2-ba64-90ce3f117a7d"},"vehicle_type_id":"4","last_reported":1758716463,"current_range_meters":19200,"station_id":"ce4bgrh2rcd13ifvqc8g","pricing_plan_id":"cebpf4jnsgd1na2vs0mg"},{"bike_id":"21bec37d-c496-4274-b764-adc4cae019ab","system_id":"levelo_inurba_marseille","lat":43.30122,"lon":5.37411,"is_reserved":false,"is_disabled":false,"rental_uris":{"android":"levelo://app?vid=21bec37d-c496-4274-b764-adc4cae019ab","ios":"levelo://app?vid=21bec37d-c496-4274-b764-adc4cae019ab"},"vehicle_type_id":"4","last_reported":1758716463,"current_range_meters":19200,"station_id":"ce4bgs92rcd13ifvqcc0","pricing_plan_id":"cebpf4jnsgd1na2vs0mg"},{"bike_id":"df2402b7-15ba-458c-b1c3-78312cbf20d4","system_id":"levelo_inurba_marseille","lat":43.29783,"lon":5.37106,"is_reserved":false,"is_disabled":false,"rental_uris":{"android":"levelo://app?vid=df2402b7-15ba-458c-b1c3-78312cbf20d4","ios":"levelo://app?vid=df2402b7-15ba-458c-b1c3-78312cbf20d4"},"vehicle_type_id":"4","last_reported":1758716463,"current_range_meters":19200,"station_id":"ce4bgop2rcd13ifvqc1g","pricing_plan_id":"cebpf4jnsgd1na2vs0mg"},{"bike_id":"e36db1cf-e24d-4169-9bb9-2be9d199371d","system_id":"levelo_inurba_marseille","lat":43.24548,"lon":5.3953,"is_reserved":false,"is_disabled":false,"rental_uris":{"android":"levelo://app?vid=e36db1cf-e24d-4169-9bb9-2be9d199371d","ios":"levelo://app?vid=e36db1cf-e24d-4169-9bb9-2be9d199371d"},"vehicle_type_id":"4","last_reported":1758716463,"current_range_meters":19200,"station_id":"ce4bhlp2rcd13ifvqgjg","pricing_plan_id":"cebpf4jnsgd1na2vs0mg"},{"bike_id":"d55f7cff-ce18-4107-992e-8cb8fb12b05f","system_id":"levelo_inurba_marseille","lat":43.23197,"lon":5.35557,"is_reserved":false,"is_disabled":false,"rental_uris":{"android":"levelo://app?vid=d55f7cff-ce18-4107-992e-8cb8fb12b05f","ios":"levelo://app?vid=d55f7cff-ce18-4107-992e-8cb8fb12b05f"},"vehicle_type_id":"4","last_reported":1758716463,"current_range_meters":19600,"station_id":"ce4bhu92rcd13ifvqi70","pricing_plan_id":"cebpf4jnsgd1na2vs0mg"},{"bike_id":"f897d300-643c-4c7a-951b-f56d70ef23ca","system_id":"levelo_inurba_marseille","lat":43.30318,"lon":5.39077,"is_reserved":false,"is_disabled":false,"rental_uris":{"android":"levelo://app?vid=f897d300-643c-4c7a-951b-f56d70ef23ca","ios":"levelo://app?vid=f897d300-643c-4c7a-951b-f56d70ef23ca"},"vehicle_type_id":"4","last_reported":1758716463,"current_range_meters":19600,"station_id":"","pricing_plan_id":"cebpf4jnsgd1na2vs0mg"},{"bike_id":"725b1ff1-3894-44f1-a38e-91bc39cbab7e","system_id":"levelo_inurba_marseille","lat":43.246351,"lon":5.431445,"is_reserved":false,"is_disabled":false,"rental_uris":{"android":"levelo://app?vid=725b1ff1-3894-44f1-a38e-91bc39cbab7e","ios":"levelo://app?vid=725b1ff1-3894-44f1-a38e-91bc39cbab7e"},"vehicle_type_id":"4","last_reported":1758716463,"current_range_meters":19600,"station_id":"st_d2m6c4gdas8pm72e190g","pricing_plan_id":"cebpf4jnsgd1na2vs0mg"},{"bike_id":"175760d5-253d-4692-91bd-1ac0c3f225e0","system_id":"levelo_inurba_marseille","lat":43.30888,"lon":5.39638,"is_reserved":false,"is_disabled":false,"rental_uris":{"android":"levelo://app?vid=175760d5-253d-4692-91bd-1ac0c3f225e0","ios":"levelo://app?vid=175760d5-253d-4692-91bd-1ac0c3f225e0"},"vehicle_type_id":"4","last_reported":1758716463,"current_range_meters":19600,"station_id":"ce4bh012rcd13ifvqcv0","pricing_plan_id":"cebpf4jnsgd1na2vs0mg"},{"bike_id":"0c16ac8a-a536-4d89-a0b4-2803631fd83e","system_id":"levelo_inurba_marseille","lat":43.25003,"lon":5.38942,"is_reserved":false,"is_disabled":false,"rental_uris":{"android":"levelo://app?vid=0c16ac8a-a536-4d89-a0b4-2803631fd83e","ios":"levelo://app?vid=0c16ac8a-a536-4d89-a0b4-2803631fd83e"},"vehicle_type_id":"4","last_reported":1758716463,"current_range_meters":19600,"station_id":"ce4bhgp2rcd13ifvqfd0","pricing_plan_id":"cebpf4jnsgd1na2vs0mg"},{"bike_id":"5421b11f-6375-4f74-ac12-c335a87fc8b3","system_id":"levelo_inurba_marseille","lat":43.31516,"lon":5.37295,"is_reserved":false,"is_disabled":false,"rental_uris":{"android":"levelo://app?vid=5421b11f-6375-4f74-ac12-c335a87fc8b3","ios":"levelo://app?vid=5421b11f-6375-4f74-ac12-c335a87fc8b3"},"vehicle_type_id":"4","last_reported":1758716463,"current_range_meters":19600,"station_id":"ce4bgt12rcd13ifvqcd0","pricing_plan_id":"cebpf4jnsgd1na2vs0mg"},{"bike_id":"d31d856a-933d-49cf-948f-ce03657dfc74","system_id":"levelo_inurba_marseille","lat":43.28429,"lon":5.34984,"is_reserved":false,"is_disabled":false,"rental_uris":{"android":"levelo://app?vid=d31d856a-933d-49cf-948f-ce03657dfc74","ios":"levelo://app?vid=d31d856a-933d-49cf-948f-ce03657dfc74"},"vehicle_type_id":"4","last_reported":1758716463,"current_range_meters":19600,"station_id":"ce4bhbh2rcd13ifvqepg","pricing_plan_id":"cebpf4jnsgd1na2vs0mg"},