{"last_updated":1739203885,"ttl":60,"version":"2.2","data":{"bikes":[{"bike_id":"5cda301b-bce8-41d3-abea-2e981f99524e","system_id":"levelo_inurba_marseille","lat":43.2985,"lon":5.36295,"is_reserved":false,"is_disabled":false,"rental_uris":{"android":"levelo://app?vid=5cda301b-bce8-41d3-abea-2e981f99524e","ios":"levelo://app?vid=5cda301b-bce8-41d3-abea-2e981f99524e"},"vehicle_type_id":"4","last_reported":1739203886,"current_range_meters":28800,"station_id":"ce4bgpp2rcd13ifvqc3g","pricing_plan_id":"cebpf4jnsgd1na2vs0mg"},{"bike_id":"4f7a648d-0884-4b7c-afa9-00d4603e5e75","system_id":"levelo_inurba_marseille","lat":43.31129,"lon":5.37773,"is_reserved":false,"is_disabled":false,"rental_uris":{"android":"levelo://app?vid=4f7a648d-0884-4b7c-afa9-00d4603e5e75","ios":"levelo://app?vid=4f7a648d-0884-4b7c-afa9-00d4603e5e75"},"vehicle_type_id":"4","last_reported":1739203886,"current_range_meters":38800,"station_id":"ce4bgt92rcd13ifvqcg0","pricing_plan_id":"cebpf4jnsgd1na2vs0mg"},{"bike_id":"e7d8ed8c-85a3-44c3-8805-56fbe310205d","system_id":"levelo_inurba_marseille","lat":43.28417,"lon":5.37518,"is_reserved":false,"is_disabled":false,"rental_uris":{"android":"levelo://app?vid=e7d8ed8c-85a3-44c3-8805-56fbe310205d","ios":"levelo://app?vid=e7d8ed8c-85a3-44c3-8805-56fbe310205d"},"vehicle_type_id":"4","last_reported":1739203886,"current_range_meters":38400,"station_id":"ce4bh412rcd13ifvqds0","pricing_plan_id":"cebpf4jnsgd1na2vs0mg"},{"bike_id":"7d836d2d-c58d-4b58-979b-16543b991174","system_id":"levelo_inurba_marseille","lat":43.26956,"lon":5.38638,"is_reserved":false,"is_disabled":false,"rental_uris":{"android":"levelo://app?vid=7d836d2d-c58d-4b58-979b-16543b991174","ios":"levelo://app?vid=7d836d2d-c58d-4b58-979b-16543b991174"},"vehicle_type_id":"4","last_reported":1739203886,"current_range_meters":26800,"station_id":"ce4bhh92rcd13ifvqfh0","pricing_plan_id":"cebpf4jnsgd1na2vs0mg"},{"bike_id":"b068362a-3288-489d-9388-78d1aec4149d","system_id":"levelo_inurba_marseille","lat":43.26558,"lon":5.38991,"is_reserved":false,"is_disabled":false,"rental_uris":{"android":"levelo://app?vid=b068362a-3288-489d-9388-78d1aec4149d","ios":"levelo://app?vid=b068362a-3288-489d-9388-78d1aec4149d"},"vehicle_type_id":"4","last_reported":1739203886,"current_range_meters":38800,"station_id":"ce4bhe12rcd13ifvqf30","pricing_plan_id":"cebpf4jnsgd1na2vs0mg"},{"bike_id":"35003512-75c3-49c8-8086-09167d6269b1","system_id":"levelo_inurba_marseille","lat":43.27192,"lon":5.39188,"is_reserved":false,"is_disabled":false,"rental_uris":{"android":"levelo://app?vid=35003512-75c3-49c8-8086-09167d6269b1","ios":"levelo://app?vid=35003512-75c3-49c8-8086-09167d6269b1"},"vehicle_type_id":"4","last_reported":1739203886,"current_range_meters":8800,"station_id":"ce4bhhp2rcd13ifvqfm0","pricing_plan_id":"cebpf4jnsgd1na2vs0mg"},{"bike_id":"1e432c46-6902-4068-bc83-c8d18cce47cc","system_id":"levelo_inurba_marseille","lat":43.26054,"lon":5.39391,"is_reserved":false,"is_disabled":false,"rental_uris":{"android":"levelo://app?vid=1e432c46-6902-4068-bc83-c8d18cce47cc","ios":"levelo://app?vid=1e432c46-6902-4068-bc83-c8d18cce47cc"},"vehicle_type_id":"4","last_reported":1739203886,"current_range_meters":38800,"station_id":"ce4bhh92rcd13ifvqfj0","pricing_plan_id":"cebpf4jnsgd1na2vs0mg"},{"bike_id":"3887b386-3ca2-4422-b535-49b5419b189a","system_id":"levelo_inurba_marseille","lat":43.2835,"lon":5.3811,"is_reserved":false,"is_disabled":false,"rental_uris":{"android":"levelo://app?vid=3887b386-3ca2-4422-b535-49b5419b189a","ios":"levelo://app?vid=3887b386-3ca2-4422-b535-49b5419b189a"},"vehicle_type_id":"4","last_reported":1739203886,"current_range_meters":30000,"station_id":"ce4bh412rcd13ifvqdr0","pricing_plan_id":"cebpf4jnsgd1na2vs0mg"},{"bike_id":"cd43b8b3-9bce-4582-844f-517531c1058f","system_id":"levelo_inurba_marseille","lat":43.28268,"lon":5.38553,"is_reserved":false,"is_disabled":false,"rental_uris":{"android":"levelo://app?vid=cd43b8b3-9bce-4582-844f-517531c1058f","ios":"levelo://app?vid=cd43b8b3-9bce-4582-844f-517531c1058f"},"vehicle_type_id":"4","last_reported":1739203886,"current_range_meters":17200,"station_id":"","pricing_plan_id":"cebpf4jnsgd1na2vs0mg"},{"bike_id":"51b9a729-fd90-485f-a462-351308296e2e","system_id":"levelo_inurba_marseille","lat":43.27937,"lon":5.41047,"is_reserved":false,"is_disabled":true,"rental_uris":{"android":"levelo://app?vid=51b9a729-fd90-485f-a462-351308296e2e","ios":"levelo://app?vid=51b9a729-fd90-485f-a462-351308296e2e"},"vehicle_type_id":"4","last_reported":1739203886,"current_range_meters":0,"station_id":"ce4bhnp2rcd13ifvqh0g","pricing_plan_id":"cebpf4jnsgd1na2vs0mg"},{"bike_id":"05cdb0ca-0568-4524-82b6-ade5b3e511a3","system_id":"levelo_inurba_marseille","lat":43.29049,"lon":5.35921,"is_reserved":false,"is_disabled":false,"rental_uris":{"android":"levelo://app?vid=05cdb0ca-0568-4524-82b6-ade5b3e511a3","ios":"levelo://app?vid=05cdb0ca-0568-4524-82b6-ade5b3e511a3"},"vehicle_type_id":"4","last_reported":1739203886,"current_range_meters":38000,"station_id":"ce4bha92rcd13ifvqeg0","pricing_plan_id":"cebpf4jnsgd1na2vs0mg"},{"bike_id":"bf0e0a84-e382-4e78-95d8-af1a941b54c6","system_id":"levelo_inurba_marseille","lat":43.29173,"lon":5.37146,"is_reserved":false,"is_disabled":false,"rental_uris":{"android":"levelo://app?vid=bf0e0a84-e382-4e78-95d8-af1a941b54c6","ios":"levelo://app?vid=bf0e0a84-e382-4e78-95d8-af1a941b54c6"},"vehicle_type_id":"4","last_reported":1739203886,"current_range_meters":20400,"station_id":"ce4bha92rcd13ifvqeh0","pricing_plan_id":"cebpf4jnsgd1na2vs0mg"},{"bike_id":"cd46e1b5-4131-4fb2-ad62-160cac932da1","system_id":"levelo_inurba_marseille","lat":43.29788,"lon":5.38109,"is_reserved":false,"is_disabled":false,"rental_uris":{"android":"levelo://app?vid=cd46e1b5-4131-4fb2-ad62-160cac932da1","ios":"levelo://app?vid=cd46e1b5-4131-4fb2-ad62-160cac932da1"},"vehicle_type_id":"4","last_reported":1739203886,"current_range_meters":22800,"station_id":"ce4bgip2rcd13ifvqbb0","pricing_plan_id":"cebpf4jnsgd1na2vs0mg"},{"bike_id":"6d65ae34-2ff7-46e5-b87e-38814047fdee","system_id":"levelo_inurba_marseille","lat":43.31725,"lon":5.40468,"is_reserved":false,"is_disabled":false,"rental_uris":{"android":"levelo://app?vid=6d65ae34-2ff7-46e5-b87e-38814047fdee","ios":"levelo://app?vid=6d65ae34-2ff7-46e5-b87e-38814047fdee"},"vehicle_type_id":"4","last_reported":1739203886,"current_range_meters":38800,"station_id":"ce4bh012rcd13ifvqd00","pricing_plan_id":"cebpf4jnsgd1na2vs0mg"},{"bike_id":"4a223305-3a4a-41de-bb70-9a7d7094342b","system_id":"levelo_inurba_marseille","lat":43.25105,"lon":5.40326,"is_reserved":false,"is_disabled":false,"rental_uris":{"android":"levelo://app?vid=4a223305-3a4a-41de-bb70-9a7d7094342b","ios":"levelo://app?vid=4a223305-3a4a-41de-bb70-9a7d7094342b"},"vehicle_type_id":"4","last_reported":1739203886,"current_range_meters":30800,"station_id":"ce4bhlh2rcd13ifvqgig","pricing_plan_id":"cebpf4jnsgd1na2vs0mg"},{"bike_id":"4d204692-43d3-495c-b2d3-51ca2587e954","system_id":"levelo_inurba_marseille","lat":43.26927,"lon":5.40243,"is_reserved":false,"is_disabled":false,"rental_uris":{"android":"levelo://app?vid=4d204692-43d3-495c-b2d3-51ca2587e954","ios":"levelo://app?vid=4d204692-43d3-495c-b2d3-51ca2587e954"},"vehicle_type_id":"4","last_reported":1739203886,"current_range_meters":24000,"station_id":"cjm6bp8fraef2m0cb0m0","pricing_plan_id":"cebpf4jnsgd1na2vs0mg"},{"bike_id":"4fec62a4-5d14-461f-a07c-ceeb3a48fbed","system_id":"levelo_inurba_marseille","lat":43.31077,"lon":5.38364,"is_reserved":false,"is_disabled":false,"rental_uris":{"android":"levelo://app?vid=4fec62a4-5d14-461f-a07c-ceeb3a48fbed","ios":"levelo://app?vid=4fec62a4-5d14-461f-a07c-ceeb3a48fbed"},"vehicle_type_id":"4","last_reported":1739203886,"current_range_meters":38800,"station_id":"ce4bgv92rcd13ifvqcr0","pricing_plan_id":"cebpf4jnsgd1na2vs0mg"},{"bike_id":"44976dab-4e89-4f2d-8a14-6c8c7d5e8913","system_id":"levelo_inurba_marseille","lat":43.28148,"lon":5.42643,"is_reserved":false,"is_disabled":false,"rental_uris":{"android":"levelo://app?vid=44976dab-4e89-4f2d-8a14-6c8c7d5e8913","ios":"levelo://app?vid=44976dab-4e89-4f2d-8a14-6c8c7d5e8913"},"vehicle_type_id":"4","last_reported":1739203886,"current_range_meters":38800,"station_id":"ce4bhnh2rcd13ifvqgug","pricing_plan_id":"cebpf4jnsgd1na2vs0mg"},{"bike_id":"57d85bad-d407-47c1-a6f4-bff9a0434667","system_id":"levelo_inurba_marseille","lat":43.28087,"lon":5.39661,"is_reserved":false,"is_disabled":false,"rental_uris":{"android":"levelo://app?vid=57d85bad-d407-47c1-a6f4-bff9a0434667","ios":"levelo://app?vid=57d85bad-d407-47c1-a6f4-bff9a0434667"},"vehicle_type_id":"4","last_reported":1739203886,"current_range_meters":14400,"station_id":"ce4bho12rcd13ifvqh2g","pricing_plan_id":"cebpf4jnsgd1na2vs0mg"},{"bike_id":"8e7ce03c-394f-4066-aafd-5b16027f082f","system_id":"levelo_inurba_marseille","lat":43.28352,"lon":5.38104,"is_reserved":false,"is_disabled":false,"rental_uris":{"android":"levelo://app?vid=8e7ce03c-394f-4066-aafd-5b16027f082f","ios":"levelo://app?vid=8e7ce03c-394f-4066-aafd-5b16027f082f"},"vehicle_type_id":"4","last_reported":1739203886,"current_range_meters":18800,"station_id":"ce4bh412rcd13ifvqdr0","pricing_plan_id":"cebpf4jnsgd1na2vs0mg"},{"bike_id":"5391c93c-7685-48ea-9c51-32eb81a76c53","system_id":"levelo_inurba_marseille","lat":43.26211,"lon":5.37447,"is_reserved":false,"is_disabled":false,"rental_uris":{"android":"levelo://app?vid=5391c93c-7685-48ea-9c51-32eb81a76c53","ios":"levelo://app?vid=5391c93c-7685-48ea-9c51-32eb81a76c53"},"vehicle_type_id":"4","last_reported":1739203886,"current_range_meters":22800,"station_id":"ce4bhgp2rcd13ifvqfc0","pricing_plan_id":"cebpf4jnsgd1na2vs0mg"},{"bike_id":"6803ddfa-d502-42a2-ad93-8e0a9a783768","system_id":"levelo_inurba_marseille","lat":43.26036,"lon":5.37542,"is_reserved":false,"is_disabled":false,"rental_uris":{"android":"levelo://app?vid=6803ddfa-d502-42a2-ad93-8e0a9a783768","ios":"levelo://app?vid=6803ddfa-d502-42a2-ad93-8e0a9a783768"},"vehicle_type_id":"4","last_reported":1739203886,"current_range_meters":24400,"station_id":"ce4bhgh2rcd13ifvqfa0","pricing_plan_id":"cebpf4jnsgd1na2vs0mg"},{"bike_id":"ec577290-415e-4adf-bee8-70a702854fd7","system_id":"levelo_inurba_marseille","lat":43.28467,"lon":5.35883,"is_reserved":false,"is_disabled":false,"rental_uris":{"android":"levelo://app?vid=ec577290-415e-4adf-bee8-70a702854fd7","ios":"levelo://app?vid=ec577290-415e-4adf-bee8-70a702854fd7"},"vehicle_type_id":"4","last_reported":1739203886,"current_range_meters":38800,"station_id":"ce4bhah2rcd13ifvqei0","pricing_plan_id":"cebpf4jnsgd1na2vs0mg"},{"bike_id":"00a932b5-68d8-4203-87c4-17e698baa694","system_id":"levelo_inurba_marseille","lat":43.2606,"lon":5.39397,"is_reserved":false,"is_disabled":false,"rental_uris":{"android":"levelo://app?vid=00a932b5-68d8-4203-87c4-17e698baa694","ios":"levelo://app?vid=00a932b5-68d8-4203-87c4-17e698baa694"},"vehicle_type_id":"4","last_reported":1739203886,"current_range_meters":24000,"station_id":"ce4bhh92rcd13ifvqfj0","pricing_plan_id":"cebpf4jnsgd1na2vs0mg"},{"bike_id":"a22080bf-acff-4e92-8754-12d2bb2dad68","system_id":"levelo_inurba_marseille","lat":43.28462,"lon":5.35881,"is_reserved":false,"is_disabled":false,"rental_uris":{"android":"levelo://app?vid=a22080bf-acff-4e92-8754-12d2bb2dad68","ios":"levelo://app?vid=a22080bf-acff-4e92-8754-12d2bb2dad68"},"vehicle_type_id":"4","last_reported":1739203886,"current_range_meters":25600,"station_id":"ce4bhah2rcd13ifvqei0","pricing_plan_id":"cebpf4jnsgd1na2vs0mg"},{"bike_id":"f798cbc4-a869-471f-bce8-f64397eebe81","system_id":"levelo_inurba_marseille","lat":43.23963,"lon":5.36617,"is_reserved":false,"is_disabled":false,"rental_uris":{"android":"levelo://app?vid=f798cbc4-a869-471f-bce8-f64397eebe81","ios":"levelo://app?vid=f798cbc4-a869-471f-bce8-f64397eebe81"},"vehicle_type_id":"4","last_reported":1739203886,"current_range_meters":25600,"station_id":"ce4bhi12rcd13ifvqfp0","pricing_plan_id":"cebpf4jnsgd1na2vs0mg"},{"bike_id":"b021e1a2-bb30-4956-b0f1-62e84c7a74e2","system_id":"levelo_inurba_marseille","lat":43.32358,"lon":5.36765,"is_reserved":false,"is_disabled":false,"rental_uris":{"android":"levelo://app?vid=b021e1a2-bb30-4956-b0f1-62e84c7a74e2","ios":"levelo://app?vid=b021e1a2-bb30-4956-b0f1-62e84c7a74e2"},"vehicle_type_id":"4","last_reported":1739203886,"current_range_meters":32000,"station_id":"ce4bhsh2rcd13ifvqi2g","pricing_plan_id":"cebpf4jnsgd1na2vs0mg"},{"bike_id":"733090db-bb0a-4932-8dc4-9b460d2ed1ca","system_id":"levelo_inurba_marseille","lat":43.28568,"lon":5.39495,"is_reserved":false,"is_disabled":false,"rental_uris":{"android":"levelo://app?vid=733090db-bb0a-4932-8dc4-9b460d2ed1ca","ios":"levelo://app?vid=733090db-bb0a-4932-8dc4-9b460d2ed1ca"},"vehicle_type_id":"4","last_reported":1739203886,"current_range_meters":36000,"station_id":"ce4bh292rcd13ifvqdg0","pricing_plan_id":"cebpf4jnsgd1na2vs0mg"},{"bike_id":"970f5eb9-3baf-484c-b391-525a5f04abc7","system_id":"levelo_inurba_marseille","lat":43.298,"lon":5.38081,"is_reserved":false,"is_disabled":false,"rental_uris":{"android":"levelo://app?vid=970f5eb9-3baf-484c-b391-525a5f04abc7","ios":"levelo://app?vid=970f5eb9-3baf-484c-b391-525a5f04abc7"},"vehicle_type_id":"4","last_reported":1739203886,"current_range_meters":38800,"station_id":"ce4bgip2rcd13ifvqbb0","pricing_plan_id":"cebpf4jnsgd1na2vs0mg"},{"bike_id":"776c444e-ae69-4270-af0f-40003d483afe","system_id":"levelo_inurba_marseille","lat":43.23962,"lon":5.36644,"is_reserved":false,"is_disabled":false,"rental_uris":{"android":"levelo://app?vid=776c444e-ae69-4270-af0f-40003d483afe","ios":"levelo://app?vid=776c444e-ae69-4270-af0f-40003d483afe"},"vehicle_type_id":"4","last_reported":1739203886,"current_range_meters":37600,"station_id":"ce4bhi12rcd13ifvqfp0","pricing_plan_id":"cebpf4jnsgd1na2vs0mg"},{"bike_id":"77731fc4-b10f-4783-ac50-934d47b2b2f2","system_id":"levelo_inurba_marseille","lat":43.27208,"lon":5.39176,"is_reserved":false,"is_disabled":false,"rental_uris":{"android":"levelo://app?vid=77731fc4-b10f-4783-ac50-934d47b2b2f2","ios":"levelo://app?vid=77731fc4-b10f-4783-ac50-934d47b2b2f2"},"vehicle_type_id":"4","last_reported":1739203886,"current_range_meters":38800,"station_id":"ce4bhhp2rcd13ifvqfm0","pricing_plan_id":"cebpf4jnsgd1na2vs0mg"},{"bike_id":"30ea3cb6-7945-4f34-bd86-f9bea1abc73b","system_id":"levelo_inurba_marseille","lat":43.24631,"lon":5.38183,"is_reserved":false,"is_disabled":false,"rental_uris":{"android":"levelo://app?vid=30ea3cb6-7945-4f34-bd86-f9bea1abc73b","ios":"levelo://app?vid=30ea3cb6-7945-4f34-bd86-f9bea1abc73b"},"vehicle_type_id":"4","last_reported":1739203886,"current_range_meters":22400,"station_id":"ce4bhih2rcd13ifvqfr0","pricing_plan_id":"cebpf4jnsgd1na2vs0mg"},{"bike_id":"bf8cd02e-ccdc-4523-894a-3fce83d782e3","system_id":"levelo_inurba_marseille","lat":43.33717,"lon":5.39174,"is_reserved":false,"is_disabled":false,"rental_uris":{"android":"levelo://app?vid=bf8cd02e-ccdc-4523-894a-3fce83d782e3","ios":"levelo://app?vid=bf8cd02e-ccdc-4523-894a-3fce83d782e3"},"vehicle_type_id":"4","last_reported":1739203886,"current_range_meters":37600,"station_id":"ce4bhr92rcd13ifvqhsg","pricing_plan_id":"cebpf4jnsgd1na2vs0mg"},{"bike_id":"737069c9-5ad2-47c2-9f67-1faa49c2861e","system_id":"levelo_inurba_marseille","lat":43.30418,"lon":5.39746,"is_reserved":false,"is_disabled":false,"rental_uris":{"android":"levelo://app?vid=737069c9-5ad2-47c2-9f67-1faa49c2861e","ios":"levelo://app?vid=737069c9-5ad2-47c2-9f67-1faa49c2861e"},"vehicle_type_id":"4","last_reported":1739203886,"current_range_meters":38800,"station_id":"ce4bh092rcd13ifvqd20","pricing_plan_id":"cebpf4jnsgd1na2vs0mg"},{"bike_id":"1d372f93-b8e6-4f13-9d33-813b3a0ab7b3","system_id":"levelo_inurba_marseille","lat":43.293627,"lon":5.378593,"is_reserved":false,"is_disabled":false,"rental_uris":{"android":"levelo://app?vid=1d372f93-b8e6-4f13-9d33-813b3a0ab7b3","ios":"levelo://app?vid=1d372f93-b8e6-4f13-9d33-813b3a0ab7b3"},"vehicle_type_id":"4","last_reported":1739203886,"current_range_meters":36800,"station_id":"ce4bgjh2rcd13ifvqbf0","pricing_plan_id":"cebpf4jnsgd1na2vs0mg"},{"bike_id":"c93ba4b5-809f-42a1-951f-4f195f9c3735","system_id":"levelo_inurba_marseille","lat":43.29185,"lon":5.35787,"is_reserved":false,"is_disabled":false,"rental_uris":{"android":"levelo://app?vid=c93ba4b5-809f-42a1-951f-4f195f9c3735","ios":"levelo://app?vid=c93ba4b5-809f-42a1-951f-4f195f9c3735"},"vehicle_type_id":"4","last_reported":1739203886,"current_range_meters":37600,"station_id":"ce4bhb12rcd13ifvqel0","pricing_plan_id":"cebpf4jnsgd1na2vs0mg"},{"bike_id":"3269462b-d1f8-4e6c-ad17-2a10a27bad7b","system_id":"levelo_inurba_marseille","lat":43.28105,"lon":5.37845,"is_reserved":false,"is_disabled":false,"rental_uris":{"android":"levelo://app?vid=3269462b-d1f8-4e6c-ad17-2a10a27bad7b","ios":"levelo://app?vid=3269462b-d1f8-4e6c-ad17-2a10a27bad7b"},"vehicle_type_id":"4","last_reported":1739203886,"current_range_meters":28000,"station_id":"ce4bha12rcd13ifvqee0","pricing_plan_id":"cebpf4jnsgd1na2vs0mg"},{"bike_id":"84ec2ef8-1939-41fc-b66c-9a9a09d0458a","system_id":"levelo_inurba_marseille","lat":43.28071,"lon":5.39652,"is_reserved":false,"is_disabled":false,"rental_uris":{"android":"levelo://app?vid=84ec2ef8-1939-41fc-b66c-9a9a09d0458a","ios":"levelo://app?vid=84ec2ef8-1939-41fc-b66c-9a9a09d0458a"},"vehicle_type_id":"4","last_reported":1739203886,"current_range_meters":35200,"station_id":"ce4bho12rcd13ifvqh2g","pricing_plan_id":"cebpf4jnsgd1na2vs0mg"},{"bike_id":"3d775884-6b38-47ff-bdab-a7708da1a655","system_id":"levelo_inurba_marseille","lat":43.26197,"lon":5.37446,"is_reserved":false,"is_disabled":false,"rental_uris":{"android":"levelo://app?vid=3d775884-6b38-47ff-bdab-a7708da1a655","ios":"levelo://app?vid=3d775884-6b38-47ff-bdab-a7708da1a655"},"vehicle_type_id":"4","last_reported":1739203886,"current_range_meters":28800,"station_id":"ce4bhgp2rcd13ifvqfc0","pricing_plan_id":"cebpf4jnsgd1na2vs0mg"},{"bike_id":"a1e1c154-9e5a-4afc-9a7e-cedaf38d9921","system_id":"levelo_inurba_marseille","lat":43.289987,"lon":5.356217,"is_reserved":false,"is_disabled":false,"rental_uris":{"android":"levelo://app?vid=a1e1c154-9e5a-4afc-9a7e-cedaf38d9921","ios":"levelo://app?vid=a1e1c154-9e5a-4afc-9a7e-cedaf38d9921"},"vehicle_type_id":"4","last_reported":1739203886,"current_range_meters":34800,"station_id":"ce4bhb92rcd13ifvqen0","pricing_plan_id":"cebpf4jnsgd1na2vs0mg"},{"bike_id":"bf9388f0-cdad-4653-874d-46373daab305","system_id":"levelo_inurba_marseille","lat":43.31173,"lon":5.3872,"is_reserved":false,"is_disabled":false,"rental_uris":{"android":"levelo://app?vid=bf9388f0-cdad-4653-874d-46373daab305","ios":"levelo://app?vid=bf9388f0-cdad-4653-874d-46373daab305"},"vehicle_type_id":"4","last_reported":1739203886,"current_range_meters":22800,"station_id":"ce4bgv12rcd13ifvqcp0","pricing_plan_id":"cebpf4jnsgd1na2vs0mg"},{"bike_id":"726fb099-c3d7-4106-beb8-89951bfba46d","system_id":"levelo_inurba_marseille","lat":43.29572,"lon":5.37497,"is_reserved":false,"is_disabled":true,"rental_uris":{"android":"levelo://app?vid=726fb099-c3d7-4106-beb8-89951bfba46d","ios":"levelo://app?vid=726fb099-c3d7-4106-beb8-89951bfba46d"},"vehicle_type_id":"4","last_reported":1739203886,"current_range_meters":34000,"station_id":"ce4bgh92rcd13ifvqb50","pricing_plan_id":"cebpf4jnsgd1na2vs0mg"},{"bike_id":"a0786387-34cb-41ee-a124-76dad3f46db5","system_id":"levelo_inurba_marseille","lat":43.30451,"lon":5.37903,"is_reserved":false,"is_disabled":false,"rental_uris":{"android":"levelo://app?vid=a0786387-34cb-41ee-a124-76dad3f46db5","ios":"levelo://app?vid=a0786387-34cb-41ee-a124-76dad3f46db5"},"vehicle_type_id":"4","last_reported":1739203886,"current_range_meters":28000,"station_id":"ce4bgup2rcd13ifvqcn0","pricing_plan_id":"cebpf4jnsgd1na2vs0mg"},{"bike_id":"1bbaf7b8-7e30-4a0d-aa87-6eb1043569d6","system_id":"levelo_inurba_marseille","lat":43.28108,"lon":5.37844,"is_reserved":false,"is_disabled":false,"rental_uris":{"android":"levelo://app?vid=1bbaf7b8-7e30-4a0d-aa87-6eb1043569d6","ios":"levelo://app?vid=1bbaf7b8-7e30-4a0d-aa87-6eb1043569d6"},"vehicle_type_id":"4","last_reported":1739203886,"current_range_meters":29600,"station_id":"ce4bha12rcd13ifvqee0","pricing_plan_id":"cebpf4jnsgd1na2vs0mg"},{"bike_id":"0381de35-f333-4648-ac27-3a02f9943927","system_id":"levelo_inurba_marseille","lat":43.3057,"lon":5.37331,"is_reserved":false,"is_disabled":false,"rental_uris":{"android":"levelo://app?vid=0381de35-f333-4648-ac27-3a02f9943927","ios":"levelo://app?vid=0381de35-f333-4648-ac27-3a02f9943927"},"vehicle_type_id":"4","last_reported":1739203886,"current_range_meters":36000,"station_id":"","pricing_plan_id":"cebpf4jnsgd1na2vs0mg"},{"bike_id":"ba430fce-551a-498a-b9ed-1e6611f68ff5","system_id":"levelo_inurba_marseille","lat":43.297075,"lon":5.376884,"is_reserved":false,"is_disabled":false,"rental_uris":{"android":"levelo://app?vid=ba430fce-551a-498a-b9ed-1e6611f68ff5","ios":"levelo://app?vid=ba430fce-551a-498a-b9ed-1e6611f68ff5"},"vehicle_type_id":"4","last_reported":1739203886,"current_range_meters":28000,"station_id":"ce4bhlh2rcd13ifvqgig","pricing_plan_id":"cebpf4jnsgd1na2vs0mg"},{"bike_id":"5728af05-01f3-4c14-afd6-c4ebe0f65611","system_id":"levelo_inurba_marseille","lat":43.25001,"lon":5.38939,"is_reserved":false,"is_disabled":false,"rental_uris":{"android":"levelo://app?vid=5728af05-01f3-4c14-afd6-c4ebe0f65611","ios":"levelo://app?vid=5728af05-01f3-4c14-afd6-c4ebe0f65611"},"vehicle_type_id":"4","last_reported":1739203886,"current_range_meters":7200,"station_id":"ce4bhgp2rcd13ifvqfd0","pricing_plan_id":"cebpf4jnsgd1na2vs0mg"},{"bike_id":"86eca60d-c72b-43d8-9065-2322a4b89d94","system_id":"levelo_inurba_marseille","lat":43.27996,"lon":5.41667,"is_reserved":false,"is_disabled":false,"rental_uris":{"android":"levelo://app?vid=86eca60d-c72b-43d8-9065-2322a4b89d94","ios":"levelo://app?vid=86eca60d-c72b-43d8-9065-2322a4b89d94"},"vehicle_type_id":"4","last_reported":1739203886,"current_range_meters":22000,"station_id":"ce4bho12rcd13ifvqh1g","pricing_plan_id":"cebpf4jnsgd1na2vs0mg"},{"bike_id":"b57c3c52-f51a-4e18-bdaf-76e91ccd9395","system_id":"levelo_inurba_marseille","lat":43.2417,"lon":5.39732,"is_reserved":false,"is_disabled":false,"rental_uris":{"android":"levelo://app?vid=b57c3c52-f51a-4e18-bdaf-76e91ccd9395","ios":"levelo://app?vid=b57c3c52-f51a-4e18-bdaf-76e91ccd9395"},"vehicle_type_id":"4","last_reported":1739203886,"current_range_meters":38800,"station_id":"ce4bhn12rcd13ifvqgpg","pricing_plan_id":"cebpf4jnsgd1na2vs0mg"},{"bike_id":"3441c74a-282b-45aa-b329-9e43a88c8a80","system_id":"levelo_inurba_marseille","lat":43.24816,"lon":5.3744,"is_reserved":false,"is_disabled":false,"rental_uris":{"android":"levelo://app?vid=3441c74a-282b-45aa-b329-9e43a88c8a80","ios":"levelo://app?vid=3441c74a-282b-45aa-b329-9e43a88c8a80"},"vehicle_type_id":"4","last_reported":1739203886,"current_range_meters":19200,"station_id":"ce4bhgh2rcd13ifvqfb0","pricing_plan_id":"cebpf4jnsgd1na2vs0mg"},{"bike_id":"e00cd517-4a6d-40d8-b46e-27fb98e2bb39","system_id":"levelo_inurba_marseille","lat":43.28465,"lon":5.35893,"is_reserved":false,"is_disabled":false,"rental_uris":{"android":"levelo://app?vid=e00cd517-4a6d-40d8-b46e-27fb98e2bb39","ios":"levelo://app?vid=e00cd517-4a6d-40d8-b46e-27fb98e2bb39"},"vehicle_type_id":"4","last_reported":1739203886,"current_range_meters":38800,"station_id":"ce4bhah2rcd13ifvqei0","pricing_plan_id":"cebpf4jnsgd1na2vs0mg"},{"bike_id":"6d35baf6-b40a-4254-a7f5-d19098690ec0","system_id":"levelo_inurba_marseille","lat":43.30531,"lon":5.36676,"is_reserved":false,"is_disabled":false,"rental_uris":{"android":"levelo://app?vid=6d35baf6-b40a-4254-a7f5-d19098690ec0","ios":"levelo://app?vid=6d35baf6-b40a-4254-a7f5-d19098690ec0"},"vehicle_type_id":"4","last_reported":1739203886,"current_range_meters":29600,"station_id":"ce4bgrp2rcd13ifvqc9g","pricing_plan_id":"cebpf4jnsgd1na2vs0mg"},{"bike_id":"3964663c-b0ef-4fd9-bca2-5e6eb580081e","system_id":"levelo_inurba_marseille","lat":43.28136,"lon":5.39863,"is_reserved":false,"is_disabled":false,"rental_uris":{"android":"levelo://app?vid=3964663c-b0ef-4fd9-bca2-5e6eb580081e","ios":"levelo://app?vid=3964663c-b0ef-4fd9-bca2-5e6eb580081e"},"vehicle_type_id":"4","last_reported":1739203886,"current_range_meters":19600,"station_id":"","pricing_plan_id":"cebpf4jnsgd1na2vs0mg"},{"bike_id":"8e2f681c-56b3-4dbe-acf6-d95949b97842","system_id":"levelo_inurba_marseille","lat":43.301561,"lon":5.380922,"is_reserved":false,"is_disabled":true,"rental_uris":{"android":"levelo://app?vid=8e2f681c-56b3-4dbe-acf6-d95949b97842","ios":"levelo://app?vid=8e2f681c-56b3-4dbe-acf6-d95949b97842"},"vehicle_type_id":"4","last_reported":1739203886,"current_range_meters":26000,"station_id":"","pricing_plan_id":"cebpf4jnsgd1na2vs0mg"},{"bike_id":"fa2aa83b-ea8e-4382-8883-daf1d30785d3","system_id":"levelo_inurba_marseille","lat":43.2708,"lon":5.42286,"is_reserved":false,"is_disabled":false,"rental_uris":{"android":"levelo://app?vid=fa2aa83b-ea8e-4382-8883-daf1d30785d3","ios":"levelo://app?vid=fa2aa83b-ea8e-4382-8883-daf1d30785d3"},"vehicle_type_id":"4","last_reported":1739203886,"current_range_meters":24000,"station_id":"ce4bhk92rcd13ifvqgb0","pricing_plan_id":"cebpf4jnsgd1na2vs0mg"},{"bike_id":"5a712f7b-faea-4b41-b7bd-078b067ddb56","system_id":"levelo_inurba_marseille","lat":43.25579,"lon":5.38225,"is_reserved":false,"is_disabled":true,"rental_uris":{"android":"levelo://app?vid=5a712f7b-faea-4b41-b7bd-078b067ddb56","ios":"levelo://app?vid=5a712f7b-faea-4b41-b7bd-078b067ddb56"},"vehicle_type_id":"4","last_reported":1739203886,"current_range_meters":32400,"station_id":"ce4bhih2rcd13ifvqfs0","pricing_plan_id":"cebpf4jnsgd1na2vs0mg"},{"bike_id":"b41d8475-1b61-4022-b648-2777adae10ea","system_id":"levelo_inurba_marseille","lat":43.24169,"lon":5.36397,"is_reserved":false,"is_disabled":false,"rental_uris":{"android":"levelo://app?vid=b41d8475-1b61-4022-b648-2777adae10ea","ios":"levelo://app?vid=b41d8475-1b61-4022-b648-2777adae10ea"},"vehicle_type_id":"4","last_reported":1739203886,"current_range_meters":28800,"station_id":"cpo36qri1sfpv3e86is0","pricing_plan_id":"cebpf4jnsgd1na2vs0mg"},{"bike_id":"9be9344b-405a-4b39-a21c-83cfb0feb0fc","system_id":"levelo_inurba_marseille","lat":43.31394,"lon":5.36663,"is_reserved":false,"is_disabled":false,"rental_uris":{"android":"levelo://app?vid=9be9344b-405a-4b39-a21c-83cfb0feb0fc","ios":"levelo://app?vid=9be9344b-405a-4b39-a21c-83cfb0feb0fc"},"vehicle_type_id":"4","last_reported":1739203886,"current_range_meters":38800,"station_id":"","pricing_plan_id":"cebpf4jnsgd1na2vs0mg"},{"bike_id":"a30466b9-12bb-446d-994b-2ca02e5371d1","system_id":"levelo_inurba_marseille","lat":43.29796,"lon":5.38082,"is_reserved":false,"is_disabled":false,"rental_uris":{"android":"levelo://app?vid=a30466b9-12bb-446d-994b-2ca02e5371d1","ios":"levelo://app?vid=a30466b9-12bb-446d-994b-2ca02e5371d1"},"vehicle_type_id":"4","last_reported":1739203886,"current_range_meters":28800,"station_id":"ce4bgip2rcd13ifvqbb0","pricing_plan_id":"cebpf4jnsgd1na2vs0mg"},{"bike_id":"d2073a62-16cd-40e9-bcc5-59550ac04715","system_id":"levelo_inurba_marseille","lat":43.264885,"lon":5.395467,"is_reserved":false,"is_disabled":false,"rental_uris":{"android":"levelo://app?vid=d2073a62-16cd-40e9-bcc5-59550ac04715","ios":"levelo://app?vid=d2073a62-16cd-40e9-bcc5-59550ac04715"},"vehicle_type_id":"4","last_reported":1739203886,"current_range_meters":39200,"station_id":"ce4bhi12rcd13ifvqfq0","pricing_plan_id":"cebpf4jnsgd1na2vs0mg"},{"bike_id":"a201a94e-bef4-4cd6-bae4-fb46dcae17db","system_id":"levelo_inurba_marseille","lat":43.2873,"lon":5.36085,"is_reserved":false,"is_disabled":false,"rental_uris":{"android":"levelo://app?vid=a201a94e-bef4-4cd6-bae4-fb46dcae17db","ios":"levelo://app?vid=a201a94e-bef4-4cd6-bae4-fb46dcae17db"},"vehicle_type_id":"4","last_reported":1739203886,"current_range_meters":38800,"station_id":"cki0cbj6b192h4jlfktg","pricing_plan_id":"cebpf4jnsgd1na2vs0mg"},{"bike_id":"d3591e02-e841-4886-88af-8db6004e794b","system_id":"levelo_inurba_marseille","lat":43.30526,"lon":5.36716,"is_reserved":false,"is_disabled":false,"rental_uris":{"android":"levelo://app?vid=d3591e02-e841-4886-88af-8db6004e794b","ios":"levelo://app?vid=d3591e02-e841-4886-88af-8db6004e794b"},"vehicle_type_id":"4","last_reported":1739203886,"current_range_meters":38800,"station_id":"ce4bgrp2rcd13ifvqc9g","pricing_plan_id":"cebpf4jnsgd1na2vs0mg"},{"bike_id":"51ab7186-5043-4bed-baca-73708608a302","system_id":"levelo_inurba_marseille","lat":43.29584,"lon":5.37026,"is_reserved":false,"is_disabled":true,"rental_uris":{"android":"levelo://app?vid=51ab7186-5043-4bed-baca-73708608a302","ios":"levelo://app?vid=51ab7186-5043-4bed-baca-73708608a302"},"vehicle_type_id":"4","last_reported":1739203886,"current_range_meters":11200,"station_id":"","pricing_plan_id":"cebpf4jnsgd1na2vs0mg"},{"bike_id":"ab161709-187b-4385-aa3b-4f33d06f9811","system_id":"levelo_inurba_marseille","lat":43.26676,"lon":5.38268,"is_reserved":false,"is_disabled":false,"rental_uris":{"android":"levelo://app?vid=ab161709-187b-4385-aa3b-4f33d06f9811","ios":"levelo://app?vid=ab161709-187b-4385-aa3b-4f33d06f9811"},"vehicle_type_id":"4","last_reported":1739203886,"current_range_meters":38800,"station_id":"ce4bhg92rcd13ifvqf90","pricing_plan_id":"cebpf4jnsgd1na2vs0mg"},{"bike_id":"f6595638-bc47-4084-98da-c942ec25c4e9","system_id":"levelo_inurba_marseille","lat":43.30247,"lon":5.40046,"is_reserved":false,"is_disabled":false,"rental_uris":{"android":"levelo://app?vid=f6595638-bc47-4084-98da-c942ec25c4e9","ios":"levelo://app?vid=f6595638-bc47-4084-98da-c942ec25c4e9"},"vehicle_type_id":"4","last_reported":1739203886,"current_range_meters":22800,"station_id":"ce4bgvh2rcd13ifvqcs0","pricing_plan_id":"cebpf4jnsgd1na2vs0mg"},{"bike_id":"a8158c90-43cd-485b-b227-ab2c6a7833b6","system_id":"levelo_inurba_marseille","lat":43.28041,"lon":5.36948,"is_reserved":false,"is_disabled":false,"rental_uris":{"android":"levelo://app?vid=a8158c90-43cd-485b-b227-ab2c6a7833b6","ios":"levelo://app?vid=a8158c90-43cd-485b-b227-ab2c6a7833b6"},"vehicle_type_id":"4","last_reported":1739203886,"current_range_meters":32400,"station_id":"ce4bha12rcd13ifvqef0","pricing_plan_id":"cebpf4jnsgd1na2vs0mg"},{"bike_id":"0b2730f4-2761-48a6-b43d-961c9e696ec1","system_id":"levelo_inurba_marseille","lat":43.28459,"lon":5.35886,"is_reserved":false,"is_disabled":false,"rental_uris":{"android":"levelo://app?vid=0b2730f4-2761-48a6-b43d-961c9e696ec1","ios":"levelo://app?vid=0b2730f4-2761-48a6-b43d-961c9e696ec1"},"vehicle_type_id":"4","last_reported":1739203886,"current_range_meters":38800,"station_id":"ce4bhah2rcd13ifvqei0","pricing_plan_id":"cebpf4jnsgd1na2vs0mg"},{"bike_id":"ad70298c-bf7f-4fe9-8197-4f9bfc0ca962","system_id":"levelo_inurba_marseille","lat":43.27058,"lon":5.40251,"is_reserved":false,"is_disabled":false,"rental_uris":{"android":"levelo://app?vid=ad70298c-bf7f-4fe9-8197-4f9bfc0ca962","ios":"levelo://app?vid=ad70298c-bf7f-4fe9-8197-4f9bfc0ca962"},"vehicle_type_id":"4","last_reported":1739203886,"current_range_meters":35200,"station_id":"ce4bhk92rcd13ifvqgc0","pricing_plan_id":"cebpf4jnsgd1na2vs0mg"},{"bike_id":"5f8a149c-aa41-49d3-a762-395d6e2fcd1f","system_id":"levelo_inurba_marseille","lat":43.293,"lon":5.37477,"is_reserved":false,"is_disabled":false,"rental_uris":{"android":"levelo://app?vid=5f8a149c-aa41-49d3-a762-395d6e2fcd1f","ios":"levelo://app?vid=5f8a149c-aa41-49d3-a762-395d6e2fcd1f"},"vehicle_type_id":"4","last_reported":1739203886,"current_range_meters":36400,"station_id":"ce4bgi12rcd13ifvqb70","pricing_plan_id":"cebpf4jnsgd1na2vs0mg"},{"bike_id":"da0b002a-eaa5-44c3-8e53-03075efa11f5","system_id":"levelo_inurba_marseille","lat":43.301989,"lon":5.36623,"is_reserved":false,"is_disabled":false,"rental_uris":{"android":"levelo://app?vid=da0b002a-eaa5-44c3-8e53-03075efa11f5","ios":"levelo://app?vid=da0b002a-eaa5-44c3-8e53-03075efa11f5"},"vehicle_type_id":"4","last_reported":1739203886,"current_range_meters":36000,"station_id":"ce4bgrh2rcd13ifvqc8g","pricing_plan_id":"cebpf4jnsgd1na2vs0mg"},{"bike_id":"a5e058a2-17bc-4f3f-a468-2679b31f751e","system_id":"levelo_inurba_marseille","lat":43.30251,"lon":5.40054,"is_reserved":false,"is_disabled":false,"rental_uris":{"android":"levelo://app?vid=a5e058a2-17bc-4f3f-a468-2679b31f751e","ios":"levelo://app?vid=a5e058a2-17bc-4f3f-a468-2679b31f751e"},"vehicle_type_id":"4","last_reported":1739203886,"current_range_meters":24400,"station_id":"ce4bgvh2rcd13ifvqcs0","pricing_plan_id":"cebpf4jnsgd1na2vs0mg"},{"bike_id":"0cdcc8f7-f674-43f1-9b73-0f1949650402","system_id":"levelo_inurba_marseille","lat":43.2395,"lon":5.36641,"is_reserved":false,"is_disabled":false,"rental_uris":{"android":"levelo://app?vid=0cdcc8f7-f674-43f1-9b73-0f1949650402","ios":"levelo://app?vid=0cdcc8f7-f674-43f1-9b73-0f1949650402"},"vehicle_type_id":"4","last_reported":1739203886,"current_range_meters":38000,"station_id":"ce4bhi12rcd13ifvqfp0","pricing_plan_id":"cebpf4jnsgd1na2vs0mg"},{"bike_id":"34bb1c38-a48a-4f88-b8db-bfdd613d1995","system_id":"levelo_inurba_marseille","lat":43.26202,"lon":5.40432,"is_reserved":false,"is_disabled":false,"rental_uris":{"android":"levelo://app?vid=34bb1c38-a48a-4f88-b8db-bfdd613d1995","ios":"levelo://app?vid=34bb1c38-a48a-4f88-b8db-bfdd613d1995"},"vehicle_type_id":"4","last_reported":1739203886,"current_range_meters":17200,"station_id":"ce4bhmh2rcd13ifvqgmg","pricing_plan_id":"cebpf4jnsgd1na2vs0mg"},{"bike_id":"de77abfa-6f74-40e9-8131-b7884eda37eb","system_id":"levelo_inurba_marseille","lat":43.29935,"lon":5.39419,"is_reserved":false,"is_disabled":false,"rental_uris":{"android":"levelo://app?vid=de77abfa-6f74-40e9-8131-b7884eda37eb","ios":"levelo://app?vid=de77abfa-6f74-40e9-8131-b7884eda37eb"},"vehicle_type_id":"4","last_reported":1739203886,"current_range_meters":32000,"station_id":"","pricing_plan_id":"cebpf4jnsgd1na2vs0mg"},{"bike_id":"44dd6324-cf8b-4645-bc5d-6f2dbec52f2a","system_id":"levelo_inurba_marseille","lat":43.26566,"lon":5.39006,"is_reserved":false,"is_disabled":false,"rental_uris":{"android":"levelo://app?vid=44dd6324-cf8b-4645-bc5d-6f2dbec52f2a","ios":"levelo://app?vid=44dd6324-cf8b-4645-bc5d-6f2dbec52f2a"},"vehicle_type_id":"4","last_reported":1739203886,"current_range_meters":20000,"station_id":"ce4bhe12rcd13ifvqf30","pricing_plan_id":"cebpf4jnsgd1na2vs0mg"},{"bike_id":"ab3c364c-e225-4514-9780-df412d69339d","system_id":"levelo_inurba_marseille","lat":43.2909,"lon":5.38139,"is_reserved":false,"is_disabled":false,"rental_uris":{"android":"levelo://app?vid=ab3c364c-e225-4514-9780-df412d69339d","ios":"levelo://app?vid=ab3c364c-e225-4514-9780-df412d69339d"},"vehicle_type_id":"4","last_reported":1739203886,"current_range_meters":35600,"station_id":"ce4bh512rcd13ifvqe2g","pricing_plan_id":"cebpf4jnsgd1na2vs0mg"},{"bike_id":"ee079ffa-4416-4a91-bc98-3bd665acea3b","system_id":"levelo_inurba_marseille","lat":43.33724,"lon":5.39185,"is_reserved":false,"is_disabled":false,"rental_uris":{"android":"levelo://app?vid=ee079ffa-4416-4a91-bc98-3bd665acea3b","ios":"levelo://app?vid=ee079ffa-4416-4a91-bc98-3bd665acea3b"},"vehicle_type_id":"4","last_reported":1739203886,"current_range_meters":39200,"station_id":"ce4bhr92rcd13ifvqhsg","pricing_plan_id":"cebpf4jnsgd1na2vs0mg"},{"bike_id":"1fa82dc6-47d4-4356-bbca-393bf4461726","system_id":"levelo_inurba_marseille","lat":43.239601,"lon":5.366349,"is_reserved":false,"is_disabled":false,"rental_uris":{"android":"levelo://app?vid=1fa82dc6-47d4-4356-bbca-393bf4461726","ios":"levelo://app?vid=1fa82dc6-47d4-4356-bbca-393bf4461726"},"vehicle_type_id":"4","last_reported":1739203886,"current_range_meters":23200,"station_id":"ce4bhi12rcd13ifvqfp0","pricing_plan_id":"cebpf4jnsgd1na2vs0mg"},{"bike_id":"c6a4319f-5177-4e2c-a761-978445166b5f","system_id":"levelo_inurba_marseille","lat":43.29255,"lon":5.40902,"is_reserved":false,"is_disabled":false,"rental_uris":{"android":"levelo://app?vid=c6a4319f-5177-4e2c-a761-978445166b5f","ios":"levelo://app?vid=c6a4319f-5177-4e2c-a761-978445166b5f"},"vehicle_type_id":"4","last_reported":1739203886,"current_range_meters":20000,"station_id":"ce4bh192rcd13ifvqdc0","pricing_plan_id":"cebpf4jnsgd1na2vs0mg"},{"bike_id":"67c77a93-95e0-4dde-b030-1b6a0f65cf9a","system_id":"levelo_inurba_marseille","lat":43.27169,"lon":5.40996,"is_reserved":false,"is_disabled":false,"rental_uris":{"android":"levelo://app?vid=67c77a93-95e0-4dde-b030-1b6a0f65cf9a","ios":"levelo://app?vid=67c77a93-95e0-4dde-b030-1b6a0f65cf9a"},"vehicle_type_id":"4","last_reported":1739203886,"current_range_meters":12400,"station_id":"ce4bhl12rcd13ifvqgf0","pricing_plan_id":"cebpf4jnsgd1na2vs0mg"},{"bike_id":"4ebc1f96-404d-40d4-a1bd-95b9e72f39ad","system_id":"levelo_inurba_marseille","lat":43.29985,"lon":5.37178,"is_reserved":false,"is_disabled":false,"rental_uris":{"android":"levelo://app?vid=4ebc1f96-404d-40d4-a1bd-95b9e72f39ad","ios":"levelo://app?vid=4ebc1f96-404d-40d4-a1bd-95b9e72f39ad"},"vehicle_type_id":"4","last_reported":1739203886,"current_range_meters":29600,"station_id":"ce4bgr92rcd13ifvqc7g","pricing_plan_id":"cebpf4jnsgd1na2vs0mg"},{"bike_id":"d0d8ec2f-c95a-46f3-be60-0d8863b57c52","system_id":"levelo_inurba_marseille","lat":43.28345,"lon":5.38102,"is_reserved":false,"is_disabled":false,"rental_uris":{"android":"levelo://app?vid=d0d8ec2f-c95a-46f3-be60-0d8863b57c52","ios":"levelo://app?vid=d0d8ec2f-c95a-46f3-be60-0d8863b57c52"},"vehicle_type_id":"4","last_reported":1739203886,"current_range_meters":38400,"station_id":"ce4bh412rcd13ifvqdr0","pricing_plan_id":"cebpf4jnsgd1na2vs0mg"},{"bike_id":"86c28008-749a-4391-af36-70c52ad22b9a","system_id":"levelo_inurba_marseille","lat":43.27493,"lon":5.42453,"is_reserved":false,"is_disabled":false,"rental_uris":{"android":"levelo://app?vid=86c28008-749a-4391-af36-70c52ad22b9a","ios":"levelo://app?vid=86c28008-749a-4391-af36-70c52ad22b9a"},"vehicle_type_id":"4","last_reported":1739203886,"current_range_meters":38800,"station_id":"ce4bhn92rcd13ifvqgrg","pricing_plan_id":"cebpf4jnsgd1na2vs0mg"},{"bike_id":"f53564a4-cbf9-4b55-bb72-8eda8cad3a05","system_id":"levelo_inurba_marseille","lat":43.27072,"lon":5.42271,"is_reserved":false,"is_disabled":false,"rental_uris":{"android":"levelo://app?vid=f53564a4-cbf9-4b55-bb72-8eda8cad3a05","ios":"levelo://app?vid=f53564a4-cbf9-4b55-bb72-8eda8cad3a05"},"vehicle_type_id":"4","last_reported":1739203886,"current_range_meters":22800,"station_id":"ce4bhk92rcd13ifvqgb0","pricing_plan_id":"cebpf4jnsgd1na2vs0mg"},{"bike_id":"094ce0d3-0869-4a4e-bc44-e588765eb895","system_id":"levelo_inurba_marseille","lat":43.27567,"lon":5.38426,"is_reserved":false,"is_disabled":false,"rental_uris":{"android":"levelo://app?vid=094ce0d3-0869-4a4e-bc44-e588765eb895","ios":"levelo://app?vid=094ce0d3-0869-4a4e-bc44-e588765eb895"},"vehicle_type_id":"4","last_reported":1739203886,"current_range_meters":13600,"station_id":"ce4bhh92rcd13ifvqfi0","pricing_plan_id":"cebpf4jnsgd1na2vs0mg"},{"bike_id":"05f6ac8f-0127-4e39-bd11-d53a74225ef8","system_id":"levelo_inurba_marseille","lat":43.27874,"lon":5.40597,"is_reserved":false,"is_disabled":true,"rental_uris":{"android":"levelo://app?vid=05f6ac8f-0127-4e39-bd11-d53a74225ef8","ios":"levelo://app?vid=05f6ac8f-0127-4e39-bd11-d53a74225ef8"},"vehicle_type_id":"4","last_reported":1739203886,"current_range_meters":0,"station_id":"","pricing_plan_id":"cebpf4jnsgd1na2vs0mg"},{"bike_id":"e49ee871-b82d-4767-83e2-99541bcc1e76","system_id":"levelo_inurba_marseille","lat":43.31745,"lon":5.39011,"is_reserved":false,"is_disabled":false,"rental_uris":{"android":"levelo://app?vid=e49ee871-b82d-4767-83e2-99541bcc1e76","ios":"levelo://app?vid=e49ee871-b82d-4767-83e2-99541bcc1e76"},"vehicle_type_id":"4","last_reported":1739203886,"current_range_meters":24800,"station_id":"ce4bhqp2rcd13ifvqhng","pricing_plan_id":"cebpf4jnsgd1na2vs0mg"},{"bike_id":"2e7e5300-a6f7-4ccf-84c3-359fc332edfa","system_id":"levelo_inurba_marseille","lat":43.29977,"lon":5.38501,"is_reserved":false,"is_disabled":false,"rental_uris":{"android":"levelo://app?vid=2e7e5300-a6f7-4ccf-84c3-359fc332edfa","ios":"levelo://app?vid=2e7e5300-a6f7-4ccf-84c3-359fc332edfa"},"vehicle_type_id":"4","last_reported":1739203886,"current_range_meters":38800,"station_id":"ce4bgj92rcd13ifvqbd0","pricing_plan_id":"cebpf4jnsgd1na2vs0mg"},{"bike_id":"ae573ce6-0d15-4e2b-abc8-f4b1d60833fb","system_id":"levelo_inurba_marseille","lat":43.3018,"lon":5.36633,"is_reserved":false,"is_disabled":false,"rental_uris":{"android":"levelo://app?vid=ae573ce6-0d15-4e2b-abc8-f4b1d60833fb","ios":"levelo://app?vid=ae573ce6-0d15-4e2b-abc8-f4b1d60833fb"},"vehicle_type_id":"4","last_reported":1739203886,"current_range_meters":38400,"station_id":"ce4bgrh2rcd13ifvqc8g","pricing_plan_id":"cebpf4jnsgd1na2vs0mg"},{"bike_id":"2fd6bca5-61ed-4ad0-8f2b-39013ca4e335","system_id":"levelo_inurba_marseille","lat":43.26566,"lon":5.39006,"is_reserved":false,"is_disabled":false,"rental_uris":{"android":"levelo://app?vid=2fd6bca5-61ed-4ad0-8f2b-39013ca4e335","ios":"levelo://app?vid=2fd6bca5-61ed-4ad0-8f2b-39013ca4e335"},"vehicle_type_id":"4","last_reported":1739203886,"current_range_meters":27600,"station_id":"ce4bhe12rcd13ifvqf30","pricing_plan_id":"cebpf4jnsgd1na2vs0mg"},{"bike_id":"a11bda5f-e8b3-4b2f-a9ee-d474ac602af8","system_id":"levelo_inurba_marseille","lat":43.29544,"lon":5.38533,"is_reserved":false,"is_disabled":false,"rental_uris":{"android":"levelo://app?vid=a11bda5f-e8b3-4b2f-a9ee-d474ac602af8","ios":"levelo://app?vid=a11bda5f-e8b3-4b2f-a9ee-d474ac602af8"},"vehicle_type_id":"4","last_reported":1739203886,"current_range_meters":38800,"station_id":"ce4bgih2rcd13ifvqba0","pricing_plan_id":"cebpf4jnsgd1na2vs0mg"},{"bike_id":"5109ac96-45cc-4c05-91ba-3089107596d8","system_id":"levelo_inurba_marseille","lat":43.2396,"lon":5.3663,"is_reserved":false,"is_disabled":false,"rental_uris":{"android":"levelo://app?vid=5109ac96-45cc-4c05-91ba-3089107596d8","ios":"levelo://app?vid=5109ac96-45cc-4c05-91ba-3089107596d8"},"vehicle_type_id":"4","last_reported":1739203886,"current_range_meters":7200,"station_id":"ce4bhi12rcd13ifvqfp0","pricing_plan_id":"cebpf4jnsgd1na2vs0mg"},{"bike_id":"8208a1b4-5492-48e9-afca-1051f66b8ce3","system_id":"levelo_inurba_marseille","lat":43.30307,"lon":5.36884,"is_reserved":false,"is_disabled":false,"rental_uris":{"android":"levelo://app?vid=8208a1b4-5492-48e9-afca-1051f66b8ce3","ios":"levelo://app?vid=8208a1b4-5492-48e9-afca-1051f66b8ce3"},"vehicle_type_id":"4","last_reported":1739203886,"current_range_meters":32000,"station_id":"ce4bgqh2rcd13ifvqc5g","pricing_plan_id":"cebpf4jnsgd1na2vs0mg"},{"bike_id":"04564863-f1f2-443b-b8f1-fcbab471f36d","system_id":"levelo_inurba_marseille","lat":43.29528,"lon":5.39043,"is_reserved":false,"is_disabled":false,"rental_uris":{"android":"levelo://app?vid=04564863-f1f2-443b-b8f1-fcbab471f36d","ios":"levelo://app?vid=04564863-f1f2-443b-b8f1-fcbab471f36d"},"vehicle_type_id":"4","last_reported":1739203886,"current_range_meters":38800,"station_id":"ce4bh3p2rcd13ifvqdp0","pricing_plan_id":"cebpf4jnsgd1na2vs0mg"},{"bike_id":"a001191e-c098-4ed6-818f-5c131d567c46","system_id":"levelo_inurba_marseille","lat":43.30096,"lon":5.39091,"is_reserved":false,"is_disabled":false,"rental_uris":{"android":"levelo://app?vid=a001191e-c098-4ed6-818f-5c131d567c46","ios":"levelo://app?vid=a001191e-c098-4ed6-818f-5c131d567c46"},"vehicle_type_id":"4","last_reported":1739203886,"current_range_meters":4800,"station_id":"ce4bh192rcd13ifvqdb0","pricing_plan_id":"cebpf4jnsgd1na2vs0mg"},{"bike_id":"5e6dd513-a729-4c83-a599-c25228b1bcdc","system_id":"levelo_inurba_marseille","lat":43.30597,"lon":5.37226,"is_reserved":false,"is_disabled":false,"rental_uris":{"android":"levelo://app?vid=5e6dd513-a729-4c83-a599-c25228b1bcdc","ios":"levelo://app?vid=5e6dd513-a729-4c83-a599-c25228b1bcdc"},"vehicle_type_id":"4","last_reported":1739203886,"current_range_meters":38800,"station_id":"ce4bgqh2rcd13ifvqc4g","pricing_plan_id":"cebpf4jnsgd1na2vs0mg"},{"bike_id":"fd7cd6eb-8023-4160-9061-39fa556cf25c","system_id":"levelo_inurba_marseille","lat":43.30332,"lon":5.40441,"is_reserved":false,"is_disabled":true,"rental_uris":{"android":"levelo://app?vid=fd7cd6eb-8023-4160-9061-39fa556cf25c","ios":"levelo://app?vid=fd7cd6eb-8023-4160-9061-39fa556cf25c"},"vehicle_type_id":"4","last_reported":1739203886,"current_range_meters":32400,"station_id":"ce4bh012rcd13ifvqd10","pricing_plan_id":"cebpf4jnsgd1na2vs0mg"},{"bike_id":"290e41b7-5b79-49f0-b96e-8c9f71b90b7a","system_id":"levelo_inurba_marseille","lat":43.31998,"lon":5.38153,"is_reserved":false,"is_disabled":false,"rental_uris":{"android":"levelo://app?vid=290e41b7-5b79-49f0-b96e-8c9f71b90b7a","ios":"levelo://app?vid=290e41b7-5b79-49f0-b96e-8c9f71b90b7a"},"vehicle_type_id":"4","last_reported":1739203886,"current_range_meters":17600,"station_id":"ce4bhr12rcd13ifvqhpg","pricing_plan_id":"cebpf4jnsgd1na2vs0mg"},{"bike_id":"d32849cf-4c14-4032-9063-172d06d3f04f","system_id":"levelo_inurba_marseille","lat":43.231888,"lon":5.355448,"is_reserved":false,"is_disabled":false,"rental_uris":{"android":"levelo://app?vid=d32849cf-4c14-4032-9063-172d06d3f04f","ios":"levelo://app?vid=d32849cf-4c14-4032-9063-172d06d3f04f"},"vehicle_type_id":"4","last_reported":1739203886,"current_range_meters":37600,"station_id":"ce4bhu92rcd13ifvqi70","pricing_plan_id":"cebpf4jnsgd1na2vs0mg"},{"bike_id":"121bb849-508e-46b5-9b17-1022bc99350e","system_id":"levelo_inurba_marseille","lat":43.26807,"lon":5.40261,"is_reserved":false,"is_disabled":false,"rental_uris":{"android":"levelo://app?vid=121bb849-508e-46b5-9b17-1022bc99350e","ios":"levelo://app?vid=121bb849-508e-46b5-9b17-1022bc99350e"},"vehicle_type_id":"4","last_reported":1739203886,"current_range_meters":27600,"station_id":"ce501612rcd8frsf0b60","pricing_plan_id":"cebpf4jnsgd1na2vs0mg"},{"bike_id":"b00c295a-8f71-4044-bfe7-faa250b6ed2c","system_id":"levelo_inurba_marseille","lat":43.29574,"lon":5.37518,"is_reserved":false,"is_disabled":false,"rental_uris":{"android":"levelo://app?vid=b00c295a-8f71-4044-bfe7-faa250b6ed2c","ios":"levelo://app?vid=b00c295a-8f71-4044-bfe7-faa250b6ed2c"},"vehicle_type_id":"4","last_reported":1739203886,"current_range_meters":38800,"station_id":"ce4bgh92rcd13ifvqb50","pricing_plan_id":"cebpf4jnsgd1na2vs0mg"},{"bike_id":"fc43e51d-a224-4e17-9020-c4eaa9393cf6","system_id":"levelo_inurba_marseille","lat":43.29168,"lon":5.37166,"is_reserved":false,"is_disabled":false,"rental_uris":{"android":"levelo://app?vid=fc43e51d-a224-4e17-9020-c4eaa9393cf6","ios":"levelo://app?vid=fc43e51d-a224-4e17-9020-c4eaa9393cf6"},"vehicle_type_id":"4","last_reported":1739203886,"current_range_meters":38800,"station_id":"ce4bha92rcd13ifvqeh0","pricing_plan_id":"cebpf4jnsgd1na2vs0mg"},{"bike_id":"c87979fc-74ca-4ba9-b239-380ca60004cb","system_id":"levelo_inurba_marseille","lat":43.29537,"lon":5.38551,"is_reserved":false,"is_disabled":false,"rental_uris":{"android":"levelo://app?vid=c87979fc-74ca-4ba9-b239-380ca60004cb","ios":"levelo://app?vid=c87979fc-74ca-4ba9-b239-380ca60004cb"},"vehicle_type_id":"4","last_reported":1739203886,"current_range_meters":24800,"station_id":"ce4bgih2rcd13ifvqba0","pricing_plan_id":"cebpf4jnsgd1na2vs0mg"},{"bike_id":"b7cfafc0-fba3-47fa-8c3d-d96c6bee1f7a","system_id":"levelo_inurba_marseille","lat":43.2439,"lon":5.37069,"is_reserved":false,"is_disabled":false,"rental_uris":{"android":"levelo://app?vid=b7cfafc0-fba3-47fa-8c3d-d96c6bee1f7a","ios":"levelo://app?vid=b7cfafc0-fba3-47fa-8c3d-d96c6bee1f7a"},"vehicle_type_id":"4","last_reported":1739203886,"current_range_meters":36400,"station_id":"ce4bhhh2rcd13ifvqfk0","pricing_plan_id":"cebpf4jnsgd1na2vs0mg"},{"bike_id":"8017650e-fddd-4161-8c1a-75916b0435b9","system_id":"levelo_inurba_marseille","lat":43.24169,"lon":5.39723,"is_reserved":false,"is_disabled":false,"rental_uris":{"android":"levelo://app?vid=8017650e-fddd-4161-8c1a-75916b0435b9","ios":"levelo://app?vid=8017650e-fddd-4161-8c1a-75916b0435b9"},"vehicle_type_id":"4","last_reported":1739203886,"current_range_meters":38000,"station_id":"ce4bhn12rcd13ifvqgpg","pricing_plan_id":"cebpf4jnsgd1na2vs0mg"},{"bike_id":"7ad2debf-586d-4c17-96ee-4293391683d1","system_id":"levelo_inurba_marseille","lat":43.28137,"lon":5.42651,"is_reserved":false,"is_disabled":false,"rental_uris":{"android":"levelo://app?vid=7ad2debf-586d-4c17-96ee-4293391683d1","ios":"levelo://app?vid=7ad2debf-586d-4c17-96ee-4293391683d1"},"vehicle_type_id":"4","last_reported":1739203886,"current_range_meters":21600,"station_id":"ce4bhnh2rcd13ifvqgug","pricing_plan_id":"cebpf4jnsgd1na2vs0mg"},{"bike_id":"8c6282ff-cc19-4b4a-a5da-222818127f79","system_id":"levelo_inurba_marseille","lat":43.29908,"lon":5.37494,"is_reserved":false,"is_disabled":false,"rental_uris":{"android":"levelo://app?vid=8c6282ff-cc19-4b4a-a5da-222818127f79","ios":"levelo://app?vid=8c6282ff-cc19-4b4a-a5da-222818127f79"},"vehicle_type_id":"4","last_reported":1739203886,"current_range_meters":38800,"station_id":"ce4bgjh2rcd13ifvqbg0","pricing_plan_id":"cebpf4jnsgd1na2vs0mg"},{"bike_id":"386a5c6b-0374-40ee-8fee-068f2ec38f9b","system_id":"levelo_inurba_marseille","lat":43.23957,"lon":5.36623,"is_reserved":false,"is_disabled":false,"rental_uris":{"android":"levelo://app?vid=386a5c6b-0374-40ee-8fee-068f2ec38f9b","ios":"levelo://app?vid=386a5c6b-0374-40ee-8fee-068f2ec38f9b"},"vehicle_type_id":"4","last_reported":1739203886,"current_range_meters":16000,"station_id":"ce4bhi12rcd13ifvqfp0","pricing_plan_id":"cebpf4jnsgd1na2vs0mg"},{"bike_id":"d4897387-d94a-4836-8801-67bff7723442","system_id":"levelo_inurba_marseille","lat":43.23192,"lon":5.39997,"is_reserved":false,"is_disabled":false,"rental_uris":{"android":"levelo://app?vid=d4897387-d94a-4836-8801-67bff7723442","ios":"levelo://app?vid=d4897387-d94a-4836-8801-67bff7723442"},"vehicle_type_id":"4","last_reported":1739203886,"current_range_meters":38800,"station_id":"ce4bhn12rcd13ifvqgqg","pricing_plan_id":"cebpf4jnsgd1na2vs0mg"},{"bike_id":"189f6c80-0e9f-46bb-bba1-6d41d8d5efa8","system_id":"levelo_inurba_marseille","lat":43.2947,"lon":5.37485,"is_reserved":false,"is_disabled":false,"rental_uris":{"android":"levelo://app?vid=189f6c80-0e9f-46bb-bba1-6d41d8d5efa8","ios":"levelo://app?vid=189f6c80-0e9f-46bb-bba1-6d41d8d5efa8"},"vehicle_type_id":"4","last_reported":1739203886,"current_range_meters":38800,"station_id":"ce4bgkp2rcd13ifvqbmg","pricing_plan_id":"cebpf4jnsgd1na2vs0mg"},{"bike_id":"cadba6b3-7793-42af-88e5-c898681e364d","system_id":"levelo_inurba_marseille","lat":43.29568,"lon":5.37496,"is_reserved":false,"is_disabled":false,"rental_uris":{"android":"levelo://app?vid=cadba6b3-7793-42af-88e5-c898681e364d","ios":"levelo://app?vid=cadba6b3-7793-42af-88e5-c898681e364d"},"vehicle_type_id":"4","last_reported":1739203886,"current_range_meters":38800,"station_id":"ce4bgh92rcd13ifvqb50","pricing_plan_id":"cebpf4jnsgd1na2vs0mg"},{"bike_id":"f87908d5-be1b-40ff-8eb3-4820052beb0f","system_id":"levelo_inurba_marseille","lat":43.28337,"lon":5.39014,"is_reserved":false,"is_disabled":false,"rental_uris":{"android":"levelo://app?vid=f87908d5-be1b-40ff-8eb3-4820052beb0f","ios":"levelo://app?vid=f87908d5-be1b-40ff-8eb3-4820052beb0f"},"vehicle_type_id":"4","last_reported":1739203886,"current_range_meters":24000,"station_id":"ce4bhnp2rcd13ifvqh0g","pricing_plan_id":"cebpf4jnsgd1na2vs0mg"},{"bike_id":"01b0e03f-7b96-4ac3-a2a1-cc92043b5081","system_id":"levelo_inurba_marseille","lat":43.2919,"lon":5.39306,"is_reserved":false,"is_disabled":true,"rental_uris":{"android":"levelo://app?vid=01b0e03f-7b96-4ac3-a2a1-cc92043b5081","ios":"levelo://app?vid=01b0e03f-7b96-4ac3-a2a1-cc92043b5081"},"vehicle_type_id":"4","last_reported":1739203886,"current_range_meters":27200,"station_id":"ce4bh192rcd13ifvqdd0","pricing_plan_id":"cebpf4jnsgd1na2vs0mg"},{"bike_id":"e86a799e-3e6e-4715-b9cd-b7ec9b4bf324","system_id":"levelo_inurba_marseille","lat":43.30107,"lon":5.39889,"is_reserved":false,"is_disabled":false,"rental_uris":{"android":"levelo://app?vid=e86a799e-3e6e-4715-b9cd-b7ec9b4bf324","ios":"levelo://app?vid=e86a799e-3e6e-4715-b9cd-b7ec9b4bf324"},"vehicle_type_id":"4","last_reported":1739203886,"current_range_meters":35600,"station_id":"ce4bh0h2rcd13ifvqd40","pricing_plan_id":"cebpf4jnsgd1na2vs0mg"},{"bike_id":"f2c1f718-908f-4e45-ab14-588547e3dffd","system_id":"levelo_inurba_marseille","lat":43.27323,"lon":5.39094,"is_reserved":false,"is_disabled":false,"rental_uris":{"android":"levelo://app?vid=f2c1f718-908f-4e45-ab14-588547e3dffd","ios":"levelo://app?vid=f2c1f718-908f-4e45-ab14-588547e3dffd"},"vehicle_type_id":"4","last_reported":1739203886,"current_range_meters":38800,"station_id":"ce4bhgp2rcd13ifvqfe0","pricing_plan_id":"cebpf4jnsgd1na2vs0mg"},{"bike_id":"f5d045ce-3427-4e40-8c82-dbea3e0240e3","system_id":"levelo_inurba_marseille","lat":43.25123,"lon":5.40322,"is_reserved":false,"is_disabled":false,"rental_uris":{"android":"levelo://app?vid=f5d045ce-3427-4e40-8c82-dbea3e0240e3","ios":"levelo://app?vid=f5d045ce-3427-4e40-8c82-dbea3e0240e3"},"vehicle_type_id":"4","last_reported":1739203886,"current_range_meters":38800,"station_id":"ce4bhlh2rcd13ifvqgig","pricing_plan_id":"cebpf4jnsgd1na2vs0mg"},{"bike_id":"8b7c06a9-e93d-44ff-aeaf-a18c063d1c86","system_id":"levelo_inurba_marseille","lat":43.298,"lon":5.38111,"is_reserved":false,"is_disabled":false,"rental_uris":{"android":"levelo://app?vid=8b7c06a9-e93d-44ff-aeaf-a18c063d1c86","ios":"levelo://app?vid=8b7c06a9-e93d-44ff-aeaf-a18c063d1c86"},"vehicle_type_id":"4","last_reported":1739203886,"current_range_meters":38800,"station_id":"ce4bgip2rcd13ifvqbb0","pricing_plan_id":"cebpf4jnsgd1na2vs0mg"},{"bike_id":"90789574-302d-4f35-aa6b-b1488aa454cd","system_id":"levelo_inurba_marseille","lat":43.3024,"lon":5.4004,"is_reserved":false,"is_disabled":false,"rental_uris":{"android":"levelo://app?vid=90789574-302d-4f35-aa6b-b1488aa454cd","ios":"levelo://app?vid=90789574-302d-4f35-aa6b-b1488aa454cd"},"vehicle_type_id":"4","last_reported":1739203886,"current_range_meters":38800,"station_id":"ce4bgvh2rcd13ifvqcs0","pricing_plan_id":"cebpf4jnsgd1na2vs0mg"},{"bike_id":"9f443121-e8ff-4aac-bc9a-d9077c8e664b","system_id":"levelo_inurba_marseille","lat":43.2707,"lon":5.42272,"is_reserved":false,"is_disabled":false,"rental_uris":{"android":"levelo://app?vid=9f443121-e8ff-4aac-bc9a-d9077c8e664b","ios":"levelo://app?vid=9f443121-e8ff-4aac-bc9a-d9077c8e664b"},"vehicle_type_id":"4","last_reported":1739203886,"current_range_meters":28800,"station_id":"ce4bhk92rcd13ifvqgb0","pricing_plan_id":"cebpf4jnsgd1na2vs0mg"},{"bike_id":"2a770ae2-03a1-4cb9-a363-e879ddefa502","system_id":"levelo_inurba_marseille","lat":43.31768,"lon":5.39008,"is_reserved":false,"is_disabled":false,"rental_uris":{"android":"levelo://app?vid=2a770ae2-03a1-4cb9-a363-e879ddefa502","ios":"levelo://app?vid=2a770ae2-03a1-4cb9-a363-e879ddefa502"},"vehicle_type_id":"4","last_reported":1739203886,"current_range_meters":38800,"station_id":"ce4bhqp2rcd13ifvqhng","pricing_plan_id":"cebpf4jnsgd1na2vs0mg"},{"bike_id":"c03e3e74-2231-4470-8600-8fa32748c474","system_id":"levelo_inurba_marseille","lat":43.24807,"lon":5.37448,"is_reserved":false,"is_disabled":false,"rental_uris":{"android":"levelo://app?vid=c03e3e74-2231-4470-8600-8fa32748c474","ios":"levelo://app?vid=c03e3e74-2231-4470-8600-8fa32748c474"},"vehicle_type_id":"4","last_reported":1739203886,"current_range_meters":37600,"station_id":"ce4bhgh2rcd13ifvqfb0","pricing_plan_id":"cebpf4jnsgd1na2vs0mg"},{"bike_id":"4591023d-5c1e-434a-8f93-a035257c7caf","system_id":"levelo_inurba_marseille","lat":43.28343,"lon":5.38105,"is_reserved":false,"is_disabled":false,"rental_uris":{"android":"levelo://app?vid=4591023d-5c1e-434a-8f93-a035257c7caf","ios":"levelo://app?vid=4591023d-5c1e-434a-8f93-a035257c7caf"},"vehicle_type_id":"4","last_reported":1739203886,"current_range_meters":30400,"station_id":"ce4bh412rcd13ifvqdr0","pricing_plan_id":"cebpf4jnsgd1na2vs0mg"},{"bike_id":"b31aee6a-50fe-46b0-9973-1cb3e84501e5","system_id":"levelo_inurba_marseille","lat":43.2907,"lon":5.37161,"is_reserved":false,"is_disabled":false,"rental_uris":{"android":"levelo://app?vid=b31aee6a-50fe-46b0-9973-1cb3e84501e5","ios":"levelo://app?vid=b31aee6a-50fe-46b0-9973-1cb3e84501e5"},"vehicle_type_id":"4","last_reported":1739203886,"current_range_meters":36800,"station_id":"ce4bh5p2rcd13ifvqe4g","pricing_plan_id":"cebpf4jnsgd1na2vs0mg"},{"bike_id":"8583503a-2f4a-4fb0-b76e-4ce9a4778990","system_id":"levelo_inurba_marseille","lat":43.29518,"lon":5.37518,"is_reserved":false,"is_disabled":false,"rental_uris":{"android":"levelo://app?vid=8583503a-2f4a-4fb0-b76e-4ce9a4778990","ios":"levelo://app?vid=8583503a-2f4a-4fb0-b76e-4ce9a4778990"},"vehicle_type_id":"4","last_reported":1739203886,"current_range_meters":39200,"station_id":"ce4bgkp2rcd13ifvqbmg","pricing_plan_id":"cebpf4jnsgd1na2vs0mg"},{"bike_id":"19293b59-3f84-483f-8016-7afb23c8e99a","system_id":"levelo_inurba_marseille","lat":43.2511,"lon":5.40322,"is_reserved":false,"is_disabled":false,"rental_uris":{"android":"levelo://app?vid=19293b59-3f84-483f-8016-7afb23c8e99a","ios":"levelo://app?vid=19293b59-3f84-483f-8016-7afb23c8e99a"},"vehicle_type_id":"4","last_reported":1739203886,"current_range_meters":32800,"station_id":"ce4bhlh2rcd13ifvqgig","pricing_plan_id":"cebpf4jnsgd1na2vs0mg"},{"bike_id":"ebfe9b19-a020-4e42-9515-d839082cd818","system_id":"levelo_inurba_marseille","lat":43.27991,"lon":5.40007,"is_reserved":false,"is_disabled":false,"rental_uris":{"android":"levelo://app?vid=ebfe9b19-a020-4e42-9515-d839082cd818","ios":"levelo://app?vid=ebfe9b19-a020-4e42-9515-d839082cd818"},"vehicle_type_id":"4","last_reported":1739203886,"current_range_meters":36400,"station_id":"ce4bho92rcd13ifvqh4g","pricing_plan_id":"cebpf4jnsgd1na2vs0mg"},{"bike_id":"0a261332-55f6-4ea5-8bd3-dc2e591b1330","system_id":"levelo_inurba_marseille","lat":43.28458,"lon":5.3589,"is_reserved":false,"is_disabled":false,"rental_uris":{"android":"levelo://app?vid=0a261332-55f6-4ea5-8bd3-dc2e591b1330","ios":"levelo://app?vid=0a261332-55f6-4ea5-8bd3-dc2e591b1330"},"vehicle_type_id":"4","last_reported":1739203886,"current_range_meters":30800,"station_id":"ce4bhah2rcd13ifvqei0","pricing_plan_id":"cebpf4jnsgd1na2vs0mg"},{"bike_id":"1f73100a-8043-44a4-bb6d-ffbbbec4b48b","system_id":"levelo_inurba_marseille","lat":43.29227,"lon":5.37479,"is_reserved":false,"is_disabled":false,"rental_uris":{"android":"levelo://app?vid=1f73100a-8043-44a4-bb6d-ffbbbec4b48b","ios":"levelo://app?vid=1f73100a-8043-44a4-bb6d-ffbbbec4b48b"},"vehicle_type_id":"4","last_reported":1739203886,"current_range_meters":31200,"station_id":"","pricing_plan_id":"cebpf4jnsgd1na2vs0mg"},{"bike_id":"7da4649d-5b0d-40f3-8425-d97800c7497a","system_id":"levelo_inurba_marseille","lat":43.29731,"lon":5.3768,"is_reserved":false,"is_disabled":false,"rental_uris":{"android":"levelo://app?vid=7da4649d-5b0d-40f3-8425-d97800c7497a","ios":"levelo://app?vid=7da4649d-5b0d-40f3-8425-d97800c7497a"},"vehicle_type_id":"4","last_reported":1739203886,"current_range_meters":38800,"station_id":"ce4bgkh2rcd13ifvqbl0","pricing_plan_id":"cebpf4jnsgd1na2vs0mg"},{"bike_id":"37013ad9-dda1-4aaa-bc03-0fecfc70eba5","system_id":"levelo_inurba_marseille","lat":43.26931,"lon":5.38642,"is_reserved":false,"is_disabled":false,"rental_uris":{"android":"levelo://app?vid=37013ad9-dda1-4aaa-bc03-0fecfc70eba5","ios":"levelo://app?vid=37013ad9-dda1-4aaa-bc03-0fecfc70eba5"},"vehicle_type_id":"4","last_reported":1739203886,"current_range_meters":37600,"station_id":"ce4bhh92rcd13ifvqfh0","pricing_plan_id":"cebpf4jnsgd1na2vs0mg"},{"bike_id":"d633904c-b385-4870-a110-7c74bea0631c","system_id":"levelo_inurba_marseille","lat":43.28825,"lon":5.39309,"is_reserved":false,"is_disabled":false,"rental_uris":{"android":"levelo://app?vid=d633904c-b385-4870-a110-7c74bea0631c","ios":"levelo://app?vid=d633904c-b385-4870-a110-7c74bea0631c"},"vehicle_type_id":"4","last_reported":1739203886,"current_range_meters":14800,"station_id":"ce4bh2p2rcd13ifvqdi0","pricing_plan_id":"cebpf4jnsgd1na2vs0mg"},{"bike_id":"8561f34f-b3d2-4289-940f-2e1e4d5d11d0","system_id":"levelo_inurba_marseille","lat":43.29865,"lon":5.39735,"is_reserved":false,"is_disabled":false,"rental_uris":{"android":"levelo://app?vid=8561f34f-b3d2-4289-940f-2e1e4d5d11d0","ios":"levelo://app?vid=8561f34f-b3d2-4289-940f-2e1e4d5d11d0"},"vehicle_type_id":"4","last_reported":1739203886,"current_range_meters":26000,"station_id":"ce4bh0h2rcd13ifvqd50","pricing_plan_id":"cebpf4jnsgd1na2vs0mg"},{"bike_id":"623a0245-5cc8-48e9-a896-46d6647c13e1","system_id":"levelo_inurba_marseille","lat":43.30631,"lon":5.40066,"is_reserved":false,"is_disabled":false,"rental_uris":{"android":"levelo://app?vid=623a0245-5cc8-48e9-a896-46d6647c13e1","ios":"levelo://app?vid=623a0245-5cc8-48e9-a896-46d6647c13e1"},"vehicle_type_id":"4","last_reported":1739203886,"current_range_meters":16000,"station_id":"ce4bh112rcd13ifvqda0","pricing_plan_id":"cebpf4jnsgd1na2vs0mg"},{"bike_id":"272273d8-091c-40bc-ace0-18b799425a0d","system_id":"levelo_inurba_marseille","lat":43.27424,"lon":5.39416,"is_reserved":false,"is_disabled":false,"rental_uris":{"android":"levelo://app?vid=272273d8-091c-40bc-ace0-18b799425a0d","ios":"levelo://app?vid=272273d8-091c-40bc-ace0-18b799425a0d"},"vehicle_type_id":"4","last_reported":1739203886,"current_range_meters":3600,"station_id":"ce4bhdp2rcd13ifvqf20","pricing_plan_id":"cebpf4jnsgd1na2vs0mg"},{"bike_id":"84cf1502-6bd7-4f90-8915-1019d4230637","system_id":"levelo_inurba_marseille","lat":43.30433,"lon":5.38891,"is_reserved":false,"is_disabled":false,"rental_uris":{"android":"levelo://app?vid=84cf1502-6bd7-4f90-8915-1019d4230637","ios":"levelo://app?vid=84cf1502-6bd7-4f90-8915-1019d4230637"},"vehicle_type_id":"4","last_reported":1739203886,"current_range_meters":17600,"station_id":"ce4bgk12rcd13ifvqbi0","pricing_plan_id":"cebpf4jnsgd1na2vs0mg"},{"bike_id":"1d2000e3-6e82-4c8d-9a0a-5d8181e36eb3","system_id":"levelo_inurba_marseille","lat":43.25005,"lon":5.38918,"is_reserved":false,"is_disabled":false,"rental_uris":{"android":"levelo://app?vid=1d2000e3-6e82-4c8d-9a0a-5d8181e36eb3","ios":"levelo://app?vid=1d2000e3-6e82-4c8d-9a0a-5d8181e36eb3"},"vehicle_type_id":"4","last_reported":1739203886,"current_range_meters":9600,"station_id":"ce4bhgp2rcd13ifvqfd0","pricing_plan_id":"cebpf4jnsgd1na2vs0mg"},{"bike_id":"76a8ec06-a50a-4e86-8cd9-42d2f376f745","system_id":"levelo_inurba_marseille","lat":43.28361,"lon":5.3861,"is_reserved":false,"is_disabled":false,"rental_uris":{"android":"levelo://app?vid=76a8ec06-a50a-4e86-8cd9-42d2f376f745","ios":"levelo://app?vid=76a8ec06-a50a-4e86-8cd9-42d2f376f745"},"vehicle_type_id":"4","last_reported":1739203886,"current_range_meters":38800,"station_id":"ce4bh492rcd13ifvqdvg","pricing_plan_id":"cebpf4jnsgd1na2vs0mg"},{"bike_id":"8f2e7683-b87f-4667-a605-d403a79a10a1","system_id":"levelo_inurba_marseille","lat":43.317259,"lon":5.423901,"is_reserved":false,"is_disabled":false,"rental_uris":{"android":"levelo://app?vid=8f2e7683-b87f-4667-a605-d403a79a10a1","ios":"levelo://app?vid=8f2e7683-b87f-4667-a605-d403a79a10a1"},"vehicle_type_id":"4","last_reported":1739203886,"current_range_meters":38800,"station_id":"ce4bhp92rcd13ifvqhbg","pricing_plan_id":"cebpf4jnsgd1na2vs0mg"},{"bike_id":"6998168a-02ed-49b8-bc0c-4b81f2baa47a","system_id":"levelo_inurba_marseille","lat":43.33733,"lon":5.39195,"is_reserved":false,"is_disabled":false,"rental_uris":{"android":"levelo://app?vid=6998168a-02ed-49b8-bc0c-4b81f2baa47a","ios":"levelo://app?vid=6998168a-02ed-49b8-bc0c-4b81f2baa47a"},"vehicle_type_id":"4","last_reported":1739203886,"current_range_meters":39200,"station_id":"ce4bhr92rcd13ifvqhsg","pricing_plan_id":"cebpf4jnsgd1na2vs0mg"},{"bike_id":"0bdfd0dd-9741-4f8e-ac4b-7a02400a13ed","system_id":"levelo_inurba_marseille","lat":43.30551,"lon":5.36677,"is_reserved":false,"is_disabled":false,"rental_uris":{"android":"levelo://app?vid=0bdfd0dd-9741-4f8e-ac4b-7a02400a13ed","ios":"levelo://app?vid=0bdfd0dd-9741-4f8e-ac4b-7a02400a13ed"},"vehicle_type_id":"4","last_reported":1739203886,"current_range_meters":24800,"station_id":"ce4bgrp2rcd13ifvqc9g","pricing_plan_id":"cebpf4jnsgd1na2vs0mg"},{"bike_id":"9822b2ae-52c3-4719-90d2-ce97f6ea354c","system_id":"levelo_inurba_marseille","lat":43.2996,"lon":5.37156,"is_reserved":false,"is_disabled":false,"rental_uris":{"android":"levelo://app?vid=9822b2ae-52c3-4719-90d2-ce97f6ea354c","ios":"levelo://app?vid=9822b2ae-52c3-4719-90d2-ce97f6ea354c"},"vehicle_type_id":"4","last_reported":1739203886,"current_range_meters":38800,"station_id":"ce4bgr92rcd13ifvqc7g","pricing_plan_id":"cebpf4jnsgd1na2vs0mg"},{"bike_id":"87196f4d-e4c7-42eb-883f-cfdb674ea583","system_id":"levelo_inurba_marseille","lat":43.27813,"lon":5.40716,"is_reserved":false,"is_disabled":false,"rental_uris":{"android":"levelo://app?vid=87196f4d-e4c7-42eb-883f-cfdb674ea583","ios":"levelo://app?vid=87196f4d-e4c7-42eb-883f-cfdb674ea583"},"vehicle_type_id":"4","last_reported":1739203886,"current_range_meters":38800,"station_id":"ce4bhnh2rcd13ifvqgtg","pricing_plan_id":"cebpf4jnsgd1na2vs0mg"},{"bike_id":"d5a37605-4e0b-406c-a924-7ca9f964c4e0","system_id":"levelo_inurba_marseille","lat":43.24811,"lon":5.37461,"is_reserved":false,"is_disabled":false,"rental_uris":{"android":"levelo://app?vid=d5a37605-4e0b-406c-a924-7ca9f964c4e0","ios":"levelo://app?vid=d5a37605-4e0b-406c-a924-7ca9f964c4e0"},"vehicle_type_id":"4","last_reported":1739203886,"current_range_meters":28800,"station_id":"ce4bhgh2rcd13ifvqfb0","pricing_plan_id":"cebpf4jnsgd1na2vs0mg"},{"bike_id":"1ac7f37b-5bed-45aa-9ba9-e6ddcb2bab68","system_id":"levelo_inurba_marseille","lat":43.30096,"lon":5.39087,"is_reserved":false,"is_disabled":false,"rental_uris":{"android":"levelo://app?vid=1ac7f37b-5bed-45aa-9ba9-e6ddcb2bab68","ios":"levelo://app?vid=1ac7f37b-5bed-45aa-9ba9-e6ddcb2bab68"},"vehicle_type_id":"4","last_reported":1739203886,"current_range_meters":28400,"station_id":"ce4bh192rcd13ifvqdb0","pricing_plan_id":"cebpf4jnsgd1na2vs0mg"},{"bike_id":"a97f3a8d-e1f7-4ede-af5a-b155aa57a80e","system_id":"levelo_inurba_marseille","lat":43.25577,"lon":5.3823,"is_reserved":false,"is_disabled":false,"rental_uris":{"android":"levelo://app?vid=a97f3a8d-e1f7-4ede-af5a-b155aa57a80e","ios":"levelo://app?vid=a97f3a8d-e1f7-4ede-af5a-b155aa57a80e"},"vehicle_type_id":"4","last_reported":1739203886,"current_range_meters":18800,"station_id":"ce4bhih2rcd13ifvqfs0","pricing_plan_id":"cebpf4jnsgd1na2vs0mg"},{"bike_id":"97d6f0b2-848e-471f-93d1-5d3a1ec2b71f","system_id":"levelo_inurba_marseille","lat":43.27317,"lon":5.39086,"is_reserved":false,"is_disabled":false,"rental_uris":{"android":"levelo://app?vid=97d6f0b2-848e-471f-93d1-5d3a1ec2b71f","ios":"levelo://app?vid=97d6f0b2-848e-471f-93d1-5d3a1ec2b71f"},"vehicle_type_id":"4","last_reported":1739203886,"current_range_meters":38800,"station_id":"ce4bhgp2rcd13ifvqfe0","pricing_plan_id":"cebpf4jnsgd1na2vs0mg"},{"bike_id":"21cf4151-8ea0-40de-be0f-823890855851","system_id":"levelo_inurba_marseille","lat":43.305443,"lon":5.36546,"is_reserved":false,"is_disabled":false,"rental_uris":{"android":"levelo://app?vid=21cf4151-8ea0-40de-be0f-823890855851","ios":"levelo://app?vid=21cf4151-8ea0-40de-be0f-823890855851"},"vehicle_type_id":"4","last_reported":1739203886,"current_range_meters":20400,"station_id":"ce4bgs12rcd13ifvqcag","pricing_plan_id":"cebpf4jnsgd1na2vs0mg"},{"bike_id":"5db23e37-8064-476d-afd5-67dc342e52ab","system_id":"levelo_inurba_marseille","lat":43.3205,"lon":5.41576,"is_reserved":false,"is_disabled":false,"rental_uris":{"android":"levelo://app?vid=5db23e37-8064-476d-afd5-67dc342e52ab","ios":"levelo://app?vid=5db23e37-8064-476d-afd5-67dc342e52ab"},"vehicle_type_id":"4","last_reported":1739203886,"current_range_meters":33600,"station_id":"ce4bhq92rcd13ifvqhkg","pricing_plan_id":"cebpf4jnsgd1na2vs0mg"},{"bike_id":"1d695c88-2120-4066-90f1-68155ff06e63","system_id":"levelo_inurba_marseille","lat":43.316217,"lon":5.38887,"is_reserved":false,"is_disabled":false,"rental_uris":{"android":"levelo://app?vid=1d695c88-2120-4066-90f1-68155ff06e63","ios":"levelo://app?vid=1d695c88-2120-4066-90f1-68155ff06e63"},"vehicle_type_id":"4","last_reported":1739203886,"current_range_meters":27200,"station_id":"","pricing_plan_id":"cebpf4jnsgd1na2vs0mg"},{"bike_id":"c59b6026-24e3-43cf-9800-b85419a5744f","system_id":"levelo_inurba_marseille","lat":43.30156,"lon":5.38096,"is_reserved":false,"is_disabled":false,"rental_uris":{"android":"levelo://app?vid=c59b6026-24e3-43cf-9800-b85419a5744f","ios":"levelo://app?vid=c59b6026-24e3-43cf-9800-b85419a5744f"},"vehicle_type_id":"4","last_reported":1739203886,"current_range_meters":32000,"station_id":"","pricing_plan_id":"cebpf4jnsgd1na2vs0mg"},{"bike_id":"30040434-0ce6-4639-9cfb-4b7e126d7c60","system_id":"levelo_inurba_marseille","lat":43.27497,"lon":5.42445,"is_reserved":false,"is_disabled":false,"rental_uris":{"android":"levelo://app?vid=30040434-0ce6-4639-9cfb-4b7e126d7c60","ios":"levelo://app?vid=30040434-0ce6-4639-9cfb-4b7e126d7c60"},"vehicle_type_id":"4","last_reported":1739203886,"current_range_meters":38800,"station_id":"ce4bhn92rcd13ifvqgrg","pricing_plan_id":"cebpf4jnsgd1na2vs0mg"},{"bike_id":"1b32f8e4-e340-450b-9817-99b4ddba9c26","system_id":"levelo_inurba_marseille","lat":43.30792,"lon":5.38165,"is_reserved":false,"is_disabled":false,"rental_uris":{"android":"levelo://app?vid=1b32f8e4-e340-450b-9817-99b4ddba9c26","ios":"levelo://app?vid=1b32f8e4-e340-450b-9817-99b4ddba9c26"},"vehicle_type_id":"4","last_reported":1739203886,"current_range_meters":29600,"station_id":"ce4bgt12rcd13ifvqce0","pricing_plan_id":"cebpf4jnsgd1na2vs0mg"},{"bike_id":"3aee1a37-713a-4089-a06a-b5701718bebc","system_id":"levelo_inurba_marseille","lat":43.27371,"lon":5.36259,"is_reserved":false,"is_disabled":false,"rental_uris":{"android":"levelo://app?vid=3aee1a37-713a-4089-a06a-b5701718bebc","ios":"levelo://app?vid=3aee1a37-713a-4089-a06a-b5701718bebc"},"vehicle_type_id":"4","last_reported":1739203886,"current_range_meters":38400,"station_id":"ce4bhbh2rcd13ifvqeo0","pricing_plan_id":"cebpf4jnsgd1na2vs0mg"},{"bike_id":"868bab58-7fb6-4926-8070-cd9a4296d6f1","system_id":"levelo_inurba_marseille","lat":43.28346,"lon":5.38099,"is_reserved":false,"is_disabled":false,"rental_uris":{"android":"levelo://app?vid=868bab58-7fb6-4926-8070-cd9a4296d6f1","ios":"levelo://app?vid=868bab58-7fb6-4926-8070-cd9a4296d6f1"},"vehicle_type_id":"4","last_reported":1739203886,"current_range_meters":28800,"station_id":"ce4bh412rcd13ifvqdr0","pricing_plan_id":"cebpf4jnsgd1na2vs0mg"},{"bike_id":"1ddf02fa-1a8e-4c21-9c47-4aef864e752f","system_id":"levelo_inurba_marseille","lat":43.26956,"lon":5.38635,"is_reserved":false,"is_disabled":false,"rental_uris":{"android":"levelo://app?vid=1ddf02fa-1a8e-4c21-9c47-4aef864e752f","ios":"levelo://app?vid=1ddf02fa-1a8e-4c21-9c47-4aef864e752f"},"vehicle_type_id":"4","last_reported":1739203886,"current_range_meters":22000,"station_id":"ce4bhh92rcd13ifvqfh0","pricing_plan_id":"cebpf4jnsgd1na2vs0mg"},{"bike_id":"5956df5f-511c-4d45-b041-0dadf70b06ed","system_id":"levelo_inurba_marseille","lat":43.29642,"lon":5.37488,"is_reserved":false,"is_disabled":false,"rental_uris":{"android":"levelo://app?vid=5956df5f-511c-4d45-b041-0dadf70b06ed","ios":"levelo://app?vid=5956df5f-511c-4d45-b041-0dadf70b06ed"},"vehicle_type_id":"4","last_reported":1739203886,"current_range_meters":31200,"station_id":"ce4bgh92rcd13ifvqb50","pricing_plan_id":"cebpf4jnsgd1na2vs0mg"},{"bike_id":"db2cb8ba-850b-4646-be66-57100750f4fe","system_id":"levelo_inurba_marseille","lat":43.232,"lon":5.35551,"is_reserved":false,"is_disabled":false,"rental_uris":{"android":"levelo://app?vid=db2cb8ba-850b-4646-be66-57100750f4fe","ios":"levelo://app?vid=db2cb8ba-850b-4646-be66-57100750f4fe"},"vehicle_type_id":"4","last_reported":1739203886,"current_range_meters":9200,"station_id":"ce4bhu92rcd13ifvqi70","pricing_plan_id":"cebpf4jnsgd1na2vs0mg"},{"bike_id":"841e0f04-b00a-44de-83b7-b9b92c40d93b","system_id":"levelo_inurba_marseille","lat":43.28177,"lon":5.42654,"is_reserved":false,"is_disabled":false,"rental_uris":{"android":"levelo://app?vid=841e0f04-b00a-44de-83b7-b9b92c40d93b","ios":"levelo://app?vid=841e0f04-b00a-44de-83b7-b9b92c40d93b"},"vehicle_type_id":"4","last_reported":1739203886,"current_range_meters":18000,"station_id":"ce4bhnh2rcd13ifvqgug","pricing_plan_id":"cebpf4jnsgd1na2vs0mg"},{"bike_id":"89741e8d-4a7a-4106-bfbf-2f1ff718f9ed","system_id":"levelo_inurba_marseille","lat":43.31361,"lon":5.385,"is_reserved":false,"is_disabled":false,"rental_uris":{"android":"levelo://app?vid=89741e8d-4a7a-4106-bfbf-2f1ff718f9ed","ios":"levelo://app?vid=89741e8d-4a7a-4106-bfbf-2f1ff718f9ed"},"vehicle_type_id":"4","last_reported":1739203886,"current_range_meters":32800,"station_id":"ce4bgt92rcd13ifvqcf0","pricing_plan_id":"cebpf4jnsgd1na2vs0mg"},{"bike_id":"88379eaf-5a6d-4117-a07a-21ee5231369a","system_id":"levelo_inurba_marseille","lat":43.31529,"lon":5.38036,"is_reserved":false,"is_disabled":false,"rental_uris":{"android":"levelo://app?vid=88379eaf-5a6d-4117-a07a-21ee5231369a","ios":"levelo://app?vid=88379eaf-5a6d-4117-a07a-21ee5231369a"},"vehicle_type_id":"4","last_reported":1739203886,"current_range_meters":37600,"station_id":"ce4bhsp2rcd13ifvqi50","pricing_plan_id":"cebpf4jnsgd1na2vs0mg"},{"bike_id":"71245798-1c48-4fae-ae90-fb5dbb3e0a7f","system_id":"levelo_inurba_marseille","lat":43.29533,"lon":5.38531,"is_reserved":false,"is_disabled":false,"rental_uris":{"android":"levelo://app?vid=71245798-1c48-4fae-ae90-fb5dbb3e0a7f","ios":"levelo://app?vid=71245798-1c48-4fae-ae90-fb5dbb3e0a7f"},"vehicle_type_id":"4","last_reported":1739203886,"current_range_meters":36800,"station_id":"ce4bgih2rcd13ifvqba0","pricing_plan_id":"cebpf4jnsgd1na2vs0mg"},{"bike_id":"1b4f517b-00c2-44c7-9f02-8b50fa8704dc","system_id":"levelo_inurba_marseille","lat":43.2841,"lon":5.37511,"is_reserved":false,"is_disabled":false,"rental_uris":{"android":"levelo://app?vid=1b4f517b-00c2-44c7-9f02-8b50fa8704dc","ios":"levelo://app?vid=1b4f517b-00c2-44c7-9f02-8b50fa8704dc"},"vehicle_type_id":"4","last_reported":1739203886,"current_range_meters":24000,"station_id":"ce4bh412rcd13ifvqds0","pricing_plan_id":"cebpf4jnsgd1na2vs0mg"},{"bike_id":"3b3dc0f8-c704-4415-b570-e8b96e261ffd","system_id":"levelo_inurba_marseille","lat":43.29791,"lon":5.39346,"is_reserved":false,"is_disabled":false,"rental_uris":{"android":"levelo://app?vid=3b3dc0f8-c704-4415-b570-e8b96e261ffd","ios":"levelo://app?vid=3b3dc0f8-c704-4415-b570-e8b96e261ffd"},"vehicle_type_id":"4","last_reported":1739203886,"current_range_meters":38400,"station_id":"chh1huq6cuj3fo74tm60","pricing_plan_id":"cebpf4jnsgd1na2vs0mg"},{"bike_id":"b8cbd248-db62-4d84-b3a4-fd8e7e00f9d3","system_id":"levelo_inurba_marseille","lat":43.28037,"lon":5.3695,"is_reserved":false,"is_disabled":false,"rental_uris":{"android":"levelo://app?vid=b8cbd248-db62-4d84-b3a4-fd8e7e00f9d3","ios":"levelo://app?vid=b8cbd248-db62-4d84-b3a4-fd8e7e00f9d3"},"vehicle_type_id":"4","last_reported":1739203886,"current_range_meters":33200,"station_id":"ce4bha12rcd13ifvqef0","pricing_plan_id":"cebpf4jnsgd1na2vs0mg"},{"bike_id":"1ec14052-2d33-4aa1-9ab8-58cc71db74d1","system_id":"levelo_inurba_marseille","lat":43.24167,"lon":5.36404,"is_reserved":false,"is_disabled":false,"rental_uris":{"android":"levelo://app?vid=1ec14052-2d33-4aa1-9ab8-58cc71db74d1","ios":"levelo://app?vid=1ec14052-2d33-4aa1-9ab8-58cc71db74d1"},"vehicle_type_id":"4","last_reported":1739203886,"current_range_meters":18000,"station_id":"cpo36qri1sfpv3e86is0","pricing_plan_id":"cebpf4jnsgd1na2vs0mg"},{"bike_id":"ae0dbd03-494d-4ce6-8b36-e3fa998daab3","system_id":"levelo_inurba_marseille","lat":43.27964,"lon":5.38763,"is_reserved":false,"is_disabled":false,"rental_uris":{"android":"levelo://app?vid=ae0dbd03-494d-4ce6-8b36-e3fa998daab3","ios":"levelo://app?vid=ae0dbd03-494d-4ce6-8b36-e3fa998daab3"},"vehicle_type_id":"4","last_reported":1739203886,"current_range_meters":38400,"station_id":"ce4bhg12rcd13ifvqf80","pricing_plan_id":"cebpf4jnsgd1na2vs0mg"},{"bike_id":"febb6d38-66f9-498e-bca5-b09010f5034a","system_id":"levelo_inurba_marseille","lat":43.30319,"lon":5.36899,"is_reserved":false,"is_disabled":false,"rental_uris":{"android":"levelo://app?vid=febb6d38-66f9-498e-bca5-b09010f5034a","ios":"levelo://app?vid=febb6d38-66f9-498e-bca5-b09010f5034a"},"vehicle_type_id":"4","last_reported":1739203886,"current_range_meters":34000,"station_id":"ce4bgqh2rcd13ifvqc5g","pricing_plan_id":"cebpf4jnsgd1na2vs0mg"},{"bike_id":"f37f2975-dffb-4f2e-8b01-29232860ec8c","system_id":"levelo_inurba_marseille","lat":43.31772,"lon":5.39036,"is_reserved":false,"is_disabled":false,"rental_uris":{"android":"levelo://app?vid=f37f2975-dffb-4f2e-8b01-29232860ec8c","ios":"levelo://app?vid=f37f2975-dffb-4f2e-8b01-29232860ec8c"},"vehicle_type_id":"4","last_reported":1739203886,"current_range_meters":38800,"station_id":"ce4bhqp2rcd13ifvqhng","pricing_plan_id":"cebpf4jnsgd1na2vs0mg"},{"bike_id":"c52b27f8-f65c-455d-8c05-8cca2fd7d5e3","system_id":"levelo_inurba_marseille","lat":43.26944,"lon":5.38654,"is_reserved":false,"is_disabled":false,"rental_uris":{"android":"levelo://app?vid=c52b27f8-f65c-455d-8c05-8cca2fd7d5e3","ios":"levelo://app?vid=c52b27f8-f65c-455d-8c05-8cca2fd7d5e3"},"vehicle_type_id":"4","last_reported":1739203886,"current_range_meters":5600,"station_id":"ce4bhh92rcd13ifvqfh0","pricing_plan_id":"cebpf4jnsgd1na2vs0mg"},{"bike_id":"fbb98623-bd6f-4427-9463-8f7fc3b3bd20","system_id":"levelo_inurba_marseille","lat":43.28033,"lon":5.36947,"is_reserved":false,"is_disabled":false,"rental_uris":{"android":"levelo://app?vid=fbb98623-bd6f-4427-9463-8f7fc3b3bd20","ios":"levelo://app?vid=fbb98623-bd6f-4427-9463-8f7fc3b3bd20"},"vehicle_type_id":"4","last_reported":1739203886,"current_range_meters":32400,"station_id":"ce4bha12rcd13ifvqef0","pricing_plan_id":"cebpf4jnsgd1na2vs0mg"},{"bike_id":"c96f92a7-f6aa-4b72-bfcc-b3fd0520d382","system_id":"levelo_inurba_marseille","lat":43.261948,"lon":5.37458,"is_reserved":false,"is_disabled":false,"rental_uris":{"android":"levelo://app?vid=c96f92a7-f6aa-4b72-bfcc-b3fd0520d382","ios":"levelo://app?vid=c96f92a7-f6aa-4b72-bfcc-b3fd0520d382"},"vehicle_type_id":"4","last_reported":1739203886,"current_range_meters":38800,"station_id":"ce4bhgp2rcd13ifvqfc0","pricing_plan_id":"cebpf4jnsgd1na2vs0mg"},{"bike_id":"dc533b90-669c-4b50-a875-8c07bca17843","system_id":"levelo_inurba_marseille","lat":43.26784,"lon":5.39414,"is_reserved":false,"is_disabled":false,"rental_uris":{"android":"levelo://app?vid=dc533b90-669c-4b50-a875-8c07bca17843","ios":"levelo://app?vid=dc533b90-669c-4b50-a875-8c07bca17843"},"vehicle_type_id":"4","last_reported":1739203886,"current_range_meters":33200,"station_id":"ce4bhh12rcd13ifvqfg0","pricing_plan_id":"cebpf4jnsgd1na2vs0mg"},{"bike_id":"53dedc30-10cb-4cf6-aa3e-119646708c08","system_id":"levelo_inurba_marseille","lat":43.26029,"lon":5.37546,"is_reserved":false,"is_disabled":false,"rental_uris":{"android":"levelo://app?vid=53dedc30-10cb-4cf6-aa3e-119646708c08","ios":"levelo://app?vid=53dedc30-10cb-4cf6-aa3e-119646708c08"},"vehicle_type_id":"4","last_reported":1739203886,"current_range_meters":38800,"station_id":"ce4bhgh2rcd13ifvqfa0","pricing_plan_id":"cebpf4jnsgd1na2vs0mg"},{"bike_id":"5d5b9d52-4005-4b8d-8e03-12940e9796d0","system_id":"levelo_inurba_marseille","lat":43.2407,"lon":5.37747,"is_reserved":false,"is_disabled":true,"rental_uris":{"android":"levelo://app?vid=5d5b9d52-4005-4b8d-8e03-12940e9796d0","ios":"levelo://app?vid=5d5b9d52-4005-4b8d-8e03-12940e9796d0"},"vehicle_type_id":"4","last_reported":1739203886,"current_range_meters":4000,"station_id":"ce4bhnp2rcd13ifvqgvg","pricing_plan_id":"cebpf4jnsgd1na2vs0mg"},{"bike_id":"e74edd37-0ec7-4f56-b77f-e7249fd01314","system_id":"levelo_inurba_marseille","lat":43.30545,"lon":5.36515,"is_reserved":false,"is_disabled":true,"rental_uris":{"android":"levelo://app?vid=e74edd37-0ec7-4f56-b77f-e7249fd01314","ios":"levelo://app?vid=e74edd37-0ec7-4f56-b77f-e7249fd01314"},"vehicle_type_id":"4","last_reported":1739203886,"current_range_meters":18800,"station_id":"ce4bgs12rcd13ifvqcag","pricing_plan_id":"cebpf4jnsgd1na2vs0mg"},{"bike_id":"d65a14c4-ecf3-4048-b05f-9a757ce2f182","system_id":"levelo_inurba_marseille","lat":43.246733,"lon":5.381705,"is_reserved":false,"is_disabled":false,"rental_uris":{"android":"levelo://app?vid=d65a14c4-ecf3-4048-b05f-9a757ce2f182","ios":"levelo://app?vid=d65a14c4-ecf3-4048-b05f-9a757ce2f182"},"vehicle_type_id":"4","last_reported":1739203886,"current_range_meters":38800,"station_id":"ce4bhih2rcd13ifvqfr0","pricing_plan_id":"cebpf4jnsgd1na2vs0mg"},{"bike_id":"012990dd-a03b-467d-91bf-23a37984e05d","system_id":"levelo_inurba_marseille","lat":43.30408,"lon":5.41274,"is_reserved":false,"is_disabled":false,"rental_uris":{"android":"levelo://app?vid=012990dd-a03b-467d-91bf-23a37984e05d","ios":"levelo://app?vid=012990dd-a03b-467d-91bf-23a37984e05d"},"vehicle_type_id":"4","last_reported":1739203886,"current_range_meters":18800,"station_id":"ce4bhop2rcd13ifvqh8g","pricing_plan_id":"cebpf4jnsgd1na2vs0mg"},{"bike_id":"879d2030-c51b-4298-a606-cfdd56d5ce64","system_id":"levelo_inurba_marseille","lat":43.24167,"lon":5.39726,"is_reserved":false,"is_disabled":false,"rental_uris":{"android":"levelo://app?vid=879d2030-c51b-4298-a606-cfdd56d5ce64","ios":"levelo://app?vid=879d2030-c51b-4298-a606-cfdd56d5ce64"},"vehicle_type_id":"4","last_reported":1739203886,"current_range_meters":29600,"station_id":"ce4bhn12rcd13ifvqgpg","pricing_plan_id":"cebpf4jnsgd1na2vs0mg"},{"bike_id":"0580eb58-e6b1-4e7b-a86c-47b05cf37565","system_id":"levelo_inurba_marseille","lat":43.27317,"lon":5.39108,"is_reserved":false,"is_disabled":false,"rental_uris":{"android":"levelo://app?vid=0580eb58-e6b1-4e7b-a86c-47b05cf37565","ios":"levelo://app?vid=0580eb58-e6b1-4e7b-a86c-47b05cf37565"},"vehicle_type_id":"4","last_reported":1739203886,"current_range_meters":38800,"station_id":"ce4bhgp2rcd13ifvqfe0","pricing_plan_id":"cebpf4jnsgd1na2vs0mg"},{"bike_id":"b23895f0-3e12-4e7d-aaf9-b6a4ef69306d","system_id":"levelo_inurba_marseille","lat":43.2997,"lon":5.38521,"is_reserved":false,"is_disabled":false,"rental_uris":{"android":"levelo://app?vid=b23895f0-3e12-4e7d-aaf9-b6a4ef69306d","ios":"levelo://app?vid=b23895f0-3e12-4e7d-aaf9-b6a4ef69306d"},"vehicle_type_id":"4","last_reported":1739203886,"current_range_meters":31200,"station_id":"ce4bgj92rcd13ifvqbd0","pricing_plan_id":"cebpf4jnsgd1na2vs0mg"},{"bike_id":"edf36067-d748-458d-beb6-7f39cc2f3012","system_id":"levelo_inurba_marseille","lat":43.29776,"lon":5.37106,"is_reserved":false,"is_disabled":false,"rental_uris":{"android":"levelo://app?vid=edf36067-d748-458d-beb6-7f39cc2f3012","ios":"levelo://app?vid=edf36067-d748-458d-beb6-7f39cc2f3012"},"vehicle_type_id":"4","last_reported":1739203886,"current_range_meters":20800,"station_id":"ce4bgop2rcd13ifvqc1g","pricing_plan_id":"cebpf4jnsgd1na2vs0mg"},{"bike_id":"f2a19d6d-1c3c-4ae5-a155-e51d34c1aabd","system_id":"levelo_inurba_marseille","lat":43.28573,"lon":5.39499,"is_reserved":false,"is_disabled":false,"rental_uris":{"android":"levelo://app?vid=f2a19d6d-1c3c-4ae5-a155-e51d34c1aabd","ios":"levelo://app?vid=f2a19d6d-1c3c-4ae5-a155-e51d34c1aabd"},"vehicle_type_id":"4","last_reported":1739203886,"current_range_meters":24000,"station_id":"ce4bh292rcd13ifvqdg0","pricing_plan_id":"cebpf4jnsgd1na2vs0mg"},{"bike_id":"118acaa8-c377-4759-a8f9-c3303973ef34","system_id":"levelo_inurba_marseille","lat":43.29873,"lon":5.38916,"is_reserved":false,"is_disabled":false,"rental_uris":{"android":"levelo://app?vid=118acaa8-c377-4759-a8f9-c3303973ef34","ios":"levelo://app?vid=118acaa8-c377-4759-a8f9-c3303973ef34"},"vehicle_type_id":"4","last_reported":1739203886,"current_range_meters":28400,"station_id":"ce4bh392rcd13ifvqdl0","pricing_plan_id":"cebpf4jnsgd1na2vs0mg"},{"bike_id":"6720d3b8-d1d3-4fa6-ab83-faba7cacdc07","system_id":"levelo_inurba_marseille","lat":43.28696,"lon":5.37409,"is_reserved":false,"is_disabled":false,"rental_uris":{"android":"levelo://app?vid=6720d3b8-d1d3-4fa6-ab83-faba7cacdc07","ios":"levelo://app?vid=6720d3b8-d1d3-4fa6-ab83-faba7cacdc07"},"vehicle_type_id":"4","last_reported":1739203886,"current_range_meters":20800,"station_id":"ce4bh3p2rcd13ifvqdq0","pricing_plan_id":"cebpf4jnsgd1na2vs0mg"},{"bike_id":"58285070-f2ca-4833-8bae-b9c436370def","system_id":"levelo_inurba_marseille","lat":43.32289,"lon":5.38273,"is_reserved":false,"is_disabled":false,"rental_uris":{"android":"levelo://app?vid=58285070-f2ca-4833-8bae-b9c436370def","ios":"levelo://app?vid=58285070-f2ca-4833-8bae-b9c436370def"},"vehicle_type_id":"4","last_reported":1739203886,"current_range_meters":12400,"station_id":"ce4bhr12rcd13ifvqhqg","pricing_plan_id":"cebpf4jnsgd1na2vs0mg"},{"bike_id":"10a8aa0e-b281-454d-8c08-561faec463d8","system_id":"levelo_inurba_marseille","lat":43.29225,"lon":5.36076,"is_reserved":false,"is_disabled":false,"rental_uris":{"android":"levelo://app?vid=10a8aa0e-b281-454d-8c08-561faec463d8","ios":"levelo://app?vid=10a8aa0e-b281-454d-8c08-561faec463d8"},"vehicle_type_id":"4","last_reported":1739203886,"current_range_meters":36000,"station_id":"ce4bhbh2rcd13ifvqeqg","pricing_plan_id":"cebpf4jnsgd1na2vs0mg"},{"bike_id":"54ce597b-1ca1-4d62-923d-d4b29eec04b3","system_id":"levelo_inurba_marseille","lat":43.31131,"lon":5.38261,"is_reserved":false,"is_disabled":false,"rental_uris":{"android":"levelo://app?vid=54ce597b-1ca1-4d62-923d-d4b29eec04b3","ios":"levelo://app?vid=54ce597b-1ca1-4d62-923d-d4b29eec04b3"},"vehicle_type_id":"4","last_reported":1739203886,"current_range_meters":24800,"station_id":"","pricing_plan_id":"cebpf4jnsgd1na2vs0mg"},{"bike_id":"b4765ae2-b7fb-4718-bf68-ce7ba2c817f9","system_id":"levelo_inurba_marseille","lat":43.27078,"lon":5.4229,"is_reserved":false,"is_disabled":false,"rental_uris":{"android":"levelo://app?vid=b4765ae2-b7fb-4718-bf68-ce7ba2c817f9","ios":"levelo://app?vid=b4765ae2-b7fb-4718-bf68-ce7ba2c817f9"},"vehicle_type_id":"4","last_reported":1739203886,"current_range_meters":27600,"station_id":"ce4bhk92rcd13ifvqgb0","pricing_plan_id":"cebpf4jnsgd1na2vs0mg"},{"bike_id":"a208325e-37e5-4c4e-8da6-ada4810a13ed","system_id":"levelo_inurba_marseille","lat":43.26059,"lon":5.39395,"is_reserved":false,"is_disabled":false,"rental_uris":{"android":"levelo://app?vid=a208325e-37e5-4c4e-8da6-ada4810a13ed","ios":"levelo://app?vid=a208325e-37e5-4c4e-8da6-ada4810a13ed"},"vehicle_type_id":"4","last_reported":1739203886,"current_range_meters":36800,"station_id":"ce4bhh92rcd13ifvqfj0","pricing_plan_id":"cebpf4jnsgd1na2vs0mg"},{"bike_id":"a2edcc76-2265-4bc6-8f2e-29b460d743ff","system_id":"levelo_inurba_marseille","lat":43.25583,"lon":5.38231,"is_reserved":false,"is_disabled":false,"rental_uris":{"android":"levelo://app?vid=a2edcc76-2265-4bc6-8f2e-29b460d743ff","ios":"levelo://app?vid=a2edcc76-2265-4bc6-8f2e-29b460d743ff"},"vehicle_type_id":"4","last_reported":1739203886,"current_range_meters":25200,"station_id":"ce4bhih2rcd13ifvqfs0","pricing_plan_id":"cebpf4jnsgd1na2vs0mg"},{"bike_id":"145b7996-82bb-4603-83f9-d90a966eaf15","system_id":"levelo_inurba_marseille","lat":43.27066,"lon":5.40251,"is_reserved":false,"is_disabled":false,"rental_uris":{"android":"levelo://app?vid=145b7996-82bb-4603-83f9-d90a966eaf15","ios":"levelo://app?vid=145b7996-82bb-4603-83f9-d90a966eaf15"},"vehicle_type_id":"4","last_reported":1739203886,"current_range_meters":6800,"station_id":"ce4bhk92rcd13ifvqgc0","pricing_plan_id":"cebpf4jnsgd1na2vs0mg"},{"bike_id":"ec4b1bf0-ff38-44aa-a534-498a12fade01","system_id":"levelo_inurba_marseille","lat":43.29298,"lon":5.37465,"is_reserved":false,"is_disabled":false,"rental_uris":{"android":"levelo://app?vid=ec4b1bf0-ff38-44aa-a534-498a12fade01","ios":"levelo://app?vid=ec4b1bf0-ff38-44aa-a534-498a12fade01"},"vehicle_type_id":"4","last_reported":1739203886,"current_range_meters":24400,"station_id":"ce4bgi12rcd13ifvqb70","pricing_plan_id":"cebpf4jnsgd1na2vs0mg"},{"bike_id":"d32bab5e-705c-4dea-845b-8e9894a35e11","system_id":"levelo_inurba_marseille","lat":43.25084,"lon":5.39526,"is_reserved":false,"is_disabled":false,"rental_uris":{"android":"levelo://app?vid=d32bab5e-705c-4dea-845b-8e9894a35e11","ios":"levelo://app?vid=d32bab5e-705c-4dea-845b-8e9894a35e11"},"vehicle_type_id":"4","last_reported":1739203886,"current_range_meters":15200,"station_id":"ce4bhm12rcd13ifvqgkg","pricing_plan_id":"cebpf4jnsgd1na2vs0mg"},{"bike_id":"f6032093-acba-469c-87fb-29d8d78369ea","system_id":"levelo_inurba_marseille","lat":43.28611,"lon":5.35109,"is_reserved":false,"is_disabled":false,"rental_uris":{"android":"levelo://app?vid=f6032093-acba-469c-87fb-29d8d78369ea","ios":"levelo://app?vid=f6032093-acba-469c-87fb-29d8d78369ea"},"vehicle_type_id":"4","last_reported":1739203886,"current_range_meters":28800,"station_id":"ce4bhch2rcd13ifvqeug","pricing_plan_id":"cebpf4jnsgd1na2vs0mg"},{"bike_id":"a59bcb7e-b2e3-4ee5-b218-1c28e53b3039","system_id":"levelo_inurba_marseille","lat":43.27319,"lon":5.39075,"is_reserved":false,"is_disabled":false,"rental_uris":{"android":"levelo://app?vid=a59bcb7e-b2e3-4ee5-b218-1c28e53b3039","ios":"levelo://app?vid=a59bcb7e-b2e3-4ee5-b218-1c28e53b3039"},"vehicle_type_id":"4","last_reported":1739203886,"current_range_meters":4400,"station_id":"ce4bhgp2rcd13ifvqfe0","pricing_plan_id":"cebpf4jnsgd1na2vs0mg"},{"bike_id":"f708cebf-b6c0-49e5-ad77-2d402ac181d6","system_id":"levelo_inurba_marseille","lat":43.27315,"lon":5.39095,"is_reserved":false,"is_disabled":false,"rental_uris":{"android":"levelo://app?vid=f708cebf-b6c0-49e5-ad77-2d402ac181d6","ios":"levelo://app?vid=f708cebf-b6c0-49e5-ad77-2d402ac181d6"},"vehicle_type_id":"4","last_reported":1739203886,"current_range_meters":22800,"station_id":"ce4bhgp2rcd13ifvqfe0","pricing_plan_id":"cebpf4jnsgd1na2vs0mg"},{"bike_id":"53ff6af4-dd50-49f7-95ca-5bc40ffce5be","system_id":"levelo_inurba_marseille","lat":43.27814,"lon":5.40718,"is_reserved":false,"is_disabled":false,"rental_uris":{"android":"levelo://app?vid=53ff6af4-dd50-49f7-95ca-5bc40ffce5be","ios":"levelo://app?vid=53ff6af4-dd50-49f7-95ca-5bc40ffce5be"},"vehicle_type_id":"4","last_reported":1739203886,"current_range_meters":38800,"station_id":"ce4bhnh2rcd13ifvqgtg","pricing_plan_id":"cebpf4jnsgd1na2vs0mg"},{"bike_id":"ec849b97-32e8-4538-a3ea-2e1cfc5ef6fe","system_id":"levelo_inurba_marseille","lat":43.28615,"lon":5.37065,"is_reserved":false,"is_disabled":false,"rental_uris":{"android":"levelo://app?vid=ec849b97-32e8-4538-a3ea-2e1cfc5ef6fe","ios":"levelo://app?vid=ec849b97-32e8-4538-a3ea-2e1cfc5ef6fe"},"vehicle_type_id":"4","last_reported":1739203886,"current_range_meters":38000,"station_id":"ce4bht12rcd13ifvqi60","pricing_plan_id":"cebpf4jnsgd1na2vs0mg"},{"bike_id":"0d06f8ed-583f-4925-acc0-af879bb23622","system_id":"levelo_inurba_marseille","lat":43.27759,"lon":5.39865,"is_reserved":false,"is_disabled":true,"rental_uris":{"android":"levelo://app?vid=0d06f8ed-583f-4925-acc0-af879bb23622","ios":"levelo://app?vid=0d06f8ed-583f-4925-acc0-af879bb23622"},"vehicle_type_id":"4","last_reported":1739203886,"current_range_meters":0,"station_id":"","pricing_plan_id":"cebpf4jnsgd1na2vs0mg"},{"bike_id":"9e2b6d64-1586-4f68-b555-087a0a9cb92b","system_id":"levelo_inurba_marseille","lat":43.29208,"lon":5.39332,"is_reserved":false,"is_disabled":false,"rental_uris":{"android":"levelo://app?vid=9e2b6d64-1586-4f68-b555-087a0a9cb92b","ios":"levelo://app?vid=9e2b6d64-1586-4f68-b555-087a0a9cb92b"},"vehicle_type_id":"4","last_reported":1739203886,"current_range_meters":16400,"station_id":"ce4bh192rcd13ifvqdd0","pricing_plan_id":"cebpf4jnsgd1na2vs0mg"},{"bike_id":"1cde10bb-67e3-4a1c-84fc-e3c262c63259","system_id":"levelo_inurba_marseille","lat":43.30638,"lon":5.40086,"is_reserved":false,"is_disabled":false,"rental_uris":{"android":"levelo://app?vid=1cde10bb-67e3-4a1c-84fc-e3c262c63259","ios":"levelo://app?vid=1cde10bb-67e3-4a1c-84fc-e3c262c63259"},"vehicle_type_id":"4","last_reported":1739203886,"current_range_meters":27200,"station_id":"ce4bh112rcd13ifvqda0","pricing_plan_id":"cebpf4jnsgd1na2vs0mg"},{"bike_id":"d606c525-7dbc-4209-ad64-fc43807a857e","system_id":"levelo_inurba_marseille","lat":43.2799,"lon":5.39984,"is_reserved":false,"is_disabled":false,"rental_uris":{"android":"levelo://app?vid=d606c525-7dbc-4209-ad64-fc43807a857e","ios":"levelo://app?vid=d606c525-7dbc-4209-ad64-fc43807a857e"},"vehicle_type_id":"4","last_reported":1739203886,"current_range_meters":35200,"station_id":"ce4bho92rcd13ifvqh4g","pricing_plan_id":"cebpf4jnsgd1na2vs0mg"},{"bike_id":"15d8c906-1286-4b4c-9ca3-d38c21e42dbe","system_id":"levelo_inurba_marseille","lat":43.27954,"lon":5.38761,"is_reserved":false,"is_disabled":false,"rental_uris":{"android":"levelo://app?vid=15d8c906-1286-4b4c-9ca3-d38c21e42dbe","ios":"levelo://app?vid=15d8c906-1286-4b4c-9ca3-d38c21e42dbe"},"vehicle_type_id":"4","last_reported":1739203886,"current_range_meters":15200,"station_id":"ce4bhg12rcd13ifvqf80","pricing_plan_id":"cebpf4jnsgd1na2vs0mg"},{"bike_id":"4112fca7-ef57-460b-ab4e-479bd8d00484","system_id":"levelo_inurba_marseille","lat":43.27215,"lon":5.39195,"is_reserved":false,"is_disabled":false,"rental_uris":{"android":"levelo://app?vid=4112fca7-ef57-460b-ab4e-479bd8d00484","ios":"levelo://app?vid=4112fca7-ef57-460b-ab4e-479bd8d00484"},"vehicle_type_id":"4","last_reported":1739203886,"current_range_meters":6000,"station_id":"ce4bhhp2rcd13ifvqfm0","pricing_plan_id":"cebpf4jnsgd1na2vs0mg"},{"bike_id":"4310aa91-d98e-448d-8506-7cd4fe1c6560","system_id":"levelo_inurba_marseille","lat":43.24387,"lon":5.37059,"is_reserved":false,"is_disabled":false,"rental_uris":{"android":"levelo://app?vid=4310aa91-d98e-448d-8506-7cd4fe1c6560","ios":"levelo://app?vid=4310aa91-d98e-448d-8506-7cd4fe1c6560"},"vehicle_type_id":"4","last_reported":1739203886,"current_range_meters":17200,"station_id":"ce4bhhh2rcd13ifvqfk0","pricing_plan_id":"cebpf4jnsgd1na2vs0mg"},{"bike_id":"277fab29-c1dc-4fca-bdc0-afb633753197","system_id":"levelo_inurba_marseille","lat":43.24391,"lon":5.37048,"is_reserved":false,"is_disabled":false,"rental_uris":{"android":"levelo://app?vid=277fab29-c1dc-4fca-bdc0-afb633753197","ios":"levelo://app?vid=277fab29-c1dc-4fca-bdc0-afb633753197"},"vehicle_type_id":"4","last_reported":1739203886,"current_range_meters":38800,"station_id":"ce4bhhh2rcd13ifvqfk0","pricing_plan_id":"cebpf4jnsgd1na2vs0mg"},{"bike_id":"68f2e2f5-6877-4dcc-b245-592907d28096","system_id":"levelo_inurba_marseille","lat":43.27552,"lon":5.3841,"is_reserved":false,"is_disabled":false,"rental_uris":{"android":"levelo://app?vid=68f2e2f5-6877-4dcc-b245-592907d28096","ios":"levelo://app?vid=68f2e2f5-6877-4dcc-b245-592907d28096"},"vehicle_type_id":"4","last_reported":1739203886,"current_range_meters":38800,"station_id":"ce4bhh92rcd13ifvqfi0","pricing_plan_id":"cebpf4jnsgd1na2vs0mg"},{"bike_id":"cda48b2f-1182-4f4a-969a-7bcc019636b4","system_id":"levelo_inurba_marseille","lat":43.2998,"lon":5.38473,"is_reserved":false,"is_disabled":false,"rental_uris":{"android":"levelo://app?vid=cda48b2f-1182-4f4a-969a-7bcc019636b4","ios":"levelo://app?vid=cda48b2f-1182-4f4a-969a-7bcc019636b4"},"vehicle_type_id":"4","last_reported":1739203886,"current_range_meters":30400,"station_id":"ce4bgj92rcd13ifvqbd0","pricing_plan_id":"cebpf4jnsgd1na2vs0mg"},{"bike_id":"c15d59d7-d315-4758-9ed2-8135d2e3d9d2","system_id":"levelo_inurba_marseille","lat":43.26805,"lon":5.40256,"is_reserved":false,"is_disabled":false,"rental_uris":{"android":"levelo://app?vid=c15d59d7-d315-4758-9ed2-8135d2e3d9d2","ios":"levelo://app?vid=c15d59d7-d315-4758-9ed2-8135d2e3d9d2"},"vehicle_type_id":"4","last_reported":1739203886,"current_range_meters":36000,"station_id":"ce501612rcd8frsf0b60","pricing_plan_id":"cebpf4jnsgd1na2vs0mg"},{"bike_id":"d157203c-3a5b-4bbc-9638-6eefce740d5e","system_id":"levelo_inurba_marseille","lat":43.23192,"lon":5.35555,"is_reserved":false,"is_disabled":false,"rental_uris":{"android":"levelo://app?vid=d157203c-3a5b-4bbc-9638-6eefce740d5e","ios":"levelo://app?vid=d157203c-3a5b-4bbc-9638-6eefce740d5e"},"vehicle_type_id":"4","last_reported":1739203886,"current_range_meters":38800,"station_id":"ce4bhu92rcd13ifvqi70","pricing_plan_id":"cebpf4jnsgd1na2vs0mg"},{"bike_id":"82033e05-54e2-41da-897a-6b57cf6cff67","system_id":"levelo_inurba_marseille","lat":43.28848,"lon":5.35895,"is_reserved":false,"is_disabled":true,"rental_uris":{"android":"levelo://app?vid=82033e05-54e2-41da-897a-6b57cf6cff67","ios":"levelo://app?vid=82033e05-54e2-41da-897a-6b57cf6cff67"},"vehicle_type_id":"4","last_reported":1739203886,"current_range_meters":1200,"station_id":"ce4bhb12rcd13ifvqem0","pricing_plan_id":"cebpf4jnsgd1na2vs0mg"},{"bike_id":"c966f66f-638e-4218-b1f1-bc3b8822ffa0","system_id":"levelo_inurba_marseille","lat":43.29268,"lon":5.36853,"is_reserved":false,"is_disabled":false,"rental_uris":{"android":"levelo://app?vid=c966f66f-638e-4218-b1f1-bc3b8822ffa0","ios":"levelo://app?vid=c966f66f-638e-4218-b1f1-bc3b8822ffa0"},"vehicle_type_id":"4","last_reported":1739203886,"current_range_meters":28000,"station_id":"ce4bhbp2rcd13ifvqesg","pricing_plan_id":"cebpf4jnsgd1na2vs0mg"},{"bike_id":"6477f7d9-757f-4fec-8c2c-6f528ed204dc","system_id":"levelo_inurba_marseille","lat":43.24161,"lon":5.36401,"is_reserved":false,"is_disabled":false,"rental_uris":{"android":"levelo://app?vid=6477f7d9-757f-4fec-8c2c-6f528ed204dc","ios":"levelo://app?vid=6477f7d9-757f-4fec-8c2c-6f528ed204dc"},"vehicle_type_id":"4","last_reported":1739203886,"current_range_meters":9600,"station_id":"cpo36qri1sfpv3e86is0","pricing_plan_id":"cebpf4jnsgd1na2vs0mg"},{"bike_id":"42328eb6-0e8f-42b7-a9a6-e1f2e4608848","system_id":"levelo_inurba_marseille","lat":43.25577,"lon":5.38241,"is_reserved":false,"is_disabled":false,"rental_uris":{"android":"levelo://app?vid=42328eb6-0e8f-42b7-a9a6-e1f2e4608848","ios":"levelo://app?vid=42328eb6-0e8f-42b7-a9a6-e1f2e4608848"},"vehicle_type_id":"4","last_reported":1739203886,"current_range_meters":38400,"station_id":"ce4bhih2rcd13ifvqfs0","pricing_plan_id":"cebpf4jnsgd1na2vs0mg"},{"bike_id":"073c638d-f67d-4e0c-b317-ac6f6333f297","system_id":"levelo_inurba_marseille","lat":43.27841,"lon":5.39199,"is_reserved":false,"is_disabled":false,"rental_uris":{"android":"levelo://app?vid=073c638d-f67d-4e0c-b317-ac6f6333f297","ios":"levelo://app?vid=073c638d-f67d-4e0c-b317-ac6f6333f297"},"vehicle_type_id":"4","last_reported":1739203886,"current_range_meters":38800,"station_id":"ce4bhjp2rcd13ifvqga0","pricing_plan_id":"cebpf4jnsgd1na2vs0mg"},{"bike_id":"1f43a818-efe6-476a-b574-b034db776a59","system_id":"levelo_inurba_marseille","lat":43.30932,"lon":5.40149,"is_reserved":false,"is_disabled":false,"rental_uris":{"android":"levelo://app?vid=1f43a818-efe6-476a-b574-b034db776a59","ios":"levelo://app?vid=1f43a818-efe6-476a-b574-b034db776a59"},"vehicle_type_id":"4","last_reported":1739203886,"current_range_meters":36800,"station_id":"ce4bgvp2rcd13ifvqct0","pricing_plan_id":"cebpf4jnsgd1na2vs0mg"},{"bike_id":"089e09c8-61c1-4c1c-9c0b-cb9c44f5f582","system_id":"levelo_inurba_marseille","lat":43.27577,"lon":5.38435,"is_reserved":false,"is_disabled":false,"rental_uris":{"android":"levelo://app?vid=089e09c8-61c1-4c1c-9c0b-cb9c44f5f582","ios":"levelo://app?vid=089e09c8-61c1-4c1c-9c0b-cb9c44f5f582"},"vehicle_type_id":"4","last_reported":1739203886,"current_range_meters":24800,"station_id":"ce4bhh92rcd13ifvqfi0","pricing_plan_id":"cebpf4jnsgd1na2vs0mg"},{"bike_id":"5056a139-0a18-4cf7-b5f2-5d5036ac0e6d","system_id":"levelo_inurba_marseille","lat":43.24645,"lon":5.38886,"is_reserved":false,"is_disabled":false,"rental_uris":{"android":"levelo://app?vid=5056a139-0a18-4cf7-b5f2-5d5036ac0e6d","ios":"levelo://app?vid=5056a139-0a18-4cf7-b5f2-5d5036ac0e6d"},"vehicle_type_id":"4","last_reported":1739203886,"current_range_meters":14400,"station_id":"ce4bhg12rcd13ifvqf60","pricing_plan_id":"cebpf4jnsgd1na2vs0mg"},{"bike_id":"f7324774-aba1-4f8d-b8dc-42a3b830ec32","system_id":"levelo_inurba_marseille","lat":43.27076,"lon":5.4227,"is_reserved":false,"is_disabled":false,"rental_uris":{"android":"levelo://app?vid=f7324774-aba1-4f8d-b8dc-42a3b830ec32","ios":"levelo://app?vid=f7324774-aba1-4f8d-b8dc-42a3b830ec32"},"vehicle_type_id":"4","last_reported":1739203886,"current_range_meters":8400,"station_id":"ce4bhk92rcd13ifvqgb0","pricing_plan_id":"cebpf4jnsgd1na2vs0mg"},