{"last_updated":1725952183,"ttl":30,"version":"2.2","data":{"bikes":[{"bike_id":"a47f7dd8-aade-4ce4-aef6-9830da654318","system_id":"levelo_inurba_marseille","lat":43.265627,"lon":5.390106,"is_reserved":false,"is_disabled":false,"rental_uris":{"android":"levelo://app?vid=a47f7dd8-aade-4ce4-aef6-9830da654318","ios":"levelo://app?vid=a47f7dd8-aade-4ce4-aef6-9830da654318"},"vehicle_type_id":"4","last_reported":1725952183,"current_range_meters":20800,"station_id":"ce4bhhh2rcd13ifvqfl0","pricing_plan_id":"cebpf4jnsgd1na2vs0mg"},{"bike_id":"cc2bea76-45c1-4083-af29-bfe44deb5417","system_id":"levelo_inurba_marseille","lat":43.32292,"lon":5.38272,"is_reserved":false,"is_disabled":false,"rental_uris":{"android":"levelo://app?vid=cc2bea76-45c1-4083-af29-bfe44deb5417","ios":"levelo://app?vid=cc2bea76-45c1-4083-af29-bfe44deb5417"},"vehicle_type_id":"4","last_reported":1725952183,"current_range_meters":25600,"station_id":"ce4bhr12rcd13ifvqhqg","pricing_plan_id":"cebpf4jnsgd1na2vs0mg"},{"bike_id":"7bc853ec-e417-41e9-8321-986f80543a07","system_id":"levelo_inurba_marseille","lat":43.3091,"lon":5.36841,"is_reserved":false,"is_disabled":false,"rental_uris":{"android":"levelo://app?vid=7bc853ec-e417-41e9-8321-986f80543a07","ios":"levelo://app?vid=7bc853ec-e417-41e9-8321-986f80543a07"},"vehicle_type_id":"4","last_reported":1725952183,"current_range_meters":24000,"station_id":"ce4bgn92rcd13ifvqbvg","pricing_plan_id":"cebpf4jnsgd1na2vs0mg"},{"bike_id":"893900fa-905b-44d9-b4f5-8131c552abed","system_id":"levelo_inurba_marseille","lat":43.30537,"lon":5.36711,"is_reserved":false,"is_disabled":false,"rental_uris":{"android":"levelo://app?vid=893900fa-905b-44d9-b4f5-8131c552abed","ios":"levelo://app?vid=893900fa-905b-44d9-b4f5-8131c552abed"},"vehicle_type_id":"4","last_reported":1725952183,"current_range_meters":33600,"station_id":"ce4bgrp2rcd13ifvqc9g","pricing_plan_id":"cebpf4jnsgd1na2vs0mg"},{"bike_id":"317167fb-451a-48ab-aff6-0945e2c67bfb","system_id":"levelo_inurba_marseille","lat":43.23204,"lon":5.39968,"is_reserved":false,"is_disabled":false,"rental_uris":{"android":"levelo://app?vid=317167fb-451a-48ab-aff6-0945e2c67bfb","ios":"levelo://app?vid=317167fb-451a-48ab-aff6-0945e2c67bfb"},"vehicle_type_id":"4","last_reported":1725952183,"current_range_meters":21600,"station_id":"ce4bhn12rcd13ifvqgqg","pricing_plan_id":"cebpf4jnsgd1na2vs0mg"},{"bike_id":"bc30dbe3-2402-4b3a-b5da-8f5d9a126da2","system_id":"levelo_inurba_marseille","lat":43.25947,"lon":5.40893,"is_reserved":false,"is_disabled":false,"rental_uris":{"android":"levelo://app?vid=bc30dbe3-2402-4b3a-b5da-8f5d9a126da2","ios":"levelo://app?vid=bc30dbe3-2402-4b3a-b5da-8f5d9a126da2"},"vehicle_type_id":"4","last_reported":1725952183,"current_range_meters":26000,"station_id":"ce4bhm92rcd13ifvqglg","pricing_plan_id":"cebpf4jnsgd1na2vs0mg"},{"bike_id":"cf48420d-e24d-4152-9dde-cf2fe16c6ccf","system_id":"levelo_inurba_marseille","lat":43.310066,"lon":5.366967,"is_reserved":false,"is_disabled":false,"rental_uris":{"android":"levelo://app?vid=cf48420d-e24d-4152-9dde-cf2fe16c6ccf","ios":"levelo://app?vid=cf48420d-e24d-4152-9dde-cf2fe16c6ccf"},"vehicle_type_id":"4","last_reported":1725952183,"current_range_meters":14000,"station_id":"ce4bgn92rcd13ifvqbvg","pricing_plan_id":"cebpf4jnsgd1na2vs0mg"},{"bike_id":"9938e91c-265b-40a5-a9ee-a8a818767b92","system_id":"levelo_inurba_marseille","lat":43.24671,"lon":5.38173,"is_reserved":false,"is_disabled":false,"rental_uris":{"android":"levelo://app?vid=9938e91c-265b-40a5-a9ee-a8a818767b92","ios":"levelo://app?vid=9938e91c-265b-40a5-a9ee-a8a818767b92"},"vehicle_type_id":"4","last_reported":1725952183,"current_range_meters":16000,"station_id":"ce4bhih2rcd13ifvqfr0","pricing_plan_id":"cebpf4jnsgd1na2vs0mg"},{"bike_id":"5a760c2a-12c8-4f32-8ba6-ea2f14a5da90","system_id":"levelo_inurba_marseille","lat":43.31721,"lon":5.42399,"is_reserved":false,"is_disabled":false,"rental_uris":{"android":"levelo://app?vid=5a760c2a-12c8-4f32-8ba6-ea2f14a5da90","ios":"levelo://app?vid=5a760c2a-12c8-4f32-8ba6-ea2f14a5da90"},"vehicle_type_id":"4","last_reported":1725952183,"current_range_meters":38800,"station_id":"ce4bhp92rcd13ifvqhbg","pricing_plan_id":"cebpf4jnsgd1na2vs0mg"},{"bike_id":"b02222ec-0387-4ff5-8918-29e62bcf5a98","system_id":"levelo_inurba_marseille","lat":43.32488,"lon":5.3656,"is_reserved":false,"is_disabled":false,"rental_uris":{"android":"levelo://app?vid=b02222ec-0387-4ff5-8918-29e62bcf5a98","ios":"levelo://app?vid=b02222ec-0387-4ff5-8918-29e62bcf5a98"},"vehicle_type_id":"4","last_reported":1725952183,"current_range_meters":22000,"station_id":"ce4bhs12rcd13ifvqhvg","pricing_plan_id":"cebpf4jnsgd1na2vs0mg"},{"bike_id":"25a734f0-5a58-49fa-9e2e-761a6040d468","system_id":"levelo_inurba_marseille","lat":43.2315,"lon":5.43715,"is_reserved":false,"is_disabled":false,"rental_uris":{"android":"levelo://app?vid=25a734f0-5a58-49fa-9e2e-761a6040d468","ios":"levelo://app?vid=25a734f0-5a58-49fa-9e2e-761a6040d468"},"vehicle_type_id":"4","last_reported":1725952183,"current_range_meters":19600,"station_id":"ce4bhmp2rcd13ifvqgog","pricing_plan_id":"cebpf4jnsgd1na2vs0mg"},{"bike_id":"273bfe13-bc71-40ca-9955-e31d49cb88e0","system_id":"levelo_inurba_marseille","lat":43.23965,"lon":5.36621,"is_reserved":false,"is_disabled":false,"rental_uris":{"android":"levelo://app?vid=273bfe13-bc71-40ca-9955-e31d49cb88e0","ios":"levelo://app?vid=273bfe13-bc71-40ca-9955-e31d49cb88e0"},"vehicle_type_id":"4","last_reported":1725952183,"current_range_meters":38000,"station_id":"ce4bhi12rcd13ifvqfp0","pricing_plan_id":"cebpf4jnsgd1na2vs0mg"},{"bike_id":"1004d728-47f8-412d-8377-50e23da8c190","system_id":"levelo_inurba_marseille","lat":43.30479,"lon":5.37902,"is_reserved":false,"is_disabled":false,"rental_uris":{"android":"levelo://app?vid=1004d728-47f8-412d-8377-50e23da8c190","ios":"levelo://app?vid=1004d728-47f8-412d-8377-50e23da8c190"},"vehicle_type_id":"4","last_reported":1725952183,"current_range_meters":25200,"station_id":"ce4bgup2rcd13ifvqcn0","pricing_plan_id":"cebpf4jnsgd1na2vs0mg"},{"bike_id":"f5c9d5a3-bded-4bdf-a211-9658b468f702","system_id":"levelo_inurba_marseille","lat":43.32293,"lon":5.38275,"is_reserved":false,"is_disabled":false,"rental_uris":{"android":"levelo://app?vid=f5c9d5a3-bded-4bdf-a211-9658b468f702","ios":"levelo://app?vid=f5c9d5a3-bded-4bdf-a211-9658b468f702"},"vehicle_type_id":"4","last_reported":1725952183,"current_range_meters":37600,"station_id":"ce4bhr12rcd13ifvqhqg","pricing_plan_id":"cebpf4jnsgd1na2vs0mg"},{"bike_id":"49fec638-a96b-42fd-9f27-ec7b044f5323","system_id":"levelo_inurba_marseille","lat":43.27074,"lon":5.42273,"is_reserved":false,"is_disabled":false,"rental_uris":{"android":"levelo://app?vid=49fec638-a96b-42fd-9f27-ec7b044f5323","ios":"levelo://app?vid=49fec638-a96b-42fd-9f27-ec7b044f5323"},"vehicle_type_id":"4","last_reported":1725952183,"current_range_meters":36400,"station_id":"ce4bhk92rcd13ifvqgb0","pricing_plan_id":"cebpf4jnsgd1na2vs0mg"},{"bike_id":"73a1f507-b56c-43d3-a62b-4708c2b556d0","system_id":"levelo_inurba_marseille","lat":43.33753,"lon":5.37433,"is_reserved":false,"is_disabled":false,"rental_uris":{"android":"levelo://app?vid=73a1f507-b56c-43d3-a62b-4708c2b556d0","ios":"levelo://app?vid=73a1f507-b56c-43d3-a62b-4708c2b556d0"},"vehicle_type_id":"4","last_reported":1725952183,"current_range_meters":38800,"station_id":"","pricing_plan_id":"cebpf4jnsgd1na2vs0mg"},{"bike_id":"b93d60ca-63fe-44aa-8d91-30c91d297138","system_id":"levelo_inurba_marseille","lat":43.259319,"lon":5.409144,"is_reserved":false,"is_disabled":false,"rental_uris":{"android":"levelo://app?vid=b93d60ca-63fe-44aa-8d91-30c91d297138","ios":"levelo://app?vid=b93d60ca-63fe-44aa-8d91-30c91d297138"},"vehicle_type_id":"4","last_reported":1725952183,"current_range_meters":25200,"station_id":"ce4bhm92rcd13ifvqglg","pricing_plan_id":"cebpf4jnsgd1na2vs0mg"},{"bike_id":"5bd057c5-3c69-4225-a192-e675f9e98b56","system_id":"levelo_inurba_marseille","lat":43.31488,"lon":5.373,"is_reserved":false,"is_disabled":false,"rental_uris":{"android":"levelo://app?vid=5bd057c5-3c69-4225-a192-e675f9e98b56","ios":"levelo://app?vid=5bd057c5-3c69-4225-a192-e675f9e98b56"},"vehicle_type_id":"4","last_reported":1725952183,"current_range_meters":5600,"station_id":"ce4bgt12rcd13ifvqcd0","pricing_plan_id":"cebpf4jnsgd1na2vs0mg"},{"bike_id":"488cdd4b-b5b7-406b-afc8-e750963c9892","system_id":"levelo_inurba_marseille","lat":43.24811,"lon":5.37462,"is_reserved":false,"is_disabled":false,"rental_uris":{"android":"levelo://app?vid=488cdd4b-b5b7-406b-afc8-e750963c9892","ios":"levelo://app?vid=488cdd4b-b5b7-406b-afc8-e750963c9892"},"vehicle_type_id":"4","last_reported":1725952183,"current_range_meters":37600,"station_id":"ce4bhgh2rcd13ifvqfb0","pricing_plan_id":"cebpf4jnsgd1na2vs0mg"},{"bike_id":"173a22a6-c6b3-4156-ad2b-4962f41c7342","system_id":"levelo_inurba_marseille","lat":43.305282,"lon":5.367286,"is_reserved":false,"is_disabled":false,"rental_uris":{"android":"levelo://app?vid=173a22a6-c6b3-4156-ad2b-4962f41c7342","ios":"levelo://app?vid=173a22a6-c6b3-4156-ad2b-4962f41c7342"},"vehicle_type_id":"4","last_reported":1725952183,"current_range_meters":34800,"station_id":"ce4bgrp2rcd13ifvqc9g","pricing_plan_id":"cebpf4jnsgd1na2vs0mg"},{"bike_id":"92fe2e63-ce0b-42e3-b314-b4b16f31ac51","system_id":"levelo_inurba_marseille","lat":43.24805,"lon":5.37448,"is_reserved":false,"is_disabled":false,"rental_uris":{"android":"levelo://app?vid=92fe2e63-ce0b-42e3-b314-b4b16f31ac51","ios":"levelo://app?vid=92fe2e63-ce0b-42e3-b314-b4b16f31ac51"},"vehicle_type_id":"4","last_reported":1725952183,"current_range_meters":38800,"station_id":"ce4bhgh2rcd13ifvqfb0","pricing_plan_id":"cebpf4jnsgd1na2vs0mg"},{"bike_id":"ecd093b0-cb09-4215-84fd-f371c4afad1f","system_id":"levelo_inurba_marseille","lat":43.30908,"lon":5.36849,"is_reserved":false,"is_disabled":false,"rental_uris":{"android":"levelo://app?vid=ecd093b0-cb09-4215-84fd-f371c4afad1f","ios":"levelo://app?vid=ecd093b0-cb09-4215-84fd-f371c4afad1f"},"vehicle_type_id":"4","last_reported":1725952183,"current_range_meters":39200,"station_id":"ce4bgn92rcd13ifvqbvg","pricing_plan_id":"cebpf4jnsgd1na2vs0mg"},{"bike_id":"d47c8996-8ce0-4e7c-941c-803de33594ac","system_id":"levelo_inurba_marseille","lat":43.31499,"lon":5.37303,"is_reserved":false,"is_disabled":false,"rental_uris":{"android":"levelo://app?vid=d47c8996-8ce0-4e7c-941c-803de33594ac","ios":"levelo://app?vid=d47c8996-8ce0-4e7c-941c-803de33594ac"},"vehicle_type_id":"4","last_reported":1725952183,"current_range_meters":36000,"station_id":"ce4bgt12rcd13ifvqcd0","pricing_plan_id":"cebpf4jnsgd1na2vs0mg"},{"bike_id":"e2dbcbfc-fc2f-4194-855d-a61126008ef4","system_id":"levelo_inurba_marseille","lat":43.31344,"lon":5.36708,"is_reserved":false,"is_disabled":false,"rental_uris":{"android":"levelo://app?vid=e2dbcbfc-fc2f-4194-855d-a61126008ef4","ios":"levelo://app?vid=e2dbcbfc-fc2f-4194-855d-a61126008ef4"},"vehicle_type_id":"4","last_reported":1725952183,"current_range_meters":19200,"station_id":"ce4bgr92rcd13ifvqc6g","pricing_plan_id":"cebpf4jnsgd1na2vs0mg"},{"bike_id":"875ea4f5-d8a6-4d32-9e99-ec60f0eb2a55","system_id":"levelo_inurba_marseille","lat":43.24076,"lon":5.37755,"is_reserved":false,"is_disabled":false,"rental_uris":{"android":"levelo://app?vid=875ea4f5-d8a6-4d32-9e99-ec60f0eb2a55","ios":"levelo://app?vid=875ea4f5-d8a6-4d32-9e99-ec60f0eb2a55"},"vehicle_type_id":"4","last_reported":1725952183,"current_range_meters":35600,"station_id":"ce4bhnp2rcd13ifvqgvg","pricing_plan_id":"cebpf4jnsgd1na2vs0mg"},{"bike_id":"554ffcf8-37af-46dc-8cd5-b86128edbe5e","system_id":"levelo_inurba_marseille","lat":43.26958,"lon":5.38628,"is_reserved":false,"is_disabled":false,"rental_uris":{"android":"levelo://app?vid=554ffcf8-37af-46dc-8cd5-b86128edbe5e","ios":"levelo://app?vid=554ffcf8-37af-46dc-8cd5-b86128edbe5e"},"vehicle_type_id":"4","last_reported":1725952183,"current_range_meters":8800,"station_id":"ce4bhh92rcd13ifvqfh0","pricing_plan_id":"cebpf4jnsgd1na2vs0mg"},{"bike_id":"d0a22151-5873-4516-ad59-35801290152e","system_id":"levelo_inurba_marseille","lat":43.23196,"lon":5.3556,"is_reserved":false,"is_disabled":false,"rental_uris":{"android":"levelo://app?vid=d0a22151-5873-4516-ad59-35801290152e","ios":"levelo://app?vid=d0a22151-5873-4516-ad59-35801290152e"},"vehicle_type_id":"4","last_reported":1725952183,"current_range_meters":10800,"station_id":"ce4bhu92rcd13ifvqi70","pricing_plan_id":"cebpf4jnsgd1na2vs0mg"},{"bike_id":"68f8b6e1-4d03-45ce-841c-3f3408c75648","system_id":"levelo_inurba_marseille","lat":43.32547,"lon":5.41445,"is_reserved":false,"is_disabled":false,"rental_uris":{"android":"levelo://app?vid=68f8b6e1-4d03-45ce-841c-3f3408c75648","ios":"levelo://app?vid=68f8b6e1-4d03-45ce-841c-3f3408c75648"},"vehicle_type_id":"4","last_reported":1725952183,"current_range_meters":16000,"station_id":"ce4bhq12rcd13ifvqhhg","pricing_plan_id":"cebpf4jnsgd1na2vs0mg"},{"bike_id":"00b29d2b-8603-4598-bb82-f78900b5570b","system_id":"levelo_inurba_marseille","lat":43.3255,"lon":5.41449,"is_reserved":false,"is_disabled":false,"rental_uris":{"android":"levelo://app?vid=00b29d2b-8603-4598-bb82-f78900b5570b","ios":"levelo://app?vid=00b29d2b-8603-4598-bb82-f78900b5570b"},"vehicle_type_id":"4","last_reported":1725952183,"current_range_meters":34800,"station_id":"ce4bhq12rcd13ifvqhhg","pricing_plan_id":"cebpf4jnsgd1na2vs0mg"},{"bike_id":"548a6422-1926-4df1-a914-65ff0e099511","system_id":"levelo_inurba_marseille","lat":43.29038,"lon":5.37556,"is_reserved":false,"is_disabled":false,"rental_uris":{"android":"levelo://app?vid=548a6422-1926-4df1-a914-65ff0e099511","ios":"levelo://app?vid=548a6422-1926-4df1-a914-65ff0e099511"},"vehicle_type_id":"4","last_reported":1725952183,"current_range_meters":18000,"station_id":"ce4bh692rcd13ifvqe90","pricing_plan_id":"cebpf4jnsgd1na2vs0mg"},{"bike_id":"1ab9fb00-e476-4489-b866-d06c931a43fa","system_id":"levelo_inurba_marseille","lat":43.30802,"lon":5.37642,"is_reserved":false,"is_disabled":false,"rental_uris":{"android":"levelo://app?vid=1ab9fb00-e476-4489-b866-d06c931a43fa","ios":"levelo://app?vid=1ab9fb00-e476-4489-b866-d06c931a43fa"},"vehicle_type_id":"4","last_reported":1725952183,"current_range_meters":24000,"station_id":"ce4bgv92rcd13ifvqcq0","pricing_plan_id":"cebpf4jnsgd1na2vs0mg"},{"bike_id":"638a542d-d2fa-42df-8a61-24e11ffcd745","system_id":"levelo_inurba_marseille","lat":43.30148,"lon":5.37411,"is_reserved":false,"is_disabled":false,"rental_uris":{"android":"levelo://app?vid=638a542d-d2fa-42df-8a61-24e11ffcd745","ios":"levelo://app?vid=638a542d-d2fa-42df-8a61-24e11ffcd745"},"vehicle_type_id":"4","last_reported":1725952183,"current_range_meters":4400,"station_id":"ce4bgs92rcd13ifvqcc0","pricing_plan_id":"cebpf4jnsgd1na2vs0mg"},{"bike_id":"fcd0ef70-61af-449e-91a4-721e992f5485","system_id":"levelo_inurba_marseille","lat":43.23967,"lon":5.36631,"is_reserved":false,"is_disabled":false,"rental_uris":{"android":"levelo://app?vid=fcd0ef70-61af-449e-91a4-721e992f5485","ios":"levelo://app?vid=fcd0ef70-61af-449e-91a4-721e992f5485"},"vehicle_type_id":"4","last_reported":1725952183,"current_range_meters":28000,"station_id":"ce4bhi12rcd13ifvqfp0","pricing_plan_id":"cebpf4jnsgd1na2vs0mg"},{"bike_id":"c379a911-ce29-4e70-83a3-e7a9d2fe4120","system_id":"levelo_inurba_marseille","lat":43.26949,"lon":5.38635,"is_reserved":false,"is_disabled":false,"rental_uris":{"android":"levelo://app?vid=c379a911-ce29-4e70-83a3-e7a9d2fe4120","ios":"levelo://app?vid=c379a911-ce29-4e70-83a3-e7a9d2fe4120"},"vehicle_type_id":"4","last_reported":1725952183,"current_range_meters":38000,"station_id":"ce4bhh92rcd13ifvqfh0","pricing_plan_id":"cebpf4jnsgd1na2vs0mg"},{"bike_id":"a2ec860b-3cd0-4b74-b808-c9e72af2fa58","system_id":"levelo_inurba_marseille","lat":43.26964,"lon":5.38623,"is_reserved":false,"is_disabled":false,"rental_uris":{"android":"levelo://app?vid=a2ec860b-3cd0-4b74-b808-c9e72af2fa58","ios":"levelo://app?vid=a2ec860b-3cd0-4b74-b808-c9e72af2fa58"},"vehicle_type_id":"4","last_reported":1725952183,"current_range_meters":33600,"station_id":"ce4bhh92rcd13ifvqfh0","pricing_plan_id":"cebpf4jnsgd1na2vs0mg"},{"bike_id":"d0107236-82cf-4c5b-9115-8e3d984682df","system_id":"levelo_inurba_marseille","lat":43.25944,"lon":5.40897,"is_reserved":false,"is_disabled":false,"rental_uris":{"android":"levelo://app?vid=d0107236-82cf-4c5b-9115-8e3d984682df","ios":"levelo://app?vid=d0107236-82cf-4c5b-9115-8e3d984682df"},"vehicle_type_id":"4","last_reported":1725952183,"current_range_meters":22400,"station_id":"ce4bhm92rcd13ifvqglg","pricing_plan_id":"cebpf4jnsgd1na2vs0mg"},{"bike_id":"641a6f9a-c272-44cf-92d6-cbef97fa1631","system_id":"levelo_inurba_marseille","lat":43.26562,"lon":5.39024,"is_reserved":false,"is_disabled":false,"rental_uris":{"android":"levelo://app?vid=641a6f9a-c272-44cf-92d6-cbef97fa1631","ios":"levelo://app?vid=641a6f9a-c272-44cf-92d6-cbef97fa1631"},"vehicle_type_id":"4","last_reported":1725952183,"current_range_meters":20400,"station_id":"ce4bhe12rcd13ifvqf30","pricing_plan_id":"cebpf4jnsgd1na2vs0mg"},{"bike_id":"a50ca0cf-c0bd-4752-90d3-9be155298325","system_id":"levelo_inurba_marseille","lat":43.240761,"lon":5.377575,"is_reserved":false,"is_disabled":false,"rental_uris":{"android":"levelo://app?vid=a50ca0cf-c0bd-4752-90d3-9be155298325","ios":"levelo://app?vid=a50ca0cf-c0bd-4752-90d3-9be155298325"},"vehicle_type_id":"4","last_reported":1725952183,"current_range_meters":24800,"station_id":"ce4bhnp2rcd13ifvqgvg","pricing_plan_id":"cebpf4jnsgd1na2vs0mg"},{"bike_id":"208bd449-7377-44af-9c30-6b76f8186af1","system_id":"levelo_inurba_marseille","lat":43.302533,"lon":5.400711,"is_reserved":false,"is_disabled":false,"rental_uris":{"android":"levelo://app?vid=208bd449-7377-44af-9c30-6b76f8186af1","ios":"levelo://app?vid=208bd449-7377-44af-9c30-6b76f8186af1"},"vehicle_type_id":"4","last_reported":1725952183,"current_range_meters":31200,"station_id":"ce4bgvh2rcd13ifvqcs0","pricing_plan_id":"cebpf4jnsgd1na2vs0mg"},{"bike_id":"9bda4d35-5b4b-499b-886d-b99227b8c19a","system_id":"levelo_inurba_marseille","lat":43.30148,"lon":5.37417,"is_reserved":false,"is_disabled":false,"rental_uris":{"android":"levelo://app?vid=9bda4d35-5b4b-499b-886d-b99227b8c19a","ios":"levelo://app?vid=9bda4d35-5b4b-499b-886d-b99227b8c19a"},"vehicle_type_id":"4","last_reported":1725952183,"current_range_meters":32800,"station_id":"ce4bgs92rcd13ifvqcc0","pricing_plan_id":"cebpf4jnsgd1na2vs0mg"},{"bike_id":"937e5b38-856f-41e4-a80d-153213bb6f8c","system_id":"levelo_inurba_marseille","lat":43.30468,"lon":5.37901,"is_reserved":false,"is_disabled":false,"rental_uris":{"android":"levelo://app?vid=937e5b38-856f-41e4-a80d-153213bb6f8c","ios":"levelo://app?vid=937e5b38-856f-41e4-a80d-153213bb6f8c"},"vehicle_type_id":"4","last_reported":1725952183,"current_range_meters":6400,"station_id":"ce4bgup2rcd13ifvqcn0","pricing_plan_id":"cebpf4jnsgd1na2vs0mg"},{"bike_id":"90c7fb9d-c48f-4d20-af50-573c6b0c1ef2","system_id":"levelo_inurba_marseille","lat":43.32548,"lon":5.41433,"is_reserved":false,"is_disabled":false,"rental_uris":{"android":"levelo://app?vid=90c7fb9d-c48f-4d20-af50-573c6b0c1ef2","ios":"levelo://app?vid=90c7fb9d-c48f-4d20-af50-573c6b0c1ef2"},"vehicle_type_id":"4","last_reported":1725952183,"current_range_meters":26000,"station_id":"ce4bhq12rcd13ifvqhhg","pricing_plan_id":"cebpf4jnsgd1na2vs0mg"},{"bike_id":"a1ec0e49-06ea-4410-a093-4791f9a82082","system_id":"levelo_inurba_marseille","lat":43.32484,"lon":5.36569,"is_reserved":false,"is_disabled":false,"rental_uris":{"android":"levelo://app?vid=a1ec0e49-06ea-4410-a093-4791f9a82082","ios":"levelo://app?vid=a1ec0e49-06ea-4410-a093-4791f9a82082"},"vehicle_type_id":"4","last_reported":1725952183,"current_range_meters":32800,"station_id":"ce4bhs12rcd13ifvqhvg","pricing_plan_id":"cebpf4jnsgd1na2vs0mg"},{"bike_id":"d927a538-f208-40d7-af9c-a94b875396ee","system_id":"levelo_inurba_marseille","lat":43.28615,"lon":5.37051,"is_reserved":false,"is_disabled":false,"rental_uris":{"android":"levelo://app?vid=d927a538-f208-40d7-af9c-a94b875396ee","ios":"levelo://app?vid=d927a538-f208-40d7-af9c-a94b875396ee"},"vehicle_type_id":"4","last_reported":1725952183,"current_range_meters":26000,"station_id":"ce4bht12rcd13ifvqi60","pricing_plan_id":"cebpf4jnsgd1na2vs0mg"},{"bike_id":"2584050f-f46d-4f1c-9e01-ea44df4b7f56","system_id":"levelo_inurba_marseille","lat":43.24388,"lon":5.37058,"is_reserved":false,"is_disabled":false,"rental_uris":{"android":"levelo://app?vid=2584050f-f46d-4f1c-9e01-ea44df4b7f56","ios":"levelo://app?vid=2584050f-f46d-4f1c-9e01-ea44df4b7f56"},"vehicle_type_id":"4","last_reported":1725952183,"current_range_meters":7200,"station_id":"ce4bhhh2rcd13ifvqfk0","pricing_plan_id":"cebpf4jnsgd1na2vs0mg"},{"bike_id":"03750b00-9c9d-4e79-ad45-589bcc218443","system_id":"levelo_inurba_marseille","lat":43.25011,"lon":5.38924,"is_reserved":false,"is_disabled":false,"rental_uris":{"android":"levelo://app?vid=03750b00-9c9d-4e79-ad45-589bcc218443","ios":"levelo://app?vid=03750b00-9c9d-4e79-ad45-589bcc218443"},"vehicle_type_id":"4","last_reported":1725952183,"current_range_meters":38800,"station_id":"ce4bhgp2rcd13ifvqfd0","pricing_plan_id":"cebpf4jnsgd1na2vs0mg"},{"bike_id":"e453de79-6f5c-448a-a60e-01e0ce154adc","system_id":"levelo_inurba_marseille","lat":43.28041,"lon":5.36936,"is_reserved":false,"is_disabled":false,"rental_uris":{"android":"levelo://app?vid=e453de79-6f5c-448a-a60e-01e0ce154adc","ios":"levelo://app?vid=e453de79-6f5c-448a-a60e-01e0ce154adc"},"vehicle_type_id":"4","last_reported":1725952183,"current_range_meters":36400,"station_id":"ce4bha12rcd13ifvqef0","pricing_plan_id":"cebpf4jnsgd1na2vs0mg"},{"bike_id":"ba71fde6-330c-4694-b58a-6b28fa15c9ce","system_id":"levelo_inurba_marseille","lat":43.30468,"lon":5.37894,"is_reserved":false,"is_disabled":false,"rental_uris":{"android":"levelo://app?vid=ba71fde6-330c-4694-b58a-6b28fa15c9ce","ios":"levelo://app?vid=ba71fde6-330c-4694-b58a-6b28fa15c9ce"},"vehicle_type_id":"4","last_reported":1725952183,"current_range_meters":33200,"station_id":"ce4bgup2rcd13ifvqcn0","pricing_plan_id":"cebpf4jnsgd1na2vs0mg"},{"bike_id":"35c8b386-27be-4c1f-8c94-2175377d1ecd","system_id":"levelo_inurba_marseille","lat":43.28037,"lon":5.36951,"is_reserved":false,"is_disabled":false,"rental_uris":{"android":"levelo://app?vid=35c8b386-27be-4c1f-8c94-2175377d1ecd","ios":"levelo://app?vid=35c8b386-27be-4c1f-8c94-2175377d1ecd"},"vehicle_type_id":"4","last_reported":1725952183,"current_range_meters":22400,"station_id":"ce4bha12rcd13ifvqef0","pricing_plan_id":"cebpf4jnsgd1na2vs0mg"},{"bike_id":"e0731622-94a1-43e6-ab86-d933c45e9d15","system_id":"levelo_inurba_marseille","lat":43.24082,"lon":5.3775,"is_reserved":false,"is_disabled":false,"rental_uris":{"android":"levelo://app?vid=e0731622-94a1-43e6-ab86-d933c45e9d15","ios":"levelo://app?vid=e0731622-94a1-43e6-ab86-d933c45e9d15"},"vehicle_type_id":"4","last_reported":1725952183,"current_range_meters":5600,"station_id":"ce4bhnp2rcd13ifvqgvg","pricing_plan_id":"cebpf4jnsgd1na2vs0mg"},{"bike_id":"9395e962-76ca-4e02-9084-a21e990a1068","system_id":"levelo_inurba_marseille","lat":43.26566,"lon":5.38998,"is_reserved":false,"is_disabled":false,"rental_uris":{"android":"levelo://app?vid=9395e962-76ca-4e02-9084-a21e990a1068","ios":"levelo://app?vid=9395e962-76ca-4e02-9084-a21e990a1068"},"vehicle_type_id":"4","last_reported":1725952183,"current_range_meters":32000,"station_id":"ce4bhe12rcd13ifvqf30","pricing_plan_id":"cebpf4jnsgd1na2vs0mg"},{"bike_id":"3c6c0f4e-a3ab-4518-a08c-6f8d1166e07c","system_id":"levelo_inurba_marseille","lat":43.23154,"lon":5.43708,"is_reserved":false,"is_disabled":false,"rental_uris":{"android":"levelo://app?vid=3c6c0f4e-a3ab-4518-a08c-6f8d1166e07c","ios":"levelo://app?vid=3c6c0f4e-a3ab-4518-a08c-6f8d1166e07c"},"vehicle_type_id":"4","last_reported":1725952183,"current_range_meters":18800,"station_id":"ce4bhmp2rcd13ifvqgog","pricing_plan_id":"cebpf4jnsgd1na2vs0mg"},{"bike_id":"90437a4a-a8ed-419f-b482-00ce1f86e2f2","system_id":"levelo_inurba_marseille","lat":43.30463,"lon":5.37896,"is_reserved":false,"is_disabled":false,"rental_uris":{"android":"levelo://app?vid=90437a4a-a8ed-419f-b482-00ce1f86e2f2","ios":"levelo://app?vid=90437a4a-a8ed-419f-b482-00ce1f86e2f2"},"vehicle_type_id":"4","last_reported":1725952183,"current_range_meters":21600,"station_id":"ce4bgup2rcd13ifvqcn0","pricing_plan_id":"cebpf4jnsgd1na2vs0mg"},{"bike_id":"a89dfca5-d4cf-4f64-b008-278f634a09d5","system_id":"levelo_inurba_marseille","lat":43.281546,"lon":5.426344,"is_reserved":false,"is_disabled":false,"rental_uris":{"android":"levelo://app?vid=a89dfca5-d4cf-4f64-b008-278f634a09d5","ios":"levelo://app?vid=a89dfca5-d4cf-4f64-b008-278f634a09d5"},"vehicle_type_id":"4","last_reported":1725952183,"current_range_meters":24400,"station_id":"","pricing_plan_id":"cebpf4jnsgd1na2vs0mg"},{"bike_id":"6daa7330-309a-4188-8dd3-0e27271194e4","system_id":"levelo_inurba_marseille","lat":43.2992,"lon":5.37495,"is_reserved":false,"is_disabled":false,"rental_uris":{"android":"levelo://app?vid=6daa7330-309a-4188-8dd3-0e27271194e4","ios":"levelo://app?vid=6daa7330-309a-4188-8dd3-0e27271194e4"},"vehicle_type_id":"4","last_reported":1725952183,"current_range_meters":32800,"station_id":"ce4bgjh2rcd13ifvqbg0","pricing_plan_id":"cebpf4jnsgd1na2vs0mg"},{"bike_id":"26eb6a6c-cfe1-455a-b80b-d291d3e21ad0","system_id":"levelo_inurba_marseille","lat":43.27831,"lon":5.39216,"is_reserved":false,"is_disabled":false,"rental_uris":{"android":"levelo://app?vid=26eb6a6c-cfe1-455a-b80b-d291d3e21ad0","ios":"levelo://app?vid=26eb6a6c-cfe1-455a-b80b-d291d3e21ad0"},"vehicle_type_id":"4","last_reported":1725952183,"current_range_meters":30800,"station_id":"ce4bhjp2rcd13ifvqga0","pricing_plan_id":"cebpf4jnsgd1na2vs0mg"},{"bike_id":"7931cda6-a2f4-4ffc-bbcd-6d51b5729dec","system_id":"levelo_inurba_marseille","lat":43.33728,"lon":5.39179,"is_reserved":false,"is_disabled":false,"rental_uris":{"android":"levelo://app?vid=7931cda6-a2f4-4ffc-bbcd-6d51b5729dec","ios":"levelo://app?vid=7931cda6-a2f4-4ffc-bbcd-6d51b5729dec"},"vehicle_type_id":"4","last_reported":1725952183,"current_range_meters":32400,"station_id":"ce4bhr92rcd13ifvqhsg","pricing_plan_id":"cebpf4jnsgd1na2vs0mg"},{"bike_id":"99ff5113-63b8-4286-bc76-22496d34f647","system_id":"levelo_inurba_marseille","lat":43.23194,"lon":5.35559,"is_reserved":false,"is_disabled":false,"rental_uris":{"android":"levelo://app?vid=99ff5113-63b8-4286-bc76-22496d34f647","ios":"levelo://app?vid=99ff5113-63b8-4286-bc76-22496d34f647"},"vehicle_type_id":"4","last_reported":1725952183,"current_range_meters":6400,"station_id":"ce4bhu92rcd13ifvqi70","pricing_plan_id":"cebpf4jnsgd1na2vs0mg"},{"bike_id":"564d59a7-37f7-4749-9d7c-782d2d7ae974","system_id":"levelo_inurba_marseille","lat":43.32548,"lon":5.41447,"is_reserved":false,"is_disabled":false,"rental_uris":{"android":"levelo://app?vid=564d59a7-37f7-4749-9d7c-782d2d7ae974","ios":"levelo://app?vid=564d59a7-37f7-4749-9d7c-782d2d7ae974"},"vehicle_type_id":"4","last_reported":1725952183,"current_range_meters":6400,"station_id":"ce4bhq12rcd13ifvqhhg","pricing_plan_id":"cebpf4jnsgd1na2vs0mg"},{"bike_id":"62f5fcd0-c840-4288-9330-8ea144dcbea5","system_id":"levelo_inurba_marseille","lat":43.25718,"lon":5.41108,"is_reserved":false,"is_disabled":false,"rental_uris":{"android":"levelo://app?vid=62f5fcd0-c840-4288-9330-8ea144dcbea5","ios":"levelo://app?vid=62f5fcd0-c840-4288-9330-8ea144dcbea5"},"vehicle_type_id":"4","last_reported":1725952183,"current_range_meters":32800,"station_id":"ce4bhkp2rcd13ifvqgd0","pricing_plan_id":"cebpf4jnsgd1na2vs0mg"},{"bike_id":"ab9b8990-e378-4cf6-9ff1-6f0f22223b29","system_id":"levelo_inurba_marseille","lat":43.23151,"lon":5.43706,"is_reserved":false,"is_disabled":false,"rental_uris":{"android":"levelo://app?vid=ab9b8990-e378-4cf6-9ff1-6f0f22223b29","ios":"levelo://app?vid=ab9b8990-e378-4cf6-9ff1-6f0f22223b29"},"vehicle_type_id":"4","last_reported":1725952183,"current_range_meters":16400,"station_id":"ce4bhmp2rcd13ifvqgog","pricing_plan_id":"cebpf4jnsgd1na2vs0mg"},{"bike_id":"56fe391e-723e-42df-8d0c-af51e6441891","system_id":"levelo_inurba_marseille","lat":43.23067,"lon":5.35488,"is_reserved":false,"is_disabled":false,"rental_uris":{"android":"levelo://app?vid=56fe391e-723e-42df-8d0c-af51e6441891","ios":"levelo://app?vid=56fe391e-723e-42df-8d0c-af51e6441891"},"vehicle_type_id":"4","last_reported":1725952183,"current_range_meters":4400,"station_id":"cpo3342slgdg3j2ifvpg","pricing_plan_id":"cebpf4jnsgd1na2vs0mg"},{"bike_id":"cb3500c1-3fd9-4803-bd61-e500ce42254b","system_id":"levelo_inurba_marseille","lat":43.30419,"lon":5.41276,"is_reserved":false,"is_disabled":false,"rental_uris":{"android":"levelo://app?vid=cb3500c1-3fd9-4803-bd61-e500ce42254b","ios":"levelo://app?vid=cb3500c1-3fd9-4803-bd61-e500ce42254b"},"vehicle_type_id":"4","last_reported":1725952183,"current_range_meters":37600,"station_id":"ce4bhop2rcd13ifvqh8g","pricing_plan_id":"cebpf4jnsgd1na2vs0mg"},{"bike_id":"c5b54f07-9e8a-4d5d-af65-a461c660ca45","system_id":"levelo_inurba_marseille","lat":43.32283,"lon":5.38261,"is_reserved":false,"is_disabled":false,"rental_uris":{"android":"levelo://app?vid=c5b54f07-9e8a-4d5d-af65-a461c660ca45","ios":"levelo://app?vid=c5b54f07-9e8a-4d5d-af65-a461c660ca45"},"vehicle_type_id":"4","last_reported":1725952183,"current_range_meters":10800,"station_id":"ce4bhr12rcd13ifvqhqg","pricing_plan_id":"cebpf4jnsgd1na2vs0mg"},{"bike_id":"d0952ab0-3044-44df-af2c-2dcfb366a544","system_id":"levelo_inurba_marseille","lat":43.23157,"lon":5.43702,"is_reserved":false,"is_disabled":false,"rental_uris":{"android":"levelo://app?vid=d0952ab0-3044-44df-af2c-2dcfb366a544","ios":"levelo://app?vid=d0952ab0-3044-44df-af2c-2dcfb366a544"},"vehicle_type_id":"4","last_reported":1725952183,"current_range_meters":17600,"station_id":"ce4bhmp2rcd13ifvqgog","pricing_plan_id":"cebpf4jnsgd1na2vs0mg"},{"bike_id":"b195d04f-1622-40d0-9a9f-cb23d3d1432b","system_id":"levelo_inurba_marseille","lat":43.2981,"lon":5.37235,"is_reserved":false,"is_disabled":false,"rental_uris":{"android":"levelo://app?vid=b195d04f-1622-40d0-9a9f-cb23d3d1432b","ios":"levelo://app?vid=b195d04f-1622-40d0-9a9f-cb23d3d1432b"},"vehicle_type_id":"4","last_reported":1725952183,"current_range_meters":22400,"station_id":"ce4bgn92rcd13ifvqbvg","pricing_plan_id":"cebpf4jnsgd1na2vs0mg"},{"bike_id":"b874cd39-3ae9-4272-8c2c-95985a6792ea","system_id":"levelo_inurba_marseille","lat":43.30537,"lon":5.36558,"is_reserved":false,"is_disabled":false,"rental_uris":{"android":"levelo://app?vid=b874cd39-3ae9-4272-8c2c-95985a6792ea","ios":"levelo://app?vid=b874cd39-3ae9-4272-8c2c-95985a6792ea"},"vehicle_type_id":"4","last_reported":1725952183,"current_range_meters":28000,"station_id":"ce4bgs12rcd13ifvqcag","pricing_plan_id":"cebpf4jnsgd1na2vs0mg"},{"bike_id":"0e6d8ac9-eb06-4686-b2a2-953fdab7dd5a","system_id":"levelo_inurba_marseille","lat":43.336,"lon":5.41024,"is_reserved":false,"is_disabled":false,"rental_uris":{"android":"levelo://app?vid=0e6d8ac9-eb06-4686-b2a2-953fdab7dd5a","ios":"levelo://app?vid=0e6d8ac9-eb06-4686-b2a2-953fdab7dd5a"},"vehicle_type_id":"4","last_reported":1725952183,"current_range_meters":28800,"station_id":"ce4bhqh2rcd13ifvqhmg","pricing_plan_id":"cebpf4jnsgd1na2vs0mg"},{"bike_id":"94776667-da28-4633-adb9-87e58c79c629","system_id":"levelo_inurba_marseille","lat":43.26954,"lon":5.38622,"is_reserved":false,"is_disabled":false,"rental_uris":{"android":"levelo://app?vid=94776667-da28-4633-adb9-87e58c79c629","ios":"levelo://app?vid=94776667-da28-4633-adb9-87e58c79c629"},"vehicle_type_id":"4","last_reported":1725952183,"current_range_meters":10000,"station_id":"ce4bhh92rcd13ifvqfh0","pricing_plan_id":"cebpf4jnsgd1na2vs0mg"},{"bike_id":"ee1bdaa0-d291-43df-a87d-613eca30faf9","system_id":"levelo_inurba_marseille","lat":43.30188,"lon":5.3661,"is_reserved":false,"is_disabled":false,"rental_uris":{"android":"levelo://app?vid=ee1bdaa0-d291-43df-a87d-613eca30faf9","ios":"levelo://app?vid=ee1bdaa0-d291-43df-a87d-613eca30faf9"},"vehicle_type_id":"4","last_reported":1725952183,"current_range_meters":22800,"station_id":"ce4bgrh2rcd13ifvqc8g","pricing_plan_id":"cebpf4jnsgd1na2vs0mg"},{"bike_id":"f5ab10c4-6d47-48ee-9572-4519f61eb1b5","system_id":"levelo_inurba_marseille","lat":43.25937,"lon":5.40907,"is_reserved":false,"is_disabled":false,"rental_uris":{"android":"levelo://app?vid=f5ab10c4-6d47-48ee-9572-4519f61eb1b5","ios":"levelo://app?vid=f5ab10c4-6d47-48ee-9572-4519f61eb1b5"},"vehicle_type_id":"4","last_reported":1725952183,"current_range_meters":7200,"station_id":"ce4bhm92rcd13ifvqglg","pricing_plan_id":"cebpf4jnsgd1na2vs0mg"},{"bike_id":"9ec6a2be-c877-46d5-b492-7c70ec4b40f3","system_id":"levelo_inurba_marseille","lat":43.31344,"lon":5.36698,"is_reserved":false,"is_disabled":false,"rental_uris":{"android":"levelo://app?vid=9ec6a2be-c877-46d5-b492-7c70ec4b40f3","ios":"levelo://app?vid=9ec6a2be-c877-46d5-b492-7c70ec4b40f3"},"vehicle_type_id":"4","last_reported":1725952183,"current_range_meters":28800,"station_id":"ce4bgr92rcd13ifvqc6g","pricing_plan_id":"cebpf4jnsgd1na2vs0mg"},{"bike_id":"653d89a2-3f7b-4c94-8240-4474c2fcfe0d","system_id":"levelo_inurba_marseille","lat":43.30188,"lon":5.366,"is_reserved":false,"is_disabled":false,"rental_uris":{"android":"levelo://app?vid=653d89a2-3f7b-4c94-8240-4474c2fcfe0d","ios":"levelo://app?vid=653d89a2-3f7b-4c94-8240-4474c2fcfe0d"},"vehicle_type_id":"4","last_reported":1725952183,"current_range_meters":35200,"station_id":"ce4bgrh2rcd13ifvqc8g","pricing_plan_id":"cebpf4jnsgd1na2vs0mg"},{"bike_id":"e238eb9a-b5ce-4daa-a070-0709dee78a5d","system_id":"levelo_inurba_marseille","lat":43.23155,"lon":5.43703,"is_reserved":false,"is_disabled":false,"rental_uris":{"android":"levelo://app?vid=e238eb9a-b5ce-4daa-a070-0709dee78a5d","ios":"levelo://app?vid=e238eb9a-b5ce-4daa-a070-0709dee78a5d"},"vehicle_type_id":"4","last_reported":1725952183,"current_range_meters":20000,"station_id":"ce4bhmp2rcd13ifvqgog","pricing_plan_id":"cebpf4jnsgd1na2vs0mg"},{"bike_id":"600f0971-694e-49dd-b15a-5a587fbd58d1","system_id":"levelo_inurba_marseille","lat":43.30328,"lon":5.40433,"is_reserved":false,"is_disabled":false,"rental_uris":{"android":"levelo://app?vid=600f0971-694e-49dd-b15a-5a587fbd58d1","ios":"levelo://app?vid=600f0971-694e-49dd-b15a-5a587fbd58d1"},"vehicle_type_id":"4","last_reported":1725952183,"current_range_meters":12800,"station_id":"ce4bh012rcd13ifvqd10","pricing_plan_id":"cebpf4jnsgd1na2vs0mg"},{"bike_id":"9c1c2862-72f5-485b-8155-229a5d029ce6","system_id":"levelo_inurba_marseille","lat":43.26953,"lon":5.3862,"is_reserved":false,"is_disabled":false,"rental_uris":{"android":"levelo://app?vid=9c1c2862-72f5-485b-8155-229a5d029ce6","ios":"levelo://app?vid=9c1c2862-72f5-485b-8155-229a5d029ce6"},"vehicle_type_id":"4","last_reported":1725952183,"current_range_meters":30000,"station_id":"ce4bhh92rcd13ifvqfh0","pricing_plan_id":"cebpf4jnsgd1na2vs0mg"},{"bike_id":"476c398c-20f1-48f6-927e-a3055d6afc6c","system_id":"levelo_inurba_marseille","lat":43.30202,"lon":5.36625,"is_reserved":false,"is_disabled":false,"rental_uris":{"android":"levelo://app?vid=476c398c-20f1-48f6-927e-a3055d6afc6c","ios":"levelo://app?vid=476c398c-20f1-48f6-927e-a3055d6afc6c"},"vehicle_type_id":"4","last_reported":1725952183,"current_range_meters":10800,"station_id":"ce4bgrh2rcd13ifvqc8g","pricing_plan_id":"cebpf4jnsgd1na2vs0mg"},{"bike_id":"ca932e2d-e371-4f17-b3f0-369b6de92a82","system_id":"levelo_inurba_marseille","lat":43.26559,"lon":5.37277,"is_reserved":false,"is_disabled":false,"rental_uris":{"android":"levelo://app?vid=ca932e2d-e371-4f17-b3f0-369b6de92a82","ios":"levelo://app?vid=ca932e2d-e371-4f17-b3f0-369b6de92a82"},"vehicle_type_id":"4","last_reported":1725952183,"current_range_meters":18000,"station_id":"ce4bhg12rcd13ifvqf70","pricing_plan_id":"cebpf4jnsgd1na2vs0mg"},{"bike_id":"0447f5eb-8ddc-47d7-8883-e0dd520dfd97","system_id":"levelo_inurba_marseille","lat":43.31757,"lon":5.39014,"is_reserved":false,"is_disabled":false,"rental_uris":{"android":"levelo://app?vid=0447f5eb-8ddc-47d7-8883-e0dd520dfd97","ios":"levelo://app?vid=0447f5eb-8ddc-47d7-8883-e0dd520dfd97"},"vehicle_type_id":"4","last_reported":1725952183,"current_range_meters":14800,"station_id":"ce4bhqp2rcd13ifvqhng","pricing_plan_id":"cebpf4jnsgd1na2vs0mg"},{"bike_id":"35a92e2d-d77b-400b-aeba-f522bf358e49","system_id":"levelo_inurba_marseille","lat":43.31876,"lon":5.37374,"is_reserved":false,"is_disabled":false,"rental_uris":{"android":"levelo://app?vid=35a92e2d-d77b-400b-aeba-f522bf358e49","ios":"levelo://app?vid=35a92e2d-d77b-400b-aeba-f522bf358e49"},"vehicle_type_id":"4","last_reported":1725952183,"current_range_meters":17200,"station_id":"ce4bgup2rcd13ifvqco0","pricing_plan_id":"cebpf4jnsgd1na2vs0mg"},{"bike_id":"080c7b59-af9b-4684-a1b3-a8785e08146e","system_id":"levelo_inurba_marseille","lat":43.32291,"lon":5.3827,"is_reserved":false,"is_disabled":false,"rental_uris":{"android":"levelo://app?vid=080c7b59-af9b-4684-a1b3-a8785e08146e","ios":"levelo://app?vid=080c7b59-af9b-4684-a1b3-a8785e08146e"},"vehicle_type_id":"4","last_reported":1725952183,"current_range_meters":38000,"station_id":"ce4bhr12rcd13ifvqhqg","pricing_plan_id":"cebpf4jnsgd1na2vs0mg"},{"bike_id":"b97d16fe-fb33-41f9-83ea-c0b3c0874e43","system_id":"levelo_inurba_marseille","lat":43.29414,"lon":5.38609,"is_reserved":false,"is_disabled":false,"rental_uris":{"android":"levelo://app?vid=b97d16fe-fb33-41f9-83ea-c0b3c0874e43","ios":"levelo://app?vid=b97d16fe-fb33-41f9-83ea-c0b3c0874e43"},"vehicle_type_id":"4","last_reported":1725952183,"current_range_meters":24800,"station_id":"ce4bh2h2rcd13ifvqdh0","pricing_plan_id":"cebpf4jnsgd1na2vs0mg"},{"bike_id":"689af299-077a-4b96-aadf-024a1a87228a","system_id":"levelo_inurba_marseille","lat":43.2749,"lon":5.42452,"is_reserved":false,"is_disabled":false,"rental_uris":{"android":"levelo://app?vid=689af299-077a-4b96-aadf-024a1a87228a","ios":"levelo://app?vid=689af299-077a-4b96-aadf-024a1a87228a"},"vehicle_type_id":"4","last_reported":1725952183,"current_range_meters":24400,"station_id":"ce4bhn92rcd13ifvqgrg","pricing_plan_id":"cebpf4jnsgd1na2vs0mg"},{"bike_id":"bc7a187c-3590-473c-8161-e0665d0649da","system_id":"levelo_inurba_marseille","lat":43.30462,"lon":5.37899,"is_reserved":false,"is_disabled":false,"rental_uris":{"android":"levelo://app?vid=bc7a187c-3590-473c-8161-e0665d0649da","ios":"levelo://app?vid=bc7a187c-3590-473c-8161-e0665d0649da"},"vehicle_type_id":"4","last_reported":1725952183,"current_range_meters":30800,"station_id":"ce4bgup2rcd13ifvqcn0","pricing_plan_id":"cebpf4jnsgd1na2vs0mg"},{"bike_id":"3f370551-01e1-465d-b873-84737710d31e","system_id":"levelo_inurba_marseille","lat":43.279389,"lon":5.410438,"is_reserved":false,"is_disabled":false,"rental_uris":{"android":"levelo://app?vid=3f370551-01e1-465d-b873-84737710d31e","ios":"levelo://app?vid=3f370551-01e1-465d-b873-84737710d31e"},"vehicle_type_id":"4","last_reported":1725952183,"current_range_meters":25200,"station_id":"ce4bhnp2rcd13ifvqh0g","pricing_plan_id":"cebpf4jnsgd1na2vs0mg"},{"bike_id":"78778da8-03c2-4260-b5d2-a398d9400b64","system_id":"levelo_inurba_marseille","lat":43.23154,"lon":5.43723,"is_reserved":false,"is_disabled":false,"rental_uris":{"android":"levelo://app?vid=78778da8-03c2-4260-b5d2-a398d9400b64","ios":"levelo://app?vid=78778da8-03c2-4260-b5d2-a398d9400b64"},"vehicle_type_id":"4","last_reported":1725952183,"current_range_meters":36000,"station_id":"ce4bhmp2rcd13ifvqgog","pricing_plan_id":"cebpf4jnsgd1na2vs0mg"},{"bike_id":"5b6b64cf-0485-4d04-b562-50fc388be6b2","system_id":"levelo_inurba_marseille","lat":43.32591,"lon":5.40554,"is_reserved":false,"is_disabled":false,"rental_uris":{"android":"levelo://app?vid=5b6b64cf-0485-4d04-b562-50fc388be6b2","ios":"levelo://app?vid=5b6b64cf-0485-4d04-b562-50fc388be6b2"},"vehicle_type_id":"4","last_reported":1725952183,"current_range_meters":12800,"station_id":"ce4bhq92rcd13ifvqhjg","pricing_plan_id":"cebpf4jnsgd1na2vs0mg"},{"bike_id":"35a7d6da-18a1-4a72-9797-66d4de1b8339","system_id":"levelo_inurba_marseille","lat":43.29961,"lon":5.40383,"is_reserved":false,"is_disabled":false,"rental_uris":{"android":"levelo://app?vid=35a7d6da-18a1-4a72-9797-66d4de1b8339","ios":"levelo://app?vid=35a7d6da-18a1-4a72-9797-66d4de1b8339"},"vehicle_type_id":"4","last_reported":1725952183,"current_range_meters":23200,"station_id":"","pricing_plan_id":"cebpf4jnsgd1na2vs0mg"},{"bike_id":"8d857d6a-8171-4147-953c-e608982bcbbf","system_id":"levelo_inurba_marseille","lat":43.32029,"lon":5.41545,"is_reserved":false,"is_disabled":false,"rental_uris":{"android":"levelo://app?vid=8d857d6a-8171-4147-953c-e608982bcbbf","ios":"levelo://app?vid=8d857d6a-8171-4147-953c-e608982bcbbf"},"vehicle_type_id":"4","last_reported":1725952183,"current_range_meters":3200,"station_id":"ce4bhq92rcd13ifvqhkg","pricing_plan_id":"cebpf4jnsgd1na2vs0mg"},{"bike_id":"5704885e-1618-4594-8cff-7f027c04c4a2","system_id":"levelo_inurba_marseille","lat":43.259431,"lon":5.409023,"is_reserved":false,"is_disabled":false,"rental_uris":{"android":"levelo://app?vid=5704885e-1618-4594-8cff-7f027c04c4a2","ios":"levelo://app?vid=5704885e-1618-4594-8cff-7f027c04c4a2"},"vehicle_type_id":"4","last_reported":1725952183,"current_range_meters":18800,"station_id":"ce4bhm92rcd13ifvqglg","pricing_plan_id":"cebpf4jnsgd1na2vs0mg"},{"bike_id":"02e9227e-4d15-45e3-b464-2b03b597a05f","system_id":"levelo_inurba_marseille","lat":43.30547,"lon":5.36695,"is_reserved":false,"is_disabled":false,"rental_uris":{"android":"levelo://app?vid=02e9227e-4d15-45e3-b464-2b03b597a05f","ios":"levelo://app?vid=02e9227e-4d15-45e3-b464-2b03b597a05f"},"vehicle_type_id":"4","last_reported":1725952183,"current_range_meters":35600,"station_id":"ce4bgrp2rcd13ifvqc9g","pricing_plan_id":"cebpf4jnsgd1na2vs0mg"},{"bike_id":"1d583431-4535-43ff-9cfe-97c3afe38e61","system_id":"levelo_inurba_marseille","lat":43.30968,"lon":5.40052,"is_reserved":false,"is_disabled":false,"rental_uris":{"android":"levelo://app?vid=1d583431-4535-43ff-9cfe-97c3afe38e61","ios":"levelo://app?vid=1d583431-4535-43ff-9cfe-97c3afe38e61"},"vehicle_type_id":"4","last_reported":1725952183,"current_range_meters":14000,"station_id":"ce4bhpp2rcd13ifvqhgg","pricing_plan_id":"cebpf4jnsgd1na2vs0mg"},{"bike_id":"5d411a94-71dc-41e3-ae74-13086227871e","system_id":"levelo_inurba_marseille","lat":43.27494,"lon":5.42459,"is_reserved":false,"is_disabled":false,"rental_uris":{"android":"levelo://app?vid=5d411a94-71dc-41e3-ae74-13086227871e","ios":"levelo://app?vid=5d411a94-71dc-41e3-ae74-13086227871e"},"vehicle_type_id":"4","last_reported":1725952183,"current_range_meters":35200,"station_id":"ce4bhn92rcd13ifvqgrg","pricing_plan_id":"cebpf4jnsgd1na2vs0mg"},{"bike_id":"fd35fa38-adf1-4f1a-b3da-4f1d38e91ee0","system_id":"levelo_inurba_marseille","lat":43.24186,"lon":5.39717,"is_reserved":false,"is_disabled":false,"rental_uris":{"android":"levelo://app?vid=fd35fa38-adf1-4f1a-b3da-4f1d38e91ee0","ios":"levelo://app?vid=fd35fa38-adf1-4f1a-b3da-4f1d38e91ee0"},"vehicle_type_id":"4","last_reported":1725952183,"current_range_meters":19600,"station_id":"ce4bhn12rcd13ifvqgpg","pricing_plan_id":"cebpf4jnsgd1na2vs0mg"},{"bike_id":"bf5555e9-efb7-4521-b052-9d5a2c8f2941","system_id":"levelo_inurba_marseille","lat":43.259198,"lon":5.409901,"is_reserved":false,"is_disabled":false,"rental_uris":{"android":"levelo://app?vid=bf5555e9-efb7-4521-b052-9d5a2c8f2941","ios":"levelo://app?vid=bf5555e9-efb7-4521-b052-9d5a2c8f2941"},"vehicle_type_id":"4","last_reported":1725952183,"current_range_meters":31200,"station_id":"ce4bhl12rcd13ifvqgf0","pricing_plan_id":"cebpf4jnsgd1na2vs0mg"},{"bike_id":"07d70a6a-8074-40e1-ae01-8ee8594cd9e3","system_id":"levelo_inurba_marseille","lat":43.24078,"lon":5.37748,"is_reserved":false,"is_disabled":false,"rental_uris":{"android":"levelo://app?vid=07d70a6a-8074-40e1-ae01-8ee8594cd9e3","ios":"levelo://app?vid=07d70a6a-8074-40e1-ae01-8ee8594cd9e3"},"vehicle_type_id":"4","last_reported":1725952183,"current_range_meters":18800,"station_id":"ce4bhnp2rcd13ifvqgvg","pricing_plan_id":"cebpf4jnsgd1na2vs0mg"},{"bike_id":"6f335326-9242-477c-adc3-b8fee8b00cfd","system_id":"levelo_inurba_marseille","lat":43.27989,"lon":5.4001,"is_reserved":false,"is_disabled":false,"rental_uris":{"android":"levelo://app?vid=6f335326-9242-477c-adc3-b8fee8b00cfd","ios":"levelo://app?vid=6f335326-9242-477c-adc3-b8fee8b00cfd"},"vehicle_type_id":"4","last_reported":1725952183,"current_range_meters":28800,"station_id":"ce4bho92rcd13ifvqh4g","pricing_plan_id":"cebpf4jnsgd1na2vs0mg"},{"bike_id":"e4067140-ef5f-4d5d-b312-3ad8fb897ba0","system_id":"levelo_inurba_marseille","lat":43.25579,"lon":5.38234,"is_reserved":false,"is_disabled":false,"rental_uris":{"android":"levelo://app?vid=e4067140-ef5f-4d5d-b312-3ad8fb897ba0","ios":"levelo://app?vid=e4067140-ef5f-4d5d-b312-3ad8fb897ba0"},"vehicle_type_id":"4","last_reported":1725952183,"current_range_meters":30400,"station_id":"ce4bhih2rcd13ifvqfs0","pricing_plan_id":"cebpf4jnsgd1na2vs0mg"},{"bike_id":"ec66178c-9377-4a8d-ba34-1a39bc42f1ac","system_id":"levelo_inurba_marseille","lat":43.32287,"lon":5.38277,"is_reserved":false,"is_disabled":false,"rental_uris":{"android":"levelo://app?vid=ec66178c-9377-4a8d-ba34-1a39bc42f1ac","ios":"levelo://app?vid=ec66178c-9377-4a8d-ba34-1a39bc42f1ac"},"vehicle_type_id":"4","last_reported":1725952183,"current_range_meters":38000,"station_id":"ce4bhr12rcd13ifvqhqg","pricing_plan_id":"cebpf4jnsgd1na2vs0mg"},{"bike_id":"ef85f407-e32a-4fc2-ad1d-f80b024714f7","system_id":"levelo_inurba_marseille","lat":43.3375,"lon":5.37449,"is_reserved":false,"is_disabled":false,"rental_uris":{"android":"levelo://app?vid=ef85f407-e32a-4fc2-ad1d-f80b024714f7","ios":"levelo://app?vid=ef85f407-e32a-4fc2-ad1d-f80b024714f7"},"vehicle_type_id":"4","last_reported":1725952183,"current_range_meters":33600,"station_id":"","pricing_plan_id":"cebpf4jnsgd1na2vs0mg"},{"bike_id":"c8566ff8-48bb-4153-8f25-6ecc62ca6edb","system_id":"levelo_inurba_marseille","lat":43.34149,"lon":5.40909,"is_reserved":false,"is_disabled":false,"rental_uris":{"android":"levelo://app?vid=c8566ff8-48bb-4153-8f25-6ecc62ca6edb","ios":"levelo://app?vid=c8566ff8-48bb-4153-8f25-6ecc62ca6edb"},"vehicle_type_id":"4","last_reported":1725952183,"current_range_meters":39200,"station_id":"ce4bhqh2rcd13ifvqhlg","pricing_plan_id":"cebpf4jnsgd1na2vs0mg"},{"bike_id":"bc745383-2511-4656-a4d1-e131400dfd60","system_id":"levelo_inurba_marseille","lat":43.23195,"lon":5.35549,"is_reserved":false,"is_disabled":false,"rental_uris":{"android":"levelo://app?vid=bc745383-2511-4656-a4d1-e131400dfd60","ios":"levelo://app?vid=bc745383-2511-4656-a4d1-e131400dfd60"},"vehicle_type_id":"4","last_reported":1725952183,"current_range_meters":18000,"station_id":"ce4bhu92rcd13ifvqi70","pricing_plan_id":"cebpf4jnsgd1na2vs0mg"},{"bike_id":"da79121b-839b-4688-8795-d88ebc670735","system_id":"levelo_inurba_marseille","lat":43.28037,"lon":5.36935,"is_reserved":false,"is_disabled":false,"rental_uris":{"android":"levelo://app?vid=da79121b-839b-4688-8795-d88ebc670735","ios":"levelo://app?vid=da79121b-839b-4688-8795-d88ebc670735"},"vehicle_type_id":"4","last_reported":1725952183,"current_range_meters":24000,"station_id":"ce4bha12rcd13ifvqef0","pricing_plan_id":"cebpf4jnsgd1na2vs0mg"},{"bike_id":"afb196cf-0911-4d41-b110-79b0354aa1b9","system_id":"levelo_inurba_marseille","lat":43.25827,"lon":5.39432,"is_reserved":false,"is_disabled":false,"rental_uris":{"android":"levelo://app?vid=afb196cf-0911-4d41-b110-79b0354aa1b9","ios":"levelo://app?vid=afb196cf-0911-4d41-b110-79b0354aa1b9"},"vehicle_type_id":"4","last_reported":1725952183,"current_range_meters":6400,"station_id":"ce4bhip2rcd13ifvqft0","pricing_plan_id":"cebpf4jnsgd1na2vs0mg"},{"bike_id":"256ff1b4-3cda-4078-ac92-9b2b566638b7","system_id":"levelo_inurba_marseille","lat":43.25579,"lon":5.38229,"is_reserved":false,"is_disabled":false,"rental_uris":{"android":"levelo://app?vid=256ff1b4-3cda-4078-ac92-9b2b566638b7","ios":"levelo://app?vid=256ff1b4-3cda-4078-ac92-9b2b566638b7"},"vehicle_type_id":"4","last_reported":1725952183,"current_range_meters":32000,"station_id":"ce4bhih2rcd13ifvqfs0","pricing_plan_id":"cebpf4jnsgd1na2vs0mg"},{"bike_id":"04613402-1036-404f-b63c-22994b3587a7","system_id":"levelo_inurba_marseille","lat":43.29007,"lon":5.35604,"is_reserved":false,"is_disabled":false,"rental_uris":{"android":"levelo://app?vid=04613402-1036-404f-b63c-22994b3587a7","ios":"levelo://app?vid=04613402-1036-404f-b63c-22994b3587a7"},"vehicle_type_id":"4","last_reported":1725952183,"current_range_meters":38000,"station_id":"ce4bhb92rcd13ifvqen0","pricing_plan_id":"cebpf4jnsgd1na2vs0mg"},{"bike_id":"45b7ed4c-9360-4103-8798-411ac78a4321","system_id":"levelo_inurba_marseille","lat":43.33614,"lon":5.4102,"is_reserved":false,"is_disabled":false,"rental_uris":{"android":"levelo://app?vid=45b7ed4c-9360-4103-8798-411ac78a4321","ios":"levelo://app?vid=45b7ed4c-9360-4103-8798-411ac78a4321"},"vehicle_type_id":"4","last_reported":1725952183,"current_range_meters":14000,"station_id":"ce4bhqh2rcd13ifvqhmg","pricing_plan_id":"cebpf4jnsgd1na2vs0mg"},{"bike_id":"08fe5566-effe-4063-804f-6032cbd8ca3e","system_id":"levelo_inurba_marseille","lat":43.289429,"lon":5.396328,"is_reserved":false,"is_disabled":false,"rental_uris":{"android":"levelo://app?vid=08fe5566-effe-4063-804f-6032cbd8ca3e","ios":"levelo://app?vid=08fe5566-effe-4063-804f-6032cbd8ca3e"},"vehicle_type_id":"4","last_reported":1725952183,"current_range_meters":36400,"station_id":"ce4bh3h2rcd13ifvqdn0","pricing_plan_id":"cebpf4jnsgd1na2vs0mg"},{"bike_id":"ccbf5e43-be0f-4330-aa14-cfe13aff8a11","system_id":"levelo_inurba_marseille","lat":43.27298,"lon":5.416,"is_reserved":false,"is_disabled":false,"rental_uris":{"android":"levelo://app?vid=ccbf5e43-be0f-4330-aa14-cfe13aff8a11","ios":"levelo://app?vid=ccbf5e43-be0f-4330-aa14-cfe13aff8a11"},"vehicle_type_id":"4","last_reported":1725952183,"current_range_meters":8400,"station_id":"","pricing_plan_id":"cebpf4jnsgd1na2vs0mg"},{"bike_id":"fb9a1f13-fb34-4946-a468-b4c030b63686","system_id":"levelo_inurba_marseille","lat":43.29556,"lon":5.42285,"is_reserved":false,"is_disabled":false,"rental_uris":{"android":"levelo://app?vid=fb9a1f13-fb34-4946-a468-b4c030b63686","ios":"levelo://app?vid=fb9a1f13-fb34-4946-a468-b4c030b63686"},"vehicle_type_id":"4","last_reported":1725952183,"current_range_meters":33600,"station_id":"ce4bhph2rcd13ifvqhdg","pricing_plan_id":"cebpf4jnsgd1na2vs0mg"},{"bike_id":"a5bdacf3-b99a-4be5-a424-483226f1ce0b","system_id":"levelo_inurba_marseille","lat":43.24074,"lon":5.37758,"is_reserved":false,"is_disabled":false,"rental_uris":{"android":"levelo://app?vid=a5bdacf3-b99a-4be5-a424-483226f1ce0b","ios":"levelo://app?vid=a5bdacf3-b99a-4be5-a424-483226f1ce0b"},"vehicle_type_id":"4","last_reported":1725952183,"current_range_meters":14000,"station_id":"ce4bhnp2rcd13ifvqgvg","pricing_plan_id":"cebpf4jnsgd1na2vs0mg"},{"bike_id":"3d2264ab-05ae-4dca-b782-680dc12c7edb","system_id":"levelo_inurba_marseille","lat":43.3092,"lon":5.36847,"is_reserved":false,"is_disabled":false,"rental_uris":{"android":"levelo://app?vid=3d2264ab-05ae-4dca-b782-680dc12c7edb","ios":"levelo://app?vid=3d2264ab-05ae-4dca-b782-680dc12c7edb"},"vehicle_type_id":"4","last_reported":1725952183,"current_range_meters":8800,"station_id":"ce4bgn92rcd13ifvqbvg","pricing_plan_id":"cebpf4jnsgd1na2vs0mg"},{"bike_id":"69e887f5-8a63-4dc2-8534-1bb6d6ddd4fa","system_id":"levelo_inurba_marseille","lat":43.23151,"lon":5.43712,"is_reserved":false,"is_disabled":false,"rental_uris":{"android":"levelo://app?vid=69e887f5-8a63-4dc2-8534-1bb6d6ddd4fa","ios":"levelo://app?vid=69e887f5-8a63-4dc2-8534-1bb6d6ddd4fa"},"vehicle_type_id":"4","last_reported":1725952183,"current_range_meters":35200,"station_id":"ce4bhmp2rcd13ifvqgog","pricing_plan_id":"cebpf4jnsgd1na2vs0mg"},{"bike_id":"21357381-083c-4d50-ab6b-c381f1f29938","system_id":"levelo_inurba_marseille","lat":43.33026,"lon":5.39044,"is_reserved":false,"is_disabled":false,"rental_uris":{"android":"levelo://app?vid=21357381-083c-4d50-ab6b-c381f1f29938","ios":"levelo://app?vid=21357381-083c-4d50-ab6b-c381f1f29938"},"vehicle_type_id":"4","last_reported":1725952183,"current_range_meters":19600,"station_id":"ce4bhr92rcd13ifvqhrg","pricing_plan_id":"cebpf4jnsgd1na2vs0mg"},{"bike_id":"b467178a-6702-47ce-ad89-cb0e451d927d","system_id":"levelo_inurba_marseille","lat":43.31085,"lon":5.42423,"is_reserved":false,"is_disabled":false,"rental_uris":{"android":"levelo://app?vid=b467178a-6702-47ce-ad89-cb0e451d927d","ios":"levelo://app?vid=b467178a-6702-47ce-ad89-cb0e451d927d"},"vehicle_type_id":"4","last_reported":1725952183,"current_range_meters":14000,"station_id":"ce4bhp92rcd13ifvqhag","pricing_plan_id":"cebpf4jnsgd1na2vs0mg"},{"bike_id":"06b1ad91-f7c5-4c45-bef2-6fd0d0916a03","system_id":"levelo_inurba_marseille","lat":43.241187,"lon":5.378564,"is_reserved":false,"is_disabled":false,"rental_uris":{"android":"levelo://app?vid=06b1ad91-f7c5-4c45-bef2-6fd0d0916a03","ios":"levelo://app?vid=06b1ad91-f7c5-4c45-bef2-6fd0d0916a03"},"vehicle_type_id":"4","last_reported":1725952183,"current_range_meters":30000,"station_id":"ce4bhnp2rcd13ifvqgvg","pricing_plan_id":"cebpf4jnsgd1na2vs0mg"},{"bike_id":"73e46b1e-2a10-4086-9ca4-0927aa744597","system_id":"levelo_inurba_marseille","lat":43.27201,"lon":5.39189,"is_reserved":false,"is_disabled":false,"rental_uris":{"android":"levelo://app?vid=73e46b1e-2a10-4086-9ca4-0927aa744597","ios":"levelo://app?vid=73e46b1e-2a10-4086-9ca4-0927aa744597"},"vehicle_type_id":"4","last_reported":1725952183,"current_range_meters":38800,"station_id":"ce4bhhp2rcd13ifvqfm0","pricing_plan_id":"cebpf4jnsgd1na2vs0mg"},{"bike_id":"c13e1edb-f817-452d-bc46-6f34e97f4d9c","system_id":"levelo_inurba_marseille","lat":43.24082,"lon":5.3775,"is_reserved":false,"is_disabled":false,"rental_uris":{"android":"levelo://app?vid=c13e1edb-f817-452d-bc46-6f34e97f4d9c","ios":"levelo://app?vid=c13e1edb-f817-452d-bc46-6f34e97f4d9c"},"vehicle_type_id":"4","last_reported":1725952183,"current_range_meters":32800,"station_id":"ce4bhnp2rcd13ifvqgvg","pricing_plan_id":"cebpf4jnsgd1na2vs0mg"},{"bike_id":"690d2d0a-19af-4eef-a84e-c560ee88902e","system_id":"levelo_inurba_marseille","lat":43.30476,"lon":5.37909,"is_reserved":false,"is_disabled":false,"rental_uris":{"android":"levelo://app?vid=690d2d0a-19af-4eef-a84e-c560ee88902e","ios":"levelo://app?vid=690d2d0a-19af-4eef-a84e-c560ee88902e"},"vehicle_type_id":"4","last_reported":1725952183,"current_range_meters":16400,"station_id":"ce4bgup2rcd13ifvqcn0","pricing_plan_id":"cebpf4jnsgd1na2vs0mg"},{"bike_id":"e8f5f671-627c-4c3e-a5d5-d88c7a3f563e","system_id":"levelo_inurba_marseille","lat":43.242858,"lon":5.396851,"is_reserved":false,"is_disabled":false,"rental_uris":{"android":"levelo://app?vid=e8f5f671-627c-4c3e-a5d5-d88c7a3f563e","ios":"levelo://app?vid=e8f5f671-627c-4c3e-a5d5-d88c7a3f563e"},"vehicle_type_id":"4","last_reported":1725952183,"current_range_meters":29600,"station_id":"ce4bhn12rcd13ifvqgpg","pricing_plan_id":"cebpf4jnsgd1na2vs0mg"},{"bike_id":"6b0dbfcc-4a2e-4496-a840-341e8adbca2f","system_id":"levelo_inurba_marseille","lat":43.24072,"lon":5.37762,"is_reserved":false,"is_disabled":false,"rental_uris":{"android":"levelo://app?vid=6b0dbfcc-4a2e-4496-a840-341e8adbca2f","ios":"levelo://app?vid=6b0dbfcc-4a2e-4496-a840-341e8adbca2f"},"vehicle_type_id":"4","last_reported":1725952183,"current_range_meters":17200,"station_id":"ce4bhnp2rcd13ifvqgvg","pricing_plan_id":"cebpf4jnsgd1na2vs0mg"},{"bike_id":"b431ae45-151f-44c8-8690-790461e8ccc2","system_id":"levelo_inurba_marseille","lat":43.27497,"lon":5.42445,"is_reserved":false,"is_disabled":false,"rental_uris":{"android":"levelo://app?vid=b431ae45-151f-44c8-8690-790461e8ccc2","ios":"levelo://app?vid=b431ae45-151f-44c8-8690-790461e8ccc2"},"vehicle_type_id":"4","last_reported":1725952183,"current_range_meters":24000,"station_id":"ce4bhn92rcd13ifvqgrg","pricing_plan_id":"cebpf4jnsgd1na2vs0mg"},{"bike_id":"26505684-7909-4a05-a336-28c2a2ea143e","system_id":"levelo_inurba_marseille","lat":43.24083,"lon":5.37747,"is_reserved":false,"is_disabled":false,"rental_uris":{"android":"levelo://app?vid=26505684-7909-4a05-a336-28c2a2ea143e","ios":"levelo://app?vid=26505684-7909-4a05-a336-28c2a2ea143e"},"vehicle_type_id":"4","last_reported":1725952183,"current_range_meters":19200,"station_id":"ce4bhnp2rcd13ifvqgvg","pricing_plan_id":"cebpf4jnsgd1na2vs0mg"},{"bike_id":"058501bb-5a22-4398-ae6a-7b4d1f5de701","system_id":"levelo_inurba_marseille","lat":43.32289,"lon":5.38278,"is_reserved":false,"is_disabled":false,"rental_uris":{"android":"levelo://app?vid=058501bb-5a22-4398-ae6a-7b4d1f5de701","ios":"levelo://app?vid=058501bb-5a22-4398-ae6a-7b4d1f5de701"},"vehicle_type_id":"4","last_reported":1725952183,"current_range_meters":34800,"station_id":"ce4bhr12rcd13ifvqhqg","pricing_plan_id":"cebpf4jnsgd1na2vs0mg"},{"bike_id":"53bfff36-b94a-45fe-82e3-e585e0b70be0","system_id":"levelo_inurba_marseille","lat":43.26994,"lon":5.38666,"is_reserved":false,"is_disabled":false,"rental_uris":{"android":"levelo://app?vid=53bfff36-b94a-45fe-82e3-e585e0b70be0","ios":"levelo://app?vid=53bfff36-b94a-45fe-82e3-e585e0b70be0"},"vehicle_type_id":"4","last_reported":1725952183,"current_range_meters":29600,"station_id":"ce4bhg92rcd13ifvqf90","pricing_plan_id":"cebpf4jnsgd1na2vs0mg"},{"bike_id":"a095d557-e884-4866-b6c4-5dbebc1d04a9","system_id":"levelo_inurba_marseille","lat":43.29554,"lon":5.42277,"is_reserved":false,"is_disabled":false,"rental_uris":{"android":"levelo://app?vid=a095d557-e884-4866-b6c4-5dbebc1d04a9","ios":"levelo://app?vid=a095d557-e884-4866-b6c4-5dbebc1d04a9"},"vehicle_type_id":"4","last_reported":1725952183,"current_range_meters":20800,"station_id":"ce4bhph2rcd13ifvqhdg","pricing_plan_id":"cebpf4jnsgd1na2vs0mg"},{"bike_id":"4960cf2e-5f29-4dea-8554-ed4a77540a81","system_id":"levelo_inurba_marseille","lat":43.33606,"lon":5.41013,"is_reserved":false,"is_disabled":false,"rental_uris":{"android":"levelo://app?vid=4960cf2e-5f29-4dea-8554-ed4a77540a81","ios":"levelo://app?vid=4960cf2e-5f29-4dea-8554-ed4a77540a81"},"vehicle_type_id":"4","last_reported":1725952183,"current_range_meters":33600,"station_id":"ce4bhqh2rcd13ifvqhmg","pricing_plan_id":"cebpf4jnsgd1na2vs0mg"},{"bike_id":"ccdbfbda-93aa-45a6-ba3a-1df13fd94b65","system_id":"levelo_inurba_marseille","lat":43.30465,"lon":5.37894,"is_reserved":false,"is_disabled":false,"rental_uris":{"android":"levelo://app?vid=ccdbfbda-93aa-45a6-ba3a-1df13fd94b65","ios":"levelo://app?vid=ccdbfbda-93aa-45a6-ba3a-1df13fd94b65"},"vehicle_type_id":"4","last_reported":1725952183,"current_range_meters":33200,"station_id":"ce4bgup2rcd13ifvqcn0","pricing_plan_id":"cebpf4jnsgd1na2vs0mg"},{"bike_id":"835ae718-d954-4895-8110-addc0146bee5","system_id":"levelo_inurba_marseille","lat":43.31346,"lon":5.36721,"is_reserved":false,"is_disabled":false,"rental_uris":{"android":"levelo://app?vid=835ae718-d954-4895-8110-addc0146bee5","ios":"levelo://app?vid=835ae718-d954-4895-8110-addc0146bee5"},"vehicle_type_id":"4","last_reported":1725952183,"current_range_meters":38800,"station_id":"ce4bgr92rcd13ifvqc6g","pricing_plan_id":"cebpf4jnsgd1na2vs0mg"},{"bike_id":"cf8f7022-0d98-41b6-a4ac-2434f86f3ea5","system_id":"levelo_inurba_marseille","lat":43.25002,"lon":5.38928,"is_reserved":false,"is_disabled":false,"rental_uris":{"android":"levelo://app?vid=cf8f7022-0d98-41b6-a4ac-2434f86f3ea5","ios":"levelo://app?vid=cf8f7022-0d98-41b6-a4ac-2434f86f3ea5"},"vehicle_type_id":"4","last_reported":1725952183,"current_range_meters":7200,"station_id":"ce4bhgp2rcd13ifvqfd0","pricing_plan_id":"cebpf4jnsgd1na2vs0mg"},{"bike_id":"ff241c1d-c267-4895-9610-1e24cec8aa65","system_id":"levelo_inurba_marseille","lat":43.26062,"lon":5.39395,"is_reserved":false,"is_disabled":false,"rental_uris":{"android":"levelo://app?vid=ff241c1d-c267-4895-9610-1e24cec8aa65","ios":"levelo://app?vid=ff241c1d-c267-4895-9610-1e24cec8aa65"},"vehicle_type_id":"4","last_reported":1725952183,"current_range_meters":23200,"station_id":"ce4bhh92rcd13ifvqfj0","pricing_plan_id":"cebpf4jnsgd1na2vs0mg"},{"bike_id":"e1a869db-a9c9-40ff-852a-8793cc94c5a8","system_id":"levelo_inurba_marseille","lat":43.27492,"lon":5.42451,"is_reserved":false,"is_disabled":false,"rental_uris":{"android":"levelo://app?vid=e1a869db-a9c9-40ff-852a-8793cc94c5a8","ios":"levelo://app?vid=e1a869db-a9c9-40ff-852a-8793cc94c5a8"},"vehicle_type_id":"4","last_reported":1725952183,"current_range_meters":33600,"station_id":"ce4bhn92rcd13ifvqgrg","pricing_plan_id":"cebpf4jnsgd1na2vs0mg"},{"bike_id":"e1afa912-2bf9-49f5-ab54-6e9af09aacb3","system_id":"levelo_inurba_marseille","lat":43.23187,"lon":5.39983,"is_reserved":false,"is_disabled":false,"rental_uris":{"android":"levelo://app?vid=e1afa912-2bf9-49f5-ab54-6e9af09aacb3","ios":"levelo://app?vid=e1afa912-2bf9-49f5-ab54-6e9af09aacb3"},"vehicle_type_id":"4","last_reported":1725952183,"current_range_meters":12000,"station_id":"ce4bhn12rcd13ifvqgqg","pricing_plan_id":"cebpf4jnsgd1na2vs0mg"},{"bike_id":"b4b67df7-754c-4953-9666-7dc49b271989","system_id":"levelo_inurba_marseille","lat":43.30777,"lon":5.376312,"is_reserved":false,"is_disabled":false,"rental_uris":{"android":"levelo://app?vid=b4b67df7-754c-4953-9666-7dc49b271989","ios":"levelo://app?vid=b4b67df7-754c-4953-9666-7dc49b271989"},"vehicle_type_id":"4","last_reported":1725952183,"current_range_meters":16400,"station_id":"ce4bgv92rcd13ifvqcq0","pricing_plan_id":"cebpf4jnsgd1na2vs0mg"},{"bike_id":"3f04d19c-3606-4d71-9791-16811c739214","system_id":"levelo_inurba_marseille","lat":43.24172,"lon":5.36397,"is_reserved":false,"is_disabled":false,"rental_uris":{"android":"levelo://app?vid=3f04d19c-3606-4d71-9791-16811c739214","ios":"levelo://app?vid=3f04d19c-3606-4d71-9791-16811c739214"},"vehicle_type_id":"4","last_reported":1725952183,"current_range_meters":36400,"station_id":"cpo36qri1sfpv3e86is0","pricing_plan_id":"cebpf4jnsgd1na2vs0mg"},{"bike_id":"2f824156-96da-43d7-90fd-bf156c3d9316","system_id":"levelo_inurba_marseille","lat":43.31485,"lon":5.37297,"is_reserved":false,"is_disabled":false,"rental_uris":{"android":"levelo://app?vid=2f824156-96da-43d7-90fd-bf156c3d9316","ios":"levelo://app?vid=2f824156-96da-43d7-90fd-bf156c3d9316"},"vehicle_type_id":"4","last_reported":1725952183,"current_range_meters":11200,"station_id":"ce4bgt12rcd13ifvqcd0","pricing_plan_id":"cebpf4jnsgd1na2vs0mg"},{"bike_id":"be88d6c7-8664-4a72-ab50-16354980db2d","system_id":"levelo_inurba_marseille","lat":43.2928,"lon":5.4012,"is_reserved":false,"is_disabled":false,"rental_uris":{"android":"levelo://app?vid=be88d6c7-8664-4a72-ab50-16354980db2d","ios":"levelo://app?vid=be88d6c7-8664-4a72-ab50-16354980db2d"},"vehicle_type_id":"4","last_reported":1725952183,"current_range_meters":28000,"station_id":"ce4bh312rcd13ifvqdk0","pricing_plan_id":"cebpf4jnsgd1na2vs0mg"},{"bike_id":"5da2003d-fb1c-434c-ae81-c10b92dc97e9","system_id":"levelo_inurba_marseille","lat":43.30468,"lon":5.37898,"is_reserved":false,"is_disabled":false,"rental_uris":{"android":"levelo://app?vid=5da2003d-fb1c-434c-ae81-c10b92dc97e9","ios":"levelo://app?vid=5da2003d-fb1c-434c-ae81-c10b92dc97e9"},"vehicle_type_id":"4","last_reported":1725952183,"current_range_meters":39200,"station_id":"ce4bgup2rcd13ifvqcn0","pricing_plan_id":"cebpf4jnsgd1na2vs0mg"},{"bike_id":"12d3602a-b418-413b-aeec-7697165bcc4f","system_id":"levelo_inurba_marseille","lat":43.28042,"lon":5.36941,"is_reserved":false,"is_disabled":false,"rental_uris":{"android":"levelo://app?vid=12d3602a-b418-413b-aeec-7697165bcc4f","ios":"levelo://app?vid=12d3602a-b418-413b-aeec-7697165bcc4f"},"vehicle_type_id":"4","last_reported":1725952183,"current_range_meters":35200,"station_id":"ce4bha12rcd13ifvqef0","pricing_plan_id":"cebpf4jnsgd1na2vs0mg"},{"bike_id":"e1fd1eb2-3633-4bfc-b013-b1ccd9805bc3","system_id":"levelo_inurba_marseille","lat":43.29067,"lon":5.37153,"is_reserved":false,"is_disabled":false,"rental_uris":{"android":"levelo://app?vid=e1fd1eb2-3633-4bfc-b013-b1ccd9805bc3","ios":"levelo://app?vid=e1fd1eb2-3633-4bfc-b013-b1ccd9805bc3"},"vehicle_type_id":"4","last_reported":1725952183,"current_range_meters":22000,"station_id":"ce4bh5p2rcd13ifvqe4g","pricing_plan_id":"cebpf4jnsgd1na2vs0mg"},{"bike_id":"37070a74-00b0-4f72-8eca-a9d173186f92","system_id":"levelo_inurba_marseille","lat":43.24073,"lon":5.3776,"is_reserved":false,"is_disabled":false,"rental_uris":{"android":"levelo://app?vid=37070a74-00b0-4f72-8eca-a9d173186f92","ios":"levelo://app?vid=37070a74-00b0-4f72-8eca-a9d173186f92"},"vehicle_type_id":"4","last_reported":1725952183,"current_range_meters":14800,"station_id":"ce4bhnp2rcd13ifvqgvg","pricing_plan_id":"cebpf4jnsgd1na2vs0mg"},{"bike_id":"a85c78bc-418c-4af0-8edd-59c76790768f","system_id":"levelo_inurba_marseille","lat":43.32487,"lon":5.36566,"is_reserved":false,"is_disabled":false,"rental_uris":{"android":"levelo://app?vid=a85c78bc-418c-4af0-8edd-59c76790768f","ios":"levelo://app?vid=a85c78bc-418c-4af0-8edd-59c76790768f"},"vehicle_type_id":"4","last_reported":1725952183,"current_range_meters":28800,"station_id":"ce4bhs12rcd13ifvqhvg","pricing_plan_id":"cebpf4jnsgd1na2vs0mg"},{"bike_id":"72f184a6-d40d-412d-98ba-7a64f53b671c","system_id":"levelo_inurba_marseille","lat":43.246613,"lon":5.381694,"is_reserved":false,"is_disabled":false,"rental_uris":{"android":"levelo://app?vid=72f184a6-d40d-412d-98ba-7a64f53b671c","ios":"levelo://app?vid=72f184a6-d40d-412d-98ba-7a64f53b671c"},"vehicle_type_id":"4","last_reported":1725952183,"current_range_meters":33200,"station_id":"ce4bhih2rcd13ifvqfr0","pricing_plan_id":"cebpf4jnsgd1na2vs0mg"},{"bike_id":"d9663d21-c90b-4b46-821c-b724101c7b12","system_id":"levelo_inurba_marseille","lat":43.298305,"lon":5.362491,"is_reserved":false,"is_disabled":false,"rental_uris":{"android":"levelo://app?vid=d9663d21-c90b-4b46-821c-b724101c7b12","ios":"levelo://app?vid=d9663d21-c90b-4b46-821c-b724101c7b12"},"vehicle_type_id":"4","last_reported":1725952183,"current_range_meters":14800,"station_id":"ce4bgpp2rcd13ifvqc3g","pricing_plan_id":"cebpf4jnsgd1na2vs0mg"},{"bike_id":"69d87a96-62d5-48ac-a203-3fc99ced94d7","system_id":"levelo_inurba_marseille","lat":43.26952,"lon":5.38624,"is_reserved":false,"is_disabled":false,"rental_uris":{"android":"levelo://app?vid=69d87a96-62d5-48ac-a203-3fc99ced94d7","ios":"levelo://app?vid=69d87a96-62d5-48ac-a203-3fc99ced94d7"},"vehicle_type_id":"4","last_reported":1725952183,"current_range_meters":35200,"station_id":"ce4bhh92rcd13ifvqfh0","pricing_plan_id":"cebpf4jnsgd1na2vs0mg"},{"bike_id":"d12b0250-5c7f-4add-96f7-d571b6142981","system_id":"levelo_inurba_marseille","lat":43.3415,"lon":5.40899,"is_reserved":false,"is_disabled":false,"rental_uris":{"android":"levelo://app?vid=d12b0250-5c7f-4add-96f7-d571b6142981","ios":"levelo://app?vid=d12b0250-5c7f-4add-96f7-d571b6142981"},"vehicle_type_id":"4","last_reported":1725952183,"current_range_meters":29600,"station_id":"ce4bhqh2rcd13ifvqhlg","pricing_plan_id":"cebpf4jnsgd1na2vs0mg"},{"bike_id":"9f0a1eb3-ed63-4bc1-a966-5af9292852d5","system_id":"levelo_inurba_marseille","lat":43.29851,"lon":5.36276,"is_reserved":false,"is_disabled":false,"rental_uris":{"android":"levelo://app?vid=9f0a1eb3-ed63-4bc1-a966-5af9292852d5","ios":"levelo://app?vid=9f0a1eb3-ed63-4bc1-a966-5af9292852d5"},"vehicle_type_id":"4","last_reported":1725952183,"current_range_meters":22800,"station_id":"ce4bgpp2rcd13ifvqc3g","pricing_plan_id":"cebpf4jnsgd1na2vs0mg"},{"bike_id":"9c97f9ec-7a9d-41fa-833c-34ce56ba5dfe","system_id":"levelo_inurba_marseille","lat":43.2293,"lon":5.35375,"is_reserved":false,"is_disabled":false,"rental_uris":{"android":"levelo://app?vid=9c97f9ec-7a9d-41fa-833c-34ce56ba5dfe","ios":"levelo://app?vid=9c97f9ec-7a9d-41fa-833c-34ce56ba5dfe"},"vehicle_type_id":"4","last_reported":1725952183,"current_range_meters":7200,"station_id":"cpo3532slgdg3j2ikp40","pricing_plan_id":"cebpf4jnsgd1na2vs0mg"},{"bike_id":"f5577cb7-0285-41eb-a4b7-00df28e8481e","system_id":"levelo_inurba_marseille","lat":43.29042,"lon":5.37561,"is_reserved":false,"is_disabled":false,"rental_uris":{"android":"levelo://app?vid=f5577cb7-0285-41eb-a4b7-00df28e8481e","ios":"levelo://app?vid=f5577cb7-0285-41eb-a4b7-00df28e8481e"},"vehicle_type_id":"4","last_reported":1725952183,"current_range_meters":25600,"station_id":"ce4bh692rcd13ifvqe90","pricing_plan_id":"cebpf4jnsgd1na2vs0mg"},{"bike_id":"6bc78a58-cf39-436d-963c-76da93ea5d85","system_id":"levelo_inurba_marseille","lat":43.33765,"lon":5.37439,"is_reserved":false,"is_disabled":false,"rental_uris":{"android":"levelo://app?vid=6bc78a58-cf39-436d-963c-76da93ea5d85","ios":"levelo://app?vid=6bc78a58-cf39-436d-963c-76da93ea5d85"},"vehicle_type_id":"4","last_reported":1725952183,"current_range_meters":27200,"station_id":"","pricing_plan_id":"cebpf4jnsgd1na2vs0mg"},{"bike_id":"2a232d4c-0caf-4608-80d1-9bfef437d62b","system_id":"levelo_inurba_marseille","lat":43.27495,"lon":5.42452,"is_reserved":false,"is_disabled":false,"rental_uris":{"android":"levelo://app?vid=2a232d4c-0caf-4608-80d1-9bfef437d62b","ios":"levelo://app?vid=2a232d4c-0caf-4608-80d1-9bfef437d62b"},"vehicle_type_id":"4","last_reported":1725952183,"current_range_meters":36000,"station_id":"ce4bhn92rcd13ifvqgrg","pricing_plan_id":"cebpf4jnsgd1na2vs0mg"},{"bike_id":"4490c6dd-a0b6-4c6a-8bd3-d2268595024a","system_id":"levelo_inurba_marseille","lat":43.24078,"lon":5.37761,"is_reserved":false,"is_disabled":false,"rental_uris":{"android":"levelo://app?vid=4490c6dd-a0b6-4c6a-8bd3-d2268595024a","ios":"levelo://app?vid=4490c6dd-a0b6-4c6a-8bd3-d2268595024a"},"vehicle_type_id":"4","last_reported":1725952183,"current_range_meters":9200,"station_id":"ce4bhnp2rcd13ifvqgvg","pricing_plan_id":"cebpf4jnsgd1na2vs0mg"},{"bike_id":"1a9dfcb8-d4cc-46d1-bada-7d344f8f428d","system_id":"levelo_inurba_marseille","lat":43.30554,"lon":5.36521,"is_reserved":false,"is_disabled":false,"rental_uris":{"android":"levelo://app?vid=1a9dfcb8-d4cc-46d1-bada-7d344f8f428d","ios":"levelo://app?vid=1a9dfcb8-d4cc-46d1-bada-7d344f8f428d"},"vehicle_type_id":"4","last_reported":1725952183,"current_range_meters":38800,"station_id":"ce4bgs12rcd13ifvqcag","pricing_plan_id":"cebpf4jnsgd1na2vs0mg"},{"bike_id":"0f8d4871-40aa-4918-ae57-55191cfaadca","system_id":"levelo_inurba_marseille","lat":43.24087,"lon":5.37743,"is_reserved":false,"is_disabled":false,"rental_uris":{"android":"levelo://app?vid=0f8d4871-40aa-4918-ae57-55191cfaadca","ios":"levelo://app?vid=0f8d4871-40aa-4918-ae57-55191cfaadca"},"vehicle_type_id":"4","last_reported":1725952183,"current_range_meters":21600,"station_id":"ce4bhnp2rcd13ifvqgvg","pricing_plan_id":"cebpf4jnsgd1na2vs0mg"},{"bike_id":"957f5501-98e5-436f-b1b5-906f5ab68b8c","system_id":"levelo_inurba_marseille","lat":43.26954,"lon":5.3863,"is_reserved":false,"is_disabled":false,"rental_uris":{"android":"levelo://app?vid=957f5501-98e5-436f-b1b5-906f5ab68b8c","ios":"levelo://app?vid=957f5501-98e5-436f-b1b5-906f5ab68b8c"},"vehicle_type_id":"4","last_reported":1725952183,"current_range_meters":39200,"station_id":"ce4bhh92rcd13ifvqfh0","pricing_plan_id":"cebpf4jnsgd1na2vs0mg"},{"bike_id":"7bb5a6c7-6dd5-4a42-9215-dad1557690cc","system_id":"levelo_inurba_marseille","lat":43.32288,"lon":5.38268,"is_reserved":false,"is_disabled":false,"rental_uris":{"android":"levelo://app?vid=7bb5a6c7-6dd5-4a42-9215-dad1557690cc","ios":"levelo://app?vid=7bb5a6c7-6dd5-4a42-9215-dad1557690cc"},"vehicle_type_id":"4","last_reported":1725952183,"current_range_meters":37600,"station_id":"ce4bhr12rcd13ifvqhqg","pricing_plan_id":"cebpf4jnsgd1na2vs0mg"},{"bike_id":"ff7f1318-7ba5-4b6a-837f-e7781625fc1b","system_id":"levelo_inurba_marseille","lat":43.30905,"lon":5.36843,"is_reserved":false,"is_disabled":false,"rental_uris":{"android":"levelo://app?vid=ff7f1318-7ba5-4b6a-837f-e7781625fc1b","ios":"levelo://app?vid=ff7f1318-7ba5-4b6a-837f-e7781625fc1b"},"vehicle_type_id":"4","last_reported":1725952183,"current_range_meters":8800,"station_id":"ce4bgn92rcd13ifvqbvg","pricing_plan_id":"cebpf4jnsgd1na2vs0mg"},{"bike_id":"8e4e074d-a47a-4252-8b4c-e822e5520e38","system_id":"levelo_inurba_marseille","lat":43.312164,"lon":5.368594,"is_reserved":false,"is_disabled":false,"rental_uris":{"android":"levelo://app?vid=8e4e074d-a47a-4252-8b4c-e822e5520e38","ios":"levelo://app?vid=8e4e074d-a47a-4252-8b4c-e822e5520e38"},"vehicle_type_id":"4","last_reported":1725952183,"current_range_meters":10800,"station_id":"ce4bgl92rcd13ifvqbq0","pricing_plan_id":"cebpf4jnsgd1na2vs0mg"},{"bike_id":"335bddd9-540b-49bc-a041-8eef472ad8c0","system_id":"levelo_inurba_marseille","lat":43.29258,"lon":5.40904,"is_reserved":false,"is_disabled":false,"rental_uris":{"android":"levelo://app?vid=335bddd9-540b-49bc-a041-8eef472ad8c0","ios":"levelo://app?vid=335bddd9-540b-49bc-a041-8eef472ad8c0"},"vehicle_type_id":"4","last_reported":1725952183,"current_range_meters":36000,"station_id":"ce4bh192rcd13ifvqdc0","pricing_plan_id":"cebpf4jnsgd1na2vs0mg"},{"bike_id":"4d3ba965-b7c3-468a-b8ee-8b5bc8e89720","system_id":"levelo_inurba_marseille","lat":43.27627,"lon":5.36106,"is_reserved":false,"is_disabled":false,"rental_uris":{"android":"levelo://app?vid=4d3ba965-b7c3-468a-b8ee-8b5bc8e89720","ios":"levelo://app?vid=4d3ba965-b7c3-468a-b8ee-8b5bc8e89720"},"vehicle_type_id":"4","last_reported":1725952183,"current_range_meters":39200,"station_id":"ce4bgj92rcd13ifvqbe0","pricing_plan_id":"cebpf4jnsgd1na2vs0mg"},{"bike_id":"8c317ca4-ae87-4e85-8597-c0aa99af97e9","system_id":"levelo_inurba_marseille","lat":43.25005,"lon":5.38919,"is_reserved":false,"is_disabled":false,"rental_uris":{"android":"levelo://app?vid=8c317ca4-ae87-4e85-8597-c0aa99af97e9","ios":"levelo://app?vid=8c317ca4-ae87-4e85-8597-c0aa99af97e9"},"vehicle_type_id":"4","last_reported":1725952183,"current_range_meters":12800,"station_id":"ce4bhgp2rcd13ifvqfd0","pricing_plan_id":"cebpf4jnsgd1na2vs0mg"},{"bike_id":"1e32e203-e04e-4dbe-982a-a6a668902547","system_id":"levelo_inurba_marseille","lat":43.308631,"lon":5.367891,"is_reserved":false,"is_disabled":false,"rental_uris":{"android":"levelo://app?vid=1e32e203-e04e-4dbe-982a-a6a668902547","ios":"levelo://app?vid=1e32e203-e04e-4dbe-982a-a6a668902547"},"vehicle_type_id":"4","last_reported":1725952183,"current_range_meters":31200,"station_id":"","pricing_plan_id":"cebpf4jnsgd1na2vs0mg"},{"bike_id":"0ae8c7a4-54fd-4ff8-a045-e1471016df7b","system_id":"levelo_inurba_marseille","lat":43.24072,"lon":5.37758,"is_reserved":false,"is_disabled":false,"rental_uris":{"android":"levelo://app?vid=0ae8c7a4-54fd-4ff8-a045-e1471016df7b","ios":"levelo://app?vid=0ae8c7a4-54fd-4ff8-a045-e1471016df7b"},"vehicle_type_id":"4","last_reported":1725952183,"current_range_meters":35200,"station_id":"ce4bhnp2rcd13ifvqgvg","pricing_plan_id":"cebpf4jnsgd1na2vs0mg"},{"bike_id":"f39b2119-4a11-4daa-9c63-03c8da229918","system_id":"levelo_inurba_marseille","lat":43.27494,"lon":5.4245,"is_reserved":false,"is_disabled":false,"rental_uris":{"android":"levelo://app?vid=f39b2119-4a11-4daa-9c63-03c8da229918","ios":"levelo://app?vid=f39b2119-4a11-4daa-9c63-03c8da229918"},"vehicle_type_id":"4","last_reported":1725952183,"current_range_meters":4800,"station_id":"ce4bhn92rcd13ifvqgrg","pricing_plan_id":"cebpf4jnsgd1na2vs0mg"},{"bike_id":"e79dc6d1-d6a3-467f-a9dd-348e2da1839e","system_id":"levelo_inurba_marseille","lat":43.25579,"lon":5.38226,"is_reserved":false,"is_disabled":false,"rental_uris":{"android":"levelo://app?vid=e79dc6d1-d6a3-467f-a9dd-348e2da1839e","ios":"levelo://app?vid=e79dc6d1-d6a3-467f-a9dd-348e2da1839e"},"vehicle_type_id":"4","last_reported":1725952183,"current_range_meters":32000,"station_id":"ce4bhih2rcd13ifvqfs0","pricing_plan_id":"cebpf4jnsgd1na2vs0mg"},{"bike_id":"a1188a2e-b5b1-49cb-b853-e828cd1a6fca","system_id":"levelo_inurba_marseille","lat":43.28948,"lon":5.36398,"is_reserved":false,"is_disabled":false,"rental_uris":{"android":"levelo://app?vid=a1188a2e-b5b1-49cb-b853-e828cd1a6fca","ios":"levelo://app?vid=a1188a2e-b5b1-49cb-b853-e828cd1a6fca"},"vehicle_type_id":"4","last_reported":1725952183,"current_range_meters":5600,"station_id":"ce4bhc92rcd13ifvqetg","pricing_plan_id":"cebpf4jnsgd1na2vs0mg"},{"bike_id":"c84e9f01-9836-40e8-b8c2-930f5fbcd0b9","system_id":"levelo_inurba_marseille","lat":43.294916,"lon":5.3897,"is_reserved":false,"is_disabled":false,"rental_uris":{"android":"levelo://app?vid=c84e9f01-9836-40e8-b8c2-930f5fbcd0b9","ios":"levelo://app?vid=c84e9f01-9836-40e8-b8c2-930f5fbcd0b9"},"vehicle_type_id":"4","last_reported":1725952183,"current_range_meters":14000,"station_id":"ce4bgpp2rcd13ifvqc3g","pricing_plan_id":"cebpf4jnsgd1na2vs0mg"},{"bike_id":"7455bc20-60a5-48d2-9928-62fe204b368f","system_id":"levelo_inurba_marseille","lat":43.26565,"lon":5.38993,"is_reserved":false,"is_disabled":false,"rental_uris":{"android":"levelo://app?vid=7455bc20-60a5-48d2-9928-62fe204b368f","ios":"levelo://app?vid=7455bc20-60a5-48d2-9928-62fe204b368f"},"vehicle_type_id":"4","last_reported":1725952183,"current_range_meters":30000,"station_id":"ce4bhe12rcd13ifvqf30","pricing_plan_id":"cebpf4jnsgd1na2vs0mg"},{"bike_id":"ad30e1ff-95b9-431d-8f32-6d4c82a8cbac","system_id":"levelo_inurba_marseille","lat":43.293872,"lon":5.401625,"is_reserved":false,"is_disabled":false,"rental_uris":{"android":"levelo://app?vid=ad30e1ff-95b9-431d-8f32-6d4c82a8cbac","ios":"levelo://app?vid=ad30e1ff-95b9-431d-8f32-6d4c82a8cbac"},"vehicle_type_id":"4","last_reported":1725952183,"current_range_meters":36400,"station_id":"ce4bh312rcd13ifvqdk0","pricing_plan_id":"cebpf4jnsgd1na2vs0mg"},{"bike_id":"0d444857-2084-4940-8191-0ed52cbc684f","system_id":"levelo_inurba_marseille","lat":43.28949,"lon":5.36399,"is_reserved":false,"is_disabled":false,"rental_uris":{"android":"levelo://app?vid=0d444857-2084-4940-8191-0ed52cbc684f","ios":"levelo://app?vid=0d444857-2084-4940-8191-0ed52cbc684f"},"vehicle_type_id":"4","last_reported":1725952183,"current_range_meters":30000,"station_id":"ce4bhc92rcd13ifvqetg","pricing_plan_id":"cebpf4jnsgd1na2vs0mg"},{"bike_id":"0598788e-0f22-4494-bc45-b54afcd3484c","system_id":"levelo_inurba_marseille","lat":43.30898,"lon":5.36843,"is_reserved":false,"is_disabled":false,"rental_uris":{"android":"levelo://app?vid=0598788e-0f22-4494-bc45-b54afcd3484c","ios":"levelo://app?vid=0598788e-0f22-4494-bc45-b54afcd3484c"},"vehicle_type_id":"4","last_reported":1725952183,"current_range_meters":23200,"station_id":"ce4bgn92rcd13ifvqbvg","pricing_plan_id":"cebpf4jnsgd1na2vs0mg"},{"bike_id":"b67357ee-48ea-4477-9752-bb18a5a0f543","system_id":"levelo_inurba_marseille","lat":43.31894,"lon":5.40738,"is_reserved":false,"is_disabled":false,"rental_uris":{"android":"levelo://app?vid=b67357ee-48ea-4477-9752-bb18a5a0f543","ios":"levelo://app?vid=b67357ee-48ea-4477-9752-bb18a5a0f543"},"vehicle_type_id":"4","last_reported":1725952183,"current_range_meters":10000,"station_id":"ce4bhq12rcd13ifvqhig","pricing_plan_id":"cebpf4jnsgd1na2vs0mg"},{"bike_id":"f26f090b-de0a-4bd9-9e49-509fd18a33fc","system_id":"levelo_inurba_marseille","lat":43.2902,"lon":5.37832,"is_reserved":false,"is_disabled":false,"rental_uris":{"android":"levelo://app?vid=f26f090b-de0a-4bd9-9e49-509fd18a33fc","ios":"levelo://app?vid=f26f090b-de0a-4bd9-9e49-509fd18a33fc"},"vehicle_type_id":"4","last_reported":1725952183,"current_range_meters":31200,"station_id":"ce4bh692rcd13ifvqe90","pricing_plan_id":"cebpf4jnsgd1na2vs0mg"},{"bike_id":"bf3f6b11-b600-497a-84fe-1a0c1f2f273f","system_id":"levelo_inurba_marseille","lat":43.3237,"lon":5.38926,"is_reserved":false,"is_disabled":false,"rental_uris":{"android":"levelo://app?vid=bf3f6b11-b600-497a-84fe-1a0c1f2f273f","ios":"levelo://app?vid=bf3f6b11-b600-497a-84fe-1a0c1f2f273f"},"vehicle_type_id":"4","last_reported":1725952183,"current_range_meters":19600,"station_id":"","pricing_plan_id":"cebpf4jnsgd1na2vs0mg"},{"bike_id":"9e9767d7-88e9-4934-b89b-108e398bbe15","system_id":"levelo_inurba_marseille","lat":43.26789,"lon":5.39413,"is_reserved":false,"is_disabled":false,"rental_uris":{"android":"levelo://app?vid=9e9767d7-88e9-4934-b89b-108e398bbe15","ios":"levelo://app?vid=9e9767d7-88e9-4934-b89b-108e398bbe15"},"vehicle_type_id":"4","last_reported":1725952183,"current_range_meters":12000,"station_id":"ce4bhh12rcd13ifvqfg0","pricing_plan_id":"cebpf4jnsgd1na2vs0mg"},{"bike_id":"359d1473-d880-471e-86a8-538121d5b33e","system_id":"levelo_inurba_marseille","lat":43.29845,"lon":5.36275,"is_reserved":false,"is_disabled":false,"rental_uris":{"android":"levelo://app?vid=359d1473-d880-471e-86a8-538121d5b33e","ios":"levelo://app?vid=359d1473-d880-471e-86a8-538121d5b33e"},"vehicle_type_id":"4","last_reported":1725952183,"current_range_meters":16800,"station_id":"ce4bgpp2rcd13ifvqc3g","pricing_plan_id":"cebpf4jnsgd1na2vs0mg"},{"bike_id":"bd71b424-8161-43f7-b738-206e2ed2cec8","system_id":"levelo_inurba_marseille","lat":43.23968,"lon":5.36626,"is_reserved":false,"is_disabled":false,"rental_uris":{"android":"levelo://app?vid=bd71b424-8161-43f7-b738-206e2ed2cec8","ios":"levelo://app?vid=bd71b424-8161-43f7-b738-206e2ed2cec8"},"vehicle_type_id":"4","last_reported":1725952183,"current_range_meters":35600,"station_id":"ce4bhi12rcd13ifvqfp0","pricing_plan_id":"cebpf4jnsgd1na2vs0mg"},{"bike_id":"cffe04c1-88f0-4a0d-adc5-1c17f442f6b0","system_id":"levelo_inurba_marseille","lat":43.24391,"lon":5.37057,"is_reserved":false,"is_disabled":false,"rental_uris":{"android":"levelo://app?vid=cffe04c1-88f0-4a0d-adc5-1c17f442f6b0","ios":"levelo://app?vid=cffe04c1-88f0-4a0d-adc5-1c17f442f6b0"},"vehicle_type_id":"4","last_reported":1725952183,"current_range_meters":39200,"station_id":"ce4bhhh2rcd13ifvqfk0","pricing_plan_id":"cebpf4jnsgd1na2vs0mg"},{"bike_id":"2fab2f64-f490-4758-921a-3009b4ba8bca","system_id":"levelo_inurba_marseille","lat":43.3229,"lon":5.38268,"is_reserved":false,"is_disabled":false,"rental_uris":{"android":"levelo://app?vid=2fab2f64-f490-4758-921a-3009b4ba8bca","ios":"levelo://app?vid=2fab2f64-f490-4758-921a-3009b4ba8bca"},"vehicle_type_id":"4","last_reported":1725952183,"current_range_meters":38000,"station_id":"ce4bhr12rcd13ifvqhqg","pricing_plan_id":"cebpf4jnsgd1na2vs0mg"},{"bike_id":"6e3cdfb9-fe5c-4830-adfd-7542b79c6d41","system_id":"levelo_inurba_marseille","lat":43.25001,"lon":5.38926,"is_reserved":false,"is_disabled":false,"rental_uris":{"android":"levelo://app?vid=6e3cdfb9-fe5c-4830-adfd-7542b79c6d41","ios":"levelo://app?vid=6e3cdfb9-fe5c-4830-adfd-7542b79c6d41"},"vehicle_type_id":"4","last_reported":1725952183,"current_range_meters":31200,"station_id":"ce4bhgp2rcd13ifvqfd0","pricing_plan_id":"cebpf4jnsgd1na2vs0mg"},{"bike_id":"d48e0dec-518d-4e84-94f6-11981c7616c0","system_id":"levelo_inurba_marseille","lat":43.24075,"lon":5.37758,"is_reserved":false,"is_disabled":false,"rental_uris":{"android":"levelo://app?vid=d48e0dec-518d-4e84-94f6-11981c7616c0","ios":"levelo://app?vid=d48e0dec-518d-4e84-94f6-11981c7616c0"},"vehicle_type_id":"4","last_reported":1725952183,"current_range_meters":28400,"station_id":"ce4bhnp2rcd13ifvqgvg","pricing_plan_id":"cebpf4jnsgd1na2vs0mg"},{"bike_id":"52051822-0c01-4dbd-92d1-e96d755d0f3b","system_id":"levelo_inurba_marseille","lat":43.29932,"lon":5.36533,"is_reserved":false,"is_disabled":false,"rental_uris":{"android":"levelo://app?vid=52051822-0c01-4dbd-92d1-e96d755d0f3b","ios":"levelo://app?vid=52051822-0c01-4dbd-92d1-e96d755d0f3b"},"vehicle_type_id":"4","last_reported":1725952183,"current_range_meters":32000,"station_id":"ce4bgm92rcd13ifvqbr0","pricing_plan_id":"cebpf4jnsgd1na2vs0mg"},{"bike_id":"7ef84ee7-1a5b-4e2a-84d1-5ae0e4ef271a","system_id":"levelo_inurba_marseille","lat":43.23184,"lon":5.3998,"is_reserved":false,"is_disabled":false,"rental_uris":{"android":"levelo://app?vid=7ef84ee7-1a5b-4e2a-84d1-5ae0e4ef271a","ios":"levelo://app?vid=7ef84ee7-1a5b-4e2a-84d1-5ae0e4ef271a"},"vehicle_type_id":"4","last_reported":1725952183,"current_range_meters":32400,"station_id":"ce4bhn12rcd13ifvqgqg","pricing_plan_id":"cebpf4jnsgd1na2vs0mg"},{"bike_id":"109a1101-907d-480f-b4f1-6cd46320c406","system_id":"levelo_inurba_marseille","lat":43.3054,"lon":5.36537,"is_reserved":false,"is_disabled":false,"rental_uris":{"android":"levelo://app?vid=109a1101-907d-480f-b4f1-6cd46320c406","ios":"levelo://app?vid=109a1101-907d-480f-b4f1-6cd46320c406"},"vehicle_type_id":"4","last_reported":1725952183,"current_range_meters":22800,"station_id":"ce4bgs12rcd13ifvqcag","pricing_plan_id":"cebpf4jnsgd1na2vs0mg"},{"bike_id":"72f833ca-370e-469e-a6b2-a3b2bf6fb689","system_id":"levelo_inurba_marseille","lat":43.33776,"lon":5.37427,"is_reserved":false,"is_disabled":false,"rental_uris":{"android":"levelo://app?vid=72f833ca-370e-469e-a6b2-a3b2bf6fb689","ios":"levelo://app?vid=72f833ca-370e-469e-a6b2-a3b2bf6fb689"},"vehicle_type_id":"4","last_reported":1725952183,"current_range_meters":37600,"station_id":"","pricing_plan_id":"cebpf4jnsgd1na2vs0mg"},{"bike_id":"daf6a3ba-2164-4a27-beb4-c576906cea03","system_id":"levelo_inurba_marseille","lat":43.25002,"lon":5.38938,"is_reserved":false,"is_disabled":false,"rental_uris":{"android":"levelo://app?vid=daf6a3ba-2164-4a27-beb4-c576906cea03","ios":"levelo://app?vid=daf6a3ba-2164-4a27-beb4-c576906cea03"},"vehicle_type_id":"4","last_reported":1725952183,"current_range_meters":35600,"station_id":"ce4bhgp2rcd13ifvqfd0","pricing_plan_id":"cebpf4jnsgd1na2vs0mg"},{"bike_id":"c20a16de-2b40-47fa-917f-b0e315ac39aa","system_id":"levelo_inurba_marseille","lat":43.33601,"lon":5.41032,"is_reserved":false,"is_disabled":false,"rental_uris":{"android":"levelo://app?vid=c20a16de-2b40-47fa-917f-b0e315ac39aa","ios":"levelo://app?vid=c20a16de-2b40-47fa-917f-b0e315ac39aa"},"vehicle_type_id":"4","last_reported":1725952183,"current_range_meters":18800,"station_id":"ce4bhqh2rcd13ifvqhmg","pricing_plan_id":"cebpf4jnsgd1na2vs0mg"},{"bike_id":"97e6c8e4-f770-4de0-ba9b-deb2b2948e9c","system_id":"levelo_inurba_marseille","lat":43.25935,"lon":5.40904,"is_reserved":false,"is_disabled":false,"rental_uris":{"android":"levelo://app?vid=97e6c8e4-f770-4de0-ba9b-deb2b2948e9c","ios":"levelo://app?vid=97e6c8e4-f770-4de0-ba9b-deb2b2948e9c"},"vehicle_type_id":"4","last_reported":1725952183,"current_range_meters":18000,"station_id":"ce4bhm92rcd13ifvqglg","pricing_plan_id":"cebpf4jnsgd1na2vs0mg"},{"bike_id":"a56e0313-2f46-466c-b71e-0dddf2401d63","system_id":"levelo_inurba_marseille","lat":43.23055,"lon":5.35494,"is_reserved":false,"is_disabled":false,"rental_uris":{"android":"levelo://app?vid=a56e0313-2f46-466c-b71e-0dddf2401d63","ios":"levelo://app?vid=a56e0313-2f46-466c-b71e-0dddf2401d63"},"vehicle_type_id":"4","last_reported":1725952183,"current_range_meters":21600,"station_id":"cpo3342slgdg3j2ifvpg","pricing_plan_id":"cebpf4jnsgd1na2vs0mg"},{"bike_id":"be7ce1ba-2572-4af2-a0ed-e99372d80a94","system_id":"levelo_inurba_marseille","lat":43.28946,"lon":5.36373,"is_reserved":false,"is_disabled":false,"rental_uris":{"android":"levelo://app?vid=be7ce1ba-2572-4af2-a0ed-e99372d80a94","ios":"levelo://app?vid=be7ce1ba-2572-4af2-a0ed-e99372d80a94"},"vehicle_type_id":"4","last_reported":1725952183,"current_range_meters":16800,"station_id":"ce4bhc92rcd13ifvqetg","pricing_plan_id":"cebpf4jnsgd1na2vs0mg"},{"bike_id":"e8bdc17c-9c96-4990-9c6b-e265f9475489","system_id":"levelo_inurba_marseille","lat":43.285888,"lon":5.350796,"is_reserved":false,"is_disabled":false,"rental_uris":{"android":"levelo://app?vid=e8bdc17c-9c96-4990-9c6b-e265f9475489","ios":"levelo://app?vid=e8bdc17c-9c96-4990-9c6b-e265f9475489"},"vehicle_type_id":"4","last_reported":1725952183,"current_range_meters":17200,"station_id":"ce4bhbh2rcd13ifvqepg","pricing_plan_id":"cebpf4jnsgd1na2vs0mg"},{"bike_id":"864c3259-f423-4533-afe8-cca04fca6aca","system_id":"levelo_inurba_marseille","lat":43.30909,"lon":5.36839,"is_reserved":false,"is_disabled":false,"rental_uris":{"android":"levelo://app?vid=864c3259-f423-4533-afe8-cca04fca6aca","ios":"levelo://app?vid=864c3259-f423-4533-afe8-cca04fca6aca"},"vehicle_type_id":"4","last_reported":1725952183,"current_range_meters":9600,"station_id":"ce4bgn92rcd13ifvqbvg","pricing_plan_id":"cebpf4jnsgd1na2vs0mg"},{"bike_id":"1027f522-e178-4bc0-af70-7f39f6500966","system_id":"levelo_inurba_marseille","lat":43.33755,"lon":5.3744,"is_reserved":false,"is_disabled":false,"rental_uris":{"android":"levelo://app?vid=1027f522-e178-4bc0-af70-7f39f6500966","ios":"levelo://app?vid=1027f522-e178-4bc0-af70-7f39f6500966"},"vehicle_type_id":"4","last_reported":1725952183,"current_range_meters":28400,"station_id":"","pricing_plan_id":"cebpf4jnsgd1na2vs0mg"},{"bike_id":"dee02845-d109-476b-8347-e8422ee849a2","system_id":"levelo_inurba_marseille","lat":43.23968,"lon":5.36621,"is_reserved":false,"is_disabled":false,"rental_uris":{"android":"levelo://app?vid=dee02845-d109-476b-8347-e8422ee849a2","ios":"levelo://app?vid=dee02845-d109-476b-8347-e8422ee849a2"},"vehicle_type_id":"4","last_reported":1725952183,"current_range_meters":2800,"station_id":"ce4bhi12rcd13ifvqfp0","pricing_plan_id":"cebpf4jnsgd1na2vs0mg"},{"bike_id":"b3fb2da0-beab-4795-b958-ad1c8bbe1aad","system_id":"levelo_inurba_marseille","lat":43.30313,"lon":5.3691,"is_reserved":false,"is_disabled":false,"rental_uris":{"android":"levelo://app?vid=b3fb2da0-beab-4795-b958-ad1c8bbe1aad","ios":"levelo://app?vid=b3fb2da0-beab-4795-b958-ad1c8bbe1aad"},"vehicle_type_id":"4","last_reported":1725952183,"current_range_meters":6800,"station_id":"ce4bgqh2rcd13ifvqc5g","pricing_plan_id":"cebpf4jnsgd1na2vs0mg"},{"bike_id":"59d2893a-d1ce-4346-9856-cf825097e6cb","system_id":"levelo_inurba_marseille","lat":43.23197,"lon":5.35551,"is_reserved":false,"is_disabled":false,"rental_uris":{"android":"levelo://app?vid=59d2893a-d1ce-4346-9856-cf825097e6cb","ios":"levelo://app?vid=59d2893a-d1ce-4346-9856-cf825097e6cb"},"vehicle_type_id":"4","last_reported":1725952183,"current_range_meters":24000,"station_id":"ce4bhu92rcd13ifvqi70","pricing_plan_id":"cebpf4jnsgd1na2vs0mg"},{"bike_id":"340e4376-2578-41a7-8b22-74d628f1e3d4","system_id":"levelo_inurba_marseille","lat":43.26691,"lon":5.38275,"is_reserved":false,"is_disabled":false,"rental_uris":{"android":"levelo://app?vid=340e4376-2578-41a7-8b22-74d628f1e3d4","ios":"levelo://app?vid=340e4376-2578-41a7-8b22-74d628f1e3d4"},"vehicle_type_id":"4","last_reported":1725952183,"current_range_meters":38000,"station_id":"ce4bhg92rcd13ifvqf90","pricing_plan_id":"cebpf4jnsgd1na2vs0mg"},{"bike_id":"45a1624e-6516-4350-bfa4-5b695cffef6a","system_id":"levelo_inurba_marseille","lat":43.22928,"lon":5.35379,"is_reserved":false,"is_disabled":false,"rental_uris":{"android":"levelo://app?vid=45a1624e-6516-4350-bfa4-5b695cffef6a","ios":"levelo://app?vid=45a1624e-6516-4350-bfa4-5b695cffef6a"},"vehicle_type_id":"4","last_reported":1725952183,"current_range_meters":36400,"station_id":"cpo3532slgdg3j2ikp40","pricing_plan_id":"cebpf4jnsgd1na2vs0mg"},{"bike_id":"4a1cb237-1220-47d5-81e2-342a5bf16cbb","system_id":"levelo_inurba_marseille","lat":43.26687,"lon":5.38277,"is_reserved":false,"is_disabled":false,"rental_uris":{"android":"levelo://app?vid=4a1cb237-1220-47d5-81e2-342a5bf16cbb","ios":"levelo://app?vid=4a1cb237-1220-47d5-81e2-342a5bf16cbb"},"vehicle_type_id":"4","last_reported":1725952183,"current_range_meters":8000,"station_id":"ce4bhg92rcd13ifvqf90","pricing_plan_id":"cebpf4jnsgd1na2vs0mg"},{"bike_id":"62f78e9e-6289-4c92-8c5d-69696057778c","system_id":"levelo_inurba_marseille","lat":43.32548,"lon":5.41439,"is_reserved":false,"is_disabled":false,"rental_uris":{"android":"levelo://app?vid=62f78e9e-6289-4c92-8c5d-69696057778c","ios":"levelo://app?vid=62f78e9e-6289-4c92-8c5d-69696057778c"},"vehicle_type_id":"4","last_reported":1725952183,"current_range_meters":33200,"station_id":"ce4bhq12rcd13ifvqhhg","pricing_plan_id":"cebpf4jnsgd1na2vs0mg"},{"bike_id":"2d529c2b-e937-431f-91e5-04175a413180","system_id":"levelo_inurba_marseille","lat":43.31071,"lon":5.40065,"is_reserved":false,"is_disabled":false,"rental_uris":{"android":"levelo://app?vid=2d529c2b-e937-431f-91e5-04175a413180","ios":"levelo://app?vid=2d529c2b-e937-431f-91e5-04175a413180"},"vehicle_type_id":"4","last_reported":1725952183,"current_range_meters":14000,"station_id":"ce4bhq92rcd13ifvqhjg","pricing_plan_id":"cebpf4jnsgd1na2vs0mg"},{"bike_id":"35b4ccbe-337e-42f5-b64b-d3d4516b0316","system_id":"levelo_inurba_marseille","lat":43.27495,"lon":5.4246,"is_reserved":false,"is_disabled":false,"rental_uris":{"android":"levelo://app?vid=35b4ccbe-337e-42f5-b64b-d3d4516b0316","ios":"levelo://app?vid=35b4ccbe-337e-42f5-b64b-d3d4516b0316"},"vehicle_type_id":"4","last_reported":1725952183,"current_range_meters":30800,"station_id":"ce4bhn92rcd13ifvqgrg","pricing_plan_id":"cebpf4jnsgd1na2vs0mg"},{"bike_id":"410acb18-17a3-479b-8fa1-d605cd0c8374","system_id":"levelo_inurba_marseille","lat":43.27496,"lon":5.42449,"is_reserved":false,"is_disabled":false,"rental_uris":{"android":"levelo://app?vid=410acb18-17a3-479b-8fa1-d605cd0c8374","ios":"levelo://app?vid=410acb18-17a3-479b-8fa1-d605cd0c8374"},"vehicle_type_id":"4","last_reported":1725952183,"current_range_meters":5600,"station_id":"ce4bhn92rcd13ifvqgrg","pricing_plan_id":"cebpf4jnsgd1na2vs0mg"},{"bike_id":"786c2f0e-18b7-42fd-b466-591c55f638dc","system_id":"levelo_inurba_marseille","lat":43.26565,"lon":5.39017,"is_reserved":false,"is_disabled":false,"rental_uris":{"android":"levelo://app?vid=786c2f0e-18b7-42fd-b466-591c55f638dc","ios":"levelo://app?vid=786c2f0e-18b7-42fd-b466-591c55f638dc"},"vehicle_type_id":"4","last_reported":1725952183,"current_range_meters":6400,"station_id":"ce4bhe12rcd13ifvqf30","pricing_plan_id":"cebpf4jnsgd1na2vs0mg"},{"bike_id":"414f5def-dd0c-49b8-9345-99091281a72f","system_id":"levelo_inurba_marseille","lat":43.26565,"lon":5.39003,"is_reserved":false,"is_disabled":false,"rental_uris":{"android":"levelo://app?vid=414f5def-dd0c-49b8-9345-99091281a72f","ios":"levelo://app?vid=414f5def-dd0c-49b8-9345-99091281a72f"},"vehicle_type_id":"4","last_reported":1725952183,"current_range_meters":29600,"station_id":"ce4bhe12rcd13ifvqf30","pricing_plan_id":"cebpf4jnsgd1na2vs0mg"},{"bike_id":"6b9e71d1-c008-48f1-9a0d-997e9b37a845","system_id":"levelo_inurba_marseille","lat":43.25579,"lon":5.38233,"is_reserved":false,"is_disabled":false,"rental_uris":{"android":"levelo://app?vid=6b9e71d1-c008-48f1-9a0d-997e9b37a845","ios":"levelo://app?vid=6b9e71d1-c008-48f1-9a0d-997e9b37a845"},"vehicle_type_id":"4","last_reported":1725952183,"current_range_meters":35200,"station_id":"ce4bhih2rcd13ifvqfs0","pricing_plan_id":"cebpf4jnsgd1na2vs0mg"},{"bike_id":"a6e1e232-7f4e-44e7-9ecc-054e53e5aceb","system_id":"levelo_inurba_marseille","lat":43.28717,"lon":5.37936,"is_reserved":false,"is_disabled":false,"rental_uris":{"android":"levelo://app?vid=a6e1e232-7f4e-44e7-9ecc-054e53e5aceb","ios":"levelo://app?vid=a6e1e232-7f4e-44e7-9ecc-054e53e5aceb"},"vehicle_type_id":"4","last_reported":1725952183,"current_range_meters":18800,"station_id":"ce4bh9p2rcd13ifvqec0","pricing_plan_id":"cebpf4jnsgd1na2vs0mg"},{"bike_id":"7d4236b0-d19b-4de7-acc4-1c5f7f5686c5","system_id":"levelo_inurba_marseille","lat":43.2315,"lon":5.4371,"is_reserved":false,"is_disabled":false,"rental_uris":{"android":"levelo://app?vid=7d4236b0-d19b-4de7-acc4-1c5f7f5686c5","ios":"levelo://app?vid=7d4236b0-d19b-4de7-acc4-1c5f7f5686c5"},"vehicle_type_id":"4","last_reported":1725952183,"current_range_meters":18800,"station_id":"ce4bhmp2rcd13ifvqgog","pricing_plan_id":"cebpf4jnsgd1na2vs0mg"},{"bike_id":"4e28ee3d-d1b1-4404-aed6-2f5cff9e1ef8","system_id":"levelo_inurba_marseille","lat":43.24075,"lon":5.37756,"is_reserved":false,"is_disabled":false,"rental_uris":{"android":"levelo://app?vid=4e28ee3d-d1b1-4404-aed6-2f5cff9e1ef8","ios":"levelo://app?vid=4e28ee3d-d1b1-4404-aed6-2f5cff9e1ef8"},"vehicle_type_id":"4","last_reported":1725952183,"current_range_meters":28800,"station_id":"ce4bhnp2rcd13ifvqgvg","pricing_plan_id":"cebpf4jnsgd1na2vs0mg"},{"bike_id":"f582dc25-de7e-416a-b4e2-7ea6e3a16e7d","system_id":"levelo_inurba_marseille","lat":43.30142,"lon":5.37425,"is_reserved":false,"is_disabled":false,"rental_uris":{"android":"levelo://app?vid=f582dc25-de7e-416a-b4e2-7ea6e3a16e7d","ios":"levelo://app?vid=f582dc25-de7e-416a-b4e2-7ea6e3a16e7d"},"vehicle_type_id":"4","last_reported":1725952183,"current_range_meters":23200,"station_id":"ce4bgs92rcd13ifvqcc0","pricing_plan_id":"cebpf4jnsgd1na2vs0mg"},{"bike_id":"c1e519a8-6efd-47ba-b8fa-78b307e87321","system_id":"levelo_inurba_marseille","lat":43.33605,"lon":5.41033,"is_reserved":false,"is_disabled":false,"rental_uris":{"android":"levelo://app?vid=c1e519a8-6efd-47ba-b8fa-78b307e87321","ios":"levelo://app?vid=c1e519a8-6efd-47ba-b8fa-78b307e87321"},"vehicle_type_id":"4","last_reported":1725952183,"current_range_meters":30000,"station_id":"ce4bhqh2rcd13ifvqhmg","pricing_plan_id":"cebpf4jnsgd1na2vs0mg"},{"bike_id":"146c1806-743d-4d81-b8ce-b5941ac15c8a","system_id":"levelo_inurba_marseille","lat":43.24185,"lon":5.39708,"is_reserved":false,"is_disabled":false,"rental_uris":{"android":"levelo://app?vid=146c1806-743d-4d81-b8ce-b5941ac15c8a","ios":"levelo://app?vid=146c1806-743d-4d81-b8ce-b5941ac15c8a"},"vehicle_type_id":"4","last_reported":1725952183,"current_range_meters":20000,"station_id":"ce4bhn12rcd13ifvqgpg","pricing_plan_id":"cebpf4jnsgd1na2vs0mg"},{"bike_id":"69908236-c089-462c-ae01-d50dff0bbe0f","system_id":"levelo_inurba_marseille","lat":43.26955,"lon":5.38623,"is_reserved":false,"is_disabled":false,"rental_uris":{"android":"levelo://app?vid=69908236-c089-462c-ae01-d50dff0bbe0f","ios":"levelo://app?vid=69908236-c089-462c-ae01-d50dff0bbe0f"},"vehicle_type_id":"4","last_reported":1725952183,"current_range_meters":11600,"station_id":"ce4bhh92rcd13ifvqfh0","pricing_plan_id":"cebpf4jnsgd1na2vs0mg"},{"bike_id":"f9775d8f-4220-4ed5-bf5f-6156401c86a7","system_id":"levelo_inurba_marseille","lat":43.33024,"lon":5.39045,"is_reserved":false,"is_disabled":false,"rental_uris":{"android":"levelo://app?vid=f9775d8f-4220-4ed5-bf5f-6156401c86a7","ios":"levelo://app?vid=f9775d8f-4220-4ed5-bf5f-6156401c86a7"},"vehicle_type_id":"4","last_reported":1725952183,"current_range_meters":38800,"station_id":"ce4bhr92rcd13ifvqhrg","pricing_plan_id":"cebpf4jnsgd1na2vs0mg"},{"bike_id":"6897eed4-2ba2-49f7-93db-4900d9e0f691","system_id":"levelo_inurba_marseille","lat":43.31362,"lon":5.36692,"is_reserved":false,"is_disabled":false,"rental_uris":{"android":"levelo://app?vid=6897eed4-2ba2-49f7-93db-4900d9e0f691","ios":"levelo://app?vid=6897eed4-2ba2-49f7-93db-4900d9e0f691"},"vehicle_type_id":"4","last_reported":1725952183,"current_range_meters":38800,"station_id":"ce4bgr92rcd13ifvqc6g","pricing_plan_id":"cebpf4jnsgd1na2vs0mg"},{"bike_id":"dbb073ab-dd15-4525-b75b-4ca3c2f4de0f","system_id":"levelo_inurba_marseille","lat":43.32538,"lon":5.41433,"is_reserved":false,"is_disabled":false,"rental_uris":{"android":"levelo://app?vid=dbb073ab-dd15-4525-b75b-4ca3c2f4de0f","ios":"levelo://app?vid=dbb073ab-dd15-4525-b75b-4ca3c2f4de0f"},"vehicle_type_id":"4","last_reported":1725952183,"current_range_meters":17600,"station_id":"ce4bhq12rcd13ifvqhhg","pricing_plan_id":"cebpf4jnsgd1na2vs0mg"},{"bike_id":"d7d8c95c-9a73-4f31-b7ca-0c01751303a0","system_id":"levelo_inurba_marseille","lat":43.23061,"lon":5.35489,"is_reserved":false,"is_disabled":false,"rental_uris":{"android":"levelo://app?vid=d7d8c95c-9a73-4f31-b7ca-0c01751303a0","ios":"levelo://app?vid=d7d8c95c-9a73-4f31-b7ca-0c01751303a0"},"vehicle_type_id":"4","last_reported":1725952183,"current_range_meters":12400,"station_id":"cpo3342slgdg3j2ifvpg","pricing_plan_id":"cebpf4jnsgd1na2vs0mg"},{"bike_id":"ae1eb74c-347c-482e-8930-4dc428cc17f0","system_id":"levelo_inurba_marseille","lat":43.34142,"lon":5.40901,"is_reserved":false,"is_disabled":false,"rental_uris":{"android":"levelo://app?vid=ae1eb74c-347c-482e-8930-4dc428cc17f0","ios":"levelo://app?vid=ae1eb74c-347c-482e-8930-4dc428cc17f0"},"vehicle_type_id":"4","last_reported":1725952183,"current_range_meters":33200,"station_id":"ce4bhqh2rcd13ifvqhlg","pricing_plan_id":"cebpf4jnsgd1na2vs0mg"},{"bike_id":"cf0e8986-f6a9-4f5b-9547-4ee9fd512e06","system_id":"levelo_inurba_marseille","lat":43.2818,"lon":5.40486,"is_reserved":false,"is_disabled":false,"rental_uris":{"android":"levelo://app?vid=cf0e8986-f6a9-4f5b-9547-4ee9fd512e06","ios":"levelo://app?vid=cf0e8986-f6a9-4f5b-9547-4ee9fd512e06"},"vehicle_type_id":"4","last_reported":1725952183,"current_range_meters":32800,"station_id":"","pricing_plan_id":"cebpf4jnsgd1na2vs0mg"},