{"last_updated":1770074280,"ttl":60,"version":"2.2","data":{"bikes":[{"bike_id":"5bff3515-a705-40c8-b65b-c11d89c6d400","system_id":"levelo_inurba_marseille","lat":43.24178,"lon":5.39722,"is_reserved":false,"is_disabled":false,"rental_uris":{"android":"levelo://app?vid=5bff3515-a705-40c8-b65b-c11d89c6d400","ios":"levelo://app?vid=5bff3515-a705-40c8-b65b-c11d89c6d400"},"vehicle_type_id":"4","last_reported":1770074281,"current_range_meters":2800,"station_id":"ce4bhn12rcd13ifvqgpg","pricing_plan_id":"cebpf4jnsgd1na2vs0mg"},{"bike_id":"70aad063-ceac-4b3b-8a1d-80471a1d623b","system_id":"levelo_inurba_marseille","lat":43.23066,"lon":5.35491,"is_reserved":false,"is_disabled":false,"rental_uris":{"android":"levelo://app?vid=70aad063-ceac-4b3b-8a1d-80471a1d623b","ios":"levelo://app?vid=70aad063-ceac-4b3b-8a1d-80471a1d623b"},"vehicle_type_id":"4","last_reported":1770074281,"current_range_meters":2800,"station_id":"cpo3342slgdg3j2ifvpg","pricing_plan_id":"cebpf4jnsgd1na2vs0mg"},{"bike_id":"33cfd768-2ed8-4c90-a060-322f7c560d2a","system_id":"levelo_inurba_marseille","lat":43.2483,"lon":5.38465,"is_reserved":false,"is_disabled":false,"rental_uris":{"android":"levelo://app?vid=33cfd768-2ed8-4c90-a060-322f7c560d2a","ios":"levelo://app?vid=33cfd768-2ed8-4c90-a060-322f7c560d2a"},"vehicle_type_id":"4","last_reported":1770074281,"current_range_meters":2800,"station_id":"","pricing_plan_id":"cebpf4jnsgd1na2vs0mg"},{"bike_id":"f92823b8-4fef-4833-b634-08b82223de18","system_id":"levelo_inurba_marseille","lat":43.23189,"lon":5.3999,"is_reserved":false,"is_disabled":false,"rental_uris":{"android":"levelo://app?vid=f92823b8-4fef-4833-b634-08b82223de18","ios":"levelo://app?vid=f92823b8-4fef-4833-b634-08b82223de18"},"vehicle_type_id":"4","last_reported":1770074281,"current_range_meters":2800,"station_id":"ce4bhn12rcd13ifvqgqg","pricing_plan_id":"cebpf4jnsgd1na2vs0mg"},{"bike_id":"1f26521f-96c7-4695-a6b6-cd40543db4db","system_id":"levelo_inurba_marseille","lat":43.24013,"lon":5.37815,"is_reserved":false,"is_disabled":true,"rental_uris":{"android":"levelo://app?vid=1f26521f-96c7-4695-a6b6-cd40543db4db","ios":"levelo://app?vid=1f26521f-96c7-4695-a6b6-cd40543db4db"},"vehicle_type_id":"4","last_reported":1770074281,"current_range_meters":2800,"station_id":"ce4bhnp2rcd13ifvqgvg","pricing_plan_id":"cebpf4jnsgd1na2vs0mg"},{"bike_id":"b327d0f9-e910-4cd3-a345-f7ea449db020","system_id":"levelo_inurba_marseille","lat":43.24375,"lon":5.371,"is_reserved":false,"is_disabled":false,"rental_uris":{"android":"levelo://app?vid=b327d0f9-e910-4cd3-a345-f7ea449db020","ios":"levelo://app?vid=b327d0f9-e910-4cd3-a345-f7ea449db020"},"vehicle_type_id":"4","last_reported":1770074281,"current_range_meters":2800,"station_id":"ce4bhhh2rcd13ifvqfk0","pricing_plan_id":"cebpf4jnsgd1na2vs0mg"},{"bike_id":"79812d79-066c-4d3c-91f1-ee83530e917c","system_id":"levelo_inurba_marseille","lat":43.24117,"lon":5.37692,"is_reserved":false,"is_disabled":false,"rental_uris":{"android":"levelo://app?vid=79812d79-066c-4d3c-91f1-ee83530e917c","ios":"levelo://app?vid=79812d79-066c-4d3c-91f1-ee83530e917c"},"vehicle_type_id":"4","last_reported":1770074281,"current_range_meters":2800,"station_id":"","pricing_plan_id":"cebpf4jnsgd1na2vs0mg"},{"bike_id":"1344a240-0dbf-4f05-be7f-17603ad1bcd9","system_id":"levelo_inurba_marseille","lat":43.28416,"lon":5.38687,"is_reserved":false,"is_disabled":false,"rental_uris":{"android":"levelo://app?vid=1344a240-0dbf-4f05-be7f-17603ad1bcd9","ios":"levelo://app?vid=1344a240-0dbf-4f05-be7f-17603ad1bcd9"},"vehicle_type_id":"4","last_reported":1770074281,"current_range_meters":2800,"station_id":"ce4bh492rcd13ifvqdvg","pricing_plan_id":"cebpf4jnsgd1na2vs0mg"},{"bike_id":"8401dd38-67e3-4f52-852b-c5ed2c9817e4","system_id":"levelo_inurba_marseille","lat":43.27945,"lon":5.41045,"is_reserved":false,"is_disabled":false,"rental_uris":{"android":"levelo://app?vid=8401dd38-67e3-4f52-852b-c5ed2c9817e4","ios":"levelo://app?vid=8401dd38-67e3-4f52-852b-c5ed2c9817e4"},"vehicle_type_id":"4","last_reported":1770074281,"current_range_meters":2800,"station_id":"ce4bhnp2rcd13ifvqh0g","pricing_plan_id":"cebpf4jnsgd1na2vs0mg"},{"bike_id":"0830e9a7-a744-43b1-8872-2a8033326e31","system_id":"levelo_inurba_marseille","lat":43.24097,"lon":5.37738,"is_reserved":false,"is_disabled":false,"rental_uris":{"android":"levelo://app?vid=0830e9a7-a744-43b1-8872-2a8033326e31","ios":"levelo://app?vid=0830e9a7-a744-43b1-8872-2a8033326e31"},"vehicle_type_id":"4","last_reported":1770074281,"current_range_meters":3200,"station_id":"ce4bhnp2rcd13ifvqgvg","pricing_plan_id":"cebpf4jnsgd1na2vs0mg"},{"bike_id":"64342d69-ab30-4801-8539-fc98ba700298","system_id":"levelo_inurba_marseille","lat":43.24796,"lon":5.37454,"is_reserved":false,"is_disabled":false,"rental_uris":{"android":"levelo://app?vid=64342d69-ab30-4801-8539-fc98ba700298","ios":"levelo://app?vid=64342d69-ab30-4801-8539-fc98ba700298"},"vehicle_type_id":"4","last_reported":1770074281,"current_range_meters":3200,"station_id":"ce4bhgh2rcd13ifvqfb0","pricing_plan_id":"cebpf4jnsgd1na2vs0mg"},{"bike_id":"376232b5-fd9d-4a27-a8c8-b8a78b760878","system_id":"levelo_inurba_marseille","lat":43.24182,"lon":5.39731,"is_reserved":false,"is_disabled":false,"rental_uris":{"android":"levelo://app?vid=376232b5-fd9d-4a27-a8c8-b8a78b760878","ios":"levelo://app?vid=376232b5-fd9d-4a27-a8c8-b8a78b760878"},"vehicle_type_id":"4","last_reported":1770074281,"current_range_meters":3200,"station_id":"ce4bhn12rcd13ifvqgpg","pricing_plan_id":"cebpf4jnsgd1na2vs0mg"},{"bike_id":"61d232a6-c72b-43f7-8d84-c786e5f463d1","system_id":"levelo_inurba_marseille","lat":43.25932,"lon":5.40899,"is_reserved":false,"is_disabled":false,"rental_uris":{"android":"levelo://app?vid=61d232a6-c72b-43f7-8d84-c786e5f463d1","ios":"levelo://app?vid=61d232a6-c72b-43f7-8d84-c786e5f463d1"},"vehicle_type_id":"4","last_reported":1770074281,"current_range_meters":3200,"station_id":"ce4bhm92rcd13ifvqglg","pricing_plan_id":"cebpf4jnsgd1na2vs0mg"},{"bike_id":"a1f01d0e-daec-4baf-acde-adf9612a1a61","system_id":"levelo_inurba_marseille","lat":43.26573,"lon":5.39029,"is_reserved":false,"is_disabled":false,"rental_uris":{"android":"levelo://app?vid=a1f01d0e-daec-4baf-acde-adf9612a1a61","ios":"levelo://app?vid=a1f01d0e-daec-4baf-acde-adf9612a1a61"},"vehicle_type_id":"4","last_reported":1770074281,"current_range_meters":3200,"station_id":"ce4bhe12rcd13ifvqf30","pricing_plan_id":"cebpf4jnsgd1na2vs0mg"},{"bike_id":"c08fb5ce-410b-4e3b-bd2b-37b604cc356e","system_id":"levelo_inurba_marseille","lat":43.30924,"lon":5.401453,"is_reserved":false,"is_disabled":false,"rental_uris":{"android":"levelo://app?vid=c08fb5ce-410b-4e3b-bd2b-37b604cc356e","ios":"levelo://app?vid=c08fb5ce-410b-4e3b-bd2b-37b604cc356e"},"vehicle_type_id":"4","last_reported":1770074281,"current_range_meters":3200,"station_id":"ce4bgvp2rcd13ifvqct0","pricing_plan_id":"cebpf4jnsgd1na2vs0mg"},{"bike_id":"a6ab1dbd-7d2f-441a-88b2-8e2bc94dc087","system_id":"levelo_inurba_marseille","lat":43.24986,"lon":5.38961,"is_reserved":false,"is_disabled":false,"rental_uris":{"android":"levelo://app?vid=a6ab1dbd-7d2f-441a-88b2-8e2bc94dc087","ios":"levelo://app?vid=a6ab1dbd-7d2f-441a-88b2-8e2bc94dc087"},"vehicle_type_id":"4","last_reported":1770074281,"current_range_meters":3200,"station_id":"ce4bhgp2rcd13ifvqfd0","pricing_plan_id":"cebpf4jnsgd1na2vs0mg"},{"bike_id":"20f8dacb-5cfb-411b-aac6-04b0743b3a2b","system_id":"levelo_inurba_marseille","lat":43.25629,"lon":5.37651,"is_reserved":false,"is_disabled":false,"rental_uris":{"android":"levelo://app?vid=20f8dacb-5cfb-411b-aac6-04b0743b3a2b","ios":"levelo://app?vid=20f8dacb-5cfb-411b-aac6-04b0743b3a2b"},"vehicle_type_id":"4","last_reported":1770074281,"current_range_meters":3200,"station_id":"","pricing_plan_id":"cebpf4jnsgd1na2vs0mg"},{"bike_id":"6cf3fcf2-b494-4520-b7ac-d6b5ea5dd1dd","system_id":"levelo_inurba_marseille","lat":43.3058,"lon":5.36548,"is_reserved":false,"is_disabled":true,"rental_uris":{"android":"levelo://app?vid=6cf3fcf2-b494-4520-b7ac-d6b5ea5dd1dd","ios":"levelo://app?vid=6cf3fcf2-b494-4520-b7ac-d6b5ea5dd1dd"},"vehicle_type_id":"4","last_reported":1770074281,"current_range_meters":3200,"station_id":"ce4bgs12rcd13ifvqcag","pricing_plan_id":"cebpf4jnsgd1na2vs0mg"},{"bike_id":"4e84c079-e70f-4bbb-aa19-0481777478da","system_id":"levelo_inurba_marseille","lat":43.269588,"lon":5.386242,"is_reserved":false,"is_disabled":false,"rental_uris":{"android":"levelo://app?vid=4e84c079-e70f-4bbb-aa19-0481777478da","ios":"levelo://app?vid=4e84c079-e70f-4bbb-aa19-0481777478da"},"vehicle_type_id":"4","last_reported":1770074281,"current_range_meters":3600,"station_id":"ce4bhh92rcd13ifvqfh0","pricing_plan_id":"cebpf4jnsgd1na2vs0mg"},{"bike_id":"83024df0-1ebb-4f12-ada8-19c6b6f1d40a","system_id":"levelo_inurba_marseille","lat":43.28151,"lon":5.42646,"is_reserved":false,"is_disabled":false,"rental_uris":{"android":"levelo://app?vid=83024df0-1ebb-4f12-ada8-19c6b6f1d40a","ios":"levelo://app?vid=83024df0-1ebb-4f12-ada8-19c6b6f1d40a"},"vehicle_type_id":"4","last_reported":1770074281,"current_range_meters":3600,"station_id":"ce4bhnh2rcd13ifvqgug","pricing_plan_id":"cebpf4jnsgd1na2vs0mg"},{"bike_id":"dbb786d0-7e92-4eb7-8fc9-c98b034becad","system_id":"levelo_inurba_marseille","lat":43.28714,"lon":5.36089,"is_reserved":false,"is_disabled":false,"rental_uris":{"android":"levelo://app?vid=dbb786d0-7e92-4eb7-8fc9-c98b034becad","ios":"levelo://app?vid=dbb786d0-7e92-4eb7-8fc9-c98b034becad"},"vehicle_type_id":"4","last_reported":1770074281,"current_range_meters":3600,"station_id":"cki0cbj6b192h4jlfktg","pricing_plan_id":"cebpf4jnsgd1na2vs0mg"},{"bike_id":"a688c20c-c1fc-427b-95f8-09d787e81d38","system_id":"levelo_inurba_marseille","lat":43.23155,"lon":5.43711,"is_reserved":false,"is_disabled":false,"rental_uris":{"android":"levelo://app?vid=a688c20c-c1fc-427b-95f8-09d787e81d38","ios":"levelo://app?vid=a688c20c-c1fc-427b-95f8-09d787e81d38"},"vehicle_type_id":"4","last_reported":1770074281,"current_range_meters":3600,"station_id":"ce4bhmp2rcd13ifvqgog","pricing_plan_id":"cebpf4jnsgd1na2vs0mg"},{"bike_id":"caec583a-6768-49bf-a58a-63877e3b3870","system_id":"levelo_inurba_marseille","lat":43.24076,"lon":5.36372,"is_reserved":false,"is_disabled":false,"rental_uris":{"android":"levelo://app?vid=caec583a-6768-49bf-a58a-63877e3b3870","ios":"levelo://app?vid=caec583a-6768-49bf-a58a-63877e3b3870"},"vehicle_type_id":"4","last_reported":1770074281,"current_range_meters":4000,"station_id":"","pricing_plan_id":"cebpf4jnsgd1na2vs0mg"},{"bike_id":"4ca8c262-60e7-4200-bd20-4bb597bb3d81","system_id":"levelo_inurba_marseille","lat":43.31356,"lon":5.38504,"is_reserved":false,"is_disabled":false,"rental_uris":{"android":"levelo://app?vid=4ca8c262-60e7-4200-bd20-4bb597bb3d81","ios":"levelo://app?vid=4ca8c262-60e7-4200-bd20-4bb597bb3d81"},"vehicle_type_id":"4","last_reported":1770074281,"current_range_meters":4000,"station_id":"ce4bgt92rcd13ifvqcf0","pricing_plan_id":"cebpf4jnsgd1na2vs0mg"},{"bike_id":"e9aa3b92-3aba-4ae3-8119-395c95a0d91b","system_id":"levelo_inurba_marseille","lat":43.2438,"lon":5.37074,"is_reserved":false,"is_disabled":false,"rental_uris":{"android":"levelo://app?vid=e9aa3b92-3aba-4ae3-8119-395c95a0d91b","ios":"levelo://app?vid=e9aa3b92-3aba-4ae3-8119-395c95a0d91b"},"vehicle_type_id":"4","last_reported":1770074281,"current_range_meters":4000,"station_id":"ce4bhhh2rcd13ifvqfk0","pricing_plan_id":"cebpf4jnsgd1na2vs0mg"},{"bike_id":"e96133eb-f771-40b1-ae3b-574adab8fad6","system_id":"levelo_inurba_marseille","lat":43.27988,"lon":5.40037,"is_reserved":false,"is_disabled":false,"rental_uris":{"android":"levelo://app?vid=e96133eb-f771-40b1-ae3b-574adab8fad6","ios":"levelo://app?vid=e96133eb-f771-40b1-ae3b-574adab8fad6"},"vehicle_type_id":"4","last_reported":1770074281,"current_range_meters":4000,"station_id":"ce4bho92rcd13ifvqh4g","pricing_plan_id":"cebpf4jnsgd1na2vs0mg"},{"bike_id":"07682c61-84a7-4768-96cf-64e723026de5","system_id":"levelo_inurba_marseille","lat":43.2751,"lon":5.41589,"is_reserved":false,"is_disabled":false,"rental_uris":{"android":"levelo://app?vid=07682c61-84a7-4768-96cf-64e723026de5","ios":"levelo://app?vid=07682c61-84a7-4768-96cf-64e723026de5"},"vehicle_type_id":"4","last_reported":1770074281,"current_range_meters":4000,"station_id":"","pricing_plan_id":"cebpf4jnsgd1na2vs0mg"},{"bike_id":"0c37f209-4da2-456d-badb-27f46c6c7d3c","system_id":"levelo_inurba_marseille","lat":43.30328,"lon":5.36877,"is_reserved":false,"is_disabled":false,"rental_uris":{"android":"levelo://app?vid=0c37f209-4da2-456d-badb-27f46c6c7d3c","ios":"levelo://app?vid=0c37f209-4da2-456d-badb-27f46c6c7d3c"},"vehicle_type_id":"4","last_reported":1770074281,"current_range_meters":4000,"station_id":"ce4bgqh2rcd13ifvqc5g","pricing_plan_id":"cebpf4jnsgd1na2vs0mg"},{"bike_id":"079547f6-9ece-4634-a325-d80c601692e4","system_id":"levelo_inurba_marseille","lat":43.27377,"lon":5.36258,"is_reserved":false,"is_disabled":false,"rental_uris":{"android":"levelo://app?vid=079547f6-9ece-4634-a325-d80c601692e4","ios":"levelo://app?vid=079547f6-9ece-4634-a325-d80c601692e4"},"vehicle_type_id":"4","last_reported":1770074281,"current_range_meters":4000,"station_id":"ce4bhbh2rcd13ifvqeo0","pricing_plan_id":"cebpf4jnsgd1na2vs0mg"},{"bike_id":"c266ef69-6db6-403b-bc66-e28d169430e3","system_id":"levelo_inurba_marseille","lat":43.24391,"lon":5.37077,"is_reserved":false,"is_disabled":false,"rental_uris":{"android":"levelo://app?vid=c266ef69-6db6-403b-bc66-e28d169430e3","ios":"levelo://app?vid=c266ef69-6db6-403b-bc66-e28d169430e3"},"vehicle_type_id":"4","last_reported":1770074281,"current_range_meters":4000,"station_id":"ce4bhhh2rcd13ifvqfk0","pricing_plan_id":"cebpf4jnsgd1na2vs0mg"},{"bike_id":"02767f32-1f14-42e3-b29c-9b62abe184d8","system_id":"levelo_inurba_marseille","lat":43.26216,"lon":5.40444,"is_reserved":false,"is_disabled":false,"rental_uris":{"android":"levelo://app?vid=02767f32-1f14-42e3-b29c-9b62abe184d8","ios":"levelo://app?vid=02767f32-1f14-42e3-b29c-9b62abe184d8"},"vehicle_type_id":"4","last_reported":1770074281,"current_range_meters":4400,"station_id":"ce4bhmh2rcd13ifvqgmg","pricing_plan_id":"cebpf4jnsgd1na2vs0mg"},{"bike_id":"4045e8b3-7e71-4f40-b637-4ca10cada01a","system_id":"levelo_inurba_marseille","lat":43.27617,"lon":5.3611,"is_reserved":false,"is_disabled":false,"rental_uris":{"android":"levelo://app?vid=4045e8b3-7e71-4f40-b637-4ca10cada01a","ios":"levelo://app?vid=4045e8b3-7e71-4f40-b637-4ca10cada01a"},"vehicle_type_id":"4","last_reported":1770074281,"current_range_meters":4400,"station_id":"ce4bgj92rcd13ifvqbe0","pricing_plan_id":"cebpf4jnsgd1na2vs0mg"},{"bike_id":"3b2a0495-d056-4726-ad48-0a57214f6b42","system_id":"levelo_inurba_marseille","lat":43.31217,"lon":5.36852,"is_reserved":false,"is_disabled":false,"rental_uris":{"android":"levelo://app?vid=3b2a0495-d056-4726-ad48-0a57214f6b42","ios":"levelo://app?vid=3b2a0495-d056-4726-ad48-0a57214f6b42"},"vehicle_type_id":"4","last_reported":1770074281,"current_range_meters":4400,"station_id":"ce4bgl92rcd13ifvqbq0","pricing_plan_id":"cebpf4jnsgd1na2vs0mg"},{"bike_id":"437958b3-1fc1-421f-a410-c2cb6fec2333","system_id":"levelo_inurba_marseille","lat":43.24796,"lon":5.37455,"is_reserved":false,"is_disabled":false,"rental_uris":{"android":"levelo://app?vid=437958b3-1fc1-421f-a410-c2cb6fec2333","ios":"levelo://app?vid=437958b3-1fc1-421f-a410-c2cb6fec2333"},"vehicle_type_id":"4","last_reported":1770074281,"current_range_meters":4400,"station_id":"ce4bhgh2rcd13ifvqfb0","pricing_plan_id":"cebpf4jnsgd1na2vs0mg"},{"bike_id":"e22e1f26-0b48-4184-a7ce-d50ac63de7a5","system_id":"levelo_inurba_marseille","lat":43.22556,"lon":5.41631,"is_reserved":false,"is_disabled":false,"rental_uris":{"android":"levelo://app?vid=e22e1f26-0b48-4184-a7ce-d50ac63de7a5","ios":"levelo://app?vid=e22e1f26-0b48-4184-a7ce-d50ac63de7a5"},"vehicle_type_id":"4","last_reported":1770074281,"current_range_meters":4400,"station_id":"st_d2o4gvlbi1j2169b742g","pricing_plan_id":"cebpf4jnsgd1na2vs0mg"},{"bike_id":"e25162d3-4d5d-419d-b20d-2ec1bcdee6fb","system_id":"levelo_inurba_marseille","lat":43.31048,"lon":5.37178,"is_reserved":false,"is_disabled":false,"rental_uris":{"android":"levelo://app?vid=e25162d3-4d5d-419d-b20d-2ec1bcdee6fb","ios":"levelo://app?vid=e25162d3-4d5d-419d-b20d-2ec1bcdee6fb"},"vehicle_type_id":"4","last_reported":1770074281,"current_range_meters":4400,"station_id":"st_d4kl2rp97mjs73e7tdfg","pricing_plan_id":"cebpf4jnsgd1na2vs0mg"},{"bike_id":"8cb17e9d-6956-4db9-870e-851f50514412","system_id":"levelo_inurba_marseille","lat":43.32114,"lon":5.36774,"is_reserved":false,"is_disabled":false,"rental_uris":{"android":"levelo://app?vid=8cb17e9d-6956-4db9-870e-851f50514412","ios":"levelo://app?vid=8cb17e9d-6956-4db9-870e-851f50514412"},"vehicle_type_id":"4","last_reported":1770074281,"current_range_meters":4400,"station_id":"ce4bhrh2rcd13ifvqhug","pricing_plan_id":"cebpf4jnsgd1na2vs0mg"},{"bike_id":"8627f7e3-95b0-48aa-8d02-4dad162dfa1b","system_id":"levelo_inurba_marseille","lat":43.26551,"lon":5.37293,"is_reserved":false,"is_disabled":false,"rental_uris":{"android":"levelo://app?vid=8627f7e3-95b0-48aa-8d02-4dad162dfa1b","ios":"levelo://app?vid=8627f7e3-95b0-48aa-8d02-4dad162dfa1b"},"vehicle_type_id":"4","last_reported":1770074281,"current_range_meters":4400,"station_id":"ce4bhg12rcd13ifvqf70","pricing_plan_id":"cebpf4jnsgd1na2vs0mg"},{"bike_id":"424d0d3d-de1c-4125-82ac-0faa3cd4c48d","system_id":"levelo_inurba_marseille","lat":43.30881,"lon":5.37129,"is_reserved":false,"is_disabled":false,"rental_uris":{"android":"levelo://app?vid=424d0d3d-de1c-4125-82ac-0faa3cd4c48d","ios":"levelo://app?vid=424d0d3d-de1c-4125-82ac-0faa3cd4c48d"},"vehicle_type_id":"4","last_reported":1770074281,"current_range_meters":4400,"station_id":"ce4bguh2rcd13ifvqckg","pricing_plan_id":"cebpf4jnsgd1na2vs0mg"},{"bike_id":"e9a8ad83-a2d5-4795-8073-fda176633ed6","system_id":"levelo_inurba_marseille","lat":43.26688,"lon":5.38263,"is_reserved":false,"is_disabled":false,"rental_uris":{"android":"levelo://app?vid=e9a8ad83-a2d5-4795-8073-fda176633ed6","ios":"levelo://app?vid=e9a8ad83-a2d5-4795-8073-fda176633ed6"},"vehicle_type_id":"4","last_reported":1770074281,"current_range_meters":4800,"station_id":"ce4bhg92rcd13ifvqf90","pricing_plan_id":"cebpf4jnsgd1na2vs0mg"},{"bike_id":"63c588f3-50af-493c-93b7-4826a9a71452","system_id":"levelo_inurba_marseille","lat":43.298403,"lon":5.362577,"is_reserved":false,"is_disabled":false,"rental_uris":{"android":"levelo://app?vid=63c588f3-50af-493c-93b7-4826a9a71452","ios":"levelo://app?vid=63c588f3-50af-493c-93b7-4826a9a71452"},"vehicle_type_id":"4","last_reported":1770074281,"current_range_meters":5600,"station_id":"ce4bgpp2rcd13ifvqc3g","pricing_plan_id":"cebpf4jnsgd1na2vs0mg"},{"bike_id":"b2cac47f-f549-4e09-b025-5f749d41973b","system_id":"levelo_inurba_marseille","lat":43.22931,"lon":5.35384,"is_reserved":false,"is_disabled":false,"rental_uris":{"android":"levelo://app?vid=b2cac47f-f549-4e09-b025-5f749d41973b","ios":"levelo://app?vid=b2cac47f-f549-4e09-b025-5f749d41973b"},"vehicle_type_id":"4","last_reported":1770074281,"current_range_meters":5600,"station_id":"cpo3532slgdg3j2ikp40","pricing_plan_id":"cebpf4jnsgd1na2vs0mg"},{"bike_id":"c20ed702-3481-4da1-8980-6cf2971f3757","system_id":"levelo_inurba_marseille","lat":43.28472,"lon":5.48412,"is_reserved":false,"is_disabled":false,"rental_uris":{"android":"levelo://app?vid=c20ed702-3481-4da1-8980-6cf2971f3757","ios":"levelo://app?vid=c20ed702-3481-4da1-8980-6cf2971f3757"},"vehicle_type_id":"4","last_reported":1770074281,"current_range_meters":5600,"station_id":"st_d3svhcjqgbts73a3dn0g","pricing_plan_id":"cebpf4jnsgd1na2vs0mg"},{"bike_id":"b163a954-4c36-4104-b455-807b6fc9d458","system_id":"levelo_inurba_marseille","lat":43.26217,"lon":5.37459,"is_reserved":false,"is_disabled":false,"rental_uris":{"android":"levelo://app?vid=b163a954-4c36-4104-b455-807b6fc9d458","ios":"levelo://app?vid=b163a954-4c36-4104-b455-807b6fc9d458"},"vehicle_type_id":"4","last_reported":1770074281,"current_range_meters":5600,"station_id":"ce4bhgp2rcd13ifvqfc0","pricing_plan_id":"cebpf4jnsgd1na2vs0mg"},{"bike_id":"20ab15c6-cd2b-4147-ad23-6e4e82e00a52","system_id":"levelo_inurba_marseille","lat":43.26536,"lon":5.37309,"is_reserved":false,"is_disabled":false,"rental_uris":{"android":"levelo://app?vid=20ab15c6-cd2b-4147-ad23-6e4e82e00a52","ios":"levelo://app?vid=20ab15c6-cd2b-4147-ad23-6e4e82e00a52"},"vehicle_type_id":"4","last_reported":1770074281,"current_range_meters":5600,"station_id":"ce4bhg12rcd13ifvqf70","pricing_plan_id":"cebpf4jnsgd1na2vs0mg"},{"bike_id":"fda17309-67c6-493d-a11a-fed18f5561b2","system_id":"levelo_inurba_marseille","lat":43.25019,"lon":5.38912,"is_reserved":false,"is_disabled":false,"rental_uris":{"android":"levelo://app?vid=fda17309-67c6-493d-a11a-fed18f5561b2","ios":"levelo://app?vid=fda17309-67c6-493d-a11a-fed18f5561b2"},"vehicle_type_id":"4","last_reported":1770074281,"current_range_meters":5600,"station_id":"ce4bhgp2rcd13ifvqfd0","pricing_plan_id":"cebpf4jnsgd1na2vs0mg"},{"bike_id":"4d853a9c-67ab-4fe9-83e7-2fa96774a0b6","system_id":"levelo_inurba_marseille","lat":43.2799,"lon":5.4004,"is_reserved":false,"is_disabled":false,"rental_uris":{"android":"levelo://app?vid=4d853a9c-67ab-4fe9-83e7-2fa96774a0b6","ios":"levelo://app?vid=4d853a9c-67ab-4fe9-83e7-2fa96774a0b6"},"vehicle_type_id":"4","last_reported":1770074281,"current_range_meters":5600,"station_id":"ce4bho92rcd13ifvqh4g","pricing_plan_id":"cebpf4jnsgd1na2vs0mg"},{"bike_id":"ce2df86d-f2c9-49ff-9e9a-497f31de2f4c","system_id":"levelo_inurba_marseille","lat":43.29034,"lon":5.40089,"is_reserved":false,"is_disabled":false,"rental_uris":{"android":"levelo://app?vid=ce2df86d-f2c9-49ff-9e9a-497f31de2f4c","ios":"levelo://app?vid=ce2df86d-f2c9-49ff-9e9a-497f31de2f4c"},"vehicle_type_id":"4","last_reported":1770074281,"current_range_meters":5600,"station_id":"","pricing_plan_id":"cebpf4jnsgd1na2vs0mg"},{"bike_id":"a8b33ee5-98b1-4b91-a976-d816491fae12","system_id":"levelo_inurba_marseille","lat":43.26769,"lon":5.39433,"is_reserved":false,"is_disabled":true,"rental_uris":{"android":"levelo://app?vid=a8b33ee5-98b1-4b91-a976-d816491fae12","ios":"levelo://app?vid=a8b33ee5-98b1-4b91-a976-d816491fae12"},"vehicle_type_id":"4","last_reported":1770074281,"current_range_meters":6000,"station_id":"ce4bhh12rcd13ifvqfg0","pricing_plan_id":"cebpf4jnsgd1na2vs0mg"},{"bike_id":"0b29bd96-af36-409b-85f4-994b381fba73","system_id":"levelo_inurba_marseille","lat":43.2983,"lon":5.38391,"is_reserved":false,"is_disabled":false,"rental_uris":{"android":"levelo://app?vid=0b29bd96-af36-409b-85f4-994b381fba73","ios":"levelo://app?vid=0b29bd96-af36-409b-85f4-994b381fba73"},"vehicle_type_id":"4","last_reported":1770074281,"current_range_meters":6000,"station_id":"","pricing_plan_id":"cebpf4jnsgd1na2vs0mg"},{"bike_id":"498925b7-5c1b-4bf1-a053-60e9a71a743b","system_id":"levelo_inurba_marseille","lat":43.29528,"lon":5.37513,"is_reserved":false,"is_disabled":false,"rental_uris":{"android":"levelo://app?vid=498925b7-5c1b-4bf1-a053-60e9a71a743b","ios":"levelo://app?vid=498925b7-5c1b-4bf1-a053-60e9a71a743b"},"vehicle_type_id":"4","last_reported":1770074281,"current_range_meters":6000,"station_id":"ce4bgkp2rcd13ifvqbmg","pricing_plan_id":"cebpf4jnsgd1na2vs0mg"},{"bike_id":"27c2ee02-095b-4efa-aefc-348543972b6e","system_id":"levelo_inurba_marseille","lat":43.30101,"lon":5.39081,"is_reserved":false,"is_disabled":true,"rental_uris":{"android":"levelo://app?vid=27c2ee02-095b-4efa-aefc-348543972b6e","ios":"levelo://app?vid=27c2ee02-095b-4efa-aefc-348543972b6e"},"vehicle_type_id":"4","last_reported":1770074281,"current_range_meters":6000,"station_id":"ce4bh192rcd13ifvqdb0","pricing_plan_id":"cebpf4jnsgd1na2vs0mg"},{"bike_id":"a408d5d2-5427-46e8-87f7-6b2377b7fcd5","system_id":"levelo_inurba_marseille","lat":43.25923,"lon":5.40889,"is_reserved":false,"is_disabled":false,"rental_uris":{"android":"levelo://app?vid=a408d5d2-5427-46e8-87f7-6b2377b7fcd5","ios":"levelo://app?vid=a408d5d2-5427-46e8-87f7-6b2377b7fcd5"},"vehicle_type_id":"4","last_reported":1770074281,"current_range_meters":6000,"station_id":"ce4bhm92rcd13ifvqglg","pricing_plan_id":"cebpf4jnsgd1na2vs0mg"},{"bike_id":"6ddb3c6a-28ae-4574-a949-d0f46ca957c2","system_id":"levelo_inurba_marseille","lat":43.281547,"lon":5.426396,"is_reserved":false,"is_disabled":true,"rental_uris":{"android":"levelo://app?vid=6ddb3c6a-28ae-4574-a949-d0f46ca957c2","ios":"levelo://app?vid=6ddb3c6a-28ae-4574-a949-d0f46ca957c2"},"vehicle_type_id":"4","last_reported":1770074281,"current_range_meters":6000,"station_id":"ce4bhnh2rcd13ifvqgug","pricing_plan_id":"cebpf4jnsgd1na2vs0mg"},{"bike_id":"3b0d7845-3aaa-438a-8d66-ed4f0c87623d","system_id":"levelo_inurba_marseille","lat":43.29037,"lon":5.39961,"is_reserved":false,"is_disabled":false,"rental_uris":{"android":"levelo://app?vid=3b0d7845-3aaa-438a-8d66-ed4f0c87623d","ios":"levelo://app?vid=3b0d7845-3aaa-438a-8d66-ed4f0c87623d"},"vehicle_type_id":"4","last_reported":1770074281,"current_range_meters":6000,"station_id":"ce4bh392rcd13ifvqdm0","pricing_plan_id":"cebpf4jnsgd1na2vs0mg"},{"bike_id":"b8ec970f-a87a-4f69-ba38-012d5e2963f7","system_id":"levelo_inurba_marseille","lat":43.28475,"lon":5.38419,"is_reserved":false,"is_disabled":false,"rental_uris":{"android":"levelo://app?vid=b8ec970f-a87a-4f69-ba38-012d5e2963f7","ios":"levelo://app?vid=b8ec970f-a87a-4f69-ba38-012d5e2963f7"},"vehicle_type_id":"4","last_reported":1770074281,"current_range_meters":6000,"station_id":"ce4bh512rcd13ifvqe3g","pricing_plan_id":"cebpf4jnsgd1na2vs0mg"},{"bike_id":"97d7ba2a-e0c0-4688-aeb6-9dc8e7c2bb8b","system_id":"levelo_inurba_marseille","lat":43.2817,"lon":5.3497,"is_reserved":false,"is_disabled":false,"rental_uris":{"android":"levelo://app?vid=97d7ba2a-e0c0-4688-aeb6-9dc8e7c2bb8b","ios":"levelo://app?vid=97d7ba2a-e0c0-4688-aeb6-9dc8e7c2bb8b"},"vehicle_type_id":"4","last_reported":1770074281,"current_range_meters":6000,"station_id":"","pricing_plan_id":"cebpf4jnsgd1na2vs0mg"},{"bike_id":"7481b2d9-a077-4efb-aae8-c8d680676399","system_id":"levelo_inurba_marseille","lat":43.2835,"lon":5.38115,"is_reserved":false,"is_disabled":false,"rental_uris":{"android":"levelo://app?vid=7481b2d9-a077-4efb-aae8-c8d680676399","ios":"levelo://app?vid=7481b2d9-a077-4efb-aae8-c8d680676399"},"vehicle_type_id":"4","last_reported":1770074281,"current_range_meters":6000,"station_id":"ce4bh412rcd13ifvqdr0","pricing_plan_id":"cebpf4jnsgd1na2vs0mg"},{"bike_id":"28e068bb-60a9-42b4-9f96-904466e94f56","system_id":"levelo_inurba_marseille","lat":43.27961,"lon":5.38753,"is_reserved":false,"is_disabled":false,"rental_uris":{"android":"levelo://app?vid=28e068bb-60a9-42b4-9f96-904466e94f56","ios":"levelo://app?vid=28e068bb-60a9-42b4-9f96-904466e94f56"},"vehicle_type_id":"4","last_reported":1770074281,"current_range_meters":6400,"station_id":"ce4bhg12rcd13ifvqf80","pricing_plan_id":"cebpf4jnsgd1na2vs0mg"},{"bike_id":"a83f6d4e-8b41-4f5d-b726-aab40772b3dc","system_id":"levelo_inurba_marseille","lat":43.27211,"lon":5.39193,"is_reserved":false,"is_disabled":true,"rental_uris":{"android":"levelo://app?vid=a83f6d4e-8b41-4f5d-b726-aab40772b3dc","ios":"levelo://app?vid=a83f6d4e-8b41-4f5d-b726-aab40772b3dc"},"vehicle_type_id":"4","last_reported":1770074281,"current_range_meters":6400,"station_id":"ce4bhhp2rcd13ifvqfm0","pricing_plan_id":"cebpf4jnsgd1na2vs0mg"},{"bike_id":"325d9984-4029-4d00-8c76-8002734e01d5","system_id":"levelo_inurba_marseille","lat":43.28023,"lon":5.36947,"is_reserved":false,"is_disabled":false,"rental_uris":{"android":"levelo://app?vid=325d9984-4029-4d00-8c76-8002734e01d5","ios":"levelo://app?vid=325d9984-4029-4d00-8c76-8002734e01d5"},"vehicle_type_id":"4","last_reported":1770074281,"current_range_meters":6400,"station_id":"ce4bha12rcd13ifvqef0","pricing_plan_id":"cebpf4jnsgd1na2vs0mg"},{"bike_id":"448aac68-1f9e-4017-99cd-3bab5b285023","system_id":"levelo_inurba_marseille","lat":43.27387,"lon":5.36262,"is_reserved":false,"is_disabled":false,"rental_uris":{"android":"levelo://app?vid=448aac68-1f9e-4017-99cd-3bab5b285023","ios":"levelo://app?vid=448aac68-1f9e-4017-99cd-3bab5b285023"},"vehicle_type_id":"4","last_reported":1770074281,"current_range_meters":6400,"station_id":"ce4bhbh2rcd13ifvqeo0","pricing_plan_id":"cebpf4jnsgd1na2vs0mg"},{"bike_id":"132c2e4f-f164-4506-8200-75a72b5316b3","system_id":"levelo_inurba_marseille","lat":43.2255,"lon":5.41643,"is_reserved":false,"is_disabled":false,"rental_uris":{"android":"levelo://app?vid=132c2e4f-f164-4506-8200-75a72b5316b3","ios":"levelo://app?vid=132c2e4f-f164-4506-8200-75a72b5316b3"},"vehicle_type_id":"4","last_reported":1770074281,"current_range_meters":6400,"station_id":"st_d2o4gvlbi1j2169b742g","pricing_plan_id":"cebpf4jnsgd1na2vs0mg"},{"bike_id":"0dfee802-42fd-4fdc-b59b-2834c3c17675","system_id":"levelo_inurba_marseille","lat":43.29007,"lon":5.35591,"is_reserved":false,"is_disabled":false,"rental_uris":{"android":"levelo://app?vid=0dfee802-42fd-4fdc-b59b-2834c3c17675","ios":"levelo://app?vid=0dfee802-42fd-4fdc-b59b-2834c3c17675"},"vehicle_type_id":"4","last_reported":1770074281,"current_range_meters":6400,"station_id":"ce4bhb92rcd13ifvqen0","pricing_plan_id":"cebpf4jnsgd1na2vs0mg"},{"bike_id":"7e7cded1-d7df-4b4d-9ff3-49738118bd9d","system_id":"levelo_inurba_marseille","lat":43.25341,"lon":5.42157,"is_reserved":false,"is_disabled":false,"rental_uris":{"android":"levelo://app?vid=7e7cded1-d7df-4b4d-9ff3-49738118bd9d","ios":"levelo://app?vid=7e7cded1-d7df-4b4d-9ff3-49738118bd9d"},"vehicle_type_id":"4","last_reported":1770074281,"current_range_meters":6400,"station_id":"st_d2m65c5bi1j21697t3ng","pricing_plan_id":"cebpf4jnsgd1na2vs0mg"},{"bike_id":"b4b49109-c680-49e7-b78f-0963342a85a5","system_id":"levelo_inurba_marseille","lat":43.30555,"lon":5.36539,"is_reserved":false,"is_disabled":false,"rental_uris":{"android":"levelo://app?vid=b4b49109-c680-49e7-b78f-0963342a85a5","ios":"levelo://app?vid=b4b49109-c680-49e7-b78f-0963342a85a5"},"vehicle_type_id":"4","last_reported":1770074281,"current_range_meters":6400,"station_id":"ce4bgs12rcd13ifvqcag","pricing_plan_id":"cebpf4jnsgd1na2vs0mg"},{"bike_id":"ca4aadfd-0881-4ee0-aede-7f51434adca7","system_id":"levelo_inurba_marseille","lat":43.29282,"lon":5.36837,"is_reserved":false,"is_disabled":false,"rental_uris":{"android":"levelo://app?vid=ca4aadfd-0881-4ee0-aede-7f51434adca7","ios":"levelo://app?vid=ca4aadfd-0881-4ee0-aede-7f51434adca7"},"vehicle_type_id":"4","last_reported":1770074281,"current_range_meters":6400,"station_id":"ce4bhbp2rcd13ifvqesg","pricing_plan_id":"cebpf4jnsgd1na2vs0mg"},{"bike_id":"225e9d09-83ee-4f1c-a930-a97429c83cb7","system_id":"levelo_inurba_marseille","lat":43.23192,"lon":5.35554,"is_reserved":false,"is_disabled":false,"rental_uris":{"android":"levelo://app?vid=225e9d09-83ee-4f1c-a930-a97429c83cb7","ios":"levelo://app?vid=225e9d09-83ee-4f1c-a930-a97429c83cb7"},"vehicle_type_id":"4","last_reported":1770074281,"current_range_meters":6400,"station_id":"ce4bhu92rcd13ifvqi70","pricing_plan_id":"cebpf4jnsgd1na2vs0mg"},{"bike_id":"6124570c-fd9c-44b9-b676-caf72ff24988","system_id":"levelo_inurba_marseille","lat":43.287,"lon":5.39989,"is_reserved":false,"is_disabled":false,"rental_uris":{"android":"levelo://app?vid=6124570c-fd9c-44b9-b676-caf72ff24988","ios":"levelo://app?vid=6124570c-fd9c-44b9-b676-caf72ff24988"},"vehicle_type_id":"4","last_reported":1770074281,"current_range_meters":6400,"station_id":"ce4bho92rcd13ifvqh3g","pricing_plan_id":"cebpf4jnsgd1na2vs0mg"},{"bike_id":"6a131f0d-6128-445c-99a5-319bcf3a622a","system_id":"levelo_inurba_marseille","lat":43.284744,"lon":5.484022,"is_reserved":false,"is_disabled":false,"rental_uris":{"android":"levelo://app?vid=6a131f0d-6128-445c-99a5-319bcf3a622a","ios":"levelo://app?vid=6a131f0d-6128-445c-99a5-319bcf3a622a"},"vehicle_type_id":"4","last_reported":1770074281,"current_range_meters":6400,"station_id":"st_d3svhcjqgbts73a3dn0g","pricing_plan_id":"cebpf4jnsgd1na2vs0mg"},{"bike_id":"9cbcf585-a58e-4938-b69e-d4c3022c57ef","system_id":"levelo_inurba_marseille","lat":43.24067,"lon":5.37733,"is_reserved":false,"is_disabled":false,"rental_uris":{"android":"levelo://app?vid=9cbcf585-a58e-4938-b69e-d4c3022c57ef","ios":"levelo://app?vid=9cbcf585-a58e-4938-b69e-d4c3022c57ef"},"vehicle_type_id":"4","last_reported":1770074281,"current_range_meters":6400,"station_id":"ce4bhnp2rcd13ifvqgvg","pricing_plan_id":"cebpf4jnsgd1na2vs0mg"},{"bike_id":"91604460-68c0-4492-894c-a238619d1f72","system_id":"levelo_inurba_marseille","lat":43.23186,"lon":5.35558,"is_reserved":false,"is_disabled":false,"rental_uris":{"android":"levelo://app?vid=91604460-68c0-4492-894c-a238619d1f72","ios":"levelo://app?vid=91604460-68c0-4492-894c-a238619d1f72"},"vehicle_type_id":"4","last_reported":1770074281,"current_range_meters":6400,"station_id":"ce4bhu92rcd13ifvqi70","pricing_plan_id":"cebpf4jnsgd1na2vs0mg"},{"bike_id":"84aabe28-dbdd-4bb2-8087-066444e79de4","system_id":"levelo_inurba_marseille","lat":43.27997,"lon":5.4002,"is_reserved":false,"is_disabled":false,"rental_uris":{"android":"levelo://app?vid=84aabe28-dbdd-4bb2-8087-066444e79de4","ios":"levelo://app?vid=84aabe28-dbdd-4bb2-8087-066444e79de4"},"vehicle_type_id":"4","last_reported":1770074281,"current_range_meters":6400,"station_id":"ce4bho92rcd13ifvqh4g","pricing_plan_id":"cebpf4jnsgd1na2vs0mg"},{"bike_id":"791b5e63-c2ac-492d-9691-a51531714d2d","system_id":"levelo_inurba_marseille","lat":43.27916,"lon":5.39586,"is_reserved":false,"is_disabled":false,"rental_uris":{"android":"levelo://app?vid=791b5e63-c2ac-492d-9691-a51531714d2d","ios":"levelo://app?vid=791b5e63-c2ac-492d-9691-a51531714d2d"},"vehicle_type_id":"4","last_reported":1770074281,"current_range_meters":6800,"station_id":"ce4bhf92rcd13ifvqf40","pricing_plan_id":"cebpf4jnsgd1na2vs0mg"},{"bike_id":"f40b24a5-bf74-4433-adfa-9cc7e924510b","system_id":"levelo_inurba_marseille","lat":43.29725,"lon":5.37858,"is_reserved":false,"is_disabled":false,"rental_uris":{"android":"levelo://app?vid=f40b24a5-bf74-4433-adfa-9cc7e924510b","ios":"levelo://app?vid=f40b24a5-bf74-4433-adfa-9cc7e924510b"},"vehicle_type_id":"4","last_reported":1770074281,"current_range_meters":6800,"station_id":"","pricing_plan_id":"cebpf4jnsgd1na2vs0mg"},{"bike_id":"9b88fd27-e984-4d47-a1cb-c509cbeae0be","system_id":"levelo_inurba_marseille","lat":43.27989,"lon":5.40019,"is_reserved":false,"is_disabled":false,"rental_uris":{"android":"levelo://app?vid=9b88fd27-e984-4d47-a1cb-c509cbeae0be","ios":"levelo://app?vid=9b88fd27-e984-4d47-a1cb-c509cbeae0be"},"vehicle_type_id":"4","last_reported":1770074281,"current_range_meters":6800,"station_id":"ce4bho92rcd13ifvqh4g","pricing_plan_id":"cebpf4jnsgd1na2vs0mg"},{"bike_id":"2fcc2686-9a43-4c0c-86f4-434c58cd2f97","system_id":"levelo_inurba_marseille","lat":43.29017,"lon":5.38647,"is_reserved":false,"is_disabled":false,"rental_uris":{"android":"levelo://app?vid=2fcc2686-9a43-4c0c-86f4-434c58cd2f97","ios":"levelo://app?vid=2fcc2686-9a43-4c0c-86f4-434c58cd2f97"},"vehicle_type_id":"4","last_reported":1770074281,"current_range_meters":6800,"station_id":"ce4bh4p2rcd13ifvqe0g","pricing_plan_id":"cebpf4jnsgd1na2vs0mg"},{"bike_id":"9a5c42d0-396d-4740-9af5-68ecd2459ec5","system_id":"levelo_inurba_marseille","lat":43.28668,"lon":5.36345,"is_reserved":false,"is_disabled":false,"rental_uris":{"android":"levelo://app?vid=9a5c42d0-396d-4740-9af5-68ecd2459ec5","ios":"levelo://app?vid=9a5c42d0-396d-4740-9af5-68ecd2459ec5"},"vehicle_type_id":"4","last_reported":1770074281,"current_range_meters":6800,"station_id":"ce4bhah2rcd13ifvqej0","pricing_plan_id":"cebpf4jnsgd1na2vs0mg"},{"bike_id":"ed02cb4c-388a-4f26-a459-0831f95c479b","system_id":"levelo_inurba_marseille","lat":43.29903,"lon":5.4366,"is_reserved":false,"is_disabled":false,"rental_uris":{"android":"levelo://app?vid=ed02cb4c-388a-4f26-a459-0831f95c479b","ios":"levelo://app?vid=ed02cb4c-388a-4f26-a459-0831f95c479b"},"vehicle_type_id":"4","last_reported":1770074281,"current_range_meters":6800,"station_id":"ce4bhpp2rcd13ifvqhfg","pricing_plan_id":"cebpf4jnsgd1na2vs0mg"},{"bike_id":"ca319e52-4042-4559-98a3-1b1ef07500d1","system_id":"levelo_inurba_marseille","lat":43.30322,"lon":5.40438,"is_reserved":false,"is_disabled":false,"rental_uris":{"android":"levelo://app?vid=ca319e52-4042-4559-98a3-1b1ef07500d1","ios":"levelo://app?vid=ca319e52-4042-4559-98a3-1b1ef07500d1"},"vehicle_type_id":"4","last_reported":1770074281,"current_range_meters":6800,"station_id":"ce4bh012rcd13ifvqd10","pricing_plan_id":"cebpf4jnsgd1na2vs0mg"},{"bike_id":"1acfb5e8-f632-49ef-8f1b-a9d07688c562","system_id":"levelo_inurba_marseille","lat":43.270608,"lon":5.383146,"is_reserved":false,"is_disabled":false,"rental_uris":{"android":"levelo://app?vid=1acfb5e8-f632-49ef-8f1b-a9d07688c562","ios":"levelo://app?vid=1acfb5e8-f632-49ef-8f1b-a9d07688c562"},"vehicle_type_id":"4","last_reported":1770074281,"current_range_meters":6800,"station_id":"","pricing_plan_id":"cebpf4jnsgd1na2vs0mg"},{"bike_id":"fa202858-ca85-4a42-a70e-3ad7213e4f87","system_id":"levelo_inurba_marseille","lat":43.23186,"lon":5.39991,"is_reserved":false,"is_disabled":false,"rental_uris":{"android":"levelo://app?vid=fa202858-ca85-4a42-a70e-3ad7213e4f87","ios":"levelo://app?vid=fa202858-ca85-4a42-a70e-3ad7213e4f87"},"vehicle_type_id":"4","last_reported":1770074281,"current_range_meters":6800,"station_id":"ce4bhn12rcd13ifvqgqg","pricing_plan_id":"cebpf4jnsgd1na2vs0mg"},{"bike_id":"0a6292f7-50dd-43c2-b393-e08dde080051","system_id":"levelo_inurba_marseille","lat":43.26627,"lon":5.39013,"is_reserved":false,"is_disabled":false,"rental_uris":{"android":"levelo://app?vid=0a6292f7-50dd-43c2-b393-e08dde080051","ios":"levelo://app?vid=0a6292f7-50dd-43c2-b393-e08dde080051"},"vehicle_type_id":"4","last_reported":1770074281,"current_range_meters":6800,"station_id":"","pricing_plan_id":"cebpf4jnsgd1na2vs0mg"},{"bike_id":"1b7275f2-66dc-49c1-a1cf-6b666c1247c0","system_id":"levelo_inurba_marseille","lat":43.31052,"lon":5.37196,"is_reserved":false,"is_disabled":false,"rental_uris":{"android":"levelo://app?vid=1b7275f2-66dc-49c1-a1cf-6b666c1247c0","ios":"levelo://app?vid=1b7275f2-66dc-49c1-a1cf-6b666c1247c0"},"vehicle_type_id":"4","last_reported":1770074281,"current_range_meters":6800,"station_id":"st_d4kl2rp97mjs73e7tdfg","pricing_plan_id":"cebpf4jnsgd1na2vs0mg"},{"bike_id":"b81cf0a9-60ff-4ac2-9c33-32ff258c0032","system_id":"levelo_inurba_marseille","lat":43.28399,"lon":5.34981,"is_reserved":false,"is_disabled":false,"rental_uris":{"android":"levelo://app?vid=b81cf0a9-60ff-4ac2-9c33-32ff258c0032","ios":"levelo://app?vid=b81cf0a9-60ff-4ac2-9c33-32ff258c0032"},"vehicle_type_id":"4","last_reported":1770074281,"current_range_meters":7200,"station_id":"ce4bhbh2rcd13ifvqepg","pricing_plan_id":"cebpf4jnsgd1na2vs0mg"},{"bike_id":"89dacfb9-9707-42fe-a9c8-524d3751d080","system_id":"levelo_inurba_marseille","lat":43.23151,"lon":5.4372,"is_reserved":false,"is_disabled":false,"rental_uris":{"android":"levelo://app?vid=89dacfb9-9707-42fe-a9c8-524d3751d080","ios":"levelo://app?vid=89dacfb9-9707-42fe-a9c8-524d3751d080"},"vehicle_type_id":"4","last_reported":1770074281,"current_range_meters":7200,"station_id":"ce4bhmp2rcd13ifvqgog","pricing_plan_id":"cebpf4jnsgd1na2vs0mg"},{"bike_id":"76154380-766b-4767-81b3-83dc44f40b7b","system_id":"levelo_inurba_marseille","lat":43.33542,"lon":5.37468,"is_reserved":false,"is_disabled":false,"rental_uris":{"android":"levelo://app?vid=76154380-766b-4767-81b3-83dc44f40b7b","ios":"levelo://app?vid=76154380-766b-4767-81b3-83dc44f40b7b"},"vehicle_type_id":"4","last_reported":1770074281,"current_range_meters":7200,"station_id":"st_d46tts09ee8s73dlu43g","pricing_plan_id":"cebpf4jnsgd1na2vs0mg"},{"bike_id":"f8b90001-ffd3-489f-9646-3ea4d3953b76","system_id":"levelo_inurba_marseille","lat":43.27823,"lon":5.40704,"is_reserved":false,"is_disabled":false,"rental_uris":{"android":"levelo://app?vid=f8b90001-ffd3-489f-9646-3ea4d3953b76","ios":"levelo://app?vid=f8b90001-ffd3-489f-9646-3ea4d3953b76"},"vehicle_type_id":"4","last_reported":1770074281,"current_range_meters":7200,"station_id":"ce4bhnh2rcd13ifvqgtg","pricing_plan_id":"cebpf4jnsgd1na2vs0mg"},{"bike_id":"d6ff0c2e-1b73-4afa-8f0f-7ada026e25d1","system_id":"levelo_inurba_marseille","lat":43.294818,"lon":5.376121,"is_reserved":false,"is_disabled":false,"rental_uris":{"android":"levelo://app?vid=d6ff0c2e-1b73-4afa-8f0f-7ada026e25d1","ios":"levelo://app?vid=d6ff0c2e-1b73-4afa-8f0f-7ada026e25d1"},"vehicle_type_id":"4","last_reported":1770074281,"current_range_meters":7200,"station_id":"","pricing_plan_id":"cebpf4jnsgd1na2vs0mg"},{"bike_id":"dd789ece-b6e4-4c2e-b0c1-877c84b17297","system_id":"levelo_inurba_marseille","lat":43.21211,"lon":5.35071,"is_reserved":false,"is_disabled":false,"rental_uris":{"android":"levelo://app?vid=dd789ece-b6e4-4c2e-b0c1-877c84b17297","ios":"levelo://app?vid=dd789ece-b6e4-4c2e-b0c1-877c84b17297"},"vehicle_type_id":"4","last_reported":1770074281,"current_range_meters":7200,"station_id":"st_cvj6sg6p6f1abm77japg","pricing_plan_id":"cebpf4jnsgd1na2vs0mg"},{"bike_id":"ea5a711f-2b73-4543-828e-0dd0db27a325","system_id":"levelo_inurba_marseille","lat":43.28205,"lon":5.39062,"is_reserved":false,"is_disabled":false,"rental_uris":{"android":"levelo://app?vid=ea5a711f-2b73-4543-828e-0dd0db27a325","ios":"levelo://app?vid=ea5a711f-2b73-4543-828e-0dd0db27a325"},"vehicle_type_id":"4","last_reported":1770074281,"current_range_meters":7200,"station_id":"ce4bhn92rcd13ifvqgsg","pricing_plan_id":"cebpf4jnsgd1na2vs0mg"},{"bike_id":"dd31698a-3042-473a-bd53-ac0632646f44","system_id":"levelo_inurba_marseille","lat":43.24488,"lon":5.42521,"is_reserved":false,"is_disabled":false,"rental_uris":{"android":"levelo://app?vid=dd31698a-3042-473a-bd53-ac0632646f44","ios":"levelo://app?vid=dd31698a-3042-473a-bd53-ac0632646f44"},"vehicle_type_id":"4","last_reported":1770074281,"current_range_meters":7200,"station_id":"st_d4a3vfp97mjs738cd8kg","pricing_plan_id":"cebpf4jnsgd1na2vs0mg"},{"bike_id":"d1786d71-cdac-413b-898f-401144ede37d","system_id":"levelo_inurba_marseille","lat":43.2533,"lon":5.42174,"is_reserved":false,"is_disabled":false,"rental_uris":{"android":"levelo://app?vid=d1786d71-cdac-413b-898f-401144ede37d","ios":"levelo://app?vid=d1786d71-cdac-413b-898f-401144ede37d"},"vehicle_type_id":"4","last_reported":1770074281,"current_range_meters":7200,"station_id":"st_d2m65c5bi1j21697t3ng","pricing_plan_id":"cebpf4jnsgd1na2vs0mg"},{"bike_id":"5dae8e7a-771c-417a-921b-2f019b85b891","system_id":"levelo_inurba_marseille","lat":43.298958,"lon":5.436839,"is_reserved":false,"is_disabled":false,"rental_uris":{"android":"levelo://app?vid=5dae8e7a-771c-417a-921b-2f019b85b891","ios":"levelo://app?vid=5dae8e7a-771c-417a-921b-2f019b85b891"},"vehicle_type_id":"4","last_reported":1770074281,"current_range_meters":7200,"station_id":"ce4bhpp2rcd13ifvqhfg","pricing_plan_id":"cebpf4jnsgd1na2vs0mg"},{"bike_id":"bd4832ab-4826-48ba-b8bd-4c736bb28b7b","system_id":"levelo_inurba_marseille","lat":43.25343,"lon":5.42169,"is_reserved":false,"is_disabled":false,"rental_uris":{"android":"levelo://app?vid=bd4832ab-4826-48ba-b8bd-4c736bb28b7b","ios":"levelo://app?vid=bd4832ab-4826-48ba-b8bd-4c736bb28b7b"},"vehicle_type_id":"4","last_reported":1770074281,"current_range_meters":7200,"station_id":"st_d2m65c5bi1j21697t3ng","pricing_plan_id":"cebpf4jnsgd1na2vs0mg"},{"bike_id":"fb6d0c92-aa07-41c5-bb64-ff22908e7b14","system_id":"levelo_inurba_marseille","lat":43.33537,"lon":5.37476,"is_reserved":false,"is_disabled":false,"rental_uris":{"android":"levelo://app?vid=fb6d0c92-aa07-41c5-bb64-ff22908e7b14","ios":"levelo://app?vid=fb6d0c92-aa07-41c5-bb64-ff22908e7b14"},"vehicle_type_id":"4","last_reported":1770074281,"current_range_meters":7200,"station_id":"st_d46tts09ee8s73dlu43g","pricing_plan_id":"cebpf4jnsgd1na2vs0mg"},{"bike_id":"6dcbafdd-a1b9-4d04-af91-285dc70eef9b","system_id":"levelo_inurba_marseille","lat":43.21745,"lon":5.34602,"is_reserved":false,"is_disabled":false,"rental_uris":{"android":"levelo://app?vid=6dcbafdd-a1b9-4d04-af91-285dc70eef9b","ios":"levelo://app?vid=6dcbafdd-a1b9-4d04-af91-285dc70eef9b"},"vehicle_type_id":"4","last_reported":1770074281,"current_range_meters":8000,"station_id":"","pricing_plan_id":"cebpf4jnsgd1na2vs0mg"},{"bike_id":"02b06200-6f0c-4fbe-a288-f34e85c983a1","system_id":"levelo_inurba_marseille","lat":43.237863,"lon":5.366283,"is_reserved":false,"is_disabled":false,"rental_uris":{"android":"levelo://app?vid=02b06200-6f0c-4fbe-a288-f34e85c983a1","ios":"levelo://app?vid=02b06200-6f0c-4fbe-a288-f34e85c983a1"},"vehicle_type_id":"4","last_reported":1770074281,"current_range_meters":8000,"station_id":"st_d3nk18o9ro0c73en2l3g","pricing_plan_id":"cebpf4jnsgd1na2vs0mg"},{"bike_id":"23af0394-5a4b-41c7-a956-1b9443f015ff","system_id":"levelo_inurba_marseille","lat":43.331528,"lon":5.376964,"is_reserved":false,"is_disabled":false,"rental_uris":{"android":"levelo://app?vid=23af0394-5a4b-41c7-a956-1b9443f015ff","ios":"levelo://app?vid=23af0394-5a4b-41c7-a956-1b9443f015ff"},"vehicle_type_id":"4","last_reported":1770074281,"current_range_meters":8000,"station_id":"st_d46cu089ee8s73dldbu0","pricing_plan_id":"cebpf4jnsgd1na2vs0mg"},{"bike_id":"cef9edb7-4d2e-4ab7-9675-6b816e961933","system_id":"levelo_inurba_marseille","lat":43.241829,"lon":5.397207,"is_reserved":false,"is_disabled":false,"rental_uris":{"android":"levelo://app?vid=cef9edb7-4d2e-4ab7-9675-6b816e961933","ios":"levelo://app?vid=cef9edb7-4d2e-4ab7-9675-6b816e961933"},"vehicle_type_id":"4","last_reported":1770074281,"current_range_meters":8000,"station_id":"ce4bhn12rcd13ifvqgpg","pricing_plan_id":"cebpf4jnsgd1na2vs0mg"},{"bike_id":"9436c3fb-a74e-4fd5-8b2a-988e84b82382","system_id":"levelo_inurba_marseille","lat":43.241783,"lon":5.397274,"is_reserved":false,"is_disabled":false,"rental_uris":{"android":"levelo://app?vid=9436c3fb-a74e-4fd5-8b2a-988e84b82382","ios":"levelo://app?vid=9436c3fb-a74e-4fd5-8b2a-988e84b82382"},"vehicle_type_id":"4","last_reported":1770074281,"current_range_meters":8000,"station_id":"ce4bhn12rcd13ifvqgpg","pricing_plan_id":"cebpf4jnsgd1na2vs0mg"},{"bike_id":"67d94700-218b-4e1b-9b09-f23953a1fdd8","system_id":"levelo_inurba_marseille","lat":43.26197,"lon":5.40446,"is_reserved":false,"is_disabled":false,"rental_uris":{"android":"levelo://app?vid=67d94700-218b-4e1b-9b09-f23953a1fdd8","ios":"levelo://app?vid=67d94700-218b-4e1b-9b09-f23953a1fdd8"},"vehicle_type_id":"4","last_reported":1770074281,"current_range_meters":8000,"station_id":"ce4bhmh2rcd13ifvqgmg","pricing_plan_id":"cebpf4jnsgd1na2vs0mg"},{"bike_id":"5ff8ad37-0c92-433c-a2f7-86fa26d95862","system_id":"levelo_inurba_marseille","lat":43.30948,"lon":5.39039,"is_reserved":false,"is_disabled":false,"rental_uris":{"android":"levelo://app?vid=5ff8ad37-0c92-433c-a2f7-86fa26d95862","ios":"levelo://app?vid=5ff8ad37-0c92-433c-a2f7-86fa26d95862"},"vehicle_type_id":"4","last_reported":1770074281,"current_range_meters":8000,"station_id":"ce4bgup2rcd13ifvqco0","pricing_plan_id":"cebpf4jnsgd1na2vs0mg"},{"bike_id":"33155caa-8021-4913-a666-e828c4426fe1","system_id":"levelo_inurba_marseille","lat":43.23251,"lon":5.3555,"is_reserved":false,"is_disabled":false,"rental_uris":{"android":"levelo://app?vid=33155caa-8021-4913-a666-e828c4426fe1","ios":"levelo://app?vid=33155caa-8021-4913-a666-e828c4426fe1"},"vehicle_type_id":"4","last_reported":1770074281,"current_range_meters":8000,"station_id":"","pricing_plan_id":"cebpf4jnsgd1na2vs0mg"},{"bike_id":"582c3be5-0588-4468-afbe-c0c50f7108ab","system_id":"levelo_inurba_marseille","lat":43.28841,"lon":5.3584,"is_reserved":false,"is_disabled":false,"rental_uris":{"android":"levelo://app?vid=582c3be5-0588-4468-afbe-c0c50f7108ab","ios":"levelo://app?vid=582c3be5-0588-4468-afbe-c0c50f7108ab"},"vehicle_type_id":"4","last_reported":1770074281,"current_range_meters":8000,"station_id":"ce4bhb12rcd13ifvqem0","pricing_plan_id":"cebpf4jnsgd1na2vs0mg"},{"bike_id":"d8787e18-d39a-45a8-b97c-abcf0e953094","system_id":"levelo_inurba_marseille","lat":43.292613,"lon":5.409103,"is_reserved":false,"is_disabled":false,"rental_uris":{"android":"levelo://app?vid=d8787e18-d39a-45a8-b97c-abcf0e953094","ios":"levelo://app?vid=d8787e18-d39a-45a8-b97c-abcf0e953094"},"vehicle_type_id":"4","last_reported":1770074281,"current_range_meters":8000,"station_id":"ce4bh192rcd13ifvqdc0","pricing_plan_id":"cebpf4jnsgd1na2vs0mg"},{"bike_id":"39e34071-1f76-445c-91f2-187764720849","system_id":"levelo_inurba_marseille","lat":43.21754,"lon":5.34603,"is_reserved":false,"is_disabled":false,"rental_uris":{"android":"levelo://app?vid=39e34071-1f76-445c-91f2-187764720849","ios":"levelo://app?vid=39e34071-1f76-445c-91f2-187764720849"},"vehicle_type_id":"4","last_reported":1770074281,"current_range_meters":8000,"station_id":"","pricing_plan_id":"cebpf4jnsgd1na2vs0mg"},{"bike_id":"4dd6841e-e470-4207-bb73-65a47c0e81c5","system_id":"levelo_inurba_marseille","lat":43.31171,"lon":5.38025,"is_reserved":false,"is_disabled":false,"rental_uris":{"android":"levelo://app?vid=4dd6841e-e470-4207-bb73-65a47c0e81c5","ios":"levelo://app?vid=4dd6841e-e470-4207-bb73-65a47c0e81c5"},"vehicle_type_id":"4","last_reported":1770074281,"current_range_meters":8000,"station_id":"","pricing_plan_id":"cebpf4jnsgd1na2vs0mg"},{"bike_id":"79534d48-e26f-4999-a98b-9bc2adced944","system_id":"levelo_inurba_marseille","lat":43.29436,"lon":5.4293,"is_reserved":false,"is_disabled":false,"rental_uris":{"android":"levelo://app?vid=79534d48-e26f-4999-a98b-9bc2adced944","ios":"levelo://app?vid=79534d48-e26f-4999-a98b-9bc2adced944"},"vehicle_type_id":"4","last_reported":1770074281,"current_range_meters":8400,"station_id":"","pricing_plan_id":"cebpf4jnsgd1na2vs0mg"},{"bike_id":"eee54609-a6c8-4bc7-a936-6a1b442519d3","system_id":"levelo_inurba_marseille","lat":43.31046,"lon":5.37201,"is_reserved":false,"is_disabled":false,"rental_uris":{"android":"levelo://app?vid=eee54609-a6c8-4bc7-a936-6a1b442519d3","ios":"levelo://app?vid=eee54609-a6c8-4bc7-a936-6a1b442519d3"},"vehicle_type_id":"4","last_reported":1770074281,"current_range_meters":8400,"station_id":"st_d4kl2rp97mjs73e7tdfg","pricing_plan_id":"cebpf4jnsgd1na2vs0mg"},{"bike_id":"9c2508a9-b968-4bec-819a-5127bc67b58d","system_id":"levelo_inurba_marseille","lat":43.28417,"lon":5.3752,"is_reserved":false,"is_disabled":true,"rental_uris":{"android":"levelo://app?vid=9c2508a9-b968-4bec-819a-5127bc67b58d","ios":"levelo://app?vid=9c2508a9-b968-4bec-819a-5127bc67b58d"},"vehicle_type_id":"4","last_reported":1770074281,"current_range_meters":8400,"station_id":"ce4bh412rcd13ifvqds0","pricing_plan_id":"cebpf4jnsgd1na2vs0mg"},{"bike_id":"8d9d214d-16a2-4854-91bf-d2caaadf9f42","system_id":"levelo_inurba_marseille","lat":43.23147,"lon":5.43714,"is_reserved":false,"is_disabled":false,"rental_uris":{"android":"levelo://app?vid=8d9d214d-16a2-4854-91bf-d2caaadf9f42","ios":"levelo://app?vid=8d9d214d-16a2-4854-91bf-d2caaadf9f42"},"vehicle_type_id":"4","last_reported":1770074281,"current_range_meters":8400,"station_id":"ce4bhmp2rcd13ifvqgog","pricing_plan_id":"cebpf4jnsgd1na2vs0mg"},{"bike_id":"51cbf713-f79b-4c2d-9d8b-9a1117324cc6","system_id":"levelo_inurba_marseille","lat":43.28995,"lon":5.35607,"is_reserved":false,"is_disabled":false,"rental_uris":{"android":"levelo://app?vid=51cbf713-f79b-4c2d-9d8b-9a1117324cc6","ios":"levelo://app?vid=51cbf713-f79b-4c2d-9d8b-9a1117324cc6"},"vehicle_type_id":"4","last_reported":1770074281,"current_range_meters":8400,"station_id":"ce4bhb92rcd13ifvqen0","pricing_plan_id":"cebpf4jnsgd1na2vs0mg"},{"bike_id":"2c0bc4db-f557-470b-bd8a-9520318620b0","system_id":"levelo_inurba_marseille","lat":43.284169,"lon":5.349952,"is_reserved":false,"is_disabled":false,"rental_uris":{"android":"levelo://app?vid=2c0bc4db-f557-470b-bd8a-9520318620b0","ios":"levelo://app?vid=2c0bc4db-f557-470b-bd8a-9520318620b0"},"vehicle_type_id":"4","last_reported":1770074281,"current_range_meters":8400,"station_id":"ce4bhbh2rcd13ifvqepg","pricing_plan_id":"cebpf4jnsgd1na2vs0mg"},{"bike_id":"b0d93303-81f2-4939-a8a5-d433286e13fa","system_id":"levelo_inurba_marseille","lat":43.27048,"lon":5.38304,"is_reserved":false,"is_disabled":false,"rental_uris":{"android":"levelo://app?vid=b0d93303-81f2-4939-a8a5-d433286e13fa","ios":"levelo://app?vid=b0d93303-81f2-4939-a8a5-d433286e13fa"},"vehicle_type_id":"4","last_reported":1770074281,"current_range_meters":8400,"station_id":"st_d3n2fo6cfp8s73cte1j0","pricing_plan_id":"cebpf4jnsgd1na2vs0mg"},{"bike_id":"004217b9-d0df-4be3-b36e-32cfa6b0fb50","system_id":"levelo_inurba_marseille","lat":43.24633,"lon":5.43146,"is_reserved":false,"is_disabled":false,"rental_uris":{"android":"levelo://app?vid=004217b9-d0df-4be3-b36e-32cfa6b0fb50","ios":"levelo://app?vid=004217b9-d0df-4be3-b36e-32cfa6b0fb50"},"vehicle_type_id":"4","last_reported":1770074281,"current_range_meters":8400,"station_id":"st_d2m6c4gdas8pm72e190g","pricing_plan_id":"cebpf4jnsgd1na2vs0mg"},{"bike_id":"e9c5afc7-c303-4df3-a0d1-811595814b02","system_id":"levelo_inurba_marseille","lat":43.24079,"lon":5.37767,"is_reserved":false,"is_disabled":false,"rental_uris":{"android":"levelo://app?vid=e9c5afc7-c303-4df3-a0d1-811595814b02","ios":"levelo://app?vid=e9c5afc7-c303-4df3-a0d1-811595814b02"},"vehicle_type_id":"4","last_reported":1770074281,"current_range_meters":8400,"station_id":"ce4bhnp2rcd13ifvqgvg","pricing_plan_id":"cebpf4jnsgd1na2vs0mg"},{"bike_id":"a482a150-a4fb-4ef4-beca-666e6a309309","system_id":"levelo_inurba_marseille","lat":43.269336,"lon":5.402604,"is_reserved":false,"is_disabled":false,"rental_uris":{"android":"levelo://app?vid=a482a150-a4fb-4ef4-beca-666e6a309309","ios":"levelo://app?vid=a482a150-a4fb-4ef4-beca-666e6a309309"},"vehicle_type_id":"4","last_reported":1770074281,"current_range_meters":8400,"station_id":"cjm6bp8fraef2m0cb0m0","pricing_plan_id":"cebpf4jnsgd1na2vs0mg"},{"bike_id":"2f25b7b9-d174-4d17-8b3c-765baa967eaf","system_id":"levelo_inurba_marseille","lat":43.34108,"lon":5.40685,"is_reserved":false,"is_disabled":false,"rental_uris":{"android":"levelo://app?vid=2f25b7b9-d174-4d17-8b3c-765baa967eaf","ios":"levelo://app?vid=2f25b7b9-d174-4d17-8b3c-765baa967eaf"},"vehicle_type_id":"4","last_reported":1770074281,"current_range_meters":8400,"station_id":"","pricing_plan_id":"cebpf4jnsgd1na2vs0mg"},{"bike_id":"1311e5ee-00c9-4eaf-b716-b26e62b15c29","system_id":"levelo_inurba_marseille","lat":43.30637,"lon":5.40078,"is_reserved":false,"is_disabled":false,"rental_uris":{"android":"levelo://app?vid=1311e5ee-00c9-4eaf-b716-b26e62b15c29","ios":"levelo://app?vid=1311e5ee-00c9-4eaf-b716-b26e62b15c29"},"vehicle_type_id":"4","last_reported":1770074281,"current_range_meters":8400,"station_id":"ce4bh112rcd13ifvqda0","pricing_plan_id":"cebpf4jnsgd1na2vs0mg"},{"bike_id":"e5039c56-5199-4176-914c-6032a6fc6ed3","system_id":"levelo_inurba_marseille","lat":43.24802,"lon":5.37446,"is_reserved":false,"is_disabled":false,"rental_uris":{"android":"levelo://app?vid=e5039c56-5199-4176-914c-6032a6fc6ed3","ios":"levelo://app?vid=e5039c56-5199-4176-914c-6032a6fc6ed3"},"vehicle_type_id":"4","last_reported":1770074281,"current_range_meters":8400,"station_id":"ce4bhgh2rcd13ifvqfb0","pricing_plan_id":"cebpf4jnsgd1na2vs0mg"},{"bike_id":"9ede7f02-b7e5-4592-92c0-07143ca08c00","system_id":"levelo_inurba_marseille","lat":43.31215,"lon":5.36869,"is_reserved":false,"is_disabled":false,"rental_uris":{"android":"levelo://app?vid=9ede7f02-b7e5-4592-92c0-07143ca08c00","ios":"levelo://app?vid=9ede7f02-b7e5-4592-92c0-07143ca08c00"},"vehicle_type_id":"4","last_reported":1770074281,"current_range_meters":8400,"station_id":"ce4bgl92rcd13ifvqbq0","pricing_plan_id":"cebpf4jnsgd1na2vs0mg"},{"bike_id":"f8e7e4d9-f87a-42a2-9144-b6886b943f25","system_id":"levelo_inurba_marseille","lat":43.25006,"lon":5.38951,"is_reserved":false,"is_disabled":false,"rental_uris":{"android":"levelo://app?vid=f8e7e4d9-f87a-42a2-9144-b6886b943f25","ios":"levelo://app?vid=f8e7e4d9-f87a-42a2-9144-b6886b943f25"},"vehicle_type_id":"4","last_reported":1770074281,"current_range_meters":8800,"station_id":"ce4bhgp2rcd13ifvqfd0","pricing_plan_id":"cebpf4jnsgd1na2vs0mg"},{"bike_id":"f29c9eca-7f54-4755-b637-531b69f02ad6","system_id":"levelo_inurba_marseille","lat":43.26335,"lon":5.39892,"is_reserved":false,"is_disabled":false,"rental_uris":{"android":"levelo://app?vid=f29c9eca-7f54-4755-b637-531b69f02ad6","ios":"levelo://app?vid=f29c9eca-7f54-4755-b637-531b69f02ad6"},"vehicle_type_id":"4","last_reported":1770074281,"current_range_meters":8800,"station_id":"","pricing_plan_id":"cebpf4jnsgd1na2vs0mg"},{"bike_id":"1d8a59d0-04ce-4e1d-8b77-0ea73c9d3164","system_id":"levelo_inurba_marseille","lat":43.25815,"lon":5.39422,"is_reserved":false,"is_disabled":false,"rental_uris":{"android":"levelo://app?vid=1d8a59d0-04ce-4e1d-8b77-0ea73c9d3164","ios":"levelo://app?vid=1d8a59d0-04ce-4e1d-8b77-0ea73c9d3164"},"vehicle_type_id":"4","last_reported":1770074281,"current_range_meters":8800,"station_id":"ce4bhip2rcd13ifvqft0","pricing_plan_id":"cebpf4jnsgd1na2vs0mg"},{"bike_id":"62e27a91-d1f4-4b1a-b2a6-3405a804b362","system_id":"levelo_inurba_marseille","lat":43.27067,"lon":5.42281,"is_reserved":false,"is_disabled":false,"rental_uris":{"android":"levelo://app?vid=62e27a91-d1f4-4b1a-b2a6-3405a804b362","ios":"levelo://app?vid=62e27a91-d1f4-4b1a-b2a6-3405a804b362"},"vehicle_type_id":"4","last_reported":1770074281,"current_range_meters":8800,"station_id":"ce4bhk92rcd13ifvqgb0","pricing_plan_id":"cebpf4jnsgd1na2vs0mg"},{"bike_id":"dbb38f29-3af8-4858-b2f7-78e7d12e6a3b","system_id":"levelo_inurba_marseille","lat":43.2957,"lon":5.39986,"is_reserved":false,"is_disabled":false,"rental_uris":{"android":"levelo://app?vid=dbb38f29-3af8-4858-b2f7-78e7d12e6a3b","ios":"levelo://app?vid=dbb38f29-3af8-4858-b2f7-78e7d12e6a3b"},"vehicle_type_id":"4","last_reported":1770074281,"current_range_meters":8800,"station_id":"ce4bh312rcd13ifvqdj0","pricing_plan_id":"cebpf4jnsgd1na2vs0mg"},{"bike_id":"fd4003f9-ae57-43d9-af54-09e855d38b22","system_id":"levelo_inurba_marseille","lat":43.28514,"lon":5.44108,"is_reserved":false,"is_disabled":false,"rental_uris":{"android":"levelo://app?vid=fd4003f9-ae57-43d9-af54-09e855d38b22","ios":"levelo://app?vid=fd4003f9-ae57-43d9-af54-09e855d38b22"},"vehicle_type_id":"4","last_reported":1770074281,"current_range_meters":8800,"station_id":"st_d3j3df2ikq2c7380ej80","pricing_plan_id":"cebpf4jnsgd1na2vs0mg"},{"bike_id":"67949cb0-ad73-42aa-8494-c2a7d6735f87","system_id":"levelo_inurba_marseille","lat":43.31227,"lon":5.36914,"is_reserved":false,"is_disabled":false,"rental_uris":{"android":"levelo://app?vid=67949cb0-ad73-42aa-8494-c2a7d6735f87","ios":"levelo://app?vid=67949cb0-ad73-42aa-8494-c2a7d6735f87"},"vehicle_type_id":"4","last_reported":1770074281,"current_range_meters":8800,"station_id":"ce4bgl92rcd13ifvqbq0","pricing_plan_id":"cebpf4jnsgd1na2vs0mg"},{"bike_id":"dca930cd-8edd-4084-aa6f-af5fb496ef62","system_id":"levelo_inurba_marseille","lat":43.25336,"lon":5.42169,"is_reserved":false,"is_disabled":false,"rental_uris":{"android":"levelo://app?vid=dca930cd-8edd-4084-aa6f-af5fb496ef62","ios":"levelo://app?vid=dca930cd-8edd-4084-aa6f-af5fb496ef62"},"vehicle_type_id":"4","last_reported":1770074281,"current_range_meters":8800,"station_id":"st_d2m65c5bi1j21697t3ng","pricing_plan_id":"cebpf4jnsgd1na2vs0mg"},{"bike_id":"db4a7c18-fb00-49e4-812f-82d588271c3d","system_id":"levelo_inurba_marseille","lat":43.29898,"lon":5.37486,"is_reserved":false,"is_disabled":false,"rental_uris":{"android":"levelo://app?vid=db4a7c18-fb00-49e4-812f-82d588271c3d","ios":"levelo://app?vid=db4a7c18-fb00-49e4-812f-82d588271c3d"},"vehicle_type_id":"4","last_reported":1770074281,"current_range_meters":8800,"station_id":"ce4bgjh2rcd13ifvqbg0","pricing_plan_id":"cebpf4jnsgd1na2vs0mg"},{"bike_id":"6ddf7e79-fc33-436a-9f2e-0297899e5607","system_id":"levelo_inurba_marseille","lat":43.28476,"lon":5.48397,"is_reserved":false,"is_disabled":false,"rental_uris":{"android":"levelo://app?vid=6ddf7e79-fc33-436a-9f2e-0297899e5607","ios":"levelo://app?vid=6ddf7e79-fc33-436a-9f2e-0297899e5607"},"vehicle_type_id":"4","last_reported":1770074281,"current_range_meters":8800,"station_id":"st_d3svhcjqgbts73a3dn0g","pricing_plan_id":"cebpf4jnsgd1na2vs0mg"},{"bike_id":"be616c8a-7d9f-44f2-9914-b719781dfdee","system_id":"levelo_inurba_marseille","lat":43.23969,"lon":5.36642,"is_reserved":false,"is_disabled":false,"rental_uris":{"android":"levelo://app?vid=be616c8a-7d9f-44f2-9914-b719781dfdee","ios":"levelo://app?vid=be616c8a-7d9f-44f2-9914-b719781dfdee"},"vehicle_type_id":"4","last_reported":1770074281,"current_range_meters":8800,"station_id":"ce4bhi12rcd13ifvqfp0","pricing_plan_id":"cebpf4jnsgd1na2vs0mg"},{"bike_id":"37c558c9-e355-4c5f-95d4-4edef0566b9c","system_id":"levelo_inurba_marseille","lat":43.24667,"lon":5.38157,"is_reserved":false,"is_disabled":false,"rental_uris":{"android":"levelo://app?vid=37c558c9-e355-4c5f-95d4-4edef0566b9c","ios":"levelo://app?vid=37c558c9-e355-4c5f-95d4-4edef0566b9c"},"vehicle_type_id":"4","last_reported":1770074281,"current_range_meters":8800,"station_id":"ce4bhih2rcd13ifvqfr0","pricing_plan_id":"cebpf4jnsgd1na2vs0mg"},{"bike_id":"549d637b-91c5-48ec-83fa-865a463b6a4b","system_id":"levelo_inurba_marseille","lat":43.23228,"lon":5.35556,"is_reserved":false,"is_disabled":false,"rental_uris":{"android":"levelo://app?vid=549d637b-91c5-48ec-83fa-865a463b6a4b","ios":"levelo://app?vid=549d637b-91c5-48ec-83fa-865a463b6a4b"},"vehicle_type_id":"4","last_reported":1770074281,"current_range_meters":8800,"station_id":"ce4bhu92rcd13ifvqi70","pricing_plan_id":"cebpf4jnsgd1na2vs0mg"},{"bike_id":"34e4497e-004e-4d33-b563-df43c3f1dff0","system_id":"levelo_inurba_marseille","lat":43.29154,"lon":5.38821,"is_reserved":false,"is_disabled":false,"rental_uris":{"android":"levelo://app?vid=34e4497e-004e-4d33-b563-df43c3f1dff0","ios":"levelo://app?vid=34e4497e-004e-4d33-b563-df43c3f1dff0"},"vehicle_type_id":"4","last_reported":1770074281,"current_range_meters":8800,"station_id":"ce4bh4p2rcd13ifvqe0g","pricing_plan_id":"cebpf4jnsgd1na2vs0mg"},{"bike_id":"8c9e74fb-09b5-4e73-b58b-c8aac890f44f","system_id":"levelo_inurba_marseille","lat":43.28675,"lon":5.3867,"is_reserved":false,"is_disabled":false,"rental_uris":{"android":"levelo://app?vid=8c9e74fb-09b5-4e73-b58b-c8aac890f44f","ios":"levelo://app?vid=8c9e74fb-09b5-4e73-b58b-c8aac890f44f"},"vehicle_type_id":"4","last_reported":1770074281,"current_range_meters":8800,"station_id":"ce4bh492rcd13ifvqdug","pricing_plan_id":"cebpf4jnsgd1na2vs0mg"},{"bike_id":"deb9e4eb-a481-4dbd-9838-7e21c4114a77","system_id":"levelo_inurba_marseille","lat":43.24627,"lon":5.38909,"is_reserved":false,"is_disabled":false,"rental_uris":{"android":"levelo://app?vid=deb9e4eb-a481-4dbd-9838-7e21c4114a77","ios":"levelo://app?vid=deb9e4eb-a481-4dbd-9838-7e21c4114a77"},"vehicle_type_id":"4","last_reported":1770074281,"current_range_meters":8800,"station_id":"ce4bhg12rcd13ifvqf60","pricing_plan_id":"cebpf4jnsgd1na2vs0mg"},{"bike_id":"98d6ca1b-2adc-4a1b-96ed-1ac6786d8ddf","system_id":"levelo_inurba_marseille","lat":43.24205,"lon":5.39755,"is_reserved":false,"is_disabled":false,"rental_uris":{"android":"levelo://app?vid=98d6ca1b-2adc-4a1b-96ed-1ac6786d8ddf","ios":"levelo://app?vid=98d6ca1b-2adc-4a1b-96ed-1ac6786d8ddf"},"vehicle_type_id":"4","last_reported":1770074281,"current_range_meters":8800,"station_id":"ce4bhn12rcd13ifvqgpg","pricing_plan_id":"cebpf4jnsgd1na2vs0mg"},{"bike_id":"ae2277f7-56f5-4ced-9543-fa73149d50cc","system_id":"levelo_inurba_marseille","lat":43.27809,"lon":5.40667,"is_reserved":false,"is_disabled":false,"rental_uris":{"android":"levelo://app?vid=ae2277f7-56f5-4ced-9543-fa73149d50cc","ios":"levelo://app?vid=ae2277f7-56f5-4ced-9543-fa73149d50cc"},"vehicle_type_id":"4","last_reported":1770074281,"current_range_meters":8800,"station_id":"ce4bhnh2rcd13ifvqgtg","pricing_plan_id":"cebpf4jnsgd1na2vs0mg"},{"bike_id":"daa78333-34b3-465a-a380-48c596d26926","system_id":"levelo_inurba_marseille","lat":43.32493,"lon":5.38296,"is_reserved":false,"is_disabled":false,"rental_uris":{"android":"levelo://app?vid=daa78333-34b3-465a-a380-48c596d26926","ios":"levelo://app?vid=daa78333-34b3-465a-a380-48c596d26926"},"vehicle_type_id":"4","last_reported":1770074281,"current_range_meters":8800,"station_id":"st_d4asgbiv49dc73anf9m0","pricing_plan_id":"cebpf4jnsgd1na2vs0mg"},{"bike_id":"032d1622-f10e-4e31-9323-899def03e537","system_id":"levelo_inurba_marseille","lat":43.310498,"lon":5.371726,"is_reserved":false,"is_disabled":true,"rental_uris":{"android":"levelo://app?vid=032d1622-f10e-4e31-9323-899def03e537","ios":"levelo://app?vid=032d1622-f10e-4e31-9323-899def03e537"},"vehicle_type_id":"4","last_reported":1770074281,"current_range_meters":8800,"station_id":"st_d4kl2rp97mjs73e7tdfg","pricing_plan_id":"cebpf4jnsgd1na2vs0mg"},{"bike_id":"8300bb2e-96f4-4e9e-92a9-a4d1e04694a4","system_id":"levelo_inurba_marseille","lat":43.231516,"lon":5.437121,"is_reserved":false,"is_disabled":false,"rental_uris":{"android":"levelo://app?vid=8300bb2e-96f4-4e9e-92a9-a4d1e04694a4","ios":"levelo://app?vid=8300bb2e-96f4-4e9e-92a9-a4d1e04694a4"},"vehicle_type_id":"4","last_reported":1770074281,"current_range_meters":9200,"station_id":"ce4bhmp2rcd13ifvqgog","pricing_plan_id":"cebpf4jnsgd1na2vs0mg"},{"bike_id":"eacab8c5-ae8d-4933-89ca-bb8acaba05e8","system_id":"levelo_inurba_marseille","lat":43.24816,"lon":5.37501,"is_reserved":false,"is_disabled":false,"rental_uris":{"android":"levelo://app?vid=eacab8c5-ae8d-4933-89ca-bb8acaba05e8","ios":"levelo://app?vid=eacab8c5-ae8d-4933-89ca-bb8acaba05e8"},"vehicle_type_id":"4","last_reported":1770074281,"current_range_meters":9200,"station_id":"","pricing_plan_id":"cebpf4jnsgd1na2vs0mg"},{"bike_id":"c3ba0fed-3d29-4191-b8a3-c899b1e9e5ad","system_id":"levelo_inurba_marseille","lat":43.25569,"lon":5.38234,"is_reserved":false,"is_disabled":false,"rental_uris":{"android":"levelo://app?vid=c3ba0fed-3d29-4191-b8a3-c899b1e9e5ad","ios":"levelo://app?vid=c3ba0fed-3d29-4191-b8a3-c899b1e9e5ad"},"vehicle_type_id":"4","last_reported":1770074281,"current_range_meters":9200,"station_id":"ce4bhih2rcd13ifvqfs0","pricing_plan_id":"cebpf4jnsgd1na2vs0mg"},{"bike_id":"3b15ef1d-d491-4377-b134-a5b139ed4414","system_id":"levelo_inurba_marseille","lat":43.294,"lon":5.37412,"is_reserved":false,"is_disabled":false,"rental_uris":{"android":"levelo://app?vid=3b15ef1d-d491-4377-b134-a5b139ed4414","ios":"levelo://app?vid=3b15ef1d-d491-4377-b134-a5b139ed4414"},"vehicle_type_id":"4","last_reported":1770074281,"current_range_meters":9200,"station_id":"","pricing_plan_id":"cebpf4jnsgd1na2vs0mg"},{"bike_id":"68d2a9d1-2044-4f9c-8e7b-e4d9640d90af","system_id":"levelo_inurba_marseille","lat":43.2971,"lon":5.37957,"is_reserved":false,"is_disabled":false,"rental_uris":{"android":"levelo://app?vid=68d2a9d1-2044-4f9c-8e7b-e4d9640d90af","ios":"levelo://app?vid=68d2a9d1-2044-4f9c-8e7b-e4d9640d90af"},"vehicle_type_id":"4","last_reported":1770074281,"current_range_meters":9200,"station_id":"","pricing_plan_id":"cebpf4jnsgd1na2vs0mg"},{"bike_id":"bc05a65d-563d-445c-a4c3-de287896e1a2","system_id":"levelo_inurba_marseille","lat":43.25338,"lon":5.42177,"is_reserved":false,"is_disabled":false,"rental_uris":{"android":"levelo://app?vid=bc05a65d-563d-445c-a4c3-de287896e1a2","ios":"levelo://app?vid=bc05a65d-563d-445c-a4c3-de287896e1a2"},"vehicle_type_id":"4","last_reported":1770074281,"current_range_meters":9200,"station_id":"st_d2m65c5bi1j21697t3ng","pricing_plan_id":"cebpf4jnsgd1na2vs0mg"},{"bike_id":"fd64f2be-4c58-41ef-bf52-b25e9567334c","system_id":"levelo_inurba_marseille","lat":43.3168,"lon":5.40464,"is_reserved":false,"is_disabled":false,"rental_uris":{"android":"levelo://app?vid=fd64f2be-4c58-41ef-bf52-b25e9567334c","ios":"levelo://app?vid=fd64f2be-4c58-41ef-bf52-b25e9567334c"},"vehicle_type_id":"4","last_reported":1770074281,"current_range_meters":9200,"station_id":"ce4bh012rcd13ifvqd00","pricing_plan_id":"cebpf4jnsgd1na2vs0mg"},{"bike_id":"c255d9ca-6ba6-4a87-a9e1-dc73c79573d7","system_id":"levelo_inurba_marseille","lat":43.27492,"lon":5.42453,"is_reserved":false,"is_disabled":false,"rental_uris":{"android":"levelo://app?vid=c255d9ca-6ba6-4a87-a9e1-dc73c79573d7","ios":"levelo://app?vid=c255d9ca-6ba6-4a87-a9e1-dc73c79573d7"},"vehicle_type_id":"4","last_reported":1770074281,"current_range_meters":9200,"station_id":"ce4bhn92rcd13ifvqgrg","pricing_plan_id":"cebpf4jnsgd1na2vs0mg"},{"bike_id":"18d1a03c-71f9-47bc-804b-7e0c3eef0ad0","system_id":"levelo_inurba_marseille","lat":43.30137,"lon":5.43129,"is_reserved":false,"is_disabled":false,"rental_uris":{"android":"levelo://app?vid=18d1a03c-71f9-47bc-804b-7e0c3eef0ad0","ios":"levelo://app?vid=18d1a03c-71f9-47bc-804b-7e0c3eef0ad0"},"vehicle_type_id":"4","last_reported":1770074281,"current_range_meters":9200,"station_id":"st_d3js3co5814s73ftftug","pricing_plan_id":"cebpf4jnsgd1na2vs0mg"},{"bike_id":"bcbaa8a6-886f-4091-ae26-8ec7b68ef274","system_id":"levelo_inurba_marseille","lat":43.23798,"lon":5.36634,"is_reserved":false,"is_disabled":false,"rental_uris":{"android":"levelo://app?vid=bcbaa8a6-886f-4091-ae26-8ec7b68ef274","ios":"levelo://app?vid=bcbaa8a6-886f-4091-ae26-8ec7b68ef274"},"vehicle_type_id":"4","last_reported":1770074281,"current_range_meters":9200,"station_id":"st_d3nk18o9ro0c73en2l3g","pricing_plan_id":"cebpf4jnsgd1na2vs0mg"},{"bike_id":"5b3811ef-5681-4c18-aac4-a62920f9a85c","system_id":"levelo_inurba_marseille","lat":43.28483,"lon":5.51487,"is_reserved":false,"is_disabled":false,"rental_uris":{"android":"levelo://app?vid=5b3811ef-5681-4c18-aac4-a62920f9a85c","ios":"levelo://app?vid=5b3811ef-5681-4c18-aac4-a62920f9a85c"},"vehicle_type_id":"4","last_reported":1770074281,"current_range_meters":9200,"station_id":"","pricing_plan_id":"cebpf4jnsgd1na2vs0mg"},{"bike_id":"1bff195f-878b-4a6e-8675-61979ef9dcf7","system_id":"levelo_inurba_marseille","lat":43.23206,"lon":5.3555,"is_reserved":false,"is_disabled":false,"rental_uris":{"android":"levelo://app?vid=1bff195f-878b-4a6e-8675-61979ef9dcf7","ios":"levelo://app?vid=1bff195f-878b-4a6e-8675-61979ef9dcf7"},"vehicle_type_id":"4","last_reported":1770074281,"current_range_meters":9200,"station_id":"ce4bhu92rcd13ifvqi70","pricing_plan_id":"cebpf4jnsgd1na2vs0mg"},{"bike_id":"11ce3852-2c52-44a1-ae2a-a6687fe91ff5","system_id":"levelo_inurba_marseille","lat":43.29558,"lon":5.39966,"is_reserved":false,"is_disabled":false,"rental_uris":{"android":"levelo://app?vid=11ce3852-2c52-44a1-ae2a-a6687fe91ff5","ios":"levelo://app?vid=11ce3852-2c52-44a1-ae2a-a6687fe91ff5"},"vehicle_type_id":"4","last_reported":1770074281,"current_range_meters":9200,"station_id":"ce4bh312rcd13ifvqdj0","pricing_plan_id":"cebpf4jnsgd1na2vs0mg"},{"bike_id":"6648b726-248a-4235-8962-e02d3f57c3f3","system_id":"levelo_inurba_marseille","lat":43.25015,"lon":5.3894,"is_reserved":false,"is_disabled":false,"rental_uris":{"android":"levelo://app?vid=6648b726-248a-4235-8962-e02d3f57c3f3","ios":"levelo://app?vid=6648b726-248a-4235-8962-e02d3f57c3f3"},"vehicle_type_id":"4","last_reported":1770074281,"current_range_meters":9200,"station_id":"ce4bhgp2rcd13ifvqfd0","pricing_plan_id":"cebpf4jnsgd1na2vs0mg"},{"bike_id":"7409e760-85b4-4fbe-9ac1-c71657f4de83","system_id":"levelo_inurba_marseille","lat":43.25021,"lon":5.38951,"is_reserved":false,"is_disabled":false,"rental_uris":{"android":"levelo://app?vid=7409e760-85b4-4fbe-9ac1-c71657f4de83","ios":"levelo://app?vid=7409e760-85b4-4fbe-9ac1-c71657f4de83"},"vehicle_type_id":"4","last_reported":1770074281,"current_range_meters":9200,"station_id":"ce4bhgp2rcd13ifvqfd0","pricing_plan_id":"cebpf4jnsgd1na2vs0mg"},{"bike_id":"c04d02e9-4522-4664-80d1-72f19e30f66b","system_id":"levelo_inurba_marseille","lat":43.25303,"lon":5.38598,"is_reserved":false,"is_disabled":false,"rental_uris":{"android":"levelo://app?vid=c04d02e9-4522-4664-80d1-72f19e30f66b","ios":"levelo://app?vid=c04d02e9-4522-4664-80d1-72f19e30f66b"},"vehicle_type_id":"4","last_reported":1770074281,"current_range_meters":9200,"station_id":"","pricing_plan_id":"cebpf4jnsgd1na2vs0mg"},{"bike_id":"105bfbdd-2a4c-4255-bcc2-6dcbd4ccd07a","system_id":"levelo_inurba_marseille","lat":43.27814,"lon":5.407151,"is_reserved":false,"is_disabled":false,"rental_uris":{"android":"levelo://app?vid=105bfbdd-2a4c-4255-bcc2-6dcbd4ccd07a","ios":"levelo://app?vid=105bfbdd-2a4c-4255-bcc2-6dcbd4ccd07a"},"vehicle_type_id":"4","last_reported":1770074281,"current_range_meters":9600,"station_id":"ce4bhnh2rcd13ifvqgtg","pricing_plan_id":"cebpf4jnsgd1na2vs0mg"},{"bike_id":"cc7be9e8-a1a0-4f68-8d42-c70d6cdd5d6b","system_id":"levelo_inurba_marseille","lat":43.29564,"lon":5.42287,"is_reserved":false,"is_disabled":false,"rental_uris":{"android":"levelo://app?vid=cc7be9e8-a1a0-4f68-8d42-c70d6cdd5d6b","ios":"levelo://app?vid=cc7be9e8-a1a0-4f68-8d42-c70d6cdd5d6b"},"vehicle_type_id":"4","last_reported":1770074281,"current_range_meters":9600,"station_id":"ce4bhph2rcd13ifvqhdg","pricing_plan_id":"cebpf4jnsgd1na2vs0mg"},{"bike_id":"9d0f3991-1256-474f-b1e5-fa83df22d0e8","system_id":"levelo_inurba_marseille","lat":43.29514,"lon":5.39032,"is_reserved":false,"is_disabled":false,"rental_uris":{"android":"levelo://app?vid=9d0f3991-1256-474f-b1e5-fa83df22d0e8","ios":"levelo://app?vid=9d0f3991-1256-474f-b1e5-fa83df22d0e8"},"vehicle_type_id":"4","last_reported":1770074281,"current_range_meters":9600,"station_id":"ce4bh3p2rcd13ifvqdp0","pricing_plan_id":"cebpf4jnsgd1na2vs0mg"},{"bike_id":"2a4b1fe4-a25a-4b96-836e-4e315ea3e534","system_id":"levelo_inurba_marseille","lat":43.26141,"lon":5.40509,"is_reserved":false,"is_disabled":false,"rental_uris":{"android":"levelo://app?vid=2a4b1fe4-a25a-4b96-836e-4e315ea3e534","ios":"levelo://app?vid=2a4b1fe4-a25a-4b96-836e-4e315ea3e534"},"vehicle_type_id":"4","last_reported":1770074281,"current_range_meters":9600,"station_id":"ce4bhmh2rcd13ifvqgmg","pricing_plan_id":"cebpf4jnsgd1na2vs0mg"},{"bike_id":"0a1a4fac-a633-40a5-b071-9c8ca90e85c5","system_id":"levelo_inurba_marseille","lat":43.29061,"lon":5.37154,"is_reserved":false,"is_disabled":false,"rental_uris":{"android":"levelo://app?vid=0a1a4fac-a633-40a5-b071-9c8ca90e85c5","ios":"levelo://app?vid=0a1a4fac-a633-40a5-b071-9c8ca90e85c5"},"vehicle_type_id":"4","last_reported":1770074281,"current_range_meters":9600,"station_id":"ce4bh5p2rcd13ifvqe4g","pricing_plan_id":"cebpf4jnsgd1na2vs0mg"},{"bike_id":"229f0c22-55cc-4782-9b6c-897102ca3bf9","system_id":"levelo_inurba_marseille","lat":43.30943,"lon":5.40131,"is_reserved":false,"is_disabled":false,"rental_uris":{"android":"levelo://app?vid=229f0c22-55cc-4782-9b6c-897102ca3bf9","ios":"levelo://app?vid=229f0c22-55cc-4782-9b6c-897102ca3bf9"},"vehicle_type_id":"4","last_reported":1770074281,"current_range_meters":9600,"station_id":"ce4bgvp2rcd13ifvqct0","pricing_plan_id":"cebpf4jnsgd1na2vs0mg"},{"bike_id":"fd5b251f-5bd8-4767-835c-7db4522a5091","system_id":"levelo_inurba_marseille","lat":43.30893,"lon":5.39632,"is_reserved":false,"is_disabled":false,"rental_uris":{"android":"levelo://app?vid=fd5b251f-5bd8-4767-835c-7db4522a5091","ios":"levelo://app?vid=fd5b251f-5bd8-4767-835c-7db4522a5091"},"vehicle_type_id":"4","last_reported":1770074281,"current_range_meters":9600,"station_id":"ce4bh012rcd13ifvqcv0","pricing_plan_id":"cebpf4jnsgd1na2vs0mg"},{"bike_id":"1e18de4d-43f8-4d9b-8e22-41974ddf36d0","system_id":"levelo_inurba_marseille","lat":43.33534,"lon":5.3747,"is_reserved":false,"is_disabled":false,"rental_uris":{"android":"levelo://app?vid=1e18de4d-43f8-4d9b-8e22-41974ddf36d0","ios":"levelo://app?vid=1e18de4d-43f8-4d9b-8e22-41974ddf36d0"},"vehicle_type_id":"4","last_reported":1770074281,"current_range_meters":9600,"station_id":"st_d46tts09ee8s73dlu43g","pricing_plan_id":"cebpf4jnsgd1na2vs0mg"},{"bike_id":"7bc3df38-9791-4650-8af3-6c26288c972c","system_id":"levelo_inurba_marseille","lat":43.305,"lon":5.39771,"is_reserved":false,"is_disabled":false,"rental_uris":{"android":"levelo://app?vid=7bc3df38-9791-4650-8af3-6c26288c972c","ios":"levelo://app?vid=7bc3df38-9791-4650-8af3-6c26288c972c"},"vehicle_type_id":"4","last_reported":1770074281,"current_range_meters":9600,"station_id":"","pricing_plan_id":"cebpf4jnsgd1na2vs0mg"},{"bike_id":"151047fe-b117-41cf-9416-4f91d0d3c1a9","system_id":"levelo_inurba_marseille","lat":43.31856,"lon":5.36908,"is_reserved":false,"is_disabled":false,"rental_uris":{"android":"levelo://app?vid=151047fe-b117-41cf-9416-4f91d0d3c1a9","ios":"levelo://app?vid=151047fe-b117-41cf-9416-4f91d0d3c1a9"},"vehicle_type_id":"4","last_reported":1770074281,"current_range_meters":10000,"station_id":"","pricing_plan_id":"cebpf4jnsgd1na2vs0mg"},{"bike_id":"90cafb22-43f6-47bb-9e80-c8fa9891709f","system_id":"levelo_inurba_marseille","lat":43.262105,"lon":5.379216,"is_reserved":false,"is_disabled":false,"rental_uris":{"android":"levelo://app?vid=90cafb22-43f6-47bb-9e80-c8fa9891709f","ios":"levelo://app?vid=90cafb22-43f6-47bb-9e80-c8fa9891709f"},"vehicle_type_id":"4","last_reported":1770074281,"current_range_meters":10000,"station_id":"ce4bhjp2rcd13ifvqg90","pricing_plan_id":"cebpf4jnsgd1na2vs0mg"},{"bike_id":"7a3ab416-3169-4a70-9520-aa7a2761d05e","system_id":"levelo_inurba_marseille","lat":43.29782,"lon":5.39342,"is_reserved":false,"is_disabled":false,"rental_uris":{"android":"levelo://app?vid=7a3ab416-3169-4a70-9520-aa7a2761d05e","ios":"levelo://app?vid=7a3ab416-3169-4a70-9520-aa7a2761d05e"},"vehicle_type_id":"4","last_reported":1770074281,"current_range_meters":10000,"station_id":"chh1huq6cuj3fo74tm60","pricing_plan_id":"cebpf4jnsgd1na2vs0mg"},{"bike_id":"f59113ec-0ceb-43dc-9188-4297667cf23d","system_id":"levelo_inurba_marseille","lat":43.22931,"lon":5.35379,"is_reserved":false,"is_disabled":false,"rental_uris":{"android":"levelo://app?vid=f59113ec-0ceb-43dc-9188-4297667cf23d","ios":"levelo://app?vid=f59113ec-0ceb-43dc-9188-4297667cf23d"},"vehicle_type_id":"4","last_reported":1770074281,"current_range_meters":10000,"station_id":"cpo3532slgdg3j2ikp40","pricing_plan_id":"cebpf4jnsgd1na2vs0mg"},{"bike_id":"7f77f6a6-911c-44cf-97f5-71224b3633e0","system_id":"levelo_inurba_marseille","lat":43.25245,"lon":5.38015,"is_reserved":false,"is_disabled":false,"rental_uris":{"android":"levelo://app?vid=7f77f6a6-911c-44cf-97f5-71224b3633e0","ios":"levelo://app?vid=7f77f6a6-911c-44cf-97f5-71224b3633e0"},"vehicle_type_id":"4","last_reported":1770074281,"current_range_meters":10000,"station_id":"","pricing_plan_id":"cebpf4jnsgd1na2vs0mg"},{"bike_id":"ba3390f5-14ed-4160-abcf-8bea19885613","system_id":"levelo_inurba_marseille","lat":43.28462,"lon":5.48395,"is_reserved":false,"is_disabled":false,"rental_uris":{"android":"levelo://app?vid=ba3390f5-14ed-4160-abcf-8bea19885613","ios":"levelo://app?vid=ba3390f5-14ed-4160-abcf-8bea19885613"},"vehicle_type_id":"4","last_reported":1770074281,"current_range_meters":10000,"station_id":"st_d3svhcjqgbts73a3dn0g","pricing_plan_id":"cebpf4jnsgd1na2vs0mg"},{"bike_id":"658d0b20-6292-4d6c-85b2-b3938e69fd12","system_id":"levelo_inurba_marseille","lat":43.28266,"lon":5.38577,"is_reserved":false,"is_disabled":false,"rental_uris":{"android":"levelo://app?vid=658d0b20-6292-4d6c-85b2-b3938e69fd12","ios":"levelo://app?vid=658d0b20-6292-4d6c-85b2-b3938e69fd12"},"vehicle_type_id":"4","last_reported":1770074281,"current_range_meters":10000,"station_id":"","pricing_plan_id":"cebpf4jnsgd1na2vs0mg"},{"bike_id":"454ec198-d273-438b-b7dc-8d61915cb03a","system_id":"levelo_inurba_marseille","lat":43.23144,"lon":5.4371,"is_reserved":false,"is_disabled":false,"rental_uris":{"android":"levelo://app?vid=454ec198-d273-438b-b7dc-8d61915cb03a","ios":"levelo://app?vid=454ec198-d273-438b-b7dc-8d61915cb03a"},"vehicle_type_id":"4","last_reported":1770074281,"current_range_meters":10000,"station_id":"ce4bhmp2rcd13ifvqgog","pricing_plan_id":"cebpf4jnsgd1na2vs0mg"},{"bike_id":"530b3fec-7af4-45eb-bf12-cc02b58eae44","system_id":"levelo_inurba_marseille","lat":43.246628,"lon":5.381571,"is_reserved":false,"is_disabled":false,"rental_uris":{"android":"levelo://app?vid=530b3fec-7af4-45eb-bf12-cc02b58eae44","ios":"levelo://app?vid=530b3fec-7af4-45eb-bf12-cc02b58eae44"},"vehicle_type_id":"4","last_reported":1770074281,"current_range_meters":10000,"station_id":"ce4bhih2rcd13ifvqfr0","pricing_plan_id":"cebpf4jnsgd1na2vs0mg"},{"bike_id":"b886faeb-2ae5-4849-a4c7-c906741f8bf1","system_id":"levelo_inurba_marseille","lat":43.26568,"lon":5.40322,"is_reserved":false,"is_disabled":false,"rental_uris":{"android":"levelo://app?vid=b886faeb-2ae5-4849-a4c7-c906741f8bf1","ios":"levelo://app?vid=b886faeb-2ae5-4849-a4c7-c906741f8bf1"},"vehicle_type_id":"4","last_reported":1770074281,"current_range_meters":10000,"station_id":"ce4bhmp2rcd13ifvqgng","pricing_plan_id":"cebpf4jnsgd1na2vs0mg"},{"bike_id":"fba83296-cf08-4ba9-8267-d1dc13133a44","system_id":"levelo_inurba_marseille","lat":43.26218,"lon":5.4047,"is_reserved":false,"is_disabled":false,"rental_uris":{"android":"levelo://app?vid=fba83296-cf08-4ba9-8267-d1dc13133a44","ios":"levelo://app?vid=fba83296-cf08-4ba9-8267-d1dc13133a44"},"vehicle_type_id":"4","last_reported":1770074281,"current_range_meters":10000,"station_id":"ce4bhmh2rcd13ifvqgmg","pricing_plan_id":"cebpf4jnsgd1na2vs0mg"},{"bike_id":"444b7964-d637-4bc2-bbcf-ca0cd5725763","system_id":"levelo_inurba_marseille","lat":43.27314,"lon":5.39123,"is_reserved":false,"is_disabled":true,"rental_uris":{"android":"levelo://app?vid=444b7964-d637-4bc2-bbcf-ca0cd5725763","ios":"levelo://app?vid=444b7964-d637-4bc2-bbcf-ca0cd5725763"},"vehicle_type_id":"4","last_reported":1770074281,"current_range_meters":10000,"station_id":"ce4bhgp2rcd13ifvqfe0","pricing_plan_id":"cebpf4jnsgd1na2vs0mg"},{"bike_id":"53ffb5c2-3e2a-4a17-b03a-29d28fb95024","system_id":"levelo_inurba_marseille","lat":43.29892,"lon":5.43668,"is_reserved":false,"is_disabled":false,"rental_uris":{"android":"levelo://app?vid=53ffb5c2-3e2a-4a17-b03a-29d28fb95024","ios":"levelo://app?vid=53ffb5c2-3e2a-4a17-b03a-29d28fb95024"},"vehicle_type_id":"4","last_reported":1770074281,"current_range_meters":10000,"station_id":"ce4bhpp2rcd13ifvqhfg","pricing_plan_id":"cebpf4jnsgd1na2vs0mg"},{"bike_id":"472dd500-7ce2-4ab2-9541-63aa135c9dab","system_id":"levelo_inurba_marseille","lat":43.2892,"lon":5.38398,"is_reserved":false,"is_disabled":false,"rental_uris":{"android":"levelo://app?vid=472dd500-7ce2-4ab2-9541-63aa135c9dab","ios":"levelo://app?vid=472dd500-7ce2-4ab2-9541-63aa135c9dab"},"vehicle_type_id":"4","last_reported":1770074281,"current_range_meters":10000,"station_id":"ce4bh612rcd13ifvqe6g","pricing_plan_id":"cebpf4jnsgd1na2vs0mg"},{"bike_id":"98fce53e-2f71-43cb-b9de-a1e78e7dc72e","system_id":"levelo_inurba_marseille","lat":43.2319,"lon":5.39994,"is_reserved":false,"is_disabled":false,"rental_uris":{"android":"levelo://app?vid=98fce53e-2f71-43cb-b9de-a1e78e7dc72e","ios":"levelo://app?vid=98fce53e-2f71-43cb-b9de-a1e78e7dc72e"},"vehicle_type_id":"4","last_reported":1770074281,"current_range_meters":10800,"station_id":"ce4bhn12rcd13ifvqgqg","pricing_plan_id":"cebpf4jnsgd1na2vs0mg"},{"bike_id":"242256f5-f0bd-4204-9565-2087ceacdda5","system_id":"levelo_inurba_marseille","lat":43.2255,"lon":5.41655,"is_reserved":false,"is_disabled":false,"rental_uris":{"android":"levelo://app?vid=242256f5-f0bd-4204-9565-2087ceacdda5","ios":"levelo://app?vid=242256f5-f0bd-4204-9565-2087ceacdda5"},"vehicle_type_id":"4","last_reported":1770074281,"current_range_meters":10800,"station_id":"st_d2o4gvlbi1j2169b742g","pricing_plan_id":"cebpf4jnsgd1na2vs0mg"},{"bike_id":"d8713cd3-8269-4863-9601-8c0f629eacef","system_id":"levelo_inurba_marseille","lat":43.24693,"lon":5.38146,"is_reserved":false,"is_disabled":false,"rental_uris":{"android":"levelo://app?vid=d8713cd3-8269-4863-9601-8c0f629eacef","ios":"levelo://app?vid=d8713cd3-8269-4863-9601-8c0f629eacef"},"vehicle_type_id":"4","last_reported":1770074281,"current_range_meters":10800,"station_id":"ce4bhih2rcd13ifvqfr0","pricing_plan_id":"cebpf4jnsgd1na2vs0mg"},{"bike_id":"c4e10906-6463-414c-9928-65ddc65de4aa","system_id":"levelo_inurba_marseille","lat":43.295043,"lon":5.43309,"is_reserved":false,"is_disabled":false,"rental_uris":{"android":"levelo://app?vid=c4e10906-6463-414c-9928-65ddc65de4aa","ios":"levelo://app?vid=c4e10906-6463-414c-9928-65ddc65de4aa"},"vehicle_type_id":"4","last_reported":1770074281,"current_range_meters":10800,"station_id":"st_d3j5ugp08ojc73fj9d10","pricing_plan_id":"cebpf4jnsgd1na2vs0mg"},{"bike_id":"ef30bb24-f45f-400c-9967-a2a3b2da1488","system_id":"levelo_inurba_marseille","lat":43.28275,"lon":5.3944,"is_reserved":false,"is_disabled":false,"rental_uris":{"android":"levelo://app?vid=ef30bb24-f45f-400c-9967-a2a3b2da1488","ios":"levelo://app?vid=ef30bb24-f45f-400c-9967-a2a3b2da1488"},"vehicle_type_id":"4","last_reported":1770074281,"current_range_meters":10800,"station_id":"","pricing_plan_id":"cebpf4jnsgd1na2vs0mg"},{"bike_id":"128c25e0-a9f7-4b25-a528-c9d67b1546c5","system_id":"levelo_inurba_marseille","lat":43.2407,"lon":5.37762,"is_reserved":false,"is_disabled":false,"rental_uris":{"android":"levelo://app?vid=128c25e0-a9f7-4b25-a528-c9d67b1546c5","ios":"levelo://app?vid=128c25e0-a9f7-4b25-a528-c9d67b1546c5"},"vehicle_type_id":"4","last_reported":1770074281,"current_range_meters":10800,"station_id":"ce4bhnp2rcd13ifvqgvg","pricing_plan_id":"cebpf4jnsgd1na2vs0mg"},{"bike_id":"4c7f8a28-857e-4592-bbe1-acfc605592d3","system_id":"levelo_inurba_marseille","lat":43.29228,"lon":5.42519,"is_reserved":false,"is_disabled":false,"rental_uris":{"android":"levelo://app?vid=4c7f8a28-857e-4592-bbe1-acfc605592d3","ios":"levelo://app?vid=4c7f8a28-857e-4592-bbe1-acfc605592d3"},"vehicle_type_id":"4","last_reported":1770074281,"current_range_meters":10800,"station_id":"","pricing_plan_id":"cebpf4jnsgd1na2vs0mg"},{"bike_id":"ccad5bb8-727e-4e27-b0cc-7b2f496ea109","system_id":"levelo_inurba_marseille","lat":43.29539,"lon":5.42291,"is_reserved":false,"is_disabled":false,"rental_uris":{"android":"levelo://app?vid=ccad5bb8-727e-4e27-b0cc-7b2f496ea109","ios":"levelo://app?vid=ccad5bb8-727e-4e27-b0cc-7b2f496ea109"},"vehicle_type_id":"4","last_reported":1770074281,"current_range_meters":10800,"station_id":"ce4bhph2rcd13ifvqhdg","pricing_plan_id":"cebpf4jnsgd1na2vs0mg"},{"bike_id":"43b4dd52-5f40-488a-8ef1-ee614ae1c61c","system_id":"levelo_inurba_marseille","lat":43.33614,"lon":5.4104,"is_reserved":false,"is_disabled":false,"rental_uris":{"android":"levelo://app?vid=43b4dd52-5f40-488a-8ef1-ee614ae1c61c","ios":"levelo://app?vid=43b4dd52-5f40-488a-8ef1-ee614ae1c61c"},"vehicle_type_id":"4","last_reported":1770074281,"current_range_meters":10800,"station_id":"ce4bhqh2rcd13ifvqhmg","pricing_plan_id":"cebpf4jnsgd1na2vs0mg"},{"bike_id":"48e6a380-1b10-4d2d-9ede-7bbb54f811d8","system_id":"levelo_inurba_marseille","lat":43.302362,"lon":5.400243,"is_reserved":false,"is_disabled":false,"rental_uris":{"android":"levelo://app?vid=48e6a380-1b10-4d2d-9ede-7bbb54f811d8","ios":"levelo://app?vid=48e6a380-1b10-4d2d-9ede-7bbb54f811d8"},"vehicle_type_id":"4","last_reported":1770074281,"current_range_meters":10800,"station_id":"ce4bh612rcd13ifvqe6g","pricing_plan_id":"cebpf4jnsgd1na2vs0mg"},{"bike_id":"5396fda1-c3a0-4d51-8ba0-cfe497a166d7","system_id":"levelo_inurba_marseille","lat":43.26557,"lon":5.38986,"is_reserved":false,"is_disabled":false,"rental_uris":{"android":"levelo://app?vid=5396fda1-c3a0-4d51-8ba0-cfe497a166d7","ios":"levelo://app?vid=5396fda1-c3a0-4d51-8ba0-cfe497a166d7"},"vehicle_type_id":"4","last_reported":1770074281,"current_range_meters":10800,"station_id":"ce4bhe12rcd13ifvqf30","pricing_plan_id":"cebpf4jnsgd1na2vs0mg"},{"bike_id":"5ffc162c-3876-4a49-af02-3661f44effbb","system_id":"levelo_inurba_marseille","lat":43.28474,"lon":5.48399,"is_reserved":false,"is_disabled":false,"rental_uris":{"android":"levelo://app?vid=5ffc162c-3876-4a49-af02-3661f44effbb","ios":"levelo://app?vid=5ffc162c-3876-4a49-af02-3661f44effbb"},"vehicle_type_id":"4","last_reported":1770074281,"current_range_meters":10800,"station_id":"st_d3svhcjqgbts73a3dn0g","pricing_plan_id":"cebpf4jnsgd1na2vs0mg"},{"bike_id":"8e312380-e745-433d-90b9-ff07a309073d","system_id":"levelo_inurba_marseille","lat":43.24799,"lon":5.37456,"is_reserved":false,"is_disabled":false,"rental_uris":{"android":"levelo://app?vid=8e312380-e745-433d-90b9-ff07a309073d","ios":"levelo://app?vid=8e312380-e745-433d-90b9-ff07a309073d"},"vehicle_type_id":"4","last_reported":1770074281,"current_range_meters":11200,"station_id":"ce4bhgh2rcd13ifvqfb0","pricing_plan_id":"cebpf4jnsgd1na2vs0mg"},{"bike_id":"5d99751a-fe2a-4574-bfe2-fc1ebdb20e65","system_id":"levelo_inurba_marseille","lat":43.27633,"lon":5.38868,"is_reserved":false,"is_disabled":false,"rental_uris":{"android":"levelo://app?vid=5d99751a-fe2a-4574-bfe2-fc1ebdb20e65","ios":"levelo://app?vid=5d99751a-fe2a-4574-bfe2-fc1ebdb20e65"},"vehicle_type_id":"4","last_reported":1770074281,"current_range_meters":11200,"station_id":"ce4bhi12rcd13ifvqfo0","pricing_plan_id":"cebpf4jnsgd1na2vs0mg"},{"bike_id":"5892fc85-7848-4ac6-9041-3115ffbc60b4","system_id":"levelo_inurba_marseille","lat":43.24682,"lon":5.38139,"is_reserved":false,"is_disabled":false,"rental_uris":{"android":"levelo://app?vid=5892fc85-7848-4ac6-9041-3115ffbc60b4","ios":"levelo://app?vid=5892fc85-7848-4ac6-9041-3115ffbc60b4"},"vehicle_type_id":"4","last_reported":1770074281,"current_range_meters":11200,"station_id":"ce4bhih2rcd13ifvqfr0","pricing_plan_id":"cebpf4jnsgd1na2vs0mg"},{"bike_id":"5d2a7df9-4ddf-4885-8075-b7755ef05fb8","system_id":"levelo_inurba_marseille","lat":43.23034,"lon":5.402896,"is_reserved":false,"is_disabled":false,"rental_uris":{"android":"levelo://app?vid=5d2a7df9-4ddf-4885-8075-b7755ef05fb8","ios":"levelo://app?vid=5d2a7df9-4ddf-4885-8075-b7755ef05fb8"},"vehicle_type_id":"4","last_reported":1770074281,"current_range_meters":11200,"station_id":"","pricing_plan_id":"cebpf4jnsgd1na2vs0mg"},{"bike_id":"1e8e9674-1c9d-4b4a-8906-b7f2a758e267","system_id":"levelo_inurba_marseille","lat":43.279538,"lon":5.410456,"is_reserved":false,"is_disabled":false,"rental_uris":{"android":"levelo://app?vid=1e8e9674-1c9d-4b4a-8906-b7f2a758e267","ios":"levelo://app?vid=1e8e9674-1c9d-4b4a-8906-b7f2a758e267"},"vehicle_type_id":"4","last_reported":1770074281,"current_range_meters":11200,"station_id":"ce4bhnp2rcd13ifvqh0g","pricing_plan_id":"cebpf4jnsgd1na2vs0mg"},{"bike_id":"15b7d625-95d6-48b2-bd3c-37b6ba529106","system_id":"levelo_inurba_marseille","lat":43.29534,"lon":5.38539,"is_reserved":false,"is_disabled":false,"rental_uris":{"android":"levelo://app?vid=15b7d625-95d6-48b2-bd3c-37b6ba529106","ios":"levelo://app?vid=15b7d625-95d6-48b2-bd3c-37b6ba529106"},"vehicle_type_id":"4","last_reported":1770074281,"current_range_meters":11200,"station_id":"ce4bgih2rcd13ifvqba0","pricing_plan_id":"cebpf4jnsgd1na2vs0mg"},{"bike_id":"ad5f37b2-1697-403a-ad52-0873e7f385a2","system_id":"levelo_inurba_marseille","lat":43.28862,"lon":5.42515,"is_reserved":false,"is_disabled":false,"rental_uris":{"android":"levelo://app?vid=ad5f37b2-1697-403a-ad52-0873e7f385a2","ios":"levelo://app?vid=ad5f37b2-1697-403a-ad52-0873e7f385a2"},"vehicle_type_id":"4","last_reported":1770074281,"current_range_meters":11200,"station_id":"st_d3b462108ojc7389ooeg","pricing_plan_id":"cebpf4jnsgd1na2vs0mg"},{"bike_id":"a5eda67a-1af7-4789-9b16-aa7217c90cd3","system_id":"levelo_inurba_marseille","lat":43.23713,"lon":5.40156,"is_reserved":false,"is_disabled":false,"rental_uris":{"android":"levelo://app?vid=a5eda67a-1af7-4789-9b16-aa7217c90cd3","ios":"levelo://app?vid=a5eda67a-1af7-4789-9b16-aa7217c90cd3"},"vehicle_type_id":"4","last_reported":1770074281,"current_range_meters":11200,"station_id":"","pricing_plan_id":"cebpf4jnsgd1na2vs0mg"},{"bike_id":"ba4985de-a6c4-4691-a8fe-1342759bda21","system_id":"levelo_inurba_marseille","lat":43.28261,"lon":5.35074,"is_reserved":false,"is_disabled":false,"rental_uris":{"android":"levelo://app?vid=ba4985de-a6c4-4691-a8fe-1342759bda21","ios":"levelo://app?vid=ba4985de-a6c4-4691-a8fe-1342759bda21"},"vehicle_type_id":"4","last_reported":1770074281,"current_range_meters":11200,"station_id":"ce4bhbp2rcd13ifvqerg","pricing_plan_id":"cebpf4jnsgd1na2vs0mg"},{"bike_id":"1a8cbd53-f3cd-463e-8c24-fde20404b7ee","system_id":"levelo_inurba_marseille","lat":43.25569,"lon":5.38239,"is_reserved":false,"is_disabled":false,"rental_uris":{"android":"levelo://app?vid=1a8cbd53-f3cd-463e-8c24-fde20404b7ee","ios":"levelo://app?vid=1a8cbd53-f3cd-463e-8c24-fde20404b7ee"},"vehicle_type_id":"4","last_reported":1770074281,"current_range_meters":11200,"station_id":"ce4bhih2rcd13ifvqfs0","pricing_plan_id":"cebpf4jnsgd1na2vs0mg"},{"bike_id":"da4d19a5-63fa-471e-bc87-bb23db14643b","system_id":"levelo_inurba_marseille","lat":43.29556,"lon":5.42516,"is_reserved":false,"is_disabled":false,"rental_uris":{"android":"levelo://app?vid=da4d19a5-63fa-471e-bc87-bb23db14643b","ios":"levelo://app?vid=da4d19a5-63fa-471e-bc87-bb23db14643b"},"vehicle_type_id":"4","last_reported":1770074281,"current_range_meters":11200,"station_id":"","pricing_plan_id":"cebpf4jnsgd1na2vs0mg"},{"bike_id":"d22adb9e-061f-4392-a075-7f9038f2bb80","system_id":"levelo_inurba_marseille","lat":43.291947,"lon":5.393267,"is_reserved":false,"is_disabled":false,"rental_uris":{"android":"levelo://app?vid=d22adb9e-061f-4392-a075-7f9038f2bb80","ios":"levelo://app?vid=d22adb9e-061f-4392-a075-7f9038f2bb80"},"vehicle_type_id":"4","last_reported":1770074281,"current_range_meters":11200,"station_id":"ce4bh192rcd13ifvqdd0","pricing_plan_id":"cebpf4jnsgd1na2vs0mg"},{"bike_id":"b3a54eab-b946-460c-8d1b-dbc0ce5bc3c5","system_id":"levelo_inurba_marseille","lat":43.28155,"lon":5.42648,"is_reserved":false,"is_disabled":false,"rental_uris":{"android":"levelo://app?vid=b3a54eab-b946-460c-8d1b-dbc0ce5bc3c5","ios":"levelo://app?vid=b3a54eab-b946-460c-8d1b-dbc0ce5bc3c5"},"vehicle_type_id":"4","last_reported":1770074281,"current_range_meters":11200,"station_id":"ce4bhnh2rcd13ifvqgug","pricing_plan_id":"cebpf4jnsgd1na2vs0mg"},{"bike_id":"41efee0d-caa2-45b0-863d-489d81dde529","system_id":"levelo_inurba_marseille","lat":43.28537,"lon":5.44091,"is_reserved":false,"is_disabled":false,"rental_uris":{"android":"levelo://app?vid=41efee0d-caa2-45b0-863d-489d81dde529","ios":"levelo://app?vid=41efee0d-caa2-45b0-863d-489d81dde529"},"vehicle_type_id":"4","last_reported":1770074281,"current_range_meters":11200,"station_id":"st_d3j3df2ikq2c7380ej80","pricing_plan_id":"cebpf4jnsgd1na2vs0mg"},{"bike_id":"364883e5-5bab-413b-9d9d-162730d9f009","system_id":"levelo_inurba_marseille","lat":43.29769,"lon":5.42785,"is_reserved":false,"is_disabled":false,"rental_uris":{"android":"levelo://app?vid=364883e5-5bab-413b-9d9d-162730d9f009","ios":"levelo://app?vid=364883e5-5bab-413b-9d9d-162730d9f009"},"vehicle_type_id":"4","last_reported":1770074281,"current_range_meters":11600,"station_id":"st_d3md5207bmas73dh9klg","pricing_plan_id":"cebpf4jnsgd1na2vs0mg"},{"bike_id":"24598f8c-3e3f-4bcd-a668-2fe8949329c1","system_id":"levelo_inurba_marseille","lat":43.30725,"lon":5.42451,"is_reserved":false,"is_disabled":false,"rental_uris":{"android":"levelo://app?vid=24598f8c-3e3f-4bcd-a668-2fe8949329c1","ios":"levelo://app?vid=24598f8c-3e3f-4bcd-a668-2fe8949329c1"},"vehicle_type_id":"4","last_reported":1770074281,"current_range_meters":11600,"station_id":"st_cvj6ca6bvosntc0bfgr0","pricing_plan_id":"cebpf4jnsgd1na2vs0mg"},{"bike_id":"2c3840aa-2138-4e4d-964e-399ef9e41f22","system_id":"levelo_inurba_marseille","lat":43.26221,"lon":5.40402,"is_reserved":false,"is_disabled":false,"rental_uris":{"android":"levelo://app?vid=2c3840aa-2138-4e4d-964e-399ef9e41f22","ios":"levelo://app?vid=2c3840aa-2138-4e4d-964e-399ef9e41f22"},"vehicle_type_id":"4","last_reported":1770074281,"current_range_meters":11600,"station_id":"ce4bhmh2rcd13ifvqgmg","pricing_plan_id":"cebpf4jnsgd1na2vs0mg"},{"bike_id":"819bbb49-1fb2-45d8-a99d-98aa00328543","system_id":"levelo_inurba_marseille","lat":43.28565,"lon":5.39492,"is_reserved":false,"is_disabled":false,"rental_uris":{"android":"levelo://app?vid=819bbb49-1fb2-45d8-a99d-98aa00328543","ios":"levelo://app?vid=819bbb49-1fb2-45d8-a99d-98aa00328543"},"vehicle_type_id":"4","last_reported":1770074281,"current_range_meters":11600,"station_id":"ce4bh292rcd13ifvqdg0","pricing_plan_id":"cebpf4jnsgd1na2vs0mg"},{"bike_id":"b1b136af-2ce9-4698-ac70-e70f43b67f71","system_id":"levelo_inurba_marseille","lat":43.284664,"lon":5.358903,"is_reserved":false,"is_disabled":false,"rental_uris":{"android":"levelo://app?vid=b1b136af-2ce9-4698-ac70-e70f43b67f71","ios":"levelo://app?vid=b1b136af-2ce9-4698-ac70-e70f43b67f71"},"vehicle_type_id":"4","last_reported":1770074281,"current_range_meters":11600,"station_id":"ce4bhah2rcd13ifvqei0","pricing_plan_id":"cebpf4jnsgd1na2vs0mg"},{"bike_id":"445d7913-d880-4bb1-8e9b-096490264e1a","system_id":"levelo_inurba_marseille","lat":43.298494,"lon":5.381011,"is_reserved":false,"is_disabled":false,"rental_uris":{"android":"levelo://app?vid=445d7913-d880-4bb1-8e9b-096490264e1a","ios":"levelo://app?vid=445d7913-d880-4bb1-8e9b-096490264e1a"},"vehicle_type_id":"4","last_reported":1770074281,"current_range_meters":11600,"station_id":"","pricing_plan_id":"cebpf4jnsgd1na2vs0mg"},{"bike_id":"712b2105-12ab-4b36-9f42-9da37842b22b","system_id":"levelo_inurba_marseille","lat":43.30497,"lon":5.4117,"is_reserved":false,"is_disabled":false,"rental_uris":{"android":"levelo://app?vid=712b2105-12ab-4b36-9f42-9da37842b22b","ios":"levelo://app?vid=712b2105-12ab-4b36-9f42-9da37842b22b"},"vehicle_type_id":"4","last_reported":1770074281,"current_range_meters":11600,"station_id":"","pricing_plan_id":"cebpf4jnsgd1na2vs0mg"},{"bike_id":"9938f033-6d9c-45e5-a193-c3be61ccbca0","system_id":"levelo_inurba_marseille","lat":43.26482,"lon":5.39575,"is_reserved":false,"is_disabled":false,"rental_uris":{"android":"levelo://app?vid=9938f033-6d9c-45e5-a193-c3be61ccbca0","ios":"levelo://app?vid=9938f033-6d9c-45e5-a193-c3be61ccbca0"},"vehicle_type_id":"4","last_reported":1770074281,"current_range_meters":11600,"station_id":"ce4bhi12rcd13ifvqfq0","pricing_plan_id":"cebpf4jnsgd1na2vs0mg"},{"bike_id":"d816c230-753b-427e-ba21-d87ce2d24807","system_id":"levelo_inurba_marseille","lat":43.27829,"lon":5.40654,"is_reserved":false,"is_disabled":false,"rental_uris":{"android":"levelo://app?vid=d816c230-753b-427e-ba21-d87ce2d24807","ios":"levelo://app?vid=d816c230-753b-427e-ba21-d87ce2d24807"},"vehicle_type_id":"4","last_reported":1770074281,"current_range_meters":11600,"station_id":"","pricing_plan_id":"cebpf4jnsgd1na2vs0mg"},{"bike_id":"3afa3bf7-a924-41ff-b30b-de57271f87f3","system_id":"levelo_inurba_marseille","lat":43.28617,"lon":5.37057,"is_reserved":false,"is_disabled":false,"rental_uris":{"android":"levelo://app?vid=3afa3bf7-a924-41ff-b30b-de57271f87f3","ios":"levelo://app?vid=3afa3bf7-a924-41ff-b30b-de57271f87f3"},"vehicle_type_id":"4","last_reported":1770074281,"current_range_meters":11600,"station_id":"ce4bht12rcd13ifvqi60","pricing_plan_id":"cebpf4jnsgd1na2vs0mg"},{"bike_id":"4c0efd40-d526-45af-bb46-8569235d2235","system_id":"levelo_inurba_marseille","lat":43.28263,"lon":5.3507,"is_reserved":false,"is_disabled":false,"rental_uris":{"android":"levelo://app?vid=4c0efd40-d526-45af-bb46-8569235d2235","ios":"levelo://app?vid=4c0efd40-d526-45af-bb46-8569235d2235"},"vehicle_type_id":"4","last_reported":1770074281,"current_range_meters":11600,"station_id":"ce4bhbp2rcd13ifvqerg","pricing_plan_id":"cebpf4jnsgd1na2vs0mg"},{"bike_id":"e9d17197-82d0-47de-8e3a-b8b3ca9f1a5a","system_id":"levelo_inurba_marseille","lat":43.24655,"lon":5.38159,"is_reserved":false,"is_disabled":false,"rental_uris":{"android":"levelo://app?vid=e9d17197-82d0-47de-8e3a-b8b3ca9f1a5a","ios":"levelo://app?vid=e9d17197-82d0-47de-8e3a-b8b3ca9f1a5a"},"vehicle_type_id":"4","last_reported":1770074281,"current_range_meters":11600,"station_id":"ce4bhih2rcd13ifvqfr0","pricing_plan_id":"cebpf4jnsgd1na2vs0mg"},{"bike_id":"400e1065-c764-47f1-8d66-0ec68fdc82cc","system_id":"levelo_inurba_marseille","lat":43.27843,"lon":5.39188,"is_reserved":false,"is_disabled":false,"rental_uris":{"android":"levelo://app?vid=400e1065-c764-47f1-8d66-0ec68fdc82cc","ios":"levelo://app?vid=400e1065-c764-47f1-8d66-0ec68fdc82cc"},"vehicle_type_id":"4","last_reported":1770074281,"current_range_meters":11600,"station_id":"ce4bhjp2rcd13ifvqga0","pricing_plan_id":"cebpf4jnsgd1na2vs0mg"},