{"last_updated":1712643012,"ttl":30,"version":"2.2","data":{"bikes":[{"bike_id":"aab8413e-6516-4965-888b-e9a1d60ad7c8","system_id":"levelo_inurba_marseille","lat":43.313391,"lon":5.36706,"is_reserved":false,"is_disabled":false,"rental_uris":{"android":"levelo://app?vid=aab8413e-6516-4965-888b-e9a1d60ad7c8","ios":"levelo://app?vid=aab8413e-6516-4965-888b-e9a1d60ad7c8"},"vehicle_type_id":"4","last_reported":1712643012,"current_range_meters":10800,"station_id":"ce4bgr92rcd13ifvqc6g","pricing_plan_id":"cebpf4jnsgd1na2vs0mg"},{"bike_id":"d20983e2-1a01-4228-a2ac-5e8fa1bc3ea3","system_id":"levelo_inurba_marseille","lat":43.31341,"lon":5.367098,"is_reserved":false,"is_disabled":false,"rental_uris":{"android":"levelo://app?vid=d20983e2-1a01-4228-a2ac-5e8fa1bc3ea3","ios":"levelo://app?vid=d20983e2-1a01-4228-a2ac-5e8fa1bc3ea3"},"vehicle_type_id":"4","last_reported":1712643012,"current_range_meters":22400,"station_id":"ce4bgr92rcd13ifvqc6g","pricing_plan_id":"cebpf4jnsgd1na2vs0mg"},{"bike_id":"77e053e0-ef6b-4b09-bb2d-b45c65809c16","system_id":"levelo_inurba_marseille","lat":43.31341,"lon":5.367098,"is_reserved":false,"is_disabled":false,"rental_uris":{"android":"levelo://app?vid=77e053e0-ef6b-4b09-bb2d-b45c65809c16","ios":"levelo://app?vid=77e053e0-ef6b-4b09-bb2d-b45c65809c16"},"vehicle_type_id":"4","last_reported":1712643012,"current_range_meters":25200,"station_id":"ce4bgr92rcd13ifvqc6g","pricing_plan_id":"cebpf4jnsgd1na2vs0mg"},{"bike_id":"84f3c8f3-0172-47fb-a95f-2fbe76640065","system_id":"levelo_inurba_marseille","lat":43.313391,"lon":5.36706,"is_reserved":false,"is_disabled":false,"rental_uris":{"android":"levelo://app?vid=84f3c8f3-0172-47fb-a95f-2fbe76640065","ios":"levelo://app?vid=84f3c8f3-0172-47fb-a95f-2fbe76640065"},"vehicle_type_id":"4","last_reported":1712643012,"current_range_meters":31600,"station_id":"ce4bgr92rcd13ifvqc6g","pricing_plan_id":"cebpf4jnsgd1na2vs0mg"},{"bike_id":"81f6f4cf-7e93-472a-a903-09da2c7e798d","system_id":"levelo_inurba_marseille","lat":43.313391,"lon":5.36706,"is_reserved":false,"is_disabled":false,"rental_uris":{"android":"levelo://app?vid=81f6f4cf-7e93-472a-a903-09da2c7e798d","ios":"levelo://app?vid=81f6f4cf-7e93-472a-a903-09da2c7e798d"},"vehicle_type_id":"4","last_reported":1712643012,"current_range_meters":21600,"station_id":"ce4bgr92rcd13ifvqc6g","pricing_plan_id":"cebpf4jnsgd1na2vs0mg"},{"bike_id":"96e867f7-5f29-4803-9dd4-79c6dd40d470","system_id":"levelo_inurba_marseille","lat":43.313391,"lon":5.36706,"is_reserved":false,"is_disabled":false,"rental_uris":{"android":"levelo://app?vid=96e867f7-5f29-4803-9dd4-79c6dd40d470","ios":"levelo://app?vid=96e867f7-5f29-4803-9dd4-79c6dd40d470"},"vehicle_type_id":"4","last_reported":1712643012,"current_range_meters":24400,"station_id":"ce4bgr92rcd13ifvqc6g","pricing_plan_id":"cebpf4jnsgd1na2vs0mg"},{"bike_id":"169d4edc-9ae5-46cf-ac60-5329c0584622","system_id":"levelo_inurba_marseille","lat":43.31341,"lon":5.367098,"is_reserved":false,"is_disabled":false,"rental_uris":{"android":"levelo://app?vid=169d4edc-9ae5-46cf-ac60-5329c0584622","ios":"levelo://app?vid=169d4edc-9ae5-46cf-ac60-5329c0584622"},"vehicle_type_id":"4","last_reported":1712643012,"current_range_meters":24400,"station_id":"ce4bgr92rcd13ifvqc6g","pricing_plan_id":"cebpf4jnsgd1na2vs0mg"},{"bike_id":"c8e7e700-1ef4-4a23-b2fb-305be86e0f37","system_id":"levelo_inurba_marseille","lat":43.31341,"lon":5.367098,"is_reserved":false,"is_disabled":false,"rental_uris":{"android":"levelo://app?vid=c8e7e700-1ef4-4a23-b2fb-305be86e0f37","ios":"levelo://app?vid=c8e7e700-1ef4-4a23-b2fb-305be86e0f37"},"vehicle_type_id":"4","last_reported":1712643012,"current_range_meters":31600,"station_id":"ce4bgr92rcd13ifvqc6g","pricing_plan_id":"cebpf4jnsgd1na2vs0mg"},{"bike_id":"72c5a49b-aae5-458f-b9f2-100cf696d469","system_id":"levelo_inurba_marseille","lat":43.313391,"lon":5.36706,"is_reserved":false,"is_disabled":false,"rental_uris":{"android":"levelo://app?vid=72c5a49b-aae5-458f-b9f2-100cf696d469","ios":"levelo://app?vid=72c5a49b-aae5-458f-b9f2-100cf696d469"},"vehicle_type_id":"4","last_reported":1712643012,"current_range_meters":22800,"station_id":"ce4bgr92rcd13ifvqc6g","pricing_plan_id":"cebpf4jnsgd1na2vs0mg"},{"bike_id":"32f95aad-3ad6-4fb0-9903-be87ae298d2e","system_id":"levelo_inurba_marseille","lat":43.313391,"lon":5.36706,"is_reserved":false,"is_disabled":false,"rental_uris":{"android":"levelo://app?vid=32f95aad-3ad6-4fb0-9903-be87ae298d2e","ios":"levelo://app?vid=32f95aad-3ad6-4fb0-9903-be87ae298d2e"},"vehicle_type_id":"4","last_reported":1712643012,"current_range_meters":19200,"station_id":"ce4bgr92rcd13ifvqc6g","pricing_plan_id":"cebpf4jnsgd1na2vs0mg"},{"bike_id":"be7edd9b-ad2a-4b04-a006-314f21e4987c","system_id":"levelo_inurba_marseille","lat":43.313391,"lon":5.36706,"is_reserved":false,"is_disabled":false,"rental_uris":{"android":"levelo://app?vid=be7edd9b-ad2a-4b04-a006-314f21e4987c","ios":"levelo://app?vid=be7edd9b-ad2a-4b04-a006-314f21e4987c"},"vehicle_type_id":"4","last_reported":1712643012,"current_range_meters":24000,"station_id":"ce4bgr92rcd13ifvqc6g","pricing_plan_id":"cebpf4jnsgd1na2vs0mg"},{"bike_id":"bf3cbc53-6b2d-461c-9b3c-d2136b9765ca","system_id":"levelo_inurba_marseille","lat":43.313391,"lon":5.36706,"is_reserved":false,"is_disabled":false,"rental_uris":{"android":"levelo://app?vid=bf3cbc53-6b2d-461c-9b3c-d2136b9765ca","ios":"levelo://app?vid=bf3cbc53-6b2d-461c-9b3c-d2136b9765ca"},"vehicle_type_id":"4","last_reported":1712643012,"current_range_meters":19600,"station_id":"ce4bgr92rcd13ifvqc6g","pricing_plan_id":"cebpf4jnsgd1na2vs0mg"},{"bike_id":"31f100c6-5cae-424d-acd7-ea9fb073d0d8","system_id":"levelo_inurba_marseille","lat":43.313391,"lon":5.36706,"is_reserved":false,"is_disabled":false,"rental_uris":{"android":"levelo://app?vid=31f100c6-5cae-424d-acd7-ea9fb073d0d8","ios":"levelo://app?vid=31f100c6-5cae-424d-acd7-ea9fb073d0d8"},"vehicle_type_id":"4","last_reported":1712643012,"current_range_meters":23600,"station_id":"ce4bgr92rcd13ifvqc6g","pricing_plan_id":"cebpf4jnsgd1na2vs0mg"},{"bike_id":"34713705-fd5f-4648-abac-d8d2b91f3722","system_id":"levelo_inurba_marseille","lat":43.312249,"lon":5.368484,"is_reserved":false,"is_disabled":false,"rental_uris":{"android":"levelo://app?vid=34713705-fd5f-4648-abac-d8d2b91f3722","ios":"levelo://app?vid=34713705-fd5f-4648-abac-d8d2b91f3722"},"vehicle_type_id":"4","last_reported":1712643012,"current_range_meters":22800,"station_id":"ce4bgl92rcd13ifvqbq0","pricing_plan_id":"cebpf4jnsgd1na2vs0mg"},{"bike_id":"41dd09d9-6c9c-4491-927c-e2f760b5b800","system_id":"levelo_inurba_marseille","lat":43.31214,"lon":5.36854,"is_reserved":false,"is_disabled":false,"rental_uris":{"android":"levelo://app?vid=41dd09d9-6c9c-4491-927c-e2f760b5b800","ios":"levelo://app?vid=41dd09d9-6c9c-4491-927c-e2f760b5b800"},"vehicle_type_id":"4","last_reported":1712643012,"current_range_meters":30400,"station_id":"ce4bgl92rcd13ifvqbq0","pricing_plan_id":"cebpf4jnsgd1na2vs0mg"},{"bike_id":"87e86471-db4a-4670-ac10-978c94e79b97","system_id":"levelo_inurba_marseille","lat":43.309076,"lon":5.368465,"is_reserved":false,"is_disabled":false,"rental_uris":{"android":"levelo://app?vid=87e86471-db4a-4670-ac10-978c94e79b97","ios":"levelo://app?vid=87e86471-db4a-4670-ac10-978c94e79b97"},"vehicle_type_id":"4","last_reported":1712643012,"current_range_meters":14400,"station_id":"ce4bgn92rcd13ifvqbvg","pricing_plan_id":"cebpf4jnsgd1na2vs0mg"},{"bike_id":"d7a0950c-1350-4804-83ef-89d232dec23a","system_id":"levelo_inurba_marseille","lat":43.30537,"lon":5.367345,"is_reserved":false,"is_disabled":false,"rental_uris":{"android":"levelo://app?vid=d7a0950c-1350-4804-83ef-89d232dec23a","ios":"levelo://app?vid=d7a0950c-1350-4804-83ef-89d232dec23a"},"vehicle_type_id":"4","last_reported":1712643012,"current_range_meters":23600,"station_id":"ce4bgrp2rcd13ifvqc9g","pricing_plan_id":"cebpf4jnsgd1na2vs0mg"},{"bike_id":"665280bc-ae45-44e7-806d-1d3b06533ce0","system_id":"levelo_inurba_marseille","lat":43.309076,"lon":5.368465,"is_reserved":false,"is_disabled":false,"rental_uris":{"android":"levelo://app?vid=665280bc-ae45-44e7-806d-1d3b06533ce0","ios":"levelo://app?vid=665280bc-ae45-44e7-806d-1d3b06533ce0"},"vehicle_type_id":"4","last_reported":1712643012,"current_range_meters":20800,"station_id":"ce4bgn92rcd13ifvqbvg","pricing_plan_id":"cebpf4jnsgd1na2vs0mg"},{"bike_id":"859d74a5-d0a8-4adb-b98c-d9d6ee677273","system_id":"levelo_inurba_marseille","lat":43.309076,"lon":5.368465,"is_reserved":false,"is_disabled":false,"rental_uris":{"android":"levelo://app?vid=859d74a5-d0a8-4adb-b98c-d9d6ee677273","ios":"levelo://app?vid=859d74a5-d0a8-4adb-b98c-d9d6ee677273"},"vehicle_type_id":"4","last_reported":1712643012,"current_range_meters":27600,"station_id":"ce4bgn92rcd13ifvqbvg","pricing_plan_id":"cebpf4jnsgd1na2vs0mg"},{"bike_id":"ce7cee01-fe4e-4b28-ace6-d87d640a19ce","system_id":"levelo_inurba_marseille","lat":43.309076,"lon":5.368465,"is_reserved":false,"is_disabled":false,"rental_uris":{"android":"levelo://app?vid=ce7cee01-fe4e-4b28-ace6-d87d640a19ce","ios":"levelo://app?vid=ce7cee01-fe4e-4b28-ace6-d87d640a19ce"},"vehicle_type_id":"4","last_reported":1712643012,"current_range_meters":22000,"station_id":"ce4bgn92rcd13ifvqbvg","pricing_plan_id":"cebpf4jnsgd1na2vs0mg"},{"bike_id":"50002ca3-6ee9-4dbc-8150-9f5ca479c668","system_id":"levelo_inurba_marseille","lat":43.309076,"lon":5.368465,"is_reserved":false,"is_disabled":false,"rental_uris":{"android":"levelo://app?vid=50002ca3-6ee9-4dbc-8150-9f5ca479c668","ios":"levelo://app?vid=50002ca3-6ee9-4dbc-8150-9f5ca479c668"},"vehicle_type_id":"4","last_reported":1712643012,"current_range_meters":27600,"station_id":"ce4bgn92rcd13ifvqbvg","pricing_plan_id":"cebpf4jnsgd1na2vs0mg"},{"bike_id":"e0d2bac6-2a4c-4871-b120-e17ed82bf141","system_id":"levelo_inurba_marseille","lat":43.309076,"lon":5.368465,"is_reserved":false,"is_disabled":false,"rental_uris":{"android":"levelo://app?vid=e0d2bac6-2a4c-4871-b120-e17ed82bf141","ios":"levelo://app?vid=e0d2bac6-2a4c-4871-b120-e17ed82bf141"},"vehicle_type_id":"4","last_reported":1712643012,"current_range_meters":28400,"station_id":"ce4bgn92rcd13ifvqbvg","pricing_plan_id":"cebpf4jnsgd1na2vs0mg"},{"bike_id":"73706916-b3f3-4ff0-b068-cec67895e8b1","system_id":"levelo_inurba_marseille","lat":43.308338,"lon":5.367584,"is_reserved":false,"is_disabled":false,"rental_uris":{"android":"levelo://app?vid=73706916-b3f3-4ff0-b068-cec67895e8b1","ios":"levelo://app?vid=73706916-b3f3-4ff0-b068-cec67895e8b1"},"vehicle_type_id":"4","last_reported":1712643012,"current_range_meters":1600,"station_id":"","pricing_plan_id":"cebpf4jnsgd1na2vs0mg"},{"bike_id":"c357bd56-2278-4200-b132-80d4f742dfee","system_id":"levelo_inurba_marseille","lat":43.314811,"lon":5.373103,"is_reserved":false,"is_disabled":false,"rental_uris":{"android":"levelo://app?vid=c357bd56-2278-4200-b132-80d4f742dfee","ios":"levelo://app?vid=c357bd56-2278-4200-b132-80d4f742dfee"},"vehicle_type_id":"4","last_reported":1712643012,"current_range_meters":1200,"station_id":"ce4bgt12rcd13ifvqcd0","pricing_plan_id":"cebpf4jnsgd1na2vs0mg"},{"bike_id":"de09e4c5-b58f-44c7-ac3f-ea4f459d5bc5","system_id":"levelo_inurba_marseille","lat":43.314811,"lon":5.373103,"is_reserved":false,"is_disabled":false,"rental_uris":{"android":"levelo://app?vid=de09e4c5-b58f-44c7-ac3f-ea4f459d5bc5","ios":"levelo://app?vid=de09e4c5-b58f-44c7-ac3f-ea4f459d5bc5"},"vehicle_type_id":"4","last_reported":1712643012,"current_range_meters":30000,"station_id":"ce4bgt12rcd13ifvqcd0","pricing_plan_id":"cebpf4jnsgd1na2vs0mg"},{"bike_id":"63afa882-858d-4814-a2ed-0a327afbd2e9","system_id":"levelo_inurba_marseille","lat":43.3148,"lon":5.37311,"is_reserved":false,"is_disabled":false,"rental_uris":{"android":"levelo://app?vid=63afa882-858d-4814-a2ed-0a327afbd2e9","ios":"levelo://app?vid=63afa882-858d-4814-a2ed-0a327afbd2e9"},"vehicle_type_id":"4","last_reported":1712643012,"current_range_meters":0,"station_id":"ce4bgt12rcd13ifvqcd0","pricing_plan_id":"cebpf4jnsgd1na2vs0mg"},{"bike_id":"724cae6e-5786-43dc-a9b1-a8301bddae06","system_id":"levelo_inurba_marseille","lat":43.314811,"lon":5.373103,"is_reserved":false,"is_disabled":false,"rental_uris":{"android":"levelo://app?vid=724cae6e-5786-43dc-a9b1-a8301bddae06","ios":"levelo://app?vid=724cae6e-5786-43dc-a9b1-a8301bddae06"},"vehicle_type_id":"4","last_reported":1712643012,"current_range_meters":31200,"station_id":"ce4bgt12rcd13ifvqcd0","pricing_plan_id":"cebpf4jnsgd1na2vs0mg"},{"bike_id":"43f40058-7390-4c9e-b3ee-0b4da12a79cc","system_id":"levelo_inurba_marseille","lat":43.314811,"lon":5.373104,"is_reserved":false,"is_disabled":false,"rental_uris":{"android":"levelo://app?vid=43f40058-7390-4c9e-b3ee-0b4da12a79cc","ios":"levelo://app?vid=43f40058-7390-4c9e-b3ee-0b4da12a79cc"},"vehicle_type_id":"4","last_reported":1712643012,"current_range_meters":28000,"station_id":"ce4bgt12rcd13ifvqcd0","pricing_plan_id":"cebpf4jnsgd1na2vs0mg"},{"bike_id":"5ab0b934-ede6-4403-ad0b-f2d3c1a1fc05","system_id":"levelo_inurba_marseille","lat":43.314811,"lon":5.373103,"is_reserved":false,"is_disabled":false,"rental_uris":{"android":"levelo://app?vid=5ab0b934-ede6-4403-ad0b-f2d3c1a1fc05","ios":"levelo://app?vid=5ab0b934-ede6-4403-ad0b-f2d3c1a1fc05"},"vehicle_type_id":"4","last_reported":1712643012,"current_range_meters":16800,"station_id":"ce4bgt12rcd13ifvqcd0","pricing_plan_id":"cebpf4jnsgd1na2vs0mg"},{"bike_id":"8c47e6eb-73fb-4a65-8069-cf6b181e3aa1","system_id":"levelo_inurba_marseille","lat":43.314811,"lon":5.373104,"is_reserved":false,"is_disabled":false,"rental_uris":{"android":"levelo://app?vid=8c47e6eb-73fb-4a65-8069-cf6b181e3aa1","ios":"levelo://app?vid=8c47e6eb-73fb-4a65-8069-cf6b181e3aa1"},"vehicle_type_id":"4","last_reported":1712643012,"current_range_meters":31200,"station_id":"ce4bgt12rcd13ifvqcd0","pricing_plan_id":"cebpf4jnsgd1na2vs0mg"},{"bike_id":"3bc762a0-9804-4a58-bf5c-ca309d60e4c3","system_id":"levelo_inurba_marseille","lat":43.314811,"lon":5.373104,"is_reserved":false,"is_disabled":false,"rental_uris":{"android":"levelo://app?vid=3bc762a0-9804-4a58-bf5c-ca309d60e4c3","ios":"levelo://app?vid=3bc762a0-9804-4a58-bf5c-ca309d60e4c3"},"vehicle_type_id":"4","last_reported":1712643012,"current_range_meters":24800,"station_id":"ce4bgt12rcd13ifvqcd0","pricing_plan_id":"cebpf4jnsgd1na2vs0mg"},{"bike_id":"6c5ee794-10e2-48b8-abae-f4c867eb12b8","system_id":"levelo_inurba_marseille","lat":43.314811,"lon":5.373104,"is_reserved":false,"is_disabled":false,"rental_uris":{"android":"levelo://app?vid=6c5ee794-10e2-48b8-abae-f4c867eb12b8","ios":"levelo://app?vid=6c5ee794-10e2-48b8-abae-f4c867eb12b8"},"vehicle_type_id":"4","last_reported":1712643012,"current_range_meters":6800,"station_id":"ce4bgt12rcd13ifvqcd0","pricing_plan_id":"cebpf4jnsgd1na2vs0mg"},{"bike_id":"04668802-8738-4848-b05e-27bbb4b329d6","system_id":"levelo_inurba_marseille","lat":43.309034,"lon":5.371783,"is_reserved":false,"is_disabled":false,"rental_uris":{"android":"levelo://app?vid=04668802-8738-4848-b05e-27bbb4b329d6","ios":"levelo://app?vid=04668802-8738-4848-b05e-27bbb4b329d6"},"vehicle_type_id":"4","last_reported":1712643012,"current_range_meters":26400,"station_id":"ce4bguh2rcd13ifvqckg","pricing_plan_id":"cebpf4jnsgd1na2vs0mg"},{"bike_id":"74e07fb0-8919-45d6-bba9-4253361af5c0","system_id":"levelo_inurba_marseille","lat":43.309034,"lon":5.371783,"is_reserved":false,"is_disabled":false,"rental_uris":{"android":"levelo://app?vid=74e07fb0-8919-45d6-bba9-4253361af5c0","ios":"levelo://app?vid=74e07fb0-8919-45d6-bba9-4253361af5c0"},"vehicle_type_id":"4","last_reported":1712643012,"current_range_meters":16000,"station_id":"ce4bguh2rcd13ifvqckg","pricing_plan_id":"cebpf4jnsgd1na2vs0mg"},{"bike_id":"bb2ecf55-a1ab-4a1a-8191-f9454efb89a3","system_id":"levelo_inurba_marseille","lat":43.309039,"lon":5.371797,"is_reserved":false,"is_disabled":false,"rental_uris":{"android":"levelo://app?vid=bb2ecf55-a1ab-4a1a-8191-f9454efb89a3","ios":"levelo://app?vid=bb2ecf55-a1ab-4a1a-8191-f9454efb89a3"},"vehicle_type_id":"4","last_reported":1712643012,"current_range_meters":27600,"station_id":"ce4bguh2rcd13ifvqckg","pricing_plan_id":"cebpf4jnsgd1na2vs0mg"},{"bike_id":"77e98263-177e-442d-a082-e90fc1eb2b88","system_id":"levelo_inurba_marseille","lat":43.309034,"lon":5.371783,"is_reserved":false,"is_disabled":false,"rental_uris":{"android":"levelo://app?vid=77e98263-177e-442d-a082-e90fc1eb2b88","ios":"levelo://app?vid=77e98263-177e-442d-a082-e90fc1eb2b88"},"vehicle_type_id":"4","last_reported":1712643012,"current_range_meters":16800,"station_id":"ce4bguh2rcd13ifvqckg","pricing_plan_id":"cebpf4jnsgd1na2vs0mg"},{"bike_id":"59211f08-0990-4089-be8f-5fd37ba0a086","system_id":"levelo_inurba_marseille","lat":43.31448,"lon":5.37532,"is_reserved":false,"is_disabled":false,"rental_uris":{"android":"levelo://app?vid=59211f08-0990-4089-be8f-5fd37ba0a086","ios":"levelo://app?vid=59211f08-0990-4089-be8f-5fd37ba0a086"},"vehicle_type_id":"4","last_reported":1712643012,"current_range_meters":6800,"station_id":"","pricing_plan_id":"cebpf4jnsgd1na2vs0mg"},{"bike_id":"7859ee75-a9fc-4592-8b73-6db474a2a15d","system_id":"levelo_inurba_marseille","lat":43.305714,"lon":5.365633,"is_reserved":false,"is_disabled":false,"rental_uris":{"android":"levelo://app?vid=7859ee75-a9fc-4592-8b73-6db474a2a15d","ios":"levelo://app?vid=7859ee75-a9fc-4592-8b73-6db474a2a15d"},"vehicle_type_id":"4","last_reported":1712643012,"current_range_meters":27600,"station_id":"ce4bgs12rcd13ifvqcag","pricing_plan_id":"cebpf4jnsgd1na2vs0mg"},{"bike_id":"4ef12364-70de-4a19-8621-f63308df355b","system_id":"levelo_inurba_marseille","lat":43.30537,"lon":5.367345,"is_reserved":false,"is_disabled":false,"rental_uris":{"android":"levelo://app?vid=4ef12364-70de-4a19-8621-f63308df355b","ios":"levelo://app?vid=4ef12364-70de-4a19-8621-f63308df355b"},"vehicle_type_id":"4","last_reported":1712643012,"current_range_meters":24400,"station_id":"ce4bgrp2rcd13ifvqc9g","pricing_plan_id":"cebpf4jnsgd1na2vs0mg"},{"bike_id":"4d308a03-3a64-4b0d-a447-18f52f80a0e7","system_id":"levelo_inurba_marseille","lat":43.305714,"lon":5.365633,"is_reserved":false,"is_disabled":false,"rental_uris":{"android":"levelo://app?vid=4d308a03-3a64-4b0d-a447-18f52f80a0e7","ios":"levelo://app?vid=4d308a03-3a64-4b0d-a447-18f52f80a0e7"},"vehicle_type_id":"4","last_reported":1712643012,"current_range_meters":22400,"station_id":"ce4bgs12rcd13ifvqcag","pricing_plan_id":"cebpf4jnsgd1na2vs0mg"},{"bike_id":"6f713553-6051-4b16-a65e-4d443605ea34","system_id":"levelo_inurba_marseille","lat":43.305706,"lon":5.365654,"is_reserved":false,"is_disabled":false,"rental_uris":{"android":"levelo://app?vid=6f713553-6051-4b16-a65e-4d443605ea34","ios":"levelo://app?vid=6f713553-6051-4b16-a65e-4d443605ea34"},"vehicle_type_id":"4","last_reported":1712643012,"current_range_meters":24400,"station_id":"ce4bgs12rcd13ifvqcag","pricing_plan_id":"cebpf4jnsgd1na2vs0mg"},{"bike_id":"592caebf-7276-4290-968e-194db37cbc4f","system_id":"levelo_inurba_marseille","lat":43.305706,"lon":5.365654,"is_reserved":false,"is_disabled":false,"rental_uris":{"android":"levelo://app?vid=592caebf-7276-4290-968e-194db37cbc4f","ios":"levelo://app?vid=592caebf-7276-4290-968e-194db37cbc4f"},"vehicle_type_id":"4","last_reported":1712643012,"current_range_meters":27600,"station_id":"ce4bgs12rcd13ifvqcag","pricing_plan_id":"cebpf4jnsgd1na2vs0mg"},{"bike_id":"f78420dd-63a2-4dc7-8791-948445748b6e","system_id":"levelo_inurba_marseille","lat":43.30537,"lon":5.367345,"is_reserved":false,"is_disabled":false,"rental_uris":{"android":"levelo://app?vid=f78420dd-63a2-4dc7-8791-948445748b6e","ios":"levelo://app?vid=f78420dd-63a2-4dc7-8791-948445748b6e"},"vehicle_type_id":"4","last_reported":1712643012,"current_range_meters":19200,"station_id":"ce4bgrp2rcd13ifvqc9g","pricing_plan_id":"cebpf4jnsgd1na2vs0mg"},{"bike_id":"890f228a-25a3-4e86-a34d-47cb88380179","system_id":"levelo_inurba_marseille","lat":43.305706,"lon":5.365654,"is_reserved":false,"is_disabled":false,"rental_uris":{"android":"levelo://app?vid=890f228a-25a3-4e86-a34d-47cb88380179","ios":"levelo://app?vid=890f228a-25a3-4e86-a34d-47cb88380179"},"vehicle_type_id":"4","last_reported":1712643012,"current_range_meters":24000,"station_id":"ce4bgs12rcd13ifvqcag","pricing_plan_id":"cebpf4jnsgd1na2vs0mg"},{"bike_id":"0f6d8882-7f76-41a7-bd65-70c5952de0b3","system_id":"levelo_inurba_marseille","lat":43.31041,"lon":5.376802,"is_reserved":false,"is_disabled":false,"rental_uris":{"android":"levelo://app?vid=0f6d8882-7f76-41a7-bd65-70c5952de0b3","ios":"levelo://app?vid=0f6d8882-7f76-41a7-bd65-70c5952de0b3"},"vehicle_type_id":"4","last_reported":1712643012,"current_range_meters":3600,"station_id":"","pricing_plan_id":"cebpf4jnsgd1na2vs0mg"},{"bike_id":"70c49636-23f1-49a5-b0f0-e8da3aa78e71","system_id":"levelo_inurba_marseille","lat":43.311131,"lon":5.377651,"is_reserved":false,"is_disabled":false,"rental_uris":{"android":"levelo://app?vid=70c49636-23f1-49a5-b0f0-e8da3aa78e71","ios":"levelo://app?vid=70c49636-23f1-49a5-b0f0-e8da3aa78e71"},"vehicle_type_id":"4","last_reported":1712643012,"current_range_meters":31200,"station_id":"ce4bgt92rcd13ifvqcg0","pricing_plan_id":"cebpf4jnsgd1na2vs0mg"},{"bike_id":"60471ce9-58f7-4e0c-a608-2d3f9ccb60c5","system_id":"levelo_inurba_marseille","lat":43.311131,"lon":5.377651,"is_reserved":false,"is_disabled":false,"rental_uris":{"android":"levelo://app?vid=60471ce9-58f7-4e0c-a608-2d3f9ccb60c5","ios":"levelo://app?vid=60471ce9-58f7-4e0c-a608-2d3f9ccb60c5"},"vehicle_type_id":"4","last_reported":1712643012,"current_range_meters":31200,"station_id":"ce4bgt92rcd13ifvqcg0","pricing_plan_id":"cebpf4jnsgd1na2vs0mg"},{"bike_id":"fd3e5e70-6f62-486d-8f7b-28a00244cae2","system_id":"levelo_inurba_marseille","lat":43.311189,"lon":5.377619,"is_reserved":false,"is_disabled":false,"rental_uris":{"android":"levelo://app?vid=fd3e5e70-6f62-486d-8f7b-28a00244cae2","ios":"levelo://app?vid=fd3e5e70-6f62-486d-8f7b-28a00244cae2"},"vehicle_type_id":"4","last_reported":1712643012,"current_range_meters":27200,"station_id":"ce4bgt92rcd13ifvqcg0","pricing_plan_id":"cebpf4jnsgd1na2vs0mg"},{"bike_id":"e1d23c5f-72da-4b82-a97c-aaf6ac371e92","system_id":"levelo_inurba_marseille","lat":43.311131,"lon":5.377651,"is_reserved":false,"is_disabled":false,"rental_uris":{"android":"levelo://app?vid=e1d23c5f-72da-4b82-a97c-aaf6ac371e92","ios":"levelo://app?vid=e1d23c5f-72da-4b82-a97c-aaf6ac371e92"},"vehicle_type_id":"4","last_reported":1712643012,"current_range_meters":18000,"station_id":"ce4bgt92rcd13ifvqcg0","pricing_plan_id":"cebpf4jnsgd1na2vs0mg"},{"bike_id":"f985fd4c-27e5-4780-bab2-7b629b1d1bf2","system_id":"levelo_inurba_marseille","lat":43.31114,"lon":5.37771,"is_reserved":false,"is_disabled":false,"rental_uris":{"android":"levelo://app?vid=f985fd4c-27e5-4780-bab2-7b629b1d1bf2","ios":"levelo://app?vid=f985fd4c-27e5-4780-bab2-7b629b1d1bf2"},"vehicle_type_id":"4","last_reported":1712643012,"current_range_meters":25200,"station_id":"ce4bgt92rcd13ifvqcg0","pricing_plan_id":"cebpf4jnsgd1na2vs0mg"},{"bike_id":"aaf568ca-2793-438d-9e97-331f06346005","system_id":"levelo_inurba_marseille","lat":43.31118,"lon":5.37774,"is_reserved":false,"is_disabled":false,"rental_uris":{"android":"levelo://app?vid=aaf568ca-2793-438d-9e97-331f06346005","ios":"levelo://app?vid=aaf568ca-2793-438d-9e97-331f06346005"},"vehicle_type_id":"4","last_reported":1712643012,"current_range_meters":30000,"station_id":"ce4bgt92rcd13ifvqcg0","pricing_plan_id":"cebpf4jnsgd1na2vs0mg"},{"bike_id":"68bca407-64f6-4540-a476-e97c7e0d6b6e","system_id":"levelo_inurba_marseille","lat":43.31112,"lon":5.37773,"is_reserved":false,"is_disabled":false,"rental_uris":{"android":"levelo://app?vid=68bca407-64f6-4540-a476-e97c7e0d6b6e","ios":"levelo://app?vid=68bca407-64f6-4540-a476-e97c7e0d6b6e"},"vehicle_type_id":"4","last_reported":1712643012,"current_range_meters":10000,"station_id":"ce4bgt92rcd13ifvqcg0","pricing_plan_id":"cebpf4jnsgd1na2vs0mg"},{"bike_id":"8dcc9750-64de-4f02-b2ef-43d449e2b6e5","system_id":"levelo_inurba_marseille","lat":43.299724,"lon":5.371829,"is_reserved":false,"is_disabled":false,"rental_uris":{"android":"levelo://app?vid=8dcc9750-64de-4f02-b2ef-43d449e2b6e5","ios":"levelo://app?vid=8dcc9750-64de-4f02-b2ef-43d449e2b6e5"},"vehicle_type_id":"4","last_reported":1712643012,"current_range_meters":20800,"station_id":"ce4bgr92rcd13ifvqc7g","pricing_plan_id":"cebpf4jnsgd1na2vs0mg"},{"bike_id":"a6cdc948-8442-41d1-8bc0-b065df4b88fe","system_id":"levelo_inurba_marseille","lat":43.317075,"lon":5.377367,"is_reserved":false,"is_disabled":false,"rental_uris":{"android":"levelo://app?vid=a6cdc948-8442-41d1-8bc0-b065df4b88fe","ios":"levelo://app?vid=a6cdc948-8442-41d1-8bc0-b065df4b88fe"},"vehicle_type_id":"4","last_reported":1712643012,"current_range_meters":26400,"station_id":"ce4bgth2rcd13ifvqch0","pricing_plan_id":"cebpf4jnsgd1na2vs0mg"},{"bike_id":"e984056a-a5fb-468b-bbbf-82a4df6d45c6","system_id":"levelo_inurba_marseille","lat":43.299028,"lon":5.381509,"is_reserved":false,"is_disabled":false,"rental_uris":{"android":"levelo://app?vid=e984056a-a5fb-468b-bbbf-82a4df6d45c6","ios":"levelo://app?vid=e984056a-a5fb-468b-bbbf-82a4df6d45c6"},"vehicle_type_id":"4","last_reported":1712643012,"current_range_meters":30400,"station_id":"ce4bgj12rcd13ifvqbc0","pricing_plan_id":"cebpf4jnsgd1na2vs0mg"},{"bike_id":"71dfed62-3788-4c87-879a-827c48617698","system_id":"levelo_inurba_marseille","lat":43.30304,"lon":5.368987,"is_reserved":false,"is_disabled":false,"rental_uris":{"android":"levelo://app?vid=71dfed62-3788-4c87-879a-827c48617698","ios":"levelo://app?vid=71dfed62-3788-4c87-879a-827c48617698"},"vehicle_type_id":"4","last_reported":1712643012,"current_range_meters":9200,"station_id":"ce4bgqh2rcd13ifvqc5g","pricing_plan_id":"cebpf4jnsgd1na2vs0mg"},{"bike_id":"f00bd2e9-61cf-49a3-910b-3819411e9717","system_id":"levelo_inurba_marseille","lat":43.315293,"lon":5.380349,"is_reserved":false,"is_disabled":false,"rental_uris":{"android":"levelo://app?vid=f00bd2e9-61cf-49a3-910b-3819411e9717","ios":"levelo://app?vid=f00bd2e9-61cf-49a3-910b-3819411e9717"},"vehicle_type_id":"4","last_reported":1712643012,"current_range_meters":31200,"station_id":"ce4bhsp2rcd13ifvqi50","pricing_plan_id":"cebpf4jnsgd1na2vs0mg"},{"bike_id":"37190d2b-ff10-4839-b776-0992b4a302ed","system_id":"levelo_inurba_marseille","lat":43.301939,"lon":5.366286,"is_reserved":false,"is_disabled":false,"rental_uris":{"android":"levelo://app?vid=37190d2b-ff10-4839-b776-0992b4a302ed","ios":"levelo://app?vid=37190d2b-ff10-4839-b776-0992b4a302ed"},"vehicle_type_id":"4","last_reported":1712643012,"current_range_meters":14000,"station_id":"ce4bgrh2rcd13ifvqc8g","pricing_plan_id":"cebpf4jnsgd1na2vs0mg"},{"bike_id":"f7b5df0f-d067-440e-b130-f35150d0c93a","system_id":"levelo_inurba_marseille","lat":43.308012,"lon":5.381511,"is_reserved":false,"is_disabled":false,"rental_uris":{"android":"levelo://app?vid=f7b5df0f-d067-440e-b130-f35150d0c93a","ios":"levelo://app?vid=f7b5df0f-d067-440e-b130-f35150d0c93a"},"vehicle_type_id":"4","last_reported":1712643012,"current_range_meters":26400,"station_id":"ce4bgt12rcd13ifvqce0","pricing_plan_id":"cebpf4jnsgd1na2vs0mg"},{"bike_id":"e9d5c678-c0e9-48bb-aa80-46e2953afadd","system_id":"levelo_inurba_marseille","lat":43.304606,"lon":5.379026,"is_reserved":false,"is_disabled":false,"rental_uris":{"android":"levelo://app?vid=e9d5c678-c0e9-48bb-aa80-46e2953afadd","ios":"levelo://app?vid=e9d5c678-c0e9-48bb-aa80-46e2953afadd"},"vehicle_type_id":"4","last_reported":1712643012,"current_range_meters":28400,"station_id":"ce4bgup2rcd13ifvqcn0","pricing_plan_id":"cebpf4jnsgd1na2vs0mg"},{"bike_id":"c8fdaef1-ef30-494b-abca-ec3230772a24","system_id":"levelo_inurba_marseille","lat":43.304606,"lon":5.379026,"is_reserved":false,"is_disabled":false,"rental_uris":{"android":"levelo://app?vid=c8fdaef1-ef30-494b-abca-ec3230772a24","ios":"levelo://app?vid=c8fdaef1-ef30-494b-abca-ec3230772a24"},"vehicle_type_id":"4","last_reported":1712643012,"current_range_meters":31600,"station_id":"ce4bgup2rcd13ifvqcn0","pricing_plan_id":"cebpf4jnsgd1na2vs0mg"},{"bike_id":"1ad46bcf-5842-4f17-b844-c915725c9f3a","system_id":"levelo_inurba_marseille","lat":43.304659,"lon":5.37874,"is_reserved":false,"is_disabled":false,"rental_uris":{"android":"levelo://app?vid=1ad46bcf-5842-4f17-b844-c915725c9f3a","ios":"levelo://app?vid=1ad46bcf-5842-4f17-b844-c915725c9f3a"},"vehicle_type_id":"4","last_reported":1712643012,"current_range_meters":16800,"station_id":"ce4bgup2rcd13ifvqcn0","pricing_plan_id":"cebpf4jnsgd1na2vs0mg"},{"bike_id":"08f6392b-6909-419f-ab76-5f93550567e1","system_id":"levelo_inurba_marseille","lat":43.304606,"lon":5.379026,"is_reserved":false,"is_disabled":false,"rental_uris":{"android":"levelo://app?vid=08f6392b-6909-419f-ab76-5f93550567e1","ios":"levelo://app?vid=08f6392b-6909-419f-ab76-5f93550567e1"},"vehicle_type_id":"4","last_reported":1712643012,"current_range_meters":20400,"station_id":"ce4bgup2rcd13ifvqcn0","pricing_plan_id":"cebpf4jnsgd1na2vs0mg"},{"bike_id":"7bd1d03b-5f61-4b70-b736-64c1dc3ae946","system_id":"levelo_inurba_marseille","lat":43.304606,"lon":5.379026,"is_reserved":false,"is_disabled":false,"rental_uris":{"android":"levelo://app?vid=7bd1d03b-5f61-4b70-b736-64c1dc3ae946","ios":"levelo://app?vid=7bd1d03b-5f61-4b70-b736-64c1dc3ae946"},"vehicle_type_id":"4","last_reported":1712643012,"current_range_meters":28400,"station_id":"ce4bgup2rcd13ifvqcn0","pricing_plan_id":"cebpf4jnsgd1na2vs0mg"},{"bike_id":"caecd321-9682-4f3b-9643-b6d90ebb3f0e","system_id":"levelo_inurba_marseille","lat":43.304606,"lon":5.379026,"is_reserved":false,"is_disabled":false,"rental_uris":{"android":"levelo://app?vid=caecd321-9682-4f3b-9643-b6d90ebb3f0e","ios":"levelo://app?vid=caecd321-9682-4f3b-9643-b6d90ebb3f0e"},"vehicle_type_id":"4","last_reported":1712643012,"current_range_meters":31600,"station_id":"ce4bgup2rcd13ifvqcn0","pricing_plan_id":"cebpf4jnsgd1na2vs0mg"},{"bike_id":"a30f5189-d9f7-4d3f-a394-9bf5da3fd20e","system_id":"levelo_inurba_marseille","lat":43.304606,"lon":5.379026,"is_reserved":false,"is_disabled":false,"rental_uris":{"android":"levelo://app?vid=a30f5189-d9f7-4d3f-a394-9bf5da3fd20e","ios":"levelo://app?vid=a30f5189-d9f7-4d3f-a394-9bf5da3fd20e"},"vehicle_type_id":"4","last_reported":1712643012,"current_range_meters":29200,"station_id":"ce4bgup2rcd13ifvqcn0","pricing_plan_id":"cebpf4jnsgd1na2vs0mg"},{"bike_id":"2ab640d5-596c-4dd8-bc7d-9bdbf79a5f0a","system_id":"levelo_inurba_marseille","lat":43.304606,"lon":5.379026,"is_reserved":false,"is_disabled":false,"rental_uris":{"android":"levelo://app?vid=2ab640d5-596c-4dd8-bc7d-9bdbf79a5f0a","ios":"levelo://app?vid=2ab640d5-596c-4dd8-bc7d-9bdbf79a5f0a"},"vehicle_type_id":"4","last_reported":1712643012,"current_range_meters":29600,"station_id":"ce4bgup2rcd13ifvqcn0","pricing_plan_id":"cebpf4jnsgd1na2vs0mg"},{"bike_id":"6b87ac3f-593f-4368-b05f-0cdfb8797bff","system_id":"levelo_inurba_marseille","lat":43.304606,"lon":5.379026,"is_reserved":false,"is_disabled":false,"rental_uris":{"android":"levelo://app?vid=6b87ac3f-593f-4368-b05f-0cdfb8797bff","ios":"levelo://app?vid=6b87ac3f-593f-4368-b05f-0cdfb8797bff"},"vehicle_type_id":"4","last_reported":1712643012,"current_range_meters":30800,"station_id":"ce4bgup2rcd13ifvqcn0","pricing_plan_id":"cebpf4jnsgd1na2vs0mg"},{"bike_id":"e337f1b3-c9f7-497b-a38e-960a00b9a72b","system_id":"levelo_inurba_marseille","lat":43.304606,"lon":5.379026,"is_reserved":false,"is_disabled":false,"rental_uris":{"android":"levelo://app?vid=e337f1b3-c9f7-497b-a38e-960a00b9a72b","ios":"levelo://app?vid=e337f1b3-c9f7-497b-a38e-960a00b9a72b"},"vehicle_type_id":"4","last_reported":1712643012,"current_range_meters":19600,"station_id":"ce4bgup2rcd13ifvqcn0","pricing_plan_id":"cebpf4jnsgd1na2vs0mg"},{"bike_id":"aa9c6bd3-814d-44b9-9d29-0a5b40430b0f","system_id":"levelo_inurba_marseille","lat":43.30472,"lon":5.379113,"is_reserved":false,"is_disabled":false,"rental_uris":{"android":"levelo://app?vid=aa9c6bd3-814d-44b9-9d29-0a5b40430b0f","ios":"levelo://app?vid=aa9c6bd3-814d-44b9-9d29-0a5b40430b0f"},"vehicle_type_id":"4","last_reported":1712643012,"current_range_meters":22800,"station_id":"ce4bgup2rcd13ifvqcn0","pricing_plan_id":"cebpf4jnsgd1na2vs0mg"},{"bike_id":"6561470b-62a2-44bb-839b-08f8cb8deffb","system_id":"levelo_inurba_marseille","lat":43.304606,"lon":5.379026,"is_reserved":false,"is_disabled":false,"rental_uris":{"android":"levelo://app?vid=6561470b-62a2-44bb-839b-08f8cb8deffb","ios":"levelo://app?vid=6561470b-62a2-44bb-839b-08f8cb8deffb"},"vehicle_type_id":"4","last_reported":1712643012,"current_range_meters":15600,"station_id":"ce4bgup2rcd13ifvqcn0","pricing_plan_id":"cebpf4jnsgd1na2vs0mg"},{"bike_id":"37b9ef73-06e4-4192-8615-4c4d1afb00a2","system_id":"levelo_inurba_marseille","lat":43.30472,"lon":5.37912,"is_reserved":false,"is_disabled":false,"rental_uris":{"android":"levelo://app?vid=37b9ef73-06e4-4192-8615-4c4d1afb00a2","ios":"levelo://app?vid=37b9ef73-06e4-4192-8615-4c4d1afb00a2"},"vehicle_type_id":"4","last_reported":1712643012,"current_range_meters":24400,"station_id":"ce4bgup2rcd13ifvqcn0","pricing_plan_id":"cebpf4jnsgd1na2vs0mg"},{"bike_id":"1e7763ea-0bf0-4093-a1b5-3e099ef782fd","system_id":"levelo_inurba_marseille","lat":43.304606,"lon":5.379026,"is_reserved":false,"is_disabled":false,"rental_uris":{"android":"levelo://app?vid=1e7763ea-0bf0-4093-a1b5-3e099ef782fd","ios":"levelo://app?vid=1e7763ea-0bf0-4093-a1b5-3e099ef782fd"},"vehicle_type_id":"4","last_reported":1712643012,"current_range_meters":23600,"station_id":"ce4bgup2rcd13ifvqcn0","pricing_plan_id":"cebpf4jnsgd1na2vs0mg"},{"bike_id":"d4c58185-a00b-4e56-90c2-2a239286e553","system_id":"levelo_inurba_marseille","lat":43.304606,"lon":5.379026,"is_reserved":false,"is_disabled":false,"rental_uris":{"android":"levelo://app?vid=d4c58185-a00b-4e56-90c2-2a239286e553","ios":"levelo://app?vid=d4c58185-a00b-4e56-90c2-2a239286e553"},"vehicle_type_id":"4","last_reported":1712643012,"current_range_meters":17600,"station_id":"ce4bgup2rcd13ifvqcn0","pricing_plan_id":"cebpf4jnsgd1na2vs0mg"},{"bike_id":"1ae19c36-afe1-4484-9ce0-03092a0f84f2","system_id":"levelo_inurba_marseille","lat":43.304606,"lon":5.379026,"is_reserved":false,"is_disabled":false,"rental_uris":{"android":"levelo://app?vid=1ae19c36-afe1-4484-9ce0-03092a0f84f2","ios":"levelo://app?vid=1ae19c36-afe1-4484-9ce0-03092a0f84f2"},"vehicle_type_id":"4","last_reported":1712643012,"current_range_meters":0,"station_id":"ce4bgup2rcd13ifvqcn0","pricing_plan_id":"cebpf4jnsgd1na2vs0mg"},{"bike_id":"d8927a14-21fc-4229-9c7f-dfd86f59d556","system_id":"levelo_inurba_marseille","lat":43.304606,"lon":5.379026,"is_reserved":false,"is_disabled":false,"rental_uris":{"android":"levelo://app?vid=d8927a14-21fc-4229-9c7f-dfd86f59d556","ios":"levelo://app?vid=d8927a14-21fc-4229-9c7f-dfd86f59d556"},"vehicle_type_id":"4","last_reported":1712643012,"current_range_meters":26800,"station_id":"ce4bgup2rcd13ifvqcn0","pricing_plan_id":"cebpf4jnsgd1na2vs0mg"},{"bike_id":"9c918d61-3722-4490-b05c-23a5da8a566f","system_id":"levelo_inurba_marseille","lat":43.3047,"lon":5.37915,"is_reserved":false,"is_disabled":false,"rental_uris":{"android":"levelo://app?vid=9c918d61-3722-4490-b05c-23a5da8a566f","ios":"levelo://app?vid=9c918d61-3722-4490-b05c-23a5da8a566f"},"vehicle_type_id":"4","last_reported":1712643012,"current_range_meters":18800,"station_id":"ce4bgup2rcd13ifvqcn0","pricing_plan_id":"cebpf4jnsgd1na2vs0mg"},{"bike_id":"5804b747-a15e-4009-85b7-81de0d1bcf23","system_id":"levelo_inurba_marseille","lat":43.304606,"lon":5.379026,"is_reserved":false,"is_disabled":false,"rental_uris":{"android":"levelo://app?vid=5804b747-a15e-4009-85b7-81de0d1bcf23","ios":"levelo://app?vid=5804b747-a15e-4009-85b7-81de0d1bcf23"},"vehicle_type_id":"4","last_reported":1712643012,"current_range_meters":16800,"station_id":"ce4bgup2rcd13ifvqcn0","pricing_plan_id":"cebpf4jnsgd1na2vs0mg"},{"bike_id":"ef5c7aa2-bc22-4bfa-80fa-4e59aa74bc5d","system_id":"levelo_inurba_marseille","lat":43.304606,"lon":5.379026,"is_reserved":false,"is_disabled":false,"rental_uris":{"android":"levelo://app?vid=ef5c7aa2-bc22-4bfa-80fa-4e59aa74bc5d","ios":"levelo://app?vid=ef5c7aa2-bc22-4bfa-80fa-4e59aa74bc5d"},"vehicle_type_id":"4","last_reported":1712643012,"current_range_meters":16000,"station_id":"ce4bgup2rcd13ifvqcn0","pricing_plan_id":"cebpf4jnsgd1na2vs0mg"},{"bike_id":"432f236b-ac68-4ec4-b63f-b4fa4a6b873a","system_id":"levelo_inurba_marseille","lat":43.30458,"lon":5.37901,"is_reserved":false,"is_disabled":false,"rental_uris":{"android":"levelo://app?vid=432f236b-ac68-4ec4-b63f-b4fa4a6b873a","ios":"levelo://app?vid=432f236b-ac68-4ec4-b63f-b4fa4a6b873a"},"vehicle_type_id":"4","last_reported":1712643012,"current_range_meters":21600,"station_id":"ce4bgup2rcd13ifvqcn0","pricing_plan_id":"cebpf4jnsgd1na2vs0mg"},{"bike_id":"6581622e-892c-4cab-8f74-51a5b5aba369","system_id":"levelo_inurba_marseille","lat":43.30473,"lon":5.3792,"is_reserved":false,"is_disabled":false,"rental_uris":{"android":"levelo://app?vid=6581622e-892c-4cab-8f74-51a5b5aba369","ios":"levelo://app?vid=6581622e-892c-4cab-8f74-51a5b5aba369"},"vehicle_type_id":"4","last_reported":1712643012,"current_range_meters":1600,"station_id":"ce4bgup2rcd13ifvqcn0","pricing_plan_id":"cebpf4jnsgd1na2vs0mg"},{"bike_id":"5919a7e3-6a4f-45b6-bc73-6b3644fd9651","system_id":"levelo_inurba_marseille","lat":43.304606,"lon":5.379026,"is_reserved":false,"is_disabled":false,"rental_uris":{"android":"levelo://app?vid=5919a7e3-6a4f-45b6-bc73-6b3644fd9651","ios":"levelo://app?vid=5919a7e3-6a4f-45b6-bc73-6b3644fd9651"},"vehicle_type_id":"4","last_reported":1712643012,"current_range_meters":27600,"station_id":"ce4bgup2rcd13ifvqcn0","pricing_plan_id":"cebpf4jnsgd1na2vs0mg"},{"bike_id":"e050f8ff-7db9-47bc-b082-a0d2a8c2d5d8","system_id":"levelo_inurba_marseille","lat":43.304606,"lon":5.379026,"is_reserved":false,"is_disabled":false,"rental_uris":{"android":"levelo://app?vid=e050f8ff-7db9-47bc-b082-a0d2a8c2d5d8","ios":"levelo://app?vid=e050f8ff-7db9-47bc-b082-a0d2a8c2d5d8"},"vehicle_type_id":"4","last_reported":1712643012,"current_range_meters":25600,"station_id":"ce4bgup2rcd13ifvqcn0","pricing_plan_id":"cebpf4jnsgd1na2vs0mg"},{"bike_id":"01911ef8-24f2-4621-8dad-1e3b3df51ea0","system_id":"levelo_inurba_marseille","lat":43.304606,"lon":5.379026,"is_reserved":false,"is_disabled":false,"rental_uris":{"android":"levelo://app?vid=01911ef8-24f2-4621-8dad-1e3b3df51ea0","ios":"levelo://app?vid=01911ef8-24f2-4621-8dad-1e3b3df51ea0"},"vehicle_type_id":"4","last_reported":1712643012,"current_range_meters":17600,"station_id":"ce4bgup2rcd13ifvqcn0","pricing_plan_id":"cebpf4jnsgd1na2vs0mg"},{"bike_id":"0f56ad95-1c4f-4d54-bde0-f5853febd9ad","system_id":"levelo_inurba_marseille","lat":43.30467,"lon":5.37914,"is_reserved":false,"is_disabled":false,"rental_uris":{"android":"levelo://app?vid=0f56ad95-1c4f-4d54-bde0-f5853febd9ad","ios":"levelo://app?vid=0f56ad95-1c4f-4d54-bde0-f5853febd9ad"},"vehicle_type_id":"4","last_reported":1712643012,"current_range_meters":26400,"station_id":"ce4bgup2rcd13ifvqcn0","pricing_plan_id":"cebpf4jnsgd1na2vs0mg"},{"bike_id":"545351b6-9df7-47c5-ad3d-f4709b30b07d","system_id":"levelo_inurba_marseille","lat":43.304606,"lon":5.379026,"is_reserved":false,"is_disabled":false,"rental_uris":{"android":"levelo://app?vid=545351b6-9df7-47c5-ad3d-f4709b30b07d","ios":"levelo://app?vid=545351b6-9df7-47c5-ad3d-f4709b30b07d"},"vehicle_type_id":"4","last_reported":1712643012,"current_range_meters":0,"station_id":"ce4bgup2rcd13ifvqcn0","pricing_plan_id":"cebpf4jnsgd1na2vs0mg"},{"bike_id":"63912027-134a-491e-a309-ffd60f6ec977","system_id":"levelo_inurba_marseille","lat":43.304606,"lon":5.379026,"is_reserved":false,"is_disabled":false,"rental_uris":{"android":"levelo://app?vid=63912027-134a-491e-a309-ffd60f6ec977","ios":"levelo://app?vid=63912027-134a-491e-a309-ffd60f6ec977"},"vehicle_type_id":"4","last_reported":1712643012,"current_range_meters":11200,"station_id":"ce4bgup2rcd13ifvqcn0","pricing_plan_id":"cebpf4jnsgd1na2vs0mg"},{"bike_id":"23954be4-10e9-48d6-973e-3bee693b169b","system_id":"levelo_inurba_marseille","lat":43.30465,"lon":5.37913,"is_reserved":false,"is_disabled":false,"rental_uris":{"android":"levelo://app?vid=23954be4-10e9-48d6-973e-3bee693b169b","ios":"levelo://app?vid=23954be4-10e9-48d6-973e-3bee693b169b"},"vehicle_type_id":"4","last_reported":1712643012,"current_range_meters":0,"station_id":"ce4bgup2rcd13ifvqcn0","pricing_plan_id":"cebpf4jnsgd1na2vs0mg"},{"bike_id":"f486fac4-496e-44b6-aac8-7d5d47bba681","system_id":"levelo_inurba_marseille","lat":43.304606,"lon":5.379026,"is_reserved":false,"is_disabled":false,"rental_uris":{"android":"levelo://app?vid=f486fac4-496e-44b6-aac8-7d5d47bba681","ios":"levelo://app?vid=f486fac4-496e-44b6-aac8-7d5d47bba681"},"vehicle_type_id":"4","last_reported":1712643012,"current_range_meters":29200,"station_id":"ce4bgup2rcd13ifvqcn0","pricing_plan_id":"cebpf4jnsgd1na2vs0mg"},{"bike_id":"3a23f870-35da-4549-afee-8d8b2264646b","system_id":"levelo_inurba_marseille","lat":43.30466,"lon":5.37915,"is_reserved":false,"is_disabled":false,"rental_uris":{"android":"levelo://app?vid=3a23f870-35da-4549-afee-8d8b2264646b","ios":"levelo://app?vid=3a23f870-35da-4549-afee-8d8b2264646b"},"vehicle_type_id":"4","last_reported":1712643012,"current_range_meters":21600,"station_id":"ce4bgup2rcd13ifvqcn0","pricing_plan_id":"cebpf4jnsgd1na2vs0mg"},{"bike_id":"d766b45e-0f65-41d9-b400-c7740846e717","system_id":"levelo_inurba_marseille","lat":43.304606,"lon":5.379026,"is_reserved":false,"is_disabled":false,"rental_uris":{"android":"levelo://app?vid=d766b45e-0f65-41d9-b400-c7740846e717","ios":"levelo://app?vid=d766b45e-0f65-41d9-b400-c7740846e717"},"vehicle_type_id":"4","last_reported":1712643012,"current_range_meters":26400,"station_id":"ce4bgup2rcd13ifvqcn0","pricing_plan_id":"cebpf4jnsgd1na2vs0mg"},{"bike_id":"2fd04988-19fd-4ec6-a2e5-c3e7e68505fa","system_id":"levelo_inurba_marseille","lat":43.30466,"lon":5.37916,"is_reserved":false,"is_disabled":false,"rental_uris":{"android":"levelo://app?vid=2fd04988-19fd-4ec6-a2e5-c3e7e68505fa","ios":"levelo://app?vid=2fd04988-19fd-4ec6-a2e5-c3e7e68505fa"},"vehicle_type_id":"4","last_reported":1712643012,"current_range_meters":26400,"station_id":"ce4bgup2rcd13ifvqcn0","pricing_plan_id":"cebpf4jnsgd1na2vs0mg"},{"bike_id":"9bbcf450-5646-44e2-8172-79db7ec50fe8","system_id":"levelo_inurba_marseille","lat":43.30454,"lon":5.37901,"is_reserved":false,"is_disabled":false,"rental_uris":{"android":"levelo://app?vid=9bbcf450-5646-44e2-8172-79db7ec50fe8","ios":"levelo://app?vid=9bbcf450-5646-44e2-8172-79db7ec50fe8"},"vehicle_type_id":"4","last_reported":1712643012,"current_range_meters":15200,"station_id":"ce4bgup2rcd13ifvqcn0","pricing_plan_id":"cebpf4jnsgd1na2vs0mg"},{"bike_id":"f2f0a323-f4cf-4d69-bda0-3382b45e92bd","system_id":"levelo_inurba_marseille","lat":43.324735,"lon":5.365783,"is_reserved":false,"is_disabled":false,"rental_uris":{"android":"levelo://app?vid=f2f0a323-f4cf-4d69-bda0-3382b45e92bd","ios":"levelo://app?vid=f2f0a323-f4cf-4d69-bda0-3382b45e92bd"},"vehicle_type_id":"4","last_reported":1712643012,"current_range_meters":8000,"station_id":"ce4bhs12rcd13ifvqhvg","pricing_plan_id":"cebpf4jnsgd1na2vs0mg"},{"bike_id":"61cb9232-bcfc-45b8-be19-d9c92ea823e8","system_id":"levelo_inurba_marseille","lat":43.30465,"lon":5.37916,"is_reserved":false,"is_disabled":false,"rental_uris":{"android":"levelo://app?vid=61cb9232-bcfc-45b8-be19-d9c92ea823e8","ios":"levelo://app?vid=61cb9232-bcfc-45b8-be19-d9c92ea823e8"},"vehicle_type_id":"4","last_reported":1712643012,"current_range_meters":27200,"station_id":"ce4bgup2rcd13ifvqcn0","pricing_plan_id":"cebpf4jnsgd1na2vs0mg"},{"bike_id":"b923225d-9cd4-42e2-9c83-d3ff563301d2","system_id":"levelo_inurba_marseille","lat":43.304606,"lon":5.379026,"is_reserved":false,"is_disabled":false,"rental_uris":{"android":"levelo://app?vid=b923225d-9cd4-42e2-9c83-d3ff563301d2","ios":"levelo://app?vid=b923225d-9cd4-42e2-9c83-d3ff563301d2"},"vehicle_type_id":"4","last_reported":1712643012,"current_range_meters":16800,"station_id":"ce4bgup2rcd13ifvqcn0","pricing_plan_id":"cebpf4jnsgd1na2vs0mg"},{"bike_id":"836f4623-2225-47ca-a21d-c74ac7e67ab4","system_id":"levelo_inurba_marseille","lat":43.324746,"lon":5.365695,"is_reserved":false,"is_disabled":false,"rental_uris":{"android":"levelo://app?vid=836f4623-2225-47ca-a21d-c74ac7e67ab4","ios":"levelo://app?vid=836f4623-2225-47ca-a21d-c74ac7e67ab4"},"vehicle_type_id":"4","last_reported":1712643012,"current_range_meters":16400,"station_id":"ce4bhs12rcd13ifvqhvg","pricing_plan_id":"cebpf4jnsgd1na2vs0mg"},{"bike_id":"4c040328-7b13-46d7-a4be-04e5dbd6ea96","system_id":"levelo_inurba_marseille","lat":43.30461,"lon":5.37913,"is_reserved":false,"is_disabled":false,"rental_uris":{"android":"levelo://app?vid=4c040328-7b13-46d7-a4be-04e5dbd6ea96","ios":"levelo://app?vid=4c040328-7b13-46d7-a4be-04e5dbd6ea96"},"vehicle_type_id":"4","last_reported":1712643012,"current_range_meters":24400,"station_id":"ce4bgup2rcd13ifvqcn0","pricing_plan_id":"cebpf4jnsgd1na2vs0mg"},{"bike_id":"1c6e38a6-efb1-4f5a-ac25-564e241ae365","system_id":"levelo_inurba_marseille","lat":43.30464,"lon":5.37917,"is_reserved":false,"is_disabled":false,"rental_uris":{"android":"levelo://app?vid=1c6e38a6-efb1-4f5a-ac25-564e241ae365","ios":"levelo://app?vid=1c6e38a6-efb1-4f5a-ac25-564e241ae365"},"vehicle_type_id":"4","last_reported":1712643012,"current_range_meters":15600,"station_id":"ce4bgup2rcd13ifvqcn0","pricing_plan_id":"cebpf4jnsgd1na2vs0mg"},{"bike_id":"c4737b20-fe34-4c1a-bd03-42548ee2bffc","system_id":"levelo_inurba_marseille","lat":43.304606,"lon":5.379026,"is_reserved":false,"is_disabled":false,"rental_uris":{"android":"levelo://app?vid=c4737b20-fe34-4c1a-bd03-42548ee2bffc","ios":"levelo://app?vid=c4737b20-fe34-4c1a-bd03-42548ee2bffc"},"vehicle_type_id":"4","last_reported":1712643012,"current_range_meters":24000,"station_id":"ce4bgup2rcd13ifvqcn0","pricing_plan_id":"cebpf4jnsgd1na2vs0mg"},{"bike_id":"35412edd-74e4-44f8-a807-9648157d4ff2","system_id":"levelo_inurba_marseille","lat":43.30461,"lon":5.37915,"is_reserved":false,"is_disabled":false,"rental_uris":{"android":"levelo://app?vid=35412edd-74e4-44f8-a807-9648157d4ff2","ios":"levelo://app?vid=35412edd-74e4-44f8-a807-9648157d4ff2"},"vehicle_type_id":"4","last_reported":1712643012,"current_range_meters":19200,"station_id":"ce4bgup2rcd13ifvqcn0","pricing_plan_id":"cebpf4jnsgd1na2vs0mg"},{"bike_id":"e8cc3e29-405e-4466-b16b-656473fc5705","system_id":"levelo_inurba_marseille","lat":43.30463,"lon":5.37918,"is_reserved":false,"is_disabled":false,"rental_uris":{"android":"levelo://app?vid=e8cc3e29-405e-4466-b16b-656473fc5705","ios":"levelo://app?vid=e8cc3e29-405e-4466-b16b-656473fc5705"},"vehicle_type_id":"4","last_reported":1712643012,"current_range_meters":7200,"station_id":"ce4bgup2rcd13ifvqcn0","pricing_plan_id":"cebpf4jnsgd1na2vs0mg"},{"bike_id":"04c221ad-24e4-40a8-bddc-d5f9be92f87c","system_id":"levelo_inurba_marseille","lat":43.30461,"lon":5.37918,"is_reserved":false,"is_disabled":false,"rental_uris":{"android":"levelo://app?vid=04c221ad-24e4-40a8-bddc-d5f9be92f87c","ios":"levelo://app?vid=04c221ad-24e4-40a8-bddc-d5f9be92f87c"},"vehicle_type_id":"4","last_reported":1712643012,"current_range_meters":18800,"station_id":"ce4bgup2rcd13ifvqcn0","pricing_plan_id":"cebpf4jnsgd1na2vs0mg"},{"bike_id":"230b06dd-c258-43de-a6d8-36658cf6bf6b","system_id":"levelo_inurba_marseille","lat":43.304606,"lon":5.379026,"is_reserved":false,"is_disabled":false,"rental_uris":{"android":"levelo://app?vid=230b06dd-c258-43de-a6d8-36658cf6bf6b","ios":"levelo://app?vid=230b06dd-c258-43de-a6d8-36658cf6bf6b"},"vehicle_type_id":"4","last_reported":1712643012,"current_range_meters":18000,"station_id":"ce4bgup2rcd13ifvqcn0","pricing_plan_id":"cebpf4jnsgd1na2vs0mg"},{"bike_id":"d453f5f1-b263-477b-864b-bf2146099cf6","system_id":"levelo_inurba_marseille","lat":43.324771,"lon":5.36557,"is_reserved":false,"is_disabled":false,"rental_uris":{"android":"levelo://app?vid=d453f5f1-b263-477b-864b-bf2146099cf6","ios":"levelo://app?vid=d453f5f1-b263-477b-864b-bf2146099cf6"},"vehicle_type_id":"4","last_reported":1712643012,"current_range_meters":17600,"station_id":"ce4bhs12rcd13ifvqhvg","pricing_plan_id":"cebpf4jnsgd1na2vs0mg"},{"bike_id":"379c4247-c7ad-4b52-980f-76aeb00dc27f","system_id":"levelo_inurba_marseille","lat":43.304606,"lon":5.379026,"is_reserved":false,"is_disabled":false,"rental_uris":{"android":"levelo://app?vid=379c4247-c7ad-4b52-980f-76aeb00dc27f","ios":"levelo://app?vid=379c4247-c7ad-4b52-980f-76aeb00dc27f"},"vehicle_type_id":"4","last_reported":1712643012,"current_range_meters":30400,"station_id":"ce4bgup2rcd13ifvqcn0","pricing_plan_id":"cebpf4jnsgd1na2vs0mg"},{"bike_id":"8ed367b2-7b9b-42f8-8bc9-8023a87e8260","system_id":"levelo_inurba_marseille","lat":43.308051,"lon":5.43527,"is_reserved":false,"is_disabled":false,"rental_uris":{"android":"levelo://app?vid=8ed367b2-7b9b-42f8-8bc9-8023a87e8260","ios":"levelo://app?vid=8ed367b2-7b9b-42f8-8bc9-8023a87e8260"},"vehicle_type_id":"4","last_reported":1712643012,"current_range_meters":0,"station_id":"ce4bhph2rcd13ifvqheg","pricing_plan_id":"cebpf4jnsgd1na2vs0mg"},{"bike_id":"b61f5fce-3370-4eb2-9cfe-757ef3a5f155","system_id":"levelo_inurba_marseille","lat":43.324771,"lon":5.36557,"is_reserved":false,"is_disabled":false,"rental_uris":{"android":"levelo://app?vid=b61f5fce-3370-4eb2-9cfe-757ef3a5f155","ios":"levelo://app?vid=b61f5fce-3370-4eb2-9cfe-757ef3a5f155"},"vehicle_type_id":"4","last_reported":1712643012,"current_range_meters":23600,"station_id":"ce4bhs12rcd13ifvqhvg","pricing_plan_id":"cebpf4jnsgd1na2vs0mg"},{"bike_id":"dd1eeaf3-7ce5-435e-b6c8-fd616106d621","system_id":"levelo_inurba_marseille","lat":43.324771,"lon":5.36557,"is_reserved":false,"is_disabled":false,"rental_uris":{"android":"levelo://app?vid=dd1eeaf3-7ce5-435e-b6c8-fd616106d621","ios":"levelo://app?vid=dd1eeaf3-7ce5-435e-b6c8-fd616106d621"},"vehicle_type_id":"4","last_reported":1712643012,"current_range_meters":17600,"station_id":"ce4bhs12rcd13ifvqhvg","pricing_plan_id":"cebpf4jnsgd1na2vs0mg"},{"bike_id":"28a60fa5-83d7-47ac-8e02-bbd9305ed0d8","system_id":"levelo_inurba_marseille","lat":43.324835,"lon":5.365717,"is_reserved":false,"is_disabled":false,"rental_uris":{"android":"levelo://app?vid=28a60fa5-83d7-47ac-8e02-bbd9305ed0d8","ios":"levelo://app?vid=28a60fa5-83d7-47ac-8e02-bbd9305ed0d8"},"vehicle_type_id":"4","last_reported":1712643012,"current_range_meters":12400,"station_id":"ce4bhs12rcd13ifvqhvg","pricing_plan_id":"cebpf4jnsgd1na2vs0mg"},{"bike_id":"93f39419-5cbf-400a-91d0-19b962f1e4df","system_id":"levelo_inurba_marseille","lat":43.324771,"lon":5.36557,"is_reserved":false,"is_disabled":false,"rental_uris":{"android":"levelo://app?vid=93f39419-5cbf-400a-91d0-19b962f1e4df","ios":"levelo://app?vid=93f39419-5cbf-400a-91d0-19b962f1e4df"},"vehicle_type_id":"4","last_reported":1712643012,"current_range_meters":3200,"station_id":"ce4bhs12rcd13ifvqhvg","pricing_plan_id":"cebpf4jnsgd1na2vs0mg"},{"bike_id":"7f1175c4-0172-440d-b61d-b816cff96fbc","system_id":"levelo_inurba_marseille","lat":43.324771,"lon":5.36557,"is_reserved":false,"is_disabled":false,"rental_uris":{"android":"levelo://app?vid=7f1175c4-0172-440d-b61d-b816cff96fbc","ios":"levelo://app?vid=7f1175c4-0172-440d-b61d-b816cff96fbc"},"vehicle_type_id":"4","last_reported":1712643012,"current_range_meters":19600,"station_id":"ce4bhs12rcd13ifvqhvg","pricing_plan_id":"cebpf4jnsgd1na2vs0mg"},{"bike_id":"5cd7436a-1c11-4873-af7d-baa07ac34cd8","system_id":"levelo_inurba_marseille","lat":43.324771,"lon":5.36557,"is_reserved":false,"is_disabled":false,"rental_uris":{"android":"levelo://app?vid=5cd7436a-1c11-4873-af7d-baa07ac34cd8","ios":"levelo://app?vid=5cd7436a-1c11-4873-af7d-baa07ac34cd8"},"vehicle_type_id":"4","last_reported":1712643012,"current_range_meters":20000,"station_id":"ce4bhs12rcd13ifvqhvg","pricing_plan_id":"cebpf4jnsgd1na2vs0mg"},{"bike_id":"466fa14b-daa3-4177-b540-e71b4a8e6995","system_id":"levelo_inurba_marseille","lat":43.324771,"lon":5.36557,"is_reserved":false,"is_disabled":false,"rental_uris":{"android":"levelo://app?vid=466fa14b-daa3-4177-b540-e71b4a8e6995","ios":"levelo://app?vid=466fa14b-daa3-4177-b540-e71b4a8e6995"},"vehicle_type_id":"4","last_reported":1712643012,"current_range_meters":19200,"station_id":"ce4bhs12rcd13ifvqhvg","pricing_plan_id":"cebpf4jnsgd1na2vs0mg"},{"bike_id":"d3b996e9-4da1-4b89-87ff-4d5a0f28982e","system_id":"levelo_inurba_marseille","lat":43.324771,"lon":5.36557,"is_reserved":false,"is_disabled":false,"rental_uris":{"android":"levelo://app?vid=d3b996e9-4da1-4b89-87ff-4d5a0f28982e","ios":"levelo://app?vid=d3b996e9-4da1-4b89-87ff-4d5a0f28982e"},"vehicle_type_id":"4","last_reported":1712643012,"current_range_meters":13200,"station_id":"ce4bhs12rcd13ifvqhvg","pricing_plan_id":"cebpf4jnsgd1na2vs0mg"},{"bike_id":"283da5af-0978-4b77-956e-e1a7194bb769","system_id":"levelo_inurba_marseille","lat":43.3045,"lon":5.3792,"is_reserved":false,"is_disabled":false,"rental_uris":{"android":"levelo://app?vid=283da5af-0978-4b77-956e-e1a7194bb769","ios":"levelo://app?vid=283da5af-0978-4b77-956e-e1a7194bb769"},"vehicle_type_id":"4","last_reported":1712643012,"current_range_meters":27600,"station_id":"ce4bgup2rcd13ifvqcn0","pricing_plan_id":"cebpf4jnsgd1na2vs0mg"},{"bike_id":"27c81a18-cdda-4f1a-8d82-041f4af2b280","system_id":"levelo_inurba_marseille","lat":43.310804,"lon":5.38359,"is_reserved":false,"is_disabled":false,"rental_uris":{"android":"levelo://app?vid=27c81a18-cdda-4f1a-8d82-041f4af2b280","ios":"levelo://app?vid=27c81a18-cdda-4f1a-8d82-041f4af2b280"},"vehicle_type_id":"4","last_reported":1712643012,"current_range_meters":11200,"station_id":"ce4bgv92rcd13ifvqcr0","pricing_plan_id":"cebpf4jnsgd1na2vs0mg"},{"bike_id":"d12e7c2e-a3f2-4647-9ec1-aad839340afa","system_id":"levelo_inurba_marseille","lat":43.324771,"lon":5.36557,"is_reserved":false,"is_disabled":false,"rental_uris":{"android":"levelo://app?vid=d12e7c2e-a3f2-4647-9ec1-aad839340afa","ios":"levelo://app?vid=d12e7c2e-a3f2-4647-9ec1-aad839340afa"},"vehicle_type_id":"4","last_reported":1712643012,"current_range_meters":12800,"station_id":"ce4bhs12rcd13ifvqhvg","pricing_plan_id":"cebpf4jnsgd1na2vs0mg"},{"bike_id":"0e3ce77f-c3c0-46ac-b6ec-8f5c837ca48f","system_id":"levelo_inurba_marseille","lat":43.310804,"lon":5.38359,"is_reserved":false,"is_disabled":false,"rental_uris":{"android":"levelo://app?vid=0e3ce77f-c3c0-46ac-b6ec-8f5c837ca48f","ios":"levelo://app?vid=0e3ce77f-c3c0-46ac-b6ec-8f5c837ca48f"},"vehicle_type_id":"4","last_reported":1712643012,"current_range_meters":26000,"station_id":"ce4bgv92rcd13ifvqcr0","pricing_plan_id":"cebpf4jnsgd1na2vs0mg"},{"bike_id":"34686248-6228-47fd-9a7f-19c354edc132","system_id":"levelo_inurba_marseille","lat":43.26681,"lon":5.382694,"is_reserved":false,"is_disabled":false,"rental_uris":{"android":"levelo://app?vid=34686248-6228-47fd-9a7f-19c354edc132","ios":"levelo://app?vid=34686248-6228-47fd-9a7f-19c354edc132"},"vehicle_type_id":"4","last_reported":1712643012,"current_range_meters":23600,"station_id":"ce4bhg92rcd13ifvqf90","pricing_plan_id":"cebpf4jnsgd1na2vs0mg"},{"bike_id":"c495c597-b2ac-4a12-897a-49b245b1be06","system_id":"levelo_inurba_marseille","lat":43.304606,"lon":5.379026,"is_reserved":false,"is_disabled":false,"rental_uris":{"android":"levelo://app?vid=c495c597-b2ac-4a12-897a-49b245b1be06","ios":"levelo://app?vid=c495c597-b2ac-4a12-897a-49b245b1be06"},"vehicle_type_id":"4","last_reported":1712643012,"current_range_meters":26400,"station_id":"ce4bgup2rcd13ifvqcn0","pricing_plan_id":"cebpf4jnsgd1na2vs0mg"},{"bike_id":"16f6fd52-e86a-4679-81cb-ce293889e27f","system_id":"levelo_inurba_marseille","lat":43.302784,"lon":5.377158,"is_reserved":false,"is_disabled":false,"rental_uris":{"android":"levelo://app?vid=16f6fd52-e86a-4679-81cb-ce293889e27f","ios":"levelo://app?vid=16f6fd52-e86a-4679-81cb-ce293889e27f"},"vehicle_type_id":"4","last_reported":1712643012,"current_range_meters":22400,"station_id":"ce4bguh2rcd13ifvqcj0","pricing_plan_id":"cebpf4jnsgd1na2vs0mg"},{"bike_id":"9d2d01cc-41c1-4b88-915a-9f512adb5e6c","system_id":"levelo_inurba_marseille","lat":43.302784,"lon":5.377158,"is_reserved":false,"is_disabled":false,"rental_uris":{"android":"levelo://app?vid=9d2d01cc-41c1-4b88-915a-9f512adb5e6c","ios":"levelo://app?vid=9d2d01cc-41c1-4b88-915a-9f512adb5e6c"},"vehicle_type_id":"4","last_reported":1712643012,"current_range_meters":31600,"station_id":"ce4bguh2rcd13ifvqcj0","pricing_plan_id":"cebpf4jnsgd1na2vs0mg"},{"bike_id":"5fd4bf83-0402-4db0-84a7-76cc39331e1b","system_id":"levelo_inurba_marseille","lat":43.302784,"lon":5.377158,"is_reserved":false,"is_disabled":false,"rental_uris":{"android":"levelo://app?vid=5fd4bf83-0402-4db0-84a7-76cc39331e1b","ios":"levelo://app?vid=5fd4bf83-0402-4db0-84a7-76cc39331e1b"},"vehicle_type_id":"4","last_reported":1712643012,"current_range_meters":28400,"station_id":"ce4bguh2rcd13ifvqcj0","pricing_plan_id":"cebpf4jnsgd1na2vs0mg"},{"bike_id":"d566bd6c-d076-4292-9ebb-0a174a0709f7","system_id":"levelo_inurba_marseille","lat":43.319935,"lon":5.381699,"is_reserved":false,"is_disabled":false,"rental_uris":{"android":"levelo://app?vid=d566bd6c-d076-4292-9ebb-0a174a0709f7","ios":"levelo://app?vid=d566bd6c-d076-4292-9ebb-0a174a0709f7"},"vehicle_type_id":"4","last_reported":1712643012,"current_range_meters":16000,"station_id":"ce4bhr12rcd13ifvqhpg","pricing_plan_id":"cebpf4jnsgd1na2vs0mg"},{"bike_id":"32bd00e6-0c5f-41af-9d27-da3b7149f7e8","system_id":"levelo_inurba_marseille","lat":43.294314,"lon":5.397498,"is_reserved":false,"is_disabled":false,"rental_uris":{"android":"levelo://app?vid=32bd00e6-0c5f-41af-9d27-da3b7149f7e8","ios":"levelo://app?vid=32bd00e6-0c5f-41af-9d27-da3b7149f7e8"},"vehicle_type_id":"4","last_reported":1712643012,"current_range_meters":19600,"station_id":"ce4bh3h2rcd13ifvqdo0","pricing_plan_id":"cebpf4jnsgd1na2vs0mg"},{"bike_id":"6f9b75b1-106f-4e6d-8ba9-75aa3d54b035","system_id":"levelo_inurba_marseille","lat":43.313571,"lon":5.384829,"is_reserved":false,"is_disabled":false,"rental_uris":{"android":"levelo://app?vid=6f9b75b1-106f-4e6d-8ba9-75aa3d54b035","ios":"levelo://app?vid=6f9b75b1-106f-4e6d-8ba9-75aa3d54b035"},"vehicle_type_id":"4","last_reported":1712643012,"current_range_meters":27200,"station_id":"ce4bgt92rcd13ifvqcf0","pricing_plan_id":"cebpf4jnsgd1na2vs0mg"},{"bike_id":"63c3e686-946e-44bf-9e01-80d49a65e66b","system_id":"levelo_inurba_marseille","lat":43.299724,"lon":5.371829,"is_reserved":false,"is_disabled":false,"rental_uris":{"android":"levelo://app?vid=63c3e686-946e-44bf-9e01-80d49a65e66b","ios":"levelo://app?vid=63c3e686-946e-44bf-9e01-80d49a65e66b"},"vehicle_type_id":"4","last_reported":1712643012,"current_range_meters":5600,"station_id":"ce4bgr92rcd13ifvqc7g","pricing_plan_id":"cebpf4jnsgd1na2vs0mg"},{"bike_id":"eb39704d-43f7-4240-86d2-77e60bcfa8d7","system_id":"levelo_inurba_marseille","lat":43.299724,"lon":5.371829,"is_reserved":false,"is_disabled":false,"rental_uris":{"android":"levelo://app?vid=eb39704d-43f7-4240-86d2-77e60bcfa8d7","ios":"levelo://app?vid=eb39704d-43f7-4240-86d2-77e60bcfa8d7"},"vehicle_type_id":"4","last_reported":1712643012,"current_range_meters":18800,"station_id":"ce4bgr92rcd13ifvqc7g","pricing_plan_id":"cebpf4jnsgd1na2vs0mg"},{"bike_id":"6dd41630-0d30-49ba-aea5-20e574d5d65b","system_id":"levelo_inurba_marseille","lat":43.298569,"lon":5.364397,"is_reserved":false,"is_disabled":false,"rental_uris":{"android":"levelo://app?vid=6dd41630-0d30-49ba-aea5-20e574d5d65b","ios":"levelo://app?vid=6dd41630-0d30-49ba-aea5-20e574d5d65b"},"vehicle_type_id":"4","last_reported":1712643012,"current_range_meters":10800,"station_id":"","pricing_plan_id":"cebpf4jnsgd1na2vs0mg"},{"bike_id":"501c6822-73f2-479c-901c-70c7c46b4b54","system_id":"levelo_inurba_marseille","lat":43.298433,"lon":5.362774,"is_reserved":false,"is_disabled":false,"rental_uris":{"android":"levelo://app?vid=501c6822-73f2-479c-901c-70c7c46b4b54","ios":"levelo://app?vid=501c6822-73f2-479c-901c-70c7c46b4b54"},"vehicle_type_id":"4","last_reported":1712643012,"current_range_meters":28400,"station_id":"ce4bgpp2rcd13ifvqc3g","pricing_plan_id":"cebpf4jnsgd1na2vs0mg"},{"bike_id":"5175f9f2-6207-43bc-b341-dc7dd501faac","system_id":"levelo_inurba_marseille","lat":43.305364,"lon":5.384119,"is_reserved":false,"is_disabled":false,"rental_uris":{"android":"levelo://app?vid=5175f9f2-6207-43bc-b341-dc7dd501faac","ios":"levelo://app?vid=5175f9f2-6207-43bc-b341-dc7dd501faac"},"vehicle_type_id":"4","last_reported":1712643012,"current_range_meters":31200,"station_id":"ce4bgg92rcd13ifvqb30","pricing_plan_id":"cebpf4jnsgd1na2vs0mg"},{"bike_id":"a0d06d39-3929-430a-974d-c2fd04d006f7","system_id":"levelo_inurba_marseille","lat":43.29843,"lon":5.362707,"is_reserved":false,"is_disabled":false,"rental_uris":{"android":"levelo://app?vid=a0d06d39-3929-430a-974d-c2fd04d006f7","ios":"levelo://app?vid=a0d06d39-3929-430a-974d-c2fd04d006f7"},"vehicle_type_id":"4","last_reported":1712643012,"current_range_meters":21600,"station_id":"ce4bgpp2rcd13ifvqc3g","pricing_plan_id":"cebpf4jnsgd1na2vs0mg"},{"bike_id":"430afc4e-1068-4fd3-9670-3e962f3e07c5","system_id":"levelo_inurba_marseille","lat":43.298433,"lon":5.362774,"is_reserved":false,"is_disabled":false,"rental_uris":{"android":"levelo://app?vid=430afc4e-1068-4fd3-9670-3e962f3e07c5","ios":"levelo://app?vid=430afc4e-1068-4fd3-9670-3e962f3e07c5"},"vehicle_type_id":"4","last_reported":1712643012,"current_range_meters":30400,"station_id":"ce4bgpp2rcd13ifvqc3g","pricing_plan_id":"cebpf4jnsgd1na2vs0mg"},{"bike_id":"969454bb-1922-4ee2-8098-8aec76befa4f","system_id":"levelo_inurba_marseille","lat":43.311751,"lon":5.38712,"is_reserved":false,"is_disabled":false,"rental_uris":{"android":"levelo://app?vid=969454bb-1922-4ee2-8098-8aec76befa4f","ios":"levelo://app?vid=969454bb-1922-4ee2-8098-8aec76befa4f"},"vehicle_type_id":"4","last_reported":1712643012,"current_range_meters":9600,"station_id":"ce4bgv12rcd13ifvqcp0","pricing_plan_id":"cebpf4jnsgd1na2vs0mg"},{"bike_id":"b587ca8f-8324-471a-8225-164c8114b5ee","system_id":"levelo_inurba_marseille","lat":43.300446,"lon":5.378121,"is_reserved":false,"is_disabled":false,"rental_uris":{"android":"levelo://app?vid=b587ca8f-8324-471a-8225-164c8114b5ee","ios":"levelo://app?vid=b587ca8f-8324-471a-8225-164c8114b5ee"},"vehicle_type_id":"4","last_reported":1712643012,"current_range_meters":12800,"station_id":"","pricing_plan_id":"cebpf4jnsgd1na2vs0mg"},{"bike_id":"3e59982c-248e-4044-9d87-0b43d6a19f72","system_id":"levelo_inurba_marseille","lat":43.31173,"lon":5.38718,"is_reserved":false,"is_disabled":false,"rental_uris":{"android":"levelo://app?vid=3e59982c-248e-4044-9d87-0b43d6a19f72","ios":"levelo://app?vid=3e59982c-248e-4044-9d87-0b43d6a19f72"},"vehicle_type_id":"4","last_reported":1712643012,"current_range_meters":14000,"station_id":"ce4bgv12rcd13ifvqcp0","pricing_plan_id":"cebpf4jnsgd1na2vs0mg"},{"bike_id":"3fe9b5cf-f86d-42d8-b907-de4b160f3b06","system_id":"levelo_inurba_marseille","lat":43.31169,"lon":5.38718,"is_reserved":false,"is_disabled":false,"rental_uris":{"android":"levelo://app?vid=3fe9b5cf-f86d-42d8-b907-de4b160f3b06","ios":"levelo://app?vid=3fe9b5cf-f86d-42d8-b907-de4b160f3b06"},"vehicle_type_id":"4","last_reported":1712643012,"current_range_meters":3600,"station_id":"ce4bgv12rcd13ifvqcp0","pricing_plan_id":"cebpf4jnsgd1na2vs0mg"},{"bike_id":"558bf223-8b82-4c8f-a115-081f4b2a4c13","system_id":"levelo_inurba_marseille","lat":43.31168,"lon":5.38728,"is_reserved":false,"is_disabled":false,"rental_uris":{"android":"levelo://app?vid=558bf223-8b82-4c8f-a115-081f4b2a4c13","ios":"levelo://app?vid=558bf223-8b82-4c8f-a115-081f4b2a4c13"},"vehicle_type_id":"4","last_reported":1712643012,"current_range_meters":26000,"station_id":"","pricing_plan_id":"cebpf4jnsgd1na2vs0mg"},{"bike_id":"3077b952-a308-458d-b1d2-fc92f760efb4","system_id":"levelo_inurba_marseille","lat":43.297842,"lon":5.371063,"is_reserved":false,"is_disabled":false,"rental_uris":{"android":"levelo://app?vid=3077b952-a308-458d-b1d2-fc92f760efb4","ios":"levelo://app?vid=3077b952-a308-458d-b1d2-fc92f760efb4"},"vehicle_type_id":"4","last_reported":1712643012,"current_range_meters":12800,"station_id":"ce4bgop2rcd13ifvqc1g","pricing_plan_id":"cebpf4jnsgd1na2vs0mg"},{"bike_id":"387cda00-5bc8-4e45-a6fa-6a2b57e1dc43","system_id":"levelo_inurba_marseille","lat":43.297794,"lon":5.370888,"is_reserved":false,"is_disabled":false,"rental_uris":{"android":"levelo://app?vid=387cda00-5bc8-4e45-a6fa-6a2b57e1dc43","ios":"levelo://app?vid=387cda00-5bc8-4e45-a6fa-6a2b57e1dc43"},"vehicle_type_id":"4","last_reported":1712643012,"current_range_meters":8000,"station_id":"ce4bgop2rcd13ifvqc1g","pricing_plan_id":"cebpf4jnsgd1na2vs0mg"},{"bike_id":"ce262d47-6adc-4310-a652-b999cfa2d70d","system_id":"levelo_inurba_marseille","lat":43.322872,"lon":5.382756,"is_reserved":false,"is_disabled":false,"rental_uris":{"android":"levelo://app?vid=ce262d47-6adc-4310-a652-b999cfa2d70d","ios":"levelo://app?vid=ce262d47-6adc-4310-a652-b999cfa2d70d"},"vehicle_type_id":"4","last_reported":1712643012,"current_range_meters":31200,"station_id":"ce4bhr12rcd13ifvqhqg","pricing_plan_id":"cebpf4jnsgd1na2vs0mg"},{"bike_id":"4f6a2b4c-6725-485d-83c3-05cad3f78400","system_id":"levelo_inurba_marseille","lat":43.322902,"lon":5.382673,"is_reserved":false,"is_disabled":false,"rental_uris":{"android":"levelo://app?vid=4f6a2b4c-6725-485d-83c3-05cad3f78400","ios":"levelo://app?vid=4f6a2b4c-6725-485d-83c3-05cad3f78400"},"vehicle_type_id":"4","last_reported":1712643012,"current_range_meters":11200,"station_id":"ce4bhr12rcd13ifvqhqg","pricing_plan_id":"cebpf4jnsgd1na2vs0mg"},{"bike_id":"daf6230f-7b8a-4a86-aa66-9d143d04c30b","system_id":"levelo_inurba_marseille","lat":43.32294,"lon":5.38278,"is_reserved":false,"is_disabled":false,"rental_uris":{"android":"levelo://app?vid=daf6230f-7b8a-4a86-aa66-9d143d04c30b","ios":"levelo://app?vid=daf6230f-7b8a-4a86-aa66-9d143d04c30b"},"vehicle_type_id":"4","last_reported":1712643012,"current_range_meters":31200,"station_id":"ce4bhr12rcd13ifvqhqg","pricing_plan_id":"cebpf4jnsgd1na2vs0mg"},{"bike_id":"ed0d72ad-cfc9-45f7-b740-7ae9c610d25a","system_id":"levelo_inurba_marseille","lat":43.297794,"lon":5.370888,"is_reserved":false,"is_disabled":false,"rental_uris":{"android":"levelo://app?vid=ed0d72ad-cfc9-45f7-b740-7ae9c610d25a","ios":"levelo://app?vid=ed0d72ad-cfc9-45f7-b740-7ae9c610d25a"},"vehicle_type_id":"4","last_reported":1712643012,"current_range_meters":26000,"station_id":"ce4bgop2rcd13ifvqc1g","pricing_plan_id":"cebpf4jnsgd1na2vs0mg"},{"bike_id":"e73d6acf-a2f5-4218-a30c-4138e3e2fb5d","system_id":"levelo_inurba_marseille","lat":43.297163,"lon":5.365866,"is_reserved":false,"is_disabled":false,"rental_uris":{"android":"levelo://app?vid=e73d6acf-a2f5-4218-a30c-4138e3e2fb5d","ios":"levelo://app?vid=e73d6acf-a2f5-4218-a30c-4138e3e2fb5d"},"vehicle_type_id":"4","last_reported":1712643012,"current_range_meters":11600,"station_id":"ce4bgn12rcd13ifvqbt0","pricing_plan_id":"cebpf4jnsgd1na2vs0mg"},{"bike_id":"27099c8a-36f6-4545-8b90-8adf1e2985c6","system_id":"levelo_inurba_marseille","lat":43.297163,"lon":5.365866,"is_reserved":false,"is_disabled":false,"rental_uris":{"android":"levelo://app?vid=27099c8a-36f6-4545-8b90-8adf1e2985c6","ios":"levelo://app?vid=27099c8a-36f6-4545-8b90-8adf1e2985c6"},"vehicle_type_id":"4","last_reported":1712643012,"current_range_meters":28000,"station_id":"ce4bgn12rcd13ifvqbt0","pricing_plan_id":"cebpf4jnsgd1na2vs0mg"},{"bike_id":"705ca7cb-7700-4901-8d82-dc413b8ff73f","system_id":"levelo_inurba_marseille","lat":43.2968,"lon":5.37291,"is_reserved":false,"is_disabled":false,"rental_uris":{"android":"levelo://app?vid=705ca7cb-7700-4901-8d82-dc413b8ff73f","ios":"levelo://app?vid=705ca7cb-7700-4901-8d82-dc413b8ff73f"},"vehicle_type_id":"4","last_reported":1712643012,"current_range_meters":28800,"station_id":"ce4bgk12rcd13ifvqbj0","pricing_plan_id":"cebpf4jnsgd1na2vs0mg"},{"bike_id":"ef97e570-7aec-4765-a9ef-45a58db712e8","system_id":"levelo_inurba_marseille","lat":43.2968,"lon":5.37291,"is_reserved":false,"is_disabled":false,"rental_uris":{"android":"levelo://app?vid=ef97e570-7aec-4765-a9ef-45a58db712e8","ios":"levelo://app?vid=ef97e570-7aec-4765-a9ef-45a58db712e8"},"vehicle_type_id":"4","last_reported":1712643012,"current_range_meters":23600,"station_id":"ce4bgk12rcd13ifvqbj0","pricing_plan_id":"cebpf4jnsgd1na2vs0mg"},{"bike_id":"ecfa5616-6081-4cb6-a6c7-711932be47ec","system_id":"levelo_inurba_marseille","lat":43.29573,"lon":5.367355,"is_reserved":false,"is_disabled":false,"rental_uris":{"android":"levelo://app?vid=ecfa5616-6081-4cb6-a6c7-711932be47ec","ios":"levelo://app?vid=ecfa5616-6081-4cb6-a6c7-711932be47ec"},"vehicle_type_id":"4","last_reported":1712643012,"current_range_meters":30800,"station_id":"ce4bgph2rcd13ifvqc2g","pricing_plan_id":"cebpf4jnsgd1na2vs0mg"},{"bike_id":"2023217d-7a5b-4e93-b926-83b71b07715b","system_id":"levelo_inurba_marseille","lat":43.30957,"lon":5.39017,"is_reserved":false,"is_disabled":false,"rental_uris":{"android":"levelo://app?vid=2023217d-7a5b-4e93-b926-83b71b07715b","ios":"levelo://app?vid=2023217d-7a5b-4e93-b926-83b71b07715b"},"vehicle_type_id":"4","last_reported":1712643012,"current_range_meters":19200,"station_id":"ce4bgup2rcd13ifvqco0","pricing_plan_id":"cebpf4jnsgd1na2vs0mg"},{"bike_id":"df169b70-371d-4951-b59e-46c21e4804fe","system_id":"levelo_inurba_marseille","lat":43.299028,"lon":5.381509,"is_reserved":false,"is_disabled":false,"rental_uris":{"android":"levelo://app?vid=df169b70-371d-4951-b59e-46c21e4804fe","ios":"levelo://app?vid=df169b70-371d-4951-b59e-46c21e4804fe"},"vehicle_type_id":"4","last_reported":1712643012,"current_range_meters":28400,"station_id":"ce4bgj12rcd13ifvqbc0","pricing_plan_id":"cebpf4jnsgd1na2vs0mg"},{"bike_id":"52887656-1f59-42c2-9094-4a2748a6e6bb","system_id":"levelo_inurba_marseille","lat":43.309505,"lon":5.390221,"is_reserved":false,"is_disabled":false,"rental_uris":{"android":"levelo://app?vid=52887656-1f59-42c2-9094-4a2748a6e6bb","ios":"levelo://app?vid=52887656-1f59-42c2-9094-4a2748a6e6bb"},"vehicle_type_id":"4","last_reported":1712643012,"current_range_meters":26800,"station_id":"ce4bgup2rcd13ifvqco0","pricing_plan_id":"cebpf4jnsgd1na2vs0mg"},{"bike_id":"03492c6e-127d-4bde-bdaa-023fd9832c03","system_id":"levelo_inurba_marseille","lat":43.309589,"lon":5.390258,"is_reserved":false,"is_disabled":false,"rental_uris":{"android":"levelo://app?vid=03492c6e-127d-4bde-bdaa-023fd9832c03","ios":"levelo://app?vid=03492c6e-127d-4bde-bdaa-023fd9832c03"},"vehicle_type_id":"4","last_reported":1712643012,"current_range_meters":28800,"station_id":"ce4bgup2rcd13ifvqco0","pricing_plan_id":"cebpf4jnsgd1na2vs0mg"},{"bike_id":"8c0f581e-34c6-43c1-b458-9c6a0cd85ddf","system_id":"levelo_inurba_marseille","lat":43.309589,"lon":5.390258,"is_reserved":false,"is_disabled":false,"rental_uris":{"android":"levelo://app?vid=8c0f581e-34c6-43c1-b458-9c6a0cd85ddf","ios":"levelo://app?vid=8c0f581e-34c6-43c1-b458-9c6a0cd85ddf"},"vehicle_type_id":"4","last_reported":1712643012,"current_range_meters":29600,"station_id":"ce4bgup2rcd13ifvqco0","pricing_plan_id":"cebpf4jnsgd1na2vs0mg"},{"bike_id":"a1121594-e8bc-4e06-8723-1ca71ea2834b","system_id":"levelo_inurba_marseille","lat":43.299028,"lon":5.381509,"is_reserved":false,"is_disabled":false,"rental_uris":{"android":"levelo://app?vid=a1121594-e8bc-4e06-8723-1ca71ea2834b","ios":"levelo://app?vid=a1121594-e8bc-4e06-8723-1ca71ea2834b"},"vehicle_type_id":"4","last_reported":1712643012,"current_range_meters":25200,"station_id":"ce4bgj12rcd13ifvqbc0","pricing_plan_id":"cebpf4jnsgd1na2vs0mg"},{"bike_id":"2ae58dba-8c98-407a-8117-613cad34279a","system_id":"levelo_inurba_marseille","lat":43.309589,"lon":5.390258,"is_reserved":false,"is_disabled":false,"rental_uris":{"android":"levelo://app?vid=2ae58dba-8c98-407a-8117-613cad34279a","ios":"levelo://app?vid=2ae58dba-8c98-407a-8117-613cad34279a"},"vehicle_type_id":"4","last_reported":1712643012,"current_range_meters":28000,"station_id":"ce4bgup2rcd13ifvqco0","pricing_plan_id":"cebpf4jnsgd1na2vs0mg"},{"bike_id":"edda8c33-c844-4be0-b6be-54542b116763","system_id":"levelo_inurba_marseille","lat":43.309589,"lon":5.390258,"is_reserved":false,"is_disabled":false,"rental_uris":{"android":"levelo://app?vid=edda8c33-c844-4be0-b6be-54542b116763","ios":"levelo://app?vid=edda8c33-c844-4be0-b6be-54542b116763"},"vehicle_type_id":"4","last_reported":1712643012,"current_range_meters":22400,"station_id":"ce4bgup2rcd13ifvqco0","pricing_plan_id":"cebpf4jnsgd1na2vs0mg"},{"bike_id":"d21d4ce8-fa94-4baf-9d26-901b819f2b54","system_id":"levelo_inurba_marseille","lat":43.309589,"lon":5.390258,"is_reserved":false,"is_disabled":false,"rental_uris":{"android":"levelo://app?vid=d21d4ce8-fa94-4baf-9d26-901b819f2b54","ios":"levelo://app?vid=d21d4ce8-fa94-4baf-9d26-901b819f2b54"},"vehicle_type_id":"4","last_reported":1712643012,"current_range_meters":21600,"station_id":"ce4bgup2rcd13ifvqco0","pricing_plan_id":"cebpf4jnsgd1na2vs0mg"},{"bike_id":"ebfb745f-48f8-45e7-930d-68c43975cc6a","system_id":"levelo_inurba_marseille","lat":43.317557,"lon":5.390173,"is_reserved":false,"is_disabled":false,"rental_uris":{"android":"levelo://app?vid=ebfb745f-48f8-45e7-930d-68c43975cc6a","ios":"levelo://app?vid=ebfb745f-48f8-45e7-930d-68c43975cc6a"},"vehicle_type_id":"4","last_reported":1712643012,"current_range_meters":10800,"station_id":"ce4bhqp2rcd13ifvqhng","pricing_plan_id":"cebpf4jnsgd1na2vs0mg"},{"bike_id":"4be0f188-9331-43e7-86de-5e69cb00b7d8","system_id":"levelo_inurba_marseille","lat":43.317557,"lon":5.390173,"is_reserved":false,"is_disabled":false,"rental_uris":{"android":"levelo://app?vid=4be0f188-9331-43e7-86de-5e69cb00b7d8","ios":"levelo://app?vid=4be0f188-9331-43e7-86de-5e69cb00b7d8"},"vehicle_type_id":"4","last_reported":1712643012,"current_range_meters":27200,"station_id":"ce4bhqp2rcd13ifvqhng","pricing_plan_id":"cebpf4jnsgd1na2vs0mg"},{"bike_id":"a2106aeb-58bb-4f43-920c-7a3bdabadb32","system_id":"levelo_inurba_marseille","lat":43.317557,"lon":5.390173,"is_reserved":false,"is_disabled":false,"rental_uris":{"android":"levelo://app?vid=a2106aeb-58bb-4f43-920c-7a3bdabadb32","ios":"levelo://app?vid=a2106aeb-58bb-4f43-920c-7a3bdabadb32"},"vehicle_type_id":"4","last_reported":1712643012,"current_range_meters":28000,"station_id":"ce4bhqp2rcd13ifvqhng","pricing_plan_id":"cebpf4jnsgd1na2vs0mg"},{"bike_id":"d7d1ba7e-9d2b-4e7d-ac54-4f5964024f38","system_id":"levelo_inurba_marseille","lat":43.317557,"lon":5.390173,"is_reserved":false,"is_disabled":false,"rental_uris":{"android":"levelo://app?vid=d7d1ba7e-9d2b-4e7d-ac54-4f5964024f38","ios":"levelo://app?vid=d7d1ba7e-9d2b-4e7d-ac54-4f5964024f38"},"vehicle_type_id":"4","last_reported":1712643012,"current_range_meters":18800,"station_id":"ce4bhqp2rcd13ifvqhng","pricing_plan_id":"cebpf4jnsgd1na2vs0mg"},{"bike_id":"15b90c90-7a75-4e75-b01f-00cba80b1a23","system_id":"levelo_inurba_marseille","lat":43.298037,"lon":5.381066,"is_reserved":false,"is_disabled":false,"rental_uris":{"android":"levelo://app?vid=15b90c90-7a75-4e75-b01f-00cba80b1a23","ios":"levelo://app?vid=15b90c90-7a75-4e75-b01f-00cba80b1a23"},"vehicle_type_id":"4","last_reported":1712643012,"current_range_meters":27200,"station_id":"ce4bgip2rcd13ifvqbb0","pricing_plan_id":"cebpf4jnsgd1na2vs0mg"},{"bike_id":"10993946-a366-452d-82fd-1b80090a10a7","system_id":"levelo_inurba_marseille","lat":43.298037,"lon":5.381066,"is_reserved":false,"is_disabled":false,"rental_uris":{"android":"levelo://app?vid=10993946-a366-452d-82fd-1b80090a10a7","ios":"levelo://app?vid=10993946-a366-452d-82fd-1b80090a10a7"},"vehicle_type_id":"4","last_reported":1712643012,"current_range_meters":19600,"station_id":"ce4bgip2rcd13ifvqbb0","pricing_plan_id":"cebpf4jnsgd1na2vs0mg"},{"bike_id":"46efda74-0682-4c82-8b62-a6e7adc14a84","system_id":"levelo_inurba_marseille","lat":43.29784,"lon":5.38114,"is_reserved":false,"is_disabled":false,"rental_uris":{"android":"levelo://app?vid=46efda74-0682-4c82-8b62-a6e7adc14a84","ios":"levelo://app?vid=46efda74-0682-4c82-8b62-a6e7adc14a84"},"vehicle_type_id":"4","last_reported":1712643012,"current_range_meters":18800,"station_id":"ce4bh392rcd13ifvqdm0","pricing_plan_id":"cebpf4jnsgd1na2vs0mg"},{"bike_id":"729add65-e31a-4013-aca3-dc2ec696ba04","system_id":"levelo_inurba_marseille","lat":43.304278,"lon":5.388868,"is_reserved":false,"is_disabled":false,"rental_uris":{"android":"levelo://app?vid=729add65-e31a-4013-aca3-dc2ec696ba04","ios":"levelo://app?vid=729add65-e31a-4013-aca3-dc2ec696ba04"},"vehicle_type_id":"4","last_reported":1712643012,"current_range_meters":31600,"station_id":"ce4bgk12rcd13ifvqbi0","pricing_plan_id":"cebpf4jnsgd1na2vs0mg"},{"bike_id":"d04852e7-c3c3-4772-8753-8fccdaf64838","system_id":"levelo_inurba_marseille","lat":43.304278,"lon":5.388868,"is_reserved":false,"is_disabled":false,"rental_uris":{"android":"levelo://app?vid=d04852e7-c3c3-4772-8753-8fccdaf64838","ios":"levelo://app?vid=d04852e7-c3c3-4772-8753-8fccdaf64838"},"vehicle_type_id":"4","last_reported":1712643012,"current_range_meters":19600,"station_id":"ce4bgk12rcd13ifvqbi0","pricing_plan_id":"cebpf4jnsgd1na2vs0mg"},{"bike_id":"1fd83c9a-c7ba-465d-82c4-560923081916","system_id":"levelo_inurba_marseille","lat":43.304274,"lon":5.388873,"is_reserved":false,"is_disabled":false,"rental_uris":{"android":"levelo://app?vid=1fd83c9a-c7ba-465d-82c4-560923081916","ios":"levelo://app?vid=1fd83c9a-c7ba-465d-82c4-560923081916"},"vehicle_type_id":"4","last_reported":1712643012,"current_range_meters":31200,"station_id":"ce4bgk12rcd13ifvqbi0","pricing_plan_id":"cebpf4jnsgd1na2vs0mg"},{"bike_id":"845a0ef5-3f3e-44b3-8f2d-6769d2d0d4bb","system_id":"levelo_inurba_marseille","lat":43.298037,"lon":5.381066,"is_reserved":false,"is_disabled":false,"rental_uris":{"android":"levelo://app?vid=845a0ef5-3f3e-44b3-8f2d-6769d2d0d4bb","ios":"levelo://app?vid=845a0ef5-3f3e-44b3-8f2d-6769d2d0d4bb"},"vehicle_type_id":"4","last_reported":1712643012,"current_range_meters":23600,"station_id":"ce4bgip2rcd13ifvqbb0","pricing_plan_id":"cebpf4jnsgd1na2vs0mg"},{"bike_id":"0fb162ae-b0c0-4abd-902b-b9e6478520c7","system_id":"levelo_inurba_marseille","lat":43.298037,"lon":5.381066,"is_reserved":false,"is_disabled":false,"rental_uris":{"android":"levelo://app?vid=0fb162ae-b0c0-4abd-902b-b9e6478520c7","ios":"levelo://app?vid=0fb162ae-b0c0-4abd-902b-b9e6478520c7"},"vehicle_type_id":"4","last_reported":1712643012,"current_range_meters":26000,"station_id":"ce4bgip2rcd13ifvqbb0","pricing_plan_id":"cebpf4jnsgd1na2vs0mg"},{"bike_id":"d81a1183-949a-4cb3-8ce5-833288de7f79","system_id":"levelo_inurba_marseille","lat":43.296277,"lon":5.377108,"is_reserved":false,"is_disabled":false,"rental_uris":{"android":"levelo://app?vid=d81a1183-949a-4cb3-8ce5-833288de7f79","ios":"levelo://app?vid=d81a1183-949a-4cb3-8ce5-833288de7f79"},"vehicle_type_id":"4","last_reported":1712643012,"current_range_meters":29600,"station_id":"ce4bgi92rcd13ifvqb90","pricing_plan_id":"cebpf4jnsgd1na2vs0mg"},{"bike_id":"da8e157f-e5af-4858-bf06-77a480f2066a","system_id":"levelo_inurba_marseille","lat":43.299707,"lon":5.384859,"is_reserved":false,"is_disabled":false,"rental_uris":{"android":"levelo://app?vid=da8e157f-e5af-4858-bf06-77a480f2066a","ios":"levelo://app?vid=da8e157f-e5af-4858-bf06-77a480f2066a"},"vehicle_type_id":"4","last_reported":1712643012,"current_range_meters":8000,"station_id":"ce4bgj92rcd13ifvqbd0","pricing_plan_id":"cebpf4jnsgd1na2vs0mg"},{"bike_id":"912f7d1a-ab94-4763-8e68-e2a654df83d4","system_id":"levelo_inurba_marseille","lat":43.296277,"lon":5.377108,"is_reserved":false,"is_disabled":false,"rental_uris":{"android":"levelo://app?vid=912f7d1a-ab94-4763-8e68-e2a654df83d4","ios":"levelo://app?vid=912f7d1a-ab94-4763-8e68-e2a654df83d4"},"vehicle_type_id":"4","last_reported":1712643012,"current_range_meters":26800,"station_id":"ce4bgi92rcd13ifvqb90","pricing_plan_id":"cebpf4jnsgd1na2vs0mg"},{"bike_id":"1f749f40-1311-4465-a181-27408bce4344","system_id":"levelo_inurba_marseille","lat":43.29525,"lon":5.37501,"is_reserved":false,"is_disabled":false,"rental_uris":{"android":"levelo://app?vid=1f749f40-1311-4465-a181-27408bce4344","ios":"levelo://app?vid=1f749f40-1311-4465-a181-27408bce4344"},"vehicle_type_id":"4","last_reported":1712643012,"current_range_meters":7600,"station_id":"","pricing_plan_id":"cebpf4jnsgd1na2vs0mg"},{"bike_id":"bc09ad84-9748-4938-84ea-5ec751813d3d","system_id":"levelo_inurba_marseille","lat":43.295279,"lon":5.375048,"is_reserved":false,"is_disabled":false,"rental_uris":{"android":"levelo://app?vid=bc09ad84-9748-4938-84ea-5ec751813d3d","ios":"levelo://app?vid=bc09ad84-9748-4938-84ea-5ec751813d3d"},"vehicle_type_id":"4","last_reported":1712643012,"current_range_meters":18400,"station_id":"ce4bgkp2rcd13ifvqbmg","pricing_plan_id":"cebpf4jnsgd1na2vs0mg"},{"bike_id":"88d4114b-f8ad-462a-92ab-e7570a5f59a6","system_id":"levelo_inurba_marseille","lat":43.32367,"lon":5.388836,"is_reserved":false,"is_disabled":false,"rental_uris":{"android":"levelo://app?vid=88d4114b-f8ad-462a-92ab-e7570a5f59a6","ios":"levelo://app?vid=88d4114b-f8ad-462a-92ab-e7570a5f59a6"},"vehicle_type_id":"4","last_reported":1712643012,"current_range_meters":23600,"station_id":"ce4bhqp2rcd13ifvqhog","pricing_plan_id":"cebpf4jnsgd1na2vs0mg"},{"bike_id":"da01c756-2491-4f26-af5e-5457a01ac88d","system_id":"levelo_inurba_marseille","lat":43.32367,"lon":5.388836,"is_reserved":false,"is_disabled":false,"rental_uris":{"android":"levelo://app?vid=da01c756-2491-4f26-af5e-5457a01ac88d","ios":"levelo://app?vid=da01c756-2491-4f26-af5e-5457a01ac88d"},"vehicle_type_id":"4","last_reported":1712643012,"current_range_meters":22800,"station_id":"ce4bhqp2rcd13ifvqhog","pricing_plan_id":"cebpf4jnsgd1na2vs0mg"},{"bike_id":"1808db17-e5f0-48ab-8040-2167b420659d","system_id":"levelo_inurba_marseille","lat":43.32367,"lon":5.388836,"is_reserved":false,"is_disabled":false,"rental_uris":{"android":"levelo://app?vid=1808db17-e5f0-48ab-8040-2167b420659d","ios":"levelo://app?vid=1808db17-e5f0-48ab-8040-2167b420659d"},"vehicle_type_id":"4","last_reported":1712643012,"current_range_meters":28400,"station_id":"ce4bhqp2rcd13ifvqhog","pricing_plan_id":"cebpf4jnsgd1na2vs0mg"},{"bike_id":"ea6e2bcc-ba08-4768-8752-e42689e3ba04","system_id":"levelo_inurba_marseille","lat":43.32367,"lon":5.388836,"is_reserved":false,"is_disabled":false,"rental_uris":{"android":"levelo://app?vid=ea6e2bcc-ba08-4768-8752-e42689e3ba04","ios":"levelo://app?vid=ea6e2bcc-ba08-4768-8752-e42689e3ba04"},"vehicle_type_id":"4","last_reported":1712643012,"current_range_meters":5200,"station_id":"ce4bhqp2rcd13ifvqhog","pricing_plan_id":"cebpf4jnsgd1na2vs0mg"},{"bike_id":"d367b417-5fca-4369-814d-27aadfdeba43","system_id":"levelo_inurba_marseille","lat":43.32367,"lon":5.388836,"is_reserved":false,"is_disabled":false,"rental_uris":{"android":"levelo://app?vid=d367b417-5fca-4369-814d-27aadfdeba43","ios":"levelo://app?vid=d367b417-5fca-4369-814d-27aadfdeba43"},"vehicle_type_id":"4","last_reported":1712643012,"current_range_meters":28800,"station_id":"ce4bhqp2rcd13ifvqhog","pricing_plan_id":"cebpf4jnsgd1na2vs0mg"},{"bike_id":"389e8324-0984-467e-b5e2-6c875757b707","system_id":"levelo_inurba_marseille","lat":43.32367,"lon":5.388836,"is_reserved":false,"is_disabled":false,"rental_uris":{"android":"levelo://app?vid=389e8324-0984-467e-b5e2-6c875757b707","ios":"levelo://app?vid=389e8324-0984-467e-b5e2-6c875757b707"},"vehicle_type_id":"4","last_reported":1712643012,"current_range_meters":30000,"station_id":"ce4bhqp2rcd13ifvqhog","pricing_plan_id":"cebpf4jnsgd1na2vs0mg"},{"bike_id":"d70df08c-6d1e-4b63-8198-37c61d9e0f6c","system_id":"levelo_inurba_marseille","lat":43.29601,"lon":5.381084,"is_reserved":false,"is_disabled":false,"rental_uris":{"android":"levelo://app?vid=d70df08c-6d1e-4b63-8198-37c61d9e0f6c","ios":"levelo://app?vid=d70df08c-6d1e-4b63-8198-37c61d9e0f6c"},"vehicle_type_id":"4","last_reported":1712643012,"current_range_meters":25600,"station_id":"ce4bgl12rcd13ifvqbo0","pricing_plan_id":"cebpf4jnsgd1na2vs0mg"},{"bike_id":"fa7710a3-75c6-4820-b16c-b35340737140","system_id":"levelo_inurba_marseille","lat":43.29602,"lon":5.381084,"is_reserved":false,"is_disabled":false,"rental_uris":{"android":"levelo://app?vid=fa7710a3-75c6-4820-b16c-b35340737140","ios":"levelo://app?vid=fa7710a3-75c6-4820-b16c-b35340737140"},"vehicle_type_id":"4","last_reported":1712643012,"current_range_meters":6800,"station_id":"ce4bgl12rcd13ifvqbo0","pricing_plan_id":"cebpf4jnsgd1na2vs0mg"},{"bike_id":"7852831f-3038-4336-b5c7-4653266c2249","system_id":"levelo_inurba_marseille","lat":43.29602,"lon":5.381084,"is_reserved":false,"is_disabled":false,"rental_uris":{"android":"levelo://app?vid=7852831f-3038-4336-b5c7-4653266c2249","ios":"levelo://app?vid=7852831f-3038-4336-b5c7-4653266c2249"},"vehicle_type_id":"4","last_reported":1712643012,"current_range_meters":29200,"station_id":"ce4bgl12rcd13ifvqbo0","pricing_plan_id":"cebpf4jnsgd1na2vs0mg"},{"bike_id":"52551617-7f03-49e1-be53-fda98595d1f2","system_id":"levelo_inurba_marseille","lat":43.299028,"lon":5.381509,"is_reserved":false,"is_disabled":false,"rental_uris":{"android":"levelo://app?vid=52551617-7f03-49e1-be53-fda98595d1f2","ios":"levelo://app?vid=52551617-7f03-49e1-be53-fda98595d1f2"},"vehicle_type_id":"4","last_reported":1712643012,"current_range_meters":30400,"station_id":"ce4bgj12rcd13ifvqbc0","pricing_plan_id":"cebpf4jnsgd1na2vs0mg"},{"bike_id":"785b90bf-a9f7-4757-b083-e7ea406cf86a","system_id":"levelo_inurba_marseille","lat":43.29601,"lon":5.381084,"is_reserved":false,"is_disabled":false,"rental_uris":{"android":"levelo://app?vid=785b90bf-a9f7-4757-b083-e7ea406cf86a","ios":"levelo://app?vid=785b90bf-a9f7-4757-b083-e7ea406cf86a"},"vehicle_type_id":"4","last_reported":1712643012,"current_range_meters":4800,"station_id":"ce4bgl12rcd13ifvqbo0","pricing_plan_id":"cebpf4jnsgd1na2vs0mg"},{"bike_id":"e0227968-a14e-43ac-b7d6-ecd922e7e186","system_id":"levelo_inurba_marseille","lat":43.31417,"lon":5.394189,"is_reserved":false,"is_disabled":false,"rental_uris":{"android":"levelo://app?vid=e0227968-a14e-43ac-b7d6-ecd922e7e186","ios":"levelo://app?vid=e0227968-a14e-43ac-b7d6-ecd922e7e186"},"vehicle_type_id":"4","last_reported":1712643012,"current_range_meters":30000,"station_id":"","pricing_plan_id":"cebpf4jnsgd1na2vs0mg"},{"bike_id":"d1399ef9-d43f-4deb-95f1-0d057a4cc0fd","system_id":"levelo_inurba_marseille","lat":43.292749,"lon":5.368402,"is_reserved":false,"is_disabled":false,"rental_uris":{"android":"levelo://app?vid=d1399ef9-d43f-4deb-95f1-0d057a4cc0fd","ios":"levelo://app?vid=d1399ef9-d43f-4deb-95f1-0d057a4cc0fd"},"vehicle_type_id":"4","last_reported":1712643012,"current_range_meters":26000,"station_id":"ce4bhbp2rcd13ifvqesg","pricing_plan_id":"cebpf4jnsgd1na2vs0mg"},{"bike_id":"ce2daf56-760a-4cda-8144-84e7fac2ecd3","system_id":"levelo_inurba_marseille","lat":43.292749,"lon":5.368402,"is_reserved":false,"is_disabled":false,"rental_uris":{"android":"levelo://app?vid=ce2daf56-760a-4cda-8144-84e7fac2ecd3","ios":"levelo://app?vid=ce2daf56-760a-4cda-8144-84e7fac2ecd3"},"vehicle_type_id":"4","last_reported":1712643012,"current_range_meters":26400,"station_id":"ce4bhbp2rcd13ifvqesg","pricing_plan_id":"cebpf4jnsgd1na2vs0mg"},{"bike_id":"bd07ee49-26fb-4679-a09d-2d41ba52d5ec","system_id":"levelo_inurba_marseille","lat":43.292749,"lon":5.368402,"is_reserved":false,"is_disabled":false,"rental_uris":{"android":"levelo://app?vid=bd07ee49-26fb-4679-a09d-2d41ba52d5ec","ios":"levelo://app?vid=bd07ee49-26fb-4679-a09d-2d41ba52d5ec"},"vehicle_type_id":"4","last_reported":1712643012,"current_range_meters":29600,"station_id":"ce4bhbp2rcd13ifvqesg","pricing_plan_id":"cebpf4jnsgd1na2vs0mg"},{"bike_id":"58db8037-103d-4105-8ded-11fa1552a1e2","system_id":"levelo_inurba_marseille","lat":43.292749,"lon":5.368402,"is_reserved":false,"is_disabled":false,"rental_uris":{"android":"levelo://app?vid=58db8037-103d-4105-8ded-11fa1552a1e2","ios":"levelo://app?vid=58db8037-103d-4105-8ded-11fa1552a1e2"},"vehicle_type_id":"4","last_reported":1712643012,"current_range_meters":21200,"station_id":"ce4bhbp2rcd13ifvqesg","pricing_plan_id":"cebpf4jnsgd1na2vs0mg"},{"bike_id":"ca1d853c-fa15-4c5b-b427-4528b3c9a861","system_id":"levelo_inurba_marseille","lat":43.305994,"lon":5.393687,"is_reserved":false,"is_disabled":false,"rental_uris":{"android":"levelo://app?vid=ca1d853c-fa15-4c5b-b427-4528b3c9a861","ios":"levelo://app?vid=ca1d853c-fa15-4c5b-b427-4528b3c9a861"},"vehicle_type_id":"4","last_reported":1712643012,"current_range_meters":30800,"station_id":"ce4bh0p2rcd13ifvqd80","pricing_plan_id":"cebpf4jnsgd1na2vs0mg"},{"bike_id":"12a2162a-fd74-4654-9efc-c46afd664ac7","system_id":"levelo_inurba_marseille","lat":43.33033,"lon":5.38131,"is_reserved":false,"is_disabled":false,"rental_uris":{"android":"levelo://app?vid=12a2162a-fd74-4654-9efc-c46afd664ac7","ios":"levelo://app?vid=12a2162a-fd74-4654-9efc-c46afd664ac7"},"vehicle_type_id":"4","last_reported":1712643012,"current_range_meters":21200,"station_id":"","pricing_plan_id":"cebpf4jnsgd1na2vs0mg"},{"bike_id":"5078ca31-46cf-4848-9e9f-ca0a30147df0","system_id":"levelo_inurba_marseille","lat":43.305994,"lon":5.393687,"is_reserved":false,"is_disabled":false,"rental_uris":{"android":"levelo://app?vid=5078ca31-46cf-4848-9e9f-ca0a30147df0","ios":"levelo://app?vid=5078ca31-46cf-4848-9e9f-ca0a30147df0"},"vehicle_type_id":"4","last_reported":1712643012,"current_range_meters":30000,"station_id":"ce4bh0p2rcd13ifvqd80","pricing_plan_id":"cebpf4jnsgd1na2vs0mg"},{"bike_id":"11c0338f-2026-4522-947d-6ee3b2f3e3e4","system_id":"levelo_inurba_marseille","lat":43.29301,"lon":5.37462,"is_reserved":false,"is_disabled":false,"rental_uris":{"android":"levelo://app?vid=11c0338f-2026-4522-947d-6ee3b2f3e3e4","ios":"levelo://app?vid=11c0338f-2026-4522-947d-6ee3b2f3e3e4"},"vehicle_type_id":"4","last_reported":1712643012,"current_range_meters":22000,"station_id":"ce4bgi12rcd13ifvqb70","pricing_plan_id":"cebpf4jnsgd1na2vs0mg"},{"bike_id":"9ce528d7-16e6-4e3c-a165-0db50adfe574","system_id":"levelo_inurba_marseille","lat":43.29295,"lon":5.37441,"is_reserved":false,"is_disabled":false,"rental_uris":{"android":"levelo://app?vid=9ce528d7-16e6-4e3c-a165-0db50adfe574","ios":"levelo://app?vid=9ce528d7-16e6-4e3c-a165-0db50adfe574"},"vehicle_type_id":"4","last_reported":1712643012,"current_range_meters":29200,"station_id":"ce4bgi12rcd13ifvqb70","pricing_plan_id":"cebpf4jnsgd1na2vs0mg"},{"bike_id":"c5a9ad8b-7956-4d1a-8e43-5e3e60f808e7","system_id":"levelo_inurba_marseille","lat":43.298433,"lon":5.362774,"is_reserved":false,"is_disabled":false,"rental_uris":{"android":"levelo://app?vid=c5a9ad8b-7956-4d1a-8e43-5e3e60f808e7","ios":"levelo://app?vid=c5a9ad8b-7956-4d1a-8e43-5e3e60f808e7"},"vehicle_type_id":"4","last_reported":1712643012,"current_range_meters":30000,"station_id":"ce4bgpp2rcd13ifvqc3g","pricing_plan_id":"cebpf4jnsgd1na2vs0mg"},{"bike_id":"60a15965-7346-4737-97fe-1ee3321c2d19","system_id":"levelo_inurba_marseille","lat":43.305994,"lon":5.393687,"is_reserved":false,"is_disabled":false,"rental_uris":{"android":"levelo://app?vid=60a15965-7346-4737-97fe-1ee3321c2d19","ios":"levelo://app?vid=60a15965-7346-4737-97fe-1ee3321c2d19"},"vehicle_type_id":"4","last_reported":1712643012,"current_range_meters":21600,"station_id":"ce4bh0p2rcd13ifvqd80","pricing_plan_id":"cebpf4jnsgd1na2vs0mg"},{"bike_id":"2a741ded-d5b8-41ea-a65c-84b4d62558bb","system_id":"levelo_inurba_marseille","lat":43.305994,"lon":5.393687,"is_reserved":false,"is_disabled":false,"rental_uris":{"android":"levelo://app?vid=2a741ded-d5b8-41ea-a65c-84b4d62558bb","ios":"levelo://app?vid=2a741ded-d5b8-41ea-a65c-84b4d62558bb"},"vehicle_type_id":"4","last_reported":1712643012,"current_range_meters":14400,"station_id":"ce4bh0p2rcd13ifvqd80","pricing_plan_id":"cebpf4jnsgd1na2vs0mg"},{"bike_id":"15124fce-1b1a-46e6-9592-bb55326a64a9","system_id":"levelo_inurba_marseille","lat":43.30313,"lon":5.391896,"is_reserved":false,"is_disabled":false,"rental_uris":{"android":"levelo://app?vid=15124fce-1b1a-46e6-9592-bb55326a64a9","ios":"levelo://app?vid=15124fce-1b1a-46e6-9592-bb55326a64a9"},"vehicle_type_id":"4","last_reported":1712643012,"current_range_meters":28800,"station_id":"","pricing_plan_id":"cebpf4jnsgd1na2vs0mg"},{"bike_id":"75494ce9-be34-43cb-ad38-b9af86400268","system_id":"levelo_inurba_marseille","lat":43.305994,"lon":5.393687,"is_reserved":false,"is_disabled":false,"rental_uris":{"android":"levelo://app?vid=75494ce9-be34-43cb-ad38-b9af86400268","ios":"levelo://app?vid=75494ce9-be34-43cb-ad38-b9af86400268"},"vehicle_type_id":"4","last_reported":1712643012,"current_range_meters":21200,"station_id":"ce4bh0p2rcd13ifvqd80","pricing_plan_id":"cebpf4jnsgd1na2vs0mg"},{"bike_id":"b5c5b08a-6ce4-40ca-81cd-918e98a51ff2","system_id":"levelo_inurba_marseille","lat":43.29292,"lon":5.37446,"is_reserved":false,"is_disabled":false,"rental_uris":{"android":"levelo://app?vid=b5c5b08a-6ce4-40ca-81cd-918e98a51ff2","ios":"levelo://app?vid=b5c5b08a-6ce4-40ca-81cd-918e98a51ff2"},"vehicle_type_id":"4","last_reported":1712643012,"current_range_meters":10400,"station_id":"ce4bgi12rcd13ifvqb70","pricing_plan_id":"cebpf4jnsgd1na2vs0mg"},{"bike_id":"bb654209-d408-4bee-af5d-8d5b8d90fe98","system_id":"levelo_inurba_marseille","lat":43.305994,"lon":5.393687,"is_reserved":false,"is_disabled":false,"rental_uris":{"android":"levelo://app?vid=bb654209-d408-4bee-af5d-8d5b8d90fe98","ios":"levelo://app?vid=bb654209-d408-4bee-af5d-8d5b8d90fe98"},"vehicle_type_id":"4","last_reported":1712643012,"current_range_meters":18000,"station_id":"ce4bh0p2rcd13ifvqd80","pricing_plan_id":"cebpf4jnsgd1na2vs0mg"},{"bike_id":"124dfeba-058b-4231-8f81-b2063b0a6176","system_id":"levelo_inurba_marseille","lat":43.305994,"lon":5.393687,"is_reserved":false,"is_disabled":false,"rental_uris":{"android":"levelo://app?vid=124dfeba-058b-4231-8f81-b2063b0a6176","ios":"levelo://app?vid=124dfeba-058b-4231-8f81-b2063b0a6176"},"vehicle_type_id":"4","last_reported":1712643012,"current_range_meters":18000,"station_id":"ce4bh0p2rcd13ifvqd80","pricing_plan_id":"cebpf4jnsgd1na2vs0mg"},{"bike_id":"eb5ca10c-bd02-4263-b7b6-6eeadaba2a24","system_id":"levelo_inurba_marseille","lat":43.305994,"lon":5.393687,"is_reserved":false,"is_disabled":false,"rental_uris":{"android":"levelo://app?vid=eb5ca10c-bd02-4263-b7b6-6eeadaba2a24","ios":"levelo://app?vid=eb5ca10c-bd02-4263-b7b6-6eeadaba2a24"},"vehicle_type_id":"4","last_reported":1712643012,"current_range_meters":25200,"station_id":"ce4bh0p2rcd13ifvqd80","pricing_plan_id":"cebpf4jnsgd1na2vs0mg"},{"bike_id":"4c252ee4-dc2c-4a74-bc2c-d9c6744f4f28","system_id":"levelo_inurba_marseille","lat":43.293009,"lon":5.374584,"is_reserved":false,"is_disabled":false,"rental_uris":{"android":"levelo://app?vid=4c252ee4-dc2c-4a74-bc2c-d9c6744f4f28","ios":"levelo://app?vid=4c252ee4-dc2c-4a74-bc2c-d9c6744f4f28"},"vehicle_type_id":"4","last_reported":1712643012,"current_range_meters":8000,"station_id":"ce4bgi12rcd13ifvqb70","pricing_plan_id":"cebpf4jnsgd1na2vs0mg"},{"bike_id":"0e15b96a-b77b-4d3a-ae88-8fa44ffd6da8","system_id":"levelo_inurba_marseille","lat":43.305994,"lon":5.393687,"is_reserved":false,"is_disabled":false,"rental_uris":{"android":"levelo://app?vid=0e15b96a-b77b-4d3a-ae88-8fa44ffd6da8","ios":"levelo://app?vid=0e15b96a-b77b-4d3a-ae88-8fa44ffd6da8"},"vehicle_type_id":"4","last_reported":1712643012,"current_range_meters":26400,"station_id":"ce4bh0p2rcd13ifvqd80","pricing_plan_id":"cebpf4jnsgd1na2vs0mg"},{"bike_id":"c4e3d244-3a0a-4298-abf8-6e081c7d58de","system_id":"levelo_inurba_marseille","lat":43.305994,"lon":5.393687,"is_reserved":false,"is_disabled":false,"rental_uris":{"android":"levelo://app?vid=c4e3d244-3a0a-4298-abf8-6e081c7d58de","ios":"levelo://app?vid=c4e3d244-3a0a-4298-abf8-6e081c7d58de"},"vehicle_type_id":"4","last_reported":1712643012,"current_range_meters":7600,"station_id":"ce4bh0p2rcd13ifvqd80","pricing_plan_id":"cebpf4jnsgd1na2vs0mg"},{"bike_id":"6229a1f3-91f7-4331-88cc-f1fa06aaf21f","system_id":"levelo_inurba_marseille","lat":43.30597,"lon":5.39368,"is_reserved":false,"is_disabled":false,"rental_uris":{"android":"levelo://app?vid=6229a1f3-91f7-4331-88cc-f1fa06aaf21f","ios":"levelo://app?vid=6229a1f3-91f7-4331-88cc-f1fa06aaf21f"},"vehicle_type_id":"4","last_reported":1712643012,"current_range_meters":20400,"station_id":"ce4bh0p2rcd13ifvqd80","pricing_plan_id":"cebpf4jnsgd1na2vs0mg"},{"bike_id":"1acea025-7302-4dbc-b05a-fb63f142274f","system_id":"levelo_inurba_marseille","lat":43.305994,"lon":5.393687,"is_reserved":false,"is_disabled":false,"rental_uris":{"android":"levelo://app?vid=1acea025-7302-4dbc-b05a-fb63f142274f","ios":"levelo://app?vid=1acea025-7302-4dbc-b05a-fb63f142274f"},"vehicle_type_id":"4","last_reported":1712643012,"current_range_meters":22800,"station_id":"ce4bh0p2rcd13ifvqd80","pricing_plan_id":"cebpf4jnsgd1na2vs0mg"},{"bike_id":"479ba7b7-b921-40d9-bb1c-7ffbfc7d5f02","system_id":"levelo_inurba_marseille","lat":43.30596,"lon":5.39369,"is_reserved":false,"is_disabled":false,"rental_uris":{"android":"levelo://app?vid=479ba7b7-b921-40d9-bb1c-7ffbfc7d5f02","ios":"levelo://app?vid=479ba7b7-b921-40d9-bb1c-7ffbfc7d5f02"},"vehicle_type_id":"4","last_reported":1712643012,"current_range_meters":26400,"station_id":"ce4bh0p2rcd13ifvqd80","pricing_plan_id":"cebpf4jnsgd1na2vs0mg"},{"bike_id":"8ec7792f-1ccb-441c-bac7-4b337035ddd6","system_id":"levelo_inurba_marseille","lat":43.305994,"lon":5.393687,"is_reserved":false,"is_disabled":false,"rental_uris":{"android":"levelo://app?vid=8ec7792f-1ccb-441c-bac7-4b337035ddd6","ios":"levelo://app?vid=8ec7792f-1ccb-441c-bac7-4b337035ddd6"},"vehicle_type_id":"4","last_reported":1712643012,"current_range_meters":25200,"station_id":"ce4bh0p2rcd13ifvqd80","pricing_plan_id":"cebpf4jnsgd1na2vs0mg"},{"bike_id":"73faa2cb-84d2-42a6-bd1e-98977f1948fc","system_id":"levelo_inurba_marseille","lat":43.307945,"lon":5.376487,"is_reserved":false,"is_disabled":false,"rental_uris":{"android":"levelo://app?vid=73faa2cb-84d2-42a6-bd1e-98977f1948fc","ios":"levelo://app?vid=73faa2cb-84d2-42a6-bd1e-98977f1948fc"},"vehicle_type_id":"4","last_reported":1712643012,"current_range_meters":22000,"station_id":"ce4bgv92rcd13ifvqcq0","pricing_plan_id":"cebpf4jnsgd1na2vs0mg"},{"bike_id":"204aa7fa-354f-4f1a-ac8e-7ba1ebd63bae","system_id":"levelo_inurba_marseille","lat":43.305994,"lon":5.393687,"is_reserved":false,"is_disabled":false,"rental_uris":{"android":"levelo://app?vid=204aa7fa-354f-4f1a-ac8e-7ba1ebd63bae","ios":"levelo://app?vid=204aa7fa-354f-4f1a-ac8e-7ba1ebd63bae"},"vehicle_type_id":"4","last_reported":1712643012,"current_range_meters":22000,"station_id":"ce4bh0p2rcd13ifvqd80","pricing_plan_id":"cebpf4jnsgd1na2vs0mg"},{"bike_id":"15cbcf16-1cc7-4fbf-bf97-e0008b7ddfdc","system_id":"levelo_inurba_marseille","lat":43.2936,"lon":5.37835,"is_reserved":false,"is_disabled":false,"rental_uris":{"android":"levelo://app?vid=15cbcf16-1cc7-4fbf-bf97-e0008b7ddfdc","ios":"levelo://app?vid=15cbcf16-1cc7-4fbf-bf97-e0008b7ddfdc"},"vehicle_type_id":"4","last_reported":1712643012,"current_range_meters":25600,"station_id":"ce4bgjh2rcd13ifvqbf0","pricing_plan_id":"cebpf4jnsgd1na2vs0mg"},{"bike_id":"ad605a0f-4918-40c4-9323-6e5d20a5f587","system_id":"levelo_inurba_marseille","lat":43.292311,"lon":5.360731,"is_reserved":false,"is_disabled":false,"rental_uris":{"android":"levelo://app?vid=ad605a0f-4918-40c4-9323-6e5d20a5f587","ios":"levelo://app?vid=ad605a0f-4918-40c4-9323-6e5d20a5f587"},"vehicle_type_id":"4","last_reported":1712643012,"current_range_meters":31200,"station_id":"ce4bhbh2rcd13ifvqeqg","pricing_plan_id":"cebpf4jnsgd1na2vs0mg"},{"bike_id":"a01005b6-5018-44d4-bdac-765ac57ad582","system_id":"levelo_inurba_marseille","lat":43.291671,"lon":5.371575,"is_reserved":false,"is_disabled":false,"rental_uris":{"android":"levelo://app?vid=a01005b6-5018-44d4-bdac-765ac57ad582","ios":"levelo://app?vid=a01005b6-5018-44d4-bdac-765ac57ad582"},"vehicle_type_id":"4","last_reported":1712643012,"current_range_meters":29200,"station_id":"ce4bha92rcd13ifvqeh0","pricing_plan_id":"cebpf4jnsgd1na2vs0mg"},