{"last_updated":1745801648,"ttl":60,"version":"2.2","data":{"bikes":[{"bike_id":"238961a6-c4be-4c39-a96b-91bea8a0b401","system_id":"levelo_inurba_marseille","lat":43.26225,"lon":5.40422,"is_reserved":false,"is_disabled":false,"rental_uris":{"android":"levelo://app?vid=238961a6-c4be-4c39-a96b-91bea8a0b401","ios":"levelo://app?vid=238961a6-c4be-4c39-a96b-91bea8a0b401"},"vehicle_type_id":"4","last_reported":1745801648,"current_range_meters":3200,"station_id":"ce4bhmh2rcd13ifvqgmg","pricing_plan_id":"cebpf4jnsgd1na2vs0mg"},{"bike_id":"d48770ea-271d-480f-a83f-8620fe6a1833","system_id":"levelo_inurba_marseille","lat":43.28176,"lon":5.40462,"is_reserved":false,"is_disabled":true,"rental_uris":{"android":"levelo://app?vid=d48770ea-271d-480f-a83f-8620fe6a1833","ios":"levelo://app?vid=d48770ea-271d-480f-a83f-8620fe6a1833"},"vehicle_type_id":"4","last_reported":1745801648,"current_range_meters":3200,"station_id":"","pricing_plan_id":"cebpf4jnsgd1na2vs0mg"},{"bike_id":"308ce0d7-54d5-4aec-879f-da2149307f93","system_id":"levelo_inurba_marseille","lat":43.22487,"lon":5.3473,"is_reserved":false,"is_disabled":true,"rental_uris":{"android":"levelo://app?vid=308ce0d7-54d5-4aec-879f-da2149307f93","ios":"levelo://app?vid=308ce0d7-54d5-4aec-879f-da2149307f93"},"vehicle_type_id":"4","last_reported":1745801648,"current_range_meters":4800,"station_id":"st_cvj5dfep6f1abm77gieg","pricing_plan_id":"cebpf4jnsgd1na2vs0mg"},{"bike_id":"042a36cf-a68c-4f02-8fbe-a3d4f36fa492","system_id":"levelo_inurba_marseille","lat":43.21227,"lon":5.3508,"is_reserved":false,"is_disabled":false,"rental_uris":{"android":"levelo://app?vid=042a36cf-a68c-4f02-8fbe-a3d4f36fa492","ios":"levelo://app?vid=042a36cf-a68c-4f02-8fbe-a3d4f36fa492"},"vehicle_type_id":"4","last_reported":1745801648,"current_range_meters":5600,"station_id":"st_cvj6sg6p6f1abm77japg","pricing_plan_id":"cebpf4jnsgd1na2vs0mg"},{"bike_id":"c1b1b433-bcb9-4a7d-8963-3218bcdcba1e","system_id":"levelo_inurba_marseille","lat":43.233588,"lon":5.360543,"is_reserved":false,"is_disabled":false,"rental_uris":{"android":"levelo://app?vid=c1b1b433-bcb9-4a7d-8963-3218bcdcba1e","ios":"levelo://app?vid=c1b1b433-bcb9-4a7d-8963-3218bcdcba1e"},"vehicle_type_id":"4","last_reported":1745801648,"current_range_meters":6000,"station_id":"","pricing_plan_id":"cebpf4jnsgd1na2vs0mg"},{"bike_id":"6fbd886a-9082-4287-bdf4-6c7b7aebe2be","system_id":"levelo_inurba_marseille","lat":43.26029,"lon":5.37551,"is_reserved":false,"is_disabled":false,"rental_uris":{"android":"levelo://app?vid=6fbd886a-9082-4287-bdf4-6c7b7aebe2be","ios":"levelo://app?vid=6fbd886a-9082-4287-bdf4-6c7b7aebe2be"},"vehicle_type_id":"4","last_reported":1745801648,"current_range_meters":6000,"station_id":"ce4bhgh2rcd13ifvqfa0","pricing_plan_id":"cebpf4jnsgd1na2vs0mg"},{"bike_id":"82016555-1022-467f-b7e9-084b6d838aac","system_id":"levelo_inurba_marseille","lat":43.25531,"lon":5.37542,"is_reserved":false,"is_disabled":false,"rental_uris":{"android":"levelo://app?vid=82016555-1022-467f-b7e9-084b6d838aac","ios":"levelo://app?vid=82016555-1022-467f-b7e9-084b6d838aac"},"vehicle_type_id":"4","last_reported":1745801648,"current_range_meters":6400,"station_id":"","pricing_plan_id":"cebpf4jnsgd1na2vs0mg"},{"bike_id":"2d4820d4-569a-4ec0-b000-e82a960dd30b","system_id":"levelo_inurba_marseille","lat":43.23134,"lon":5.35498,"is_reserved":false,"is_disabled":false,"rental_uris":{"android":"levelo://app?vid=2d4820d4-569a-4ec0-b000-e82a960dd30b","ios":"levelo://app?vid=2d4820d4-569a-4ec0-b000-e82a960dd30b"},"vehicle_type_id":"4","last_reported":1745801648,"current_range_meters":6400,"station_id":"","pricing_plan_id":"cebpf4jnsgd1na2vs0mg"},{"bike_id":"d9d42592-3084-4d0e-9bdc-dde1c8c2459a","system_id":"levelo_inurba_marseille","lat":43.231959,"lon":5.399778,"is_reserved":false,"is_disabled":false,"rental_uris":{"android":"levelo://app?vid=d9d42592-3084-4d0e-9bdc-dde1c8c2459a","ios":"levelo://app?vid=d9d42592-3084-4d0e-9bdc-dde1c8c2459a"},"vehicle_type_id":"4","last_reported":1745801648,"current_range_meters":6400,"station_id":"ce4bhn12rcd13ifvqgqg","pricing_plan_id":"cebpf4jnsgd1na2vs0mg"},{"bike_id":"b203106f-15ad-4224-a9bb-aef6d708468c","system_id":"levelo_inurba_marseille","lat":43.27498,"lon":5.42449,"is_reserved":false,"is_disabled":false,"rental_uris":{"android":"levelo://app?vid=b203106f-15ad-4224-a9bb-aef6d708468c","ios":"levelo://app?vid=b203106f-15ad-4224-a9bb-aef6d708468c"},"vehicle_type_id":"4","last_reported":1745801648,"current_range_meters":6400,"station_id":"ce4bhn92rcd13ifvqgrg","pricing_plan_id":"cebpf4jnsgd1na2vs0mg"},{"bike_id":"284efe7b-2e61-45b1-a1e4-7089a3b3d2dd","system_id":"levelo_inurba_marseille","lat":43.259369,"lon":5.408992,"is_reserved":false,"is_disabled":false,"rental_uris":{"android":"levelo://app?vid=284efe7b-2e61-45b1-a1e4-7089a3b3d2dd","ios":"levelo://app?vid=284efe7b-2e61-45b1-a1e4-7089a3b3d2dd"},"vehicle_type_id":"4","last_reported":1745801648,"current_range_meters":6400,"station_id":"ce4bhm92rcd13ifvqglg","pricing_plan_id":"cebpf4jnsgd1na2vs0mg"},{"bike_id":"4a5edcf1-6727-4c60-8f88-19c6d2a1f8fa","system_id":"levelo_inurba_marseille","lat":43.22936,"lon":5.35363,"is_reserved":false,"is_disabled":false,"rental_uris":{"android":"levelo://app?vid=4a5edcf1-6727-4c60-8f88-19c6d2a1f8fa","ios":"levelo://app?vid=4a5edcf1-6727-4c60-8f88-19c6d2a1f8fa"},"vehicle_type_id":"4","last_reported":1745801648,"current_range_meters":6400,"station_id":"cpo3532slgdg3j2ikp40","pricing_plan_id":"cebpf4jnsgd1na2vs0mg"},{"bike_id":"81159e63-3b35-42d5-8e59-a6400c53568e","system_id":"levelo_inurba_marseille","lat":43.2175,"lon":5.34611,"is_reserved":false,"is_disabled":false,"rental_uris":{"android":"levelo://app?vid=81159e63-3b35-42d5-8e59-a6400c53568e","ios":"levelo://app?vid=81159e63-3b35-42d5-8e59-a6400c53568e"},"vehicle_type_id":"4","last_reported":1745801648,"current_range_meters":6800,"station_id":"st_cvj6r9ubvosntc0bgbag","pricing_plan_id":"cebpf4jnsgd1na2vs0mg"},{"bike_id":"23409f09-a128-4d95-aaca-9870edcbab46","system_id":"levelo_inurba_marseille","lat":43.30088,"lon":5.39077,"is_reserved":false,"is_disabled":false,"rental_uris":{"android":"levelo://app?vid=23409f09-a128-4d95-aaca-9870edcbab46","ios":"levelo://app?vid=23409f09-a128-4d95-aaca-9870edcbab46"},"vehicle_type_id":"4","last_reported":1745801648,"current_range_meters":6800,"station_id":"ce4bh192rcd13ifvqdb0","pricing_plan_id":"cebpf4jnsgd1na2vs0mg"},{"bike_id":"cfedda18-f895-49da-bc3d-8d22c0dd79d7","system_id":"levelo_inurba_marseille","lat":43.25713,"lon":5.41113,"is_reserved":false,"is_disabled":false,"rental_uris":{"android":"levelo://app?vid=cfedda18-f895-49da-bc3d-8d22c0dd79d7","ios":"levelo://app?vid=cfedda18-f895-49da-bc3d-8d22c0dd79d7"},"vehicle_type_id":"4","last_reported":1745801648,"current_range_meters":6800,"station_id":"ce4bhkp2rcd13ifvqgd0","pricing_plan_id":"cebpf4jnsgd1na2vs0mg"},{"bike_id":"616f96be-946a-47a0-93f9-959efc31c108","system_id":"levelo_inurba_marseille","lat":43.27332,"lon":5.39106,"is_reserved":false,"is_disabled":true,"rental_uris":{"android":"levelo://app?vid=616f96be-946a-47a0-93f9-959efc31c108","ios":"levelo://app?vid=616f96be-946a-47a0-93f9-959efc31c108"},"vehicle_type_id":"4","last_reported":1745801648,"current_range_meters":6800,"station_id":"ce4bhgp2rcd13ifvqfe0","pricing_plan_id":"cebpf4jnsgd1na2vs0mg"},{"bike_id":"4f237f57-7e6d-4454-a0e6-195d0a8fae7b","system_id":"levelo_inurba_marseille","lat":43.32465,"lon":5.43879,"is_reserved":false,"is_disabled":false,"rental_uris":{"android":"levelo://app?vid=4f237f57-7e6d-4454-a0e6-195d0a8fae7b","ios":"levelo://app?vid=4f237f57-7e6d-4454-a0e6-195d0a8fae7b"},"vehicle_type_id":"4","last_reported":1745801648,"current_range_meters":6800,"station_id":"","pricing_plan_id":"cebpf4jnsgd1na2vs0mg"},{"bike_id":"b4ab71dc-7ecc-4fcb-bfaf-2cb4e735be46","system_id":"levelo_inurba_marseille","lat":43.24092,"lon":5.39815,"is_reserved":false,"is_disabled":false,"rental_uris":{"android":"levelo://app?vid=b4ab71dc-7ecc-4fcb-bfaf-2cb4e735be46","ios":"levelo://app?vid=b4ab71dc-7ecc-4fcb-bfaf-2cb4e735be46"},"vehicle_type_id":"4","last_reported":1745801648,"current_range_meters":6800,"station_id":"ce4bhn12rcd13ifvqgpg","pricing_plan_id":"cebpf4jnsgd1na2vs0mg"},{"bike_id":"4e09e2f3-6329-4563-9a1f-79c5001029cb","system_id":"levelo_inurba_marseille","lat":43.3243,"lon":5.39145,"is_reserved":false,"is_disabled":true,"rental_uris":{"android":"levelo://app?vid=4e09e2f3-6329-4563-9a1f-79c5001029cb","ios":"levelo://app?vid=4e09e2f3-6329-4563-9a1f-79c5001029cb"},"vehicle_type_id":"4","last_reported":1745801648,"current_range_meters":6800,"station_id":"","pricing_plan_id":"cebpf4jnsgd1na2vs0mg"},{"bike_id":"cf6ec47c-bcb7-43da-a2f5-7144fabd8db5","system_id":"levelo_inurba_marseille","lat":43.23132,"lon":5.43718,"is_reserved":false,"is_disabled":false,"rental_uris":{"android":"levelo://app?vid=cf6ec47c-bcb7-43da-a2f5-7144fabd8db5","ios":"levelo://app?vid=cf6ec47c-bcb7-43da-a2f5-7144fabd8db5"},"vehicle_type_id":"4","last_reported":1745801648,"current_range_meters":6800,"station_id":"ce4bhmp2rcd13ifvqgog","pricing_plan_id":"cebpf4jnsgd1na2vs0mg"},{"bike_id":"647eceb0-396c-4b66-9b6a-15942a39bd89","system_id":"levelo_inurba_marseille","lat":43.24144,"lon":5.36409,"is_reserved":false,"is_disabled":false,"rental_uris":{"android":"levelo://app?vid=647eceb0-396c-4b66-9b6a-15942a39bd89","ios":"levelo://app?vid=647eceb0-396c-4b66-9b6a-15942a39bd89"},"vehicle_type_id":"4","last_reported":1745801648,"current_range_meters":7200,"station_id":"cpo36qri1sfpv3e86is0","pricing_plan_id":"cebpf4jnsgd1na2vs0mg"},{"bike_id":"49567d34-daf3-413f-837e-ee3ec76e01ef","system_id":"levelo_inurba_marseille","lat":43.2499,"lon":5.3896,"is_reserved":false,"is_disabled":false,"rental_uris":{"android":"levelo://app?vid=49567d34-daf3-413f-837e-ee3ec76e01ef","ios":"levelo://app?vid=49567d34-daf3-413f-837e-ee3ec76e01ef"},"vehicle_type_id":"4","last_reported":1745801648,"current_range_meters":7200,"station_id":"ce4bhgp2rcd13ifvqfd0","pricing_plan_id":"cebpf4jnsgd1na2vs0mg"},{"bike_id":"c596ab54-4f89-4649-a442-12778ac8adc4","system_id":"levelo_inurba_marseille","lat":43.317167,"lon":5.437011,"is_reserved":false,"is_disabled":true,"rental_uris":{"android":"levelo://app?vid=c596ab54-4f89-4649-a442-12778ac8adc4","ios":"levelo://app?vid=c596ab54-4f89-4649-a442-12778ac8adc4"},"vehicle_type_id":"4","last_reported":1745801648,"current_range_meters":7200,"station_id":"ce4bhp92rcd13ifvqhcg","pricing_plan_id":"cebpf4jnsgd1na2vs0mg"},{"bike_id":"64d4c2a4-c8f7-4762-af83-98c376c7623f","system_id":"levelo_inurba_marseille","lat":43.2174,"lon":5.346,"is_reserved":false,"is_disabled":false,"rental_uris":{"android":"levelo://app?vid=64d4c2a4-c8f7-4762-af83-98c376c7623f","ios":"levelo://app?vid=64d4c2a4-c8f7-4762-af83-98c376c7623f"},"vehicle_type_id":"4","last_reported":1745801648,"current_range_meters":7200,"station_id":"st_cvj6r9ubvosntc0bgbag","pricing_plan_id":"cebpf4jnsgd1na2vs0mg"},{"bike_id":"374695c7-05ae-441b-90bd-19811cb2defe","system_id":"levelo_inurba_marseille","lat":43.30712,"lon":5.42449,"is_reserved":false,"is_disabled":false,"rental_uris":{"android":"levelo://app?vid=374695c7-05ae-441b-90bd-19811cb2defe","ios":"levelo://app?vid=374695c7-05ae-441b-90bd-19811cb2defe"},"vehicle_type_id":"4","last_reported":1745801648,"current_range_meters":7200,"station_id":"st_cvj6ca6bvosntc0bfgr0","pricing_plan_id":"cebpf4jnsgd1na2vs0mg"},{"bike_id":"5ddba1f1-1747-4179-b91f-b8778028cd60","system_id":"levelo_inurba_marseille","lat":43.256212,"lon":5.411928,"is_reserved":false,"is_disabled":false,"rental_uris":{"android":"levelo://app?vid=5ddba1f1-1747-4179-b91f-b8778028cd60","ios":"levelo://app?vid=5ddba1f1-1747-4179-b91f-b8778028cd60"},"vehicle_type_id":"4","last_reported":1745801648,"current_range_meters":7200,"station_id":"","pricing_plan_id":"cebpf4jnsgd1na2vs0mg"},{"bike_id":"d207e63a-1126-4002-8817-099b9155cf2f","system_id":"levelo_inurba_marseille","lat":43.26208,"lon":5.37924,"is_reserved":false,"is_disabled":false,"rental_uris":{"android":"levelo://app?vid=d207e63a-1126-4002-8817-099b9155cf2f","ios":"levelo://app?vid=d207e63a-1126-4002-8817-099b9155cf2f"},"vehicle_type_id":"4","last_reported":1745801648,"current_range_meters":8000,"station_id":"ce4bhjp2rcd13ifvqg90","pricing_plan_id":"cebpf4jnsgd1na2vs0mg"},{"bike_id":"ee4b8cc4-1bda-40d1-a6f9-1454781afd38","system_id":"levelo_inurba_marseille","lat":43.286571,"lon":5.363445,"is_reserved":false,"is_disabled":true,"rental_uris":{"android":"levelo://app?vid=ee4b8cc4-1bda-40d1-a6f9-1454781afd38","ios":"levelo://app?vid=ee4b8cc4-1bda-40d1-a6f9-1454781afd38"},"vehicle_type_id":"4","last_reported":1745801648,"current_range_meters":8000,"station_id":"ce4bhah2rcd13ifvqej0","pricing_plan_id":"cebpf4jnsgd1na2vs0mg"},{"bike_id":"7d727c0a-6c28-48dc-bed3-bc7b1f3ba7ba","system_id":"levelo_inurba_marseille","lat":43.29238,"lon":5.36457,"is_reserved":false,"is_disabled":true,"rental_uris":{"android":"levelo://app?vid=7d727c0a-6c28-48dc-bed3-bc7b1f3ba7ba","ios":"levelo://app?vid=7d727c0a-6c28-48dc-bed3-bc7b1f3ba7ba"},"vehicle_type_id":"4","last_reported":1745801648,"current_range_meters":8000,"station_id":"","pricing_plan_id":"cebpf4jnsgd1na2vs0mg"},{"bike_id":"1e6778b1-a8b4-4d99-84b7-a446771adee7","system_id":"levelo_inurba_marseille","lat":43.23188,"lon":5.39991,"is_reserved":false,"is_disabled":false,"rental_uris":{"android":"levelo://app?vid=1e6778b1-a8b4-4d99-84b7-a446771adee7","ios":"levelo://app?vid=1e6778b1-a8b4-4d99-84b7-a446771adee7"},"vehicle_type_id":"4","last_reported":1745801648,"current_range_meters":8000,"station_id":"ce4bhn12rcd13ifvqgqg","pricing_plan_id":"cebpf4jnsgd1na2vs0mg"},{"bike_id":"721ac694-ddc1-45a4-93fe-2aef08d4b564","system_id":"levelo_inurba_marseille","lat":43.24168,"lon":5.36405,"is_reserved":false,"is_disabled":false,"rental_uris":{"android":"levelo://app?vid=721ac694-ddc1-45a4-93fe-2aef08d4b564","ios":"levelo://app?vid=721ac694-ddc1-45a4-93fe-2aef08d4b564"},"vehicle_type_id":"4","last_reported":1745801648,"current_range_meters":8000,"station_id":"cpo36qri1sfpv3e86is0","pricing_plan_id":"cebpf4jnsgd1na2vs0mg"},{"bike_id":"d0cf06dd-3f0a-4b7a-8ff4-c5b13d37b8f6","system_id":"levelo_inurba_marseille","lat":43.29442,"lon":5.39748,"is_reserved":false,"is_disabled":false,"rental_uris":{"android":"levelo://app?vid=d0cf06dd-3f0a-4b7a-8ff4-c5b13d37b8f6","ios":"levelo://app?vid=d0cf06dd-3f0a-4b7a-8ff4-c5b13d37b8f6"},"vehicle_type_id":"4","last_reported":1745801648,"current_range_meters":8400,"station_id":"ce4bh3h2rcd13ifvqdo0","pricing_plan_id":"cebpf4jnsgd1na2vs0mg"},{"bike_id":"7285c221-847b-46d9-b086-1b7053cfaa3d","system_id":"levelo_inurba_marseille","lat":43.24171,"lon":5.39727,"is_reserved":false,"is_disabled":false,"rental_uris":{"android":"levelo://app?vid=7285c221-847b-46d9-b086-1b7053cfaa3d","ios":"levelo://app?vid=7285c221-847b-46d9-b086-1b7053cfaa3d"},"vehicle_type_id":"4","last_reported":1745801648,"current_range_meters":8400,"station_id":"ce4bhn12rcd13ifvqgpg","pricing_plan_id":"cebpf4jnsgd1na2vs0mg"},{"bike_id":"0ac1cfd7-2f1b-4945-9eb9-e527c341db5d","system_id":"levelo_inurba_marseille","lat":43.27074,"lon":5.42285,"is_reserved":false,"is_disabled":false,"rental_uris":{"android":"levelo://app?vid=0ac1cfd7-2f1b-4945-9eb9-e527c341db5d","ios":"levelo://app?vid=0ac1cfd7-2f1b-4945-9eb9-e527c341db5d"},"vehicle_type_id":"4","last_reported":1745801648,"current_range_meters":8400,"station_id":"ce4bhk92rcd13ifvqgb0","pricing_plan_id":"cebpf4jnsgd1na2vs0mg"},{"bike_id":"ab08e698-0e23-4805-8aaa-b39648eaffad","system_id":"levelo_inurba_marseille","lat":43.28464,"lon":5.38387,"is_reserved":false,"is_disabled":true,"rental_uris":{"android":"levelo://app?vid=ab08e698-0e23-4805-8aaa-b39648eaffad","ios":"levelo://app?vid=ab08e698-0e23-4805-8aaa-b39648eaffad"},"vehicle_type_id":"4","last_reported":1745801648,"current_range_meters":8400,"station_id":"ce4bh512rcd13ifvqe3g","pricing_plan_id":"cebpf4jnsgd1na2vs0mg"},{"bike_id":"b9573801-f8cd-450a-943a-86a4083bccfa","system_id":"levelo_inurba_marseille","lat":43.2511,"lon":5.40326,"is_reserved":false,"is_disabled":false,"rental_uris":{"android":"levelo://app?vid=b9573801-f8cd-450a-943a-86a4083bccfa","ios":"levelo://app?vid=b9573801-f8cd-450a-943a-86a4083bccfa"},"vehicle_type_id":"4","last_reported":1745801648,"current_range_meters":8800,"station_id":"ce4bhlh2rcd13ifvqgig","pricing_plan_id":"cebpf4jnsgd1na2vs0mg"},{"bike_id":"574c21c3-5de9-4bfa-a3aa-ac4e3698f0a7","system_id":"levelo_inurba_marseille","lat":43.27207,"lon":5.39193,"is_reserved":false,"is_disabled":true,"rental_uris":{"android":"levelo://app?vid=574c21c3-5de9-4bfa-a3aa-ac4e3698f0a7","ios":"levelo://app?vid=574c21c3-5de9-4bfa-a3aa-ac4e3698f0a7"},"vehicle_type_id":"4","last_reported":1745801648,"current_range_meters":8800,"station_id":"ce4bhhp2rcd13ifvqfm0","pricing_plan_id":"cebpf4jnsgd1na2vs0mg"},{"bike_id":"c1faacd0-1f5b-4c1f-996a-7cfb70349eca","system_id":"levelo_inurba_marseille","lat":43.25702,"lon":5.4102,"is_reserved":false,"is_disabled":false,"rental_uris":{"android":"levelo://app?vid=c1faacd0-1f5b-4c1f-996a-7cfb70349eca","ios":"levelo://app?vid=c1faacd0-1f5b-4c1f-996a-7cfb70349eca"},"vehicle_type_id":"4","last_reported":1745801648,"current_range_meters":8800,"station_id":"","pricing_plan_id":"cebpf4jnsgd1na2vs0mg"},{"bike_id":"be7ee95f-4688-4915-84c2-2540acb2c17f","system_id":"levelo_inurba_marseille","lat":43.31492,"lon":5.37282,"is_reserved":false,"is_disabled":false,"rental_uris":{"android":"levelo://app?vid=be7ee95f-4688-4915-84c2-2540acb2c17f","ios":"levelo://app?vid=be7ee95f-4688-4915-84c2-2540acb2c17f"},"vehicle_type_id":"4","last_reported":1745801648,"current_range_meters":8800,"station_id":"ce4bgt12rcd13ifvqcd0","pricing_plan_id":"cebpf4jnsgd1na2vs0mg"},{"bike_id":"aae164b7-1114-49aa-b004-978d7030ee91","system_id":"levelo_inurba_marseille","lat":43.25015,"lon":5.38906,"is_reserved":false,"is_disabled":false,"rental_uris":{"android":"levelo://app?vid=aae164b7-1114-49aa-b004-978d7030ee91","ios":"levelo://app?vid=aae164b7-1114-49aa-b004-978d7030ee91"},"vehicle_type_id":"4","last_reported":1745801648,"current_range_meters":8800,"station_id":"ce4bhgp2rcd13ifvqfd0","pricing_plan_id":"cebpf4jnsgd1na2vs0mg"},{"bike_id":"30288cb7-e849-4b02-8ab1-96deccfd974f","system_id":"levelo_inurba_marseille","lat":43.239621,"lon":5.366323,"is_reserved":false,"is_disabled":false,"rental_uris":{"android":"levelo://app?vid=30288cb7-e849-4b02-8ab1-96deccfd974f","ios":"levelo://app?vid=30288cb7-e849-4b02-8ab1-96deccfd974f"},"vehicle_type_id":"4","last_reported":1745801648,"current_range_meters":9200,"station_id":"ce4bhi12rcd13ifvqfp0","pricing_plan_id":"cebpf4jnsgd1na2vs0mg"},{"bike_id":"0053b840-de47-4900-98aa-cc8575176b05","system_id":"levelo_inurba_marseille","lat":43.24151,"lon":5.36417,"is_reserved":false,"is_disabled":true,"rental_uris":{"android":"levelo://app?vid=0053b840-de47-4900-98aa-cc8575176b05","ios":"levelo://app?vid=0053b840-de47-4900-98aa-cc8575176b05"},"vehicle_type_id":"4","last_reported":1745801648,"current_range_meters":9200,"station_id":"cpo36qri1sfpv3e86is0","pricing_plan_id":"cebpf4jnsgd1na2vs0mg"},{"bike_id":"ae1d96a0-b0a2-41e1-be14-e78907f9338a","system_id":"levelo_inurba_marseille","lat":43.29524,"lon":5.394,"is_reserved":false,"is_disabled":true,"rental_uris":{"android":"levelo://app?vid=ae1d96a0-b0a2-41e1-be14-e78907f9338a","ios":"levelo://app?vid=ae1d96a0-b0a2-41e1-be14-e78907f9338a"},"vehicle_type_id":"4","last_reported":1745801648,"current_range_meters":9200,"station_id":"ce4bh292rcd13ifvqdf0","pricing_plan_id":"cebpf4jnsgd1na2vs0mg"},{"bike_id":"554c7222-d609-4841-a832-33adb157bebb","system_id":"levelo_inurba_marseille","lat":43.21191,"lon":5.35085,"is_reserved":false,"is_disabled":false,"rental_uris":{"android":"levelo://app?vid=554c7222-d609-4841-a832-33adb157bebb","ios":"levelo://app?vid=554c7222-d609-4841-a832-33adb157bebb"},"vehicle_type_id":"4","last_reported":1745801648,"current_range_meters":9200,"station_id":"st_cvj6sg6p6f1abm77japg","pricing_plan_id":"cebpf4jnsgd1na2vs0mg"},{"bike_id":"21a5b78b-6652-49fa-a8ee-70531791ccf1","system_id":"levelo_inurba_marseille","lat":43.24878,"lon":5.42519,"is_reserved":false,"is_disabled":false,"rental_uris":{"android":"levelo://app?vid=21a5b78b-6652-49fa-a8ee-70531791ccf1","ios":"levelo://app?vid=21a5b78b-6652-49fa-a8ee-70531791ccf1"},"vehicle_type_id":"4","last_reported":1745801648,"current_range_meters":9200,"station_id":"","pricing_plan_id":"cebpf4jnsgd1na2vs0mg"},{"bike_id":"66c89bb7-3b13-49ff-b8c5-0823b0bd91cb","system_id":"levelo_inurba_marseille","lat":43.26187,"lon":5.3746,"is_reserved":false,"is_disabled":true,"rental_uris":{"android":"levelo://app?vid=66c89bb7-3b13-49ff-b8c5-0823b0bd91cb","ios":"levelo://app?vid=66c89bb7-3b13-49ff-b8c5-0823b0bd91cb"},"vehicle_type_id":"4","last_reported":1745801648,"current_range_meters":9200,"station_id":"ce4bhgp2rcd13ifvqfc0","pricing_plan_id":"cebpf4jnsgd1na2vs0mg"},{"bike_id":"76316d19-5943-4847-b0e7-ad2cbc1d3155","system_id":"levelo_inurba_marseille","lat":43.28452,"lon":5.35892,"is_reserved":false,"is_disabled":false,"rental_uris":{"android":"levelo://app?vid=76316d19-5943-4847-b0e7-ad2cbc1d3155","ios":"levelo://app?vid=76316d19-5943-4847-b0e7-ad2cbc1d3155"},"vehicle_type_id":"4","last_reported":1745801648,"current_range_meters":9200,"station_id":"ce4bhah2rcd13ifvqei0","pricing_plan_id":"cebpf4jnsgd1na2vs0mg"},{"bike_id":"91474842-32bf-45c2-856a-80fd91d22aa5","system_id":"levelo_inurba_marseille","lat":43.21191,"lon":5.35073,"is_reserved":false,"is_disabled":false,"rental_uris":{"android":"levelo://app?vid=91474842-32bf-45c2-856a-80fd91d22aa5","ios":"levelo://app?vid=91474842-32bf-45c2-856a-80fd91d22aa5"},"vehicle_type_id":"4","last_reported":1745801648,"current_range_meters":9200,"station_id":"st_cvj6sg6p6f1abm77japg","pricing_plan_id":"cebpf4jnsgd1na2vs0mg"},{"bike_id":"3a98c0df-de3e-40ca-9407-20a56af778c7","system_id":"levelo_inurba_marseille","lat":43.25077,"lon":5.40356,"is_reserved":false,"is_disabled":false,"rental_uris":{"android":"levelo://app?vid=3a98c0df-de3e-40ca-9407-20a56af778c7","ios":"levelo://app?vid=3a98c0df-de3e-40ca-9407-20a56af778c7"},"vehicle_type_id":"4","last_reported":1745801648,"current_range_meters":9600,"station_id":"ce4bhlh2rcd13ifvqgig","pricing_plan_id":"cebpf4jnsgd1na2vs0mg"},{"bike_id":"42714ffe-c42c-407f-8e86-4a0c4f465a7a","system_id":"levelo_inurba_marseille","lat":43.24559,"lon":5.39511,"is_reserved":false,"is_disabled":false,"rental_uris":{"android":"levelo://app?vid=42714ffe-c42c-407f-8e86-4a0c4f465a7a","ios":"levelo://app?vid=42714ffe-c42c-407f-8e86-4a0c4f465a7a"},"vehicle_type_id":"4","last_reported":1745801648,"current_range_meters":9600,"station_id":"ce4bhlp2rcd13ifvqgjg","pricing_plan_id":"cebpf4jnsgd1na2vs0mg"},{"bike_id":"44530a1d-b48a-47f5-a929-63b20a3c24dc","system_id":"levelo_inurba_marseille","lat":43.24172,"lon":5.364,"is_reserved":false,"is_disabled":false,"rental_uris":{"android":"levelo://app?vid=44530a1d-b48a-47f5-a929-63b20a3c24dc","ios":"levelo://app?vid=44530a1d-b48a-47f5-a929-63b20a3c24dc"},"vehicle_type_id":"4","last_reported":1745801648,"current_range_meters":9600,"station_id":"cpo36qri1sfpv3e86is0","pricing_plan_id":"cebpf4jnsgd1na2vs0mg"},{"bike_id":"af4a97e0-dded-4da0-9eba-7bcd01c44383","system_id":"levelo_inurba_marseille","lat":43.30312,"lon":5.39208,"is_reserved":false,"is_disabled":true,"rental_uris":{"android":"levelo://app?vid=af4a97e0-dded-4da0-9eba-7bcd01c44383","ios":"levelo://app?vid=af4a97e0-dded-4da0-9eba-7bcd01c44383"},"vehicle_type_id":"4","last_reported":1745801648,"current_range_meters":9600,"station_id":"ce4bgkh2rcd13ifvqbk0","pricing_plan_id":"cebpf4jnsgd1na2vs0mg"},{"bike_id":"9d4d8b2b-5202-49f6-afbb-79cd96acce1d","system_id":"levelo_inurba_marseille","lat":43.28852,"lon":5.39303,"is_reserved":false,"is_disabled":false,"rental_uris":{"android":"levelo://app?vid=9d4d8b2b-5202-49f6-afbb-79cd96acce1d","ios":"levelo://app?vid=9d4d8b2b-5202-49f6-afbb-79cd96acce1d"},"vehicle_type_id":"4","last_reported":1745801648,"current_range_meters":9600,"station_id":"ce4bh2p2rcd13ifvqdi0","pricing_plan_id":"cebpf4jnsgd1na2vs0mg"},{"bike_id":"cd177435-770b-406f-8c88-405a89734813","system_id":"levelo_inurba_marseille","lat":43.28037,"lon":5.36949,"is_reserved":false,"is_disabled":false,"rental_uris":{"android":"levelo://app?vid=cd177435-770b-406f-8c88-405a89734813","ios":"levelo://app?vid=cd177435-770b-406f-8c88-405a89734813"},"vehicle_type_id":"4","last_reported":1745801648,"current_range_meters":9600,"station_id":"ce4bha12rcd13ifvqef0","pricing_plan_id":"cebpf4jnsgd1na2vs0mg"},{"bike_id":"470d2f4f-18f9-40aa-a6ee-c93cc79026b0","system_id":"levelo_inurba_marseille","lat":43.30326,"lon":5.40435,"is_reserved":false,"is_disabled":false,"rental_uris":{"android":"levelo://app?vid=470d2f4f-18f9-40aa-a6ee-c93cc79026b0","ios":"levelo://app?vid=470d2f4f-18f9-40aa-a6ee-c93cc79026b0"},"vehicle_type_id":"4","last_reported":1745801648,"current_range_meters":9600,"station_id":"ce4bh012rcd13ifvqd10","pricing_plan_id":"cebpf4jnsgd1na2vs0mg"},{"bike_id":"78489e0f-0b4a-4de4-938c-aa05f1951ddd","system_id":"levelo_inurba_marseille","lat":43.28153,"lon":5.42638,"is_reserved":false,"is_disabled":false,"rental_uris":{"android":"levelo://app?vid=78489e0f-0b4a-4de4-938c-aa05f1951ddd","ios":"levelo://app?vid=78489e0f-0b4a-4de4-938c-aa05f1951ddd"},"vehicle_type_id":"4","last_reported":1745801648,"current_range_meters":9600,"station_id":"ce4bhnh2rcd13ifvqgug","pricing_plan_id":"cebpf4jnsgd1na2vs0mg"},{"bike_id":"8840b7d1-badd-45b4-91db-50feaeb6b7ed","system_id":"levelo_inurba_marseille","lat":43.31027,"lon":5.36741,"is_reserved":false,"is_disabled":false,"rental_uris":{"android":"levelo://app?vid=8840b7d1-badd-45b4-91db-50feaeb6b7ed","ios":"levelo://app?vid=8840b7d1-badd-45b4-91db-50feaeb6b7ed"},"vehicle_type_id":"4","last_reported":1745801648,"current_range_meters":9600,"station_id":"","pricing_plan_id":"cebpf4jnsgd1na2vs0mg"},{"bike_id":"356b76a1-af1a-4bef-951e-98e5b057a721","system_id":"levelo_inurba_marseille","lat":43.29258,"lon":5.384335,"is_reserved":false,"is_disabled":true,"rental_uris":{"android":"levelo://app?vid=356b76a1-af1a-4bef-951e-98e5b057a721","ios":"levelo://app?vid=356b76a1-af1a-4bef-951e-98e5b057a721"},"vehicle_type_id":"4","last_reported":1745801648,"current_range_meters":10000,"station_id":"ce4bh692rcd13ifvqea0","pricing_plan_id":"cebpf4jnsgd1na2vs0mg"},{"bike_id":"44340736-56d7-476e-8588-833b330433aa","system_id":"levelo_inurba_marseille","lat":43.2846,"lon":5.3589,"is_reserved":false,"is_disabled":false,"rental_uris":{"android":"levelo://app?vid=44340736-56d7-476e-8588-833b330433aa","ios":"levelo://app?vid=44340736-56d7-476e-8588-833b330433aa"},"vehicle_type_id":"4","last_reported":1745801648,"current_range_meters":10000,"station_id":"ce4bhah2rcd13ifvqei0","pricing_plan_id":"cebpf4jnsgd1na2vs0mg"},{"bike_id":"a08e6535-7d97-4f82-b424-5e6daf2d2362","system_id":"levelo_inurba_marseille","lat":43.29525,"lon":5.39381,"is_reserved":false,"is_disabled":true,"rental_uris":{"android":"levelo://app?vid=a08e6535-7d97-4f82-b424-5e6daf2d2362","ios":"levelo://app?vid=a08e6535-7d97-4f82-b424-5e6daf2d2362"},"vehicle_type_id":"4","last_reported":1745801648,"current_range_meters":10000,"station_id":"ce4bh292rcd13ifvqdf0","pricing_plan_id":"cebpf4jnsgd1na2vs0mg"},{"bike_id":"e1b84f42-92bc-49b3-afbe-e0f83fe8369e","system_id":"levelo_inurba_marseille","lat":43.23203,"lon":5.39952,"is_reserved":false,"is_disabled":false,"rental_uris":{"android":"levelo://app?vid=e1b84f42-92bc-49b3-afbe-e0f83fe8369e","ios":"levelo://app?vid=e1b84f42-92bc-49b3-afbe-e0f83fe8369e"},"vehicle_type_id":"4","last_reported":1745801648,"current_range_meters":10000,"station_id":"","pricing_plan_id":"cebpf4jnsgd1na2vs0mg"},{"bike_id":"980a0cb2-d545-4925-bccb-f686b0fe7d5a","system_id":"levelo_inurba_marseille","lat":43.29265,"lon":5.40899,"is_reserved":false,"is_disabled":false,"rental_uris":{"android":"levelo://app?vid=980a0cb2-d545-4925-bccb-f686b0fe7d5a","ios":"levelo://app?vid=980a0cb2-d545-4925-bccb-f686b0fe7d5a"},"vehicle_type_id":"4","last_reported":1745801648,"current_range_meters":10000,"station_id":"ce4bh192rcd13ifvqdc0","pricing_plan_id":"cebpf4jnsgd1na2vs0mg"},{"bike_id":"43f36a44-4647-4264-9432-e11f11a1cf95","system_id":"levelo_inurba_marseille","lat":43.2558,"lon":5.38229,"is_reserved":false,"is_disabled":false,"rental_uris":{"android":"levelo://app?vid=43f36a44-4647-4264-9432-e11f11a1cf95","ios":"levelo://app?vid=43f36a44-4647-4264-9432-e11f11a1cf95"},"vehicle_type_id":"4","last_reported":1745801648,"current_range_meters":10000,"station_id":"ce4bhih2rcd13ifvqfs0","pricing_plan_id":"cebpf4jnsgd1na2vs0mg"},{"bike_id":"a9fc9c29-8c43-46bd-9461-dce124126afc","system_id":"levelo_inurba_marseille","lat":43.26925,"lon":5.38671,"is_reserved":false,"is_disabled":false,"rental_uris":{"android":"levelo://app?vid=a9fc9c29-8c43-46bd-9461-dce124126afc","ios":"levelo://app?vid=a9fc9c29-8c43-46bd-9461-dce124126afc"},"vehicle_type_id":"4","last_reported":1745801648,"current_range_meters":10000,"station_id":"ce4bhhh2rcd13ifvqfl0","pricing_plan_id":"cebpf4jnsgd1na2vs0mg"},{"bike_id":"a2e988ca-4cad-46d4-8096-1d1b1de4b0e4","system_id":"levelo_inurba_marseille","lat":43.32372,"lon":5.3677,"is_reserved":false,"is_disabled":false,"rental_uris":{"android":"levelo://app?vid=a2e988ca-4cad-46d4-8096-1d1b1de4b0e4","ios":"levelo://app?vid=a2e988ca-4cad-46d4-8096-1d1b1de4b0e4"},"vehicle_type_id":"4","last_reported":1745801648,"current_range_meters":10800,"station_id":"ce4bhsh2rcd13ifvqi2g","pricing_plan_id":"cebpf4jnsgd1na2vs0mg"},{"bike_id":"7626ed72-c0f8-4eb9-adb3-f027b3fcb3d9","system_id":"levelo_inurba_marseille","lat":43.24664,"lon":5.38155,"is_reserved":false,"is_disabled":false,"rental_uris":{"android":"levelo://app?vid=7626ed72-c0f8-4eb9-adb3-f027b3fcb3d9","ios":"levelo://app?vid=7626ed72-c0f8-4eb9-adb3-f027b3fcb3d9"},"vehicle_type_id":"4","last_reported":1745801648,"current_range_meters":10800,"station_id":"ce4bhih2rcd13ifvqfr0","pricing_plan_id":"cebpf4jnsgd1na2vs0mg"},{"bike_id":"8235d872-096e-497c-a719-c2fcbf16281e","system_id":"levelo_inurba_marseille","lat":43.24652,"lon":5.38897,"is_reserved":false,"is_disabled":false,"rental_uris":{"android":"levelo://app?vid=8235d872-096e-497c-a719-c2fcbf16281e","ios":"levelo://app?vid=8235d872-096e-497c-a719-c2fcbf16281e"},"vehicle_type_id":"4","last_reported":1745801648,"current_range_meters":10800,"station_id":"ce4bhg12rcd13ifvqf60","pricing_plan_id":"cebpf4jnsgd1na2vs0mg"},{"bike_id":"560f12bb-1614-4d7c-b78e-ccf5bdec9ea6","system_id":"levelo_inurba_marseille","lat":43.28465,"lon":5.35895,"is_reserved":false,"is_disabled":true,"rental_uris":{"android":"levelo://app?vid=560f12bb-1614-4d7c-b78e-ccf5bdec9ea6","ios":"levelo://app?vid=560f12bb-1614-4d7c-b78e-ccf5bdec9ea6"},"vehicle_type_id":"4","last_reported":1745801648,"current_range_meters":10800,"station_id":"ce4bhah2rcd13ifvqei0","pricing_plan_id":"cebpf4jnsgd1na2vs0mg"},{"bike_id":"717cabec-6d1e-4fbd-94f4-9e9366fab599","system_id":"levelo_inurba_marseille","lat":43.22509,"lon":5.34779,"is_reserved":false,"is_disabled":true,"rental_uris":{"android":"levelo://app?vid=717cabec-6d1e-4fbd-94f4-9e9366fab599","ios":"levelo://app?vid=717cabec-6d1e-4fbd-94f4-9e9366fab599"},"vehicle_type_id":"4","last_reported":1745801648,"current_range_meters":11200,"station_id":"st_cvj5dfep6f1abm77gieg","pricing_plan_id":"cebpf4jnsgd1na2vs0mg"},{"bike_id":"3ccac05c-9dfe-40ab-8170-c07c58eafdc3","system_id":"levelo_inurba_marseille","lat":43.26213,"lon":5.40473,"is_reserved":false,"is_disabled":false,"rental_uris":{"android":"levelo://app?vid=3ccac05c-9dfe-40ab-8170-c07c58eafdc3","ios":"levelo://app?vid=3ccac05c-9dfe-40ab-8170-c07c58eafdc3"},"vehicle_type_id":"4","last_reported":1745801648,"current_range_meters":11200,"station_id":"ce4bhmh2rcd13ifvqgmg","pricing_plan_id":"cebpf4jnsgd1na2vs0mg"},{"bike_id":"57ebd52c-bbc8-4a4d-8d80-2da8f6250dbd","system_id":"levelo_inurba_marseille","lat":43.27817,"lon":5.40728,"is_reserved":false,"is_disabled":true,"rental_uris":{"android":"levelo://app?vid=57ebd52c-bbc8-4a4d-8d80-2da8f6250dbd","ios":"levelo://app?vid=57ebd52c-bbc8-4a4d-8d80-2da8f6250dbd"},"vehicle_type_id":"4","last_reported":1745801648,"current_range_meters":11200,"station_id":"ce4bhnh2rcd13ifvqgtg","pricing_plan_id":"cebpf4jnsgd1na2vs0mg"},{"bike_id":"6303aeb8-901b-4f8f-8588-7c345791c8ea","system_id":"levelo_inurba_marseille","lat":43.24763,"lon":5.41221,"is_reserved":false,"is_disabled":false,"rental_uris":{"android":"levelo://app?vid=6303aeb8-901b-4f8f-8588-7c345791c8ea","ios":"levelo://app?vid=6303aeb8-901b-4f8f-8588-7c345791c8ea"},"vehicle_type_id":"4","last_reported":1745801648,"current_range_meters":11600,"station_id":"","pricing_plan_id":"cebpf4jnsgd1na2vs0mg"},{"bike_id":"6e7a0261-66ff-4ef0-9e0a-3171efd10510","system_id":"levelo_inurba_marseille","lat":43.25551,"lon":5.38254,"is_reserved":false,"is_disabled":false,"rental_uris":{"android":"levelo://app?vid=6e7a0261-66ff-4ef0-9e0a-3171efd10510","ios":"levelo://app?vid=6e7a0261-66ff-4ef0-9e0a-3171efd10510"},"vehicle_type_id":"4","last_reported":1745801648,"current_range_meters":11600,"station_id":"ce4bhih2rcd13ifvqfs0","pricing_plan_id":"cebpf4jnsgd1na2vs0mg"},{"bike_id":"bab391eb-e982-4066-b94b-52cc02253741","system_id":"levelo_inurba_marseille","lat":43.30244,"lon":5.40053,"is_reserved":false,"is_disabled":true,"rental_uris":{"android":"levelo://app?vid=bab391eb-e982-4066-b94b-52cc02253741","ios":"levelo://app?vid=bab391eb-e982-4066-b94b-52cc02253741"},"vehicle_type_id":"4","last_reported":1745801648,"current_range_meters":11600,"station_id":"ce4bgvh2rcd13ifvqcs0","pricing_plan_id":"cebpf4jnsgd1na2vs0mg"},{"bike_id":"6d593226-0a2e-46d4-8de3-9c8bd9d3e674","system_id":"levelo_inurba_marseille","lat":43.29591,"lon":5.37693,"is_reserved":false,"is_disabled":true,"rental_uris":{"android":"levelo://app?vid=6d593226-0a2e-46d4-8de3-9c8bd9d3e674","ios":"levelo://app?vid=6d593226-0a2e-46d4-8de3-9c8bd9d3e674"},"vehicle_type_id":"4","last_reported":1745801648,"current_range_meters":11600,"station_id":"ce4bgi92rcd13ifvqb90","pricing_plan_id":"cebpf4jnsgd1na2vs0mg"},{"bike_id":"b330c3b4-8203-49c9-a4bf-5485d09a1d2d","system_id":"levelo_inurba_marseille","lat":43.30223,"lon":5.39443,"is_reserved":false,"is_disabled":true,"rental_uris":{"android":"levelo://app?vid=b330c3b4-8203-49c9-a4bf-5485d09a1d2d","ios":"levelo://app?vid=b330c3b4-8203-49c9-a4bf-5485d09a1d2d"},"vehicle_type_id":"4","last_reported":1745801648,"current_range_meters":11600,"station_id":"ce4bh0p2rcd13ifvqd70","pricing_plan_id":"cebpf4jnsgd1na2vs0mg"},{"bike_id":"92529eb9-332c-44bc-b88d-745ec05be699","system_id":"levelo_inurba_marseille","lat":43.29302,"lon":5.37467,"is_reserved":false,"is_disabled":false,"rental_uris":{"android":"levelo://app?vid=92529eb9-332c-44bc-b88d-745ec05be699","ios":"levelo://app?vid=92529eb9-332c-44bc-b88d-745ec05be699"},"vehicle_type_id":"4","last_reported":1745801648,"current_range_meters":11200,"station_id":"ce4bgi12rcd13ifvqb70","pricing_plan_id":"cebpf4jnsgd1na2vs0mg"},{"bike_id":"03bd42f6-231b-41f0-967c-979162658d23","system_id":"levelo_inurba_marseille","lat":43.24676,"lon":5.38107,"is_reserved":false,"is_disabled":false,"rental_uris":{"android":"levelo://app?vid=03bd42f6-231b-41f0-967c-979162658d23","ios":"levelo://app?vid=03bd42f6-231b-41f0-967c-979162658d23"},"vehicle_type_id":"4","last_reported":1745801648,"current_range_meters":12000,"station_id":"","pricing_plan_id":"cebpf4jnsgd1na2vs0mg"},{"bike_id":"a5903229-b31f-421f-9c07-ee7e22bcdbb0","system_id":"levelo_inurba_marseille","lat":43.21192,"lon":5.35097,"is_reserved":false,"is_disabled":false,"rental_uris":{"android":"levelo://app?vid=a5903229-b31f-421f-9c07-ee7e22bcdbb0","ios":"levelo://app?vid=a5903229-b31f-421f-9c07-ee7e22bcdbb0"},"vehicle_type_id":"4","last_reported":1745801648,"current_range_meters":12000,"station_id":"","pricing_plan_id":"cebpf4jnsgd1na2vs0mg"},{"bike_id":"3d934169-6946-46cc-87a4-ce5d03b77075","system_id":"levelo_inurba_marseille","lat":43.217535,"lon":5.345975,"is_reserved":false,"is_disabled":false,"rental_uris":{"android":"levelo://app?vid=3d934169-6946-46cc-87a4-ce5d03b77075","ios":"levelo://app?vid=3d934169-6946-46cc-87a4-ce5d03b77075"},"vehicle_type_id":"4","last_reported":1745801648,"current_range_meters":12000,"station_id":"st_cvj6r9ubvosntc0bgbag","pricing_plan_id":"cebpf4jnsgd1na2vs0mg"},{"bike_id":"8dcd26eb-d81c-401c-b1d8-44b4314aedc3","system_id":"levelo_inurba_marseille","lat":43.310817,"lon":5.38344,"is_reserved":false,"is_disabled":false,"rental_uris":{"android":"levelo://app?vid=8dcd26eb-d81c-401c-b1d8-44b4314aedc3","ios":"levelo://app?vid=8dcd26eb-d81c-401c-b1d8-44b4314aedc3"},"vehicle_type_id":"4","last_reported":1745801648,"current_range_meters":12000,"station_id":"ce4bgv92rcd13ifvqcr0","pricing_plan_id":"cebpf4jnsgd1na2vs0mg"},{"bike_id":"f10c3916-d123-460c-9e9a-201695a357bc","system_id":"levelo_inurba_marseille","lat":43.28144,"lon":5.42628,"is_reserved":false,"is_disabled":false,"rental_uris":{"android":"levelo://app?vid=f10c3916-d123-460c-9e9a-201695a357bc","ios":"levelo://app?vid=f10c3916-d123-460c-9e9a-201695a357bc"},"vehicle_type_id":"4","last_reported":1745801648,"current_range_meters":12000,"station_id":"ce4bhnh2rcd13ifvqgug","pricing_plan_id":"cebpf4jnsgd1na2vs0mg"},{"bike_id":"06b75956-2687-4df9-b215-943b6923c19a","system_id":"levelo_inurba_marseille","lat":43.29262,"lon":5.40897,"is_reserved":false,"is_disabled":false,"rental_uris":{"android":"levelo://app?vid=06b75956-2687-4df9-b215-943b6923c19a","ios":"levelo://app?vid=06b75956-2687-4df9-b215-943b6923c19a"},"vehicle_type_id":"4","last_reported":1745801648,"current_range_meters":12000,"station_id":"ce4bh192rcd13ifvqdc0","pricing_plan_id":"cebpf4jnsgd1na2vs0mg"},{"bike_id":"1fe84233-d6e6-400c-ba7e-765c53207954","system_id":"levelo_inurba_marseille","lat":43.26067,"lon":5.39375,"is_reserved":false,"is_disabled":false,"rental_uris":{"android":"levelo://app?vid=1fe84233-d6e6-400c-ba7e-765c53207954","ios":"levelo://app?vid=1fe84233-d6e6-400c-ba7e-765c53207954"},"vehicle_type_id":"4","last_reported":1745801648,"current_range_meters":12000,"station_id":"ce4bhh92rcd13ifvqfj0","pricing_plan_id":"cebpf4jnsgd1na2vs0mg"},{"bike_id":"0d777af5-4166-475a-a6b9-6a0197032592","system_id":"levelo_inurba_marseille","lat":43.23254,"lon":5.35205,"is_reserved":false,"is_disabled":false,"rental_uris":{"android":"levelo://app?vid=0d777af5-4166-475a-a6b9-6a0197032592","ios":"levelo://app?vid=0d777af5-4166-475a-a6b9-6a0197032592"},"vehicle_type_id":"4","last_reported":1745801648,"current_range_meters":12400,"station_id":"","pricing_plan_id":"cebpf4jnsgd1na2vs0mg"},{"bike_id":"89e7ab08-7fc9-416d-a96f-130de8b43266","system_id":"levelo_inurba_marseille","lat":43.33744,"lon":5.39178,"is_reserved":false,"is_disabled":false,"rental_uris":{"android":"levelo://app?vid=89e7ab08-7fc9-416d-a96f-130de8b43266","ios":"levelo://app?vid=89e7ab08-7fc9-416d-a96f-130de8b43266"},"vehicle_type_id":"4","last_reported":1745801648,"current_range_meters":12400,"station_id":"ce4bhr92rcd13ifvqhsg","pricing_plan_id":"cebpf4jnsgd1na2vs0mg"},{"bike_id":"a6ef5e73-9c2a-4c3a-b853-48e28d6dc161","system_id":"levelo_inurba_marseille","lat":43.31715,"lon":5.43711,"is_reserved":false,"is_disabled":true,"rental_uris":{"android":"levelo://app?vid=a6ef5e73-9c2a-4c3a-b853-48e28d6dc161","ios":"levelo://app?vid=a6ef5e73-9c2a-4c3a-b853-48e28d6dc161"},"vehicle_type_id":"4","last_reported":1745801648,"current_range_meters":12400,"station_id":"ce4bhp92rcd13ifvqhcg","pricing_plan_id":"cebpf4jnsgd1na2vs0mg"},{"bike_id":"99be1414-58ff-4752-826b-d0dcc4401711","system_id":"levelo_inurba_marseille","lat":43.24822,"lon":5.37418,"is_reserved":false,"is_disabled":true,"rental_uris":{"android":"levelo://app?vid=99be1414-58ff-4752-826b-d0dcc4401711","ios":"levelo://app?vid=99be1414-58ff-4752-826b-d0dcc4401711"},"vehicle_type_id":"4","last_reported":1745801648,"current_range_meters":12400,"station_id":"ce4bhgh2rcd13ifvqfb0","pricing_plan_id":"cebpf4jnsgd1na2vs0mg"},{"bike_id":"3a329fe9-deb6-4729-bbed-973ea17872b9","system_id":"levelo_inurba_marseille","lat":43.25106,"lon":5.40342,"is_reserved":false,"is_disabled":false,"rental_uris":{"android":"levelo://app?vid=3a329fe9-deb6-4729-bbed-973ea17872b9","ios":"levelo://app?vid=3a329fe9-deb6-4729-bbed-973ea17872b9"},"vehicle_type_id":"4","last_reported":1745801648,"current_range_meters":12800,"station_id":"ce4bhlh2rcd13ifvqgig","pricing_plan_id":"cebpf4jnsgd1na2vs0mg"},{"bike_id":"ed71a3f8-b6a3-4b3a-a730-5a8d95677d94","system_id":"levelo_inurba_marseille","lat":43.28847,"lon":5.35822,"is_reserved":false,"is_disabled":false,"rental_uris":{"android":"levelo://app?vid=ed71a3f8-b6a3-4b3a-a730-5a8d95677d94","ios":"levelo://app?vid=ed71a3f8-b6a3-4b3a-a730-5a8d95677d94"},"vehicle_type_id":"4","last_reported":1745801648,"current_range_meters":14000,"station_id":"ce4bhb12rcd13ifvqem0","pricing_plan_id":"cebpf4jnsgd1na2vs0mg"},{"bike_id":"f360aaad-e350-49e9-8191-58ce4616eb13","system_id":"levelo_inurba_marseille","lat":43.21176,"lon":5.3508,"is_reserved":false,"is_disabled":true,"rental_uris":{"android":"levelo://app?vid=f360aaad-e350-49e9-8191-58ce4616eb13","ios":"levelo://app?vid=f360aaad-e350-49e9-8191-58ce4616eb13"},"vehicle_type_id":"4","last_reported":1745801648,"current_range_meters":14000,"station_id":"st_cvj6sg6p6f1abm77japg","pricing_plan_id":"cebpf4jnsgd1na2vs0mg"},{"bike_id":"9979a00e-2e44-430d-a52a-2c59b70df091","system_id":"levelo_inurba_marseille","lat":43.23194,"lon":5.39984,"is_reserved":false,"is_disabled":false,"rental_uris":{"android":"levelo://app?vid=9979a00e-2e44-430d-a52a-2c59b70df091","ios":"levelo://app?vid=9979a00e-2e44-430d-a52a-2c59b70df091"},"vehicle_type_id":"4","last_reported":1745801648,"current_range_meters":14000,"station_id":"ce4bhn12rcd13ifvqgqg","pricing_plan_id":"cebpf4jnsgd1na2vs0mg"},{"bike_id":"d4ce7eab-d2e5-4dd9-bd61-f458b6331907","system_id":"levelo_inurba_marseille","lat":43.3133,"lon":5.38426,"is_reserved":false,"is_disabled":false,"rental_uris":{"android":"levelo://app?vid=d4ce7eab-d2e5-4dd9-bd61-f458b6331907","ios":"levelo://app?vid=d4ce7eab-d2e5-4dd9-bd61-f458b6331907"},"vehicle_type_id":"4","last_reported":1745801648,"current_range_meters":14000,"station_id":"ce4bgt92rcd13ifvqcf0","pricing_plan_id":"cebpf4jnsgd1na2vs0mg"},{"bike_id":"45d09500-4580-4832-b2a0-d173ab8318b9","system_id":"levelo_inurba_marseille","lat":43.324861,"lon":5.365651,"is_reserved":false,"is_disabled":false,"rental_uris":{"android":"levelo://app?vid=45d09500-4580-4832-b2a0-d173ab8318b9","ios":"levelo://app?vid=45d09500-4580-4832-b2a0-d173ab8318b9"},"vehicle_type_id":"4","last_reported":1745801648,"current_range_meters":14000,"station_id":"ce4bhs12rcd13ifvqhvg","pricing_plan_id":"cebpf4jnsgd1na2vs0mg"},{"bike_id":"2702eb71-50fe-493a-b07f-fb844f7f5b60","system_id":"levelo_inurba_marseille","lat":43.31284,"lon":5.40153,"is_reserved":false,"is_disabled":false,"rental_uris":{"android":"levelo://app?vid=2702eb71-50fe-493a-b07f-fb844f7f5b60","ios":"levelo://app?vid=2702eb71-50fe-493a-b07f-fb844f7f5b60"},"vehicle_type_id":"4","last_reported":1745801648,"current_range_meters":14000,"station_id":"ce4bh092rcd13ifvqd30","pricing_plan_id":"cebpf4jnsgd1na2vs0mg"},{"bike_id":"13b849e7-ec86-4245-aa21-287dc6e1e5ba","system_id":"levelo_inurba_marseille","lat":43.2509,"lon":5.40328,"is_reserved":false,"is_disabled":false,"rental_uris":{"android":"levelo://app?vid=13b849e7-ec86-4245-aa21-287dc6e1e5ba","ios":"levelo://app?vid=13b849e7-ec86-4245-aa21-287dc6e1e5ba"},"vehicle_type_id":"4","last_reported":1745801648,"current_range_meters":14000,"station_id":"ce4bhlh2rcd13ifvqgig","pricing_plan_id":"cebpf4jnsgd1na2vs0mg"},{"bike_id":"647355cc-822f-41e4-b0fe-856d5a69a337","system_id":"levelo_inurba_marseille","lat":43.21189,"lon":5.35074,"is_reserved":false,"is_disabled":false,"rental_uris":{"android":"levelo://app?vid=647355cc-822f-41e4-b0fe-856d5a69a337","ios":"levelo://app?vid=647355cc-822f-41e4-b0fe-856d5a69a337"},"vehicle_type_id":"4","last_reported":1745801648,"current_range_meters":14400,"station_id":"st_cvj6sg6p6f1abm77japg","pricing_plan_id":"cebpf4jnsgd1na2vs0mg"},{"bike_id":"4046a82f-66e8-4b55-bd0a-356edea772d8","system_id":"levelo_inurba_marseille","lat":43.30604,"lon":5.38176,"is_reserved":false,"is_disabled":false,"rental_uris":{"android":"levelo://app?vid=4046a82f-66e8-4b55-bd0a-356edea772d8","ios":"levelo://app?vid=4046a82f-66e8-4b55-bd0a-356edea772d8"},"vehicle_type_id":"4","last_reported":1745801648,"current_range_meters":14400,"station_id":"","pricing_plan_id":"cebpf4jnsgd1na2vs0mg"},{"bike_id":"a1300fa1-43f7-47bc-be68-1621591c429e","system_id":"levelo_inurba_marseille","lat":43.25015,"lon":5.38906,"is_reserved":false,"is_disabled":true,"rental_uris":{"android":"levelo://app?vid=a1300fa1-43f7-47bc-be68-1621591c429e","ios":"levelo://app?vid=a1300fa1-43f7-47bc-be68-1621591c429e"},"vehicle_type_id":"4","last_reported":1745801648,"current_range_meters":14400,"station_id":"ce4bhgp2rcd13ifvqfd0","pricing_plan_id":"cebpf4jnsgd1na2vs0mg"},{"bike_id":"f17b8bc9-cb61-461c-a30c-7a4a35ea4852","system_id":"levelo_inurba_marseille","lat":43.28454,"lon":5.3588,"is_reserved":false,"is_disabled":false,"rental_uris":{"android":"levelo://app?vid=f17b8bc9-cb61-461c-a30c-7a4a35ea4852","ios":"levelo://app?vid=f17b8bc9-cb61-461c-a30c-7a4a35ea4852"},"vehicle_type_id":"4","last_reported":1745801648,"current_range_meters":14800,"station_id":"ce4bhah2rcd13ifvqei0","pricing_plan_id":"cebpf4jnsgd1na2vs0mg"},{"bike_id":"d8e186e0-8d9f-4c16-bb12-3c50f63fd666","system_id":"levelo_inurba_marseille","lat":43.27496,"lon":5.4249,"is_reserved":false,"is_disabled":false,"rental_uris":{"android":"levelo://app?vid=d8e186e0-8d9f-4c16-bb12-3c50f63fd666","ios":"levelo://app?vid=d8e186e0-8d9f-4c16-bb12-3c50f63fd666"},"vehicle_type_id":"4","last_reported":1745801648,"current_range_meters":14800,"station_id":"ce4bhn92rcd13ifvqgrg","pricing_plan_id":"cebpf4jnsgd1na2vs0mg"},{"bike_id":"97f36b89-3f79-4d54-80b9-0001fe6da6bb","system_id":"levelo_inurba_marseille","lat":43.32445,"lon":5.39134,"is_reserved":false,"is_disabled":true,"rental_uris":{"android":"levelo://app?vid=97f36b89-3f79-4d54-80b9-0001fe6da6bb","ios":"levelo://app?vid=97f36b89-3f79-4d54-80b9-0001fe6da6bb"},"vehicle_type_id":"4","last_reported":1745801648,"current_range_meters":14800,"station_id":"","pricing_plan_id":"cebpf4jnsgd1na2vs0mg"},{"bike_id":"fbe5fa9c-e8fb-46cf-9f80-4c4dab68ff13","system_id":"levelo_inurba_marseille","lat":43.32479,"lon":5.36549,"is_reserved":false,"is_disabled":false,"rental_uris":{"android":"levelo://app?vid=fbe5fa9c-e8fb-46cf-9f80-4c4dab68ff13","ios":"levelo://app?vid=fbe5fa9c-e8fb-46cf-9f80-4c4dab68ff13"},"vehicle_type_id":"4","last_reported":1745801648,"current_range_meters":15200,"station_id":"ce4bhs12rcd13ifvqhvg","pricing_plan_id":"cebpf4jnsgd1na2vs0mg"},{"bike_id":"97fd7a4c-36e8-401d-b12d-1b4015a01ebe","system_id":"levelo_inurba_marseille","lat":43.2655,"lon":5.42212,"is_reserved":false,"is_disabled":false,"rental_uris":{"android":"levelo://app?vid=97fd7a4c-36e8-401d-b12d-1b4015a01ebe","ios":"levelo://app?vid=97fd7a4c-36e8-401d-b12d-1b4015a01ebe"},"vehicle_type_id":"4","last_reported":1745801648,"current_range_meters":15200,"station_id":"","pricing_plan_id":"cebpf4jnsgd1na2vs0mg"},{"bike_id":"4de6f493-e285-48e2-b411-17ea7eea5c29","system_id":"levelo_inurba_marseille","lat":43.32355,"lon":5.38891,"is_reserved":false,"is_disabled":false,"rental_uris":{"android":"levelo://app?vid=4de6f493-e285-48e2-b411-17ea7eea5c29","ios":"levelo://app?vid=4de6f493-e285-48e2-b411-17ea7eea5c29"},"vehicle_type_id":"4","last_reported":1745801648,"current_range_meters":15200,"station_id":"ce4bhqp2rcd13ifvqhog","pricing_plan_id":"cebpf4jnsgd1na2vs0mg"},{"bike_id":"5debd579-c045-4892-a39c-8ac3bb501315","system_id":"levelo_inurba_marseille","lat":43.28408,"lon":5.37527,"is_reserved":false,"is_disabled":false,"rental_uris":{"android":"levelo://app?vid=5debd579-c045-4892-a39c-8ac3bb501315","ios":"levelo://app?vid=5debd579-c045-4892-a39c-8ac3bb501315"},"vehicle_type_id":"4","last_reported":1745801648,"current_range_meters":15200,"station_id":"ce4bh412rcd13ifvqds0","pricing_plan_id":"cebpf4jnsgd1na2vs0mg"},{"bike_id":"3f5f2c9a-9e49-4b78-9b1b-0708da9fec39","system_id":"levelo_inurba_marseille","lat":43.22496,"lon":5.34781,"is_reserved":false,"is_disabled":false,"rental_uris":{"android":"levelo://app?vid=3f5f2c9a-9e49-4b78-9b1b-0708da9fec39","ios":"levelo://app?vid=3f5f2c9a-9e49-4b78-9b1b-0708da9fec39"},"vehicle_type_id":"4","last_reported":1745801648,"current_range_meters":16000,"station_id":"st_cvj5dfep6f1abm77gieg","pricing_plan_id":"cebpf4jnsgd1na2vs0mg"},{"bike_id":"c17b80ad-6153-4325-ab92-0f28bc4dfaa9","system_id":"levelo_inurba_marseille","lat":43.25579,"lon":5.38237,"is_reserved":false,"is_disabled":false,"rental_uris":{"android":"levelo://app?vid=c17b80ad-6153-4325-ab92-0f28bc4dfaa9","ios":"levelo://app?vid=c17b80ad-6153-4325-ab92-0f28bc4dfaa9"},"vehicle_type_id":"4","last_reported":1745801648,"current_range_meters":16000,"station_id":"ce4bhih2rcd13ifvqfs0","pricing_plan_id":"cebpf4jnsgd1na2vs0mg"},{"bike_id":"2e7ac15a-983b-44da-a8d0-533b1e803195","system_id":"levelo_inurba_marseille","lat":43.25578,"lon":5.38212,"is_reserved":false,"is_disabled":false,"rental_uris":{"android":"levelo://app?vid=2e7ac15a-983b-44da-a8d0-533b1e803195","ios":"levelo://app?vid=2e7ac15a-983b-44da-a8d0-533b1e803195"},"vehicle_type_id":"4","last_reported":1745801648,"current_range_meters":16000,"station_id":"ce4bhih2rcd13ifvqfs0","pricing_plan_id":"cebpf4jnsgd1na2vs0mg"},{"bike_id":"e492037e-60a9-4864-84d6-2fe9ea031f90","system_id":"levelo_inurba_marseille","lat":43.2798,"lon":5.38745,"is_reserved":false,"is_disabled":false,"rental_uris":{"android":"levelo://app?vid=e492037e-60a9-4864-84d6-2fe9ea031f90","ios":"levelo://app?vid=e492037e-60a9-4864-84d6-2fe9ea031f90"},"vehicle_type_id":"4","last_reported":1745801648,"current_range_meters":16000,"station_id":"ce4bhg12rcd13ifvqf80","pricing_plan_id":"cebpf4jnsgd1na2vs0mg"},{"bike_id":"d003d4c2-e712-4b4b-a918-2cf2a97cd6d4","system_id":"levelo_inurba_marseille","lat":43.29196,"lon":5.393214,"is_reserved":false,"is_disabled":false,"rental_uris":{"android":"levelo://app?vid=d003d4c2-e712-4b4b-a918-2cf2a97cd6d4","ios":"levelo://app?vid=d003d4c2-e712-4b4b-a918-2cf2a97cd6d4"},"vehicle_type_id":"4","last_reported":1745801648,"current_range_meters":16000,"station_id":"ce4bh192rcd13ifvqdd0","pricing_plan_id":"cebpf4jnsgd1na2vs0mg"},{"bike_id":"cdefb1fb-f28b-4051-a0f5-a9451436b4ed","system_id":"levelo_inurba_marseille","lat":43.25799,"lon":5.38579,"is_reserved":false,"is_disabled":false,"rental_uris":{"android":"levelo://app?vid=cdefb1fb-f28b-4051-a0f5-a9451436b4ed","ios":"levelo://app?vid=cdefb1fb-f28b-4051-a0f5-a9451436b4ed"},"vehicle_type_id":"4","last_reported":1745801648,"current_range_meters":16000,"station_id":"","pricing_plan_id":"cebpf4jnsgd1na2vs0mg"},{"bike_id":"683b45fe-d6d7-4560-ae22-95bdbf4d269a","system_id":"levelo_inurba_marseille","lat":43.21752,"lon":5.34566,"is_reserved":false,"is_disabled":false,"rental_uris":{"android":"levelo://app?vid=683b45fe-d6d7-4560-ae22-95bdbf4d269a","ios":"levelo://app?vid=683b45fe-d6d7-4560-ae22-95bdbf4d269a"},"vehicle_type_id":"4","last_reported":1745801648,"current_range_meters":16000,"station_id":"st_cvj6r9ubvosntc0bgbag","pricing_plan_id":"cebpf4jnsgd1na2vs0mg"},{"bike_id":"7d4859bb-6fe0-424f-a942-9c856aafc025","system_id":"levelo_inurba_marseille","lat":43.31481,"lon":5.37294,"is_reserved":false,"is_disabled":false,"rental_uris":{"android":"levelo://app?vid=7d4859bb-6fe0-424f-a942-9c856aafc025","ios":"levelo://app?vid=7d4859bb-6fe0-424f-a942-9c856aafc025"},"vehicle_type_id":"4","last_reported":1745801648,"current_range_meters":16000,"station_id":"ce4bgt12rcd13ifvqcd0","pricing_plan_id":"cebpf4jnsgd1na2vs0mg"},{"bike_id":"f8b82dd5-2d85-4846-8b9d-5afc30043cf6","system_id":"levelo_inurba_marseille","lat":43.22511,"lon":5.34792,"is_reserved":false,"is_disabled":false,"rental_uris":{"android":"levelo://app?vid=f8b82dd5-2d85-4846-8b9d-5afc30043cf6","ios":"levelo://app?vid=f8b82dd5-2d85-4846-8b9d-5afc30043cf6"},"vehicle_type_id":"4","last_reported":1745801648,"current_range_meters":16000,"station_id":"st_cvj5dfep6f1abm77gieg","pricing_plan_id":"cebpf4jnsgd1na2vs0mg"},{"bike_id":"2d8ee308-03ed-4761-9d96-95839d6c6deb","system_id":"levelo_inurba_marseille","lat":43.286,"lon":5.37069,"is_reserved":false,"is_disabled":false,"rental_uris":{"android":"levelo://app?vid=2d8ee308-03ed-4761-9d96-95839d6c6deb","ios":"levelo://app?vid=2d8ee308-03ed-4761-9d96-95839d6c6deb"},"vehicle_type_id":"4","last_reported":1745801648,"current_range_meters":16000,"station_id":"","pricing_plan_id":"cebpf4jnsgd1na2vs0mg"},{"bike_id":"7cb17432-a062-465f-85a4-b60c350ddacd","system_id":"levelo_inurba_marseille","lat":43.29583,"lon":5.37513,"is_reserved":false,"is_disabled":true,"rental_uris":{"android":"levelo://app?vid=7cb17432-a062-465f-85a4-b60c350ddacd","ios":"levelo://app?vid=7cb17432-a062-465f-85a4-b60c350ddacd"},"vehicle_type_id":"4","last_reported":1745801648,"current_range_meters":16000,"station_id":"ce4bgh92rcd13ifvqb50","pricing_plan_id":"cebpf4jnsgd1na2vs0mg"},{"bike_id":"5a6ac1ef-2dc1-443e-9eb7-7c540b3b79a7","system_id":"levelo_inurba_marseille","lat":43.3149,"lon":5.37301,"is_reserved":false,"is_disabled":false,"rental_uris":{"android":"levelo://app?vid=5a6ac1ef-2dc1-443e-9eb7-7c540b3b79a7","ios":"levelo://app?vid=5a6ac1ef-2dc1-443e-9eb7-7c540b3b79a7"},"vehicle_type_id":"4","last_reported":1745801648,"current_range_meters":16400,"station_id":"ce4bgt12rcd13ifvqcd0","pricing_plan_id":"cebpf4jnsgd1na2vs0mg"},{"bike_id":"5a983abf-1f6f-4a2d-880b-bac58e63b800","system_id":"levelo_inurba_marseille","lat":43.27825,"lon":5.40733,"is_reserved":false,"is_disabled":true,"rental_uris":{"android":"levelo://app?vid=5a983abf-1f6f-4a2d-880b-bac58e63b800","ios":"levelo://app?vid=5a983abf-1f6f-4a2d-880b-bac58e63b800"},"vehicle_type_id":"4","last_reported":1745801648,"current_range_meters":16400,"station_id":"ce4bhnh2rcd13ifvqgtg","pricing_plan_id":"cebpf4jnsgd1na2vs0mg"},{"bike_id":"02b3b6da-d67b-490c-8691-301aea41ade1","system_id":"levelo_inurba_marseille","lat":43.28464,"lon":5.35888,"is_reserved":false,"is_disabled":false,"rental_uris":{"android":"levelo://app?vid=02b3b6da-d67b-490c-8691-301aea41ade1","ios":"levelo://app?vid=02b3b6da-d67b-490c-8691-301aea41ade1"},"vehicle_type_id":"4","last_reported":1745801648,"current_range_meters":16400,"station_id":"ce4bhah2rcd13ifvqei0","pricing_plan_id":"cebpf4jnsgd1na2vs0mg"},{"bike_id":"181ed326-b471-49b5-9f00-acd48cb5b299","system_id":"levelo_inurba_marseille","lat":43.28277,"lon":5.35075,"is_reserved":false,"is_disabled":true,"rental_uris":{"android":"levelo://app?vid=181ed326-b471-49b5-9f00-acd48cb5b299","ios":"levelo://app?vid=181ed326-b471-49b5-9f00-acd48cb5b299"},"vehicle_type_id":"4","last_reported":1745801648,"current_range_meters":16400,"station_id":"ce4bhbp2rcd13ifvqerg","pricing_plan_id":"cebpf4jnsgd1na2vs0mg"},{"bike_id":"6a3ad0ca-897c-414f-a69a-aae8b2ea7b61","system_id":"levelo_inurba_marseille","lat":43.21746,"lon":5.34603,"is_reserved":false,"is_disabled":false,"rental_uris":{"android":"levelo://app?vid=6a3ad0ca-897c-414f-a69a-aae8b2ea7b61","ios":"levelo://app?vid=6a3ad0ca-897c-414f-a69a-aae8b2ea7b61"},"vehicle_type_id":"4","last_reported":1745801648,"current_range_meters":16400,"station_id":"st_cvj6r9ubvosntc0bgbag","pricing_plan_id":"cebpf4jnsgd1na2vs0mg"},{"bike_id":"0f708391-a7ed-4e44-bc44-cf2926cd4a0c","system_id":"levelo_inurba_marseille","lat":43.26219,"lon":5.40432,"is_reserved":false,"is_disabled":false,"rental_uris":{"android":"levelo://app?vid=0f708391-a7ed-4e44-bc44-cf2926cd4a0c","ios":"levelo://app?vid=0f708391-a7ed-4e44-bc44-cf2926cd4a0c"},"vehicle_type_id":"4","last_reported":1745801648,"current_range_meters":16400,"station_id":"ce4bhmh2rcd13ifvqgmg","pricing_plan_id":"cebpf4jnsgd1na2vs0mg"},{"bike_id":"510d1b76-27be-4268-aedc-46993a5973e8","system_id":"levelo_inurba_marseille","lat":43.24645,"lon":5.389,"is_reserved":false,"is_disabled":false,"rental_uris":{"android":"levelo://app?vid=510d1b76-27be-4268-aedc-46993a5973e8","ios":"levelo://app?vid=510d1b76-27be-4268-aedc-46993a5973e8"},"vehicle_type_id":"4","last_reported":1745801648,"current_range_meters":16800,"station_id":"ce4bhg12rcd13ifvqf60","pricing_plan_id":"cebpf4jnsgd1na2vs0mg"},{"bike_id":"ff75ad8a-84a8-4e09-b733-5fb0903ef15d","system_id":"levelo_inurba_marseille","lat":43.3228,"lon":5.38275,"is_reserved":false,"is_disabled":false,"rental_uris":{"android":"levelo://app?vid=ff75ad8a-84a8-4e09-b733-5fb0903ef15d","ios":"levelo://app?vid=ff75ad8a-84a8-4e09-b733-5fb0903ef15d"},"vehicle_type_id":"4","last_reported":1745801648,"current_range_meters":16800,"station_id":"ce4bhr12rcd13ifvqhqg","pricing_plan_id":"cebpf4jnsgd1na2vs0mg"},{"bike_id":"db9128d4-fa4b-4b3d-b5d8-0462404fa361","system_id":"levelo_inurba_marseille","lat":43.32117,"lon":5.36756,"is_reserved":false,"is_disabled":false,"rental_uris":{"android":"levelo://app?vid=db9128d4-fa4b-4b3d-b5d8-0462404fa361","ios":"levelo://app?vid=db9128d4-fa4b-4b3d-b5d8-0462404fa361"},"vehicle_type_id":"4","last_reported":1745801648,"current_range_meters":16800,"station_id":"ce4bhrh2rcd13ifvqhug","pricing_plan_id":"cebpf4jnsgd1na2vs0mg"},{"bike_id":"988d3e51-0f81-4d05-9256-41d5bf2a54ae","system_id":"levelo_inurba_marseille","lat":43.2971,"lon":5.36621,"is_reserved":false,"is_disabled":true,"rental_uris":{"android":"levelo://app?vid=988d3e51-0f81-4d05-9256-41d5bf2a54ae","ios":"levelo://app?vid=988d3e51-0f81-4d05-9256-41d5bf2a54ae"},"vehicle_type_id":"4","last_reported":1745801648,"current_range_meters":16800,"station_id":"ce4bgn12rcd13ifvqbt0","pricing_plan_id":"cebpf4jnsgd1na2vs0mg"},{"bike_id":"9275afeb-620b-4a3c-83d1-31bc14709d93","system_id":"levelo_inurba_marseille","lat":43.28884,"lon":5.35801,"is_reserved":false,"is_disabled":true,"rental_uris":{"android":"levelo://app?vid=9275afeb-620b-4a3c-83d1-31bc14709d93","ios":"levelo://app?vid=9275afeb-620b-4a3c-83d1-31bc14709d93"},"vehicle_type_id":"4","last_reported":1745801648,"current_range_meters":17200,"station_id":"ce4bhb12rcd13ifvqem0","pricing_plan_id":"cebpf4jnsgd1na2vs0mg"},{"bike_id":"6058bcf2-eeff-4bb1-b3c5-02cf3f2b3c6f","system_id":"levelo_inurba_marseille","lat":43.246624,"lon":5.381571,"is_reserved":false,"is_disabled":false,"rental_uris":{"android":"levelo://app?vid=6058bcf2-eeff-4bb1-b3c5-02cf3f2b3c6f","ios":"levelo://app?vid=6058bcf2-eeff-4bb1-b3c5-02cf3f2b3c6f"},"vehicle_type_id":"4","last_reported":1745801648,"current_range_meters":17200,"station_id":"ce4bhih2rcd13ifvqfr0","pricing_plan_id":"cebpf4jnsgd1na2vs0mg"},{"bike_id":"76e63d71-8810-488e-953a-865ffc6ba6e6","system_id":"levelo_inurba_marseille","lat":43.24695,"lon":5.38112,"is_reserved":false,"is_disabled":false,"rental_uris":{"android":"levelo://app?vid=76e63d71-8810-488e-953a-865ffc6ba6e6","ios":"levelo://app?vid=76e63d71-8810-488e-953a-865ffc6ba6e6"},"vehicle_type_id":"4","last_reported":1745801648,"current_range_meters":17200,"station_id":"ce4bhih2rcd13ifvqfr0","pricing_plan_id":"cebpf4jnsgd1na2vs0mg"},{"bike_id":"7d642a85-a2ce-4a2b-8b78-82205bdd50c2","system_id":"levelo_inurba_marseille","lat":43.23193,"lon":5.39981,"is_reserved":false,"is_disabled":false,"rental_uris":{"android":"levelo://app?vid=7d642a85-a2ce-4a2b-8b78-82205bdd50c2","ios":"levelo://app?vid=7d642a85-a2ce-4a2b-8b78-82205bdd50c2"},"vehicle_type_id":"4","last_reported":1745801648,"current_range_meters":17600,"station_id":"ce4bhn12rcd13ifvqgqg","pricing_plan_id":"cebpf4jnsgd1na2vs0mg"},{"bike_id":"5f363fb2-65d6-4f54-a7e8-9f0969c18dcf","system_id":"levelo_inurba_marseille","lat":43.30518,"lon":5.36554,"is_reserved":false,"is_disabled":true,"rental_uris":{"android":"levelo://app?vid=5f363fb2-65d6-4f54-a7e8-9f0969c18dcf","ios":"levelo://app?vid=5f363fb2-65d6-4f54-a7e8-9f0969c18dcf"},"vehicle_type_id":"4","last_reported":1745801648,"current_range_meters":17600,"station_id":"ce4bgs12rcd13ifvqcag","pricing_plan_id":"cebpf4jnsgd1na2vs0mg"},{"bike_id":"5d80cec4-cf0d-4b75-87cc-4649871dd5da","system_id":"levelo_inurba_marseille","lat":43.27494,"lon":5.42466,"is_reserved":false,"is_disabled":false,"rental_uris":{"android":"levelo://app?vid=5d80cec4-cf0d-4b75-87cc-4649871dd5da","ios":"levelo://app?vid=5d80cec4-cf0d-4b75-87cc-4649871dd5da"},"vehicle_type_id":"4","last_reported":1745801648,"current_range_meters":17600,"station_id":"ce4bhn92rcd13ifvqgrg","pricing_plan_id":"cebpf4jnsgd1na2vs0mg"},{"bike_id":"b45721df-1911-4bd0-96bb-0c84adb69cfd","system_id":"levelo_inurba_marseille","lat":43.23968,"lon":5.36634,"is_reserved":false,"is_disabled":false,"rental_uris":{"android":"levelo://app?vid=b45721df-1911-4bd0-96bb-0c84adb69cfd","ios":"levelo://app?vid=b45721df-1911-4bd0-96bb-0c84adb69cfd"},"vehicle_type_id":"4","last_reported":1745801648,"current_range_meters":17600,"station_id":"ce4bhi12rcd13ifvqfp0","pricing_plan_id":"cebpf4jnsgd1na2vs0mg"},{"bike_id":"ec32d184-87f5-447e-be76-bbda4f5d3783","system_id":"levelo_inurba_marseille","lat":43.29445,"lon":5.39744,"is_reserved":false,"is_disabled":false,"rental_uris":{"android":"levelo://app?vid=ec32d184-87f5-447e-be76-bbda4f5d3783","ios":"levelo://app?vid=ec32d184-87f5-447e-be76-bbda4f5d3783"},"vehicle_type_id":"4","last_reported":1745801648,"current_range_meters":17600,"station_id":"ce4bh3h2rcd13ifvqdo0","pricing_plan_id":"cebpf4jnsgd1na2vs0mg"},{"bike_id":"d5792b96-81ae-4816-accb-680dcd29aa8e","system_id":"levelo_inurba_marseille","lat":43.24682,"lon":5.38166,"is_reserved":false,"is_disabled":true,"rental_uris":{"android":"levelo://app?vid=d5792b96-81ae-4816-accb-680dcd29aa8e","ios":"levelo://app?vid=d5792b96-81ae-4816-accb-680dcd29aa8e"},"vehicle_type_id":"4","last_reported":1745801648,"current_range_meters":17600,"station_id":"ce4bhih2rcd13ifvqfr0","pricing_plan_id":"cebpf4jnsgd1na2vs0mg"},{"bike_id":"daa5fb12-4e0b-4bce-a6b1-6719a5e359ca","system_id":"levelo_inurba_marseille","lat":43.2315,"lon":5.43719,"is_reserved":false,"is_disabled":false,"rental_uris":{"android":"levelo://app?vid=daa5fb12-4e0b-4bce-a6b1-6719a5e359ca","ios":"levelo://app?vid=daa5fb12-4e0b-4bce-a6b1-6719a5e359ca"},"vehicle_type_id":"4","last_reported":1745801648,"current_range_meters":17600,"station_id":"ce4bhmp2rcd13ifvqgog","pricing_plan_id":"cebpf4jnsgd1na2vs0mg"},{"bike_id":"854b6f67-ca9a-45bb-a87f-9accf64bf40e","system_id":"levelo_inurba_marseille","lat":43.27572,"lon":5.38393,"is_reserved":false,"is_disabled":true,"rental_uris":{"android":"levelo://app?vid=854b6f67-ca9a-45bb-a87f-9accf64bf40e","ios":"levelo://app?vid=854b6f67-ca9a-45bb-a87f-9accf64bf40e"},"vehicle_type_id":"4","last_reported":1745801648,"current_range_meters":18000,"station_id":"ce4bhh92rcd13ifvqfi0","pricing_plan_id":"cebpf4jnsgd1na2vs0mg"},{"bike_id":"e82d3078-1f25-45e1-b1d5-2c16802a8b4f","system_id":"levelo_inurba_marseille","lat":43.31075,"lon":5.38345,"is_reserved":false,"is_disabled":false,"rental_uris":{"android":"levelo://app?vid=e82d3078-1f25-45e1-b1d5-2c16802a8b4f","ios":"levelo://app?vid=e82d3078-1f25-45e1-b1d5-2c16802a8b4f"},"vehicle_type_id":"4","last_reported":1745801648,"current_range_meters":18000,"station_id":"ce4bgv92rcd13ifvqcr0","pricing_plan_id":"cebpf4jnsgd1na2vs0mg"},{"bike_id":"20f39650-9dfb-45df-bdda-86b58245b145","system_id":"levelo_inurba_marseille","lat":43.28714,"lon":5.3609,"is_reserved":false,"is_disabled":false,"rental_uris":{"android":"levelo://app?vid=20f39650-9dfb-45df-bdda-86b58245b145","ios":"levelo://app?vid=20f39650-9dfb-45df-bdda-86b58245b145"},"vehicle_type_id":"4","last_reported":1745801648,"current_range_meters":18000,"station_id":"cki0cbj6b192h4jlfktg","pricing_plan_id":"cebpf4jnsgd1na2vs0mg"},{"bike_id":"26e2563a-5614-46af-9839-4e09e7d33768","system_id":"levelo_inurba_marseille","lat":43.33612,"lon":5.41007,"is_reserved":false,"is_disabled":false,"rental_uris":{"android":"levelo://app?vid=26e2563a-5614-46af-9839-4e09e7d33768","ios":"levelo://app?vid=26e2563a-5614-46af-9839-4e09e7d33768"},"vehicle_type_id":"4","last_reported":1745801648,"current_range_meters":18800,"station_id":"ce4bhqh2rcd13ifvqhmg","pricing_plan_id":"cebpf4jnsgd1na2vs0mg"},{"bike_id":"6c72de35-de49-45aa-84fb-0f4a50376358","system_id":"levelo_inurba_marseille","lat":43.329848,"lon":5.438534,"is_reserved":false,"is_disabled":false,"rental_uris":{"android":"levelo://app?vid=6c72de35-de49-45aa-84fb-0f4a50376358","ios":"levelo://app?vid=6c72de35-de49-45aa-84fb-0f4a50376358"},"vehicle_type_id":"4","last_reported":1745801648,"current_range_meters":18800,"station_id":"","pricing_plan_id":"cebpf4jnsgd1na2vs0mg"},{"bike_id":"2420ad39-a5b7-4ea3-b775-69cf92e1a47f","system_id":"levelo_inurba_marseille","lat":43.26006,"lon":5.40835,"is_reserved":false,"is_disabled":false,"rental_uris":{"android":"levelo://app?vid=2420ad39-a5b7-4ea3-b775-69cf92e1a47f","ios":"levelo://app?vid=2420ad39-a5b7-4ea3-b775-69cf92e1a47f"},"vehicle_type_id":"4","last_reported":1745801648,"current_range_meters":18800,"station_id":"ce4bhm92rcd13ifvqglg","pricing_plan_id":"cebpf4jnsgd1na2vs0mg"},{"bike_id":"55c1d854-3d51-4d29-9506-b606c2c1e930","system_id":"levelo_inurba_marseille","lat":43.31492,"lon":5.37279,"is_reserved":false,"is_disabled":false,"rental_uris":{"android":"levelo://app?vid=55c1d854-3d51-4d29-9506-b606c2c1e930","ios":"levelo://app?vid=55c1d854-3d51-4d29-9506-b606c2c1e930"},"vehicle_type_id":"4","last_reported":1745801648,"current_range_meters":18800,"station_id":"ce4bgt12rcd13ifvqcd0","pricing_plan_id":"cebpf4jnsgd1na2vs0mg"},{"bike_id":"ae024c84-7e44-4a33-b963-d7705c42478f","system_id":"levelo_inurba_marseille","lat":43.2396,"lon":5.36631,"is_reserved":false,"is_disabled":false,"rental_uris":{"android":"levelo://app?vid=ae024c84-7e44-4a33-b963-d7705c42478f","ios":"levelo://app?vid=ae024c84-7e44-4a33-b963-d7705c42478f"},"vehicle_type_id":"4","last_reported":1745801648,"current_range_meters":18800,"station_id":"ce4bhi12rcd13ifvqfp0","pricing_plan_id":"cebpf4jnsgd1na2vs0mg"},{"bike_id":"1c484a84-52df-485c-b15f-8dc40bad3cae","system_id":"levelo_inurba_marseille","lat":43.30806,"lon":5.435228,"is_reserved":false,"is_disabled":false,"rental_uris":{"android":"levelo://app?vid=1c484a84-52df-485c-b15f-8dc40bad3cae","ios":"levelo://app?vid=1c484a84-52df-485c-b15f-8dc40bad3cae"},"vehicle_type_id":"4","last_reported":1745801648,"current_range_meters":19200,"station_id":"ce4bhph2rcd13ifvqheg","pricing_plan_id":"cebpf4jnsgd1na2vs0mg"},{"bike_id":"e2db68dd-f47f-4e15-8fe0-c97738bddb69","system_id":"levelo_inurba_marseille","lat":43.29259,"lon":5.36852,"is_reserved":false,"is_disabled":true,"rental_uris":{"android":"levelo://app?vid=e2db68dd-f47f-4e15-8fe0-c97738bddb69","ios":"levelo://app?vid=e2db68dd-f47f-4e15-8fe0-c97738bddb69"},"vehicle_type_id":"4","last_reported":1745801648,"current_range_meters":19200,"station_id":"ce4bhbp2rcd13ifvqesg","pricing_plan_id":"cebpf4jnsgd1na2vs0mg"},{"bike_id":"d0084b40-0977-469b-a971-471d5dd9a078","system_id":"levelo_inurba_marseille","lat":43.25916,"lon":5.40878,"is_reserved":false,"is_disabled":false,"rental_uris":{"android":"levelo://app?vid=d0084b40-0977-469b-a971-471d5dd9a078","ios":"levelo://app?vid=d0084b40-0977-469b-a971-471d5dd9a078"},"vehicle_type_id":"4","last_reported":1745801648,"current_range_meters":19200,"station_id":"ce4bhm92rcd13ifvqglg","pricing_plan_id":"cebpf4jnsgd1na2vs0mg"},{"bike_id":"d6f5efac-6ee4-4c3c-943a-fc9ab91c85d8","system_id":"levelo_inurba_marseille","lat":43.29253,"lon":5.40902,"is_reserved":false,"is_disabled":false,"rental_uris":{"android":"levelo://app?vid=d6f5efac-6ee4-4c3c-943a-fc9ab91c85d8","ios":"levelo://app?vid=d6f5efac-6ee4-4c3c-943a-fc9ab91c85d8"},"vehicle_type_id":"4","last_reported":1745801648,"current_range_meters":19200,"station_id":"ce4bh192rcd13ifvqdc0","pricing_plan_id":"cebpf4jnsgd1na2vs0mg"},{"bike_id":"4d68e657-e09f-41fc-8014-b29d8de6e54c","system_id":"levelo_inurba_marseille","lat":43.30891,"lon":5.39629,"is_reserved":false,"is_disabled":false,"rental_uris":{"android":"levelo://app?vid=4d68e657-e09f-41fc-8014-b29d8de6e54c","ios":"levelo://app?vid=4d68e657-e09f-41fc-8014-b29d8de6e54c"},"vehicle_type_id":"4","last_reported":1745801648,"current_range_meters":19200,"station_id":"ce4bh012rcd13ifvqcv0","pricing_plan_id":"cebpf4jnsgd1na2vs0mg"},{"bike_id":"4bf08038-f5c2-4f98-a256-2270055407f1","system_id":"levelo_inurba_marseille","lat":43.27466,"lon":5.42496,"is_reserved":false,"is_disabled":false,"rental_uris":{"android":"levelo://app?vid=4bf08038-f5c2-4f98-a256-2270055407f1","ios":"levelo://app?vid=4bf08038-f5c2-4f98-a256-2270055407f1"},"vehicle_type_id":"4","last_reported":1745801648,"current_range_meters":19200,"station_id":"ce4bhn92rcd13ifvqgrg","pricing_plan_id":"cebpf4jnsgd1na2vs0mg"},{"bike_id":"e10dac24-cce6-4d7c-971a-3a12ee500d3a","system_id":"levelo_inurba_marseille","lat":43.29275,"lon":5.38447,"is_reserved":false,"is_disabled":true,"rental_uris":{"android":"levelo://app?vid=e10dac24-cce6-4d7c-971a-3a12ee500d3a","ios":"levelo://app?vid=e10dac24-cce6-4d7c-971a-3a12ee500d3a"},"vehicle_type_id":"4","last_reported":1745801648,"current_range_meters":19600,"station_id":"ce4bh692rcd13ifvqea0","pricing_plan_id":"cebpf4jnsgd1na2vs0mg"},{"bike_id":"0ab928f1-313f-453f-a075-ecf067324cdb","system_id":"levelo_inurba_marseille","lat":43.26247,"lon":5.4043,"is_reserved":false,"is_disabled":false,"rental_uris":{"android":"levelo://app?vid=0ab928f1-313f-453f-a075-ecf067324cdb","ios":"levelo://app?vid=0ab928f1-313f-453f-a075-ecf067324cdb"},"vehicle_type_id":"4","last_reported":1745801648,"current_range_meters":19600,"station_id":"ce4bhmh2rcd13ifvqgmg","pricing_plan_id":"cebpf4jnsgd1na2vs0mg"},{"bike_id":"dd8ba2ea-896c-46a8-a041-af1fe4723729","system_id":"levelo_inurba_marseille","lat":43.25723,"lon":5.411,"is_reserved":false,"is_disabled":false,"rental_uris":{"android":"levelo://app?vid=dd8ba2ea-896c-46a8-a041-af1fe4723729","ios":"levelo://app?vid=dd8ba2ea-896c-46a8-a041-af1fe4723729"},"vehicle_type_id":"4","last_reported":1745801648,"current_range_meters":19600,"station_id":"ce4bhkp2rcd13ifvqgd0","pricing_plan_id":"cebpf4jnsgd1na2vs0mg"},{"bike_id":"c4e882de-82cc-40fc-8fdc-d03d27c35a19","system_id":"levelo_inurba_marseille","lat":43.31298,"lon":5.36954,"is_reserved":false,"is_disabled":true,"rental_uris":{"android":"levelo://app?vid=c4e882de-82cc-40fc-8fdc-d03d27c35a19","ios":"levelo://app?vid=c4e882de-82cc-40fc-8fdc-d03d27c35a19"},"vehicle_type_id":"4","last_reported":1745801648,"current_range_meters":19600,"station_id":"","pricing_plan_id":"cebpf4jnsgd1na2vs0mg"},{"bike_id":"579b9d02-e6b0-4faa-8aa6-d259af964e22","system_id":"levelo_inurba_marseille","lat":43.239608,"lon":5.366386,"is_reserved":false,"is_disabled":false,"rental_uris":{"android":"levelo://app?vid=579b9d02-e6b0-4faa-8aa6-d259af964e22","ios":"levelo://app?vid=579b9d02-e6b0-4faa-8aa6-d259af964e22"},"vehicle_type_id":"4","last_reported":1745801648,"current_range_meters":20000,"station_id":"ce4bhi12rcd13ifvqfp0","pricing_plan_id":"cebpf4jnsgd1na2vs0mg"},{"bike_id":"f977d8fc-a486-45df-8727-671d07539b11","system_id":"levelo_inurba_marseille","lat":43.26218,"lon":5.37921,"is_reserved":false,"is_disabled":true,"rental_uris":{"android":"levelo://app?vid=f977d8fc-a486-45df-8727-671d07539b11","ios":"levelo://app?vid=f977d8fc-a486-45df-8727-671d07539b11"},"vehicle_type_id":"4","last_reported":1745801648,"current_range_meters":20000,"station_id":"ce4bhjp2rcd13ifvqg90","pricing_plan_id":"cebpf4jnsgd1na2vs0mg"},{"bike_id":"4d44d216-dc3c-4118-89d6-a76311950baf","system_id":"levelo_inurba_marseille","lat":43.325387,"lon":5.414333,"is_reserved":false,"is_disabled":false,"rental_uris":{"android":"levelo://app?vid=4d44d216-dc3c-4118-89d6-a76311950baf","ios":"levelo://app?vid=4d44d216-dc3c-4118-89d6-a76311950baf"},"vehicle_type_id":"4","last_reported":1745801648,"current_range_meters":20000,"station_id":"ce4bhq12rcd13ifvqhhg","pricing_plan_id":"cebpf4jnsgd1na2vs0mg"},{"bike_id":"9cbcc298-7276-4faa-a3f3-5f54c8726ff4","system_id":"levelo_inurba_marseille","lat":43.24519,"lon":5.41206,"is_reserved":false,"is_disabled":false,"rental_uris":{"android":"levelo://app?vid=9cbcc298-7276-4faa-a3f3-5f54c8726ff4","ios":"levelo://app?vid=9cbcc298-7276-4faa-a3f3-5f54c8726ff4"},"vehicle_type_id":"4","last_reported":1745801648,"current_range_meters":20000,"station_id":"","pricing_plan_id":"cebpf4jnsgd1na2vs0mg"},{"bike_id":"1b5dfaf4-fc89-4855-8a43-c4b154b91948","system_id":"levelo_inurba_marseille","lat":43.30304,"lon":5.39192,"is_reserved":false,"is_disabled":true,"rental_uris":{"android":"levelo://app?vid=1b5dfaf4-fc89-4855-8a43-c4b154b91948","ios":"levelo://app?vid=1b5dfaf4-fc89-4855-8a43-c4b154b91948"},"vehicle_type_id":"4","last_reported":1745801648,"current_range_meters":20000,"station_id":"ce4bgkh2rcd13ifvqbk0","pricing_plan_id":"cebpf4jnsgd1na2vs0mg"},{"bike_id":"425564c4-f883-4f68-876f-947748498d1f","system_id":"levelo_inurba_marseille","lat":43.26941,"lon":5.4025,"is_reserved":false,"is_disabled":true,"rental_uris":{"android":"levelo://app?vid=425564c4-f883-4f68-876f-947748498d1f","ios":"levelo://app?vid=425564c4-f883-4f68-876f-947748498d1f"},"vehicle_type_id":"4","last_reported":1745801648,"current_range_meters":20000,"station_id":"cjm6bp8fraef2m0cb0m0","pricing_plan_id":"cebpf4jnsgd1na2vs0mg"},{"bike_id":"573ff5fc-dcd8-4c41-a8a2-1fb4c179975e","system_id":"levelo_inurba_marseille","lat":43.31756,"lon":5.39018,"is_reserved":false,"is_disabled":false,"rental_uris":{"android":"levelo://app?vid=573ff5fc-dcd8-4c41-a8a2-1fb4c179975e","ios":"levelo://app?vid=573ff5fc-dcd8-4c41-a8a2-1fb4c179975e"},"vehicle_type_id":"4","last_reported":1745801648,"current_range_meters":20000,"station_id":"ce4bhqp2rcd13ifvqhng","pricing_plan_id":"cebpf4jnsgd1na2vs0mg"},{"bike_id":"120277a4-e644-406f-9354-c1381245ac98","system_id":"levelo_inurba_marseille","lat":43.287308,"lon":5.360766,"is_reserved":false,"is_disabled":false,"rental_uris":{"android":"levelo://app?vid=120277a4-e644-406f-9354-c1381245ac98","ios":"levelo://app?vid=120277a4-e644-406f-9354-c1381245ac98"},"vehicle_type_id":"4","last_reported":1745801648,"current_range_meters":20000,"station_id":"cki0cbj6b192h4jlfktg","pricing_plan_id":"cebpf4jnsgd1na2vs0mg"},{"bike_id":"d8b9b350-6636-4922-af94-8fbc6798af45","system_id":"levelo_inurba_marseille","lat":43.23973,"lon":5.36618,"is_reserved":false,"is_disabled":false,"rental_uris":{"android":"levelo://app?vid=d8b9b350-6636-4922-af94-8fbc6798af45","ios":"levelo://app?vid=d8b9b350-6636-4922-af94-8fbc6798af45"},"vehicle_type_id":"4","last_reported":1745801648,"current_range_meters":20400,"station_id":"ce4bhi12rcd13ifvqfp0","pricing_plan_id":"cebpf4jnsgd1na2vs0mg"},{"bike_id":"abf2dc50-2eb1-45c0-80d0-deafb929859f","system_id":"levelo_inurba_marseille","lat":43.32663,"lon":5.4099,"is_reserved":false,"is_disabled":false,"rental_uris":{"android":"levelo://app?vid=abf2dc50-2eb1-45c0-80d0-deafb929859f","ios":"levelo://app?vid=abf2dc50-2eb1-45c0-80d0-deafb929859f"},"vehicle_type_id":"4","last_reported":1745801648,"current_range_meters":20400,"station_id":"ce4bhpp2rcd13ifvqhgg","pricing_plan_id":"cebpf4jnsgd1na2vs0mg"},{"bike_id":"07445598-68fe-40db-b19b-e14bab0e7c33","system_id":"levelo_inurba_marseille","lat":43.30888,"lon":5.37447,"is_reserved":false,"is_disabled":false,"rental_uris":{"android":"levelo://app?vid=07445598-68fe-40db-b19b-e14bab0e7c33","ios":"levelo://app?vid=07445598-68fe-40db-b19b-e14bab0e7c33"},"vehicle_type_id":"4","last_reported":1745801648,"current_range_meters":20800,"station_id":"","pricing_plan_id":"cebpf4jnsgd1na2vs0mg"},{"bike_id":"504af8b5-2522-4176-8201-9c37815f0fa0","system_id":"levelo_inurba_marseille","lat":43.24013,"lon":5.36526,"is_reserved":false,"is_disabled":false,"rental_uris":{"android":"levelo://app?vid=504af8b5-2522-4176-8201-9c37815f0fa0","ios":"levelo://app?vid=504af8b5-2522-4176-8201-9c37815f0fa0"},"vehicle_type_id":"4","last_reported":1745801648,"current_range_meters":20800,"station_id":"","pricing_plan_id":"cebpf4jnsgd1na2vs0mg"},{"bike_id":"6de82b3f-55f7-4162-8251-5917d974025f","system_id":"levelo_inurba_marseille","lat":43.30667,"lon":5.42404,"is_reserved":false,"is_disabled":false,"rental_uris":{"android":"levelo://app?vid=6de82b3f-55f7-4162-8251-5917d974025f","ios":"levelo://app?vid=6de82b3f-55f7-4162-8251-5917d974025f"},"vehicle_type_id":"4","last_reported":1745801648,"current_range_meters":20800,"station_id":"st_cvj6ca6bvosntc0bfgr0","pricing_plan_id":"cebpf4jnsgd1na2vs0mg"},{"bike_id":"406d7795-4188-429e-aaff-5816755cbb94","system_id":"levelo_inurba_marseille","lat":43.29383,"lon":5.3785,"is_reserved":false,"is_disabled":true,"rental_uris":{"android":"levelo://app?vid=406d7795-4188-429e-aaff-5816755cbb94","ios":"levelo://app?vid=406d7795-4188-429e-aaff-5816755cbb94"},"vehicle_type_id":"4","last_reported":1745801648,"current_range_meters":20800,"station_id":"ce4bgjh2rcd13ifvqbf0","pricing_plan_id":"cebpf4jnsgd1na2vs0mg"},{"bike_id":"7046c6e0-63e7-4772-821a-9dbb15a79431","system_id":"levelo_inurba_marseille","lat":43.31363,"lon":5.38494,"is_reserved":false,"is_disabled":false,"rental_uris":{"android":"levelo://app?vid=7046c6e0-63e7-4772-821a-9dbb15a79431","ios":"levelo://app?vid=7046c6e0-63e7-4772-821a-9dbb15a79431"},"vehicle_type_id":"4","last_reported":1745801648,"current_range_meters":21600,"station_id":"ce4bgt92rcd13ifvqcf0","pricing_plan_id":"cebpf4jnsgd1na2vs0mg"},{"bike_id":"a7a5c59b-8fdc-4ceb-a16c-2fd89466328d","system_id":"levelo_inurba_marseille","lat":43.321164,"lon":5.367751,"is_reserved":false,"is_disabled":false,"rental_uris":{"android":"levelo://app?vid=a7a5c59b-8fdc-4ceb-a16c-2fd89466328d","ios":"levelo://app?vid=a7a5c59b-8fdc-4ceb-a16c-2fd89466328d"},"vehicle_type_id":"4","last_reported":1745801648,"current_range_meters":21600,"station_id":"ce4bhrh2rcd13ifvqhug","pricing_plan_id":"cebpf4jnsgd1na2vs0mg"},{"bike_id":"eea3ecea-777b-4638-87ef-21928b7e05f4","system_id":"levelo_inurba_marseille","lat":43.33062,"lon":5.40802,"is_reserved":false,"is_disabled":false,"rental_uris":{"android":"levelo://app?vid=eea3ecea-777b-4638-87ef-21928b7e05f4","ios":"levelo://app?vid=eea3ecea-777b-4638-87ef-21928b7e05f4"},"vehicle_type_id":"4","last_reported":1745801648,"current_range_meters":22000,"station_id":"","pricing_plan_id":"cebpf4jnsgd1na2vs0mg"},{"bike_id":"b5fe6816-f873-4cb9-8652-42ccdeb37fe9","system_id":"levelo_inurba_marseille","lat":43.27191,"lon":5.40981,"is_reserved":false,"is_disabled":false,"rental_uris":{"android":"levelo://app?vid=b5fe6816-f873-4cb9-8652-42ccdeb37fe9","ios":"levelo://app?vid=b5fe6816-f873-4cb9-8652-42ccdeb37fe9"},"vehicle_type_id":"4","last_reported":1745801648,"current_range_meters":22000,"station_id":"ce4bhl12rcd13ifvqgf0","pricing_plan_id":"cebpf4jnsgd1na2vs0mg"},{"bike_id":"2d7b50c2-e414-4e82-82a2-7035113690ad","system_id":"levelo_inurba_marseille","lat":43.31487,"lon":5.37303,"is_reserved":false,"is_disabled":false,"rental_uris":{"android":"levelo://app?vid=2d7b50c2-e414-4e82-82a2-7035113690ad","ios":"levelo://app?vid=2d7b50c2-e414-4e82-82a2-7035113690ad"},"vehicle_type_id":"4","last_reported":1745801648,"current_range_meters":22000,"station_id":"ce4bgt12rcd13ifvqcd0","pricing_plan_id":"cebpf4jnsgd1na2vs0mg"},{"bike_id":"645aad28-b9fb-4b29-b540-bf5a10f9be2b","system_id":"levelo_inurba_marseille","lat":43.29957,"lon":5.41315,"is_reserved":false,"is_disabled":false,"rental_uris":{"android":"levelo://app?vid=645aad28-b9fb-4b29-b540-bf5a10f9be2b","ios":"levelo://app?vid=645aad28-b9fb-4b29-b540-bf5a10f9be2b"},"vehicle_type_id":"4","last_reported":1745801648,"current_range_meters":22000,"station_id":"ce4bhp12rcd13ifvqh9g","pricing_plan_id":"cebpf4jnsgd1na2vs0mg"},{"bike_id":"be96cf12-1bfe-4b12-b9a9-b4a285b05aae","system_id":"levelo_inurba_marseille","lat":43.274919,"lon":5.424529,"is_reserved":false,"is_disabled":false,"rental_uris":{"android":"levelo://app?vid=be96cf12-1bfe-4b12-b9a9-b4a285b05aae","ios":"levelo://app?vid=be96cf12-1bfe-4b12-b9a9-b4a285b05aae"},"vehicle_type_id":"4","last_reported":1745801648,"current_range_meters":22000,"station_id":"ce4bhn92rcd13ifvqgrg","pricing_plan_id":"cebpf4jnsgd1na2vs0mg"},{"bike_id":"5b8f78a8-a4bf-408e-904d-fb55256215fc","system_id":"levelo_inurba_marseille","lat":43.2894,"lon":5.3665,"is_reserved":false,"is_disabled":false,"rental_uris":{"android":"levelo://app?vid=5b8f78a8-a4bf-408e-904d-fb55256215fc","ios":"levelo://app?vid=5b8f78a8-a4bf-408e-904d-fb55256215fc"},"vehicle_type_id":"4","last_reported":1745801648,"current_range_meters":22400,"station_id":"ce4bhap2rcd13ifvqek0","pricing_plan_id":"cebpf4jnsgd1na2vs0mg"},{"bike_id":"c9a186da-b941-47bb-b124-488b5449bd4e","system_id":"levelo_inurba_marseille","lat":43.33617,"lon":5.41008,"is_reserved":false,"is_disabled":false,"rental_uris":{"android":"levelo://app?vid=c9a186da-b941-47bb-b124-488b5449bd4e","ios":"levelo://app?vid=c9a186da-b941-47bb-b124-488b5449bd4e"},"vehicle_type_id":"4","last_reported":1745801648,"current_range_meters":22400,"station_id":"ce4bhqh2rcd13ifvqhmg","pricing_plan_id":"cebpf4jnsgd1na2vs0mg"},{"bike_id":"2ed76ab3-29f9-4f23-8162-d0d033a13590","system_id":"levelo_inurba_marseille","lat":43.2407,"lon":5.37756,"is_reserved":false,"is_disabled":false,"rental_uris":{"android":"levelo://app?vid=2ed76ab3-29f9-4f23-8162-d0d033a13590","ios":"levelo://app?vid=2ed76ab3-29f9-4f23-8162-d0d033a13590"},"vehicle_type_id":"4","last_reported":1745801648,"current_range_meters":22400,"station_id":"ce4bhnp2rcd13ifvqgvg","pricing_plan_id":"cebpf4jnsgd1na2vs0mg"},{"bike_id":"3b73e112-a19d-47d3-8128-205527bc344a","system_id":"levelo_inurba_marseille","lat":43.284136,"lon":5.375126,"is_reserved":false,"is_disabled":false,"rental_uris":{"android":"levelo://app?vid=3b73e112-a19d-47d3-8128-205527bc344a","ios":"levelo://app?vid=3b73e112-a19d-47d3-8128-205527bc344a"},"vehicle_type_id":"4","last_reported":1745801648,"current_range_meters":22800,"station_id":"ce4bh412rcd13ifvqds0","pricing_plan_id":"cebpf4jnsgd1na2vs0mg"},{"bike_id":"96783378-efb8-4fae-a88b-db3f79adff2c","system_id":"levelo_inurba_marseille","lat":43.30936,"lon":5.40137,"is_reserved":false,"is_disabled":false,"rental_uris":{"android":"levelo://app?vid=96783378-efb8-4fae-a88b-db3f79adff2c","ios":"levelo://app?vid=96783378-efb8-4fae-a88b-db3f79adff2c"},"vehicle_type_id":"4","last_reported":1745801648,"current_range_meters":22800,"station_id":"ce4bgvp2rcd13ifvqct0","pricing_plan_id":"cebpf4jnsgd1na2vs0mg"},{"bike_id":"d3881236-172c-42f8-a3e0-7e01c42f9e73","system_id":"levelo_inurba_marseille","lat":43.30076,"lon":5.38604,"is_reserved":false,"is_disabled":true,"rental_uris":{"android":"levelo://app?vid=d3881236-172c-42f8-a3e0-7e01c42f9e73","ios":"levelo://app?vid=d3881236-172c-42f8-a3e0-7e01c42f9e73"},"vehicle_type_id":"4","last_reported":1745801648,"current_range_meters":22800,"station_id":"","pricing_plan_id":"cebpf4jnsgd1na2vs0mg"},{"bike_id":"e63d8cc9-5fe2-481a-87a4-6791e0727fcd","system_id":"levelo_inurba_marseille","lat":43.25097,"lon":5.40357,"is_reserved":false,"is_disabled":false,"rental_uris":{"android":"levelo://app?vid=e63d8cc9-5fe2-481a-87a4-6791e0727fcd","ios":"levelo://app?vid=e63d8cc9-5fe2-481a-87a4-6791e0727fcd"},"vehicle_type_id":"4","last_reported":1745801648,"current_range_meters":22800,"station_id":"ce4bhlh2rcd13ifvqgig","pricing_plan_id":"cebpf4jnsgd1na2vs0mg"},{"bike_id":"9e724425-100b-414d-82c8-b62ced2f8a95","system_id":"levelo_inurba_marseille","lat":43.27642,"lon":5.42214,"is_reserved":false,"is_disabled":false,"rental_uris":{"android":"levelo://app?vid=9e724425-100b-414d-82c8-b62ced2f8a95","ios":"levelo://app?vid=9e724425-100b-414d-82c8-b62ced2f8a95"},"vehicle_type_id":"4","last_reported":1745801648,"current_range_meters":22800,"station_id":"","pricing_plan_id":"cebpf4jnsgd1na2vs0mg"},{"bike_id":"379dc632-b932-4447-b6d3-7c36903acf9a","system_id":"levelo_inurba_marseille","lat":43.33607,"lon":5.410307,"is_reserved":false,"is_disabled":false,"rental_uris":{"android":"levelo://app?vid=379dc632-b932-4447-b6d3-7c36903acf9a","ios":"levelo://app?vid=379dc632-b932-4447-b6d3-7c36903acf9a"},"vehicle_type_id":"4","last_reported":1745801648,"current_range_meters":22800,"station_id":"ce4bhqh2rcd13ifvqhmg","pricing_plan_id":"cebpf4jnsgd1na2vs0mg"},{"bike_id":"867997b4-3589-4859-9406-f2d8e812e375","system_id":"levelo_inurba_marseille","lat":43.27484,"lon":5.42475,"is_reserved":false,"is_disabled":false,"rental_uris":{"android":"levelo://app?vid=867997b4-3589-4859-9406-f2d8e812e375","ios":"levelo://app?vid=867997b4-3589-4859-9406-f2d8e812e375"},"vehicle_type_id":"4","last_reported":1745801648,"current_range_meters":22800,"station_id":"ce4bhn92rcd13ifvqgrg","pricing_plan_id":"cebpf4jnsgd1na2vs0mg"},{"bike_id":"b5482998-a5d9-47b1-9027-9150138fc049","system_id":"levelo_inurba_marseille","lat":43.29222,"lon":5.36006,"is_reserved":false,"is_disabled":true,"rental_uris":{"android":"levelo://app?vid=b5482998-a5d9-47b1-9027-9150138fc049","ios":"levelo://app?vid=b5482998-a5d9-47b1-9027-9150138fc049"},"vehicle_type_id":"4","last_reported":1745801648,"current_range_meters":22800,"station_id":"","pricing_plan_id":"cebpf4jnsgd1na2vs0mg"},{"bike_id":"aaecc94e-a371-48c8-8300-38cd0d87784e","system_id":"levelo_inurba_marseille","lat":43.24621,"lon":5.38917,"is_reserved":false,"is_disabled":false,"rental_uris":{"android":"levelo://app?vid=aaecc94e-a371-48c8-8300-38cd0d87784e","ios":"levelo://app?vid=aaecc94e-a371-48c8-8300-38cd0d87784e"},"vehicle_type_id":"4","last_reported":1745801648,"current_range_meters":22800,"station_id":"ce4bhg12rcd13ifvqf60","pricing_plan_id":"cebpf4jnsgd1na2vs0mg"},{"bike_id":"72822771-67fc-41dc-81f6-8a81f8e72774","system_id":"levelo_inurba_marseille","lat":43.25124,"lon":5.40317,"is_reserved":false,"is_disabled":false,"rental_uris":{"android":"levelo://app?vid=72822771-67fc-41dc-81f6-8a81f8e72774","ios":"levelo://app?vid=72822771-67fc-41dc-81f6-8a81f8e72774"},"vehicle_type_id":"4","last_reported":1745801648,"current_range_meters":23200,"station_id":"ce4bhlh2rcd13ifvqgig","pricing_plan_id":"cebpf4jnsgd1na2vs0mg"},{"bike_id":"8d621ff0-747a-4bf7-8b0e-d952f63f7611","system_id":"levelo_inurba_marseille","lat":43.29242,"lon":5.40911,"is_reserved":false,"is_disabled":false,"rental_uris":{"android":"levelo://app?vid=8d621ff0-747a-4bf7-8b0e-d952f63f7611","ios":"levelo://app?vid=8d621ff0-747a-4bf7-8b0e-d952f63f7611"},"vehicle_type_id":"4","last_reported":1745801648,"current_range_meters":23200,"station_id":"ce4bh192rcd13ifvqdc0","pricing_plan_id":"cebpf4jnsgd1na2vs0mg"},{"bike_id":"b4a7e664-e43c-4309-9ef4-4379b5b962a3","system_id":"levelo_inurba_marseille","lat":43.30129,"lon":5.39867,"is_reserved":false,"is_disabled":false,"rental_uris":{"android":"levelo://app?vid=b4a7e664-e43c-4309-9ef4-4379b5b962a3","ios":"levelo://app?vid=b4a7e664-e43c-4309-9ef4-4379b5b962a3"},"vehicle_type_id":"4","last_reported":1745801648,"current_range_meters":23200,"station_id":"ce4bh0h2rcd13ifvqd40","pricing_plan_id":"cebpf4jnsgd1na2vs0mg"},{"bike_id":"2b077e0b-945a-4b8e-9e51-8b16fd0ed4dc","system_id":"levelo_inurba_marseille","lat":43.28946,"lon":5.36628,"is_reserved":false,"is_disabled":true,"rental_uris":{"android":"levelo://app?vid=2b077e0b-945a-4b8e-9e51-8b16fd0ed4dc","ios":"levelo://app?vid=2b077e0b-945a-4b8e-9e51-8b16fd0ed4dc"},"vehicle_type_id":"4","last_reported":1745801648,"current_range_meters":23200,"station_id":"ce4bhap2rcd13ifvqek0","pricing_plan_id":"cebpf4jnsgd1na2vs0mg"},{"bike_id":"ef545e77-eecd-42ef-ab59-e235e334fbc7","system_id":"levelo_inurba_marseille","lat":43.25118,"lon":5.40307,"is_reserved":false,"is_disabled":false,"rental_uris":{"android":"levelo://app?vid=ef545e77-eecd-42ef-ab59-e235e334fbc7","ios":"levelo://app?vid=ef545e77-eecd-42ef-ab59-e235e334fbc7"},"vehicle_type_id":"4","last_reported":1745801648,"current_range_meters":23200,"station_id":"ce4bhlh2rcd13ifvqgig","pricing_plan_id":"cebpf4jnsgd1na2vs0mg"},{"bike_id":"e453a262-1c8d-4f1c-85d1-44cdc42d3fe4","system_id":"levelo_inurba_marseille","lat":43.31457,"lon":5.37336,"is_reserved":false,"is_disabled":false,"rental_uris":{"android":"levelo://app?vid=e453a262-1c8d-4f1c-85d1-44cdc42d3fe4","ios":"levelo://app?vid=e453a262-1c8d-4f1c-85d1-44cdc42d3fe4"},"vehicle_type_id":"4","last_reported":1745801648,"current_range_meters":23200,"station_id":"ce4bgt12rcd13ifvqcd0","pricing_plan_id":"cebpf4jnsgd1na2vs0mg"},{"bike_id":"cf4e5c58-f52b-4255-913e-43d7dec326ab","system_id":"levelo_inurba_marseille","lat":43.24172,"lon":5.36401,"is_reserved":false,"is_disabled":false,"rental_uris":{"android":"levelo://app?vid=cf4e5c58-f52b-4255-913e-43d7dec326ab","ios":"levelo://app?vid=cf4e5c58-f52b-4255-913e-43d7dec326ab"},"vehicle_type_id":"4","last_reported":1745801648,"current_range_meters":23200,"station_id":"cpo36qri1sfpv3e86is0","pricing_plan_id":"cebpf4jnsgd1na2vs0mg"},{"bike_id":"5e7b7a97-a898-4e33-b1ad-4aa3fa075df9","system_id":"levelo_inurba_marseille","lat":43.30542,"lon":5.36498,"is_reserved":false,"is_disabled":false,"rental_uris":{"android":"levelo://app?vid=5e7b7a97-a898-4e33-b1ad-4aa3fa075df9","ios":"levelo://app?vid=5e7b7a97-a898-4e33-b1ad-4aa3fa075df9"},"vehicle_type_id":"4","last_reported":1745801648,"current_range_meters":23200,"station_id":"ce4bgs12rcd13ifvqcag","pricing_plan_id":"cebpf4jnsgd1na2vs0mg"},{"bike_id":"2ee98afc-740b-4e97-a955-ebff5e1f8902","system_id":"levelo_inurba_marseille","lat":43.28836,"lon":5.35855,"is_reserved":false,"is_disabled":false,"rental_uris":{"android":"levelo://app?vid=2ee98afc-740b-4e97-a955-ebff5e1f8902","ios":"levelo://app?vid=2ee98afc-740b-4e97-a955-ebff5e1f8902"},"vehicle_type_id":"4","last_reported":1745801648,"current_range_meters":23200,"station_id":"ce4bhb12rcd13ifvqem0","pricing_plan_id":"cebpf4jnsgd1na2vs0mg"},{"bike_id":"214fc918-0cac-4df8-99f7-5538aa4ddaa2","system_id":"levelo_inurba_marseille","lat":43.28456,"lon":5.35863,"is_reserved":false,"is_disabled":true,"rental_uris":{"android":"levelo://app?vid=214fc918-0cac-4df8-99f7-5538aa4ddaa2","ios":"levelo://app?vid=214fc918-0cac-4df8-99f7-5538aa4ddaa2"},"vehicle_type_id":"4","last_reported":1745801648,"current_range_meters":24000,"station_id":"ce4bhah2rcd13ifvqei0","pricing_plan_id":"cebpf4jnsgd1na2vs0mg"},{"bike_id":"fe27e3a7-db31-4a3c-b2db-f7f85e5f90ab","system_id":"levelo_inurba_marseille","lat":43.31283,"lon":5.40175,"is_reserved":false,"is_disabled":false,"rental_uris":{"android":"levelo://app?vid=fe27e3a7-db31-4a3c-b2db-f7f85e5f90ab","ios":"levelo://app?vid=fe27e3a7-db31-4a3c-b2db-f7f85e5f90ab"},"vehicle_type_id":"4","last_reported":1745801648,"current_range_meters":24000,"station_id":"ce4bh092rcd13ifvqd30","pricing_plan_id":"cebpf4jnsgd1na2vs0mg"},{"bike_id":"5ca629a8-597f-4dce-9e8d-80c3bd7916b7","system_id":"levelo_inurba_marseille","lat":43.30921,"lon":5.40151,"is_reserved":false,"is_disabled":false,"rental_uris":{"android":"levelo://app?vid=5ca629a8-597f-4dce-9e8d-80c3bd7916b7","ios":"levelo://app?vid=5ca629a8-597f-4dce-9e8d-80c3bd7916b7"},"vehicle_type_id":"4","last_reported":1745801648,"current_range_meters":24000,"station_id":"ce4bgvp2rcd13ifvqct0","pricing_plan_id":"cebpf4jnsgd1na2vs0mg"},{"bike_id":"6b2e91fd-3d1a-4bc5-8ab0-ebc12b9d590c","system_id":"levelo_inurba_marseille","lat":43.31759,"lon":5.39019,"is_reserved":false,"is_disabled":false,"rental_uris":{"android":"levelo://app?vid=6b2e91fd-3d1a-4bc5-8ab0-ebc12b9d590c","ios":"levelo://app?vid=6b2e91fd-3d1a-4bc5-8ab0-ebc12b9d590c"},"vehicle_type_id":"4","last_reported":1745801648,"current_range_meters":24000,"station_id":"ce4bhqp2rcd13ifvqhng","pricing_plan_id":"cebpf4jnsgd1na2vs0mg"},{"bike_id":"cbb8c955-1c4d-438b-a40e-28f76a411642","system_id":"levelo_inurba_marseille","lat":43.23963,"lon":5.36626,"is_reserved":false,"is_disabled":true,"rental_uris":{"android":"levelo://app?vid=cbb8c955-1c4d-438b-a40e-28f76a411642","ios":"levelo://app?vid=cbb8c955-1c4d-438b-a40e-28f76a411642"},"vehicle_type_id":"4","last_reported":1745801648,"current_range_meters":24000,"station_id":"ce4bhi12rcd13ifvqfp0","pricing_plan_id":"cebpf4jnsgd1na2vs0mg"},{"bike_id":"f63bfab8-d07c-4b8c-8faa-93a814367824","system_id":"levelo_inurba_marseille","lat":43.30886,"lon":5.39652,"is_reserved":false,"is_disabled":false,"rental_uris":{"android":"levelo://app?vid=f63bfab8-d07c-4b8c-8faa-93a814367824","ios":"levelo://app?vid=f63bfab8-d07c-4b8c-8faa-93a814367824"},"vehicle_type_id":"4","last_reported":1745801648,"current_range_meters":24000,"station_id":"ce4bh012rcd13ifvqcv0","pricing_plan_id":"cebpf4jnsgd1na2vs0mg"},{"bike_id":"c3087ea8-3303-4162-b517-cd5a45178f81","system_id":"levelo_inurba_marseille","lat":43.287085,"lon":5.373933,"is_reserved":false,"is_disabled":false,"rental_uris":{"android":"levelo://app?vid=c3087ea8-3303-4162-b517-cd5a45178f81","ios":"levelo://app?vid=c3087ea8-3303-4162-b517-cd5a45178f81"},"vehicle_type_id":"4","last_reported":1745801648,"current_range_meters":24000,"station_id":"ce4bh3p2rcd13ifvqdq0","pricing_plan_id":"cebpf4jnsgd1na2vs0mg"},{"bike_id":"499cf8cf-6dc3-483a-bfa0-938414fa5ff8","system_id":"levelo_inurba_marseille","lat":43.3226,"lon":5.38295,"is_reserved":false,"is_disabled":false,"rental_uris":{"android":"levelo://app?vid=499cf8cf-6dc3-483a-bfa0-938414fa5ff8","ios":"levelo://app?vid=499cf8cf-6dc3-483a-bfa0-938414fa5ff8"},"vehicle_type_id":"4","last_reported":1745801648,"current_range_meters":24000,"station_id":"ce4bhr12rcd13ifvqhqg","pricing_plan_id":"cebpf4jnsgd1na2vs0mg"},{"bike_id":"e3ebf125-2a2f-414f-baeb-ae64e8bddc46","system_id":"levelo_inurba_marseille","lat":43.30939,"lon":5.40156,"is_reserved":false,"is_disabled":false,"rental_uris":{"android":"levelo://app?vid=e3ebf125-2a2f-414f-baeb-ae64e8bddc46","ios":"levelo://app?vid=e3ebf125-2a2f-414f-baeb-ae64e8bddc46"},"vehicle_type_id":"4","last_reported":1745801648,"current_range_meters":24000,"station_id":"ce4bgvp2rcd13ifvqct0","pricing_plan_id":"cebpf4jnsgd1na2vs0mg"},{"bike_id":"d7f0f05d-3cc9-442a-8a8d-6275e283d032","system_id":"levelo_inurba_marseille","lat":43.2975,"lon":5.4606,"is_reserved":false,"is_disabled":false,"rental_uris":{"android":"levelo://app?vid=d7f0f05d-3cc9-442a-8a8d-6275e283d032","ios":"levelo://app?vid=d7f0f05d-3cc9-442a-8a8d-6275e283d032"},"vehicle_type_id":"4","last_reported":1745801648,"current_range_meters":24000,"station_id":"","pricing_plan_id":"cebpf4jnsgd1na2vs0mg"},{"bike_id":"e0e0a52a-57f9-448e-b7ef-0232403aef34","system_id":"levelo_inurba_marseille","lat":43.24166,"lon":5.36398,"is_reserved":false,"is_disabled":false,"rental_uris":{"android":"levelo://app?vid=e0e0a52a-57f9-448e-b7ef-0232403aef34","ios":"levelo://app?vid=e0e0a52a-57f9-448e-b7ef-0232403aef34"},"vehicle_type_id":"4","last_reported":1745801648,"current_range_meters":24000,"station_id":"cpo36qri1sfpv3e86is0","pricing_plan_id":"cebpf4jnsgd1na2vs0mg"},{"bike_id":"ae1ea35f-c087-4075-8951-1dc116cdb425","system_id":"levelo_inurba_marseille","lat":43.30459,"lon":5.38896,"is_reserved":false,"is_disabled":false,"rental_uris":{"android":"levelo://app?vid=ae1ea35f-c087-4075-8951-1dc116cdb425","ios":"levelo://app?vid=ae1ea35f-c087-4075-8951-1dc116cdb425"},"vehicle_type_id":"4","last_reported":1745801648,"current_range_meters":24000,"station_id":"ce4bgk12rcd13ifvqbi0","pricing_plan_id":"cebpf4jnsgd1na2vs0mg"},{"bike_id":"9d986fec-547e-4839-8e5f-e0340a61adaf","system_id":"levelo_inurba_marseille","lat":43.30934,"lon":5.40167,"is_reserved":false,"is_disabled":false,"rental_uris":{"android":"levelo://app?vid=9d986fec-547e-4839-8e5f-e0340a61adaf","ios":"levelo://app?vid=9d986fec-547e-4839-8e5f-e0340a61adaf"},"vehicle_type_id":"4","last_reported":1745801648,"current_range_meters":24000,"station_id":"ce4bgvp2rcd13ifvqct0","pricing_plan_id":"cebpf4jnsgd1na2vs0mg"},{"bike_id":"03e972c9-0324-4f2e-95ed-782d4d7614d7","system_id":"levelo_inurba_marseille","lat":43.2593,"lon":5.40896,"is_reserved":false,"is_disabled":true,"rental_uris":{"android":"levelo://app?vid=03e972c9-0324-4f2e-95ed-782d4d7614d7","ios":"levelo://app?vid=03e972c9-0324-4f2e-95ed-782d4d7614d7"},"vehicle_type_id":"4","last_reported":1745801648,"current_range_meters":24400,"station_id":"ce4bhm92rcd13ifvqglg","pricing_plan_id":"cebpf4jnsgd1na2vs0mg"},{"bike_id":"39987612-e249-4f14-80ba-63b3b1ca5fae","system_id":"levelo_inurba_marseille","lat":43.31104,"lon":5.37761,"is_reserved":false,"is_disabled":false,"rental_uris":{"android":"levelo://app?vid=39987612-e249-4f14-80ba-63b3b1ca5fae","ios":"levelo://app?vid=39987612-e249-4f14-80ba-63b3b1ca5fae"},"vehicle_type_id":"4","last_reported":1745801648,"current_range_meters":24400,"station_id":"ce4bgt92rcd13ifvqcg0","pricing_plan_id":"cebpf4jnsgd1na2vs0mg"},{"bike_id":"9db023e7-cfd5-42d5-8cd5-7836bd3239c3","system_id":"levelo_inurba_marseille","lat":43.30891,"lon":5.39663,"is_reserved":false,"is_disabled":false,"rental_uris":{"android":"levelo://app?vid=9db023e7-cfd5-42d5-8cd5-7836bd3239c3","ios":"levelo://app?vid=9db023e7-cfd5-42d5-8cd5-7836bd3239c3"},"vehicle_type_id":"4","last_reported":1745801648,"current_range_meters":24400,"station_id":"ce4bh012rcd13ifvqcv0","pricing_plan_id":"cebpf4jnsgd1na2vs0mg"},{"bike_id":"056cfee0-a140-4e5d-9027-ab217124f277","system_id":"levelo_inurba_marseille","lat":43.28849,"lon":5.39321,"is_reserved":false,"is_disabled":false,"rental_uris":{"android":"levelo://app?vid=056cfee0-a140-4e5d-9027-ab217124f277","ios":"levelo://app?vid=056cfee0-a140-4e5d-9027-ab217124f277"},"vehicle_type_id":"4","last_reported":1745801648,"current_range_meters":24400,"station_id":"ce4bh2p2rcd13ifvqdi0","pricing_plan_id":"cebpf4jnsgd1na2vs0mg"},{"bike_id":"e2e5bb7f-eed3-4dee-a88d-18306cda0357","system_id":"levelo_inurba_marseille","lat":43.29598,"lon":5.3809,"is_reserved":false,"is_disabled":true,"rental_uris":{"android":"levelo://app?vid=e2e5bb7f-eed3-4dee-a88d-18306cda0357","ios":"levelo://app?vid=e2e5bb7f-eed3-4dee-a88d-18306cda0357"},"vehicle_type_id":"4","last_reported":1745801648,"current_range_meters":24400,"station_id":"ce4bgl12rcd13ifvqbo0","pricing_plan_id":"cebpf4jnsgd1na2vs0mg"},{"bike_id":"dd0d9de5-5317-433e-924b-4f9f7dfe078e","system_id":"levelo_inurba_marseille","lat":43.30805,"lon":5.38162,"is_reserved":false,"is_disabled":false,"rental_uris":{"android":"levelo://app?vid=dd0d9de5-5317-433e-924b-4f9f7dfe078e","ios":"levelo://app?vid=dd0d9de5-5317-433e-924b-4f9f7dfe078e"},"vehicle_type_id":"4","last_reported":1745801648,"current_range_meters":24400,"station_id":"ce4bgt12rcd13ifvqce0","pricing_plan_id":"cebpf4jnsgd1na2vs0mg"},{"bike_id":"e9830214-0a29-4a00-a67c-181c91df276a","system_id":"levelo_inurba_marseille","lat":43.31615,"lon":5.4041,"is_reserved":false,"is_disabled":false,"rental_uris":{"android":"levelo://app?vid=e9830214-0a29-4a00-a67c-181c91df276a","ios":"levelo://app?vid=e9830214-0a29-4a00-a67c-181c91df276a"},"vehicle_type_id":"4","last_reported":1745801648,"current_range_meters":24800,"station_id":"ce4bh012rcd13ifvqd00","pricing_plan_id":"cebpf4jnsgd1na2vs0mg"},{"bike_id":"40c71d07-9d0c-4e50-b56c-92cfb061b420","system_id":"levelo_inurba_marseille","lat":43.29249,"lon":5.40899,"is_reserved":false,"is_disabled":false,"rental_uris":{"android":"levelo://app?vid=40c71d07-9d0c-4e50-b56c-92cfb061b420","ios":"levelo://app?vid=40c71d07-9d0c-4e50-b56c-92cfb061b420"},"vehicle_type_id":"4","last_reported":1745801648,"current_range_meters":24800,"station_id":"ce4bh192rcd13ifvqdc0","pricing_plan_id":"cebpf4jnsgd1na2vs0mg"},{"bike_id":"1e4448ba-2167-4f3a-b07d-7b70baaf89c8","system_id":"levelo_inurba_marseille","lat":43.28419,"lon":5.37516,"is_reserved":false,"is_disabled":false,"rental_uris":{"android":"levelo://app?vid=1e4448ba-2167-4f3a-b07d-7b70baaf89c8","ios":"levelo://app?vid=1e4448ba-2167-4f3a-b07d-7b70baaf89c8"},"vehicle_type_id":"4","last_reported":1745801648,"current_range_meters":24800,"station_id":"ce4bh412rcd13ifvqds0","pricing_plan_id":"cebpf4jnsgd1na2vs0mg"},{"bike_id":"25bc48aa-d054-410d-9d49-ba6e40d84f86","system_id":"levelo_inurba_marseille","lat":43.23191,"lon":5.35562,"is_reserved":false,"is_disabled":true,"rental_uris":{"android":"levelo://app?vid=25bc48aa-d054-410d-9d49-ba6e40d84f86","ios":"levelo://app?vid=25bc48aa-d054-410d-9d49-ba6e40d84f86"},"vehicle_type_id":"4","last_reported":1745801648,"current_range_meters":24800,"station_id":"ce4bhu92rcd13ifvqi70","pricing_plan_id":"cebpf4jnsgd1na2vs0mg"},