{"last_updated":1683468306,"ttl":30,"version":"2.2","data":{"bikes":[{"bike_id":"6aa70344-77d6-4f5d-afa4-7ed704a0eff3","system_id":"levelo_inurba_marseille","lat":43.30922,"lon":5.37192,"is_reserved":false,"is_disabled":false,"rental_uris":{"android":"levelo://app?vid=6aa70344-77d6-4f5d-afa4-7ed704a0eff3","ios":"levelo://app?vid=6aa70344-77d6-4f5d-afa4-7ed704a0eff3"},"vehicle_type_id":"4","last_reported":1683468307,"current_range_meters":28400,"station_id":"","pricing_plan_id":"free"},{"bike_id":"696d1443-e82d-4450-86df-e1145162d85d","system_id":"levelo_inurba_marseille","lat":43.308614,"lon":5.372098,"is_reserved":false,"is_disabled":false,"rental_uris":{"android":"levelo://app?vid=696d1443-e82d-4450-86df-e1145162d85d","ios":"levelo://app?vid=696d1443-e82d-4450-86df-e1145162d85d"},"vehicle_type_id":"4","last_reported":1683468307,"current_range_meters":8400,"station_id":"ce4bguh2rcd13ifvqckg","pricing_plan_id":"free"},{"bike_id":"abd9dada-96b6-4e3d-b73c-e303d8f23774","system_id":"levelo_inurba_marseille","lat":43.30817,"lon":5.37168,"is_reserved":false,"is_disabled":false,"rental_uris":{"android":"levelo://app?vid=abd9dada-96b6-4e3d-b73c-e303d8f23774","ios":"levelo://app?vid=abd9dada-96b6-4e3d-b73c-e303d8f23774"},"vehicle_type_id":"4","last_reported":1683468307,"current_range_meters":19600,"station_id":"","pricing_plan_id":"free"},{"bike_id":"caea2489-5a5d-4f00-8e78-8c319f8ed68e","system_id":"levelo_inurba_marseille","lat":43.3057,"lon":5.36553,"is_reserved":false,"is_disabled":false,"rental_uris":{"android":"levelo://app?vid=caea2489-5a5d-4f00-8e78-8c319f8ed68e","ios":"levelo://app?vid=caea2489-5a5d-4f00-8e78-8c319f8ed68e"},"vehicle_type_id":"4","last_reported":1683468307,"current_range_meters":2000,"station_id":"","pricing_plan_id":"free"},{"bike_id":"f897c42b-6cf5-4ef6-80d2-fa8648aa1dea","system_id":"levelo_inurba_marseille","lat":43.30548,"lon":5.36707,"is_reserved":false,"is_disabled":false,"rental_uris":{"android":"levelo://app?vid=f897c42b-6cf5-4ef6-80d2-fa8648aa1dea","ios":"levelo://app?vid=f897c42b-6cf5-4ef6-80d2-fa8648aa1dea"},"vehicle_type_id":"4","last_reported":1683468307,"current_range_meters":0,"station_id":"ce4bgrp2rcd13ifvqc9g","pricing_plan_id":"free"},{"bike_id":"c4231a3e-964a-4bdc-96d9-8f5314d5b58e","system_id":"levelo_inurba_marseille","lat":43.30535,"lon":5.36545,"is_reserved":false,"is_disabled":false,"rental_uris":{"android":"levelo://app?vid=c4231a3e-964a-4bdc-96d9-8f5314d5b58e","ios":"levelo://app?vid=c4231a3e-964a-4bdc-96d9-8f5314d5b58e"},"vehicle_type_id":"4","last_reported":1683468307,"current_range_meters":2000,"station_id":"","pricing_plan_id":"free"},{"bike_id":"3ae6fed3-e02b-457c-ac50-bd81affc06ee","system_id":"levelo_inurba_marseille","lat":43.30533,"lon":5.36549,"is_reserved":false,"is_disabled":false,"rental_uris":{"android":"levelo://app?vid=3ae6fed3-e02b-457c-ac50-bd81affc06ee","ios":"levelo://app?vid=3ae6fed3-e02b-457c-ac50-bd81affc06ee"},"vehicle_type_id":"4","last_reported":1683468307,"current_range_meters":11200,"station_id":"","pricing_plan_id":"free"},{"bike_id":"970bde3b-acc8-4e8b-94f1-0bc5bddfaab7","system_id":"levelo_inurba_marseille","lat":43.305989,"lon":5.37225,"is_reserved":false,"is_disabled":false,"rental_uris":{"android":"levelo://app?vid=970bde3b-acc8-4e8b-94f1-0bc5bddfaab7","ios":"levelo://app?vid=970bde3b-acc8-4e8b-94f1-0bc5bddfaab7"},"vehicle_type_id":"4","last_reported":1683468307,"current_range_meters":31200,"station_id":"ce4bgqh2rcd13ifvqc4g","pricing_plan_id":"free"},{"bike_id":"6c925cfb-0687-4ee0-912e-2695000dbe16","system_id":"levelo_inurba_marseille","lat":43.311131,"lon":5.377651,"is_reserved":false,"is_disabled":false,"rental_uris":{"android":"levelo://app?vid=6c925cfb-0687-4ee0-912e-2695000dbe16","ios":"levelo://app?vid=6c925cfb-0687-4ee0-912e-2695000dbe16"},"vehicle_type_id":"4","last_reported":1683468307,"current_range_meters":5200,"station_id":"ce4bgt92rcd13ifvqcg0","pricing_plan_id":"free"},{"bike_id":"0d4f6479-47a0-400b-addf-94d398f6216f","system_id":"levelo_inurba_marseille","lat":43.317075,"lon":5.377367,"is_reserved":false,"is_disabled":false,"rental_uris":{"android":"levelo://app?vid=0d4f6479-47a0-400b-addf-94d398f6216f","ios":"levelo://app?vid=0d4f6479-47a0-400b-addf-94d398f6216f"},"vehicle_type_id":"4","last_reported":1683468307,"current_range_meters":6000,"station_id":"ce4bgth2rcd13ifvqch0","pricing_plan_id":"free"},{"bike_id":"e40ae883-a786-4509-bfa7-48576d327fda","system_id":"levelo_inurba_marseille","lat":43.315289,"lon":5.380349,"is_reserved":false,"is_disabled":false,"rental_uris":{"android":"levelo://app?vid=e40ae883-a786-4509-bfa7-48576d327fda","ios":"levelo://app?vid=e40ae883-a786-4509-bfa7-48576d327fda"},"vehicle_type_id":"4","last_reported":1683468307,"current_range_meters":12800,"station_id":"ce4bhsp2rcd13ifvqi50","pricing_plan_id":"free"},{"bike_id":"035a2b0a-a8a2-4479-8d2e-5d9516213b51","system_id":"levelo_inurba_marseille","lat":43.31592,"lon":5.38083,"is_reserved":false,"is_disabled":false,"rental_uris":{"android":"levelo://app?vid=035a2b0a-a8a2-4479-8d2e-5d9516213b51","ios":"levelo://app?vid=035a2b0a-a8a2-4479-8d2e-5d9516213b51"},"vehicle_type_id":"4","last_reported":1683468307,"current_range_meters":10400,"station_id":"","pricing_plan_id":"free"},{"bike_id":"de2ab3a3-46be-44e0-a56c-aa9ab66efe37","system_id":"levelo_inurba_marseille","lat":43.308012,"lon":5.381511,"is_reserved":false,"is_disabled":false,"rental_uris":{"android":"levelo://app?vid=de2ab3a3-46be-44e0-a56c-aa9ab66efe37","ios":"levelo://app?vid=de2ab3a3-46be-44e0-a56c-aa9ab66efe37"},"vehicle_type_id":"4","last_reported":1683468307,"current_range_meters":26400,"station_id":"ce4bgt12rcd13ifvqce0","pricing_plan_id":"free"},{"bike_id":"5d00eba7-369a-4d1f-83f8-7109567beb68","system_id":"levelo_inurba_marseille","lat":43.30807,"lon":5.38145,"is_reserved":false,"is_disabled":false,"rental_uris":{"android":"levelo://app?vid=5d00eba7-369a-4d1f-83f8-7109567beb68","ios":"levelo://app?vid=5d00eba7-369a-4d1f-83f8-7109567beb68"},"vehicle_type_id":"4","last_reported":1683468307,"current_range_meters":25200,"station_id":"ce4bgt12rcd13ifvqce0","pricing_plan_id":"free"},{"bike_id":"ad5ae284-7055-4d9f-96db-90ee5c8c6b09","system_id":"levelo_inurba_marseille","lat":43.30809,"lon":5.38152,"is_reserved":false,"is_disabled":false,"rental_uris":{"android":"levelo://app?vid=ad5ae284-7055-4d9f-96db-90ee5c8c6b09","ios":"levelo://app?vid=ad5ae284-7055-4d9f-96db-90ee5c8c6b09"},"vehicle_type_id":"4","last_reported":1683468307,"current_range_meters":28800,"station_id":"ce4bgt12rcd13ifvqce0","pricing_plan_id":"free"},{"bike_id":"06347814-7836-43c1-81c8-bd70340a1216","system_id":"levelo_inurba_marseille","lat":43.30799,"lon":5.38146,"is_reserved":false,"is_disabled":false,"rental_uris":{"android":"levelo://app?vid=06347814-7836-43c1-81c8-bd70340a1216","ios":"levelo://app?vid=06347814-7836-43c1-81c8-bd70340a1216"},"vehicle_type_id":"4","last_reported":1683468307,"current_range_meters":29600,"station_id":"ce4bgt12rcd13ifvqce0","pricing_plan_id":"free"},{"bike_id":"12d101a6-7079-47e4-96eb-31df13af5ab6","system_id":"levelo_inurba_marseille","lat":43.308012,"lon":5.381511,"is_reserved":false,"is_disabled":false,"rental_uris":{"android":"levelo://app?vid=12d101a6-7079-47e4-96eb-31df13af5ab6","ios":"levelo://app?vid=12d101a6-7079-47e4-96eb-31df13af5ab6"},"vehicle_type_id":"4","last_reported":1683468307,"current_range_meters":15200,"station_id":"ce4bgt12rcd13ifvqce0","pricing_plan_id":"free"},{"bike_id":"402f15e8-ab22-473e-aeb6-9d181b0ef60b","system_id":"levelo_inurba_marseille","lat":43.308012,"lon":5.381511,"is_reserved":false,"is_disabled":false,"rental_uris":{"android":"levelo://app?vid=402f15e8-ab22-473e-aeb6-9d181b0ef60b","ios":"levelo://app?vid=402f15e8-ab22-473e-aeb6-9d181b0ef60b"},"vehicle_type_id":"4","last_reported":1683468307,"current_range_meters":24000,"station_id":"ce4bgt12rcd13ifvqce0","pricing_plan_id":"free"},{"bike_id":"82827905-3a65-4672-83be-7bab7f5bd88b","system_id":"levelo_inurba_marseille","lat":43.30798,"lon":5.38154,"is_reserved":false,"is_disabled":false,"rental_uris":{"android":"levelo://app?vid=82827905-3a65-4672-83be-7bab7f5bd88b","ios":"levelo://app?vid=82827905-3a65-4672-83be-7bab7f5bd88b"},"vehicle_type_id":"4","last_reported":1683468307,"current_range_meters":27600,"station_id":"ce4bgt12rcd13ifvqce0","pricing_plan_id":"free"},{"bike_id":"b806772c-3d57-4e3f-acdb-3096cd5b9e9f","system_id":"levelo_inurba_marseille","lat":43.30477,"lon":5.379,"is_reserved":false,"is_disabled":false,"rental_uris":{"android":"levelo://app?vid=b806772c-3d57-4e3f-acdb-3096cd5b9e9f","ios":"levelo://app?vid=b806772c-3d57-4e3f-acdb-3096cd5b9e9f"},"vehicle_type_id":"4","last_reported":1683468307,"current_range_meters":30400,"station_id":"ce4bgup2rcd13ifvqcn0","pricing_plan_id":"free"},{"bike_id":"638974cd-56c2-4445-b13d-660b9958de6d","system_id":"levelo_inurba_marseille","lat":43.3047,"lon":5.37905,"is_reserved":false,"is_disabled":false,"rental_uris":{"android":"levelo://app?vid=638974cd-56c2-4445-b13d-660b9958de6d","ios":"levelo://app?vid=638974cd-56c2-4445-b13d-660b9958de6d"},"vehicle_type_id":"4","last_reported":1683468307,"current_range_meters":19600,"station_id":"ce4bgup2rcd13ifvqcn0","pricing_plan_id":"free"},{"bike_id":"360dca30-177c-4f64-bdec-9c912de3ebc1","system_id":"levelo_inurba_marseille","lat":43.304606,"lon":5.379026,"is_reserved":false,"is_disabled":false,"rental_uris":{"android":"levelo://app?vid=360dca30-177c-4f64-bdec-9c912de3ebc1","ios":"levelo://app?vid=360dca30-177c-4f64-bdec-9c912de3ebc1"},"vehicle_type_id":"4","last_reported":1683468307,"current_range_meters":31200,"station_id":"ce4bgup2rcd13ifvqcn0","pricing_plan_id":"free"},{"bike_id":"1982dd98-d952-491d-93fc-34d9fd8a5cfb","system_id":"levelo_inurba_marseille","lat":43.304606,"lon":5.379026,"is_reserved":false,"is_disabled":false,"rental_uris":{"android":"levelo://app?vid=1982dd98-d952-491d-93fc-34d9fd8a5cfb","ios":"levelo://app?vid=1982dd98-d952-491d-93fc-34d9fd8a5cfb"},"vehicle_type_id":"4","last_reported":1683468307,"current_range_meters":31600,"station_id":"ce4bgup2rcd13ifvqcn0","pricing_plan_id":"free"},{"bike_id":"3764c42c-2b8c-4c84-ba09-9ffb1c1667d3","system_id":"levelo_inurba_marseille","lat":43.304606,"lon":5.379026,"is_reserved":false,"is_disabled":false,"rental_uris":{"android":"levelo://app?vid=3764c42c-2b8c-4c84-ba09-9ffb1c1667d3","ios":"levelo://app?vid=3764c42c-2b8c-4c84-ba09-9ffb1c1667d3"},"vehicle_type_id":"4","last_reported":1683468307,"current_range_meters":25200,"station_id":"ce4bgup2rcd13ifvqcn0","pricing_plan_id":"free"},{"bike_id":"5451be15-4728-4b51-87c9-dc4ae855eab1","system_id":"levelo_inurba_marseille","lat":43.304606,"lon":5.379026,"is_reserved":false,"is_disabled":false,"rental_uris":{"android":"levelo://app?vid=5451be15-4728-4b51-87c9-dc4ae855eab1","ios":"levelo://app?vid=5451be15-4728-4b51-87c9-dc4ae855eab1"},"vehicle_type_id":"4","last_reported":1683468307,"current_range_meters":30000,"station_id":"ce4bgup2rcd13ifvqcn0","pricing_plan_id":"free"},{"bike_id":"2a91c024-61a6-4ff8-995b-ca8cf5c6fdf1","system_id":"levelo_inurba_marseille","lat":43.304606,"lon":5.379026,"is_reserved":false,"is_disabled":false,"rental_uris":{"android":"levelo://app?vid=2a91c024-61a6-4ff8-995b-ca8cf5c6fdf1","ios":"levelo://app?vid=2a91c024-61a6-4ff8-995b-ca8cf5c6fdf1"},"vehicle_type_id":"4","last_reported":1683468307,"current_range_meters":20400,"station_id":"ce4bgup2rcd13ifvqcn0","pricing_plan_id":"free"},{"bike_id":"13150afd-cf4c-4b7f-b4c3-6a429b2102d4","system_id":"levelo_inurba_marseille","lat":43.30143,"lon":5.37413,"is_reserved":false,"is_disabled":false,"rental_uris":{"android":"levelo://app?vid=13150afd-cf4c-4b7f-b4c3-6a429b2102d4","ios":"levelo://app?vid=13150afd-cf4c-4b7f-b4c3-6a429b2102d4"},"vehicle_type_id":"4","last_reported":1683468307,"current_range_meters":5200,"station_id":"ce4bgs92rcd13ifvqcc0","pricing_plan_id":"free"},{"bike_id":"814d41b5-1933-49ee-bc1c-1b6c6b96b6d7","system_id":"levelo_inurba_marseille","lat":43.30143,"lon":5.37413,"is_reserved":false,"is_disabled":false,"rental_uris":{"android":"levelo://app?vid=814d41b5-1933-49ee-bc1c-1b6c6b96b6d7","ios":"levelo://app?vid=814d41b5-1933-49ee-bc1c-1b6c6b96b6d7"},"vehicle_type_id":"4","last_reported":1683468307,"current_range_meters":10800,"station_id":"ce4bgs92rcd13ifvqcc0","pricing_plan_id":"free"},{"bike_id":"d7bf14f4-dbf3-4c4e-99f9-b62e9ae98b8e","system_id":"levelo_inurba_marseille","lat":43.31363,"lon":5.38522,"is_reserved":false,"is_disabled":false,"rental_uris":{"android":"levelo://app?vid=d7bf14f4-dbf3-4c4e-99f9-b62e9ae98b8e","ios":"levelo://app?vid=d7bf14f4-dbf3-4c4e-99f9-b62e9ae98b8e"},"vehicle_type_id":"4","last_reported":1683468307,"current_range_meters":21200,"station_id":"","pricing_plan_id":"free"},{"bike_id":"3a365e95-4d93-4d26-a32b-9c469d3719bc","system_id":"levelo_inurba_marseille","lat":43.299222,"lon":5.365554,"is_reserved":false,"is_disabled":false,"rental_uris":{"android":"levelo://app?vid=3a365e95-4d93-4d26-a32b-9c469d3719bc","ios":"levelo://app?vid=3a365e95-4d93-4d26-a32b-9c469d3719bc"},"vehicle_type_id":"4","last_reported":1683468307,"current_range_meters":18400,"station_id":"ce4bgm92rcd13ifvqbr0","pricing_plan_id":"free"},{"bike_id":"d0b31b9d-8fff-4eaa-8174-c95c01747166","system_id":"levelo_inurba_marseille","lat":43.298433,"lon":5.362774,"is_reserved":false,"is_disabled":false,"rental_uris":{"android":"levelo://app?vid=d0b31b9d-8fff-4eaa-8174-c95c01747166","ios":"levelo://app?vid=d0b31b9d-8fff-4eaa-8174-c95c01747166"},"vehicle_type_id":"4","last_reported":1683468307,"current_range_meters":31600,"station_id":"ce4bgpp2rcd13ifvqc3g","pricing_plan_id":"free"},{"bike_id":"f0c8c07f-78ae-4761-9c4b-a2591e294f3d","system_id":"levelo_inurba_marseille","lat":43.305364,"lon":5.384119,"is_reserved":false,"is_disabled":false,"rental_uris":{"android":"levelo://app?vid=f0c8c07f-78ae-4761-9c4b-a2591e294f3d","ios":"levelo://app?vid=f0c8c07f-78ae-4761-9c4b-a2591e294f3d"},"vehicle_type_id":"4","last_reported":1683468307,"current_range_meters":18400,"station_id":"ce4bgg92rcd13ifvqb30","pricing_plan_id":"free"},{"bike_id":"2bf42e8b-ad97-4b7f-a856-092e1f5688c9","system_id":"levelo_inurba_marseille","lat":43.298433,"lon":5.362774,"is_reserved":false,"is_disabled":false,"rental_uris":{"android":"levelo://app?vid=2bf42e8b-ad97-4b7f-a856-092e1f5688c9","ios":"levelo://app?vid=2bf42e8b-ad97-4b7f-a856-092e1f5688c9"},"vehicle_type_id":"4","last_reported":1683468307,"current_range_meters":14400,"station_id":"ce4bgpp2rcd13ifvqc3g","pricing_plan_id":"free"},{"bike_id":"720f7ca2-5411-408f-95d1-fdb91acff85b","system_id":"levelo_inurba_marseille","lat":43.305364,"lon":5.384119,"is_reserved":false,"is_disabled":false,"rental_uris":{"android":"levelo://app?vid=720f7ca2-5411-408f-95d1-fdb91acff85b","ios":"levelo://app?vid=720f7ca2-5411-408f-95d1-fdb91acff85b"},"vehicle_type_id":"4","last_reported":1683468307,"current_range_meters":14400,"station_id":"ce4bgg92rcd13ifvqb30","pricing_plan_id":"free"},{"bike_id":"aba50e0b-5c25-48f4-bd6d-440f8726f1f3","system_id":"levelo_inurba_marseille","lat":43.30296,"lon":5.38187,"is_reserved":false,"is_disabled":false,"rental_uris":{"android":"levelo://app?vid=aba50e0b-5c25-48f4-bd6d-440f8726f1f3","ios":"levelo://app?vid=aba50e0b-5c25-48f4-bd6d-440f8726f1f3"},"vehicle_type_id":"4","last_reported":1683468307,"current_range_meters":3200,"station_id":"","pricing_plan_id":"free"},{"bike_id":"814eec13-1f89-4f10-837b-4a8ccfe0b061","system_id":"levelo_inurba_marseille","lat":43.298433,"lon":5.362774,"is_reserved":false,"is_disabled":false,"rental_uris":{"android":"levelo://app?vid=814eec13-1f89-4f10-837b-4a8ccfe0b061","ios":"levelo://app?vid=814eec13-1f89-4f10-837b-4a8ccfe0b061"},"vehicle_type_id":"4","last_reported":1683468307,"current_range_meters":26400,"station_id":"ce4bgpp2rcd13ifvqc3g","pricing_plan_id":"free"},{"bike_id":"ee23a5e6-55ec-4d77-a76c-70f812e09101","system_id":"levelo_inurba_marseille","lat":43.30003,"lon":5.37745,"is_reserved":false,"is_disabled":false,"rental_uris":{"android":"levelo://app?vid=ee23a5e6-55ec-4d77-a76c-70f812e09101","ios":"levelo://app?vid=ee23a5e6-55ec-4d77-a76c-70f812e09101"},"vehicle_type_id":"4","last_reported":1683468307,"current_range_meters":15200,"station_id":"","pricing_plan_id":"free"},{"bike_id":"01684f3c-0289-4762-87ce-50cc33fdc6cd","system_id":"levelo_inurba_marseille","lat":43.297794,"lon":5.370888,"is_reserved":false,"is_disabled":false,"rental_uris":{"android":"levelo://app?vid=01684f3c-0289-4762-87ce-50cc33fdc6cd","ios":"levelo://app?vid=01684f3c-0289-4762-87ce-50cc33fdc6cd"},"vehicle_type_id":"4","last_reported":1683468307,"current_range_meters":22800,"station_id":"ce4bgop2rcd13ifvqc1g","pricing_plan_id":"free"},{"bike_id":"d631a1e9-f0bf-45e1-92f0-a03e3cb5f677","system_id":"levelo_inurba_marseille","lat":43.297774,"lon":5.370875,"is_reserved":false,"is_disabled":false,"rental_uris":{"android":"levelo://app?vid=d631a1e9-f0bf-45e1-92f0-a03e3cb5f677","ios":"levelo://app?vid=d631a1e9-f0bf-45e1-92f0-a03e3cb5f677"},"vehicle_type_id":"4","last_reported":1683468307,"current_range_meters":20800,"station_id":"ce4bgop2rcd13ifvqc1g","pricing_plan_id":"free"},{"bike_id":"8f3d8177-c4a1-4fd6-9266-e60b286777a3","system_id":"levelo_inurba_marseille","lat":43.29771,"lon":5.37102,"is_reserved":false,"is_disabled":false,"rental_uris":{"android":"levelo://app?vid=8f3d8177-c4a1-4fd6-9266-e60b286777a3","ios":"levelo://app?vid=8f3d8177-c4a1-4fd6-9266-e60b286777a3"},"vehicle_type_id":"4","last_reported":1683468307,"current_range_meters":14000,"station_id":"ce4bgop2rcd13ifvqc1g","pricing_plan_id":"free"},{"bike_id":"3d8fdaaa-cee5-4cfb-88bf-507fd3d402dc","system_id":"levelo_inurba_marseille","lat":43.328371,"lon":5.366912,"is_reserved":false,"is_disabled":false,"rental_uris":{"android":"levelo://app?vid=3d8fdaaa-cee5-4cfb-88bf-507fd3d402dc","ios":"levelo://app?vid=3d8fdaaa-cee5-4cfb-88bf-507fd3d402dc"},"vehicle_type_id":"4","last_reported":1683468307,"current_range_meters":13600,"station_id":"ce4bhs92rcd13ifvqi0g","pricing_plan_id":"free"},{"bike_id":"aafcc005-5e38-4c52-a10d-6d0f89f0012b","system_id":"levelo_inurba_marseille","lat":43.302008,"lon":5.394694,"is_reserved":false,"is_disabled":false,"rental_uris":{"android":"levelo://app?vid=aafcc005-5e38-4c52-a10d-6d0f89f0012b","ios":"levelo://app?vid=aafcc005-5e38-4c52-a10d-6d0f89f0012b"},"vehicle_type_id":"4","last_reported":1683468307,"current_range_meters":0,"station_id":"ce4bh0p2rcd13ifvqd70","pricing_plan_id":"free"},{"bike_id":"28266f5b-7940-48d6-8a7e-3f07f2312013","system_id":"levelo_inurba_marseille","lat":43.29573,"lon":5.367355,"is_reserved":false,"is_disabled":false,"rental_uris":{"android":"levelo://app?vid=28266f5b-7940-48d6-8a7e-3f07f2312013","ios":"levelo://app?vid=28266f5b-7940-48d6-8a7e-3f07f2312013"},"vehicle_type_id":"4","last_reported":1683468307,"current_range_meters":20400,"station_id":"ce4bgph2rcd13ifvqc2g","pricing_plan_id":"free"},{"bike_id":"aff4fee2-f634-4cbb-aded-6062f350f684","system_id":"levelo_inurba_marseille","lat":43.309589,"lon":5.390258,"is_reserved":false,"is_disabled":false,"rental_uris":{"android":"levelo://app?vid=aff4fee2-f634-4cbb-aded-6062f350f684","ios":"levelo://app?vid=aff4fee2-f634-4cbb-aded-6062f350f684"},"vehicle_type_id":"4","last_reported":1683468307,"current_range_meters":26000,"station_id":"ce4bgup2rcd13ifvqco0","pricing_plan_id":"free"},{"bike_id":"e3e291bf-bb8c-4622-8c83-9289ff51b97e","system_id":"levelo_inurba_marseille","lat":43.309589,"lon":5.390258,"is_reserved":false,"is_disabled":false,"rental_uris":{"android":"levelo://app?vid=e3e291bf-bb8c-4622-8c83-9289ff51b97e","ios":"levelo://app?vid=e3e291bf-bb8c-4622-8c83-9289ff51b97e"},"vehicle_type_id":"4","last_reported":1683468307,"current_range_meters":18800,"station_id":"ce4bgup2rcd13ifvqco0","pricing_plan_id":"free"},{"bike_id":"edec38d7-a1ca-4ad8-92bb-f8eb0e567197","system_id":"levelo_inurba_marseille","lat":43.309589,"lon":5.390258,"is_reserved":false,"is_disabled":false,"rental_uris":{"android":"levelo://app?vid=edec38d7-a1ca-4ad8-92bb-f8eb0e567197","ios":"levelo://app?vid=edec38d7-a1ca-4ad8-92bb-f8eb0e567197"},"vehicle_type_id":"4","last_reported":1683468307,"current_range_meters":30800,"station_id":"ce4bgup2rcd13ifvqco0","pricing_plan_id":"free"},{"bike_id":"7b1ffce2-b733-406d-89c8-bffcd49d7e00","system_id":"levelo_inurba_marseille","lat":43.309589,"lon":5.390258,"is_reserved":false,"is_disabled":false,"rental_uris":{"android":"levelo://app?vid=7b1ffce2-b733-406d-89c8-bffcd49d7e00","ios":"levelo://app?vid=7b1ffce2-b733-406d-89c8-bffcd49d7e00"},"vehicle_type_id":"4","last_reported":1683468307,"current_range_meters":6800,"station_id":"ce4bgup2rcd13ifvqco0","pricing_plan_id":"free"},{"bike_id":"6ee78b2e-ceae-4d6d-9854-179328b36d1b","system_id":"levelo_inurba_marseille","lat":43.309589,"lon":5.390258,"is_reserved":false,"is_disabled":false,"rental_uris":{"android":"levelo://app?vid=6ee78b2e-ceae-4d6d-9854-179328b36d1b","ios":"levelo://app?vid=6ee78b2e-ceae-4d6d-9854-179328b36d1b"},"vehicle_type_id":"4","last_reported":1683468307,"current_range_meters":31200,"station_id":"ce4bgup2rcd13ifvqco0","pricing_plan_id":"free"},{"bike_id":"d19ed887-5f71-4636-9981-427fb5ac8e3a","system_id":"levelo_inurba_marseille","lat":43.309589,"lon":5.390258,"is_reserved":false,"is_disabled":false,"rental_uris":{"android":"levelo://app?vid=d19ed887-5f71-4636-9981-427fb5ac8e3a","ios":"levelo://app?vid=d19ed887-5f71-4636-9981-427fb5ac8e3a"},"vehicle_type_id":"4","last_reported":1683468307,"current_range_meters":30400,"station_id":"ce4bgup2rcd13ifvqco0","pricing_plan_id":"free"},{"bike_id":"232fdffd-2964-45a3-afae-56b499efa1bb","system_id":"levelo_inurba_marseille","lat":43.309589,"lon":5.390258,"is_reserved":false,"is_disabled":false,"rental_uris":{"android":"levelo://app?vid=232fdffd-2964-45a3-afae-56b499efa1bb","ios":"levelo://app?vid=232fdffd-2964-45a3-afae-56b499efa1bb"},"vehicle_type_id":"4","last_reported":1683468307,"current_range_meters":0,"station_id":"ce4bgup2rcd13ifvqco0","pricing_plan_id":"free"},{"bike_id":"0918daf3-8457-46aa-8ba1-2ae342bc591a","system_id":"levelo_inurba_marseille","lat":43.309589,"lon":5.390258,"is_reserved":false,"is_disabled":false,"rental_uris":{"android":"levelo://app?vid=0918daf3-8457-46aa-8ba1-2ae342bc591a","ios":"levelo://app?vid=0918daf3-8457-46aa-8ba1-2ae342bc591a"},"vehicle_type_id":"4","last_reported":1683468307,"current_range_meters":12000,"station_id":"ce4bgup2rcd13ifvqco0","pricing_plan_id":"free"},{"bike_id":"4bc63d4a-fe58-46e0-abce-76a18aa85f38","system_id":"levelo_inurba_marseille","lat":43.309589,"lon":5.390258,"is_reserved":false,"is_disabled":false,"rental_uris":{"android":"levelo://app?vid=4bc63d4a-fe58-46e0-abce-76a18aa85f38","ios":"levelo://app?vid=4bc63d4a-fe58-46e0-abce-76a18aa85f38"},"vehicle_type_id":"4","last_reported":1683468307,"current_range_meters":28000,"station_id":"ce4bgup2rcd13ifvqco0","pricing_plan_id":"free"},{"bike_id":"58dc19fe-9dc5-442d-8645-c158bceb372f","system_id":"levelo_inurba_marseille","lat":43.309589,"lon":5.390258,"is_reserved":false,"is_disabled":false,"rental_uris":{"android":"levelo://app?vid=58dc19fe-9dc5-442d-8645-c158bceb372f","ios":"levelo://app?vid=58dc19fe-9dc5-442d-8645-c158bceb372f"},"vehicle_type_id":"4","last_reported":1683468307,"current_range_meters":19600,"station_id":"ce4bgup2rcd13ifvqco0","pricing_plan_id":"free"},{"bike_id":"2e6f7f5a-1b2c-43dd-bb35-a59336b7d4bc","system_id":"levelo_inurba_marseille","lat":43.309589,"lon":5.390258,"is_reserved":false,"is_disabled":false,"rental_uris":{"android":"levelo://app?vid=2e6f7f5a-1b2c-43dd-bb35-a59336b7d4bc","ios":"levelo://app?vid=2e6f7f5a-1b2c-43dd-bb35-a59336b7d4bc"},"vehicle_type_id":"4","last_reported":1683468307,"current_range_meters":28800,"station_id":"ce4bgup2rcd13ifvqco0","pricing_plan_id":"free"},{"bike_id":"3cc3142b-80b4-4cf1-9880-2f35cd7c2654","system_id":"levelo_inurba_marseille","lat":43.309589,"lon":5.390258,"is_reserved":false,"is_disabled":false,"rental_uris":{"android":"levelo://app?vid=3cc3142b-80b4-4cf1-9880-2f35cd7c2654","ios":"levelo://app?vid=3cc3142b-80b4-4cf1-9880-2f35cd7c2654"},"vehicle_type_id":"4","last_reported":1683468307,"current_range_meters":31600,"station_id":"ce4bgup2rcd13ifvqco0","pricing_plan_id":"free"},{"bike_id":"d3e495e3-ae12-4c3d-bd88-31682144c563","system_id":"levelo_inurba_marseille","lat":43.317557,"lon":5.390173,"is_reserved":false,"is_disabled":false,"rental_uris":{"android":"levelo://app?vid=d3e495e3-ae12-4c3d-bd88-31682144c563","ios":"levelo://app?vid=d3e495e3-ae12-4c3d-bd88-31682144c563"},"vehicle_type_id":"4","last_reported":1683468307,"current_range_meters":30800,"station_id":"ce4bhqp2rcd13ifvqhng","pricing_plan_id":"free"},{"bike_id":"165cf4ec-ee3c-4a5c-929b-636fc1f79c2d","system_id":"levelo_inurba_marseille","lat":43.317557,"lon":5.390173,"is_reserved":false,"is_disabled":false,"rental_uris":{"android":"levelo://app?vid=165cf4ec-ee3c-4a5c-929b-636fc1f79c2d","ios":"levelo://app?vid=165cf4ec-ee3c-4a5c-929b-636fc1f79c2d"},"vehicle_type_id":"4","last_reported":1683468307,"current_range_meters":30000,"station_id":"ce4bhqp2rcd13ifvqhng","pricing_plan_id":"free"},{"bike_id":"5e26388f-afcc-4ebc-9b1c-d20adac7f39a","system_id":"levelo_inurba_marseille","lat":43.317557,"lon":5.390173,"is_reserved":false,"is_disabled":false,"rental_uris":{"android":"levelo://app?vid=5e26388f-afcc-4ebc-9b1c-d20adac7f39a","ios":"levelo://app?vid=5e26388f-afcc-4ebc-9b1c-d20adac7f39a"},"vehicle_type_id":"4","last_reported":1683468307,"current_range_meters":29600,"station_id":"ce4bhqp2rcd13ifvqhng","pricing_plan_id":"free"},{"bike_id":"f08733ad-a319-4372-a7a6-c6249a61033f","system_id":"levelo_inurba_marseille","lat":43.317557,"lon":5.390173,"is_reserved":false,"is_disabled":false,"rental_uris":{"android":"levelo://app?vid=f08733ad-a319-4372-a7a6-c6249a61033f","ios":"levelo://app?vid=f08733ad-a319-4372-a7a6-c6249a61033f"},"vehicle_type_id":"4","last_reported":1683468307,"current_range_meters":30000,"station_id":"ce4bhqp2rcd13ifvqhng","pricing_plan_id":"free"},{"bike_id":"cd046a1d-2998-45d5-ab7f-aa731ed79927","system_id":"levelo_inurba_marseille","lat":43.295748,"lon":5.37522,"is_reserved":false,"is_disabled":false,"rental_uris":{"android":"levelo://app?vid=cd046a1d-2998-45d5-ab7f-aa731ed79927","ios":"levelo://app?vid=cd046a1d-2998-45d5-ab7f-aa731ed79927"},"vehicle_type_id":"4","last_reported":1683468307,"current_range_meters":14000,"station_id":"ce4bgh92rcd13ifvqb50","pricing_plan_id":"free"},{"bike_id":"4d898d17-847f-4531-a006-19bca8055921","system_id":"levelo_inurba_marseille","lat":43.32303,"lon":5.38719,"is_reserved":false,"is_disabled":false,"rental_uris":{"android":"levelo://app?vid=4d898d17-847f-4531-a006-19bca8055921","ios":"levelo://app?vid=4d898d17-847f-4531-a006-19bca8055921"},"vehicle_type_id":"4","last_reported":1683468307,"current_range_meters":20400,"station_id":"","pricing_plan_id":"free"},{"bike_id":"9fb17b51-ca52-4a39-8113-a902bee9de7c","system_id":"levelo_inurba_marseille","lat":43.295748,"lon":5.37522,"is_reserved":false,"is_disabled":false,"rental_uris":{"android":"levelo://app?vid=9fb17b51-ca52-4a39-8113-a902bee9de7c","ios":"levelo://app?vid=9fb17b51-ca52-4a39-8113-a902bee9de7c"},"vehicle_type_id":"4","last_reported":1683468307,"current_range_meters":25200,"station_id":"ce4bgh92rcd13ifvqb50","pricing_plan_id":"free"},{"bike_id":"79a57e64-f00e-41a3-a511-84a93bfc9a81","system_id":"levelo_inurba_marseille","lat":43.304274,"lon":5.388873,"is_reserved":false,"is_disabled":false,"rental_uris":{"android":"levelo://app?vid=79a57e64-f00e-41a3-a511-84a93bfc9a81","ios":"levelo://app?vid=79a57e64-f00e-41a3-a511-84a93bfc9a81"},"vehicle_type_id":"4","last_reported":1683468307,"current_range_meters":17600,"station_id":"ce4bgk12rcd13ifvqbi0","pricing_plan_id":"free"},{"bike_id":"1e1a64cd-3597-4164-858f-3cfa968a1e2f","system_id":"levelo_inurba_marseille","lat":43.304274,"lon":5.388873,"is_reserved":false,"is_disabled":false,"rental_uris":{"android":"levelo://app?vid=1e1a64cd-3597-4164-858f-3cfa968a1e2f","ios":"levelo://app?vid=1e1a64cd-3597-4164-858f-3cfa968a1e2f"},"vehicle_type_id":"4","last_reported":1683468307,"current_range_meters":17600,"station_id":"ce4bgk12rcd13ifvqbi0","pricing_plan_id":"free"},{"bike_id":"f0dcfd84-4222-444a-b26d-9f99a892695b","system_id":"levelo_inurba_marseille","lat":43.31449,"lon":5.39275,"is_reserved":false,"is_disabled":false,"rental_uris":{"android":"levelo://app?vid=f0dcfd84-4222-444a-b26d-9f99a892695b","ios":"levelo://app?vid=f0dcfd84-4222-444a-b26d-9f99a892695b"},"vehicle_type_id":"4","last_reported":1683468307,"current_range_meters":2400,"station_id":"","pricing_plan_id":"free"},{"bike_id":"2d4aa5ad-14b4-4c14-b500-9fbd7e7f82c6","system_id":"levelo_inurba_marseille","lat":43.29231,"lon":5.36852,"is_reserved":false,"is_disabled":false,"rental_uris":{"android":"levelo://app?vid=2d4aa5ad-14b4-4c14-b500-9fbd7e7f82c6","ios":"levelo://app?vid=2d4aa5ad-14b4-4c14-b500-9fbd7e7f82c6"},"vehicle_type_id":"4","last_reported":1683468307,"current_range_meters":14000,"station_id":"ce4bhbp2rcd13ifvqerg","pricing_plan_id":"free"},{"bike_id":"54d608b2-4387-45f2-bb59-baac1b6ab9be","system_id":"levelo_inurba_marseille","lat":43.305994,"lon":5.393687,"is_reserved":false,"is_disabled":false,"rental_uris":{"android":"levelo://app?vid=54d608b2-4387-45f2-bb59-baac1b6ab9be","ios":"levelo://app?vid=54d608b2-4387-45f2-bb59-baac1b6ab9be"},"vehicle_type_id":"4","last_reported":1683468307,"current_range_meters":0,"station_id":"ce4bh0p2rcd13ifvqd80","pricing_plan_id":"free"},{"bike_id":"fae407e4-ca0e-4a84-bbff-5b6fb453fa86","system_id":"levelo_inurba_marseille","lat":43.302992,"lon":5.392136,"is_reserved":false,"is_disabled":false,"rental_uris":{"android":"levelo://app?vid=fae407e4-ca0e-4a84-bbff-5b6fb453fa86","ios":"levelo://app?vid=fae407e4-ca0e-4a84-bbff-5b6fb453fa86"},"vehicle_type_id":"4","last_reported":1683468307,"current_range_meters":15600,"station_id":"ce4bgkh2rcd13ifvqbk0","pricing_plan_id":"free"},{"bike_id":"e53d58b6-e491-42f8-ae6d-3bf37054bd12","system_id":"levelo_inurba_marseille","lat":43.29219,"lon":5.35989,"is_reserved":false,"is_disabled":false,"rental_uris":{"android":"levelo://app?vid=e53d58b6-e491-42f8-ae6d-3bf37054bd12","ios":"levelo://app?vid=e53d58b6-e491-42f8-ae6d-3bf37054bd12"},"vehicle_type_id":"4","last_reported":1683468307,"current_range_meters":15200,"station_id":"ce4bhbh2rcd13ifvqepg","pricing_plan_id":"free"},{"bike_id":"d58a99ac-0d30-4307-9735-2524c620b129","system_id":"levelo_inurba_marseille","lat":43.298764,"lon":5.388973,"is_reserved":false,"is_disabled":false,"rental_uris":{"android":"levelo://app?vid=d58a99ac-0d30-4307-9735-2524c620b129","ios":"levelo://app?vid=d58a99ac-0d30-4307-9735-2524c620b129"},"vehicle_type_id":"4","last_reported":1683468307,"current_range_meters":4800,"station_id":"ce4bh392rcd13ifvqdl0","pricing_plan_id":"free"},{"bike_id":"1eb779c2-d11b-4517-b7dc-7cd1fe8040e8","system_id":"levelo_inurba_marseille","lat":43.298764,"lon":5.388973,"is_reserved":false,"is_disabled":false,"rental_uris":{"android":"levelo://app?vid=1eb779c2-d11b-4517-b7dc-7cd1fe8040e8","ios":"levelo://app?vid=1eb779c2-d11b-4517-b7dc-7cd1fe8040e8"},"vehicle_type_id":"4","last_reported":1683468307,"current_range_meters":26000,"station_id":"ce4bh392rcd13ifvqdl0","pricing_plan_id":"free"},{"bike_id":"b15919e0-8761-49aa-a3af-fd68564acb6a","system_id":"levelo_inurba_marseille","lat":43.309038,"lon":5.396546,"is_reserved":false,"is_disabled":false,"rental_uris":{"android":"levelo://app?vid=b15919e0-8761-49aa-a3af-fd68564acb6a","ios":"levelo://app?vid=b15919e0-8761-49aa-a3af-fd68564acb6a"},"vehicle_type_id":"4","last_reported":1683468307,"current_range_meters":30000,"station_id":"ce4bh012rcd13ifvqcv0","pricing_plan_id":"free"},{"bike_id":"90cc782d-be20-41fa-9baa-2dfb851cd186","system_id":"levelo_inurba_marseille","lat":43.309038,"lon":5.396546,"is_reserved":false,"is_disabled":false,"rental_uris":{"android":"levelo://app?vid=90cc782d-be20-41fa-9baa-2dfb851cd186","ios":"levelo://app?vid=90cc782d-be20-41fa-9baa-2dfb851cd186"},"vehicle_type_id":"4","last_reported":1683468307,"current_range_meters":27600,"station_id":"ce4bh012rcd13ifvqcv0","pricing_plan_id":"free"},{"bike_id":"52702192-13e7-43c8-9548-69f677554ad3","system_id":"levelo_inurba_marseille","lat":43.309038,"lon":5.396546,"is_reserved":false,"is_disabled":false,"rental_uris":{"android":"levelo://app?vid=52702192-13e7-43c8-9548-69f677554ad3","ios":"levelo://app?vid=52702192-13e7-43c8-9548-69f677554ad3"},"vehicle_type_id":"4","last_reported":1683468307,"current_range_meters":28800,"station_id":"ce4bh012rcd13ifvqcv0","pricing_plan_id":"free"},{"bike_id":"f284105d-7da3-4fd6-93ae-0c6926554032","system_id":"levelo_inurba_marseille","lat":43.30886,"lon":5.39644,"is_reserved":false,"is_disabled":false,"rental_uris":{"android":"levelo://app?vid=f284105d-7da3-4fd6-93ae-0c6926554032","ios":"levelo://app?vid=f284105d-7da3-4fd6-93ae-0c6926554032"},"vehicle_type_id":"4","last_reported":1683468307,"current_range_meters":13600,"station_id":"ce4bh012rcd13ifvqcv0","pricing_plan_id":"free"},{"bike_id":"829cd36e-405b-4bf0-9fa8-f9dc567e5b73","system_id":"levelo_inurba_marseille","lat":43.309038,"lon":5.396546,"is_reserved":false,"is_disabled":false,"rental_uris":{"android":"levelo://app?vid=829cd36e-405b-4bf0-9fa8-f9dc567e5b73","ios":"levelo://app?vid=829cd36e-405b-4bf0-9fa8-f9dc567e5b73"},"vehicle_type_id":"4","last_reported":1683468307,"current_range_meters":18000,"station_id":"ce4bh012rcd13ifvqcv0","pricing_plan_id":"free"},{"bike_id":"8a5d0a5c-0b51-4e37-a153-ccf6927fbe45","system_id":"levelo_inurba_marseille","lat":43.309038,"lon":5.396546,"is_reserved":false,"is_disabled":false,"rental_uris":{"android":"levelo://app?vid=8a5d0a5c-0b51-4e37-a153-ccf6927fbe45","ios":"levelo://app?vid=8a5d0a5c-0b51-4e37-a153-ccf6927fbe45"},"vehicle_type_id":"4","last_reported":1683468307,"current_range_meters":11600,"station_id":"ce4bh012rcd13ifvqcv0","pricing_plan_id":"free"},{"bike_id":"b9222282-0eea-454e-ac6f-a29255def6a3","system_id":"levelo_inurba_marseille","lat":43.29053,"lon":5.37174,"is_reserved":false,"is_disabled":false,"rental_uris":{"android":"levelo://app?vid=b9222282-0eea-454e-ac6f-a29255def6a3","ios":"levelo://app?vid=b9222282-0eea-454e-ac6f-a29255def6a3"},"vehicle_type_id":"4","last_reported":1683468307,"current_range_meters":2800,"station_id":"","pricing_plan_id":"free"},{"bike_id":"74b3fa98-531c-451f-b814-c77672feee44","system_id":"levelo_inurba_marseille","lat":43.284534,"lon":5.358662,"is_reserved":false,"is_disabled":false,"rental_uris":{"android":"levelo://app?vid=74b3fa98-531c-451f-b814-c77672feee44","ios":"levelo://app?vid=74b3fa98-531c-451f-b814-c77672feee44"},"vehicle_type_id":"4","last_reported":1683468307,"current_range_meters":0,"station_id":"ce4bhah2rcd13ifvqei0","pricing_plan_id":"free"},{"bike_id":"be0624c6-b8c2-4959-bdb4-ad9dd40ec80a","system_id":"levelo_inurba_marseille","lat":43.294153,"lon":5.386305,"is_reserved":false,"is_disabled":false,"rental_uris":{"android":"levelo://app?vid=be0624c6-b8c2-4959-bdb4-ad9dd40ec80a","ios":"levelo://app?vid=be0624c6-b8c2-4959-bdb4-ad9dd40ec80a"},"vehicle_type_id":"4","last_reported":1683468307,"current_range_meters":0,"station_id":"ce4bh2h2rcd13ifvqdh0","pricing_plan_id":"free"},{"bike_id":"d6233f8b-531d-433b-b8e9-589e3920c098","system_id":"levelo_inurba_marseille","lat":43.33042,"lon":5.38909,"is_reserved":false,"is_disabled":false,"rental_uris":{"android":"levelo://app?vid=d6233f8b-531d-433b-b8e9-589e3920c098","ios":"levelo://app?vid=d6233f8b-531d-433b-b8e9-589e3920c098"},"vehicle_type_id":"4","last_reported":1683468307,"current_range_meters":29600,"station_id":"ce4bhr92rcd13ifvqhrg","pricing_plan_id":"free"},{"bike_id":"496fc879-c6a2-4335-9eab-2fdd6a6f8bf1","system_id":"levelo_inurba_marseille","lat":43.33039,"lon":5.38918,"is_reserved":false,"is_disabled":false,"rental_uris":{"android":"levelo://app?vid=496fc879-c6a2-4335-9eab-2fdd6a6f8bf1","ios":"levelo://app?vid=496fc879-c6a2-4335-9eab-2fdd6a6f8bf1"},"vehicle_type_id":"4","last_reported":1683468307,"current_range_meters":26800,"station_id":"ce4bhr92rcd13ifvqhrg","pricing_plan_id":"free"},{"bike_id":"26ed28fd-3752-4a29-b51b-8fbb60d8028f","system_id":"levelo_inurba_marseille","lat":43.290104,"lon":5.356111,"is_reserved":false,"is_disabled":false,"rental_uris":{"android":"levelo://app?vid=26ed28fd-3752-4a29-b51b-8fbb60d8028f","ios":"levelo://app?vid=26ed28fd-3752-4a29-b51b-8fbb60d8028f"},"vehicle_type_id":"4","last_reported":1683468307,"current_range_meters":12000,"station_id":"ce4bhb92rcd13ifvqen0","pricing_plan_id":"free"},{"bike_id":"10a8eeb7-4f93-4e8d-81bd-f27d3d4ef515","system_id":"levelo_inurba_marseille","lat":43.33041,"lon":5.3892,"is_reserved":false,"is_disabled":false,"rental_uris":{"android":"levelo://app?vid=10a8eeb7-4f93-4e8d-81bd-f27d3d4ef515","ios":"levelo://app?vid=10a8eeb7-4f93-4e8d-81bd-f27d3d4ef515"},"vehicle_type_id":"4","last_reported":1683468307,"current_range_meters":21600,"station_id":"ce4bhr92rcd13ifvqhrg","pricing_plan_id":"free"},{"bike_id":"dfbfafb9-2ad9-46b6-94fa-a543d7a958b4","system_id":"levelo_inurba_marseille","lat":43.290104,"lon":5.356111,"is_reserved":false,"is_disabled":false,"rental_uris":{"android":"levelo://app?vid=dfbfafb9-2ad9-46b6-94fa-a543d7a958b4","ios":"levelo://app?vid=dfbfafb9-2ad9-46b6-94fa-a543d7a958b4"},"vehicle_type_id":"4","last_reported":1683468307,"current_range_meters":28000,"station_id":"ce4bhb92rcd13ifvqen0","pricing_plan_id":"free"},{"bike_id":"7af93610-4a8a-41b2-8379-23470d521caa","system_id":"levelo_inurba_marseille","lat":43.290104,"lon":5.356111,"is_reserved":false,"is_disabled":false,"rental_uris":{"android":"levelo://app?vid=7af93610-4a8a-41b2-8379-23470d521caa","ios":"levelo://app?vid=7af93610-4a8a-41b2-8379-23470d521caa"},"vehicle_type_id":"4","last_reported":1683468307,"current_range_meters":11200,"station_id":"ce4bhb92rcd13ifvqen0","pricing_plan_id":"free"},{"bike_id":"d08adcd2-adfe-466d-8995-2b7da753f3ac","system_id":"levelo_inurba_marseille","lat":43.290103,"lon":5.356114,"is_reserved":false,"is_disabled":false,"rental_uris":{"android":"levelo://app?vid=d08adcd2-adfe-466d-8995-2b7da753f3ac","ios":"levelo://app?vid=d08adcd2-adfe-466d-8995-2b7da753f3ac"},"vehicle_type_id":"4","last_reported":1683468307,"current_range_meters":20400,"station_id":"ce4bhb92rcd13ifvqen0","pricing_plan_id":"free"},{"bike_id":"a3129ed4-01d6-4c62-90f5-6b18c95a75e2","system_id":"levelo_inurba_marseille","lat":43.290104,"lon":5.356111,"is_reserved":false,"is_disabled":false,"rental_uris":{"android":"levelo://app?vid=a3129ed4-01d6-4c62-90f5-6b18c95a75e2","ios":"levelo://app?vid=a3129ed4-01d6-4c62-90f5-6b18c95a75e2"},"vehicle_type_id":"4","last_reported":1683468307,"current_range_meters":19600,"station_id":"ce4bhb92rcd13ifvqen0","pricing_plan_id":"free"},{"bike_id":"e016a6df-5d96-4afe-a3ee-2f276ae203af","system_id":"levelo_inurba_marseille","lat":43.28856,"lon":5.358371,"is_reserved":false,"is_disabled":false,"rental_uris":{"android":"levelo://app?vid=e016a6df-5d96-4afe-a3ee-2f276ae203af","ios":"levelo://app?vid=e016a6df-5d96-4afe-a3ee-2f276ae203af"},"vehicle_type_id":"4","last_reported":1683468307,"current_range_meters":4400,"station_id":"ce4bhb12rcd13ifvqem0","pricing_plan_id":"free"},{"bike_id":"0b72592e-156f-41d9-a2fb-d9d6f68a0e47","system_id":"levelo_inurba_marseille","lat":43.28856,"lon":5.358371,"is_reserved":false,"is_disabled":false,"rental_uris":{"android":"levelo://app?vid=0b72592e-156f-41d9-a2fb-d9d6f68a0e47","ios":"levelo://app?vid=0b72592e-156f-41d9-a2fb-d9d6f68a0e47"},"vehicle_type_id":"4","last_reported":1683468307,"current_range_meters":15200,"station_id":"ce4bhb12rcd13ifvqem0","pricing_plan_id":"free"},{"bike_id":"20083ae5-f09f-4d10-9758-3cdd331d6a45","system_id":"levelo_inurba_marseille","lat":43.33736,"lon":5.37455,"is_reserved":false,"is_disabled":false,"rental_uris":{"android":"levelo://app?vid=20083ae5-f09f-4d10-9758-3cdd331d6a45","ios":"levelo://app?vid=20083ae5-f09f-4d10-9758-3cdd331d6a45"},"vehicle_type_id":"4","last_reported":1683468307,"current_range_meters":11200,"station_id":"","pricing_plan_id":"free"},{"bike_id":"610f4cf2-2ffb-4136-95ed-3579f336a8ea","system_id":"levelo_inurba_marseille","lat":43.3375,"lon":5.3743,"is_reserved":false,"is_disabled":false,"rental_uris":{"android":"levelo://app?vid=610f4cf2-2ffb-4136-95ed-3579f336a8ea","ios":"levelo://app?vid=610f4cf2-2ffb-4136-95ed-3579f336a8ea"},"vehicle_type_id":"4","last_reported":1683468307,"current_range_meters":23200,"station_id":"","pricing_plan_id":"free"},{"bike_id":"a635d6ef-5fe7-46b9-be74-b07131763433","system_id":"levelo_inurba_marseille","lat":43.3065,"lon":5.40072,"is_reserved":false,"is_disabled":false,"rental_uris":{"android":"levelo://app?vid=a635d6ef-5fe7-46b9-be74-b07131763433","ios":"levelo://app?vid=a635d6ef-5fe7-46b9-be74-b07131763433"},"vehicle_type_id":"4","last_reported":1683468307,"current_range_meters":31200,"station_id":"ce4bh112rcd13ifvqda0","pricing_plan_id":"free"},{"bike_id":"34320fce-24bb-4291-be42-2c361aed67f0","system_id":"levelo_inurba_marseille","lat":43.33755,"lon":5.37444,"is_reserved":false,"is_disabled":false,"rental_uris":{"android":"levelo://app?vid=34320fce-24bb-4291-be42-2c361aed67f0","ios":"levelo://app?vid=34320fce-24bb-4291-be42-2c361aed67f0"},"vehicle_type_id":"4","last_reported":1683468307,"current_range_meters":19600,"station_id":"ce4rr2p2rcd13i802rgg","pricing_plan_id":"free"},{"bike_id":"86b28340-532d-4ab8-ac19-19ffd45b0568","system_id":"levelo_inurba_marseille","lat":43.33752,"lon":5.37476,"is_reserved":false,"is_disabled":false,"rental_uris":{"android":"levelo://app?vid=86b28340-532d-4ab8-ac19-19ffd45b0568","ios":"levelo://app?vid=86b28340-532d-4ab8-ac19-19ffd45b0568"},"vehicle_type_id":"4","last_reported":1683468307,"current_range_meters":30800,"station_id":"","pricing_plan_id":"free"},{"bike_id":"9070207c-ce23-4a97-b89f-da673252f922","system_id":"levelo_inurba_marseille","lat":43.33752,"lon":5.37486,"is_reserved":false,"is_disabled":false,"rental_uris":{"android":"levelo://app?vid=9070207c-ce23-4a97-b89f-da673252f922","ios":"levelo://app?vid=9070207c-ce23-4a97-b89f-da673252f922"},"vehicle_type_id":"4","last_reported":1683468307,"current_range_meters":22400,"station_id":"","pricing_plan_id":"free"},{"bike_id":"d69fdac5-3b5b-44af-914f-6345a9172306","system_id":"levelo_inurba_marseille","lat":43.30642,"lon":5.401031,"is_reserved":false,"is_disabled":false,"rental_uris":{"android":"levelo://app?vid=d69fdac5-3b5b-44af-914f-6345a9172306","ios":"levelo://app?vid=d69fdac5-3b5b-44af-914f-6345a9172306"},"vehicle_type_id":"4","last_reported":1683468307,"current_range_meters":0,"station_id":"ce4bh112rcd13ifvqda0","pricing_plan_id":"free"},{"bike_id":"b0d5dc25-2447-4fbb-a316-99eb6286984d","system_id":"levelo_inurba_marseille","lat":43.30642,"lon":5.401031,"is_reserved":false,"is_disabled":false,"rental_uris":{"android":"levelo://app?vid=b0d5dc25-2447-4fbb-a316-99eb6286984d","ios":"levelo://app?vid=b0d5dc25-2447-4fbb-a316-99eb6286984d"},"vehicle_type_id":"4","last_reported":1683468307,"current_range_meters":3600,"station_id":"ce4bh112rcd13ifvqda0","pricing_plan_id":"free"},{"bike_id":"db84b57a-c242-4d31-93f3-e9f12005c4b3","system_id":"levelo_inurba_marseille","lat":43.33762,"lon":5.37494,"is_reserved":false,"is_disabled":false,"rental_uris":{"android":"levelo://app?vid=db84b57a-c242-4d31-93f3-e9f12005c4b3","ios":"levelo://app?vid=db84b57a-c242-4d31-93f3-e9f12005c4b3"},"vehicle_type_id":"4","last_reported":1683468307,"current_range_meters":23200,"station_id":"","pricing_plan_id":"free"},{"bike_id":"c452a78d-8a25-4dac-a034-b406e8dd2a51","system_id":"levelo_inurba_marseille","lat":43.28775,"lon":5.35939,"is_reserved":false,"is_disabled":false,"rental_uris":{"android":"levelo://app?vid=c452a78d-8a25-4dac-a034-b406e8dd2a51","ios":"levelo://app?vid=c452a78d-8a25-4dac-a034-b406e8dd2a51"},"vehicle_type_id":"4","last_reported":1683468307,"current_range_meters":0,"station_id":"","pricing_plan_id":"free"},{"bike_id":"d8f62e92-ecf1-422b-be65-753a51b15db3","system_id":"levelo_inurba_marseille","lat":43.301117,"lon":5.398795,"is_reserved":false,"is_disabled":false,"rental_uris":{"android":"levelo://app?vid=d8f62e92-ecf1-422b-be65-753a51b15db3","ios":"levelo://app?vid=d8f62e92-ecf1-422b-be65-753a51b15db3"},"vehicle_type_id":"4","last_reported":1683468307,"current_range_meters":800,"station_id":"ce4bh0h2rcd13ifvqd40","pricing_plan_id":"free"},{"bike_id":"b7a30867-cc46-4871-ab0b-2284abba48b7","system_id":"levelo_inurba_marseille","lat":43.286591,"lon":5.363346,"is_reserved":false,"is_disabled":false,"rental_uris":{"android":"levelo://app?vid=b7a30867-cc46-4871-ab0b-2284abba48b7","ios":"levelo://app?vid=b7a30867-cc46-4871-ab0b-2284abba48b7"},"vehicle_type_id":"4","last_reported":1683468307,"current_range_meters":7200,"station_id":"ce4bhah2rcd13ifvqej0","pricing_plan_id":"free"},{"bike_id":"e3ced623-2b00-4648-b71b-e7015f5cc6fb","system_id":"levelo_inurba_marseille","lat":43.298681,"lon":5.397225,"is_reserved":false,"is_disabled":false,"rental_uris":{"android":"levelo://app?vid=e3ced623-2b00-4648-b71b-e7015f5cc6fb","ios":"levelo://app?vid=e3ced623-2b00-4648-b71b-e7015f5cc6fb"},"vehicle_type_id":"4","last_reported":1683468307,"current_range_meters":18000,"station_id":"ce4bh0h2rcd13ifvqd50","pricing_plan_id":"free"},{"bike_id":"ab7fe9fb-c00f-4eb8-af34-82f7979106a5","system_id":"levelo_inurba_marseille","lat":43.286593,"lon":5.363346,"is_reserved":false,"is_disabled":false,"rental_uris":{"android":"levelo://app?vid=ab7fe9fb-c00f-4eb8-af34-82f7979106a5","ios":"levelo://app?vid=ab7fe9fb-c00f-4eb8-af34-82f7979106a5"},"vehicle_type_id":"4","last_reported":1683468307,"current_range_meters":16400,"station_id":"ce4bhah2rcd13ifvqej0","pricing_plan_id":"free"},{"bike_id":"1fcba961-d9b5-4e33-998d-03d9f6ccc218","system_id":"levelo_inurba_marseille","lat":43.302759,"lon":5.400793,"is_reserved":false,"is_disabled":false,"rental_uris":{"android":"levelo://app?vid=1fcba961-d9b5-4e33-998d-03d9f6ccc218","ios":"levelo://app?vid=1fcba961-d9b5-4e33-998d-03d9f6ccc218"},"vehicle_type_id":"4","last_reported":1683468307,"current_range_meters":0,"station_id":"ce4bgvh2rcd13ifvqcs0","pricing_plan_id":"free"},{"bike_id":"8c043ccb-8e80-4118-a04c-0f1d263f51f3","system_id":"levelo_inurba_marseille","lat":43.286039,"lon":5.370681,"is_reserved":false,"is_disabled":false,"rental_uris":{"android":"levelo://app?vid=8c043ccb-8e80-4118-a04c-0f1d263f51f3","ios":"levelo://app?vid=8c043ccb-8e80-4118-a04c-0f1d263f51f3"},"vehicle_type_id":"4","last_reported":1683468307,"current_range_meters":31200,"station_id":"ce4bht12rcd13ifvqi60","pricing_plan_id":"free"},{"bike_id":"18898f7a-ba0a-4a75-84b0-0d92856f7e1f","system_id":"levelo_inurba_marseille","lat":43.287185,"lon":5.379373,"is_reserved":false,"is_disabled":false,"rental_uris":{"android":"levelo://app?vid=18898f7a-ba0a-4a75-84b0-0d92856f7e1f","ios":"levelo://app?vid=18898f7a-ba0a-4a75-84b0-0d92856f7e1f"},"vehicle_type_id":"4","last_reported":1683468307,"current_range_meters":0,"station_id":"ce4bh9p2rcd13ifvqec0","pricing_plan_id":"free"},{"bike_id":"9b58c03a-e056-4d5d-9897-00689f1be5e2","system_id":"levelo_inurba_marseille","lat":43.33473,"lon":5.38999,"is_reserved":false,"is_disabled":false,"rental_uris":{"android":"levelo://app?vid=9b58c03a-e056-4d5d-9897-00689f1be5e2","ios":"levelo://app?vid=9b58c03a-e056-4d5d-9897-00689f1be5e2"},"vehicle_type_id":"4","last_reported":1683468307,"current_range_meters":3200,"station_id":"","pricing_plan_id":"free"},{"bike_id":"27865f6e-c046-4416-9233-48156b6bae2c","system_id":"levelo_inurba_marseille","lat":43.33482,"lon":5.38984,"is_reserved":false,"is_disabled":false,"rental_uris":{"android":"levelo://app?vid=27865f6e-c046-4416-9233-48156b6bae2c","ios":"levelo://app?vid=27865f6e-c046-4416-9233-48156b6bae2c"},"vehicle_type_id":"4","last_reported":1683468307,"current_range_meters":25600,"station_id":"","pricing_plan_id":"free"},{"bike_id":"3fa5d881-c9bd-4be1-a99f-04d5a7e01a3c","system_id":"levelo_inurba_marseille","lat":43.291994,"lon":5.392907,"is_reserved":false,"is_disabled":false,"rental_uris":{"android":"levelo://app?vid=3fa5d881-c9bd-4be1-a99f-04d5a7e01a3c","ios":"levelo://app?vid=3fa5d881-c9bd-4be1-a99f-04d5a7e01a3c"},"vehicle_type_id":"4","last_reported":1683468307,"current_range_meters":9200,"station_id":"ce4bh192rcd13ifvqdd0","pricing_plan_id":"free"},{"bike_id":"b5694160-8d33-41f3-8464-8a5c14340f01","system_id":"levelo_inurba_marseille","lat":43.28466,"lon":5.35889,"is_reserved":false,"is_disabled":false,"rental_uris":{"android":"levelo://app?vid=b5694160-8d33-41f3-8464-8a5c14340f01","ios":"levelo://app?vid=b5694160-8d33-41f3-8464-8a5c14340f01"},"vehicle_type_id":"4","last_reported":1683468307,"current_range_meters":5200,"station_id":"ce4bhah2rcd13ifvqei0","pricing_plan_id":"free"},{"bike_id":"244c99dc-e060-4c46-acb5-16522ae4bb1c","system_id":"levelo_inurba_marseille","lat":43.284534,"lon":5.358662,"is_reserved":false,"is_disabled":false,"rental_uris":{"android":"levelo://app?vid=244c99dc-e060-4c46-acb5-16522ae4bb1c","ios":"levelo://app?vid=244c99dc-e060-4c46-acb5-16522ae4bb1c"},"vehicle_type_id":"4","last_reported":1683468307,"current_range_meters":19200,"station_id":"ce4bhah2rcd13ifvqei0","pricing_plan_id":"free"},{"bike_id":"ac03550f-c253-478d-a3a7-c8c9fbefc703","system_id":"levelo_inurba_marseille","lat":43.284534,"lon":5.358662,"is_reserved":false,"is_disabled":false,"rental_uris":{"android":"levelo://app?vid=ac03550f-c253-478d-a3a7-c8c9fbefc703","ios":"levelo://app?vid=ac03550f-c253-478d-a3a7-c8c9fbefc703"},"vehicle_type_id":"4","last_reported":1683468307,"current_range_meters":22800,"station_id":"ce4bhah2rcd13ifvqei0","pricing_plan_id":"free"},{"bike_id":"51713591-f7cb-4daa-8bf7-0d412a754c14","system_id":"levelo_inurba_marseille","lat":43.284534,"lon":5.358662,"is_reserved":false,"is_disabled":false,"rental_uris":{"android":"levelo://app?vid=51713591-f7cb-4daa-8bf7-0d412a754c14","ios":"levelo://app?vid=51713591-f7cb-4daa-8bf7-0d412a754c14"},"vehicle_type_id":"4","last_reported":1683468307,"current_range_meters":0,"station_id":"ce4bhah2rcd13ifvqei0","pricing_plan_id":"free"},{"bike_id":"7d7c3b9f-df7b-4e64-8a84-1181f6b8ed86","system_id":"levelo_inurba_marseille","lat":43.284534,"lon":5.358662,"is_reserved":false,"is_disabled":false,"rental_uris":{"android":"levelo://app?vid=7d7c3b9f-df7b-4e64-8a84-1181f6b8ed86","ios":"levelo://app?vid=7d7c3b9f-df7b-4e64-8a84-1181f6b8ed86"},"vehicle_type_id":"4","last_reported":1683468307,"current_range_meters":4000,"station_id":"ce4bhah2rcd13ifvqei0","pricing_plan_id":"free"},{"bike_id":"213650da-fe63-414d-a41c-0a79a34dc217","system_id":"levelo_inurba_marseille","lat":43.285856,"lon":5.350771,"is_reserved":false,"is_disabled":false,"rental_uris":{"android":"levelo://app?vid=213650da-fe63-414d-a41c-0a79a34dc217","ios":"levelo://app?vid=213650da-fe63-414d-a41c-0a79a34dc217"},"vehicle_type_id":"4","last_reported":1683468307,"current_range_meters":19200,"station_id":"ce4bhch2rcd13ifvqeug","pricing_plan_id":"free"},{"bike_id":"7bf84d93-ddae-424b-9c4e-1495b47675e4","system_id":"levelo_inurba_marseille","lat":43.285856,"lon":5.350771,"is_reserved":false,"is_disabled":false,"rental_uris":{"android":"levelo://app?vid=7bf84d93-ddae-424b-9c4e-1495b47675e4","ios":"levelo://app?vid=7bf84d93-ddae-424b-9c4e-1495b47675e4"},"vehicle_type_id":"4","last_reported":1683468307,"current_range_meters":16000,"station_id":"ce4bhch2rcd13ifvqeug","pricing_plan_id":"free"},{"bike_id":"573c5cd8-0cc1-404a-bbda-84f7fb391c55","system_id":"levelo_inurba_marseille","lat":43.285856,"lon":5.350771,"is_reserved":false,"is_disabled":false,"rental_uris":{"android":"levelo://app?vid=573c5cd8-0cc1-404a-bbda-84f7fb391c55","ios":"levelo://app?vid=573c5cd8-0cc1-404a-bbda-84f7fb391c55"},"vehicle_type_id":"4","last_reported":1683468307,"current_range_meters":18400,"station_id":"ce4bhch2rcd13ifvqeug","pricing_plan_id":"free"},{"bike_id":"30bcb7ce-68ed-44bc-a0d5-2355bad0bf71","system_id":"levelo_inurba_marseille","lat":43.28615,"lon":5.35091,"is_reserved":false,"is_disabled":false,"rental_uris":{"android":"levelo://app?vid=30bcb7ce-68ed-44bc-a0d5-2355bad0bf71","ios":"levelo://app?vid=30bcb7ce-68ed-44bc-a0d5-2355bad0bf71"},"vehicle_type_id":"4","last_reported":1683468307,"current_range_meters":0,"station_id":"","pricing_plan_id":"free"},{"bike_id":"ee2f443c-4cf0-4f11-bd1a-f24e37897585","system_id":"levelo_inurba_marseille","lat":43.286595,"lon":5.386795,"is_reserved":false,"is_disabled":false,"rental_uris":{"android":"levelo://app?vid=ee2f443c-4cf0-4f11-bd1a-f24e37897585","ios":"levelo://app?vid=ee2f443c-4cf0-4f11-bd1a-f24e37897585"},"vehicle_type_id":"4","last_reported":1683468307,"current_range_meters":17600,"station_id":"ce4bh492rcd13ifvqdug","pricing_plan_id":"free"},{"bike_id":"50dff529-a461-4cdd-81cc-0b7b7916de6e","system_id":"levelo_inurba_marseille","lat":43.337168,"lon":5.391825,"is_reserved":false,"is_disabled":false,"rental_uris":{"android":"levelo://app?vid=50dff529-a461-4cdd-81cc-0b7b7916de6e","ios":"levelo://app?vid=50dff529-a461-4cdd-81cc-0b7b7916de6e"},"vehicle_type_id":"4","last_reported":1683468307,"current_range_meters":30400,"station_id":"ce4bhr92rcd13ifvqhsg","pricing_plan_id":"free"},{"bike_id":"69d83d05-dd7a-4552-9445-80fef6c5a8e5","system_id":"levelo_inurba_marseille","lat":43.337168,"lon":5.391825,"is_reserved":false,"is_disabled":false,"rental_uris":{"android":"levelo://app?vid=69d83d05-dd7a-4552-9445-80fef6c5a8e5","ios":"levelo://app?vid=69d83d05-dd7a-4552-9445-80fef6c5a8e5"},"vehicle_type_id":"4","last_reported":1683468307,"current_range_meters":31200,"station_id":"ce4bhr92rcd13ifvqhsg","pricing_plan_id":"free"},{"bike_id":"90fefa4d-bf6c-4e62-8594-ec1e43ae7025","system_id":"levelo_inurba_marseille","lat":43.337168,"lon":5.391825,"is_reserved":false,"is_disabled":false,"rental_uris":{"android":"levelo://app?vid=90fefa4d-bf6c-4e62-8594-ec1e43ae7025","ios":"levelo://app?vid=90fefa4d-bf6c-4e62-8594-ec1e43ae7025"},"vehicle_type_id":"4","last_reported":1683468307,"current_range_meters":27600,"station_id":"ce4bhr92rcd13ifvqhsg","pricing_plan_id":"free"},{"bike_id":"1e8b05a7-42f2-4dbc-b778-2844f62043cc","system_id":"levelo_inurba_marseille","lat":43.337168,"lon":5.391825,"is_reserved":false,"is_disabled":false,"rental_uris":{"android":"levelo://app?vid=1e8b05a7-42f2-4dbc-b778-2844f62043cc","ios":"levelo://app?vid=1e8b05a7-42f2-4dbc-b778-2844f62043cc"},"vehicle_type_id":"4","last_reported":1683468307,"current_range_meters":30000,"station_id":"ce4bhr92rcd13ifvqhsg","pricing_plan_id":"free"},{"bike_id":"f9b2e6fa-1568-4b31-8499-a12aee2ca3c0","system_id":"levelo_inurba_marseille","lat":43.33717,"lon":5.391857,"is_reserved":false,"is_disabled":false,"rental_uris":{"android":"levelo://app?vid=f9b2e6fa-1568-4b31-8499-a12aee2ca3c0","ios":"levelo://app?vid=f9b2e6fa-1568-4b31-8499-a12aee2ca3c0"},"vehicle_type_id":"4","last_reported":1683468307,"current_range_meters":20800,"station_id":"ce4bhr92rcd13ifvqhsg","pricing_plan_id":"free"},{"bike_id":"a6ca2d78-b704-48a1-8efc-c1d2dadf4f6c","system_id":"levelo_inurba_marseille","lat":43.33717,"lon":5.391857,"is_reserved":false,"is_disabled":false,"rental_uris":{"android":"levelo://app?vid=a6ca2d78-b704-48a1-8efc-c1d2dadf4f6c","ios":"levelo://app?vid=a6ca2d78-b704-48a1-8efc-c1d2dadf4f6c"},"vehicle_type_id":"4","last_reported":1683468307,"current_range_meters":31200,"station_id":"ce4bhr92rcd13ifvqhsg","pricing_plan_id":"free"},{"bike_id":"ad3cdfdb-0864-4cce-8a5d-05a05de94244","system_id":"levelo_inurba_marseille","lat":43.30092,"lon":5.40587,"is_reserved":false,"is_disabled":false,"rental_uris":{"android":"levelo://app?vid=ad3cdfdb-0864-4cce-8a5d-05a05de94244","ios":"levelo://app?vid=ad3cdfdb-0864-4cce-8a5d-05a05de94244"},"vehicle_type_id":"4","last_reported":1683468307,"current_range_meters":15600,"station_id":"","pricing_plan_id":"free"},{"bike_id":"013b6f21-4e28-49d5-a4a8-48d4e047abc8","system_id":"levelo_inurba_marseille","lat":43.284219,"lon":5.3497,"is_reserved":false,"is_disabled":false,"rental_uris":{"android":"levelo://app?vid=013b6f21-4e28-49d5-a4a8-48d4e047abc8","ios":"levelo://app?vid=013b6f21-4e28-49d5-a4a8-48d4e047abc8"},"vehicle_type_id":"4","last_reported":1683468307,"current_range_meters":15600,"station_id":"ce4bhbh2rcd13ifvqepg","pricing_plan_id":"free"},{"bike_id":"831ffae7-514a-43b6-898d-d10833010861","system_id":"levelo_inurba_marseille","lat":43.284219,"lon":5.3497,"is_reserved":false,"is_disabled":false,"rental_uris":{"android":"levelo://app?vid=831ffae7-514a-43b6-898d-d10833010861","ios":"levelo://app?vid=831ffae7-514a-43b6-898d-d10833010861"},"vehicle_type_id":"4","last_reported":1683468307,"current_range_meters":28800,"station_id":"ce4bhbh2rcd13ifvqepg","pricing_plan_id":"free"},{"bike_id":"d6731286-341d-4d52-a979-ba4fb471c519","system_id":"levelo_inurba_marseille","lat":43.28428,"lon":5.34982,"is_reserved":false,"is_disabled":false,"rental_uris":{"android":"levelo://app?vid=d6731286-341d-4d52-a979-ba4fb471c519","ios":"levelo://app?vid=d6731286-341d-4d52-a979-ba4fb471c519"},"vehicle_type_id":"4","last_reported":1683468307,"current_range_meters":18400,"station_id":"ce4bhbh2rcd13ifvqepg","pricing_plan_id":"free"},{"bike_id":"d1c80154-7ea7-4769-adb2-186de7807026","system_id":"levelo_inurba_marseille","lat":43.28426,"lon":5.34984,"is_reserved":false,"is_disabled":false,"rental_uris":{"android":"levelo://app?vid=d1c80154-7ea7-4769-adb2-186de7807026","ios":"levelo://app?vid=d1c80154-7ea7-4769-adb2-186de7807026"},"vehicle_type_id":"4","last_reported":1683468307,"current_range_meters":26400,"station_id":"ce4bhbh2rcd13ifvqepg","pricing_plan_id":"free"},{"bike_id":"79808b68-c25e-483f-b899-63372b4a1e02","system_id":"levelo_inurba_marseille","lat":43.284219,"lon":5.3497,"is_reserved":false,"is_disabled":false,"rental_uris":{"android":"levelo://app?vid=79808b68-c25e-483f-b899-63372b4a1e02","ios":"levelo://app?vid=79808b68-c25e-483f-b899-63372b4a1e02"},"vehicle_type_id":"4","last_reported":1683468307,"current_range_meters":24800,"station_id":"ce4bhbh2rcd13ifvqepg","pricing_plan_id":"free"},{"bike_id":"b91e9b7b-dfc3-4a9b-9e44-4fcab0887d9e","system_id":"levelo_inurba_marseille","lat":43.28421,"lon":5.34994,"is_reserved":false,"is_disabled":false,"rental_uris":{"android":"levelo://app?vid=b91e9b7b-dfc3-4a9b-9e44-4fcab0887d9e","ios":"levelo://app?vid=b91e9b7b-dfc3-4a9b-9e44-4fcab0887d9e"},"vehicle_type_id":"4","last_reported":1683468307,"current_range_meters":19600,"station_id":"ce4bhbh2rcd13ifvqepg","pricing_plan_id":"free"},{"bike_id":"c1d8abba-3463-47eb-af03-5714bacd6f63","system_id":"levelo_inurba_marseille","lat":43.28421,"lon":5.34994,"is_reserved":false,"is_disabled":false,"rental_uris":{"android":"levelo://app?vid=c1d8abba-3463-47eb-af03-5714bacd6f63","ios":"levelo://app?vid=c1d8abba-3463-47eb-af03-5714bacd6f63"},"vehicle_type_id":"4","last_reported":1683468307,"current_range_meters":25200,"station_id":"ce4bhbh2rcd13ifvqepg","pricing_plan_id":"free"},{"bike_id":"b98f518f-ed44-4a09-9c2a-a3ab5ca6ba6e","system_id":"levelo_inurba_marseille","lat":43.28424,"lon":5.34982,"is_reserved":false,"is_disabled":false,"rental_uris":{"android":"levelo://app?vid=b98f518f-ed44-4a09-9c2a-a3ab5ca6ba6e","ios":"levelo://app?vid=b98f518f-ed44-4a09-9c2a-a3ab5ca6ba6e"},"vehicle_type_id":"4","last_reported":1683468307,"current_range_meters":22800,"station_id":"ce4bhbh2rcd13ifvqepg","pricing_plan_id":"free"},{"bike_id":"1e3d621e-76cf-4461-a0b1-60437393e4f0","system_id":"levelo_inurba_marseille","lat":43.28422,"lon":5.34988,"is_reserved":false,"is_disabled":false,"rental_uris":{"android":"levelo://app?vid=1e3d621e-76cf-4461-a0b1-60437393e4f0","ios":"levelo://app?vid=1e3d621e-76cf-4461-a0b1-60437393e4f0"},"vehicle_type_id":"4","last_reported":1683468307,"current_range_meters":26400,"station_id":"ce4bhbh2rcd13ifvqepg","pricing_plan_id":"free"},{"bike_id":"1fbd3f5d-ab1c-4866-8501-30e1ee965051","system_id":"levelo_inurba_marseille","lat":43.284219,"lon":5.3497,"is_reserved":false,"is_disabled":false,"rental_uris":{"android":"levelo://app?vid=1fbd3f5d-ab1c-4866-8501-30e1ee965051","ios":"levelo://app?vid=1fbd3f5d-ab1c-4866-8501-30e1ee965051"},"vehicle_type_id":"4","last_reported":1683468307,"current_range_meters":26000,"station_id":"ce4bhbh2rcd13ifvqepg","pricing_plan_id":"free"},{"bike_id":"c58137ff-dcd2-4f38-8ef2-93187d5542e0","system_id":"levelo_inurba_marseille","lat":43.28423,"lon":5.3498,"is_reserved":false,"is_disabled":false,"rental_uris":{"android":"levelo://app?vid=c58137ff-dcd2-4f38-8ef2-93187d5542e0","ios":"levelo://app?vid=c58137ff-dcd2-4f38-8ef2-93187d5542e0"},"vehicle_type_id":"4","last_reported":1683468307,"current_range_meters":13600,"station_id":"ce4bhbh2rcd13ifvqepg","pricing_plan_id":"free"},{"bike_id":"5d5bdb2b-f823-4b73-aa0d-c6df8839f7d2","system_id":"levelo_inurba_marseille","lat":43.28424,"lon":5.34974,"is_reserved":false,"is_disabled":false,"rental_uris":{"android":"levelo://app?vid=5d5bdb2b-f823-4b73-aa0d-c6df8839f7d2","ios":"levelo://app?vid=5d5bdb2b-f823-4b73-aa0d-c6df8839f7d2"},"vehicle_type_id":"4","last_reported":1683468307,"current_range_meters":23200,"station_id":"ce4bhbh2rcd13ifvqepg","pricing_plan_id":"free"},{"bike_id":"ad8bd725-3cf8-4cc1-9c1f-27acd8e80db9","system_id":"levelo_inurba_marseille","lat":43.284217,"lon":5.349697,"is_reserved":false,"is_disabled":false,"rental_uris":{"android":"levelo://app?vid=ad8bd725-3cf8-4cc1-9c1f-27acd8e80db9","ios":"levelo://app?vid=ad8bd725-3cf8-4cc1-9c1f-27acd8e80db9"},"vehicle_type_id":"4","last_reported":1683468307,"current_range_meters":27200,"station_id":"ce4bhbh2rcd13ifvqepg","pricing_plan_id":"free"},{"bike_id":"49032da2-f9e4-478b-a29d-e06095c583ec","system_id":"levelo_inurba_marseille","lat":43.28421,"lon":5.34979,"is_reserved":false,"is_disabled":false,"rental_uris":{"android":"levelo://app?vid=49032da2-f9e4-478b-a29d-e06095c583ec","ios":"levelo://app?vid=49032da2-f9e4-478b-a29d-e06095c583ec"},"vehicle_type_id":"4","last_reported":1683468307,"current_range_meters":17200,"station_id":"ce4bhbh2rcd13ifvqepg","pricing_plan_id":"free"},{"bike_id":"a5aa2388-81f6-4a8d-a074-ddbdcc3ea2be","system_id":"levelo_inurba_marseille","lat":43.28417,"lon":5.34982,"is_reserved":false,"is_disabled":false,"rental_uris":{"android":"levelo://app?vid=a5aa2388-81f6-4a8d-a074-ddbdcc3ea2be","ios":"levelo://app?vid=a5aa2388-81f6-4a8d-a074-ddbdcc3ea2be"},"vehicle_type_id":"4","last_reported":1683468307,"current_range_meters":20800,"station_id":"ce4bhbh2rcd13ifvqeo0","pricing_plan_id":"free"},{"bike_id":"d632361b-cb3e-4be9-8f88-a2f399a9b71f","system_id":"levelo_inurba_marseille","lat":43.2842,"lon":5.34971,"is_reserved":false,"is_disabled":false,"rental_uris":{"android":"levelo://app?vid=d632361b-cb3e-4be9-8f88-a2f399a9b71f","ios":"levelo://app?vid=d632361b-cb3e-4be9-8f88-a2f399a9b71f"},"vehicle_type_id":"4","last_reported":1683468307,"current_range_meters":400,"station_id":"ce4bhbh2rcd13ifvqepg","pricing_plan_id":"free"},{"bike_id":"8250ef9a-0190-49e6-ac9b-97683ed72bb7","system_id":"levelo_inurba_marseille","lat":43.28417,"lon":5.3498,"is_reserved":false,"is_disabled":false,"rental_uris":{"android":"levelo://app?vid=8250ef9a-0190-49e6-ac9b-97683ed72bb7","ios":"levelo://app?vid=8250ef9a-0190-49e6-ac9b-97683ed72bb7"},"vehicle_type_id":"4","last_reported":1683468307,"current_range_meters":11200,"station_id":"ce4bhbh2rcd13ifvqepg","pricing_plan_id":"free"},{"bike_id":"63103703-f557-43d5-82be-2b56eef97b98","system_id":"levelo_inurba_marseille","lat":43.28411,"lon":5.34989,"is_reserved":false,"is_disabled":false,"rental_uris":{"android":"levelo://app?vid=63103703-f557-43d5-82be-2b56eef97b98","ios":"levelo://app?vid=63103703-f557-43d5-82be-2b56eef97b98"},"vehicle_type_id":"4","last_reported":1683468307,"current_range_meters":7200,"station_id":"ce4bhbh2rcd13ifvqepg","pricing_plan_id":"free"},{"bike_id":"b5170f80-50c2-4c2c-8cfa-4fbaf76c86a8","system_id":"levelo_inurba_marseille","lat":43.28416,"lon":5.349653,"is_reserved":false,"is_disabled":false,"rental_uris":{"android":"levelo://app?vid=b5170f80-50c2-4c2c-8cfa-4fbaf76c86a8","ios":"levelo://app?vid=b5170f80-50c2-4c2c-8cfa-4fbaf76c86a8"},"vehicle_type_id":"4","last_reported":1683468307,"current_range_meters":3600,"station_id":"","pricing_plan_id":"free"},{"bike_id":"a1677225-2884-453a-85fa-d60fdf8c7c2c","system_id":"levelo_inurba_marseille","lat":43.282744,"lon":5.350533,"is_reserved":false,"is_disabled":false,"rental_uris":{"android":"levelo://app?vid=a1677225-2884-453a-85fa-d60fdf8c7c2c","ios":"levelo://app?vid=a1677225-2884-453a-85fa-d60fdf8c7c2c"},"vehicle_type_id":"4","last_reported":1683468307,"current_range_meters":25600,"station_id":"ce4bhbp2rcd13ifvqerg","pricing_plan_id":"free"},{"bike_id":"b4aa3f33-fcb0-43c0-829c-837fad40feab","system_id":"levelo_inurba_marseille","lat":43.2828,"lon":5.35066,"is_reserved":false,"is_disabled":false,"rental_uris":{"android":"levelo://app?vid=b4aa3f33-fcb0-43c0-829c-837fad40feab","ios":"levelo://app?vid=b4aa3f33-fcb0-43c0-829c-837fad40feab"},"vehicle_type_id":"4","last_reported":1683468307,"current_range_meters":12400,"station_id":"ce4bhbp2rcd13ifvqerg","pricing_plan_id":"free"},{"bike_id":"2d189456-4e3c-499a-9674-d9a10ca77e6e","system_id":"levelo_inurba_marseille","lat":43.28276,"lon":5.35065,"is_reserved":false,"is_disabled":false,"rental_uris":{"android":"levelo://app?vid=2d189456-4e3c-499a-9674-d9a10ca77e6e","ios":"levelo://app?vid=2d189456-4e3c-499a-9674-d9a10ca77e6e"},"vehicle_type_id":"4","last_reported":1683468307,"current_range_meters":31600,"station_id":"ce4bhbp2rcd13ifvqerg","pricing_plan_id":"free"},{"bike_id":"ee88bc9d-947b-4630-abb5-2f5caa5f0446","system_id":"levelo_inurba_marseille","lat":43.28273,"lon":5.3507,"is_reserved":false,"is_disabled":false,"rental_uris":{"android":"levelo://app?vid=ee88bc9d-947b-4630-abb5-2f5caa5f0446","ios":"levelo://app?vid=ee88bc9d-947b-4630-abb5-2f5caa5f0446"},"vehicle_type_id":"4","last_reported":1683468307,"current_range_meters":13600,"station_id":"ce4bhbp2rcd13ifvqerg","pricing_plan_id":"free"},{"bike_id":"6fbda5d0-37da-4744-a77b-2dcc311e4ba9","system_id":"levelo_inurba_marseille","lat":43.28271,"lon":5.35075,"is_reserved":false,"is_disabled":false,"rental_uris":{"android":"levelo://app?vid=6fbda5d0-37da-4744-a77b-2dcc311e4ba9","ios":"levelo://app?vid=6fbda5d0-37da-4744-a77b-2dcc311e4ba9"},"vehicle_type_id":"4","last_reported":1683468307,"current_range_meters":800,"station_id":"ce4bhbp2rcd13ifvqerg","pricing_plan_id":"free"},{"bike_id":"1b3ff98d-5f0e-4c10-9e23-4bf10b5a2424","system_id":"levelo_inurba_marseille","lat":43.28273,"lon":5.35067,"is_reserved":false,"is_disabled":false,"rental_uris":{"android":"levelo://app?vid=1b3ff98d-5f0e-4c10-9e23-4bf10b5a2424","ios":"levelo://app?vid=1b3ff98d-5f0e-4c10-9e23-4bf10b5a2424"},"vehicle_type_id":"4","last_reported":1683468307,"current_range_meters":9600,"station_id":"ce4bhbp2rcd13ifvqerg","pricing_plan_id":"free"},{"bike_id":"5b6f791d-176d-4509-add7-25f642e3db04","system_id":"levelo_inurba_marseille","lat":43.28273,"lon":5.35065,"is_reserved":false,"is_disabled":false,"rental_uris":{"android":"levelo://app?vid=5b6f791d-176d-4509-add7-25f642e3db04","ios":"levelo://app?vid=5b6f791d-176d-4509-add7-25f642e3db04"},"vehicle_type_id":"4","last_reported":1683468307,"current_range_meters":18800,"station_id":"ce4bhbp2rcd13ifvqerg","pricing_plan_id":"free"},{"bike_id":"58a5ad97-6c2a-486b-8432-f27df51fabd0","system_id":"levelo_inurba_marseille","lat":43.28269,"lon":5.35069,"is_reserved":false,"is_disabled":false,"rental_uris":{"android":"levelo://app?vid=58a5ad97-6c2a-486b-8432-f27df51fabd0","ios":"levelo://app?vid=58a5ad97-6c2a-486b-8432-f27df51fabd0"},"vehicle_type_id":"4","last_reported":1683468307,"current_range_meters":21200,"station_id":"ce4bhbp2rcd13ifvqerg","pricing_plan_id":"free"},{"bike_id":"5d570f79-2357-49ee-bd9e-c379c4a02951","system_id":"levelo_inurba_marseille","lat":43.28268,"lon":5.35071,"is_reserved":false,"is_disabled":false,"rental_uris":{"android":"levelo://app?vid=5d570f79-2357-49ee-bd9e-c379c4a02951","ios":"levelo://app?vid=5d570f79-2357-49ee-bd9e-c379c4a02951"},"vehicle_type_id":"4","last_reported":1683468307,"current_range_meters":16800,"station_id":"ce4bhbp2rcd13ifvqerg","pricing_plan_id":"free"},{"bike_id":"212a4596-9a3c-4d0a-a0dd-6ace9ff299d1","system_id":"levelo_inurba_marseille","lat":43.28269,"lon":5.35065,"is_reserved":false,"is_disabled":false,"rental_uris":{"android":"levelo://app?vid=212a4596-9a3c-4d0a-a0dd-6ace9ff299d1","ios":"levelo://app?vid=212a4596-9a3c-4d0a-a0dd-6ace9ff299d1"},"vehicle_type_id":"4","last_reported":1683468307,"current_range_meters":9200,"station_id":"ce4bhbp2rcd13ifvqerg","pricing_plan_id":"free"},{"bike_id":"76242f32-c407-44d4-84d7-fa1d50b0f9dc","system_id":"levelo_inurba_marseille","lat":43.32444,"lon":5.40831,"is_reserved":false,"is_disabled":false,"rental_uris":{"android":"levelo://app?vid=76242f32-c407-44d4-84d7-fa1d50b0f9dc","ios":"levelo://app?vid=76242f32-c407-44d4-84d7-fa1d50b0f9dc"},"vehicle_type_id":"4","last_reported":1683468307,"current_range_meters":0,"station_id":"","pricing_plan_id":"free"},{"bike_id":"a924efe0-0836-4894-a8cc-453fd2edc4c6","system_id":"levelo_inurba_marseille","lat":43.28271,"lon":5.35055,"is_reserved":false,"is_disabled":false,"rental_uris":{"android":"levelo://app?vid=a924efe0-0836-4894-a8cc-453fd2edc4c6","ios":"levelo://app?vid=a924efe0-0836-4894-a8cc-453fd2edc4c6"},"vehicle_type_id":"4","last_reported":1683468307,"current_range_meters":26400,"station_id":"ce4bhbp2rcd13ifvqerg","pricing_plan_id":"free"},{"bike_id":"c71af573-a79f-4688-aeaf-719631464d6b","system_id":"levelo_inurba_marseille","lat":43.28268,"lon":5.35063,"is_reserved":false,"is_disabled":false,"rental_uris":{"android":"levelo://app?vid=c71af573-a79f-4688-aeaf-719631464d6b","ios":"levelo://app?vid=c71af573-a79f-4688-aeaf-719631464d6b"},"vehicle_type_id":"4","last_reported":1683468307,"current_range_meters":8800,"station_id":"ce4bhbp2rcd13ifvqerg","pricing_plan_id":"free"},{"bike_id":"3d23cf8a-2a9e-4f8e-903c-77a8c4aebcf0","system_id":"levelo_inurba_marseille","lat":43.28269,"lon":5.35059,"is_reserved":false,"is_disabled":false,"rental_uris":{"android":"levelo://app?vid=3d23cf8a-2a9e-4f8e-903c-77a8c4aebcf0","ios":"levelo://app?vid=3d23cf8a-2a9e-4f8e-903c-77a8c4aebcf0"},"vehicle_type_id":"4","last_reported":1683468307,"current_range_meters":22800,"station_id":"ce4bhbp2rcd13ifvqerg","pricing_plan_id":"free"},{"bike_id":"567a08cc-301e-4fe8-9ba1-43d37d9b51ff","system_id":"levelo_inurba_marseille","lat":43.28267,"lon":5.35065,"is_reserved":false,"is_disabled":false,"rental_uris":{"android":"levelo://app?vid=567a08cc-301e-4fe8-9ba1-43d37d9b51ff","ios":"levelo://app?vid=567a08cc-301e-4fe8-9ba1-43d37d9b51ff"},"vehicle_type_id":"4","last_reported":1683468307,"current_range_meters":12800,"station_id":"ce4bhbp2rcd13ifvqerg","pricing_plan_id":"free"},{"bike_id":"0e3531f4-8458-4dfb-b32a-9723563f25c9","system_id":"levelo_inurba_marseille","lat":43.28265,"lon":5.3507,"is_reserved":false,"is_disabled":false,"rental_uris":{"android":"levelo://app?vid=0e3531f4-8458-4dfb-b32a-9723563f25c9","ios":"levelo://app?vid=0e3531f4-8458-4dfb-b32a-9723563f25c9"},"vehicle_type_id":"4","last_reported":1683468307,"current_range_meters":8400,"station_id":"ce4bhbp2rcd13ifvqerg","pricing_plan_id":"free"},{"bike_id":"4998a52c-452f-4bae-91ee-e444efc6b3a5","system_id":"levelo_inurba_marseille","lat":43.28264,"lon":5.35066,"is_reserved":false,"is_disabled":false,"rental_uris":{"android":"levelo://app?vid=4998a52c-452f-4bae-91ee-e444efc6b3a5","ios":"levelo://app?vid=4998a52c-452f-4bae-91ee-e444efc6b3a5"},"vehicle_type_id":"4","last_reported":1683468307,"current_range_meters":26400,"station_id":"ce4bhbp2rcd13ifvqerg","pricing_plan_id":"free"},{"bike_id":"4b2d1bed-227d-4b61-8ea2-c8b0ec40ec17","system_id":"levelo_inurba_marseille","lat":43.28266,"lon":5.35053,"is_reserved":false,"is_disabled":false,"rental_uris":{"android":"levelo://app?vid=4b2d1bed-227d-4b61-8ea2-c8b0ec40ec17","ios":"levelo://app?vid=4b2d1bed-227d-4b61-8ea2-c8b0ec40ec17"},"vehicle_type_id":"4","last_reported":1683468307,"current_range_meters":31200,"station_id":"ce4bhbp2rcd13ifvqerg","pricing_plan_id":"free"},{"bike_id":"e34ced0c-1102-4e5f-846a-e58905fb762e","system_id":"levelo_inurba_marseille","lat":43.28039,"lon":5.369297,"is_reserved":false,"is_disabled":false,"rental_uris":{"android":"levelo://app?vid=e34ced0c-1102-4e5f-846a-e58905fb762e","ios":"levelo://app?vid=e34ced0c-1102-4e5f-846a-e58905fb762e"},"vehicle_type_id":"4","last_reported":1683468307,"current_range_meters":24400,"station_id":"ce4bha12rcd13ifvqef0","pricing_plan_id":"free"},{"bike_id":"174e73f5-d543-4c60-8f66-fa3a10ea8f06","system_id":"levelo_inurba_marseille","lat":43.2826,"lon":5.35066,"is_reserved":false,"is_disabled":false,"rental_uris":{"android":"levelo://app?vid=174e73f5-d543-4c60-8f66-fa3a10ea8f06","ios":"levelo://app?vid=174e73f5-d543-4c60-8f66-fa3a10ea8f06"},"vehicle_type_id":"4","last_reported":1683468307,"current_range_meters":29600,"station_id":"ce4bhbp2rcd13ifvqerg","pricing_plan_id":"free"},{"bike_id":"0a04c1aa-16f7-4ee7-91e4-2a7e38604cbb","system_id":"levelo_inurba_marseille","lat":43.28039,"lon":5.369297,"is_reserved":false,"is_disabled":false,"rental_uris":{"android":"levelo://app?vid=0a04c1aa-16f7-4ee7-91e4-2a7e38604cbb","ios":"levelo://app?vid=0a04c1aa-16f7-4ee7-91e4-2a7e38604cbb"},"vehicle_type_id":"4","last_reported":1683468307,"current_range_meters":10400,"station_id":"ce4bha12rcd13ifvqef0","pricing_plan_id":"free"},{"bike_id":"7d08362c-f4b8-4371-8c62-461109314cea","system_id":"levelo_inurba_marseille","lat":43.28036,"lon":5.36944,"is_reserved":false,"is_disabled":false,"rental_uris":{"android":"levelo://app?vid=7d08362c-f4b8-4371-8c62-461109314cea","ios":"levelo://app?vid=7d08362c-f4b8-4371-8c62-461109314cea"},"vehicle_type_id":"4","last_reported":1683468307,"current_range_meters":20400,"station_id":"ce4bha12rcd13ifvqef0","pricing_plan_id":"free"},{"bike_id":"03b9de80-84b9-4655-b293-2ec364952ca5","system_id":"levelo_inurba_marseille","lat":43.29042,"lon":5.39967,"is_reserved":false,"is_disabled":false,"rental_uris":{"android":"levelo://app?vid=03b9de80-84b9-4655-b293-2ec364952ca5","ios":"levelo://app?vid=03b9de80-84b9-4655-b293-2ec364952ca5"},"vehicle_type_id":"4","last_reported":1683468307,"current_range_meters":10400,"station_id":"ce4bh392rcd13ifvqdm0","pricing_plan_id":"free"},{"bike_id":"c51949ca-3f92-479b-b914-24c9a793904d","system_id":"levelo_inurba_marseille","lat":43.296263,"lon":5.40601,"is_reserved":false,"is_disabled":false,"rental_uris":{"android":"levelo://app?vid=c51949ca-3f92-479b-b914-24c9a793904d","ios":"levelo://app?vid=c51949ca-3f92-479b-b914-24c9a793904d"},"vehicle_type_id":"4","last_reported":1683468307,"current_range_meters":17600,"station_id":"ce4bh0h2rcd13ifvqd60","pricing_plan_id":"free"},{"bike_id":"fe81cb0e-8a00-446f-bf97-8aa2deca2f45","system_id":"levelo_inurba_marseille","lat":43.2963,"lon":5.40601,"is_reserved":false,"is_disabled":false,"rental_uris":{"android":"levelo://app?vid=fe81cb0e-8a00-446f-bf97-8aa2deca2f45","ios":"levelo://app?vid=fe81cb0e-8a00-446f-bf97-8aa2deca2f45"},"vehicle_type_id":"4","last_reported":1683468307,"current_range_meters":12400,"station_id":"","pricing_plan_id":"free"},{"bike_id":"f0bf45f5-47e3-4981-b342-37b7be43881b","system_id":"levelo_inurba_marseille","lat":43.280382,"lon":5.369291,"is_reserved":false,"is_disabled":false,"rental_uris":{"android":"levelo://app?vid=f0bf45f5-47e3-4981-b342-37b7be43881b","ios":"levelo://app?vid=f0bf45f5-47e3-4981-b342-37b7be43881b"},"vehicle_type_id":"4","last_reported":1683468307,"current_range_meters":11600,"station_id":"ce4bha12rcd13ifvqef0","pricing_plan_id":"free"},{"bike_id":"8b00940e-e932-4663-af2b-a3e4d83e1953","system_id":"levelo_inurba_marseille","lat":43.30422,"lon":5.41292,"is_reserved":false,"is_disabled":false,"rental_uris":{"android":"levelo://app?vid=8b00940e-e932-4663-af2b-a3e4d83e1953","ios":"levelo://app?vid=8b00940e-e932-4663-af2b-a3e4d83e1953"},"vehicle_type_id":"4","last_reported":1683468307,"current_range_meters":26400,"station_id":"ce4bhop2rcd13ifvqh8g","pricing_plan_id":"free"},{"bike_id":"8915c322-f0f3-4dad-860c-803dd44ee2bd","system_id":"levelo_inurba_marseille","lat":43.320045,"lon":5.415048,"is_reserved":false,"is_disabled":false,"rental_uris":{"android":"levelo://app?vid=8915c322-f0f3-4dad-860c-803dd44ee2bd","ios":"levelo://app?vid=8915c322-f0f3-4dad-860c-803dd44ee2bd"},"vehicle_type_id":"4","last_reported":1683468307,"current_range_meters":20800,"station_id":"ce4bhq92rcd13ifvqhkg","pricing_plan_id":"free"},{"bike_id":"c9a68528-88f2-416b-9c76-a4582d226dbf","system_id":"levelo_inurba_marseille","lat":43.320045,"lon":5.415048,"is_reserved":false,"is_disabled":false,"rental_uris":{"android":"levelo://app?vid=c9a68528-88f2-416b-9c76-a4582d226dbf","ios":"levelo://app?vid=c9a68528-88f2-416b-9c76-a4582d226dbf"},"vehicle_type_id":"4","last_reported":1683468307,"current_range_meters":22800,"station_id":"ce4bhq92rcd13ifvqhkg","pricing_plan_id":"free"},{"bike_id":"b24da798-0b89-41ac-9bca-fce0f1dd01dd","system_id":"levelo_inurba_marseille","lat":43.320045,"lon":5.415048,"is_reserved":false,"is_disabled":false,"rental_uris":{"android":"levelo://app?vid=b24da798-0b89-41ac-9bca-fce0f1dd01dd","ios":"levelo://app?vid=b24da798-0b89-41ac-9bca-fce0f1dd01dd"},"vehicle_type_id":"4","last_reported":1683468307,"current_range_meters":22400,"station_id":"ce4bhq92rcd13ifvqhkg","pricing_plan_id":"free"},{"bike_id":"b7dcd9ad-8282-48bc-8a7b-ddd675402dff","system_id":"levelo_inurba_marseille","lat":43.320045,"lon":5.415048,"is_reserved":false,"is_disabled":false,"rental_uris":{"android":"levelo://app?vid=b7dcd9ad-8282-48bc-8a7b-ddd675402dff","ios":"levelo://app?vid=b7dcd9ad-8282-48bc-8a7b-ddd675402dff"},"vehicle_type_id":"4","last_reported":1683468307,"current_range_meters":24000,"station_id":"ce4bhq92rcd13ifvqhkg","pricing_plan_id":"free"},{"bike_id":"02a63ac2-bc1c-4d64-b42f-f2e53f893af4","system_id":"levelo_inurba_marseille","lat":43.320045,"lon":5.415048,"is_reserved":false,"is_disabled":false,"rental_uris":{"android":"levelo://app?vid=02a63ac2-bc1c-4d64-b42f-f2e53f893af4","ios":"levelo://app?vid=02a63ac2-bc1c-4d64-b42f-f2e53f893af4"},"vehicle_type_id":"4","last_reported":1683468307,"current_range_meters":21600,"station_id":"ce4bhq92rcd13ifvqhkg","pricing_plan_id":"free"},{"bike_id":"bc5b6fdc-374a-4cac-9f90-da80ca788f37","system_id":"levelo_inurba_marseille","lat":43.320045,"lon":5.415048,"is_reserved":false,"is_disabled":false,"rental_uris":{"android":"levelo://app?vid=bc5b6fdc-374a-4cac-9f90-da80ca788f37","ios":"levelo://app?vid=bc5b6fdc-374a-4cac-9f90-da80ca788f37"},"vehicle_type_id":"4","last_reported":1683468307,"current_range_meters":24000,"station_id":"ce4bhq92rcd13ifvqhkg","pricing_plan_id":"free"},{"bike_id":"4962cfdf-98fc-44c5-b061-a8da328200ce","system_id":"levelo_inurba_marseille","lat":43.29252,"lon":5.40905,"is_reserved":false,"is_disabled":false,"rental_uris":{"android":"levelo://app?vid=4962cfdf-98fc-44c5-b061-a8da328200ce","ios":"levelo://app?vid=4962cfdf-98fc-44c5-b061-a8da328200ce"},"vehicle_type_id":"4","last_reported":1683468307,"current_range_meters":24800,"station_id":"ce4bh192rcd13ifvqdc0","pricing_plan_id":"free"},{"bike_id":"eb4f510a-b4f2-4513-9e9f-c4b14f0b0170","system_id":"levelo_inurba_marseille","lat":43.325233,"lon":5.414318,"is_reserved":false,"is_disabled":false,"rental_uris":{"android":"levelo://app?vid=eb4f510a-b4f2-4513-9e9f-c4b14f0b0170","ios":"levelo://app?vid=eb4f510a-b4f2-4513-9e9f-c4b14f0b0170"},"vehicle_type_id":"4","last_reported":1683468307,"current_range_meters":30400,"station_id":"ce4bhq12rcd13ifvqhhg","pricing_plan_id":"free"},{"bike_id":"86091db7-a6fc-4af8-9c99-24decfc72436","system_id":"levelo_inurba_marseille","lat":43.276179,"lon":5.361009,"is_reserved":false,"is_disabled":false,"rental_uris":{"android":"levelo://app?vid=86091db7-a6fc-4af8-9c99-24decfc72436","ios":"levelo://app?vid=86091db7-a6fc-4af8-9c99-24decfc72436"},"vehicle_type_id":"4","last_reported":1683468307,"current_range_meters":20800,"station_id":"ce4bgj92rcd13ifvqbe0","pricing_plan_id":"free"},{"bike_id":"4cb91cf5-626f-4ef1-acdc-c269dac2e75b","system_id":"levelo_inurba_marseille","lat":43.276179,"lon":5.361009,"is_reserved":false,"is_disabled":false,"rental_uris":{"android":"levelo://app?vid=4cb91cf5-626f-4ef1-acdc-c269dac2e75b","ios":"levelo://app?vid=4cb91cf5-626f-4ef1-acdc-c269dac2e75b"},"vehicle_type_id":"4","last_reported":1683468307,"current_range_meters":16000,"station_id":"ce4bgj92rcd13ifvqbe0","pricing_plan_id":"free"},{"bike_id":"1fc5f253-22cc-41a1-9e01-bb9da78060fb","system_id":"levelo_inurba_marseille","lat":43.276179,"lon":5.361009,"is_reserved":false,"is_disabled":false,"rental_uris":{"android":"levelo://app?vid=1fc5f253-22cc-41a1-9e01-bb9da78060fb","ios":"levelo://app?vid=1fc5f253-22cc-41a1-9e01-bb9da78060fb"},"vehicle_type_id":"4","last_reported":1683468307,"current_range_meters":23600,"station_id":"ce4bgj92rcd13ifvqbe0","pricing_plan_id":"free"},{"bike_id":"ba016776-39b2-4c35-8665-5cfbb2818d40","system_id":"levelo_inurba_marseille","lat":43.32538,"lon":5.41446,"is_reserved":false,"is_disabled":false,"rental_uris":{"android":"levelo://app?vid=ba016776-39b2-4c35-8665-5cfbb2818d40","ios":"levelo://app?vid=ba016776-39b2-4c35-8665-5cfbb2818d40"},"vehicle_type_id":"4","last_reported":1683468307,"current_range_meters":31200,"station_id":"","pricing_plan_id":"free"},{"bike_id":"1599458d-c9c2-4520-968b-33460c21cb79","system_id":"levelo_inurba_marseille","lat":43.276179,"lon":5.361009,"is_reserved":false,"is_disabled":false,"rental_uris":{"android":"levelo://app?vid=1599458d-c9c2-4520-968b-33460c21cb79","ios":"levelo://app?vid=1599458d-c9c2-4520-968b-33460c21cb79"},"vehicle_type_id":"4","last_reported":1683468307,"current_range_meters":25600,"station_id":"ce4bgj92rcd13ifvqbe0","pricing_plan_id":"free"},{"bike_id":"d527fbd8-fbc7-47be-b441-9c2469662b92","system_id":"levelo_inurba_marseille","lat":43.32542,"lon":5.41448,"is_reserved":false,"is_disabled":false,"rental_uris":{"android":"levelo://app?vid=d527fbd8-fbc7-47be-b441-9c2469662b92","ios":"levelo://app?vid=d527fbd8-fbc7-47be-b441-9c2469662b92"},"vehicle_type_id":"4","last_reported":1683468307,"current_range_meters":31200,"station_id":"","pricing_plan_id":"free"},{"bike_id":"f927b1c6-fd23-4d5f-825e-643aa71d5d73","system_id":"levelo_inurba_marseille","lat":43.325233,"lon":5.414318,"is_reserved":false,"is_disabled":false,"rental_uris":{"android":"levelo://app?vid=f927b1c6-fd23-4d5f-825e-643aa71d5d73","ios":"levelo://app?vid=f927b1c6-fd23-4d5f-825e-643aa71d5d73"},"vehicle_type_id":"4","last_reported":1683468307,"current_range_meters":28400,"station_id":"ce4bhq12rcd13ifvqhhg","pricing_plan_id":"free"},{"bike_id":"cce0d8bd-bd53-458d-a637-b7749f2e06db","system_id":"levelo_inurba_marseille","lat":43.276179,"lon":5.361009,"is_reserved":false,"is_disabled":false,"rental_uris":{"android":"levelo://app?vid=cce0d8bd-bd53-458d-a637-b7749f2e06db","ios":"levelo://app?vid=cce0d8bd-bd53-458d-a637-b7749f2e06db"},"vehicle_type_id":"4","last_reported":1683468307,"current_range_meters":9200,"station_id":"ce4bgj92rcd13ifvqbe0","pricing_plan_id":"free"},{"bike_id":"b900bdd7-1090-4484-97da-0fc7f5412fab","system_id":"levelo_inurba_marseille","lat":43.27391,"lon":5.36263,"is_reserved":false,"is_disabled":false,"rental_uris":{"android":"levelo://app?vid=b900bdd7-1090-4484-97da-0fc7f5412fab","ios":"levelo://app?vid=b900bdd7-1090-4484-97da-0fc7f5412fab"},"vehicle_type_id":"4","last_reported":1683468307,"current_range_meters":0,"station_id":"","pricing_plan_id":"free"},{"bike_id":"71cdbe5b-ebd6-413d-9211-56caaab77d9b","system_id":"levelo_inurba_marseille","lat":43.273613,"lon":5.362705,"is_reserved":false,"is_disabled":false,"rental_uris":{"android":"levelo://app?vid=71cdbe5b-ebd6-413d-9211-56caaab77d9b","ios":"levelo://app?vid=71cdbe5b-ebd6-413d-9211-56caaab77d9b"},"vehicle_type_id":"4","last_reported":1683468307,"current_range_meters":26400,"station_id":"ce4bhbh2rcd13ifvqeo0","pricing_plan_id":"free"},{"bike_id":"7fc97212-971e-403b-84b9-802341520ded","system_id":"levelo_inurba_marseille","lat":43.27382,"lon":5.36256,"is_reserved":false,"is_disabled":false,"rental_uris":{"android":"levelo://app?vid=7fc97212-971e-403b-84b9-802341520ded","ios":"levelo://app?vid=7fc97212-971e-403b-84b9-802341520ded"},"vehicle_type_id":"4","last_reported":1683468307,"current_range_meters":11200,"station_id":"ce4bhbh2rcd13ifvqeo0","pricing_plan_id":"free"},{"bike_id":"c51692cf-f831-41de-b3f3-8598ba608d64","system_id":"levelo_inurba_marseille","lat":43.273613,"lon":5.362705,"is_reserved":false,"is_disabled":false,"rental_uris":{"android":"levelo://app?vid=c51692cf-f831-41de-b3f3-8598ba608d64","ios":"levelo://app?vid=c51692cf-f831-41de-b3f3-8598ba608d64"},"vehicle_type_id":"4","last_reported":1683468307,"current_range_meters":32000,"station_id":"ce4bhbh2rcd13ifvqeo0","pricing_plan_id":"free"},{"bike_id":"b8fbd847-4520-44af-a09e-4840d5059344","system_id":"levelo_inurba_marseille","lat":43.273613,"lon":5.362705,"is_reserved":false,"is_disabled":false,"rental_uris":{"android":"levelo://app?vid=b8fbd847-4520-44af-a09e-4840d5059344","ios":"levelo://app?vid=b8fbd847-4520-44af-a09e-4840d5059344"},"vehicle_type_id":"4","last_reported":1683468307,"current_range_meters":15200,"station_id":"ce4bhbh2rcd13ifvqeo0","pricing_plan_id":"free"},{"bike_id":"e0daafaa-da91-4fd6-9407-151d125507ac","system_id":"levelo_inurba_marseille","lat":43.27379,"lon":5.3625,"is_reserved":false,"is_disabled":false,"rental_uris":{"android":"levelo://app?vid=e0daafaa-da91-4fd6-9407-151d125507ac","ios":"levelo://app?vid=e0daafaa-da91-4fd6-9407-151d125507ac"},"vehicle_type_id":"4","last_reported":1683468307,"current_range_meters":17600,"station_id":"ce4bhbh2rcd13ifvqeo0","pricing_plan_id":"free"},{"bike_id":"c0a2e4e6-59d1-47c8-89c1-90dc486da3aa","system_id":"levelo_inurba_marseille","lat":43.273609,"lon":5.362708,"is_reserved":false,"is_disabled":false,"rental_uris":{"android":"levelo://app?vid=c0a2e4e6-59d1-47c8-89c1-90dc486da3aa","ios":"levelo://app?vid=c0a2e4e6-59d1-47c8-89c1-90dc486da3aa"},"vehicle_type_id":"4","last_reported":1683468307,"current_range_meters":21200,"station_id":"ce4bhbh2rcd13ifvqeo0","pricing_plan_id":"free"},{"bike_id":"d6259958-66c1-4aec-afce-c50b36ad7ba2","system_id":"levelo_inurba_marseille","lat":43.273609,"lon":5.362708,"is_reserved":false,"is_disabled":false,"rental_uris":{"android":"levelo://app?vid=d6259958-66c1-4aec-afce-c50b36ad7ba2","ios":"levelo://app?vid=d6259958-66c1-4aec-afce-c50b36ad7ba2"},"vehicle_type_id":"4","last_reported":1683468307,"current_range_meters":10800,"station_id":"ce4bhbh2rcd13ifvqeo0","pricing_plan_id":"free"},{"bike_id":"a0a57134-e408-4715-85ff-d111e3c49cf9","system_id":"levelo_inurba_marseille","lat":43.273613,"lon":5.362705,"is_reserved":false,"is_disabled":false,"rental_uris":{"android":"levelo://app?vid=a0a57134-e408-4715-85ff-d111e3c49cf9","ios":"levelo://app?vid=a0a57134-e408-4715-85ff-d111e3c49cf9"},"vehicle_type_id":"4","last_reported":1683468307,"current_range_meters":31600,"station_id":"ce4bhbh2rcd13ifvqeo0","pricing_plan_id":"free"},{"bike_id":"02c5b97b-c667-422c-9dc4-694d79915720","system_id":"levelo_inurba_marseille","lat":43.27378,"lon":5.36245,"is_reserved":false,"is_disabled":false,"rental_uris":{"android":"levelo://app?vid=02c5b97b-c667-422c-9dc4-694d79915720","ios":"levelo://app?vid=02c5b97b-c667-422c-9dc4-694d79915720"},"vehicle_type_id":"4","last_reported":1683468307,"current_range_meters":20400,"station_id":"","pricing_plan_id":"free"},{"bike_id":"e417f338-294c-4f4c-aad3-8c34f5d0ed01","system_id":"levelo_inurba_marseille","lat":43.273609,"lon":5.362708,"is_reserved":false,"is_disabled":false,"rental_uris":{"android":"levelo://app?vid=e417f338-294c-4f4c-aad3-8c34f5d0ed01","ios":"levelo://app?vid=e417f338-294c-4f4c-aad3-8c34f5d0ed01"},"vehicle_type_id":"4","last_reported":1683468307,"current_range_meters":29200,"station_id":"ce4bhbh2rcd13ifvqeo0","pricing_plan_id":"free"},{"bike_id":"58613d7f-aa7a-4d0b-9edd-35d3afa79d4c","system_id":"levelo_inurba_marseille","lat":43.273613,"lon":5.362705,"is_reserved":false,"is_disabled":false,"rental_uris":{"android":"levelo://app?vid=58613d7f-aa7a-4d0b-9edd-35d3afa79d4c","ios":"levelo://app?vid=58613d7f-aa7a-4d0b-9edd-35d3afa79d4c"},"vehicle_type_id":"4","last_reported":1683468307,"current_range_meters":0,"station_id":"ce4bhbh2rcd13ifvqeo0","pricing_plan_id":"free"},{"bike_id":"143e4de0-a4e2-47da-935d-f21486c263d4","system_id":"levelo_inurba_marseille","lat":43.273609,"lon":5.362708,"is_reserved":false,"is_disabled":false,"rental_uris":{"android":"levelo://app?vid=143e4de0-a4e2-47da-935d-f21486c263d4","ios":"levelo://app?vid=143e4de0-a4e2-47da-935d-f21486c263d4"},"vehicle_type_id":"4","last_reported":1683468307,"current_range_meters":24400,"station_id":"ce4bhbh2rcd13ifvqeo0","pricing_plan_id":"free"},{"bike_id":"653856d2-a316-4397-ba3a-3a9a715524df","system_id":"levelo_inurba_marseille","lat":43.273613,"lon":5.362705,"is_reserved":false,"is_disabled":false,"rental_uris":{"android":"levelo://app?vid=653856d2-a316-4397-ba3a-3a9a715524df","ios":"levelo://app?vid=653856d2-a316-4397-ba3a-3a9a715524df"},"vehicle_type_id":"4","last_reported":1683468307,"current_range_meters":31200,"station_id":"ce4bhbh2rcd13ifvqeo0","pricing_plan_id":"free"},{"bike_id":"9c9c2adf-6f52-45c1-af30-c52fff8009ac","system_id":"levelo_inurba_marseille","lat":43.273609,"lon":5.362708,"is_reserved":false,"is_disabled":false,"rental_uris":{"android":"levelo://app?vid=9c9c2adf-6f52-45c1-af30-c52fff8009ac","ios":"levelo://app?vid=9c9c2adf-6f52-45c1-af30-c52fff8009ac"},"vehicle_type_id":"4","last_reported":1683468307,"current_range_meters":17200,"station_id":"ce4bhbh2rcd13ifvqeo0","pricing_plan_id":"free"},{"bike_id":"75397f8e-036f-406b-87aa-ef05631995a0","system_id":"levelo_inurba_marseille","lat":43.273609,"lon":5.362708,"is_reserved":false,"is_disabled":false,"rental_uris":{"android":"levelo://app?vid=75397f8e-036f-406b-87aa-ef05631995a0","ios":"levelo://app?vid=75397f8e-036f-406b-87aa-ef05631995a0"},"vehicle_type_id":"4","last_reported":1683468307,"current_range_meters":20400,"station_id":"ce4bhbh2rcd13ifvqeo0","pricing_plan_id":"free"},{"bike_id":"6ce19521-fda2-4f00-a045-c7b635824c36","system_id":"levelo_inurba_marseille","lat":43.27374,"lon":5.36271,"is_reserved":false,"is_disabled":false,"rental_uris":{"android":"levelo://app?vid=6ce19521-fda2-4f00-a045-c7b635824c36","ios":"levelo://app?vid=6ce19521-fda2-4f00-a045-c7b635824c36"},"vehicle_type_id":"4","last_reported":1683468307,"current_range_meters":19600,"station_id":"ce4bhbh2rcd13ifvqeo0","pricing_plan_id":"free"},{"bike_id":"6352f64b-88dc-4e5b-a321-aed3bff6897b","system_id":"levelo_inurba_marseille","lat":43.273613,"lon":5.362705,"is_reserved":false,"is_disabled":false,"rental_uris":{"android":"levelo://app?vid=6352f64b-88dc-4e5b-a321-aed3bff6897b","ios":"levelo://app?vid=6352f64b-88dc-4e5b-a321-aed3bff6897b"},"vehicle_type_id":"4","last_reported":1683468307,"current_range_meters":22800,"station_id":"ce4bhbh2rcd13ifvqeo0","pricing_plan_id":"free"},{"bike_id":"554d2969-a08e-4a4a-bd10-44d44cccbf0a","system_id":"levelo_inurba_marseille","lat":43.273609,"lon":5.362708,"is_reserved":false,"is_disabled":false,"rental_uris":{"android":"levelo://app?vid=554d2969-a08e-4a4a-bd10-44d44cccbf0a","ios":"levelo://app?vid=554d2969-a08e-4a4a-bd10-44d44cccbf0a"},"vehicle_type_id":"4","last_reported":1683468307,"current_range_meters":29600,"station_id":"ce4bhbh2rcd13ifvqeo0","pricing_plan_id":"free"},{"bike_id":"46ecf642-5bd5-40f9-ab40-762c854e1619","system_id":"levelo_inurba_marseille","lat":43.273609,"lon":5.362708,"is_reserved":false,"is_disabled":false,"rental_uris":{"android":"levelo://app?vid=46ecf642-5bd5-40f9-ab40-762c854e1619","ios":"levelo://app?vid=46ecf642-5bd5-40f9-ab40-762c854e1619"},"vehicle_type_id":"4","last_reported":1683468307,"current_range_meters":18800,"station_id":"ce4bhbh2rcd13ifvqeo0","pricing_plan_id":"free"},{"bike_id":"3ef9f15a-8489-4721-99f3-0909d9421800","system_id":"levelo_inurba_marseille","lat":43.33598,"lon":5.4102,"is_reserved":false,"is_disabled":false,"rental_uris":{"android":"levelo://app?vid=3ef9f15a-8489-4721-99f3-0909d9421800","ios":"levelo://app?vid=3ef9f15a-8489-4721-99f3-0909d9421800"},"vehicle_type_id":"4","last_reported":1683468307,"current_range_meters":31200,"station_id":"ce4bhqh2rcd13ifvqhmg","pricing_plan_id":"free"},{"bike_id":"651d3acb-8c93-4322-bd4d-132698daba0e","system_id":"levelo_inurba_marseille","lat":43.27373,"lon":5.36258,"is_reserved":false,"is_disabled":false,"rental_uris":{"android":"levelo://app?vid=651d3acb-8c93-4322-bd4d-132698daba0e","ios":"levelo://app?vid=651d3acb-8c93-4322-bd4d-132698daba0e"},"vehicle_type_id":"4","last_reported":1683468307,"current_range_meters":24000,"station_id":"ce4bhbh2rcd13ifvqeo0","pricing_plan_id":"free"},{"bike_id":"b7ef0d55-0f12-4f0c-8a41-7eeaebf60e43","system_id":"levelo_inurba_marseille","lat":43.273609,"lon":5.362708,"is_reserved":false,"is_disabled":false,"rental_uris":{"android":"levelo://app?vid=b7ef0d55-0f12-4f0c-8a41-7eeaebf60e43","ios":"levelo://app?vid=b7ef0d55-0f12-4f0c-8a41-7eeaebf60e43"},"vehicle_type_id":"4","last_reported":1683468307,"current_range_meters":31200,"station_id":"ce4bhbh2rcd13ifvqeo0","pricing_plan_id":"free"},{"bike_id":"62ac415a-3421-4914-af26-91643ecc56a6","system_id":"levelo_inurba_marseille","lat":43.273609,"lon":5.362708,"is_reserved":false,"is_disabled":false,"rental_uris":{"android":"levelo://app?vid=62ac415a-3421-4914-af26-91643ecc56a6","ios":"levelo://app?vid=62ac415a-3421-4914-af26-91643ecc56a6"},"vehicle_type_id":"4","last_reported":1683468307,"current_range_meters":14400,"station_id":"ce4bhbh2rcd13ifvqeo0","pricing_plan_id":"free"},{"bike_id":"72f5ab97-7d43-475f-a5fb-757d4ad29eea","system_id":"levelo_inurba_marseille","lat":43.33602,"lon":5.4103,"is_reserved":false,"is_disabled":false,"rental_uris":{"android":"levelo://app?vid=72f5ab97-7d43-475f-a5fb-757d4ad29eea","ios":"levelo://app?vid=72f5ab97-7d43-475f-a5fb-757d4ad29eea"},"vehicle_type_id":"4","last_reported":1683468307,"current_range_meters":30000,"station_id":"ce4bhqh2rcd13ifvqhmg","pricing_plan_id":"free"},{"bike_id":"236e9b27-a1b6-4d9e-8d71-549c2ba15203","system_id":"levelo_inurba_marseille","lat":43.336134,"lon":5.410341,"is_reserved":false,"is_disabled":false,"rental_uris":{"android":"levelo://app?vid=236e9b27-a1b6-4d9e-8d71-549c2ba15203","ios":"levelo://app?vid=236e9b27-a1b6-4d9e-8d71-549c2ba15203"},"vehicle_type_id":"4","last_reported":1683468307,"current_range_meters":31600,"station_id":"ce4bhqh2rcd13ifvqhmg","pricing_plan_id":"free"},{"bike_id":"3cf3668d-051b-4a06-98ee-71e857ac9a3c","system_id":"levelo_inurba_marseille","lat":43.273609,"lon":5.362708,"is_reserved":false,"is_disabled":false,"rental_uris":{"android":"levelo://app?vid=3cf3668d-051b-4a06-98ee-71e857ac9a3c","ios":"levelo://app?vid=3cf3668d-051b-4a06-98ee-71e857ac9a3c"},"vehicle_type_id":"4","last_reported":1683468307,"current_range_meters":21200,"station_id":"ce4bhbh2rcd13ifvqeo0","pricing_plan_id":"free"},{"bike_id":"23145315-d019-40af-82fb-1268fe699e0b","system_id":"levelo_inurba_marseille","lat":43.276769,"lon":5.388787,"is_reserved":false,"is_disabled":false,"rental_uris":{"android":"levelo://app?vid=23145315-d019-40af-82fb-1268fe699e0b","ios":"levelo://app?vid=23145315-d019-40af-82fb-1268fe699e0b"},"vehicle_type_id":"4","last_reported":1683468307,"current_range_meters":8800,"station_id":"ce4bhi12rcd13ifvqfo0","pricing_plan_id":"free"},{"bike_id":"7ee54627-da39-4919-9a4c-9dcfb98c8742","system_id":"levelo_inurba_marseille","lat":43.273613,"lon":5.362705,"is_reserved":false,"is_disabled":false,"rental_uris":{"android":"levelo://app?vid=7ee54627-da39-4919-9a4c-9dcfb98c8742","ios":"levelo://app?vid=7ee54627-da39-4919-9a4c-9dcfb98c8742"},"vehicle_type_id":"4","last_reported":1683468307,"current_range_meters":31600,"station_id":"ce4bhbh2rcd13ifvqeo0","pricing_plan_id":"free"},{"bike_id":"bfafe941-8996-499d-8543-15d50ea7aa1f","system_id":"levelo_inurba_marseille","lat":43.336134,"lon":5.410341,"is_reserved":false,"is_disabled":false,"rental_uris":{"android":"levelo://app?vid=bfafe941-8996-499d-8543-15d50ea7aa1f","ios":"levelo://app?vid=bfafe941-8996-499d-8543-15d50ea7aa1f"},"vehicle_type_id":"4","last_reported":1683468307,"current_range_meters":31200,"station_id":"ce4bhqh2rcd13ifvqhmg","pricing_plan_id":"free"},{"bike_id":"14086a2b-398d-45b6-a21f-05b1a72fc203","system_id":"levelo_inurba_marseille","lat":43.33607,"lon":5.41032,"is_reserved":false,"is_disabled":false,"rental_uris":{"android":"levelo://app?vid=14086a2b-398d-45b6-a21f-05b1a72fc203","ios":"levelo://app?vid=14086a2b-398d-45b6-a21f-05b1a72fc203"},"vehicle_type_id":"4","last_reported":1683468307,"current_range_meters":28800,"station_id":"ce4bhqh2rcd13ifvqhmg","pricing_plan_id":"free"},{"bike_id":"287bfc27-b251-4299-b02b-0806f5488388","system_id":"levelo_inurba_marseille","lat":43.336134,"lon":5.410341,"is_reserved":false,"is_disabled":false,"rental_uris":{"android":"levelo://app?vid=287bfc27-b251-4299-b02b-0806f5488388","ios":"levelo://app?vid=287bfc27-b251-4299-b02b-0806f5488388"},"vehicle_type_id":"4","last_reported":1683468307,"current_range_meters":29600,"station_id":"ce4bhqh2rcd13ifvqhmg","pricing_plan_id":"free"},{"bike_id":"44b37b4a-46f4-4855-aa5d-43ccc935e374","system_id":"levelo_inurba_marseille","lat":43.336134,"lon":5.410341,"is_reserved":false,"is_disabled":false,"rental_uris":{"android":"levelo://app?vid=44b37b4a-46f4-4855-aa5d-43ccc935e374","ios":"levelo://app?vid=44b37b4a-46f4-4855-aa5d-43ccc935e374"},"vehicle_type_id":"4","last_reported":1683468307,"current_range_meters":30800,"station_id":"ce4bhqh2rcd13ifvqhmg","pricing_plan_id":"free"},{"bike_id":"cf9b8d32-8de3-4fbf-a6a2-7946f713b3fc","system_id":"levelo_inurba_marseille","lat":43.336134,"lon":5.410341,"is_reserved":false,"is_disabled":false,"rental_uris":{"android":"levelo://app?vid=cf9b8d32-8de3-4fbf-a6a2-7946f713b3fc","ios":"levelo://app?vid=cf9b8d32-8de3-4fbf-a6a2-7946f713b3fc"},"vehicle_type_id":"4","last_reported":1683468307,"current_range_meters":30400,"station_id":"ce4bhqh2rcd13ifvqhmg","pricing_plan_id":"free"},{"bike_id":"965dbbad-d3c6-4491-b5e0-6a379e022ccc","system_id":"levelo_inurba_marseille","lat":43.336134,"lon":5.410341,"is_reserved":false,"is_disabled":false,"rental_uris":{"android":"levelo://app?vid=965dbbad-d3c6-4491-b5e0-6a379e022ccc","ios":"levelo://app?vid=965dbbad-d3c6-4491-b5e0-6a379e022ccc"},"vehicle_type_id":"4","last_reported":1683468307,"current_range_meters":31600,"station_id":"ce4bhqh2rcd13ifvqhmg","pricing_plan_id":"free"},{"bike_id":"a9be8188-4004-4d1f-b018-e5ca9139641c","system_id":"levelo_inurba_marseille","lat":43.336134,"lon":5.410341,"is_reserved":false,"is_disabled":false,"rental_uris":{"android":"levelo://app?vid=a9be8188-4004-4d1f-b018-e5ca9139641c","ios":"levelo://app?vid=a9be8188-4004-4d1f-b018-e5ca9139641c"},"vehicle_type_id":"4","last_reported":1683468307,"current_range_meters":28400,"station_id":"ce4bhqh2rcd13ifvqhmg","pricing_plan_id":"free"},{"bike_id":"10568d38-0132-4741-8f4d-87ea571bb7e1","system_id":"levelo_inurba_marseille","lat":43.336134,"lon":5.410341,"is_reserved":false,"is_disabled":false,"rental_uris":{"android":"levelo://app?vid=10568d38-0132-4741-8f4d-87ea571bb7e1","ios":"levelo://app?vid=10568d38-0132-4741-8f4d-87ea571bb7e1"},"vehicle_type_id":"4","last_reported":1683468307,"current_range_meters":26000,"station_id":"ce4bhqh2rcd13ifvqhmg","pricing_plan_id":"free"},{"bike_id":"b1d92fef-b9e4-44f6-8a60-046ae5bbf034","system_id":"levelo_inurba_marseille","lat":43.27664,"lon":5.388691,"is_reserved":false,"is_disabled":false,"rental_uris":{"android":"levelo://app?vid=b1d92fef-b9e4-44f6-8a60-046ae5bbf034","ios":"levelo://app?vid=b1d92fef-b9e4-44f6-8a60-046ae5bbf034"},"vehicle_type_id":"4","last_reported":1683468307,"current_range_meters":4000,"station_id":"","pricing_plan_id":"free"},