{"last_updated":1702310983,"ttl":30,"version":"2.2","data":{"bikes":[{"bike_id":"e4bbedde-eeb9-4491-946f-8240bcf3f834","system_id":"levelo_inurba_marseille","lat":43.305989,"lon":5.37225,"is_reserved":false,"is_disabled":false,"rental_uris":{"android":"levelo://app?vid=e4bbedde-eeb9-4491-946f-8240bcf3f834","ios":"levelo://app?vid=e4bbedde-eeb9-4491-946f-8240bcf3f834"},"vehicle_type_id":"4","last_reported":1702310983,"current_range_meters":24000,"station_id":"ce4bgqh2rcd13ifvqc4g","pricing_plan_id":"free"},{"bike_id":"ba289439-6c65-4c9b-936a-1623dfd49c22","system_id":"levelo_inurba_marseille","lat":43.305989,"lon":5.37225,"is_reserved":false,"is_disabled":false,"rental_uris":{"android":"levelo://app?vid=ba289439-6c65-4c9b-936a-1623dfd49c22","ios":"levelo://app?vid=ba289439-6c65-4c9b-936a-1623dfd49c22"},"vehicle_type_id":"4","last_reported":1702310983,"current_range_meters":16800,"station_id":"ce4bgqh2rcd13ifvqc4g","pricing_plan_id":"free"},{"bike_id":"eb55ab0f-4cf4-4960-b142-1557f23bc7ca","system_id":"levelo_inurba_marseille","lat":43.311131,"lon":5.377651,"is_reserved":false,"is_disabled":false,"rental_uris":{"android":"levelo://app?vid=eb55ab0f-4cf4-4960-b142-1557f23bc7ca","ios":"levelo://app?vid=eb55ab0f-4cf4-4960-b142-1557f23bc7ca"},"vehicle_type_id":"4","last_reported":1702310983,"current_range_meters":0,"station_id":"ce4bgt92rcd13ifvqcg0","pricing_plan_id":"free"},{"bike_id":"0df358b2-a461-4a59-b299-6fd3eadddf20","system_id":"levelo_inurba_marseille","lat":43.3108,"lon":5.37812,"is_reserved":false,"is_disabled":false,"rental_uris":{"android":"levelo://app?vid=0df358b2-a461-4a59-b299-6fd3eadddf20","ios":"levelo://app?vid=0df358b2-a461-4a59-b299-6fd3eadddf20"},"vehicle_type_id":"4","last_reported":1702310983,"current_range_meters":20400,"station_id":"","pricing_plan_id":"free"},{"bike_id":"be29d2d4-f0ea-44d5-86ea-14840f62e837","system_id":"levelo_inurba_marseille","lat":43.317075,"lon":5.377367,"is_reserved":false,"is_disabled":false,"rental_uris":{"android":"levelo://app?vid=be29d2d4-f0ea-44d5-86ea-14840f62e837","ios":"levelo://app?vid=be29d2d4-f0ea-44d5-86ea-14840f62e837"},"vehicle_type_id":"4","last_reported":1702310983,"current_range_meters":19200,"station_id":"ce4bgth2rcd13ifvqch0","pricing_plan_id":"free"},{"bike_id":"0089d7ec-cacb-4168-92b5-f1d9c75fc379","system_id":"levelo_inurba_marseille","lat":43.303046,"lon":5.368981,"is_reserved":false,"is_disabled":false,"rental_uris":{"android":"levelo://app?vid=0089d7ec-cacb-4168-92b5-f1d9c75fc379","ios":"levelo://app?vid=0089d7ec-cacb-4168-92b5-f1d9c75fc379"},"vehicle_type_id":"4","last_reported":1702310983,"current_range_meters":8400,"station_id":"ce4bgqh2rcd13ifvqc5g","pricing_plan_id":"free"},{"bike_id":"e9627390-7690-4fa6-86d0-ff8597dd3cc8","system_id":"levelo_inurba_marseille","lat":43.3153,"lon":5.38039,"is_reserved":false,"is_disabled":false,"rental_uris":{"android":"levelo://app?vid=e9627390-7690-4fa6-86d0-ff8597dd3cc8","ios":"levelo://app?vid=e9627390-7690-4fa6-86d0-ff8597dd3cc8"},"vehicle_type_id":"4","last_reported":1702310983,"current_range_meters":22400,"station_id":"ce4bhsp2rcd13ifvqi50","pricing_plan_id":"free"},{"bike_id":"a8a98cdf-8b57-4786-a779-3aa06f7268d6","system_id":"levelo_inurba_marseille","lat":43.301939,"lon":5.366286,"is_reserved":false,"is_disabled":false,"rental_uris":{"android":"levelo://app?vid=a8a98cdf-8b57-4786-a779-3aa06f7268d6","ios":"levelo://app?vid=a8a98cdf-8b57-4786-a779-3aa06f7268d6"},"vehicle_type_id":"4","last_reported":1702310983,"current_range_meters":1600,"station_id":"ce4bgrh2rcd13ifvqc8g","pricing_plan_id":"free"},{"bike_id":"3aba153a-4869-4a29-82d0-643d46cc962e","system_id":"levelo_inurba_marseille","lat":43.301939,"lon":5.366286,"is_reserved":false,"is_disabled":false,"rental_uris":{"android":"levelo://app?vid=3aba153a-4869-4a29-82d0-643d46cc962e","ios":"levelo://app?vid=3aba153a-4869-4a29-82d0-643d46cc962e"},"vehicle_type_id":"4","last_reported":1702310983,"current_range_meters":19200,"station_id":"ce4bgrh2rcd13ifvqc8g","pricing_plan_id":"free"},{"bike_id":"47fbdce5-980b-4eeb-9fb0-745f334d99ab","system_id":"levelo_inurba_marseille","lat":43.324771,"lon":5.36557,"is_reserved":false,"is_disabled":false,"rental_uris":{"android":"levelo://app?vid=47fbdce5-980b-4eeb-9fb0-745f334d99ab","ios":"levelo://app?vid=47fbdce5-980b-4eeb-9fb0-745f334d99ab"},"vehicle_type_id":"4","last_reported":1702310983,"current_range_meters":1200,"station_id":"ce4bhs12rcd13ifvqhvg","pricing_plan_id":"free"},{"bike_id":"d507dc20-f3f0-485a-b520-e5ecd0effbe5","system_id":"levelo_inurba_marseille","lat":43.31997,"lon":5.38151,"is_reserved":false,"is_disabled":false,"rental_uris":{"android":"levelo://app?vid=d507dc20-f3f0-485a-b520-e5ecd0effbe5","ios":"levelo://app?vid=d507dc20-f3f0-485a-b520-e5ecd0effbe5"},"vehicle_type_id":"4","last_reported":1702310983,"current_range_meters":18400,"station_id":"ce4bhr12rcd13ifvqhpg","pricing_plan_id":"free"},{"bike_id":"2b7f7a37-391a-4eb2-b1a1-ddc45a522eff","system_id":"levelo_inurba_marseille","lat":43.319935,"lon":5.381699,"is_reserved":false,"is_disabled":false,"rental_uris":{"android":"levelo://app?vid=2b7f7a37-391a-4eb2-b1a1-ddc45a522eff","ios":"levelo://app?vid=2b7f7a37-391a-4eb2-b1a1-ddc45a522eff"},"vehicle_type_id":"4","last_reported":1702310983,"current_range_meters":26400,"station_id":"ce4bhr12rcd13ifvqhpg","pricing_plan_id":"free"},{"bike_id":"ec59deff-f981-4e58-aa3c-30f947a82ad0","system_id":"levelo_inurba_marseille","lat":43.313571,"lon":5.384829,"is_reserved":false,"is_disabled":false,"rental_uris":{"android":"levelo://app?vid=ec59deff-f981-4e58-aa3c-30f947a82ad0","ios":"levelo://app?vid=ec59deff-f981-4e58-aa3c-30f947a82ad0"},"vehicle_type_id":"4","last_reported":1702310983,"current_range_meters":11200,"station_id":"ce4bgt92rcd13ifvqcf0","pricing_plan_id":"free"},{"bike_id":"f5dc87db-1627-40f9-8d4d-6dfa629a504a","system_id":"levelo_inurba_marseille","lat":43.31356,"lon":5.38493,"is_reserved":false,"is_disabled":false,"rental_uris":{"android":"levelo://app?vid=f5dc87db-1627-40f9-8d4d-6dfa629a504a","ios":"levelo://app?vid=f5dc87db-1627-40f9-8d4d-6dfa629a504a"},"vehicle_type_id":"4","last_reported":1702310983,"current_range_meters":16000,"station_id":"ce4bgt92rcd13ifvqcf0","pricing_plan_id":"free"},{"bike_id":"669511fd-b61d-4ae8-88ca-80796d1d8a06","system_id":"levelo_inurba_marseille","lat":43.322872,"lon":5.382756,"is_reserved":false,"is_disabled":false,"rental_uris":{"android":"levelo://app?vid=669511fd-b61d-4ae8-88ca-80796d1d8a06","ios":"levelo://app?vid=669511fd-b61d-4ae8-88ca-80796d1d8a06"},"vehicle_type_id":"4","last_reported":1702310983,"current_range_meters":11600,"station_id":"ce4bhr12rcd13ifvqhqg","pricing_plan_id":"free"},{"bike_id":"09661d30-026d-4f34-bf22-f6bfc115aa0b","system_id":"levelo_inurba_marseille","lat":43.32824,"lon":5.36686,"is_reserved":false,"is_disabled":false,"rental_uris":{"android":"levelo://app?vid=09661d30-026d-4f34-bf22-f6bfc115aa0b","ios":"levelo://app?vid=09661d30-026d-4f34-bf22-f6bfc115aa0b"},"vehicle_type_id":"4","last_reported":1702310983,"current_range_meters":14000,"station_id":"ce4bhs92rcd13ifvqi0g","pricing_plan_id":"free"},{"bike_id":"e445088b-ea85-4a39-915c-fe076c5e8f64","system_id":"levelo_inurba_marseille","lat":43.32827,"lon":5.36677,"is_reserved":false,"is_disabled":false,"rental_uris":{"android":"levelo://app?vid=e445088b-ea85-4a39-915c-fe076c5e8f64","ios":"levelo://app?vid=e445088b-ea85-4a39-915c-fe076c5e8f64"},"vehicle_type_id":"4","last_reported":1702310983,"current_range_meters":0,"station_id":"ce4bhs92rcd13ifvqi0g","pricing_plan_id":"free"},{"bike_id":"9b0409c8-952e-43cd-8929-2c98668b8e00","system_id":"levelo_inurba_marseille","lat":43.3283,"lon":5.36672,"is_reserved":false,"is_disabled":false,"rental_uris":{"android":"levelo://app?vid=9b0409c8-952e-43cd-8929-2c98668b8e00","ios":"levelo://app?vid=9b0409c8-952e-43cd-8929-2c98668b8e00"},"vehicle_type_id":"4","last_reported":1702310983,"current_range_meters":13200,"station_id":"ce4bhs92rcd13ifvqi0g","pricing_plan_id":"free"},{"bike_id":"52d8b7ba-7505-413c-b898-efb75f14c13c","system_id":"levelo_inurba_marseille","lat":43.328371,"lon":5.366909,"is_reserved":false,"is_disabled":false,"rental_uris":{"android":"levelo://app?vid=52d8b7ba-7505-413c-b898-efb75f14c13c","ios":"levelo://app?vid=52d8b7ba-7505-413c-b898-efb75f14c13c"},"vehicle_type_id":"4","last_reported":1702310983,"current_range_meters":17200,"station_id":"ce4bhs92rcd13ifvqi0g","pricing_plan_id":"free"},{"bike_id":"61a9d821-211d-4cd3-b66f-6a9b3fadd2d2","system_id":"levelo_inurba_marseille","lat":43.32833,"lon":5.3668,"is_reserved":false,"is_disabled":false,"rental_uris":{"android":"levelo://app?vid=61a9d821-211d-4cd3-b66f-6a9b3fadd2d2","ios":"levelo://app?vid=61a9d821-211d-4cd3-b66f-6a9b3fadd2d2"},"vehicle_type_id":"4","last_reported":1702310983,"current_range_meters":22400,"station_id":"ce4bhs92rcd13ifvqi0g","pricing_plan_id":"free"},{"bike_id":"44288a65-b615-4636-91b4-3c4a14f5ed4f","system_id":"levelo_inurba_marseille","lat":43.298681,"lon":5.397225,"is_reserved":false,"is_disabled":false,"rental_uris":{"android":"levelo://app?vid=44288a65-b615-4636-91b4-3c4a14f5ed4f","ios":"levelo://app?vid=44288a65-b615-4636-91b4-3c4a14f5ed4f"},"vehicle_type_id":"4","last_reported":1702310983,"current_range_meters":13600,"station_id":"ce4bh0h2rcd13ifvqd50","pricing_plan_id":"free"},{"bike_id":"ee36df66-a608-4c89-b9bb-356f2878236f","system_id":"levelo_inurba_marseille","lat":43.2968,"lon":5.37291,"is_reserved":false,"is_disabled":false,"rental_uris":{"android":"levelo://app?vid=ee36df66-a608-4c89-b9bb-356f2878236f","ios":"levelo://app?vid=ee36df66-a608-4c89-b9bb-356f2878236f"},"vehicle_type_id":"4","last_reported":1702310983,"current_range_meters":3600,"station_id":"ce4bgk12rcd13ifvqbj0","pricing_plan_id":"free"},{"bike_id":"cfebd6ce-f4a9-4d29-be74-47dfccd6b861","system_id":"levelo_inurba_marseille","lat":43.29573,"lon":5.367355,"is_reserved":false,"is_disabled":false,"rental_uris":{"android":"levelo://app?vid=cfebd6ce-f4a9-4d29-be74-47dfccd6b861","ios":"levelo://app?vid=cfebd6ce-f4a9-4d29-be74-47dfccd6b861"},"vehicle_type_id":"4","last_reported":1702310983,"current_range_meters":23600,"station_id":"ce4bgph2rcd13ifvqc2g","pricing_plan_id":"free"},{"bike_id":"a5589e38-f15a-46fe-9b37-27cf16ba9de2","system_id":"levelo_inurba_marseille","lat":43.329847,"lon":5.365332,"is_reserved":false,"is_disabled":false,"rental_uris":{"android":"levelo://app?vid=a5589e38-f15a-46fe-9b37-27cf16ba9de2","ios":"levelo://app?vid=a5589e38-f15a-46fe-9b37-27cf16ba9de2"},"vehicle_type_id":"4","last_reported":1702310983,"current_range_meters":23600,"station_id":"","pricing_plan_id":"free"},{"bike_id":"01fe37c2-0d80-4e62-966b-03072b67979e","system_id":"levelo_inurba_marseille","lat":43.296921,"lon":5.376579,"is_reserved":false,"is_disabled":false,"rental_uris":{"android":"levelo://app?vid=01fe37c2-0d80-4e62-966b-03072b67979e","ios":"levelo://app?vid=01fe37c2-0d80-4e62-966b-03072b67979e"},"vehicle_type_id":"4","last_reported":1702310983,"current_range_meters":24000,"station_id":"ce4bgkh2rcd13ifvqbl0","pricing_plan_id":"free"},{"bike_id":"72610f98-8411-4974-8a53-e51576a78d8b","system_id":"levelo_inurba_marseille","lat":43.309589,"lon":5.390258,"is_reserved":false,"is_disabled":false,"rental_uris":{"android":"levelo://app?vid=72610f98-8411-4974-8a53-e51576a78d8b","ios":"levelo://app?vid=72610f98-8411-4974-8a53-e51576a78d8b"},"vehicle_type_id":"4","last_reported":1702310983,"current_range_meters":0,"station_id":"ce4bgup2rcd13ifvqco0","pricing_plan_id":"free"},{"bike_id":"955731dd-515e-4167-bbc1-5310edaa39bd","system_id":"levelo_inurba_marseille","lat":43.296935,"lon":5.376544,"is_reserved":false,"is_disabled":false,"rental_uris":{"android":"levelo://app?vid=955731dd-515e-4167-bbc1-5310edaa39bd","ios":"levelo://app?vid=955731dd-515e-4167-bbc1-5310edaa39bd"},"vehicle_type_id":"4","last_reported":1702310983,"current_range_meters":2400,"station_id":"ce4bgkh2rcd13ifvqbl0","pricing_plan_id":"free"},{"bike_id":"10904947-0efd-46d8-afdf-ada268f06b82","system_id":"levelo_inurba_marseille","lat":43.298037,"lon":5.381066,"is_reserved":false,"is_disabled":false,"rental_uris":{"android":"levelo://app?vid=10904947-0efd-46d8-afdf-ada268f06b82","ios":"levelo://app?vid=10904947-0efd-46d8-afdf-ada268f06b82"},"vehicle_type_id":"4","last_reported":1702310983,"current_range_meters":3600,"station_id":"ce4bgip2rcd13ifvqbb0","pricing_plan_id":"free"},{"bike_id":"c9eb788b-8d44-42ee-9f07-44658ad48fa5","system_id":"levelo_inurba_marseille","lat":43.296263,"lon":5.377094,"is_reserved":false,"is_disabled":false,"rental_uris":{"android":"levelo://app?vid=c9eb788b-8d44-42ee-9f07-44658ad48fa5","ios":"levelo://app?vid=c9eb788b-8d44-42ee-9f07-44658ad48fa5"},"vehicle_type_id":"4","last_reported":1702310983,"current_range_meters":29200,"station_id":"ce4bgi92rcd13ifvqb90","pricing_plan_id":"free"},{"bike_id":"6c2156a8-9c43-4134-b927-f14ffa5eacfc","system_id":"levelo_inurba_marseille","lat":43.304274,"lon":5.388873,"is_reserved":false,"is_disabled":false,"rental_uris":{"android":"levelo://app?vid=6c2156a8-9c43-4134-b927-f14ffa5eacfc","ios":"levelo://app?vid=6c2156a8-9c43-4134-b927-f14ffa5eacfc"},"vehicle_type_id":"4","last_reported":1702310983,"current_range_meters":400,"station_id":"ce4bgk12rcd13ifvqbi0","pricing_plan_id":"free"},{"bike_id":"4ee18083-b7bc-41a2-8874-4f2f09b35b20","system_id":"levelo_inurba_marseille","lat":43.29559,"lon":5.37533,"is_reserved":false,"is_disabled":false,"rental_uris":{"android":"levelo://app?vid=4ee18083-b7bc-41a2-8874-4f2f09b35b20","ios":"levelo://app?vid=4ee18083-b7bc-41a2-8874-4f2f09b35b20"},"vehicle_type_id":"4","last_reported":1702310983,"current_range_meters":3200,"station_id":"ce4bgh92rcd13ifvqb50","pricing_plan_id":"free"},{"bike_id":"cd9d2916-2d43-412e-a847-4ea9d7808e5b","system_id":"levelo_inurba_marseille","lat":43.304278,"lon":5.388868,"is_reserved":false,"is_disabled":false,"rental_uris":{"android":"levelo://app?vid=cd9d2916-2d43-412e-a847-4ea9d7808e5b","ios":"levelo://app?vid=cd9d2916-2d43-412e-a847-4ea9d7808e5b"},"vehicle_type_id":"4","last_reported":1702310983,"current_range_meters":11600,"station_id":"ce4bgk12rcd13ifvqbi0","pricing_plan_id":"free"},{"bike_id":"bf8609cc-830a-412d-bedc-34b0dc2d340b","system_id":"levelo_inurba_marseille","lat":43.295279,"lon":5.375048,"is_reserved":false,"is_disabled":false,"rental_uris":{"android":"levelo://app?vid=bf8609cc-830a-412d-bedc-34b0dc2d340b","ios":"levelo://app?vid=bf8609cc-830a-412d-bedc-34b0dc2d340b"},"vehicle_type_id":"4","last_reported":1702310983,"current_range_meters":0,"station_id":"ce4bgkp2rcd13ifvqbmg","pricing_plan_id":"free"},{"bike_id":"6ad124ee-c9e6-4034-b9a1-6d6873e20b2a","system_id":"levelo_inurba_marseille","lat":43.299707,"lon":5.384859,"is_reserved":false,"is_disabled":false,"rental_uris":{"android":"levelo://app?vid=6ad124ee-c9e6-4034-b9a1-6d6873e20b2a","ios":"levelo://app?vid=6ad124ee-c9e6-4034-b9a1-6d6873e20b2a"},"vehicle_type_id":"4","last_reported":1702310983,"current_range_meters":22000,"station_id":"ce4bgj92rcd13ifvqbd0","pricing_plan_id":"free"},{"bike_id":"a243f3e6-fd77-4e9a-8970-fa1f2c5df8a0","system_id":"levelo_inurba_marseille","lat":43.299707,"lon":5.384859,"is_reserved":false,"is_disabled":false,"rental_uris":{"android":"levelo://app?vid=a243f3e6-fd77-4e9a-8970-fa1f2c5df8a0","ios":"levelo://app?vid=a243f3e6-fd77-4e9a-8970-fa1f2c5df8a0"},"vehicle_type_id":"4","last_reported":1702310983,"current_range_meters":7600,"station_id":"ce4bgj92rcd13ifvqbd0","pricing_plan_id":"free"},{"bike_id":"deb632dd-8997-4a36-8d60-0fc8e1d9b939","system_id":"levelo_inurba_marseille","lat":43.299717,"lon":5.384845,"is_reserved":false,"is_disabled":false,"rental_uris":{"android":"levelo://app?vid=deb632dd-8997-4a36-8d60-0fc8e1d9b939","ios":"levelo://app?vid=deb632dd-8997-4a36-8d60-0fc8e1d9b939"},"vehicle_type_id":"4","last_reported":1702310983,"current_range_meters":28800,"station_id":"ce4bgj92rcd13ifvqbd0","pricing_plan_id":"free"},{"bike_id":"97456548-d8a5-4810-8c26-7e9a8bababed","system_id":"levelo_inurba_marseille","lat":43.299724,"lon":5.384848,"is_reserved":false,"is_disabled":false,"rental_uris":{"android":"levelo://app?vid=97456548-d8a5-4810-8c26-7e9a8bababed","ios":"levelo://app?vid=97456548-d8a5-4810-8c26-7e9a8bababed"},"vehicle_type_id":"4","last_reported":1702310983,"current_range_meters":1600,"station_id":"ce4bgj92rcd13ifvqbd0","pricing_plan_id":"free"},{"bike_id":"bf2204f8-f9d3-40ca-bdc6-4f023f792473","system_id":"levelo_inurba_marseille","lat":43.32367,"lon":5.388836,"is_reserved":false,"is_disabled":false,"rental_uris":{"android":"levelo://app?vid=bf2204f8-f9d3-40ca-bdc6-4f023f792473","ios":"levelo://app?vid=bf2204f8-f9d3-40ca-bdc6-4f023f792473"},"vehicle_type_id":"4","last_reported":1702310983,"current_range_meters":21200,"station_id":"ce4bhqp2rcd13ifvqhog","pricing_plan_id":"free"},{"bike_id":"77a6c46d-d898-4e4f-8846-efa91689c7f0","system_id":"levelo_inurba_marseille","lat":43.295504,"lon":5.379308,"is_reserved":false,"is_disabled":false,"rental_uris":{"android":"levelo://app?vid=77a6c46d-d898-4e4f-8846-efa91689c7f0","ios":"levelo://app?vid=77a6c46d-d898-4e4f-8846-efa91689c7f0"},"vehicle_type_id":"4","last_reported":1702310983,"current_range_meters":0,"station_id":"","pricing_plan_id":"free"},{"bike_id":"0aead82c-f3ec-4825-9910-636cd87d7e6a","system_id":"levelo_inurba_marseille","lat":43.293259,"lon":5.371586,"is_reserved":false,"is_disabled":false,"rental_uris":{"android":"levelo://app?vid=0aead82c-f3ec-4825-9910-636cd87d7e6a","ios":"levelo://app?vid=0aead82c-f3ec-4825-9910-636cd87d7e6a"},"vehicle_type_id":"4","last_reported":1702310983,"current_range_meters":28800,"station_id":"ce4bgh92rcd13ifvqb40","pricing_plan_id":"free"},{"bike_id":"72a578c2-7add-40bb-be32-b9f8dbb3fccb","system_id":"levelo_inurba_marseille","lat":43.293259,"lon":5.371586,"is_reserved":false,"is_disabled":false,"rental_uris":{"android":"levelo://app?vid=72a578c2-7add-40bb-be32-b9f8dbb3fccb","ios":"levelo://app?vid=72a578c2-7add-40bb-be32-b9f8dbb3fccb"},"vehicle_type_id":"4","last_reported":1702310983,"current_range_meters":22400,"station_id":"ce4bgh92rcd13ifvqb40","pricing_plan_id":"free"},{"bike_id":"11baeee1-7eae-4737-824c-d395e4603533","system_id":"levelo_inurba_marseille","lat":43.293259,"lon":5.371586,"is_reserved":false,"is_disabled":false,"rental_uris":{"android":"levelo://app?vid=11baeee1-7eae-4737-824c-d395e4603533","ios":"levelo://app?vid=11baeee1-7eae-4737-824c-d395e4603533"},"vehicle_type_id":"4","last_reported":1702310983,"current_range_meters":24400,"station_id":"ce4bgh92rcd13ifvqb40","pricing_plan_id":"free"},{"bike_id":"120a010b-dd24-4ace-9bf0-ce6a11be71e9","system_id":"levelo_inurba_marseille","lat":43.293259,"lon":5.371586,"is_reserved":false,"is_disabled":false,"rental_uris":{"android":"levelo://app?vid=120a010b-dd24-4ace-9bf0-ce6a11be71e9","ios":"levelo://app?vid=120a010b-dd24-4ace-9bf0-ce6a11be71e9"},"vehicle_type_id":"4","last_reported":1702310983,"current_range_meters":24800,"station_id":"ce4bgh92rcd13ifvqb40","pricing_plan_id":"free"},{"bike_id":"6f470fb9-9428-494f-8b76-a2d04a516fe7","system_id":"levelo_inurba_marseille","lat":43.293009,"lon":5.374584,"is_reserved":false,"is_disabled":false,"rental_uris":{"android":"levelo://app?vid=6f470fb9-9428-494f-8b76-a2d04a516fe7","ios":"levelo://app?vid=6f470fb9-9428-494f-8b76-a2d04a516fe7"},"vehicle_type_id":"4","last_reported":1702310983,"current_range_meters":12400,"station_id":"ce4bgi12rcd13ifvqb70","pricing_plan_id":"free"},{"bike_id":"e5220b94-6289-4ce9-9006-77fd9c1a04da","system_id":"levelo_inurba_marseille","lat":43.300852,"lon":5.390859,"is_reserved":false,"is_disabled":false,"rental_uris":{"android":"levelo://app?vid=e5220b94-6289-4ce9-9006-77fd9c1a04da","ios":"levelo://app?vid=e5220b94-6289-4ce9-9006-77fd9c1a04da"},"vehicle_type_id":"4","last_reported":1702310983,"current_range_meters":0,"station_id":"ce4bh192rcd13ifvqdb0","pricing_plan_id":"free"},{"bike_id":"563185a3-0c7d-43d0-afe7-f402986f5f0b","system_id":"levelo_inurba_marseille","lat":43.30085,"lon":5.390856,"is_reserved":false,"is_disabled":false,"rental_uris":{"android":"levelo://app?vid=563185a3-0c7d-43d0-afe7-f402986f5f0b","ios":"levelo://app?vid=563185a3-0c7d-43d0-afe7-f402986f5f0b"},"vehicle_type_id":"4","last_reported":1702310983,"current_range_meters":22400,"station_id":"ce4bh192rcd13ifvqdb0","pricing_plan_id":"free"},{"bike_id":"bc5ddddb-b923-4c71-ba4b-13c6e6f7a081","system_id":"levelo_inurba_marseille","lat":43.29903,"lon":5.38901,"is_reserved":false,"is_disabled":false,"rental_uris":{"android":"levelo://app?vid=bc5ddddb-b923-4c71-ba4b-13c6e6f7a081","ios":"levelo://app?vid=bc5ddddb-b923-4c71-ba4b-13c6e6f7a081"},"vehicle_type_id":"4","last_reported":1702310983,"current_range_meters":4400,"station_id":"","pricing_plan_id":"free"},{"bike_id":"d96e086a-3564-4122-8131-12bffbbfbc32","system_id":"levelo_inurba_marseille","lat":43.291671,"lon":5.371575,"is_reserved":false,"is_disabled":false,"rental_uris":{"android":"levelo://app?vid=d96e086a-3564-4122-8131-12bffbbfbc32","ios":"levelo://app?vid=d96e086a-3564-4122-8131-12bffbbfbc32"},"vehicle_type_id":"4","last_reported":1702310983,"current_range_meters":22400,"station_id":"ce4bha92rcd13ifvqeh0","pricing_plan_id":"free"},{"bike_id":"b5d41def-f5a5-431a-a863-64a053424e6f","system_id":"levelo_inurba_marseille","lat":43.291675,"lon":5.371583,"is_reserved":false,"is_disabled":false,"rental_uris":{"android":"levelo://app?vid=b5d41def-f5a5-431a-a863-64a053424e6f","ios":"levelo://app?vid=b5d41def-f5a5-431a-a863-64a053424e6f"},"vehicle_type_id":"4","last_reported":1702310983,"current_range_meters":26000,"station_id":"ce4bha92rcd13ifvqeh0","pricing_plan_id":"free"},{"bike_id":"90d273d9-8cef-4119-be78-81579e1ee16f","system_id":"levelo_inurba_marseille","lat":43.313291,"lon":5.396838,"is_reserved":false,"is_disabled":false,"rental_uris":{"android":"levelo://app?vid=90d273d9-8cef-4119-be78-81579e1ee16f","ios":"levelo://app?vid=90d273d9-8cef-4119-be78-81579e1ee16f"},"vehicle_type_id":"4","last_reported":1702310983,"current_range_meters":10400,"station_id":"ce4bgvp2rcd13ifvqcu0","pricing_plan_id":"free"},{"bike_id":"d6a8a4d8-a33b-4ddc-8745-0d71519ee859","system_id":"levelo_inurba_marseille","lat":43.313291,"lon":5.396838,"is_reserved":false,"is_disabled":false,"rental_uris":{"android":"levelo://app?vid=d6a8a4d8-a33b-4ddc-8745-0d71519ee859","ios":"levelo://app?vid=d6a8a4d8-a33b-4ddc-8745-0d71519ee859"},"vehicle_type_id":"4","last_reported":1702310983,"current_range_meters":31600,"station_id":"ce4bgvp2rcd13ifvqcu0","pricing_plan_id":"free"},{"bike_id":"31f0218b-b34b-4972-94f9-440ede4eff75","system_id":"levelo_inurba_marseille","lat":43.313291,"lon":5.396838,"is_reserved":false,"is_disabled":false,"rental_uris":{"android":"levelo://app?vid=31f0218b-b34b-4972-94f9-440ede4eff75","ios":"levelo://app?vid=31f0218b-b34b-4972-94f9-440ede4eff75"},"vehicle_type_id":"4","last_reported":1702310983,"current_range_meters":11600,"station_id":"ce4bgvp2rcd13ifvqcu0","pricing_plan_id":"free"},{"bike_id":"172cdf21-d835-46a6-a1f4-e27ca0a8db55","system_id":"levelo_inurba_marseille","lat":43.28951,"lon":5.36484,"is_reserved":false,"is_disabled":false,"rental_uris":{"android":"levelo://app?vid=172cdf21-d835-46a6-a1f4-e27ca0a8db55","ios":"levelo://app?vid=172cdf21-d835-46a6-a1f4-e27ca0a8db55"},"vehicle_type_id":"4","last_reported":1702310983,"current_range_meters":26800,"station_id":"ce4bhc92rcd13ifvqetg","pricing_plan_id":"free"},{"bike_id":"d67da49c-3f86-43a1-8c54-06de9fd6faf2","system_id":"levelo_inurba_marseille","lat":43.28946,"lon":5.36393,"is_reserved":false,"is_disabled":false,"rental_uris":{"android":"levelo://app?vid=d67da49c-3f86-43a1-8c54-06de9fd6faf2","ios":"levelo://app?vid=d67da49c-3f86-43a1-8c54-06de9fd6faf2"},"vehicle_type_id":"4","last_reported":1702310983,"current_range_meters":8400,"station_id":"ce4bhc92rcd13ifvqetg","pricing_plan_id":"free"},{"bike_id":"8ca35339-b544-45be-99d7-d41a20f4576c","system_id":"levelo_inurba_marseille","lat":43.28944,"lon":5.36391,"is_reserved":false,"is_disabled":false,"rental_uris":{"android":"levelo://app?vid=8ca35339-b544-45be-99d7-d41a20f4576c","ios":"levelo://app?vid=8ca35339-b544-45be-99d7-d41a20f4576c"},"vehicle_type_id":"4","last_reported":1702310983,"current_range_meters":1600,"station_id":"ce4bhc92rcd13ifvqetg","pricing_plan_id":"free"},{"bike_id":"39d29eb4-ae18-4d4b-8905-0c74a62c2c97","system_id":"levelo_inurba_marseille","lat":43.304296,"lon":5.397513,"is_reserved":false,"is_disabled":false,"rental_uris":{"android":"levelo://app?vid=39d29eb4-ae18-4d4b-8905-0c74a62c2c97","ios":"levelo://app?vid=39d29eb4-ae18-4d4b-8905-0c74a62c2c97"},"vehicle_type_id":"4","last_reported":1702310983,"current_range_meters":0,"station_id":"ce4bh092rcd13ifvqd20","pricing_plan_id":"free"},{"bike_id":"f1896741-896e-40c9-aa4d-96fe134ed880","system_id":"levelo_inurba_marseille","lat":43.3304,"lon":5.38919,"is_reserved":false,"is_disabled":false,"rental_uris":{"android":"levelo://app?vid=f1896741-896e-40c9-aa4d-96fe134ed880","ios":"levelo://app?vid=f1896741-896e-40c9-aa4d-96fe134ed880"},"vehicle_type_id":"4","last_reported":1702310983,"current_range_meters":5600,"station_id":"ce4bhr92rcd13ifvqhrg","pricing_plan_id":"free"},{"bike_id":"8fe00b0b-0e09-404a-bd85-e8e62359c8bf","system_id":"levelo_inurba_marseille","lat":43.290103,"lon":5.356114,"is_reserved":false,"is_disabled":false,"rental_uris":{"android":"levelo://app?vid=8fe00b0b-0e09-404a-bd85-e8e62359c8bf","ios":"levelo://app?vid=8fe00b0b-0e09-404a-bd85-e8e62359c8bf"},"vehicle_type_id":"4","last_reported":1702310983,"current_range_meters":800,"station_id":"ce4bhb92rcd13ifvqen0","pricing_plan_id":"free"},{"bike_id":"4601da1a-2bc2-4be5-8fac-e44f32e20802","system_id":"levelo_inurba_marseille","lat":43.330442,"lon":5.389148,"is_reserved":false,"is_disabled":false,"rental_uris":{"android":"levelo://app?vid=4601da1a-2bc2-4be5-8fac-e44f32e20802","ios":"levelo://app?vid=4601da1a-2bc2-4be5-8fac-e44f32e20802"},"vehicle_type_id":"4","last_reported":1702310983,"current_range_meters":27600,"station_id":"ce4bhr92rcd13ifvqhrg","pricing_plan_id":"free"},{"bike_id":"5ab4667f-90eb-404b-8cf7-2aa083c72ed3","system_id":"levelo_inurba_marseille","lat":43.290104,"lon":5.356111,"is_reserved":false,"is_disabled":false,"rental_uris":{"android":"levelo://app?vid=5ab4667f-90eb-404b-8cf7-2aa083c72ed3","ios":"levelo://app?vid=5ab4667f-90eb-404b-8cf7-2aa083c72ed3"},"vehicle_type_id":"4","last_reported":1702310983,"current_range_meters":6000,"station_id":"ce4bhb92rcd13ifvqen0","pricing_plan_id":"free"},{"bike_id":"3ccd3fba-3adb-4670-bfed-6da230bc71e6","system_id":"levelo_inurba_marseille","lat":43.290995,"lon":5.381361,"is_reserved":false,"is_disabled":false,"rental_uris":{"android":"levelo://app?vid=3ccd3fba-3adb-4670-bfed-6da230bc71e6","ios":"levelo://app?vid=3ccd3fba-3adb-4670-bfed-6da230bc71e6"},"vehicle_type_id":"4","last_reported":1702310983,"current_range_meters":19200,"station_id":"ce4bh512rcd13ifvqe2g","pricing_plan_id":"free"},{"bike_id":"1ffa6cab-2192-4490-9617-61044011c6b1","system_id":"levelo_inurba_marseille","lat":43.33749,"lon":5.37455,"is_reserved":false,"is_disabled":false,"rental_uris":{"android":"levelo://app?vid=1ffa6cab-2192-4490-9617-61044011c6b1","ios":"levelo://app?vid=1ffa6cab-2192-4490-9617-61044011c6b1"},"vehicle_type_id":"4","last_reported":1702310983,"current_range_meters":20000,"station_id":"","pricing_plan_id":"free"},{"bike_id":"357c0342-4746-4875-8863-f1f19ff2fa1a","system_id":"levelo_inurba_marseille","lat":43.33758,"lon":5.37468,"is_reserved":false,"is_disabled":false,"rental_uris":{"android":"levelo://app?vid=357c0342-4746-4875-8863-f1f19ff2fa1a","ios":"levelo://app?vid=357c0342-4746-4875-8863-f1f19ff2fa1a"},"vehicle_type_id":"4","last_reported":1702310983,"current_range_meters":27600,"station_id":"","pricing_plan_id":"free"},{"bike_id":"5f4a69ce-3283-47f9-9143-2b4353eb88d4","system_id":"levelo_inurba_marseille","lat":43.3377,"lon":5.3745,"is_reserved":false,"is_disabled":false,"rental_uris":{"android":"levelo://app?vid=5f4a69ce-3283-47f9-9143-2b4353eb88d4","ios":"levelo://app?vid=5f4a69ce-3283-47f9-9143-2b4353eb88d4"},"vehicle_type_id":"4","last_reported":1702310983,"current_range_meters":30800,"station_id":"","pricing_plan_id":"free"},{"bike_id":"394e1a47-8c18-4228-9dd0-5365e12667d1","system_id":"levelo_inurba_marseille","lat":43.301117,"lon":5.398795,"is_reserved":false,"is_disabled":false,"rental_uris":{"android":"levelo://app?vid=394e1a47-8c18-4228-9dd0-5365e12667d1","ios":"levelo://app?vid=394e1a47-8c18-4228-9dd0-5365e12667d1"},"vehicle_type_id":"4","last_reported":1702310983,"current_range_meters":24400,"station_id":"ce4bh0h2rcd13ifvqd40","pricing_plan_id":"free"},{"bike_id":"3f9429ce-0e2f-4adf-9908-c8a7985761c7","system_id":"levelo_inurba_marseille","lat":43.28727,"lon":5.36078,"is_reserved":false,"is_disabled":false,"rental_uris":{"android":"levelo://app?vid=3f9429ce-0e2f-4adf-9908-c8a7985761c7","ios":"levelo://app?vid=3f9429ce-0e2f-4adf-9908-c8a7985761c7"},"vehicle_type_id":"4","last_reported":1702310983,"current_range_meters":10400,"station_id":"cki0cbj6b192h4jlfktg","pricing_plan_id":"free"},{"bike_id":"b329e36a-730b-4742-bd80-1e703395f74e","system_id":"levelo_inurba_marseille","lat":43.28727,"lon":5.36078,"is_reserved":false,"is_disabled":false,"rental_uris":{"android":"levelo://app?vid=b329e36a-730b-4742-bd80-1e703395f74e","ios":"levelo://app?vid=b329e36a-730b-4742-bd80-1e703395f74e"},"vehicle_type_id":"4","last_reported":1702310983,"current_range_meters":24800,"station_id":"cki0cbj6b192h4jlfktg","pricing_plan_id":"free"},{"bike_id":"25cb2694-7f7d-4c43-aba7-3f359a174e0e","system_id":"levelo_inurba_marseille","lat":43.28727,"lon":5.36078,"is_reserved":false,"is_disabled":false,"rental_uris":{"android":"levelo://app?vid=25cb2694-7f7d-4c43-aba7-3f359a174e0e","ios":"levelo://app?vid=25cb2694-7f7d-4c43-aba7-3f359a174e0e"},"vehicle_type_id":"4","last_reported":1702310983,"current_range_meters":13600,"station_id":"cki0cbj6b192h4jlfktg","pricing_plan_id":"free"},{"bike_id":"632cfc3e-2611-43b1-a5e1-41589a43522e","system_id":"levelo_inurba_marseille","lat":43.298681,"lon":5.397225,"is_reserved":false,"is_disabled":false,"rental_uris":{"android":"levelo://app?vid=632cfc3e-2611-43b1-a5e1-41589a43522e","ios":"levelo://app?vid=632cfc3e-2611-43b1-a5e1-41589a43522e"},"vehicle_type_id":"4","last_reported":1702310983,"current_range_meters":400,"station_id":"ce4bh0h2rcd13ifvqd50","pricing_plan_id":"free"},{"bike_id":"601186fe-95d2-4b4e-b87c-8aa2c9b2c79c","system_id":"levelo_inurba_marseille","lat":43.295196,"lon":5.39397,"is_reserved":false,"is_disabled":false,"rental_uris":{"android":"levelo://app?vid=601186fe-95d2-4b4e-b87c-8aa2c9b2c79c","ios":"levelo://app?vid=601186fe-95d2-4b4e-b87c-8aa2c9b2c79c"},"vehicle_type_id":"4","last_reported":1702310983,"current_range_meters":0,"station_id":"ce4bh292rcd13ifvqdf0","pricing_plan_id":"free"},{"bike_id":"cf34a1e8-b11c-4e90-90fb-12ae54525705","system_id":"levelo_inurba_marseille","lat":43.295194,"lon":5.39397,"is_reserved":false,"is_disabled":false,"rental_uris":{"android":"levelo://app?vid=cf34a1e8-b11c-4e90-90fb-12ae54525705","ios":"levelo://app?vid=cf34a1e8-b11c-4e90-90fb-12ae54525705"},"vehicle_type_id":"4","last_reported":1702310983,"current_range_meters":0,"station_id":"ce4bh292rcd13ifvqdf0","pricing_plan_id":"free"},{"bike_id":"30eae79f-081b-4828-b45a-fefcede91c10","system_id":"levelo_inurba_marseille","lat":43.290345,"lon":5.38646,"is_reserved":false,"is_disabled":false,"rental_uris":{"android":"levelo://app?vid=30eae79f-081b-4828-b45a-fefcede91c10","ios":"levelo://app?vid=30eae79f-081b-4828-b45a-fefcede91c10"},"vehicle_type_id":"4","last_reported":1702310983,"current_range_meters":16800,"station_id":"ce4bh4p2rcd13ifvqe0g","pricing_plan_id":"free"},{"bike_id":"01979a33-f40e-4620-bf45-118665e7cf11","system_id":"levelo_inurba_marseille","lat":43.302759,"lon":5.400793,"is_reserved":false,"is_disabled":false,"rental_uris":{"android":"levelo://app?vid=01979a33-f40e-4620-bf45-118665e7cf11","ios":"levelo://app?vid=01979a33-f40e-4620-bf45-118665e7cf11"},"vehicle_type_id":"4","last_reported":1702310983,"current_range_meters":13600,"station_id":"ce4bgvh2rcd13ifvqcs0","pricing_plan_id":"free"},{"bike_id":"009b15fc-77ad-467c-b3f5-10560c8988fd","system_id":"levelo_inurba_marseille","lat":43.302759,"lon":5.400793,"is_reserved":false,"is_disabled":false,"rental_uris":{"android":"levelo://app?vid=009b15fc-77ad-467c-b3f5-10560c8988fd","ios":"levelo://app?vid=009b15fc-77ad-467c-b3f5-10560c8988fd"},"vehicle_type_id":"4","last_reported":1702310983,"current_range_meters":18800,"station_id":"ce4bgvh2rcd13ifvqcs0","pricing_plan_id":"free"},{"bike_id":"09ed9b6b-c4d3-418a-bed7-a0f79984536a","system_id":"levelo_inurba_marseille","lat":43.284534,"lon":5.358662,"is_reserved":false,"is_disabled":false,"rental_uris":{"android":"levelo://app?vid=09ed9b6b-c4d3-418a-bed7-a0f79984536a","ios":"levelo://app?vid=09ed9b6b-c4d3-418a-bed7-a0f79984536a"},"vehicle_type_id":"4","last_reported":1702310983,"current_range_meters":0,"station_id":"ce4bhah2rcd13ifvqei0","pricing_plan_id":"free"},{"bike_id":"8ec71971-040e-4902-91a9-69781601e655","system_id":"levelo_inurba_marseille","lat":43.2862,"lon":5.350987,"is_reserved":false,"is_disabled":false,"rental_uris":{"android":"levelo://app?vid=8ec71971-040e-4902-91a9-69781601e655","ios":"levelo://app?vid=8ec71971-040e-4902-91a9-69781601e655"},"vehicle_type_id":"4","last_reported":1702310983,"current_range_meters":31200,"station_id":"ce4bhch2rcd13ifvqeug","pricing_plan_id":"free"},{"bike_id":"e629beb0-701b-491b-9d61-79a9f178b75d","system_id":"levelo_inurba_marseille","lat":43.28618,"lon":5.35103,"is_reserved":false,"is_disabled":false,"rental_uris":{"android":"levelo://app?vid=e629beb0-701b-491b-9d61-79a9f178b75d","ios":"levelo://app?vid=e629beb0-701b-491b-9d61-79a9f178b75d"},"vehicle_type_id":"4","last_reported":1702310983,"current_range_meters":26000,"station_id":"ce4bhch2rcd13ifvqeug","pricing_plan_id":"free"},{"bike_id":"1b5a78af-52cb-4f20-9c8d-ad8dbecf4e2b","system_id":"levelo_inurba_marseille","lat":43.285856,"lon":5.350771,"is_reserved":false,"is_disabled":false,"rental_uris":{"android":"levelo://app?vid=1b5a78af-52cb-4f20-9c8d-ad8dbecf4e2b","ios":"levelo://app?vid=1b5a78af-52cb-4f20-9c8d-ad8dbecf4e2b"},"vehicle_type_id":"4","last_reported":1702310983,"current_range_meters":30000,"station_id":"ce4bhch2rcd13ifvqeug","pricing_plan_id":"free"},{"bike_id":"c904dca1-552c-48fe-b116-095c499943b4","system_id":"levelo_inurba_marseille","lat":43.285856,"lon":5.350771,"is_reserved":false,"is_disabled":false,"rental_uris":{"android":"levelo://app?vid=c904dca1-552c-48fe-b116-095c499943b4","ios":"levelo://app?vid=c904dca1-552c-48fe-b116-095c499943b4"},"vehicle_type_id":"4","last_reported":1702310983,"current_range_meters":31200,"station_id":"ce4bhch2rcd13ifvqeug","pricing_plan_id":"free"},{"bike_id":"b1660c9e-55fb-49d8-9deb-25ce7bc2d924","system_id":"levelo_inurba_marseille","lat":43.285848,"lon":5.350787,"is_reserved":false,"is_disabled":false,"rental_uris":{"android":"levelo://app?vid=b1660c9e-55fb-49d8-9deb-25ce7bc2d924","ios":"levelo://app?vid=b1660c9e-55fb-49d8-9deb-25ce7bc2d924"},"vehicle_type_id":"4","last_reported":1702310983,"current_range_meters":29200,"station_id":"ce4bhch2rcd13ifvqeug","pricing_plan_id":"free"},{"bike_id":"97d8fcc7-4aef-45da-b019-c3d5381f038e","system_id":"levelo_inurba_marseille","lat":43.28614,"lon":5.35098,"is_reserved":false,"is_disabled":false,"rental_uris":{"android":"levelo://app?vid=97d8fcc7-4aef-45da-b019-c3d5381f038e","ios":"levelo://app?vid=97d8fcc7-4aef-45da-b019-c3d5381f038e"},"vehicle_type_id":"4","last_reported":1702310983,"current_range_meters":0,"station_id":"ce4bhch2rcd13ifvqeug","pricing_plan_id":"free"},{"bike_id":"e288e8d6-084a-42c8-8e05-7baeefd938f8","system_id":"levelo_inurba_marseille","lat":43.286107,"lon":5.351064,"is_reserved":false,"is_disabled":false,"rental_uris":{"android":"levelo://app?vid=e288e8d6-084a-42c8-8e05-7baeefd938f8","ios":"levelo://app?vid=e288e8d6-084a-42c8-8e05-7baeefd938f8"},"vehicle_type_id":"4","last_reported":1702310983,"current_range_meters":26800,"station_id":"ce4bhch2rcd13ifvqeug","pricing_plan_id":"free"},{"bike_id":"0b1ca3cf-baf2-4d06-a715-346b63ff3cc3","system_id":"levelo_inurba_marseille","lat":43.283998,"lon":5.375062,"is_reserved":false,"is_disabled":false,"rental_uris":{"android":"levelo://app?vid=0b1ca3cf-baf2-4d06-a715-346b63ff3cc3","ios":"levelo://app?vid=0b1ca3cf-baf2-4d06-a715-346b63ff3cc3"},"vehicle_type_id":"4","last_reported":1702310983,"current_range_meters":22400,"station_id":"ce4bh412rcd13ifvqds0","pricing_plan_id":"free"},{"bike_id":"70a1ddda-26b4-4391-84a7-1f80b332bec6","system_id":"levelo_inurba_marseille","lat":43.283998,"lon":5.375062,"is_reserved":false,"is_disabled":false,"rental_uris":{"android":"levelo://app?vid=70a1ddda-26b4-4391-84a7-1f80b332bec6","ios":"levelo://app?vid=70a1ddda-26b4-4391-84a7-1f80b332bec6"},"vehicle_type_id":"4","last_reported":1702310983,"current_range_meters":8800,"station_id":"ce4bh412rcd13ifvqds0","pricing_plan_id":"free"},{"bike_id":"2e7c1659-1c03-4a45-baa4-ccf2b42131ac","system_id":"levelo_inurba_marseille","lat":43.295713,"lon":5.399639,"is_reserved":false,"is_disabled":false,"rental_uris":{"android":"levelo://app?vid=2e7c1659-1c03-4a45-baa4-ccf2b42131ac","ios":"levelo://app?vid=2e7c1659-1c03-4a45-baa4-ccf2b42131ac"},"vehicle_type_id":"4","last_reported":1702310983,"current_range_meters":19600,"station_id":"ce4bh312rcd13ifvqdj0","pricing_plan_id":"free"},{"bike_id":"fc5dc0a0-549f-437d-9e5d-0f0bcad0b6d1","system_id":"levelo_inurba_marseille","lat":43.284793,"lon":5.384113,"is_reserved":false,"is_disabled":false,"rental_uris":{"android":"levelo://app?vid=fc5dc0a0-549f-437d-9e5d-0f0bcad0b6d1","ios":"levelo://app?vid=fc5dc0a0-549f-437d-9e5d-0f0bcad0b6d1"},"vehicle_type_id":"4","last_reported":1702310983,"current_range_meters":19200,"station_id":"ce4bh512rcd13ifvqe3g","pricing_plan_id":"free"},{"bike_id":"c24f9137-2b33-41a6-99ca-54f9b943ab79","system_id":"levelo_inurba_marseille","lat":43.28198,"lon":5.37331,"is_reserved":false,"is_disabled":false,"rental_uris":{"android":"levelo://app?vid=c24f9137-2b33-41a6-99ca-54f9b943ab79","ios":"levelo://app?vid=c24f9137-2b33-41a6-99ca-54f9b943ab79"},"vehicle_type_id":"4","last_reported":1702310983,"current_range_meters":16800,"station_id":"","pricing_plan_id":"free"},{"bike_id":"ffb0aa76-cb99-49f0-93f3-d136b3c3a10e","system_id":"levelo_inurba_marseille","lat":43.273613,"lon":5.362705,"is_reserved":false,"is_disabled":false,"rental_uris":{"android":"levelo://app?vid=ffb0aa76-cb99-49f0-93f3-d136b3c3a10e","ios":"levelo://app?vid=ffb0aa76-cb99-49f0-93f3-d136b3c3a10e"},"vehicle_type_id":"4","last_reported":1702310983,"current_range_meters":16400,"station_id":"ce4bhbh2rcd13ifvqeo0","pricing_plan_id":"free"},{"bike_id":"1ebf00d3-fe88-465d-998f-146fa1cc251f","system_id":"levelo_inurba_marseille","lat":43.282754,"lon":5.350519,"is_reserved":false,"is_disabled":false,"rental_uris":{"android":"levelo://app?vid=1ebf00d3-fe88-465d-998f-146fa1cc251f","ios":"levelo://app?vid=1ebf00d3-fe88-465d-998f-146fa1cc251f"},"vehicle_type_id":"4","last_reported":1702310983,"current_range_meters":31200,"station_id":"ce4bhbp2rcd13ifvqerg","pricing_plan_id":"free"},{"bike_id":"f19be45c-1d89-4280-9f31-866416f4d47e","system_id":"levelo_inurba_marseille","lat":43.282754,"lon":5.350519,"is_reserved":false,"is_disabled":false,"rental_uris":{"android":"levelo://app?vid=f19be45c-1d89-4280-9f31-866416f4d47e","ios":"levelo://app?vid=f19be45c-1d89-4280-9f31-866416f4d47e"},"vehicle_type_id":"4","last_reported":1702310983,"current_range_meters":31200,"station_id":"ce4bhbp2rcd13ifvqerg","pricing_plan_id":"free"},{"bike_id":"dc6579a1-6f45-495d-b55f-d117bbcfffb1","system_id":"levelo_inurba_marseille","lat":43.282754,"lon":5.350519,"is_reserved":false,"is_disabled":false,"rental_uris":{"android":"levelo://app?vid=dc6579a1-6f45-495d-b55f-d117bbcfffb1","ios":"levelo://app?vid=dc6579a1-6f45-495d-b55f-d117bbcfffb1"},"vehicle_type_id":"4","last_reported":1702310983,"current_range_meters":25600,"station_id":"ce4bhbp2rcd13ifvqerg","pricing_plan_id":"free"},{"bike_id":"0e87972c-91a9-4132-b5f5-3a34d4308098","system_id":"levelo_inurba_marseille","lat":43.282754,"lon":5.350519,"is_reserved":false,"is_disabled":false,"rental_uris":{"android":"levelo://app?vid=0e87972c-91a9-4132-b5f5-3a34d4308098","ios":"levelo://app?vid=0e87972c-91a9-4132-b5f5-3a34d4308098"},"vehicle_type_id":"4","last_reported":1702310983,"current_range_meters":26400,"station_id":"ce4bhbp2rcd13ifvqerg","pricing_plan_id":"free"},{"bike_id":"1a755c5d-9b3c-4f8b-a5a3-2cb0e2abc85a","system_id":"levelo_inurba_marseille","lat":43.282754,"lon":5.350519,"is_reserved":false,"is_disabled":false,"rental_uris":{"android":"levelo://app?vid=1a755c5d-9b3c-4f8b-a5a3-2cb0e2abc85a","ios":"levelo://app?vid=1a755c5d-9b3c-4f8b-a5a3-2cb0e2abc85a"},"vehicle_type_id":"4","last_reported":1702310983,"current_range_meters":25600,"station_id":"ce4bhbp2rcd13ifvqerg","pricing_plan_id":"free"},{"bike_id":"a6293421-2f53-4d22-b3a9-1a774e17b5cb","system_id":"levelo_inurba_marseille","lat":43.282659,"lon":5.350731,"is_reserved":false,"is_disabled":false,"rental_uris":{"android":"levelo://app?vid=a6293421-2f53-4d22-b3a9-1a774e17b5cb","ios":"levelo://app?vid=a6293421-2f53-4d22-b3a9-1a774e17b5cb"},"vehicle_type_id":"4","last_reported":1702310983,"current_range_meters":25600,"station_id":"","pricing_plan_id":"free"},{"bike_id":"93029e9a-10e3-407a-a2ee-8ec2fed42d43","system_id":"levelo_inurba_marseille","lat":43.28268,"lon":5.35065,"is_reserved":false,"is_disabled":false,"rental_uris":{"android":"levelo://app?vid=93029e9a-10e3-407a-a2ee-8ec2fed42d43","ios":"levelo://app?vid=93029e9a-10e3-407a-a2ee-8ec2fed42d43"},"vehicle_type_id":"4","last_reported":1702310983,"current_range_meters":25600,"station_id":"ce4bhbp2rcd13ifvqerg","pricing_plan_id":"free"},{"bike_id":"5dda3b7f-11ff-49bf-9ba1-728a62fd37be","system_id":"levelo_inurba_marseille","lat":43.28265,"lon":5.350734,"is_reserved":false,"is_disabled":false,"rental_uris":{"android":"levelo://app?vid=5dda3b7f-11ff-49bf-9ba1-728a62fd37be","ios":"levelo://app?vid=5dda3b7f-11ff-49bf-9ba1-728a62fd37be"},"vehicle_type_id":"4","last_reported":1702310983,"current_range_meters":25600,"station_id":"","pricing_plan_id":"free"},{"bike_id":"d8a4ce69-cd28-4fa8-bd66-cc5db98f2351","system_id":"levelo_inurba_marseille","lat":43.282648,"lon":5.350725,"is_reserved":false,"is_disabled":false,"rental_uris":{"android":"levelo://app?vid=d8a4ce69-cd28-4fa8-bd66-cc5db98f2351","ios":"levelo://app?vid=d8a4ce69-cd28-4fa8-bd66-cc5db98f2351"},"vehicle_type_id":"4","last_reported":1702310983,"current_range_meters":25600,"station_id":"","pricing_plan_id":"free"},{"bike_id":"f3f57019-aa2e-4e82-85ba-ce6c1833bb5b","system_id":"levelo_inurba_marseille","lat":43.282744,"lon":5.350533,"is_reserved":false,"is_disabled":false,"rental_uris":{"android":"levelo://app?vid=f3f57019-aa2e-4e82-85ba-ce6c1833bb5b","ios":"levelo://app?vid=f3f57019-aa2e-4e82-85ba-ce6c1833bb5b"},"vehicle_type_id":"4","last_reported":1702310983,"current_range_meters":24800,"station_id":"ce4bhbp2rcd13ifvqerg","pricing_plan_id":"free"},{"bike_id":"9d85ea57-aab2-4af5-acd1-7b11cc28f90f","system_id":"levelo_inurba_marseille","lat":43.282744,"lon":5.350533,"is_reserved":false,"is_disabled":false,"rental_uris":{"android":"levelo://app?vid=9d85ea57-aab2-4af5-acd1-7b11cc28f90f","ios":"levelo://app?vid=9d85ea57-aab2-4af5-acd1-7b11cc28f90f"},"vehicle_type_id":"4","last_reported":1702310983,"current_range_meters":27200,"station_id":"ce4bhbp2rcd13ifvqerg","pricing_plan_id":"free"},{"bike_id":"aaaea062-a6d0-43e5-baa6-207ab00f0a41","system_id":"levelo_inurba_marseille","lat":43.282646,"lon":5.350711,"is_reserved":false,"is_disabled":false,"rental_uris":{"android":"levelo://app?vid=aaaea062-a6d0-43e5-baa6-207ab00f0a41","ios":"levelo://app?vid=aaaea062-a6d0-43e5-baa6-207ab00f0a41"},"vehicle_type_id":"4","last_reported":1702310983,"current_range_meters":27600,"station_id":"","pricing_plan_id":"free"},{"bike_id":"4ee53fc3-95fe-4ec3-ae50-b9a8cd12442e","system_id":"levelo_inurba_marseille","lat":43.28039,"lon":5.369297,"is_reserved":false,"is_disabled":false,"rental_uris":{"android":"levelo://app?vid=4ee53fc3-95fe-4ec3-ae50-b9a8cd12442e","ios":"levelo://app?vid=4ee53fc3-95fe-4ec3-ae50-b9a8cd12442e"},"vehicle_type_id":"4","last_reported":1702310983,"current_range_meters":19200,"station_id":"ce4bha12rcd13ifvqef0","pricing_plan_id":"free"},{"bike_id":"a9087632-d97b-4295-ac27-f172913e6205","system_id":"levelo_inurba_marseille","lat":43.28039,"lon":5.369297,"is_reserved":false,"is_disabled":false,"rental_uris":{"android":"levelo://app?vid=a9087632-d97b-4295-ac27-f172913e6205","ios":"levelo://app?vid=a9087632-d97b-4295-ac27-f172913e6205"},"vehicle_type_id":"4","last_reported":1702310983,"current_range_meters":4000,"station_id":"ce4bha12rcd13ifvqef0","pricing_plan_id":"free"},{"bike_id":"11c4df3d-d7b9-4e27-b35f-0cf233267de1","system_id":"levelo_inurba_marseille","lat":43.279952,"lon":5.400085,"is_reserved":false,"is_disabled":false,"rental_uris":{"android":"levelo://app?vid=11c4df3d-d7b9-4e27-b35f-0cf233267de1","ios":"levelo://app?vid=11c4df3d-d7b9-4e27-b35f-0cf233267de1"},"vehicle_type_id":"4","last_reported":1702310983,"current_range_meters":24400,"station_id":"ce4bho92rcd13ifvqh4g","pricing_plan_id":"free"},{"bike_id":"160bd7e5-05f6-43a1-9bc7-4629c7a42466","system_id":"levelo_inurba_marseille","lat":43.313217,"lon":5.41286,"is_reserved":false,"is_disabled":false,"rental_uris":{"android":"levelo://app?vid=160bd7e5-05f6-43a1-9bc7-4629c7a42466","ios":"levelo://app?vid=160bd7e5-05f6-43a1-9bc7-4629c7a42466"},"vehicle_type_id":"4","last_reported":1702310983,"current_range_meters":1200,"station_id":"","pricing_plan_id":"free"},{"bike_id":"a5ccf812-c64f-4176-b0f3-da9c5f6628cf","system_id":"levelo_inurba_marseille","lat":43.304188,"lon":5.412904,"is_reserved":false,"is_disabled":false,"rental_uris":{"android":"levelo://app?vid=a5ccf812-c64f-4176-b0f3-da9c5f6628cf","ios":"levelo://app?vid=a5ccf812-c64f-4176-b0f3-da9c5f6628cf"},"vehicle_type_id":"4","last_reported":1702310983,"current_range_meters":18000,"station_id":"ce4bhop2rcd13ifvqh8g","pricing_plan_id":"free"},{"bike_id":"a37bd34d-80e4-4fd5-a2e3-9e4c54dc5a7b","system_id":"levelo_inurba_marseille","lat":43.292569,"lon":5.409107,"is_reserved":false,"is_disabled":false,"rental_uris":{"android":"levelo://app?vid=a37bd34d-80e4-4fd5-a2e3-9e4c54dc5a7b","ios":"levelo://app?vid=a37bd34d-80e4-4fd5-a2e3-9e4c54dc5a7b"},"vehicle_type_id":"4","last_reported":1702310983,"current_range_meters":19600,"station_id":"ce4bh192rcd13ifvqdc0","pricing_plan_id":"free"},{"bike_id":"0835efa1-5663-43f8-aabc-4624efc5b0a8","system_id":"levelo_inurba_marseille","lat":43.292569,"lon":5.409107,"is_reserved":false,"is_disabled":false,"rental_uris":{"android":"levelo://app?vid=0835efa1-5663-43f8-aabc-4624efc5b0a8","ios":"levelo://app?vid=0835efa1-5663-43f8-aabc-4624efc5b0a8"},"vehicle_type_id":"4","last_reported":1702310983,"current_range_meters":18000,"station_id":"ce4bh192rcd13ifvqdc0","pricing_plan_id":"free"},{"bike_id":"c8375725-810b-44cd-be78-f8d99bf473dd","system_id":"levelo_inurba_marseille","lat":43.27621,"lon":5.36115,"is_reserved":false,"is_disabled":false,"rental_uris":{"android":"levelo://app?vid=c8375725-810b-44cd-be78-f8d99bf473dd","ios":"levelo://app?vid=c8375725-810b-44cd-be78-f8d99bf473dd"},"vehicle_type_id":"4","last_reported":1702310983,"current_range_meters":6800,"station_id":"ce4bgj92rcd13ifvqbe0","pricing_plan_id":"free"},{"bike_id":"fa26653d-138e-4785-a63a-d5c6aecbccf8","system_id":"levelo_inurba_marseille","lat":43.292569,"lon":5.409107,"is_reserved":false,"is_disabled":false,"rental_uris":{"android":"levelo://app?vid=fa26653d-138e-4785-a63a-d5c6aecbccf8","ios":"levelo://app?vid=fa26653d-138e-4785-a63a-d5c6aecbccf8"},"vehicle_type_id":"4","last_reported":1702310983,"current_range_meters":22000,"station_id":"ce4bh192rcd13ifvqdc0","pricing_plan_id":"free"},{"bike_id":"45c40eda-ae49-435e-ab65-0459f36a8c0a","system_id":"levelo_inurba_marseille","lat":43.27615,"lon":5.36115,"is_reserved":false,"is_disabled":false,"rental_uris":{"android":"levelo://app?vid=45c40eda-ae49-435e-ab65-0459f36a8c0a","ios":"levelo://app?vid=45c40eda-ae49-435e-ab65-0459f36a8c0a"},"vehicle_type_id":"4","last_reported":1702310983,"current_range_meters":14800,"station_id":"ce4bgj92rcd13ifvqbe0","pricing_plan_id":"free"},{"bike_id":"6fb7d017-b245-43a0-8373-a842d3457d15","system_id":"levelo_inurba_marseille","lat":43.28698,"lon":5.406,"is_reserved":false,"is_disabled":false,"rental_uris":{"android":"levelo://app?vid=6fb7d017-b245-43a0-8373-a842d3457d15","ios":"levelo://app?vid=6fb7d017-b245-43a0-8373-a842d3457d15"},"vehicle_type_id":"4","last_reported":1702310983,"current_range_meters":6800,"station_id":"","pricing_plan_id":"free"},{"bike_id":"9861af89-9127-44a7-97f2-3ce99764f464","system_id":"levelo_inurba_marseille","lat":43.28083,"lon":5.39663,"is_reserved":false,"is_disabled":false,"rental_uris":{"android":"levelo://app?vid=9861af89-9127-44a7-97f2-3ce99764f464","ios":"levelo://app?vid=9861af89-9127-44a7-97f2-3ce99764f464"},"vehicle_type_id":"4","last_reported":1702310983,"current_range_meters":23200,"station_id":"ce4bho12rcd13ifvqh2g","pricing_plan_id":"free"},{"bike_id":"a1e21a14-4a2b-4cca-ad85-fd7eda1229c7","system_id":"levelo_inurba_marseille","lat":43.280784,"lon":5.396622,"is_reserved":false,"is_disabled":false,"rental_uris":{"android":"levelo://app?vid=a1e21a14-4a2b-4cca-ad85-fd7eda1229c7","ios":"levelo://app?vid=a1e21a14-4a2b-4cca-ad85-fd7eda1229c7"},"vehicle_type_id":"4","last_reported":1702310983,"current_range_meters":4800,"station_id":"ce4bho12rcd13ifvqh2g","pricing_plan_id":"free"},{"bike_id":"54250ba5-4a26-4529-a9fa-140a477b1937","system_id":"levelo_inurba_marseille","lat":43.280784,"lon":5.396622,"is_reserved":false,"is_disabled":false,"rental_uris":{"android":"levelo://app?vid=54250ba5-4a26-4529-a9fa-140a477b1937","ios":"levelo://app?vid=54250ba5-4a26-4529-a9fa-140a477b1937"},"vehicle_type_id":"4","last_reported":1702310983,"current_range_meters":15200,"station_id":"ce4bho12rcd13ifvqh2g","pricing_plan_id":"free"},{"bike_id":"b63804b6-fd8a-404a-a2b2-2f7c42a67ec8","system_id":"levelo_inurba_marseille","lat":43.303837,"lon":5.418724,"is_reserved":false,"is_disabled":false,"rental_uris":{"android":"levelo://app?vid=b63804b6-fd8a-404a-a2b2-2f7c42a67ec8","ios":"levelo://app?vid=b63804b6-fd8a-404a-a2b2-2f7c42a67ec8"},"vehicle_type_id":"4","last_reported":1702310983,"current_range_meters":9600,"station_id":"ce4bhop2rcd13ifvqh7g","pricing_plan_id":"free"},{"bike_id":"38141786-6d06-458c-a198-3fa8ed850ec1","system_id":"levelo_inurba_marseille","lat":43.303837,"lon":5.418724,"is_reserved":false,"is_disabled":false,"rental_uris":{"android":"levelo://app?vid=38141786-6d06-458c-a198-3fa8ed850ec1","ios":"levelo://app?vid=38141786-6d06-458c-a198-3fa8ed850ec1"},"vehicle_type_id":"4","last_reported":1702310983,"current_range_meters":27600,"station_id":"ce4bhop2rcd13ifvqh7g","pricing_plan_id":"free"},{"bike_id":"e397f2df-2b86-40fb-a527-7d162f5ef83d","system_id":"levelo_inurba_marseille","lat":43.278399,"lon":5.392139,"is_reserved":false,"is_disabled":false,"rental_uris":{"android":"levelo://app?vid=e397f2df-2b86-40fb-a527-7d162f5ef83d","ios":"levelo://app?vid=e397f2df-2b86-40fb-a527-7d162f5ef83d"},"vehicle_type_id":"4","last_reported":1702310983,"current_range_meters":26400,"station_id":"ce4bhjp2rcd13ifvqga0","pricing_plan_id":"free"},{"bike_id":"722f25a3-fce7-493e-a953-2c3e11f04d5f","system_id":"levelo_inurba_marseille","lat":43.27381,"lon":5.3626,"is_reserved":false,"is_disabled":false,"rental_uris":{"android":"levelo://app?vid=722f25a3-fce7-493e-a953-2c3e11f04d5f","ios":"levelo://app?vid=722f25a3-fce7-493e-a953-2c3e11f04d5f"},"vehicle_type_id":"4","last_reported":1702310983,"current_range_meters":0,"station_id":"ce4bhbh2rcd13ifvqeo0","pricing_plan_id":"free"},{"bike_id":"45b6dcda-dc57-4d46-bb06-ff628d674eb5","system_id":"levelo_inurba_marseille","lat":43.276771,"lon":5.388799,"is_reserved":false,"is_disabled":false,"rental_uris":{"android":"levelo://app?vid=45b6dcda-dc57-4d46-bb06-ff628d674eb5","ios":"levelo://app?vid=45b6dcda-dc57-4d46-bb06-ff628d674eb5"},"vehicle_type_id":"4","last_reported":1702310983,"current_range_meters":24000,"station_id":"ce4bhi12rcd13ifvqfo0","pricing_plan_id":"free"},{"bike_id":"82f9ac0d-2ec9-4463-8832-e20dddb6ad1c","system_id":"levelo_inurba_marseille","lat":43.279952,"lon":5.400085,"is_reserved":false,"is_disabled":false,"rental_uris":{"android":"levelo://app?vid=82f9ac0d-2ec9-4463-8832-e20dddb6ad1c","ios":"levelo://app?vid=82f9ac0d-2ec9-4463-8832-e20dddb6ad1c"},"vehicle_type_id":"4","last_reported":1702310983,"current_range_meters":17200,"station_id":"ce4bho92rcd13ifvqh4g","pricing_plan_id":"free"},{"bike_id":"105072d3-81bc-41cb-b6c7-cd50bb20cc23","system_id":"levelo_inurba_marseille","lat":43.31723,"lon":5.42405,"is_reserved":false,"is_disabled":false,"rental_uris":{"android":"levelo://app?vid=105072d3-81bc-41cb-b6c7-cd50bb20cc23","ios":"levelo://app?vid=105072d3-81bc-41cb-b6c7-cd50bb20cc23"},"vehicle_type_id":"4","last_reported":1702310983,"current_range_meters":9200,"station_id":"ce4bhp92rcd13ifvqhbg","pricing_plan_id":"free"},{"bike_id":"f26107c5-3385-476b-adc6-4a0edc9b3bfb","system_id":"levelo_inurba_marseille","lat":43.31071,"lon":5.42463,"is_reserved":false,"is_disabled":false,"rental_uris":{"android":"levelo://app?vid=f26107c5-3385-476b-adc6-4a0edc9b3bfb","ios":"levelo://app?vid=f26107c5-3385-476b-adc6-4a0edc9b3bfb"},"vehicle_type_id":"4","last_reported":1702310983,"current_range_meters":20000,"station_id":"ce4bhp92rcd13ifvqhag","pricing_plan_id":"free"},{"bike_id":"88e8dd9a-80e7-4f1c-b9b6-08d9982e9671","system_id":"levelo_inurba_marseille","lat":43.310743,"lon":5.424643,"is_reserved":false,"is_disabled":false,"rental_uris":{"android":"levelo://app?vid=88e8dd9a-80e7-4f1c-b9b6-08d9982e9671","ios":"levelo://app?vid=88e8dd9a-80e7-4f1c-b9b6-08d9982e9671"},"vehicle_type_id":"4","last_reported":1702310983,"current_range_meters":6000,"station_id":"ce4bhp92rcd13ifvqhag","pricing_plan_id":"free"},{"bike_id":"b623668d-d880-4c0b-b820-2a7f56e400eb","system_id":"levelo_inurba_marseille","lat":43.272116,"lon":5.391763,"is_reserved":false,"is_disabled":false,"rental_uris":{"android":"levelo://app?vid=b623668d-d880-4c0b-b820-2a7f56e400eb","ios":"levelo://app?vid=b623668d-d880-4c0b-b820-2a7f56e400eb"},"vehicle_type_id":"4","last_reported":1702310983,"current_range_meters":0,"station_id":"ce4bhhp2rcd13ifvqfm0","pricing_plan_id":"free"},{"bike_id":"114ed9a0-f405-4e5a-8abc-a36515ad57b3","system_id":"levelo_inurba_marseille","lat":43.27214,"lon":5.39234,"is_reserved":false,"is_disabled":false,"rental_uris":{"android":"levelo://app?vid=114ed9a0-f405-4e5a-8abc-a36515ad57b3","ios":"levelo://app?vid=114ed9a0-f405-4e5a-8abc-a36515ad57b3"},"vehicle_type_id":"4","last_reported":1702310983,"current_range_meters":23600,"station_id":"ce4bhhp2rcd13ifvqfm0","pricing_plan_id":"free"},{"bike_id":"eb83921c-9a75-4360-8024-5990adc7f865","system_id":"levelo_inurba_marseille","lat":43.278128,"lon":5.407195,"is_reserved":false,"is_disabled":false,"rental_uris":{"android":"levelo://app?vid=eb83921c-9a75-4360-8024-5990adc7f865","ios":"levelo://app?vid=eb83921c-9a75-4360-8024-5990adc7f865"},"vehicle_type_id":"4","last_reported":1702310983,"current_range_meters":15600,"station_id":"ce4bhnh2rcd13ifvqgtg","pricing_plan_id":"free"},{"bike_id":"5eb071ac-e5cb-47bc-814c-b1a4073b4e65","system_id":"levelo_inurba_marseille","lat":43.27033,"lon":5.39282,"is_reserved":false,"is_disabled":false,"rental_uris":{"android":"levelo://app?vid=5eb071ac-e5cb-47bc-814c-b1a4073b4e65","ios":"levelo://app?vid=5eb071ac-e5cb-47bc-814c-b1a4073b4e65"},"vehicle_type_id":"4","last_reported":1702310983,"current_range_meters":21200,"station_id":"","pricing_plan_id":"free"},{"bike_id":"39c839b9-1e2e-45ef-9af8-f47fe8a6cfec","system_id":"levelo_inurba_marseille","lat":43.265714,"lon":5.372891,"is_reserved":false,"is_disabled":false,"rental_uris":{"android":"levelo://app?vid=39c839b9-1e2e-45ef-9af8-f47fe8a6cfec","ios":"levelo://app?vid=39c839b9-1e2e-45ef-9af8-f47fe8a6cfec"},"vehicle_type_id":"4","last_reported":1702310983,"current_range_meters":22800,"station_id":"ce4bhg12rcd13ifvqf70","pricing_plan_id":"free"},{"bike_id":"0fb83b7a-b471-481c-bc3a-112ab3e8f4c9","system_id":"levelo_inurba_marseille","lat":43.265714,"lon":5.372891,"is_reserved":false,"is_disabled":false,"rental_uris":{"android":"levelo://app?vid=0fb83b7a-b471-481c-bc3a-112ab3e8f4c9","ios":"levelo://app?vid=0fb83b7a-b471-481c-bc3a-112ab3e8f4c9"},"vehicle_type_id":"4","last_reported":1702310983,"current_range_meters":11200,"station_id":"ce4bhg12rcd13ifvqf70","pricing_plan_id":"free"},{"bike_id":"73981db7-07ba-49ae-821b-34f2bc1d7e1d","system_id":"levelo_inurba_marseille","lat":43.265714,"lon":5.372891,"is_reserved":false,"is_disabled":false,"rental_uris":{"android":"levelo://app?vid=73981db7-07ba-49ae-821b-34f2bc1d7e1d","ios":"levelo://app?vid=73981db7-07ba-49ae-821b-34f2bc1d7e1d"},"vehicle_type_id":"4","last_reported":1702310983,"current_range_meters":25600,"station_id":"ce4bhg12rcd13ifvqf70","pricing_plan_id":"free"},{"bike_id":"5fb2272c-5b2e-4101-8752-2e94c9976012","system_id":"levelo_inurba_marseille","lat":43.26324,"lon":5.37682,"is_reserved":false,"is_disabled":false,"rental_uris":{"android":"levelo://app?vid=5fb2272c-5b2e-4101-8752-2e94c9976012","ios":"levelo://app?vid=5fb2272c-5b2e-4101-8752-2e94c9976012"},"vehicle_type_id":"4","last_reported":1702310983,"current_range_meters":14000,"station_id":"","pricing_plan_id":"free"},{"bike_id":"d2e39308-873c-495a-b2f8-98ff47413367","system_id":"levelo_inurba_marseille","lat":43.265569,"lon":5.390047,"is_reserved":false,"is_disabled":false,"rental_uris":{"android":"levelo://app?vid=d2e39308-873c-495a-b2f8-98ff47413367","ios":"levelo://app?vid=d2e39308-873c-495a-b2f8-98ff47413367"},"vehicle_type_id":"4","last_reported":1702310983,"current_range_meters":2400,"station_id":"ce4bhe12rcd13ifvqf30","pricing_plan_id":"free"},{"bike_id":"b82e3ff7-6824-4eb6-9baf-96fee802bc08","system_id":"levelo_inurba_marseille","lat":43.30722,"lon":5.43533,"is_reserved":false,"is_disabled":false,"rental_uris":{"android":"levelo://app?vid=b82e3ff7-6824-4eb6-9baf-96fee802bc08","ios":"levelo://app?vid=b82e3ff7-6824-4eb6-9baf-96fee802bc08"},"vehicle_type_id":"4","last_reported":1702310983,"current_range_meters":400,"station_id":"","pricing_plan_id":"free"},{"bike_id":"dc35082a-4cf1-4348-b33e-dc2ba4a0913d","system_id":"levelo_inurba_marseille","lat":43.26556,"lon":5.39,"is_reserved":false,"is_disabled":false,"rental_uris":{"android":"levelo://app?vid=dc35082a-4cf1-4348-b33e-dc2ba4a0913d","ios":"levelo://app?vid=dc35082a-4cf1-4348-b33e-dc2ba4a0913d"},"vehicle_type_id":"4","last_reported":1702310983,"current_range_meters":4800,"station_id":"ce4bhe12rcd13ifvqf30","pricing_plan_id":"free"},{"bike_id":"53075568-830d-42e3-82b3-2fb6c123cf9e","system_id":"levelo_inurba_marseille","lat":43.290094,"lon":5.381264,"is_reserved":false,"is_disabled":false,"rental_uris":{"android":"levelo://app?vid=53075568-830d-42e3-82b3-2fb6c123cf9e","ios":"levelo://app?vid=53075568-830d-42e3-82b3-2fb6c123cf9e"},"vehicle_type_id":"4","last_reported":1702310983,"current_range_meters":14800,"station_id":"ce4bh4p2rcd13ifvqe1g","pricing_plan_id":"free"},{"bike_id":"f238d24f-94e8-414a-9ed7-4404e497594b","system_id":"levelo_inurba_marseille","lat":43.261782,"lon":5.374515,"is_reserved":false,"is_disabled":false,"rental_uris":{"android":"levelo://app?vid=f238d24f-94e8-414a-9ed7-4404e497594b","ios":"levelo://app?vid=f238d24f-94e8-414a-9ed7-4404e497594b"},"vehicle_type_id":"4","last_reported":1702310983,"current_range_meters":800,"station_id":"ce4bhgp2rcd13ifvqfc0","pricing_plan_id":"free"},{"bike_id":"8342b5e2-8258-4915-8856-71a5a1ba57d5","system_id":"levelo_inurba_marseille","lat":43.261782,"lon":5.374515,"is_reserved":false,"is_disabled":false,"rental_uris":{"android":"levelo://app?vid=8342b5e2-8258-4915-8856-71a5a1ba57d5","ios":"levelo://app?vid=8342b5e2-8258-4915-8856-71a5a1ba57d5"},"vehicle_type_id":"4","last_reported":1702310983,"current_range_meters":13600,"station_id":"ce4bhgp2rcd13ifvqfc0","pricing_plan_id":"free"},{"bike_id":"cdd036f6-7ea5-4424-b6f3-3af93ebb2fa0","system_id":"levelo_inurba_marseille","lat":43.317104,"lon":5.436818,"is_reserved":false,"is_disabled":false,"rental_uris":{"android":"levelo://app?vid=cdd036f6-7ea5-4424-b6f3-3af93ebb2fa0","ios":"levelo://app?vid=cdd036f6-7ea5-4424-b6f3-3af93ebb2fa0"},"vehicle_type_id":"4","last_reported":1702310983,"current_range_meters":25200,"station_id":"ce4bhp92rcd13ifvqhcg","pricing_plan_id":"free"},{"bike_id":"37645cb8-5c24-41ba-b0d3-f9e32e3bff51","system_id":"levelo_inurba_marseille","lat":43.317104,"lon":5.436818,"is_reserved":false,"is_disabled":false,"rental_uris":{"android":"levelo://app?vid=37645cb8-5c24-41ba-b0d3-f9e32e3bff51","ios":"levelo://app?vid=37645cb8-5c24-41ba-b0d3-f9e32e3bff51"},"vehicle_type_id":"4","last_reported":1702310983,"current_range_meters":27600,"station_id":"ce4bhp92rcd13ifvqhcg","pricing_plan_id":"free"},{"bike_id":"782cbed8-9ac9-41c0-b7d2-c9e45a9fba70","system_id":"levelo_inurba_marseille","lat":43.271368,"lon":5.40928,"is_reserved":false,"is_disabled":false,"rental_uris":{"android":"levelo://app?vid=782cbed8-9ac9-41c0-b7d2-c9e45a9fba70","ios":"levelo://app?vid=782cbed8-9ac9-41c0-b7d2-c9e45a9fba70"},"vehicle_type_id":"4","last_reported":1702310983,"current_range_meters":12400,"station_id":"ce4bhl12rcd13ifvqgf0","pricing_plan_id":"free"},{"bike_id":"f81eea78-69c9-40c6-87f8-dea729488e09","system_id":"levelo_inurba_marseille","lat":43.267959,"lon":5.402687,"is_reserved":false,"is_disabled":false,"rental_uris":{"android":"levelo://app?vid=f81eea78-69c9-40c6-87f8-dea729488e09","ios":"levelo://app?vid=f81eea78-69c9-40c6-87f8-dea729488e09"},"vehicle_type_id":"4","last_reported":1702310983,"current_range_meters":3600,"station_id":"ce501612rcd8frsf0b60","pricing_plan_id":"free"},{"bike_id":"8ffdb787-0564-4f98-8b2c-0782e0bff15b","system_id":"levelo_inurba_marseille","lat":43.267959,"lon":5.402685,"is_reserved":false,"is_disabled":false,"rental_uris":{"android":"levelo://app?vid=8ffdb787-0564-4f98-8b2c-0782e0bff15b","ios":"levelo://app?vid=8ffdb787-0564-4f98-8b2c-0782e0bff15b"},"vehicle_type_id":"4","last_reported":1702310983,"current_range_meters":30800,"station_id":"ce501612rcd8frsf0b60","pricing_plan_id":"free"},{"bike_id":"5553e349-383f-4f83-be41-71e398533489","system_id":"levelo_inurba_marseille","lat":43.267959,"lon":5.402687,"is_reserved":false,"is_disabled":false,"rental_uris":{"android":"levelo://app?vid=5553e349-383f-4f83-be41-71e398533489","ios":"levelo://app?vid=5553e349-383f-4f83-be41-71e398533489"},"vehicle_type_id":"4","last_reported":1702310983,"current_range_meters":7200,"station_id":"ce501612rcd8frsf0b60","pricing_plan_id":"free"},{"bike_id":"4e6e4a4d-e00f-4453-991c-edd03f91627b","system_id":"levelo_inurba_marseille","lat":43.27701,"lon":5.41984,"is_reserved":false,"is_disabled":false,"rental_uris":{"android":"levelo://app?vid=4e6e4a4d-e00f-4453-991c-edd03f91627b","ios":"levelo://app?vid=4e6e4a4d-e00f-4453-991c-edd03f91627b"},"vehicle_type_id":"4","last_reported":1702310983,"current_range_meters":0,"station_id":"","pricing_plan_id":"free"},{"bike_id":"7ef0e874-4d14-4db6-97d3-23537a85b219","system_id":"levelo_inurba_marseille","lat":43.298768,"lon":5.43643,"is_reserved":false,"is_disabled":false,"rental_uris":{"android":"levelo://app?vid=7ef0e874-4d14-4db6-97d3-23537a85b219","ios":"levelo://app?vid=7ef0e874-4d14-4db6-97d3-23537a85b219"},"vehicle_type_id":"4","last_reported":1702310983,"current_range_meters":28000,"station_id":"ce4bhpp2rcd13ifvqhfg","pricing_plan_id":"free"},{"bike_id":"958b505a-b8bd-4f40-9f08-d4f875f828f5","system_id":"levelo_inurba_marseille","lat":43.281548,"lon":5.42643,"is_reserved":false,"is_disabled":false,"rental_uris":{"android":"levelo://app?vid=958b505a-b8bd-4f40-9f08-d4f875f828f5","ios":"levelo://app?vid=958b505a-b8bd-4f40-9f08-d4f875f828f5"},"vehicle_type_id":"4","last_reported":1702310983,"current_range_meters":6000,"station_id":"ce4bhnh2rcd13ifvqgug","pricing_plan_id":"free"},{"bike_id":"562fd73c-d8bf-41ba-b2f2-92df04b19b66","system_id":"levelo_inurba_marseille","lat":43.281548,"lon":5.42643,"is_reserved":false,"is_disabled":false,"rental_uris":{"android":"levelo://app?vid=562fd73c-d8bf-41ba-b2f2-92df04b19b66","ios":"levelo://app?vid=562fd73c-d8bf-41ba-b2f2-92df04b19b66"},"vehicle_type_id":"4","last_reported":1702310983,"current_range_meters":30400,"station_id":"ce4bhnh2rcd13ifvqgug","pricing_plan_id":"free"},{"bike_id":"77910899-6cbb-4a70-97da-159a80f66392","system_id":"levelo_inurba_marseille","lat":43.281548,"lon":5.42643,"is_reserved":false,"is_disabled":false,"rental_uris":{"android":"levelo://app?vid=77910899-6cbb-4a70-97da-159a80f66392","ios":"levelo://app?vid=77910899-6cbb-4a70-97da-159a80f66392"},"vehicle_type_id":"4","last_reported":1702310983,"current_range_meters":30000,"station_id":"ce4bhnh2rcd13ifvqgug","pricing_plan_id":"free"},{"bike_id":"2de70b19-c81c-4661-b598-50fd8ebfffe8","system_id":"levelo_inurba_marseille","lat":43.25656,"lon":5.382801,"is_reserved":false,"is_disabled":false,"rental_uris":{"android":"levelo://app?vid=2de70b19-c81c-4661-b598-50fd8ebfffe8","ios":"levelo://app?vid=2de70b19-c81c-4661-b598-50fd8ebfffe8"},"vehicle_type_id":"4","last_reported":1702310983,"current_range_meters":18400,"station_id":"","pricing_plan_id":"free"},{"bike_id":"71056fd9-6b72-496f-b2a5-80f08dd67790","system_id":"levelo_inurba_marseille","lat":43.270721,"lon":5.422764,"is_reserved":false,"is_disabled":false,"rental_uris":{"android":"levelo://app?vid=71056fd9-6b72-496f-b2a5-80f08dd67790","ios":"levelo://app?vid=71056fd9-6b72-496f-b2a5-80f08dd67790"},"vehicle_type_id":"4","last_reported":1702310983,"current_range_meters":21200,"station_id":"ce4bhk92rcd13ifvqgb0","pricing_plan_id":"free"},{"bike_id":"0b504a87-e249-4685-8a34-5e21c01f7cee","system_id":"levelo_inurba_marseille","lat":43.257079,"lon":5.411051,"is_reserved":false,"is_disabled":false,"rental_uris":{"android":"levelo://app?vid=0b504a87-e249-4685-8a34-5e21c01f7cee","ios":"levelo://app?vid=0b504a87-e249-4685-8a34-5e21c01f7cee"},"vehicle_type_id":"4","last_reported":1702310983,"current_range_meters":5600,"station_id":"ce4bhkp2rcd13ifvqgd0","pricing_plan_id":"free"},{"bike_id":"df4675f4-6700-4d91-9271-d13e57de4a3a","system_id":"levelo_inurba_marseille","lat":43.257079,"lon":5.411051,"is_reserved":false,"is_disabled":false,"rental_uris":{"android":"levelo://app?vid=df4675f4-6700-4d91-9271-d13e57de4a3a","ios":"levelo://app?vid=df4675f4-6700-4d91-9271-d13e57de4a3a"},"vehicle_type_id":"4","last_reported":1702310983,"current_range_meters":24400,"station_id":"ce4bhkp2rcd13ifvqgd0","pricing_plan_id":"free"},{"bike_id":"89ea05b6-f3c5-4563-9ccc-b7067e467e6e","system_id":"levelo_inurba_marseille","lat":43.257079,"lon":5.411051,"is_reserved":false,"is_disabled":false,"rental_uris":{"android":"levelo://app?vid=89ea05b6-f3c5-4563-9ccc-b7067e467e6e","ios":"levelo://app?vid=89ea05b6-f3c5-4563-9ccc-b7067e467e6e"},"vehicle_type_id":"4","last_reported":1702310983,"current_range_meters":16000,"station_id":"ce4bhkp2rcd13ifvqgd0","pricing_plan_id":"free"},{"bike_id":"ad1fa67a-d5eb-470a-8144-ab1566be70e6","system_id":"levelo_inurba_marseille","lat":43.257079,"lon":5.411051,"is_reserved":false,"is_disabled":false,"rental_uris":{"android":"levelo://app?vid=ad1fa67a-d5eb-470a-8144-ab1566be70e6","ios":"levelo://app?vid=ad1fa67a-d5eb-470a-8144-ab1566be70e6"},"vehicle_type_id":"4","last_reported":1702310983,"current_range_meters":31200,"station_id":"ce4bhkp2rcd13ifvqgd0","pricing_plan_id":"free"},{"bike_id":"4216516d-61e5-4939-a4cf-be4ff1a55af5","system_id":"levelo_inurba_marseille","lat":43.250966,"lon":5.395186,"is_reserved":false,"is_disabled":false,"rental_uris":{"android":"levelo://app?vid=4216516d-61e5-4939-a4cf-be4ff1a55af5","ios":"levelo://app?vid=4216516d-61e5-4939-a4cf-be4ff1a55af5"},"vehicle_type_id":"4","last_reported":1702310983,"current_range_meters":24000,"station_id":"ce4bhm12rcd13ifvqgkg","pricing_plan_id":"free"},{"bike_id":"a3692297-187d-41e5-97ea-7fcc2b0283a1","system_id":"levelo_inurba_marseille","lat":43.246467,"lon":5.388984,"is_reserved":false,"is_disabled":false,"rental_uris":{"android":"levelo://app?vid=a3692297-187d-41e5-97ea-7fcc2b0283a1","ios":"levelo://app?vid=a3692297-187d-41e5-97ea-7fcc2b0283a1"},"vehicle_type_id":"4","last_reported":1702310983,"current_range_meters":17200,"station_id":"ce4bhg12rcd13ifvqf60","pricing_plan_id":"free"},{"bike_id":"d5491e88-6e48-4e36-8562-8d311b487ec5","system_id":"levelo_inurba_marseille","lat":43.24639,"lon":5.38892,"is_reserved":false,"is_disabled":false,"rental_uris":{"android":"levelo://app?vid=d5491e88-6e48-4e36-8562-8d311b487ec5","ios":"levelo://app?vid=d5491e88-6e48-4e36-8562-8d311b487ec5"},"vehicle_type_id":"4","last_reported":1702310983,"current_range_meters":12800,"station_id":"ce4bhg12rcd13ifvqf60","pricing_plan_id":"free"},{"bike_id":"8b9e7250-5189-4347-9cdf-c322ce549acf","system_id":"levelo_inurba_marseille","lat":43.245581,"lon":5.395069,"is_reserved":false,"is_disabled":false,"rental_uris":{"android":"levelo://app?vid=8b9e7250-5189-4347-9cdf-c322ce549acf","ios":"levelo://app?vid=8b9e7250-5189-4347-9cdf-c322ce549acf"},"vehicle_type_id":"4","last_reported":1702310983,"current_range_meters":4000,"station_id":"ce4bhlp2rcd13ifvqgjg","pricing_plan_id":"free"},{"bike_id":"e3f3c325-0911-4df7-9813-8bd737306a71","system_id":"levelo_inurba_marseille","lat":43.245581,"lon":5.395069,"is_reserved":false,"is_disabled":false,"rental_uris":{"android":"levelo://app?vid=e3f3c325-0911-4df7-9813-8bd737306a71","ios":"levelo://app?vid=e3f3c325-0911-4df7-9813-8bd737306a71"},"vehicle_type_id":"4","last_reported":1702310983,"current_range_meters":21200,"station_id":"ce4bhlp2rcd13ifvqgjg","pricing_plan_id":"free"},{"bike_id":"e76e2a4f-b65b-40e9-ac56-a856d98f738b","system_id":"levelo_inurba_marseille","lat":43.24184,"lon":5.39731,"is_reserved":false,"is_disabled":false,"rental_uris":{"android":"levelo://app?vid=e76e2a4f-b65b-40e9-ac56-a856d98f738b","ios":"levelo://app?vid=e76e2a4f-b65b-40e9-ac56-a856d98f738b"},"vehicle_type_id":"4","last_reported":1702310983,"current_range_meters":31200,"station_id":"ce4bhn12rcd13ifvqgpg","pricing_plan_id":"free"},{"bike_id":"d4216b28-6573-4e3c-9c6e-b1f827f4d9da","system_id":"levelo_inurba_marseille","lat":43.231794,"lon":5.400052,"is_reserved":false,"is_disabled":false,"rental_uris":{"android":"levelo://app?vid=d4216b28-6573-4e3c-9c6e-b1f827f4d9da","ios":"levelo://app?vid=d4216b28-6573-4e3c-9c6e-b1f827f4d9da"},"vehicle_type_id":"4","last_reported":1702310983,"current_range_meters":12000,"station_id":"ce4bhn12rcd13ifvqgqg","pricing_plan_id":"free"},{"bike_id":"91520a10-4868-4a0e-8429-7d2bb69c4ec9","system_id":"levelo_inurba_marseille","lat":43.231793,"lon":5.400044,"is_reserved":false,"is_disabled":false,"rental_uris":{"android":"levelo://app?vid=91520a10-4868-4a0e-8429-7d2bb69c4ec9","ios":"levelo://app?vid=91520a10-4868-4a0e-8429-7d2bb69c4ec9"},"vehicle_type_id":"4","last_reported":1702310983,"current_range_meters":20800,"station_id":"ce4bhn12rcd13ifvqgqg","pricing_plan_id":"free"}]}}