{"last_updated":1679079966,"ttl":30,"version":"2.2","data":{"bikes":[{"bike_id":"20ee9a58-e9f1-46dc-8124-1d495a2934be","system_id":"levelo_inurba_marseille","lat":43.312239,"lon":5.368562,"is_reserved":false,"is_disabled":false,"rental_uris":{"android":"levelo://app?vid=20ee9a58-e9f1-46dc-8124-1d495a2934be","ios":"levelo://app?vid=20ee9a58-e9f1-46dc-8124-1d495a2934be"},"vehicle_type_id":"4","last_reported":1679079967,"current_range_meters":4400,"station_id":"ce4bgl92rcd13ifvqbq0","pricing_plan_id":"free"},{"bike_id":"a95ee6b9-ab3a-4e0c-a8f5-efe2d164bea4","system_id":"levelo_inurba_marseille","lat":43.309076,"lon":5.368465,"is_reserved":false,"is_disabled":false,"rental_uris":{"android":"levelo://app?vid=a95ee6b9-ab3a-4e0c-a8f5-efe2d164bea4","ios":"levelo://app?vid=a95ee6b9-ab3a-4e0c-a8f5-efe2d164bea4"},"vehicle_type_id":"4","last_reported":1679079967,"current_range_meters":8400,"station_id":"ce4bgn92rcd13ifvqbvg","pricing_plan_id":"free"},{"bike_id":"494da552-87f7-414b-9eef-eb4e319914af","system_id":"levelo_inurba_marseille","lat":43.314811,"lon":5.373103,"is_reserved":false,"is_disabled":false,"rental_uris":{"android":"levelo://app?vid=494da552-87f7-414b-9eef-eb4e319914af","ios":"levelo://app?vid=494da552-87f7-414b-9eef-eb4e319914af"},"vehicle_type_id":"4","last_reported":1679079967,"current_range_meters":19600,"station_id":"ce4bgt12rcd13ifvqcd0","pricing_plan_id":"free"},{"bike_id":"83555cae-7564-422d-a174-f822bdff173b","system_id":"levelo_inurba_marseille","lat":43.314811,"lon":5.373103,"is_reserved":false,"is_disabled":false,"rental_uris":{"android":"levelo://app?vid=83555cae-7564-422d-a174-f822bdff173b","ios":"levelo://app?vid=83555cae-7564-422d-a174-f822bdff173b"},"vehicle_type_id":"4","last_reported":1679079967,"current_range_meters":6400,"station_id":"ce4bgt12rcd13ifvqcd0","pricing_plan_id":"free"},{"bike_id":"598deb72-46b3-4d1f-9391-ec5d56301f78","system_id":"levelo_inurba_marseille","lat":43.30557,"lon":5.36714,"is_reserved":false,"is_disabled":false,"rental_uris":{"android":"levelo://app?vid=598deb72-46b3-4d1f-9391-ec5d56301f78","ios":"levelo://app?vid=598deb72-46b3-4d1f-9391-ec5d56301f78"},"vehicle_type_id":"4","last_reported":1679079967,"current_range_meters":12000,"station_id":"","pricing_plan_id":"free"},{"bike_id":"49e1a758-b97b-4b29-9b3d-42ff7c059078","system_id":"levelo_inurba_marseille","lat":43.305989,"lon":5.37225,"is_reserved":false,"is_disabled":false,"rental_uris":{"android":"levelo://app?vid=49e1a758-b97b-4b29-9b3d-42ff7c059078","ios":"levelo://app?vid=49e1a758-b97b-4b29-9b3d-42ff7c059078"},"vehicle_type_id":"4","last_reported":1679079967,"current_range_meters":31200,"station_id":"ce4bgqh2rcd13ifvqc4g","pricing_plan_id":"free"},{"bike_id":"247f46b4-43af-4862-bebf-54aca106cfb5","system_id":"levelo_inurba_marseille","lat":43.317075,"lon":5.377367,"is_reserved":false,"is_disabled":false,"rental_uris":{"android":"levelo://app?vid=247f46b4-43af-4862-bebf-54aca106cfb5","ios":"levelo://app?vid=247f46b4-43af-4862-bebf-54aca106cfb5"},"vehicle_type_id":"4","last_reported":1679079967,"current_range_meters":400,"station_id":"ce4bgth2rcd13ifvqch0","pricing_plan_id":"free"},{"bike_id":"48085c80-5570-4160-b739-ce0cccbadb61","system_id":"levelo_inurba_marseille","lat":43.317075,"lon":5.377367,"is_reserved":false,"is_disabled":false,"rental_uris":{"android":"levelo://app?vid=48085c80-5570-4160-b739-ce0cccbadb61","ios":"levelo://app?vid=48085c80-5570-4160-b739-ce0cccbadb61"},"vehicle_type_id":"4","last_reported":1679079967,"current_range_meters":5200,"station_id":"ce4bgth2rcd13ifvqch0","pricing_plan_id":"free"},{"bike_id":"7797b818-a3ba-4cab-aa17-4f8115fadd9d","system_id":"levelo_inurba_marseille","lat":43.317075,"lon":5.377367,"is_reserved":false,"is_disabled":false,"rental_uris":{"android":"levelo://app?vid=7797b818-a3ba-4cab-aa17-4f8115fadd9d","ios":"levelo://app?vid=7797b818-a3ba-4cab-aa17-4f8115fadd9d"},"vehicle_type_id":"4","last_reported":1679079967,"current_range_meters":14800,"station_id":"ce4bgth2rcd13ifvqch0","pricing_plan_id":"free"},{"bike_id":"d317e443-cdea-446a-bfb8-d6eab8e1cffb","system_id":"levelo_inurba_marseille","lat":43.30458,"lon":5.37902,"is_reserved":false,"is_disabled":false,"rental_uris":{"android":"levelo://app?vid=d317e443-cdea-446a-bfb8-d6eab8e1cffb","ios":"levelo://app?vid=d317e443-cdea-446a-bfb8-d6eab8e1cffb"},"vehicle_type_id":"4","last_reported":1679079967,"current_range_meters":8800,"station_id":"ce4bgup2rcd13ifvqcn0","pricing_plan_id":"free"},{"bike_id":"23fb4aa5-e885-4a43-8768-3e3c0b9e49fc","system_id":"levelo_inurba_marseille","lat":43.31367,"lon":5.3849,"is_reserved":false,"is_disabled":false,"rental_uris":{"android":"levelo://app?vid=23fb4aa5-e885-4a43-8768-3e3c0b9e49fc","ios":"levelo://app?vid=23fb4aa5-e885-4a43-8768-3e3c0b9e49fc"},"vehicle_type_id":"4","last_reported":1679079967,"current_range_meters":800,"station_id":"","pricing_plan_id":"free"},{"bike_id":"2b1013b9-e411-4008-878a-b1b5513fd78d","system_id":"levelo_inurba_marseille","lat":43.313674,"lon":5.384919,"is_reserved":false,"is_disabled":false,"rental_uris":{"android":"levelo://app?vid=2b1013b9-e411-4008-878a-b1b5513fd78d","ios":"levelo://app?vid=2b1013b9-e411-4008-878a-b1b5513fd78d"},"vehicle_type_id":"4","last_reported":1679079967,"current_range_meters":0,"station_id":"","pricing_plan_id":"free"},{"bike_id":"858e12d7-9665-4999-bbe4-e1c4703cb66e","system_id":"levelo_inurba_marseille","lat":43.313571,"lon":5.384829,"is_reserved":false,"is_disabled":false,"rental_uris":{"android":"levelo://app?vid=858e12d7-9665-4999-bbe4-e1c4703cb66e","ios":"levelo://app?vid=858e12d7-9665-4999-bbe4-e1c4703cb66e"},"vehicle_type_id":"4","last_reported":1679079967,"current_range_meters":16400,"station_id":"ce4bgt92rcd13ifvqcf0","pricing_plan_id":"free"},{"bike_id":"217c4680-1e23-45e1-bb44-c241c6e6bffb","system_id":"levelo_inurba_marseille","lat":43.299094,"lon":5.365415,"is_reserved":false,"is_disabled":false,"rental_uris":{"android":"levelo://app?vid=217c4680-1e23-45e1-bb44-c241c6e6bffb","ios":"levelo://app?vid=217c4680-1e23-45e1-bb44-c241c6e6bffb"},"vehicle_type_id":"4","last_reported":1679079967,"current_range_meters":6400,"station_id":"ce4bgm92rcd13ifvqbr0","pricing_plan_id":"free"},{"bike_id":"797147cd-1881-42f7-98ed-79d923e8c2f6","system_id":"levelo_inurba_marseille","lat":43.298433,"lon":5.362774,"is_reserved":false,"is_disabled":false,"rental_uris":{"android":"levelo://app?vid=797147cd-1881-42f7-98ed-79d923e8c2f6","ios":"levelo://app?vid=797147cd-1881-42f7-98ed-79d923e8c2f6"},"vehicle_type_id":"4","last_reported":1679079967,"current_range_meters":400,"station_id":"ce4bgpp2rcd13ifvqc3g","pricing_plan_id":"free"},{"bike_id":"96cbc5ed-2f3d-4fa3-8e1e-3ec38ecae05c","system_id":"levelo_inurba_marseille","lat":43.298433,"lon":5.362774,"is_reserved":false,"is_disabled":false,"rental_uris":{"android":"levelo://app?vid=96cbc5ed-2f3d-4fa3-8e1e-3ec38ecae05c","ios":"levelo://app?vid=96cbc5ed-2f3d-4fa3-8e1e-3ec38ecae05c"},"vehicle_type_id":"4","last_reported":1679079967,"current_range_meters":8800,"station_id":"ce4bgpp2rcd13ifvqc3g","pricing_plan_id":"free"},{"bike_id":"b0c900a2-bd41-40c9-8eb9-4e17f619d181","system_id":"levelo_inurba_marseille","lat":43.298433,"lon":5.362774,"is_reserved":false,"is_disabled":false,"rental_uris":{"android":"levelo://app?vid=b0c900a2-bd41-40c9-8eb9-4e17f619d181","ios":"levelo://app?vid=b0c900a2-bd41-40c9-8eb9-4e17f619d181"},"vehicle_type_id":"4","last_reported":1679079967,"current_range_meters":7600,"station_id":"ce4bgpp2rcd13ifvqc3g","pricing_plan_id":"free"},{"bike_id":"ed2a8b7f-ca03-445a-af6f-bea3191cded5","system_id":"levelo_inurba_marseille","lat":43.311722,"lon":5.387247,"is_reserved":false,"is_disabled":false,"rental_uris":{"android":"levelo://app?vid=ed2a8b7f-ca03-445a-af6f-bea3191cded5","ios":"levelo://app?vid=ed2a8b7f-ca03-445a-af6f-bea3191cded5"},"vehicle_type_id":"4","last_reported":1679079967,"current_range_meters":23200,"station_id":"ce4bgv12rcd13ifvqcp0","pricing_plan_id":"free"},{"bike_id":"157c0422-a8c6-4c56-bb0f-d293286e8eba","system_id":"levelo_inurba_marseille","lat":43.328295,"lon":5.366855,"is_reserved":false,"is_disabled":false,"rental_uris":{"android":"levelo://app?vid=157c0422-a8c6-4c56-bb0f-d293286e8eba","ios":"levelo://app?vid=157c0422-a8c6-4c56-bb0f-d293286e8eba"},"vehicle_type_id":"4","last_reported":1679079967,"current_range_meters":14400,"station_id":"","pricing_plan_id":"free"},{"bike_id":"6b533fb3-97b5-4cf2-9b2e-8179268bfddb","system_id":"levelo_inurba_marseille","lat":43.29647,"lon":5.37306,"is_reserved":false,"is_disabled":false,"rental_uris":{"android":"levelo://app?vid=6b533fb3-97b5-4cf2-9b2e-8179268bfddb","ios":"levelo://app?vid=6b533fb3-97b5-4cf2-9b2e-8179268bfddb"},"vehicle_type_id":"4","last_reported":1679079967,"current_range_meters":15200,"station_id":"","pricing_plan_id":"free"},{"bike_id":"bb0db88b-06d3-4b3e-98eb-16bfb63d00a6","system_id":"levelo_inurba_marseille","lat":43.29582,"lon":5.36736,"is_reserved":false,"is_disabled":false,"rental_uris":{"android":"levelo://app?vid=bb0db88b-06d3-4b3e-98eb-16bfb63d00a6","ios":"levelo://app?vid=bb0db88b-06d3-4b3e-98eb-16bfb63d00a6"},"vehicle_type_id":"4","last_reported":1679079967,"current_range_meters":15600,"station_id":"","pricing_plan_id":"free"},{"bike_id":"cceb6a1c-264e-4a1d-8027-e5eca8357e4c","system_id":"levelo_inurba_marseille","lat":43.297133,"lon":5.376926,"is_reserved":false,"is_disabled":false,"rental_uris":{"android":"levelo://app?vid=cceb6a1c-264e-4a1d-8027-e5eca8357e4c","ios":"levelo://app?vid=cceb6a1c-264e-4a1d-8027-e5eca8357e4c"},"vehicle_type_id":"4","last_reported":1679079967,"current_range_meters":16400,"station_id":"","pricing_plan_id":"free"},{"bike_id":"75f1a632-c4d9-4044-820d-32d387ea8831","system_id":"levelo_inurba_marseille","lat":43.309589,"lon":5.390258,"is_reserved":false,"is_disabled":false,"rental_uris":{"android":"levelo://app?vid=75f1a632-c4d9-4044-820d-32d387ea8831","ios":"levelo://app?vid=75f1a632-c4d9-4044-820d-32d387ea8831"},"vehicle_type_id":"4","last_reported":1679079967,"current_range_meters":4000,"station_id":"ce4bgup2rcd13ifvqco0","pricing_plan_id":"free"},{"bike_id":"bac0aae8-17ae-47fd-a899-d202f06443c1","system_id":"levelo_inurba_marseille","lat":43.317557,"lon":5.390173,"is_reserved":false,"is_disabled":false,"rental_uris":{"android":"levelo://app?vid=bac0aae8-17ae-47fd-a899-d202f06443c1","ios":"levelo://app?vid=bac0aae8-17ae-47fd-a899-d202f06443c1"},"vehicle_type_id":"4","last_reported":1679079967,"current_range_meters":21600,"station_id":"ce4bhqp2rcd13ifvqhng","pricing_plan_id":"free"},{"bike_id":"af6b39fe-6d6d-494a-bccd-eee89a424aff","system_id":"levelo_inurba_marseille","lat":43.317627,"lon":5.390127,"is_reserved":false,"is_disabled":false,"rental_uris":{"android":"levelo://app?vid=af6b39fe-6d6d-494a-bccd-eee89a424aff","ios":"levelo://app?vid=af6b39fe-6d6d-494a-bccd-eee89a424aff"},"vehicle_type_id":"4","last_reported":1679079967,"current_range_meters":4400,"station_id":"","pricing_plan_id":"free"},{"bike_id":"e7d9d9f1-6d13-4c91-a0c0-b21489190405","system_id":"levelo_inurba_marseille","lat":43.31756,"lon":5.39016,"is_reserved":false,"is_disabled":false,"rental_uris":{"android":"levelo://app?vid=e7d9d9f1-6d13-4c91-a0c0-b21489190405","ios":"levelo://app?vid=e7d9d9f1-6d13-4c91-a0c0-b21489190405"},"vehicle_type_id":"4","last_reported":1679079967,"current_range_meters":5200,"station_id":"","pricing_plan_id":"free"},{"bike_id":"f2e802e3-e55e-47fc-8e1e-34a2a38d4d3d","system_id":"levelo_inurba_marseille","lat":43.31764,"lon":5.39015,"is_reserved":false,"is_disabled":false,"rental_uris":{"android":"levelo://app?vid=f2e802e3-e55e-47fc-8e1e-34a2a38d4d3d","ios":"levelo://app?vid=f2e802e3-e55e-47fc-8e1e-34a2a38d4d3d"},"vehicle_type_id":"4","last_reported":1679079967,"current_range_meters":0,"station_id":"","pricing_plan_id":"free"},{"bike_id":"6ce7d9c9-088f-4a46-a453-9cba3c6d13e9","system_id":"levelo_inurba_marseille","lat":43.317557,"lon":5.390173,"is_reserved":false,"is_disabled":false,"rental_uris":{"android":"levelo://app?vid=6ce7d9c9-088f-4a46-a453-9cba3c6d13e9","ios":"levelo://app?vid=6ce7d9c9-088f-4a46-a453-9cba3c6d13e9"},"vehicle_type_id":"4","last_reported":1679079967,"current_range_meters":10000,"station_id":"ce4bhqp2rcd13ifvqhng","pricing_plan_id":"free"},{"bike_id":"7b2e498d-096a-4d26-b209-cdfd481aca92","system_id":"levelo_inurba_marseille","lat":43.317557,"lon":5.390173,"is_reserved":false,"is_disabled":false,"rental_uris":{"android":"levelo://app?vid=7b2e498d-096a-4d26-b209-cdfd481aca92","ios":"levelo://app?vid=7b2e498d-096a-4d26-b209-cdfd481aca92"},"vehicle_type_id":"4","last_reported":1679079967,"current_range_meters":0,"station_id":"ce4bhqp2rcd13ifvqhng","pricing_plan_id":"free"},{"bike_id":"0fa9898a-3128-4191-8ec5-e35d5a07cdf2","system_id":"levelo_inurba_marseille","lat":43.298037,"lon":5.381066,"is_reserved":false,"is_disabled":false,"rental_uris":{"android":"levelo://app?vid=0fa9898a-3128-4191-8ec5-e35d5a07cdf2","ios":"levelo://app?vid=0fa9898a-3128-4191-8ec5-e35d5a07cdf2"},"vehicle_type_id":"4","last_reported":1679079967,"current_range_meters":0,"station_id":"ce4bgip2rcd13ifvqbb0","pricing_plan_id":"free"},{"bike_id":"2f2d7350-fb76-4314-a62d-a954cf11515c","system_id":"levelo_inurba_marseille","lat":43.298037,"lon":5.381066,"is_reserved":false,"is_disabled":false,"rental_uris":{"android":"levelo://app?vid=2f2d7350-fb76-4314-a62d-a954cf11515c","ios":"levelo://app?vid=2f2d7350-fb76-4314-a62d-a954cf11515c"},"vehicle_type_id":"4","last_reported":1679079967,"current_range_meters":0,"station_id":"ce4bgip2rcd13ifvqbb0","pricing_plan_id":"free"},{"bike_id":"c578aaed-f5b1-4edf-8524-b8f6696b129a","system_id":"levelo_inurba_marseille","lat":43.304278,"lon":5.388868,"is_reserved":false,"is_disabled":false,"rental_uris":{"android":"levelo://app?vid=c578aaed-f5b1-4edf-8524-b8f6696b129a","ios":"levelo://app?vid=c578aaed-f5b1-4edf-8524-b8f6696b129a"},"vehicle_type_id":"4","last_reported":1679079967,"current_range_meters":14000,"station_id":"ce4bgk12rcd13ifvqbi0","pricing_plan_id":"free"},{"bike_id":"95169658-7c7e-4c02-a350-fe8b5d9bd4ac","system_id":"levelo_inurba_marseille","lat":43.304278,"lon":5.388868,"is_reserved":false,"is_disabled":false,"rental_uris":{"android":"levelo://app?vid=95169658-7c7e-4c02-a350-fe8b5d9bd4ac","ios":"levelo://app?vid=95169658-7c7e-4c02-a350-fe8b5d9bd4ac"},"vehicle_type_id":"4","last_reported":1679079967,"current_range_meters":4800,"station_id":"ce4bgk12rcd13ifvqbi0","pricing_plan_id":"free"},{"bike_id":"22c850e5-8689-4148-8821-e84ba5cdf4b2","system_id":"levelo_inurba_marseille","lat":43.32367,"lon":5.388836,"is_reserved":false,"is_disabled":false,"rental_uris":{"android":"levelo://app?vid=22c850e5-8689-4148-8821-e84ba5cdf4b2","ios":"levelo://app?vid=22c850e5-8689-4148-8821-e84ba5cdf4b2"},"vehicle_type_id":"4","last_reported":1679079967,"current_range_meters":800,"station_id":"ce4bhqp2rcd13ifvqhog","pricing_plan_id":"free"},{"bike_id":"a5fe50d9-061a-4cd5-a94b-10089754ee9e","system_id":"levelo_inurba_marseille","lat":43.32367,"lon":5.388836,"is_reserved":false,"is_disabled":false,"rental_uris":{"android":"levelo://app?vid=a5fe50d9-061a-4cd5-a94b-10089754ee9e","ios":"levelo://app?vid=a5fe50d9-061a-4cd5-a94b-10089754ee9e"},"vehicle_type_id":"4","last_reported":1679079967,"current_range_meters":13600,"station_id":"ce4bhqp2rcd13ifvqhog","pricing_plan_id":"free"},{"bike_id":"001a4c9f-4f73-4f1f-b8cf-f34e5dd78480","system_id":"levelo_inurba_marseille","lat":43.32367,"lon":5.388836,"is_reserved":false,"is_disabled":false,"rental_uris":{"android":"levelo://app?vid=001a4c9f-4f73-4f1f-b8cf-f34e5dd78480","ios":"levelo://app?vid=001a4c9f-4f73-4f1f-b8cf-f34e5dd78480"},"vehicle_type_id":"4","last_reported":1679079967,"current_range_meters":18000,"station_id":"ce4bhqp2rcd13ifvqhog","pricing_plan_id":"free"},{"bike_id":"6cbfc7d4-189c-45b8-9695-fd49bcb22064","system_id":"levelo_inurba_marseille","lat":43.32367,"lon":5.388836,"is_reserved":false,"is_disabled":false,"rental_uris":{"android":"levelo://app?vid=6cbfc7d4-189c-45b8-9695-fd49bcb22064","ios":"levelo://app?vid=6cbfc7d4-189c-45b8-9695-fd49bcb22064"},"vehicle_type_id":"4","last_reported":1679079967,"current_range_meters":12400,"station_id":"ce4bhqp2rcd13ifvqhog","pricing_plan_id":"free"},{"bike_id":"b21c2572-1460-4285-a5ea-22ba9e67b220","system_id":"levelo_inurba_marseille","lat":43.32367,"lon":5.388836,"is_reserved":false,"is_disabled":false,"rental_uris":{"android":"levelo://app?vid=b21c2572-1460-4285-a5ea-22ba9e67b220","ios":"levelo://app?vid=b21c2572-1460-4285-a5ea-22ba9e67b220"},"vehicle_type_id":"4","last_reported":1679079967,"current_range_meters":27200,"station_id":"ce4bhqp2rcd13ifvqhog","pricing_plan_id":"free"},{"bike_id":"70100082-d077-4ea2-b9c4-6cfa8ffaa675","system_id":"levelo_inurba_marseille","lat":43.323806,"lon":5.388838,"is_reserved":false,"is_disabled":false,"rental_uris":{"android":"levelo://app?vid=70100082-d077-4ea2-b9c4-6cfa8ffaa675","ios":"levelo://app?vid=70100082-d077-4ea2-b9c4-6cfa8ffaa675"},"vehicle_type_id":"4","last_reported":1679079967,"current_range_meters":13200,"station_id":"","pricing_plan_id":"free"},{"bike_id":"c20ecde8-a76a-4a53-8bc5-a5e93d996549","system_id":"levelo_inurba_marseille","lat":43.293249,"lon":5.371578,"is_reserved":false,"is_disabled":false,"rental_uris":{"android":"levelo://app?vid=c20ecde8-a76a-4a53-8bc5-a5e93d996549","ios":"levelo://app?vid=c20ecde8-a76a-4a53-8bc5-a5e93d996549"},"vehicle_type_id":"4","last_reported":1679079967,"current_range_meters":0,"station_id":"ce4bgh92rcd13ifvqb40","pricing_plan_id":"free"},{"bike_id":"bc9cfade-f76a-447d-a9fb-ddd89c554bef","system_id":"levelo_inurba_marseille","lat":43.29302,"lon":5.37455,"is_reserved":false,"is_disabled":false,"rental_uris":{"android":"levelo://app?vid=bc9cfade-f76a-447d-a9fb-ddd89c554bef","ios":"levelo://app?vid=bc9cfade-f76a-447d-a9fb-ddd89c554bef"},"vehicle_type_id":"4","last_reported":1679079967,"current_range_meters":22400,"station_id":"ce4bgi12rcd13ifvqb70","pricing_plan_id":"free"},{"bike_id":"06ed76d7-0dee-4a9b-8264-817eb2f9771f","system_id":"levelo_inurba_marseille","lat":43.291671,"lon":5.371575,"is_reserved":false,"is_disabled":false,"rental_uris":{"android":"levelo://app?vid=06ed76d7-0dee-4a9b-8264-817eb2f9771f","ios":"levelo://app?vid=06ed76d7-0dee-4a9b-8264-817eb2f9771f"},"vehicle_type_id":"4","last_reported":1679079967,"current_range_meters":0,"station_id":"ce4bha92rcd13ifvqeh0","pricing_plan_id":"free"},{"bike_id":"ad2e61db-0269-4ce0-9184-caed4c812996","system_id":"levelo_inurba_marseille","lat":43.291675,"lon":5.371583,"is_reserved":false,"is_disabled":false,"rental_uris":{"android":"levelo://app?vid=ad2e61db-0269-4ce0-9184-caed4c812996","ios":"levelo://app?vid=ad2e61db-0269-4ce0-9184-caed4c812996"},"vehicle_type_id":"4","last_reported":1679079967,"current_range_meters":2400,"station_id":"ce4bha92rcd13ifvqeh0","pricing_plan_id":"free"},{"bike_id":"0bfd9c19-6430-4c71-862c-52d3dbce1505","system_id":"levelo_inurba_marseille","lat":43.313291,"lon":5.396838,"is_reserved":false,"is_disabled":false,"rental_uris":{"android":"levelo://app?vid=0bfd9c19-6430-4c71-862c-52d3dbce1505","ios":"levelo://app?vid=0bfd9c19-6430-4c71-862c-52d3dbce1505"},"vehicle_type_id":"4","last_reported":1679079967,"current_range_meters":0,"station_id":"ce4bgvp2rcd13ifvqcu0","pricing_plan_id":"free"},{"bike_id":"486beaed-628f-4bcc-ba3b-e0de696bd3dc","system_id":"levelo_inurba_marseille","lat":43.322109,"lon":5.394258,"is_reserved":false,"is_disabled":false,"rental_uris":{"android":"levelo://app?vid=486beaed-628f-4bcc-ba3b-e0de696bd3dc","ios":"levelo://app?vid=486beaed-628f-4bcc-ba3b-e0de696bd3dc"},"vehicle_type_id":"4","last_reported":1679079967,"current_range_meters":14400,"station_id":"","pricing_plan_id":"free"},{"bike_id":"3d9db212-17fb-4c4a-a91c-3a92fe9dac17","system_id":"levelo_inurba_marseille","lat":43.29529,"lon":5.385581,"is_reserved":false,"is_disabled":false,"rental_uris":{"android":"levelo://app?vid=3d9db212-17fb-4c4a-a91c-3a92fe9dac17","ios":"levelo://app?vid=3d9db212-17fb-4c4a-a91c-3a92fe9dac17"},"vehicle_type_id":"4","last_reported":1679079967,"current_range_meters":800,"station_id":"ce4bgih2rcd13ifvqba0","pricing_plan_id":"free"},{"bike_id":"b366d808-7e18-4bfb-9e82-fd9eeffb21ef","system_id":"levelo_inurba_marseille","lat":43.29529,"lon":5.385581,"is_reserved":false,"is_disabled":false,"rental_uris":{"android":"levelo://app?vid=b366d808-7e18-4bfb-9e82-fd9eeffb21ef","ios":"levelo://app?vid=b366d808-7e18-4bfb-9e82-fd9eeffb21ef"},"vehicle_type_id":"4","last_reported":1679079967,"current_range_meters":0,"station_id":"ce4bgih2rcd13ifvqba0","pricing_plan_id":"free"},{"bike_id":"ee5effc6-4c38-4bd8-bffe-c10223907982","system_id":"levelo_inurba_marseille","lat":43.29529,"lon":5.385581,"is_reserved":false,"is_disabled":false,"rental_uris":{"android":"levelo://app?vid=ee5effc6-4c38-4bd8-bffe-c10223907982","ios":"levelo://app?vid=ee5effc6-4c38-4bd8-bffe-c10223907982"},"vehicle_type_id":"4","last_reported":1679079967,"current_range_meters":2400,"station_id":"ce4bgih2rcd13ifvqba0","pricing_plan_id":"free"},{"bike_id":"1160da2c-0f6f-4ec7-91b5-c8229d87c268","system_id":"levelo_inurba_marseille","lat":43.290319,"lon":5.375732,"is_reserved":false,"is_disabled":false,"rental_uris":{"android":"levelo://app?vid=1160da2c-0f6f-4ec7-91b5-c8229d87c268","ios":"levelo://app?vid=1160da2c-0f6f-4ec7-91b5-c8229d87c268"},"vehicle_type_id":"4","last_reported":1679079967,"current_range_meters":0,"station_id":"ce4bh692rcd13ifvqe90","pricing_plan_id":"free"},{"bike_id":"088b9d03-0a86-4e35-9e07-a6e9d7c6fb17","system_id":"levelo_inurba_marseille","lat":43.294153,"lon":5.386305,"is_reserved":false,"is_disabled":false,"rental_uris":{"android":"levelo://app?vid=088b9d03-0a86-4e35-9e07-a6e9d7c6fb17","ios":"levelo://app?vid=088b9d03-0a86-4e35-9e07-a6e9d7c6fb17"},"vehicle_type_id":"4","last_reported":1679079967,"current_range_meters":2800,"station_id":"ce4bh2h2rcd13ifvqdh0","pricing_plan_id":"free"},{"bike_id":"86b539af-58f8-4330-8567-36ac46a03b0b","system_id":"levelo_inurba_marseille","lat":43.289463,"lon":5.36385,"is_reserved":false,"is_disabled":false,"rental_uris":{"android":"levelo://app?vid=86b539af-58f8-4330-8567-36ac46a03b0b","ios":"levelo://app?vid=86b539af-58f8-4330-8567-36ac46a03b0b"},"vehicle_type_id":"4","last_reported":1679079967,"current_range_meters":12400,"station_id":"","pricing_plan_id":"free"},{"bike_id":"b20f0ee2-f5f9-4795-9828-3ed77b0fc056","system_id":"levelo_inurba_marseille","lat":43.292644,"lon":5.384257,"is_reserved":false,"is_disabled":false,"rental_uris":{"android":"levelo://app?vid=b20f0ee2-f5f9-4795-9828-3ed77b0fc056","ios":"levelo://app?vid=b20f0ee2-f5f9-4795-9828-3ed77b0fc056"},"vehicle_type_id":"4","last_reported":1679079967,"current_range_meters":28800,"station_id":"ce4bh692rcd13ifvqea0","pricing_plan_id":"free"},{"bike_id":"b03ebbc0-329e-47a5-8ac3-6ff5d03315ef","system_id":"levelo_inurba_marseille","lat":43.292644,"lon":5.384257,"is_reserved":false,"is_disabled":false,"rental_uris":{"android":"levelo://app?vid=b03ebbc0-329e-47a5-8ac3-6ff5d03315ef","ios":"levelo://app?vid=b03ebbc0-329e-47a5-8ac3-6ff5d03315ef"},"vehicle_type_id":"4","last_reported":1679079967,"current_range_meters":20800,"station_id":"ce4bh692rcd13ifvqea0","pricing_plan_id":"free"},{"bike_id":"37db5225-da0a-4d1e-93c9-4b4e2d2c8149","system_id":"levelo_inurba_marseille","lat":43.292644,"lon":5.384257,"is_reserved":false,"is_disabled":false,"rental_uris":{"android":"levelo://app?vid=37db5225-da0a-4d1e-93c9-4b4e2d2c8149","ios":"levelo://app?vid=37db5225-da0a-4d1e-93c9-4b4e2d2c8149"},"vehicle_type_id":"4","last_reported":1679079967,"current_range_meters":6800,"station_id":"ce4bh692rcd13ifvqea0","pricing_plan_id":"free"},{"bike_id":"8bcfbc6d-31fd-4513-92f6-d4ebf263bf9f","system_id":"levelo_inurba_marseille","lat":43.2927,"lon":5.38434,"is_reserved":false,"is_disabled":false,"rental_uris":{"android":"levelo://app?vid=8bcfbc6d-31fd-4513-92f6-d4ebf263bf9f","ios":"levelo://app?vid=8bcfbc6d-31fd-4513-92f6-d4ebf263bf9f"},"vehicle_type_id":"4","last_reported":1679079967,"current_range_meters":0,"station_id":"ce4bh692rcd13ifvqea0","pricing_plan_id":"free"},{"bike_id":"12628672-0551-4349-bdf6-741f125b4227","system_id":"levelo_inurba_marseille","lat":43.292644,"lon":5.384257,"is_reserved":false,"is_disabled":false,"rental_uris":{"android":"levelo://app?vid=12628672-0551-4349-bdf6-741f125b4227","ios":"levelo://app?vid=12628672-0551-4349-bdf6-741f125b4227"},"vehicle_type_id":"4","last_reported":1679079967,"current_range_meters":8400,"station_id":"ce4bh692rcd13ifvqea0","pricing_plan_id":"free"},{"bike_id":"efbd7e4e-6528-489f-ab6c-f1be86c505bb","system_id":"levelo_inurba_marseille","lat":43.292644,"lon":5.384257,"is_reserved":false,"is_disabled":false,"rental_uris":{"android":"levelo://app?vid=efbd7e4e-6528-489f-ab6c-f1be86c505bb","ios":"levelo://app?vid=efbd7e4e-6528-489f-ab6c-f1be86c505bb"},"vehicle_type_id":"4","last_reported":1679079967,"current_range_meters":800,"station_id":"ce4bh692rcd13ifvqea0","pricing_plan_id":"free"},{"bike_id":"087aa239-e287-4cb6-9d5a-399700458ef5","system_id":"levelo_inurba_marseille","lat":43.292644,"lon":5.384257,"is_reserved":false,"is_disabled":false,"rental_uris":{"android":"levelo://app?vid=087aa239-e287-4cb6-9d5a-399700458ef5","ios":"levelo://app?vid=087aa239-e287-4cb6-9d5a-399700458ef5"},"vehicle_type_id":"4","last_reported":1679079967,"current_range_meters":0,"station_id":"ce4bh692rcd13ifvqea0","pricing_plan_id":"free"},{"bike_id":"24e511c3-af65-4c4c-9052-d492dc039a9d","system_id":"levelo_inurba_marseille","lat":43.304338,"lon":5.397485,"is_reserved":false,"is_disabled":false,"rental_uris":{"android":"levelo://app?vid=24e511c3-af65-4c4c-9052-d492dc039a9d","ios":"levelo://app?vid=24e511c3-af65-4c4c-9052-d492dc039a9d"},"vehicle_type_id":"4","last_reported":1679079967,"current_range_meters":28000,"station_id":"ce4bh092rcd13ifvqd20","pricing_plan_id":"free"},{"bike_id":"1fb34cbe-6975-4338-bb79-373a41c80a50","system_id":"levelo_inurba_marseille","lat":43.292644,"lon":5.384257,"is_reserved":false,"is_disabled":false,"rental_uris":{"android":"levelo://app?vid=1fb34cbe-6975-4338-bb79-373a41c80a50","ios":"levelo://app?vid=1fb34cbe-6975-4338-bb79-373a41c80a50"},"vehicle_type_id":"4","last_reported":1679079967,"current_range_meters":0,"station_id":"ce4bh692rcd13ifvqea0","pricing_plan_id":"free"},{"bike_id":"5c2acd33-681f-4feb-b1a9-489b9af27bbd","system_id":"levelo_inurba_marseille","lat":43.292644,"lon":5.384257,"is_reserved":false,"is_disabled":false,"rental_uris":{"android":"levelo://app?vid=5c2acd33-681f-4feb-b1a9-489b9af27bbd","ios":"levelo://app?vid=5c2acd33-681f-4feb-b1a9-489b9af27bbd"},"vehicle_type_id":"4","last_reported":1679079967,"current_range_meters":8800,"station_id":"ce4bh692rcd13ifvqea0","pricing_plan_id":"free"},{"bike_id":"2cae2b4d-b731-4bb0-b70c-569fd6359b60","system_id":"levelo_inurba_marseille","lat":43.292644,"lon":5.384257,"is_reserved":false,"is_disabled":false,"rental_uris":{"android":"levelo://app?vid=2cae2b4d-b731-4bb0-b70c-569fd6359b60","ios":"levelo://app?vid=2cae2b4d-b731-4bb0-b70c-569fd6359b60"},"vehicle_type_id":"4","last_reported":1679079967,"current_range_meters":31600,"station_id":"ce4bh692rcd13ifvqea0","pricing_plan_id":"free"},{"bike_id":"18aff72b-0cbf-49bd-8d87-cb515100911c","system_id":"levelo_inurba_marseille","lat":43.292634,"lon":5.384476,"is_reserved":false,"is_disabled":false,"rental_uris":{"android":"levelo://app?vid=18aff72b-0cbf-49bd-8d87-cb515100911c","ios":"levelo://app?vid=18aff72b-0cbf-49bd-8d87-cb515100911c"},"vehicle_type_id":"4","last_reported":1679079967,"current_range_meters":0,"station_id":"ce4bh692rcd13ifvqea0","pricing_plan_id":"free"},{"bike_id":"b799def0-bf00-4409-9ba7-8bddf8c3051d","system_id":"levelo_inurba_marseille","lat":43.330452,"lon":5.389144,"is_reserved":false,"is_disabled":false,"rental_uris":{"android":"levelo://app?vid=b799def0-bf00-4409-9ba7-8bddf8c3051d","ios":"levelo://app?vid=b799def0-bf00-4409-9ba7-8bddf8c3051d"},"vehicle_type_id":"4","last_reported":1679079967,"current_range_meters":31600,"station_id":"","pricing_plan_id":"free"},{"bike_id":"40fa3a1a-2ecc-435c-868f-43dec3f32230","system_id":"levelo_inurba_marseille","lat":43.33043,"lon":5.38919,"is_reserved":false,"is_disabled":false,"rental_uris":{"android":"levelo://app?vid=40fa3a1a-2ecc-435c-868f-43dec3f32230","ios":"levelo://app?vid=40fa3a1a-2ecc-435c-868f-43dec3f32230"},"vehicle_type_id":"4","last_reported":1679079967,"current_range_meters":24400,"station_id":"","pricing_plan_id":"free"},{"bike_id":"9dad7b6d-05a6-4811-8d70-d0de5b51c2d7","system_id":"levelo_inurba_marseille","lat":43.33047,"lon":5.38913,"is_reserved":false,"is_disabled":false,"rental_uris":{"android":"levelo://app?vid=9dad7b6d-05a6-4811-8d70-d0de5b51c2d7","ios":"levelo://app?vid=9dad7b6d-05a6-4811-8d70-d0de5b51c2d7"},"vehicle_type_id":"4","last_reported":1679079967,"current_range_meters":2000,"station_id":"ce4bhr92rcd13ifvqhrg","pricing_plan_id":"free"},{"bike_id":"fb4191ca-05f6-4bb6-94fb-cf35297e0635","system_id":"levelo_inurba_marseille","lat":43.33046,"lon":5.38917,"is_reserved":false,"is_disabled":false,"rental_uris":{"android":"levelo://app?vid=fb4191ca-05f6-4bb6-94fb-cf35297e0635","ios":"levelo://app?vid=fb4191ca-05f6-4bb6-94fb-cf35297e0635"},"vehicle_type_id":"4","last_reported":1679079967,"current_range_meters":12000,"station_id":"ce4bhr92rcd13ifvqhrg","pricing_plan_id":"free"},{"bike_id":"48a6d882-a176-425e-9987-f988cf2af6fb","system_id":"levelo_inurba_marseille","lat":43.33047,"lon":5.38917,"is_reserved":false,"is_disabled":false,"rental_uris":{"android":"levelo://app?vid=48a6d882-a176-425e-9987-f988cf2af6fb","ios":"levelo://app?vid=48a6d882-a176-425e-9987-f988cf2af6fb"},"vehicle_type_id":"4","last_reported":1679079967,"current_range_meters":31600,"station_id":"","pricing_plan_id":"free"},{"bike_id":"9b7f0c6d-26e1-4736-817a-c9a756b17483","system_id":"levelo_inurba_marseille","lat":43.33044,"lon":5.38922,"is_reserved":false,"is_disabled":false,"rental_uris":{"android":"levelo://app?vid=9b7f0c6d-26e1-4736-817a-c9a756b17483","ios":"levelo://app?vid=9b7f0c6d-26e1-4736-817a-c9a756b17483"},"vehicle_type_id":"4","last_reported":1679079967,"current_range_meters":6800,"station_id":"","pricing_plan_id":"free"},{"bike_id":"c69afdb3-4f0f-4cb6-a387-4969a018dbf0","system_id":"levelo_inurba_marseille","lat":43.33044,"lon":5.38922,"is_reserved":false,"is_disabled":false,"rental_uris":{"android":"levelo://app?vid=c69afdb3-4f0f-4cb6-a387-4969a018dbf0","ios":"levelo://app?vid=c69afdb3-4f0f-4cb6-a387-4969a018dbf0"},"vehicle_type_id":"4","last_reported":1679079967,"current_range_meters":24400,"station_id":"","pricing_plan_id":"free"},{"bike_id":"9b8d4f52-95ed-44fe-8bde-3d572752253e","system_id":"levelo_inurba_marseille","lat":43.290104,"lon":5.356111,"is_reserved":false,"is_disabled":false,"rental_uris":{"android":"levelo://app?vid=9b8d4f52-95ed-44fe-8bde-3d572752253e","ios":"levelo://app?vid=9b8d4f52-95ed-44fe-8bde-3d572752253e"},"vehicle_type_id":"4","last_reported":1679079967,"current_range_meters":16000,"station_id":"ce4bhb92rcd13ifvqen0","pricing_plan_id":"free"},{"bike_id":"39f0ec80-84de-4a2d-a0d9-18b0a9d520ee","system_id":"levelo_inurba_marseille","lat":43.337388,"lon":5.374506,"is_reserved":false,"is_disabled":false,"rental_uris":{"android":"levelo://app?vid=39f0ec80-84de-4a2d-a0d9-18b0a9d520ee","ios":"levelo://app?vid=39f0ec80-84de-4a2d-a0d9-18b0a9d520ee"},"vehicle_type_id":"4","last_reported":1679079967,"current_range_meters":31600,"station_id":"","pricing_plan_id":"free"},{"bike_id":"f3e60a9c-2b74-43cb-ac11-5dfafdbb73c0","system_id":"levelo_inurba_marseille","lat":43.337425,"lon":5.374582,"is_reserved":false,"is_disabled":false,"rental_uris":{"android":"levelo://app?vid=f3e60a9c-2b74-43cb-ac11-5dfafdbb73c0","ios":"levelo://app?vid=f3e60a9c-2b74-43cb-ac11-5dfafdbb73c0"},"vehicle_type_id":"4","last_reported":1679079967,"current_range_meters":30400,"station_id":"","pricing_plan_id":"free"},{"bike_id":"f0888a5d-8469-4a4a-aa32-e51183159fbe","system_id":"levelo_inurba_marseille","lat":43.337433,"lon":5.374613,"is_reserved":false,"is_disabled":false,"rental_uris":{"android":"levelo://app?vid=f0888a5d-8469-4a4a-aa32-e51183159fbe","ios":"levelo://app?vid=f0888a5d-8469-4a4a-aa32-e51183159fbe"},"vehicle_type_id":"4","last_reported":1679079967,"current_range_meters":12000,"station_id":"","pricing_plan_id":"free"},{"bike_id":"ebb1ffe4-848a-4469-9f23-a89be469dfc2","system_id":"levelo_inurba_marseille","lat":43.30642,"lon":5.401031,"is_reserved":false,"is_disabled":false,"rental_uris":{"android":"levelo://app?vid=ebb1ffe4-848a-4469-9f23-a89be469dfc2","ios":"levelo://app?vid=ebb1ffe4-848a-4469-9f23-a89be469dfc2"},"vehicle_type_id":"4","last_reported":1679079967,"current_range_meters":0,"station_id":"ce4bh112rcd13ifvqda0","pricing_plan_id":"free"},{"bike_id":"97a70748-85a2-4139-aa8d-3426ee2a5b86","system_id":"levelo_inurba_marseille","lat":43.337501,"lon":5.374448,"is_reserved":false,"is_disabled":false,"rental_uris":{"android":"levelo://app?vid=97a70748-85a2-4139-aa8d-3426ee2a5b86","ios":"levelo://app?vid=97a70748-85a2-4139-aa8d-3426ee2a5b86"},"vehicle_type_id":"4","last_reported":1679079967,"current_range_meters":0,"station_id":"","pricing_plan_id":"free"},{"bike_id":"24e42b65-e736-4b02-9f91-341883142906","system_id":"levelo_inurba_marseille","lat":43.337554,"lon":5.374451,"is_reserved":false,"is_disabled":false,"rental_uris":{"android":"levelo://app?vid=24e42b65-e736-4b02-9f91-341883142906","ios":"levelo://app?vid=24e42b65-e736-4b02-9f91-341883142906"},"vehicle_type_id":"4","last_reported":1679079967,"current_range_meters":20400,"station_id":"","pricing_plan_id":"free"},{"bike_id":"10fc3ba8-60a8-4843-a17e-e1bfaac81e95","system_id":"levelo_inurba_marseille","lat":43.337793,"lon":5.374193,"is_reserved":false,"is_disabled":false,"rental_uris":{"android":"levelo://app?vid=10fc3ba8-60a8-4843-a17e-e1bfaac81e95","ios":"levelo://app?vid=10fc3ba8-60a8-4843-a17e-e1bfaac81e95"},"vehicle_type_id":"4","last_reported":1679079967,"current_range_meters":26000,"station_id":"","pricing_plan_id":"free"},{"bike_id":"8d24b9f8-4333-450f-9f46-f3b7163f46dc","system_id":"levelo_inurba_marseille","lat":43.29528,"lon":5.39405,"is_reserved":false,"is_disabled":false,"rental_uris":{"android":"levelo://app?vid=8d24b9f8-4333-450f-9f46-f3b7163f46dc","ios":"levelo://app?vid=8d24b9f8-4333-450f-9f46-f3b7163f46dc"},"vehicle_type_id":"4","last_reported":1679079967,"current_range_meters":30400,"station_id":"ce4bh212rcd13ifvqde0","pricing_plan_id":"free"},{"bike_id":"4e69bea9-134e-4521-8de2-3643e37daedc","system_id":"levelo_inurba_marseille","lat":43.295075,"lon":5.394035,"is_reserved":false,"is_disabled":false,"rental_uris":{"android":"levelo://app?vid=4e69bea9-134e-4521-8de2-3643e37daedc","ios":"levelo://app?vid=4e69bea9-134e-4521-8de2-3643e37daedc"},"vehicle_type_id":"4","last_reported":1679079967,"current_range_meters":8000,"station_id":"ce4bh212rcd13ifvqde0","pricing_plan_id":"free"},{"bike_id":"69391285-b717-4df8-87df-6b83d674c662","system_id":"levelo_inurba_marseille","lat":43.29508,"lon":5.39405,"is_reserved":false,"is_disabled":false,"rental_uris":{"android":"levelo://app?vid=69391285-b717-4df8-87df-6b83d674c662","ios":"levelo://app?vid=69391285-b717-4df8-87df-6b83d674c662"},"vehicle_type_id":"4","last_reported":1679079967,"current_range_meters":2000,"station_id":"ce4bh292rcd13ifvqdf0","pricing_plan_id":"free"},{"bike_id":"3def00d9-0c31-4c3b-a275-e74d5d5ed248","system_id":"levelo_inurba_marseille","lat":43.30285,"lon":5.40077,"is_reserved":false,"is_disabled":false,"rental_uris":{"android":"levelo://app?vid=3def00d9-0c31-4c3b-a275-e74d5d5ed248","ios":"levelo://app?vid=3def00d9-0c31-4c3b-a275-e74d5d5ed248"},"vehicle_type_id":"4","last_reported":1679079967,"current_range_meters":23200,"station_id":"","pricing_plan_id":"free"},{"bike_id":"954ba6ae-2aea-4a61-b759-2b60b907ea4e","system_id":"levelo_inurba_marseille","lat":43.28612,"lon":5.37059,"is_reserved":false,"is_disabled":false,"rental_uris":{"android":"levelo://app?vid=954ba6ae-2aea-4a61-b759-2b60b907ea4e","ios":"levelo://app?vid=954ba6ae-2aea-4a61-b759-2b60b907ea4e"},"vehicle_type_id":"4","last_reported":1679079967,"current_range_meters":9600,"station_id":"","pricing_plan_id":"free"},{"bike_id":"7276a0f3-39e8-4af1-8160-d977e96e7a30","system_id":"levelo_inurba_marseille","lat":43.28611,"lon":5.37066,"is_reserved":false,"is_disabled":false,"rental_uris":{"android":"levelo://app?vid=7276a0f3-39e8-4af1-8160-d977e96e7a30","ios":"levelo://app?vid=7276a0f3-39e8-4af1-8160-d977e96e7a30"},"vehicle_type_id":"4","last_reported":1679079967,"current_range_meters":16800,"station_id":"ce4bht12rcd13ifvqi60","pricing_plan_id":"free"},{"bike_id":"976b0203-1c8b-4897-8a23-0fd147337b2b","system_id":"levelo_inurba_marseille","lat":43.272116,"lon":5.391747,"is_reserved":false,"is_disabled":false,"rental_uris":{"android":"levelo://app?vid=976b0203-1c8b-4897-8a23-0fd147337b2b","ios":"levelo://app?vid=976b0203-1c8b-4897-8a23-0fd147337b2b"},"vehicle_type_id":"4","last_reported":1679079967,"current_range_meters":26400,"station_id":"ce4bhhp2rcd13ifvqfm0","pricing_plan_id":"free"},{"bike_id":"fb8f763c-c01f-4ca8-ab39-1acf812d8d52","system_id":"levelo_inurba_marseille","lat":43.31645,"lon":5.40429,"is_reserved":false,"is_disabled":false,"rental_uris":{"android":"levelo://app?vid=fb8f763c-c01f-4ca8-ab39-1acf812d8d52","ios":"levelo://app?vid=fb8f763c-c01f-4ca8-ab39-1acf812d8d52"},"vehicle_type_id":"4","last_reported":1679079967,"current_range_meters":6800,"station_id":"ce4bh012rcd13ifvqd00","pricing_plan_id":"free"},{"bike_id":"df9f8c19-9bfc-420a-a400-b630615d2bcf","system_id":"levelo_inurba_marseille","lat":43.31641,"lon":5.40431,"is_reserved":false,"is_disabled":false,"rental_uris":{"android":"levelo://app?vid=df9f8c19-9bfc-420a-a400-b630615d2bcf","ios":"levelo://app?vid=df9f8c19-9bfc-420a-a400-b630615d2bcf"},"vehicle_type_id":"4","last_reported":1679079967,"current_range_meters":5200,"station_id":"","pricing_plan_id":"free"},{"bike_id":"990071fc-f556-4f93-86c0-174dd726beb5","system_id":"levelo_inurba_marseille","lat":43.316523,"lon":5.404367,"is_reserved":false,"is_disabled":false,"rental_uris":{"android":"levelo://app?vid=990071fc-f556-4f93-86c0-174dd726beb5","ios":"levelo://app?vid=990071fc-f556-4f93-86c0-174dd726beb5"},"vehicle_type_id":"4","last_reported":1679079967,"current_range_meters":31600,"station_id":"ce4bh012rcd13ifvqd00","pricing_plan_id":"free"},{"bike_id":"a93f3728-0c47-41ca-90af-e38cc598bbb5","system_id":"levelo_inurba_marseille","lat":43.316517,"lon":5.404375,"is_reserved":false,"is_disabled":false,"rental_uris":{"android":"levelo://app?vid=a93f3728-0c47-41ca-90af-e38cc598bbb5","ios":"levelo://app?vid=a93f3728-0c47-41ca-90af-e38cc598bbb5"},"vehicle_type_id":"4","last_reported":1679079967,"current_range_meters":8400,"station_id":"ce4bh012rcd13ifvqd00","pricing_plan_id":"free"},{"bike_id":"0f1d7370-a79a-4981-a2a3-4b430205c40f","system_id":"levelo_inurba_marseille","lat":43.316523,"lon":5.404367,"is_reserved":false,"is_disabled":false,"rental_uris":{"android":"levelo://app?vid=0f1d7370-a79a-4981-a2a3-4b430205c40f","ios":"levelo://app?vid=0f1d7370-a79a-4981-a2a3-4b430205c40f"},"vehicle_type_id":"4","last_reported":1679079967,"current_range_meters":30800,"station_id":"ce4bh012rcd13ifvqd00","pricing_plan_id":"free"},{"bike_id":"56efbbbc-b05f-4efe-87b0-9048fe6d055b","system_id":"levelo_inurba_marseille","lat":43.31647,"lon":5.40434,"is_reserved":false,"is_disabled":false,"rental_uris":{"android":"levelo://app?vid=56efbbbc-b05f-4efe-87b0-9048fe6d055b","ios":"levelo://app?vid=56efbbbc-b05f-4efe-87b0-9048fe6d055b"},"vehicle_type_id":"4","last_reported":1679079967,"current_range_meters":23600,"station_id":"ce4bh012rcd13ifvqd00","pricing_plan_id":"free"},{"bike_id":"f98cc2a8-9554-4a17-ba7c-48a6bdb32513","system_id":"levelo_inurba_marseille","lat":43.316523,"lon":5.404367,"is_reserved":false,"is_disabled":false,"rental_uris":{"android":"levelo://app?vid=f98cc2a8-9554-4a17-ba7c-48a6bdb32513","ios":"levelo://app?vid=f98cc2a8-9554-4a17-ba7c-48a6bdb32513"},"vehicle_type_id":"4","last_reported":1679079967,"current_range_meters":30000,"station_id":"ce4bh012rcd13ifvqd00","pricing_plan_id":"free"},{"bike_id":"c4411a89-2d66-44f5-8066-19ab283f61e9","system_id":"levelo_inurba_marseille","lat":43.316517,"lon":5.404375,"is_reserved":false,"is_disabled":false,"rental_uris":{"android":"levelo://app?vid=c4411a89-2d66-44f5-8066-19ab283f61e9","ios":"levelo://app?vid=c4411a89-2d66-44f5-8066-19ab283f61e9"},"vehicle_type_id":"4","last_reported":1679079967,"current_range_meters":0,"station_id":"ce4bh012rcd13ifvqd00","pricing_plan_id":"free"},{"bike_id":"2f64bc9e-3373-4c61-9439-01cc70a93963","system_id":"levelo_inurba_marseille","lat":43.316523,"lon":5.404367,"is_reserved":false,"is_disabled":false,"rental_uris":{"android":"levelo://app?vid=2f64bc9e-3373-4c61-9439-01cc70a93963","ios":"levelo://app?vid=2f64bc9e-3373-4c61-9439-01cc70a93963"},"vehicle_type_id":"4","last_reported":1679079967,"current_range_meters":3200,"station_id":"ce4bh012rcd13ifvqd00","pricing_plan_id":"free"},{"bike_id":"e24597c7-c2e6-41a1-9a15-dda2daefa4f2","system_id":"levelo_inurba_marseille","lat":43.316517,"lon":5.404375,"is_reserved":false,"is_disabled":false,"rental_uris":{"android":"levelo://app?vid=e24597c7-c2e6-41a1-9a15-dda2daefa4f2","ios":"levelo://app?vid=e24597c7-c2e6-41a1-9a15-dda2daefa4f2"},"vehicle_type_id":"4","last_reported":1679079967,"current_range_meters":10400,"station_id":"ce4bh012rcd13ifvqd00","pricing_plan_id":"free"},{"bike_id":"4fabb1ad-c32a-46d2-a1e7-2b7643518867","system_id":"levelo_inurba_marseille","lat":43.316517,"lon":5.404375,"is_reserved":false,"is_disabled":false,"rental_uris":{"android":"levelo://app?vid=4fabb1ad-c32a-46d2-a1e7-2b7643518867","ios":"levelo://app?vid=4fabb1ad-c32a-46d2-a1e7-2b7643518867"},"vehicle_type_id":"4","last_reported":1679079967,"current_range_meters":29600,"station_id":"ce4bh012rcd13ifvqd00","pricing_plan_id":"free"},{"bike_id":"ada8b327-612e-4682-973e-63da6a62b479","system_id":"levelo_inurba_marseille","lat":43.31646,"lon":5.404405,"is_reserved":false,"is_disabled":false,"rental_uris":{"android":"levelo://app?vid=ada8b327-612e-4682-973e-63da6a62b479","ios":"levelo://app?vid=ada8b327-612e-4682-973e-63da6a62b479"},"vehicle_type_id":"4","last_reported":1679079967,"current_range_meters":28400,"station_id":"ce4bh012rcd13ifvqd00","pricing_plan_id":"free"},{"bike_id":"e6540e28-fb13-45fc-80bb-646bb70aa750","system_id":"levelo_inurba_marseille","lat":43.316517,"lon":5.404375,"is_reserved":false,"is_disabled":false,"rental_uris":{"android":"levelo://app?vid=e6540e28-fb13-45fc-80bb-646bb70aa750","ios":"levelo://app?vid=e6540e28-fb13-45fc-80bb-646bb70aa750"},"vehicle_type_id":"4","last_reported":1679079967,"current_range_meters":31600,"station_id":"ce4bh012rcd13ifvqd00","pricing_plan_id":"free"},{"bike_id":"1a86198d-b3fe-4143-a817-4b6e83eb5d8e","system_id":"levelo_inurba_marseille","lat":43.281044,"lon":5.378308,"is_reserved":false,"is_disabled":false,"rental_uris":{"android":"levelo://app?vid=1a86198d-b3fe-4143-a817-4b6e83eb5d8e","ios":"levelo://app?vid=1a86198d-b3fe-4143-a817-4b6e83eb5d8e"},"vehicle_type_id":"4","last_reported":1679079967,"current_range_meters":21200,"station_id":"ce4bha12rcd13ifvqee0","pricing_plan_id":"free"},{"bike_id":"fbdb9d51-f497-472c-9f0a-dfa5f32e744a","system_id":"levelo_inurba_marseille","lat":43.30319,"lon":5.402947,"is_reserved":false,"is_disabled":false,"rental_uris":{"android":"levelo://app?vid=fbdb9d51-f497-472c-9f0a-dfa5f32e744a","ios":"levelo://app?vid=fbdb9d51-f497-472c-9f0a-dfa5f32e744a"},"vehicle_type_id":"4","last_reported":1679079967,"current_range_meters":0,"station_id":"","pricing_plan_id":"free"},{"bike_id":"42b30f9f-02e3-4832-96eb-c6e865b7f231","system_id":"levelo_inurba_marseille","lat":43.28467,"lon":5.35883,"is_reserved":false,"is_disabled":false,"rental_uris":{"android":"levelo://app?vid=42b30f9f-02e3-4832-96eb-c6e865b7f231","ios":"levelo://app?vid=42b30f9f-02e3-4832-96eb-c6e865b7f231"},"vehicle_type_id":"4","last_reported":1679079967,"current_range_meters":400,"station_id":"","pricing_plan_id":"free"},{"bike_id":"ca1fd207-fb13-4eb9-9244-91431b2dae02","system_id":"levelo_inurba_marseille","lat":43.295675,"lon":5.399599,"is_reserved":false,"is_disabled":false,"rental_uris":{"android":"levelo://app?vid=ca1fd207-fb13-4eb9-9244-91431b2dae02","ios":"levelo://app?vid=ca1fd207-fb13-4eb9-9244-91431b2dae02"},"vehicle_type_id":"4","last_reported":1679079967,"current_range_meters":10000,"station_id":"ce4bh312rcd13ifvqdj0","pricing_plan_id":"free"},{"bike_id":"db40a402-8363-47c2-9bf1-762f92a65ebd","system_id":"levelo_inurba_marseille","lat":43.295713,"lon":5.399639,"is_reserved":false,"is_disabled":false,"rental_uris":{"android":"levelo://app?vid=db40a402-8363-47c2-9bf1-762f92a65ebd","ios":"levelo://app?vid=db40a402-8363-47c2-9bf1-762f92a65ebd"},"vehicle_type_id":"4","last_reported":1679079967,"current_range_meters":30000,"station_id":"ce4bh312rcd13ifvqdj0","pricing_plan_id":"free"},{"bike_id":"e92849ce-e810-4025-8774-6ec0d3944c9a","system_id":"levelo_inurba_marseille","lat":43.32339,"lon":5.40615,"is_reserved":false,"is_disabled":false,"rental_uris":{"android":"levelo://app?vid=e92849ce-e810-4025-8774-6ec0d3944c9a","ios":"levelo://app?vid=e92849ce-e810-4025-8774-6ec0d3944c9a"},"vehicle_type_id":"4","last_reported":1679079967,"current_range_meters":31600,"station_id":"","pricing_plan_id":"free"},{"bike_id":"80ba76b4-d3c8-4ede-bc79-5a13e5122b90","system_id":"levelo_inurba_marseille","lat":43.32335,"lon":5.406213,"is_reserved":false,"is_disabled":false,"rental_uris":{"android":"levelo://app?vid=80ba76b4-d3c8-4ede-bc79-5a13e5122b90","ios":"levelo://app?vid=80ba76b4-d3c8-4ede-bc79-5a13e5122b90"},"vehicle_type_id":"4","last_reported":1679079967,"current_range_meters":31600,"station_id":"ce4bhq92rcd13ifvqhjg","pricing_plan_id":"free"},{"bike_id":"7da50cf2-84b2-4cdc-90b1-294cf45698cb","system_id":"levelo_inurba_marseille","lat":43.32336,"lon":5.40621,"is_reserved":false,"is_disabled":false,"rental_uris":{"android":"levelo://app?vid=7da50cf2-84b2-4cdc-90b1-294cf45698cb","ios":"levelo://app?vid=7da50cf2-84b2-4cdc-90b1-294cf45698cb"},"vehicle_type_id":"4","last_reported":1679079967,"current_range_meters":11600,"station_id":"ce4bhq92rcd13ifvqhjg","pricing_plan_id":"free"},{"bike_id":"5f9f6a68-b7bd-4e7c-81f2-8596a29c1b98","system_id":"levelo_inurba_marseille","lat":43.32337,"lon":5.40628,"is_reserved":false,"is_disabled":false,"rental_uris":{"android":"levelo://app?vid=5f9f6a68-b7bd-4e7c-81f2-8596a29c1b98","ios":"levelo://app?vid=5f9f6a68-b7bd-4e7c-81f2-8596a29c1b98"},"vehicle_type_id":"4","last_reported":1679079967,"current_range_meters":1600,"station_id":"ce4bhq92rcd13ifvqhjg","pricing_plan_id":"free"},{"bike_id":"d0eeeea6-3f56-496a-993c-bae0c9a5b8a7","system_id":"levelo_inurba_marseille","lat":43.292724,"lon":5.401131,"is_reserved":false,"is_disabled":false,"rental_uris":{"android":"levelo://app?vid=d0eeeea6-3f56-496a-993c-bae0c9a5b8a7","ios":"levelo://app?vid=d0eeeea6-3f56-496a-993c-bae0c9a5b8a7"},"vehicle_type_id":"4","last_reported":1679079967,"current_range_meters":14400,"station_id":"ce4bh312rcd13ifvqdk0","pricing_plan_id":"free"},{"bike_id":"9a36207d-81af-4760-90e8-ce8e20935427","system_id":"levelo_inurba_marseille","lat":43.282744,"lon":5.350533,"is_reserved":false,"is_disabled":false,"rental_uris":{"android":"levelo://app?vid=9a36207d-81af-4760-90e8-ce8e20935427","ios":"levelo://app?vid=9a36207d-81af-4760-90e8-ce8e20935427"},"vehicle_type_id":"4","last_reported":1679079967,"current_range_meters":12400,"station_id":"ce4bhbp2rcd13ifvqerg","pricing_plan_id":"free"},{"bike_id":"91548b90-0109-4ed4-9268-75eadb23749d","system_id":"levelo_inurba_marseille","lat":43.28042,"lon":5.36937,"is_reserved":false,"is_disabled":false,"rental_uris":{"android":"levelo://app?vid=91548b90-0109-4ed4-9268-75eadb23749d","ios":"levelo://app?vid=91548b90-0109-4ed4-9268-75eadb23749d"},"vehicle_type_id":"4","last_reported":1679079967,"current_range_meters":20800,"station_id":"ce4bha12rcd13ifvqef0","pricing_plan_id":"free"},{"bike_id":"932e3a92-6b03-4361-ad99-d8154671c705","system_id":"levelo_inurba_marseille","lat":43.290412,"lon":5.399633,"is_reserved":false,"is_disabled":false,"rental_uris":{"android":"levelo://app?vid=932e3a92-6b03-4361-ad99-d8154671c705","ios":"levelo://app?vid=932e3a92-6b03-4361-ad99-d8154671c705"},"vehicle_type_id":"4","last_reported":1679079967,"current_range_meters":0,"station_id":"ce4bh392rcd13ifvqdm0","pricing_plan_id":"free"},{"bike_id":"c03b1095-4fd5-4762-bd76-4f23e50dd063","system_id":"levelo_inurba_marseille","lat":43.28113,"lon":5.37828,"is_reserved":false,"is_disabled":false,"rental_uris":{"android":"levelo://app?vid=c03b1095-4fd5-4762-bd76-4f23e50dd063","ios":"levelo://app?vid=c03b1095-4fd5-4762-bd76-4f23e50dd063"},"vehicle_type_id":"4","last_reported":1679079967,"current_range_meters":400,"station_id":"ce4bha12rcd13ifvqee0","pricing_plan_id":"free"},{"bike_id":"ef681c9d-2f2a-4261-99c2-3e70d331646b","system_id":"levelo_inurba_marseille","lat":43.281044,"lon":5.378308,"is_reserved":false,"is_disabled":false,"rental_uris":{"android":"levelo://app?vid=ef681c9d-2f2a-4261-99c2-3e70d331646b","ios":"levelo://app?vid=ef681c9d-2f2a-4261-99c2-3e70d331646b"},"vehicle_type_id":"4","last_reported":1679079967,"current_range_meters":12000,"station_id":"ce4bha12rcd13ifvqee0","pricing_plan_id":"free"},{"bike_id":"50ae0def-f9bc-4720-af0f-2fee1268b968","system_id":"levelo_inurba_marseille","lat":43.281044,"lon":5.378308,"is_reserved":false,"is_disabled":false,"rental_uris":{"android":"levelo://app?vid=50ae0def-f9bc-4720-af0f-2fee1268b968","ios":"levelo://app?vid=50ae0def-f9bc-4720-af0f-2fee1268b968"},"vehicle_type_id":"4","last_reported":1679079967,"current_range_meters":29600,"station_id":"ce4bha12rcd13ifvqee0","pricing_plan_id":"free"},{"bike_id":"ad945a5c-f7d1-418d-9814-3c22997dfc03","system_id":"levelo_inurba_marseille","lat":43.296263,"lon":5.40601,"is_reserved":false,"is_disabled":false,"rental_uris":{"android":"levelo://app?vid=ad945a5c-f7d1-418d-9814-3c22997dfc03","ios":"levelo://app?vid=ad945a5c-f7d1-418d-9814-3c22997dfc03"},"vehicle_type_id":"4","last_reported":1679079967,"current_range_meters":3200,"station_id":"ce4bh0h2rcd13ifvqd60","pricing_plan_id":"free"},{"bike_id":"8d6b17c6-3785-444e-b91a-6b967a460873","system_id":"levelo_inurba_marseille","lat":43.284462,"lon":5.392121,"is_reserved":false,"is_disabled":false,"rental_uris":{"android":"levelo://app?vid=8d6b17c6-3785-444e-b91a-6b967a460873","ios":"levelo://app?vid=8d6b17c6-3785-444e-b91a-6b967a460873"},"vehicle_type_id":"4","last_reported":1679079967,"current_range_meters":0,"station_id":"ce4bhoh2rcd13ifvqh5g","pricing_plan_id":"free"},{"bike_id":"8355e3cc-1163-438e-8522-cda1f005852a","system_id":"levelo_inurba_marseille","lat":43.284418,"lon":5.391923,"is_reserved":false,"is_disabled":false,"rental_uris":{"android":"levelo://app?vid=8355e3cc-1163-438e-8522-cda1f005852a","ios":"levelo://app?vid=8355e3cc-1163-438e-8522-cda1f005852a"},"vehicle_type_id":"4","last_reported":1679079967,"current_range_meters":0,"station_id":"ce4bhoh2rcd13ifvqh5g","pricing_plan_id":"free"},{"bike_id":"c215766c-680c-4dae-8183-3adf27cb0e3d","system_id":"levelo_inurba_marseille","lat":43.287154,"lon":5.399979,"is_reserved":false,"is_disabled":false,"rental_uris":{"android":"levelo://app?vid=c215766c-680c-4dae-8183-3adf27cb0e3d","ios":"levelo://app?vid=c215766c-680c-4dae-8183-3adf27cb0e3d"},"vehicle_type_id":"4","last_reported":1679079967,"current_range_meters":27600,"station_id":"ce4bho92rcd13ifvqh3g","pricing_plan_id":"free"},{"bike_id":"e29e3f5d-3cf9-41c8-b926-16fd5d1b00d2","system_id":"levelo_inurba_marseille","lat":43.320045,"lon":5.415048,"is_reserved":false,"is_disabled":false,"rental_uris":{"android":"levelo://app?vid=e29e3f5d-3cf9-41c8-b926-16fd5d1b00d2","ios":"levelo://app?vid=e29e3f5d-3cf9-41c8-b926-16fd5d1b00d2"},"vehicle_type_id":"4","last_reported":1679079967,"current_range_meters":19600,"station_id":"ce4bhq92rcd13ifvqhkg","pricing_plan_id":"free"},{"bike_id":"e78427ae-8efb-4ece-bd95-f1e95f9f1550","system_id":"levelo_inurba_marseille","lat":43.279742,"lon":5.38744,"is_reserved":false,"is_disabled":false,"rental_uris":{"android":"levelo://app?vid=e78427ae-8efb-4ece-bd95-f1e95f9f1550","ios":"levelo://app?vid=e78427ae-8efb-4ece-bd95-f1e95f9f1550"},"vehicle_type_id":"4","last_reported":1679079967,"current_range_meters":22400,"station_id":"ce4bhg12rcd13ifvqf80","pricing_plan_id":"free"},{"bike_id":"90c94aac-5169-495d-ae20-811af0ebd860","system_id":"levelo_inurba_marseille","lat":43.279704,"lon":5.387422,"is_reserved":false,"is_disabled":false,"rental_uris":{"android":"levelo://app?vid=90c94aac-5169-495d-ae20-811af0ebd860","ios":"levelo://app?vid=90c94aac-5169-495d-ae20-811af0ebd860"},"vehicle_type_id":"4","last_reported":1679079967,"current_range_meters":8800,"station_id":"","pricing_plan_id":"free"},{"bike_id":"8fabca6e-e2e3-4725-84e7-fed89bca14bc","system_id":"levelo_inurba_marseille","lat":43.324784,"lon":5.414313,"is_reserved":false,"is_disabled":false,"rental_uris":{"android":"levelo://app?vid=8fabca6e-e2e3-4725-84e7-fed89bca14bc","ios":"levelo://app?vid=8fabca6e-e2e3-4725-84e7-fed89bca14bc"},"vehicle_type_id":"4","last_reported":1679079967,"current_range_meters":14400,"station_id":"","pricing_plan_id":"free"},{"bike_id":"e63f44e2-88ef-4b63-8922-3746eb56c673","system_id":"levelo_inurba_marseille","lat":43.324815,"lon":5.414383,"is_reserved":false,"is_disabled":false,"rental_uris":{"android":"levelo://app?vid=e63f44e2-88ef-4b63-8922-3746eb56c673","ios":"levelo://app?vid=e63f44e2-88ef-4b63-8922-3746eb56c673"},"vehicle_type_id":"4","last_reported":1679079967,"current_range_meters":0,"station_id":"","pricing_plan_id":"free"},{"bike_id":"9c74d327-8627-4b54-938f-0f496a91740b","system_id":"levelo_inurba_marseille","lat":43.292569,"lon":5.409107,"is_reserved":false,"is_disabled":false,"rental_uris":{"android":"levelo://app?vid=9c74d327-8627-4b54-938f-0f496a91740b","ios":"levelo://app?vid=9c74d327-8627-4b54-938f-0f496a91740b"},"vehicle_type_id":"4","last_reported":1679079967,"current_range_meters":0,"station_id":"ce4bh192rcd13ifvqdc0","pricing_plan_id":"free"},{"bike_id":"79063469-4674-491b-8fe3-abc2f7254d62","system_id":"levelo_inurba_marseille","lat":43.27618,"lon":5.361009,"is_reserved":false,"is_disabled":false,"rental_uris":{"android":"levelo://app?vid=79063469-4674-491b-8fe3-abc2f7254d62","ios":"levelo://app?vid=79063469-4674-491b-8fe3-abc2f7254d62"},"vehicle_type_id":"4","last_reported":1679079967,"current_range_meters":18000,"station_id":"ce4bgj92rcd13ifvqbe0","pricing_plan_id":"free"},{"bike_id":"06d24389-ddbc-4a76-bbcd-8a434a5cf561","system_id":"levelo_inurba_marseille","lat":43.32544,"lon":5.41435,"is_reserved":false,"is_disabled":false,"rental_uris":{"android":"levelo://app?vid=06d24389-ddbc-4a76-bbcd-8a434a5cf561","ios":"levelo://app?vid=06d24389-ddbc-4a76-bbcd-8a434a5cf561"},"vehicle_type_id":"4","last_reported":1679079967,"current_range_meters":6000,"station_id":"ce4bhq12rcd13ifvqhhg","pricing_plan_id":"free"},{"bike_id":"475c1bf4-38c3-49a6-bf4f-dda43ab568f1","system_id":"levelo_inurba_marseille","lat":43.32541,"lon":5.41438,"is_reserved":false,"is_disabled":false,"rental_uris":{"android":"levelo://app?vid=475c1bf4-38c3-49a6-bf4f-dda43ab568f1","ios":"levelo://app?vid=475c1bf4-38c3-49a6-bf4f-dda43ab568f1"},"vehicle_type_id":"4","last_reported":1679079967,"current_range_meters":11200,"station_id":"ce4bhq12rcd13ifvqhhg","pricing_plan_id":"free"},{"bike_id":"c414d882-0c84-4eeb-b931-bc8968f7e3bb","system_id":"levelo_inurba_marseille","lat":43.32546,"lon":5.41439,"is_reserved":false,"is_disabled":false,"rental_uris":{"android":"levelo://app?vid=c414d882-0c84-4eeb-b931-bc8968f7e3bb","ios":"levelo://app?vid=c414d882-0c84-4eeb-b931-bc8968f7e3bb"},"vehicle_type_id":"4","last_reported":1679079967,"current_range_meters":18800,"station_id":"","pricing_plan_id":"free"},{"bike_id":"f35169e8-0c85-4cfa-b943-66ea72517626","system_id":"levelo_inurba_marseille","lat":43.32543,"lon":5.41444,"is_reserved":false,"is_disabled":false,"rental_uris":{"android":"levelo://app?vid=f35169e8-0c85-4cfa-b943-66ea72517626","ios":"levelo://app?vid=f35169e8-0c85-4cfa-b943-66ea72517626"},"vehicle_type_id":"4","last_reported":1679079967,"current_range_meters":12000,"station_id":"ce4bhq12rcd13ifvqhhg","pricing_plan_id":"free"},{"bike_id":"b464288f-3667-4406-a91d-869cc2a3b7ba","system_id":"levelo_inurba_marseille","lat":43.276091,"lon":5.361088,"is_reserved":false,"is_disabled":false,"rental_uris":{"android":"levelo://app?vid=b464288f-3667-4406-a91d-869cc2a3b7ba","ios":"levelo://app?vid=b464288f-3667-4406-a91d-869cc2a3b7ba"},"vehicle_type_id":"4","last_reported":1679079967,"current_range_meters":0,"station_id":"","pricing_plan_id":"free"},{"bike_id":"0591e09a-8f4c-4de2-9bba-b7744ca5c275","system_id":"levelo_inurba_marseille","lat":43.275328,"lon":5.389694,"is_reserved":false,"is_disabled":false,"rental_uris":{"android":"levelo://app?vid=0591e09a-8f4c-4de2-9bba-b7744ca5c275","ios":"levelo://app?vid=0591e09a-8f4c-4de2-9bba-b7744ca5c275"},"vehicle_type_id":"4","last_reported":1679079967,"current_range_meters":0,"station_id":"","pricing_plan_id":"free"},{"bike_id":"68093a89-d7b5-4359-b351-3c6ab72eb622","system_id":"levelo_inurba_marseille","lat":43.29483,"lon":5.41829,"is_reserved":false,"is_disabled":false,"rental_uris":{"android":"levelo://app?vid=68093a89-d7b5-4359-b351-3c6ab72eb622","ios":"levelo://app?vid=68093a89-d7b5-4359-b351-3c6ab72eb622"},"vehicle_type_id":"4","last_reported":1679079967,"current_range_meters":0,"station_id":"","pricing_plan_id":"free"},{"bike_id":"807355fe-5d3b-484a-9955-ef9e45dea16f","system_id":"levelo_inurba_marseille","lat":43.317445,"lon":5.423895,"is_reserved":false,"is_disabled":false,"rental_uris":{"android":"levelo://app?vid=807355fe-5d3b-484a-9955-ef9e45dea16f","ios":"levelo://app?vid=807355fe-5d3b-484a-9955-ef9e45dea16f"},"vehicle_type_id":"4","last_reported":1679079967,"current_range_meters":10400,"station_id":"ce4bhp92rcd13ifvqhbg","pricing_plan_id":"free"},{"bike_id":"fdc9a4eb-6978-441c-a28b-72e94202c013","system_id":"levelo_inurba_marseille","lat":43.272116,"lon":5.391747,"is_reserved":false,"is_disabled":false,"rental_uris":{"android":"levelo://app?vid=fdc9a4eb-6978-441c-a28b-72e94202c013","ios":"levelo://app?vid=fdc9a4eb-6978-441c-a28b-72e94202c013"},"vehicle_type_id":"4","last_reported":1679079967,"current_range_meters":23600,"station_id":"ce4bhhp2rcd13ifvqfm0","pricing_plan_id":"free"},{"bike_id":"96639c5b-9c22-45e0-90ba-a36c6c6c3049","system_id":"levelo_inurba_marseille","lat":43.295523,"lon":5.422926,"is_reserved":false,"is_disabled":false,"rental_uris":{"android":"levelo://app?vid=96639c5b-9c22-45e0-90ba-a36c6c6c3049","ios":"levelo://app?vid=96639c5b-9c22-45e0-90ba-a36c6c6c3049"},"vehicle_type_id":"4","last_reported":1679079967,"current_range_meters":26400,"station_id":"ce4bhph2rcd13ifvqhdg","pricing_plan_id":"free"},{"bike_id":"00fa9f7a-5a8e-40fa-a68c-a5f2f1acaaa0","system_id":"levelo_inurba_marseille","lat":43.27208,"lon":5.391855,"is_reserved":false,"is_disabled":false,"rental_uris":{"android":"levelo://app?vid=00fa9f7a-5a8e-40fa-a68c-a5f2f1acaaa0","ios":"levelo://app?vid=00fa9f7a-5a8e-40fa-a68c-a5f2f1acaaa0"},"vehicle_type_id":"4","last_reported":1679079967,"current_range_meters":8400,"station_id":"","pricing_plan_id":"free"},{"bike_id":"6c53a820-7a49-421c-81f6-837dfa9a869c","system_id":"levelo_inurba_marseille","lat":43.26952,"lon":5.38625,"is_reserved":false,"is_disabled":false,"rental_uris":{"android":"levelo://app?vid=6c53a820-7a49-421c-81f6-837dfa9a869c","ios":"levelo://app?vid=6c53a820-7a49-421c-81f6-837dfa9a869c"},"vehicle_type_id":"4","last_reported":1679079967,"current_range_meters":0,"station_id":"ce4bhh92rcd13ifvqfh0","pricing_plan_id":"free"},{"bike_id":"31fe660e-e4a2-4410-81b3-4316e7ba4d07","system_id":"levelo_inurba_marseille","lat":43.31302,"lon":5.42987,"is_reserved":false,"is_disabled":false,"rental_uris":{"android":"levelo://app?vid=31fe660e-e4a2-4410-81b3-4316e7ba4d07","ios":"levelo://app?vid=31fe660e-e4a2-4410-81b3-4316e7ba4d07"},"vehicle_type_id":"4","last_reported":1679079967,"current_range_meters":10000,"station_id":"","pricing_plan_id":"free"},{"bike_id":"e38538de-e128-4a7a-a115-713ea47e4397","system_id":"levelo_inurba_marseille","lat":43.26554,"lon":5.37294,"is_reserved":false,"is_disabled":false,"rental_uris":{"android":"levelo://app?vid=e38538de-e128-4a7a-a115-713ea47e4397","ios":"levelo://app?vid=e38538de-e128-4a7a-a115-713ea47e4397"},"vehicle_type_id":"4","last_reported":1679079967,"current_range_meters":0,"station_id":"ce4bhg12rcd13ifvqf70","pricing_plan_id":"free"},{"bike_id":"7c6715a0-8579-46d9-88ff-ee53c1e4a02f","system_id":"levelo_inurba_marseille","lat":43.28,"lon":5.41658,"is_reserved":false,"is_disabled":false,"rental_uris":{"android":"levelo://app?vid=7c6715a0-8579-46d9-88ff-ee53c1e4a02f","ios":"levelo://app?vid=7c6715a0-8579-46d9-88ff-ee53c1e4a02f"},"vehicle_type_id":"4","last_reported":1679079967,"current_range_meters":8000,"station_id":"","pricing_plan_id":"free"},{"bike_id":"be8bc1a6-c2a9-4e9b-9fa4-d2d509e8cc64","system_id":"levelo_inurba_marseille","lat":43.27999,"lon":5.41657,"is_reserved":false,"is_disabled":false,"rental_uris":{"android":"levelo://app?vid=be8bc1a6-c2a9-4e9b-9fa4-d2d509e8cc64","ios":"levelo://app?vid=be8bc1a6-c2a9-4e9b-9fa4-d2d509e8cc64"},"vehicle_type_id":"4","last_reported":1679079967,"current_range_meters":17200,"station_id":"ce4bho12rcd13ifvqh1g","pricing_plan_id":"free"},{"bike_id":"7b142210-5006-4def-a9de-26a8dba91889","system_id":"levelo_inurba_marseille","lat":43.28,"lon":5.41661,"is_reserved":false,"is_disabled":false,"rental_uris":{"android":"levelo://app?vid=7b142210-5006-4def-a9de-26a8dba91889","ios":"levelo://app?vid=7b142210-5006-4def-a9de-26a8dba91889"},"vehicle_type_id":"4","last_reported":1679079967,"current_range_meters":11600,"station_id":"","pricing_plan_id":"free"},{"bike_id":"a0ea3d26-54f2-4786-92a3-9e6898b78beb","system_id":"levelo_inurba_marseille","lat":43.27998,"lon":5.41661,"is_reserved":false,"is_disabled":false,"rental_uris":{"android":"levelo://app?vid=a0ea3d26-54f2-4786-92a3-9e6898b78beb","ios":"levelo://app?vid=a0ea3d26-54f2-4786-92a3-9e6898b78beb"},"vehicle_type_id":"4","last_reported":1679079967,"current_range_meters":0,"station_id":"ce4bho12rcd13ifvqh1g","pricing_plan_id":"free"},{"bike_id":"3fbf823e-8d07-4bd3-85df-5431d3399d5d","system_id":"levelo_inurba_marseille","lat":43.27996,"lon":5.416624,"is_reserved":false,"is_disabled":false,"rental_uris":{"android":"levelo://app?vid=3fbf823e-8d07-4bd3-85df-5431d3399d5d","ios":"levelo://app?vid=3fbf823e-8d07-4bd3-85df-5431d3399d5d"},"vehicle_type_id":"4","last_reported":1679079967,"current_range_meters":5200,"station_id":"ce4bho12rcd13ifvqh1g","pricing_plan_id":"free"},{"bike_id":"ad294667-1ed3-4024-88bf-9db5f65550bd","system_id":"levelo_inurba_marseille","lat":43.279913,"lon":5.416607,"is_reserved":false,"is_disabled":false,"rental_uris":{"android":"levelo://app?vid=ad294667-1ed3-4024-88bf-9db5f65550bd","ios":"levelo://app?vid=ad294667-1ed3-4024-88bf-9db5f65550bd"},"vehicle_type_id":"4","last_reported":1679079967,"current_range_meters":9600,"station_id":"ce4bho12rcd13ifvqh1g","pricing_plan_id":"free"},{"bike_id":"10bb1087-26ec-4c14-aa29-4ada5aaafb2e","system_id":"levelo_inurba_marseille","lat":43.308016,"lon":5.435301,"is_reserved":false,"is_disabled":false,"rental_uris":{"android":"levelo://app?vid=10bb1087-26ec-4c14-aa29-4ada5aaafb2e","ios":"levelo://app?vid=10bb1087-26ec-4c14-aa29-4ada5aaafb2e"},"vehicle_type_id":"4","last_reported":1679079967,"current_range_meters":0,"station_id":"","pricing_plan_id":"free"},{"bike_id":"6dad2552-a899-4430-9fb8-b649348542e1","system_id":"levelo_inurba_marseille","lat":43.265569,"lon":5.390047,"is_reserved":false,"is_disabled":false,"rental_uris":{"android":"levelo://app?vid=6dad2552-a899-4430-9fb8-b649348542e1","ios":"levelo://app?vid=6dad2552-a899-4430-9fb8-b649348542e1"},"vehicle_type_id":"4","last_reported":1679079967,"current_range_meters":29200,"station_id":"ce4bhe12rcd13ifvqf30","pricing_plan_id":"free"},{"bike_id":"4ebb4099-b9bc-4336-9360-7e6777069bf8","system_id":"levelo_inurba_marseille","lat":43.267959,"lon":5.402687,"is_reserved":false,"is_disabled":false,"rental_uris":{"android":"levelo://app?vid=4ebb4099-b9bc-4336-9360-7e6777069bf8","ios":"levelo://app?vid=4ebb4099-b9bc-4336-9360-7e6777069bf8"},"vehicle_type_id":"4","last_reported":1679079967,"current_range_meters":2000,"station_id":"ce501612rcd8frsf0b60","pricing_plan_id":"free"},{"bike_id":"99ccacf0-7962-4772-a8ae-63345f3ea8c7","system_id":"levelo_inurba_marseille","lat":43.267959,"lon":5.402685,"is_reserved":false,"is_disabled":false,"rental_uris":{"android":"levelo://app?vid=99ccacf0-7962-4772-a8ae-63345f3ea8c7","ios":"levelo://app?vid=99ccacf0-7962-4772-a8ae-63345f3ea8c7"},"vehicle_type_id":"4","last_reported":1679079967,"current_range_meters":3600,"station_id":"ce501612rcd8frsf0b60","pricing_plan_id":"free"},{"bike_id":"04f9b3d8-73f9-47c4-b3a4-858631614bfb","system_id":"levelo_inurba_marseille","lat":43.2607,"lon":5.393983,"is_reserved":false,"is_disabled":false,"rental_uris":{"android":"levelo://app?vid=04f9b3d8-73f9-47c4-b3a4-858631614bfb","ios":"levelo://app?vid=04f9b3d8-73f9-47c4-b3a4-858631614bfb"},"vehicle_type_id":"4","last_reported":1679079967,"current_range_meters":10000,"station_id":"ce4bhh92rcd13ifvqfj0","pricing_plan_id":"free"},{"bike_id":"8d9cd18c-580c-449b-a2c3-795306c62147","system_id":"levelo_inurba_marseille","lat":43.2607,"lon":5.393983,"is_reserved":false,"is_disabled":false,"rental_uris":{"android":"levelo://app?vid=8d9cd18c-580c-449b-a2c3-795306c62147","ios":"levelo://app?vid=8d9cd18c-580c-449b-a2c3-795306c62147"},"vehicle_type_id":"4","last_reported":1679079967,"current_range_meters":2000,"station_id":"ce4bhh92rcd13ifvqfj0","pricing_plan_id":"free"},{"bike_id":"1ec3213a-36ad-4a61-985b-7a421e2b511e","system_id":"levelo_inurba_marseille","lat":43.2607,"lon":5.393983,"is_reserved":false,"is_disabled":false,"rental_uris":{"android":"levelo://app?vid=1ec3213a-36ad-4a61-985b-7a421e2b511e","ios":"levelo://app?vid=1ec3213a-36ad-4a61-985b-7a421e2b511e"},"vehicle_type_id":"4","last_reported":1679079967,"current_range_meters":0,"station_id":"ce4bhh92rcd13ifvqfj0","pricing_plan_id":"free"},{"bike_id":"33290f53-11ce-4685-a914-622570e6bc59","system_id":"levelo_inurba_marseille","lat":43.2607,"lon":5.393983,"is_reserved":false,"is_disabled":false,"rental_uris":{"android":"levelo://app?vid=33290f53-11ce-4685-a914-622570e6bc59","ios":"levelo://app?vid=33290f53-11ce-4685-a914-622570e6bc59"},"vehicle_type_id":"4","last_reported":1679079967,"current_range_meters":6400,"station_id":"ce4bhh92rcd13ifvqfj0","pricing_plan_id":"free"},{"bike_id":"377a072e-20f2-468b-9607-ad83681ee0e4","system_id":"levelo_inurba_marseille","lat":43.2607,"lon":5.393983,"is_reserved":false,"is_disabled":false,"rental_uris":{"android":"levelo://app?vid=377a072e-20f2-468b-9607-ad83681ee0e4","ios":"levelo://app?vid=377a072e-20f2-468b-9607-ad83681ee0e4"},"vehicle_type_id":"4","last_reported":1679079967,"current_range_meters":0,"station_id":"ce4bhh92rcd13ifvqfj0","pricing_plan_id":"free"},{"bike_id":"8b297e91-f409-4f29-b865-9e2fddad7daf","system_id":"levelo_inurba_marseille","lat":43.2607,"lon":5.393983,"is_reserved":false,"is_disabled":false,"rental_uris":{"android":"levelo://app?vid=8b297e91-f409-4f29-b865-9e2fddad7daf","ios":"levelo://app?vid=8b297e91-f409-4f29-b865-9e2fddad7daf"},"vehicle_type_id":"4","last_reported":1679079967,"current_range_meters":23200,"station_id":"ce4bhh92rcd13ifvqfj0","pricing_plan_id":"free"},{"bike_id":"8977f0a6-900c-4ba8-9dd3-6f63a03a0c3a","system_id":"levelo_inurba_marseille","lat":43.255756,"lon":5.382303,"is_reserved":false,"is_disabled":false,"rental_uris":{"android":"levelo://app?vid=8977f0a6-900c-4ba8-9dd3-6f63a03a0c3a","ios":"levelo://app?vid=8977f0a6-900c-4ba8-9dd3-6f63a03a0c3a"},"vehicle_type_id":"4","last_reported":1679079967,"current_range_meters":0,"station_id":"ce4bhih2rcd13ifvqfs0","pricing_plan_id":"free"},{"bike_id":"2ff0118f-272b-4158-bb50-f312f6629d3b","system_id":"levelo_inurba_marseille","lat":43.25006,"lon":5.38923,"is_reserved":false,"is_disabled":false,"rental_uris":{"android":"levelo://app?vid=2ff0118f-272b-4158-bb50-f312f6629d3b","ios":"levelo://app?vid=2ff0118f-272b-4158-bb50-f312f6629d3b"},"vehicle_type_id":"4","last_reported":1679079967,"current_range_meters":26800,"station_id":"","pricing_plan_id":"free"},{"bike_id":"d3f80df1-423a-475c-b3af-2c55f31442a1","system_id":"levelo_inurba_marseille","lat":43.250064,"lon":5.389278,"is_reserved":false,"is_disabled":false,"rental_uris":{"android":"levelo://app?vid=d3f80df1-423a-475c-b3af-2c55f31442a1","ios":"levelo://app?vid=d3f80df1-423a-475c-b3af-2c55f31442a1"},"vehicle_type_id":"4","last_reported":1679079967,"current_range_meters":0,"station_id":"","pricing_plan_id":"free"},{"bike_id":"b3ec2cb3-78a7-4300-aade-29b188c9a494","system_id":"levelo_inurba_marseille","lat":43.250002,"lon":5.389342,"is_reserved":false,"is_disabled":false,"rental_uris":{"android":"levelo://app?vid=b3ec2cb3-78a7-4300-aade-29b188c9a494","ios":"levelo://app?vid=b3ec2cb3-78a7-4300-aade-29b188c9a494"},"vehicle_type_id":"4","last_reported":1679079967,"current_range_meters":0,"station_id":"ce4bhgp2rcd13ifvqfd0","pricing_plan_id":"free"},{"bike_id":"ba29c688-dc88-4fca-807b-be485213b0f7","system_id":"levelo_inurba_marseille","lat":43.250009,"lon":5.389195,"is_reserved":false,"is_disabled":false,"rental_uris":{"android":"levelo://app?vid=ba29c688-dc88-4fca-807b-be485213b0f7","ios":"levelo://app?vid=ba29c688-dc88-4fca-807b-be485213b0f7"},"vehicle_type_id":"4","last_reported":1679079967,"current_range_meters":0,"station_id":"ce4bhgp2rcd13ifvqfd0","pricing_plan_id":"free"},{"bike_id":"ddad8a6e-783e-4ef6-b8e5-ae48406d0df5","system_id":"levelo_inurba_marseille","lat":43.2479,"lon":5.374457,"is_reserved":false,"is_disabled":false,"rental_uris":{"android":"levelo://app?vid=ddad8a6e-783e-4ef6-b8e5-ae48406d0df5","ios":"levelo://app?vid=ddad8a6e-783e-4ef6-b8e5-ae48406d0df5"},"vehicle_type_id":"4","last_reported":1679079967,"current_range_meters":14000,"station_id":"ce4bhgh2rcd13ifvqfb0","pricing_plan_id":"free"},{"bike_id":"77657fdb-40ec-4ecf-8d78-043b025fef11","system_id":"levelo_inurba_marseille","lat":43.25091,"lon":5.39525,"is_reserved":false,"is_disabled":false,"rental_uris":{"android":"levelo://app?vid=77657fdb-40ec-4ecf-8d78-043b025fef11","ios":"levelo://app?vid=77657fdb-40ec-4ecf-8d78-043b025fef11"},"vehicle_type_id":"4","last_reported":1679079967,"current_range_meters":14800,"station_id":"ce4bhm12rcd13ifvqgkg","pricing_plan_id":"free"},{"bike_id":"9d4734cf-3661-44a9-9755-40259893e51c","system_id":"levelo_inurba_marseille","lat":43.250966,"lon":5.395186,"is_reserved":false,"is_disabled":false,"rental_uris":{"android":"levelo://app?vid=9d4734cf-3661-44a9-9755-40259893e51c","ios":"levelo://app?vid=9d4734cf-3661-44a9-9755-40259893e51c"},"vehicle_type_id":"4","last_reported":1679079967,"current_range_meters":18000,"station_id":"ce4bhm12rcd13ifvqgkg","pricing_plan_id":"free"},{"bike_id":"89087527-8e75-48a9-99fc-905f3e063502","system_id":"levelo_inurba_marseille","lat":43.24693,"lon":5.382096,"is_reserved":false,"is_disabled":false,"rental_uris":{"android":"levelo://app?vid=89087527-8e75-48a9-99fc-905f3e063502","ios":"levelo://app?vid=89087527-8e75-48a9-99fc-905f3e063502"},"vehicle_type_id":"4","last_reported":1679079967,"current_range_meters":2800,"station_id":"ce4bhih2rcd13ifvqfr0","pricing_plan_id":"free"},{"bike_id":"27405174-d2f4-455d-bcf2-09f76a323553","system_id":"levelo_inurba_marseille","lat":43.25102,"lon":5.403214,"is_reserved":false,"is_disabled":false,"rental_uris":{"android":"levelo://app?vid=27405174-d2f4-455d-bcf2-09f76a323553","ios":"levelo://app?vid=27405174-d2f4-455d-bcf2-09f76a323553"},"vehicle_type_id":"4","last_reported":1679079967,"current_range_meters":5600,"station_id":"ce4bhlh2rcd13ifvqgig","pricing_plan_id":"free"},{"bike_id":"b49e884f-1519-49fd-9af9-b7af61544fb7","system_id":"levelo_inurba_marseille","lat":43.24693,"lon":5.382096,"is_reserved":false,"is_disabled":false,"rental_uris":{"android":"levelo://app?vid=b49e884f-1519-49fd-9af9-b7af61544fb7","ios":"levelo://app?vid=b49e884f-1519-49fd-9af9-b7af61544fb7"},"vehicle_type_id":"4","last_reported":1679079967,"current_range_meters":0,"station_id":"ce4bhih2rcd13ifvqfr0","pricing_plan_id":"free"},{"bike_id":"40a1b558-922f-4917-9f5b-e51c564abb0c","system_id":"levelo_inurba_marseille","lat":43.25102,"lon":5.403214,"is_reserved":false,"is_disabled":false,"rental_uris":{"android":"levelo://app?vid=40a1b558-922f-4917-9f5b-e51c564abb0c","ios":"levelo://app?vid=40a1b558-922f-4917-9f5b-e51c564abb0c"},"vehicle_type_id":"4","last_reported":1679079967,"current_range_meters":20800,"station_id":"ce4bhlh2rcd13ifvqgig","pricing_plan_id":"free"},{"bike_id":"536cfefd-6ada-4099-b049-c6fcd397cd06","system_id":"levelo_inurba_marseille","lat":43.24693,"lon":5.382096,"is_reserved":false,"is_disabled":false,"rental_uris":{"android":"levelo://app?vid=536cfefd-6ada-4099-b049-c6fcd397cd06","ios":"levelo://app?vid=536cfefd-6ada-4099-b049-c6fcd397cd06"},"vehicle_type_id":"4","last_reported":1679079967,"current_range_meters":27600,"station_id":"ce4bhih2rcd13ifvqfr0","pricing_plan_id":"free"},{"bike_id":"2c89974b-866c-4556-b6ad-8d2e1b077e95","system_id":"levelo_inurba_marseille","lat":43.24693,"lon":5.382096,"is_reserved":false,"is_disabled":false,"rental_uris":{"android":"levelo://app?vid=2c89974b-866c-4556-b6ad-8d2e1b077e95","ios":"levelo://app?vid=2c89974b-866c-4556-b6ad-8d2e1b077e95"},"vehicle_type_id":"4","last_reported":1679079967,"current_range_meters":8800,"station_id":"ce4bhih2rcd13ifvqfr0","pricing_plan_id":"free"},{"bike_id":"f90c9470-cac4-4bc7-8356-3edf3cac2569","system_id":"levelo_inurba_marseille","lat":43.25102,"lon":5.403214,"is_reserved":false,"is_disabled":false,"rental_uris":{"android":"levelo://app?vid=f90c9470-cac4-4bc7-8356-3edf3cac2569","ios":"levelo://app?vid=f90c9470-cac4-4bc7-8356-3edf3cac2569"},"vehicle_type_id":"4","last_reported":1679079967,"current_range_meters":19600,"station_id":"ce4bhlh2rcd13ifvqgig","pricing_plan_id":"free"},{"bike_id":"f2ed81d0-448a-4122-bcb3-a453992721cc","system_id":"levelo_inurba_marseille","lat":43.25102,"lon":5.403214,"is_reserved":false,"is_disabled":false,"rental_uris":{"android":"levelo://app?vid=f2ed81d0-448a-4122-bcb3-a453992721cc","ios":"levelo://app?vid=f2ed81d0-448a-4122-bcb3-a453992721cc"},"vehicle_type_id":"4","last_reported":1679079967,"current_range_meters":13200,"station_id":"ce4bhlh2rcd13ifvqgig","pricing_plan_id":"free"},{"bike_id":"cc587802-29f2-45de-9af2-38691f0ab5bf","system_id":"levelo_inurba_marseille","lat":43.25102,"lon":5.403214,"is_reserved":false,"is_disabled":false,"rental_uris":{"android":"levelo://app?vid=cc587802-29f2-45de-9af2-38691f0ab5bf","ios":"levelo://app?vid=cc587802-29f2-45de-9af2-38691f0ab5bf"},"vehicle_type_id":"4","last_reported":1679079967,"current_range_meters":8800,"station_id":"ce4bhlh2rcd13ifvqgig","pricing_plan_id":"free"},{"bike_id":"592adabc-a5ae-45cb-8040-f3f3638a9dd4","system_id":"levelo_inurba_marseille","lat":43.246461,"lon":5.389014,"is_reserved":false,"is_disabled":false,"rental_uris":{"android":"levelo://app?vid=592adabc-a5ae-45cb-8040-f3f3638a9dd4","ios":"levelo://app?vid=592adabc-a5ae-45cb-8040-f3f3638a9dd4"},"vehicle_type_id":"4","last_reported":1679079967,"current_range_meters":27200,"station_id":"ce4bhg12rcd13ifvqf60","pricing_plan_id":"free"},{"bike_id":"2f2e67d9-ef12-49f5-93bb-89e83bd22016","system_id":"levelo_inurba_marseille","lat":43.246467,"lon":5.388984,"is_reserved":false,"is_disabled":false,"rental_uris":{"android":"levelo://app?vid=2f2e67d9-ef12-49f5-93bb-89e83bd22016","ios":"levelo://app?vid=2f2e67d9-ef12-49f5-93bb-89e83bd22016"},"vehicle_type_id":"4","last_reported":1679079967,"current_range_meters":20400,"station_id":"ce4bhg12rcd13ifvqf60","pricing_plan_id":"free"},{"bike_id":"6c4437b1-a7df-4671-b1af-076deaf3f28d","system_id":"levelo_inurba_marseille","lat":43.243884,"lon":5.370736,"is_reserved":false,"is_disabled":false,"rental_uris":{"android":"levelo://app?vid=6c4437b1-a7df-4671-b1af-076deaf3f28d","ios":"levelo://app?vid=6c4437b1-a7df-4671-b1af-076deaf3f28d"},"vehicle_type_id":"4","last_reported":1679079967,"current_range_meters":14800,"station_id":"ce4bhhh2rcd13ifvqfk0","pricing_plan_id":"free"},{"bike_id":"604704cf-eaa8-45f8-b7db-189a24253edb","system_id":"levelo_inurba_marseille","lat":43.295713,"lon":5.399639,"is_reserved":false,"is_disabled":false,"rental_uris":{"android":"levelo://app?vid=604704cf-eaa8-45f8-b7db-189a24253edb","ios":"levelo://app?vid=604704cf-eaa8-45f8-b7db-189a24253edb"},"vehicle_type_id":"4","last_reported":1679079967,"current_range_meters":0,"station_id":"ce4bh312rcd13ifvqdj0","pricing_plan_id":"free"},{"bike_id":"c3db6ff0-6909-407d-9c9e-dc4de213d9ed","system_id":"levelo_inurba_marseille","lat":43.245581,"lon":5.395069,"is_reserved":false,"is_disabled":false,"rental_uris":{"android":"levelo://app?vid=c3db6ff0-6909-407d-9c9e-dc4de213d9ed","ios":"levelo://app?vid=c3db6ff0-6909-407d-9c9e-dc4de213d9ed"},"vehicle_type_id":"4","last_reported":1679079967,"current_range_meters":12000,"station_id":"ce4bhlp2rcd13ifvqgjg","pricing_plan_id":"free"},{"bike_id":"069eaf24-b4e0-465d-b84a-647011d15fa4","system_id":"levelo_inurba_marseille","lat":43.239687,"lon":5.366348,"is_reserved":false,"is_disabled":false,"rental_uris":{"android":"levelo://app?vid=069eaf24-b4e0-465d-b84a-647011d15fa4","ios":"levelo://app?vid=069eaf24-b4e0-465d-b84a-647011d15fa4"},"vehicle_type_id":"4","last_reported":1679079967,"current_range_meters":19600,"station_id":"ce4bhi12rcd13ifvqfp0","pricing_plan_id":"free"},{"bike_id":"2393ddc0-236d-4303-aea9-0070fb290055","system_id":"levelo_inurba_marseille","lat":43.23967,"lon":5.36634,"is_reserved":false,"is_disabled":false,"rental_uris":{"android":"levelo://app?vid=2393ddc0-236d-4303-aea9-0070fb290055","ios":"levelo://app?vid=2393ddc0-236d-4303-aea9-0070fb290055"},"vehicle_type_id":"4","last_reported":1679079967,"current_range_meters":0,"station_id":"ce4bhi12rcd13ifvqfp0","pricing_plan_id":"free"},{"bike_id":"5719a631-2d91-4a3e-ad3d-9745f0b941f1","system_id":"levelo_inurba_marseille","lat":43.23965,"lon":5.3663,"is_reserved":false,"is_disabled":false,"rental_uris":{"android":"levelo://app?vid=5719a631-2d91-4a3e-ad3d-9745f0b941f1","ios":"levelo://app?vid=5719a631-2d91-4a3e-ad3d-9745f0b941f1"},"vehicle_type_id":"4","last_reported":1679079967,"current_range_meters":12800,"station_id":"ce4bhi12rcd13ifvqfp0","pricing_plan_id":"free"},{"bike_id":"57eb8358-09d4-419b-ae08-ebd10794faac","system_id":"levelo_inurba_marseille","lat":43.23965,"lon":5.36621,"is_reserved":false,"is_disabled":false,"rental_uris":{"android":"levelo://app?vid=57eb8358-09d4-419b-ae08-ebd10794faac","ios":"levelo://app?vid=57eb8358-09d4-419b-ae08-ebd10794faac"},"vehicle_type_id":"4","last_reported":1679079967,"current_range_meters":0,"station_id":"ce4bhi12rcd13ifvqfp0","pricing_plan_id":"free"},{"bike_id":"5d9781e8-b868-408e-88ee-4e427979c715","system_id":"levelo_inurba_marseille","lat":43.239588,"lon":5.366238,"is_reserved":false,"is_disabled":false,"rental_uris":{"android":"levelo://app?vid=5d9781e8-b868-408e-88ee-4e427979c715","ios":"levelo://app?vid=5d9781e8-b868-408e-88ee-4e427979c715"},"vehicle_type_id":"4","last_reported":1679079967,"current_range_meters":16800,"station_id":"ce4bhi12rcd13ifvqfp0","pricing_plan_id":"free"},{"bike_id":"9e08a389-75f3-4b7f-9b1c-ec02a7f18063","system_id":"levelo_inurba_marseille","lat":43.23963,"lon":5.366353,"is_reserved":false,"is_disabled":false,"rental_uris":{"android":"levelo://app?vid=9e08a389-75f3-4b7f-9b1c-ec02a7f18063","ios":"levelo://app?vid=9e08a389-75f3-4b7f-9b1c-ec02a7f18063"},"vehicle_type_id":"4","last_reported":1679079967,"current_range_meters":8400,"station_id":"ce4bhi12rcd13ifvqfp0","pricing_plan_id":"free"},{"bike_id":"cae187de-8eae-4824-bdbe-d94e74c0d6f0","system_id":"levelo_inurba_marseille","lat":43.23963,"lon":5.36622,"is_reserved":false,"is_disabled":false,"rental_uris":{"android":"levelo://app?vid=cae187de-8eae-4824-bdbe-d94e74c0d6f0","ios":"levelo://app?vid=cae187de-8eae-4824-bdbe-d94e74c0d6f0"},"vehicle_type_id":"4","last_reported":1679079967,"current_range_meters":16800,"station_id":"ce4bhi12rcd13ifvqfp0","pricing_plan_id":"free"},{"bike_id":"88bdd677-aafb-45e2-a27f-94de5917c5b3","system_id":"levelo_inurba_marseille","lat":43.24182,"lon":5.39725,"is_reserved":false,"is_disabled":false,"rental_uris":{"android":"levelo://app?vid=88bdd677-aafb-45e2-a27f-94de5917c5b3","ios":"levelo://app?vid=88bdd677-aafb-45e2-a27f-94de5917c5b3"},"vehicle_type_id":"4","last_reported":1679079967,"current_range_meters":0,"station_id":"ce4bhn12rcd13ifvqgpg","pricing_plan_id":"free"},{"bike_id":"3ac1471f-7271-47f6-82c6-fc260a1fb105","system_id":"levelo_inurba_marseille","lat":43.24182,"lon":5.397263,"is_reserved":false,"is_disabled":false,"rental_uris":{"android":"levelo://app?vid=3ac1471f-7271-47f6-82c6-fc260a1fb105","ios":"levelo://app?vid=3ac1471f-7271-47f6-82c6-fc260a1fb105"},"vehicle_type_id":"4","last_reported":1679079967,"current_range_meters":800,"station_id":"ce4bhn12rcd13ifvqgpg","pricing_plan_id":"free"},{"bike_id":"8050e31f-ec46-4b77-b5ff-dbda51a64f0e","system_id":"levelo_inurba_marseille","lat":43.24178,"lon":5.39737,"is_reserved":false,"is_disabled":false,"rental_uris":{"android":"levelo://app?vid=8050e31f-ec46-4b77-b5ff-dbda51a64f0e","ios":"levelo://app?vid=8050e31f-ec46-4b77-b5ff-dbda51a64f0e"},"vehicle_type_id":"4","last_reported":1679079967,"current_range_meters":6800,"station_id":"","pricing_plan_id":"free"},{"bike_id":"e90cc6a7-b071-4519-91af-c4a37f29e0ba","system_id":"levelo_inurba_marseille","lat":43.241767,"lon":5.39733,"is_reserved":false,"is_disabled":false,"rental_uris":{"android":"levelo://app?vid=e90cc6a7-b071-4519-91af-c4a37f29e0ba","ios":"levelo://app?vid=e90cc6a7-b071-4519-91af-c4a37f29e0ba"},"vehicle_type_id":"4","last_reported":1679079967,"current_range_meters":0,"station_id":"ce4bhn12rcd13ifvqgpg","pricing_plan_id":"free"},{"bike_id":"9396a642-8421-4ca9-b20d-a2492104caf9","system_id":"levelo_inurba_marseille","lat":43.231919,"lon":5.355532,"is_reserved":false,"is_disabled":false,"rental_uris":{"android":"levelo://app?vid=9396a642-8421-4ca9-b20d-a2492104caf9","ios":"levelo://app?vid=9396a642-8421-4ca9-b20d-a2492104caf9"},"vehicle_type_id":"4","last_reported":1679079967,"current_range_meters":28800,"station_id":"ce4bhu92rcd13ifvqi70","pricing_plan_id":"free"},{"bike_id":"88879922-dcd9-4b6f-9fe6-a6a039e9642d","system_id":"levelo_inurba_marseille","lat":43.231923,"lon":5.355545,"is_reserved":false,"is_disabled":false,"rental_uris":{"android":"levelo://app?vid=88879922-dcd9-4b6f-9fe6-a6a039e9642d","ios":"levelo://app?vid=88879922-dcd9-4b6f-9fe6-a6a039e9642d"},"vehicle_type_id":"4","last_reported":1679079967,"current_range_meters":8800,"station_id":"ce4bhu92rcd13ifvqi70","pricing_plan_id":"free"},{"bike_id":"956fe110-a343-4414-91a1-6e3d50bfa094","system_id":"levelo_inurba_marseille","lat":43.231923,"lon":5.355545,"is_reserved":false,"is_disabled":false,"rental_uris":{"android":"levelo://app?vid=956fe110-a343-4414-91a1-6e3d50bfa094","ios":"levelo://app?vid=956fe110-a343-4414-91a1-6e3d50bfa094"},"vehicle_type_id":"4","last_reported":1679079967,"current_range_meters":15600,"station_id":"ce4bhu92rcd13ifvqi70","pricing_plan_id":"free"},{"bike_id":"ff98316f-748f-4069-a942-b27635abd352","system_id":"levelo_inurba_marseille","lat":43.231923,"lon":5.355545,"is_reserved":false,"is_disabled":false,"rental_uris":{"android":"levelo://app?vid=ff98316f-748f-4069-a942-b27635abd352","ios":"levelo://app?vid=ff98316f-748f-4069-a942-b27635abd352"},"vehicle_type_id":"4","last_reported":1679079967,"current_range_meters":14400,"station_id":"ce4bhu92rcd13ifvqi70","pricing_plan_id":"free"},{"bike_id":"5c296cfe-bb42-4ddc-9604-9304ff266475","system_id":"levelo_inurba_marseille","lat":43.231919,"lon":5.355532,"is_reserved":false,"is_disabled":false,"rental_uris":{"android":"levelo://app?vid=5c296cfe-bb42-4ddc-9604-9304ff266475","ios":"levelo://app?vid=5c296cfe-bb42-4ddc-9604-9304ff266475"},"vehicle_type_id":"4","last_reported":1679079967,"current_range_meters":28000,"station_id":"ce4bhu92rcd13ifvqi70","pricing_plan_id":"free"}]}}