{"last_updated":1738865520,"ttl":60,"version":"2.2","data":{"bikes":[{"bike_id":"b1f4d63b-8a98-455c-a69c-7d498690a1fa","system_id":"levelo_inurba_marseille","lat":43.31117,"lon":5.37775,"is_reserved":false,"is_disabled":false,"rental_uris":{"android":"levelo://app?vid=b1f4d63b-8a98-455c-a69c-7d498690a1fa","ios":"levelo://app?vid=b1f4d63b-8a98-455c-a69c-7d498690a1fa"},"vehicle_type_id":"4","last_reported":1738865521,"current_range_meters":38800,"station_id":"ce4bgt92rcd13ifvqcg0","pricing_plan_id":"cebpf4jnsgd1na2vs0mg"},{"bike_id":"b7afcc04-cb11-440a-a531-4c808c1c4618","system_id":"levelo_inurba_marseille","lat":43.22928,"lon":5.35381,"is_reserved":false,"is_disabled":false,"rental_uris":{"android":"levelo://app?vid=b7afcc04-cb11-440a-a531-4c808c1c4618","ios":"levelo://app?vid=b7afcc04-cb11-440a-a531-4c808c1c4618"},"vehicle_type_id":"4","last_reported":1738865521,"current_range_meters":22800,"station_id":"cpo3532slgdg3j2ikp40","pricing_plan_id":"cebpf4jnsgd1na2vs0mg"},{"bike_id":"c5f5a10d-c4ee-4670-855c-f90b9203bdb7","system_id":"levelo_inurba_marseille","lat":43.29532,"lon":5.39054,"is_reserved":false,"is_disabled":false,"rental_uris":{"android":"levelo://app?vid=c5f5a10d-c4ee-4670-855c-f90b9203bdb7","ios":"levelo://app?vid=c5f5a10d-c4ee-4670-855c-f90b9203bdb7"},"vehicle_type_id":"4","last_reported":1738865521,"current_range_meters":2000,"station_id":"ce4bh3p2rcd13ifvqdp0","pricing_plan_id":"cebpf4jnsgd1na2vs0mg"},{"bike_id":"43ed1231-0b0d-413f-812b-afb9d05440b2","system_id":"levelo_inurba_marseille","lat":43.31317,"lon":5.39701,"is_reserved":false,"is_disabled":false,"rental_uris":{"android":"levelo://app?vid=43ed1231-0b0d-413f-812b-afb9d05440b2","ios":"levelo://app?vid=43ed1231-0b0d-413f-812b-afb9d05440b2"},"vehicle_type_id":"4","last_reported":1738865521,"current_range_meters":27200,"station_id":"ce4bgvp2rcd13ifvqcu0","pricing_plan_id":"cebpf4jnsgd1na2vs0mg"},{"bike_id":"0467a076-a2ad-41b7-a012-e38470b2d7f6","system_id":"levelo_inurba_marseille","lat":43.24976,"lon":5.38937,"is_reserved":false,"is_disabled":false,"rental_uris":{"android":"levelo://app?vid=0467a076-a2ad-41b7-a012-e38470b2d7f6","ios":"levelo://app?vid=0467a076-a2ad-41b7-a012-e38470b2d7f6"},"vehicle_type_id":"4","last_reported":1738865521,"current_range_meters":9600,"station_id":"ce4bhgp2rcd13ifvqfd0","pricing_plan_id":"cebpf4jnsgd1na2vs0mg"},{"bike_id":"1396efb7-f96f-4fef-8671-6effad9ac3b9","system_id":"levelo_inurba_marseille","lat":43.29639,"lon":5.37166,"is_reserved":false,"is_disabled":false,"rental_uris":{"android":"levelo://app?vid=1396efb7-f96f-4fef-8671-6effad9ac3b9","ios":"levelo://app?vid=1396efb7-f96f-4fef-8671-6effad9ac3b9"},"vehicle_type_id":"4","last_reported":1738865521,"current_range_meters":38800,"station_id":"ce4bgnh2rcd13ifvqc0g","pricing_plan_id":"cebpf4jnsgd1na2vs0mg"},{"bike_id":"6f1b8212-3f5a-4978-864e-5e174cc6fd25","system_id":"levelo_inurba_marseille","lat":43.29564,"lon":5.42281,"is_reserved":false,"is_disabled":false,"rental_uris":{"android":"levelo://app?vid=6f1b8212-3f5a-4978-864e-5e174cc6fd25","ios":"levelo://app?vid=6f1b8212-3f5a-4978-864e-5e174cc6fd25"},"vehicle_type_id":"4","last_reported":1738865521,"current_range_meters":38800,"station_id":"ce4bhph2rcd13ifvqhdg","pricing_plan_id":"cebpf4jnsgd1na2vs0mg"},{"bike_id":"0b370460-2bdc-4346-a1f4-7aeb9dd2a707","system_id":"levelo_inurba_marseille","lat":43.28632,"lon":5.39138,"is_reserved":false,"is_disabled":true,"rental_uris":{"android":"levelo://app?vid=0b370460-2bdc-4346-a1f4-7aeb9dd2a707","ios":"levelo://app?vid=0b370460-2bdc-4346-a1f4-7aeb9dd2a707"},"vehicle_type_id":"4","last_reported":1738865521,"current_range_meters":18000,"station_id":"","pricing_plan_id":"cebpf4jnsgd1na2vs0mg"},{"bike_id":"9094078c-7c29-411d-8877-ca6848fb2f24","system_id":"levelo_inurba_marseille","lat":43.27895,"lon":5.38002,"is_reserved":false,"is_disabled":false,"rental_uris":{"android":"levelo://app?vid=9094078c-7c29-411d-8877-ca6848fb2f24","ios":"levelo://app?vid=9094078c-7c29-411d-8877-ca6848fb2f24"},"vehicle_type_id":"4","last_reported":1738865521,"current_range_meters":14800,"station_id":"ce4bhf92rcd13ifvqf50","pricing_plan_id":"cebpf4jnsgd1na2vs0mg"},{"bike_id":"196bffac-1f2e-4818-9811-4c17ddd14d87","system_id":"levelo_inurba_marseille","lat":43.24994,"lon":5.38945,"is_reserved":false,"is_disabled":false,"rental_uris":{"android":"levelo://app?vid=196bffac-1f2e-4818-9811-4c17ddd14d87","ios":"levelo://app?vid=196bffac-1f2e-4818-9811-4c17ddd14d87"},"vehicle_type_id":"4","last_reported":1738865521,"current_range_meters":8000,"station_id":"ce4bhgp2rcd13ifvqfd0","pricing_plan_id":"cebpf4jnsgd1na2vs0mg"},{"bike_id":"d84bbe85-4a81-454a-a51c-a3d2912f1157","system_id":"levelo_inurba_marseille","lat":43.29688,"lon":5.37294,"is_reserved":false,"is_disabled":false,"rental_uris":{"android":"levelo://app?vid=d84bbe85-4a81-454a-a51c-a3d2912f1157","ios":"levelo://app?vid=d84bbe85-4a81-454a-a51c-a3d2912f1157"},"vehicle_type_id":"4","last_reported":1738865521,"current_range_meters":23200,"station_id":"ce4bgk12rcd13ifvqbj0","pricing_plan_id":"cebpf4jnsgd1na2vs0mg"},{"bike_id":"41748c4d-fb7e-4f03-a7ef-71bbf6c5209c","system_id":"levelo_inurba_marseille","lat":43.24802,"lon":5.37459,"is_reserved":false,"is_disabled":false,"rental_uris":{"android":"levelo://app?vid=41748c4d-fb7e-4f03-a7ef-71bbf6c5209c","ios":"levelo://app?vid=41748c4d-fb7e-4f03-a7ef-71bbf6c5209c"},"vehicle_type_id":"4","last_reported":1738865521,"current_range_meters":30400,"station_id":"ce4bhgh2rcd13ifvqfb0","pricing_plan_id":"cebpf4jnsgd1na2vs0mg"},{"bike_id":"9f72912f-483e-4604-9723-881c2970bbee","system_id":"levelo_inurba_marseille","lat":43.28939,"lon":5.36395,"is_reserved":false,"is_disabled":false,"rental_uris":{"android":"levelo://app?vid=9f72912f-483e-4604-9723-881c2970bbee","ios":"levelo://app?vid=9f72912f-483e-4604-9723-881c2970bbee"},"vehicle_type_id":"4","last_reported":1738865521,"current_range_meters":26000,"station_id":"ce4bhc92rcd13ifvqetg","pricing_plan_id":"cebpf4jnsgd1na2vs0mg"},{"bike_id":"af34850e-2eaf-4172-893e-974097f98dda","system_id":"levelo_inurba_marseille","lat":43.27567,"lon":5.38413,"is_reserved":false,"is_disabled":false,"rental_uris":{"android":"levelo://app?vid=af34850e-2eaf-4172-893e-974097f98dda","ios":"levelo://app?vid=af34850e-2eaf-4172-893e-974097f98dda"},"vehicle_type_id":"4","last_reported":1738865521,"current_range_meters":14000,"station_id":"ce4bhh92rcd13ifvqfi0","pricing_plan_id":"cebpf4jnsgd1na2vs0mg"},{"bike_id":"b299b2f0-24f1-4e27-b760-1dab1ff9f84c","system_id":"levelo_inurba_marseille","lat":43.26052,"lon":5.39386,"is_reserved":false,"is_disabled":false,"rental_uris":{"android":"levelo://app?vid=b299b2f0-24f1-4e27-b760-1dab1ff9f84c","ios":"levelo://app?vid=b299b2f0-24f1-4e27-b760-1dab1ff9f84c"},"vehicle_type_id":"4","last_reported":1738865521,"current_range_meters":18000,"station_id":"ce4bhh92rcd13ifvqfj0","pricing_plan_id":"cebpf4jnsgd1na2vs0mg"},{"bike_id":"2dda5f87-17fe-4dae-b95a-729c2b4f05c0","system_id":"levelo_inurba_marseille","lat":43.31326,"lon":5.39699,"is_reserved":false,"is_disabled":false,"rental_uris":{"android":"levelo://app?vid=2dda5f87-17fe-4dae-b95a-729c2b4f05c0","ios":"levelo://app?vid=2dda5f87-17fe-4dae-b95a-729c2b4f05c0"},"vehicle_type_id":"4","last_reported":1738865521,"current_range_meters":26000,"station_id":"ce4bgvp2rcd13ifvqcu0","pricing_plan_id":"cebpf4jnsgd1na2vs0mg"},{"bike_id":"1faf7019-9ab0-41b3-8106-2bb2bcac81e8","system_id":"levelo_inurba_marseille","lat":43.29009,"lon":5.35606,"is_reserved":false,"is_disabled":false,"rental_uris":{"android":"levelo://app?vid=1faf7019-9ab0-41b3-8106-2bb2bcac81e8","ios":"levelo://app?vid=1faf7019-9ab0-41b3-8106-2bb2bcac81e8"},"vehicle_type_id":"4","last_reported":1738865521,"current_range_meters":27200,"station_id":"ce4bhb92rcd13ifvqen0","pricing_plan_id":"cebpf4jnsgd1na2vs0mg"},{"bike_id":"ce12f6c6-26c3-41fe-a30a-3264422bd997","system_id":"levelo_inurba_marseille","lat":43.26214,"lon":5.37451,"is_reserved":false,"is_disabled":false,"rental_uris":{"android":"levelo://app?vid=ce12f6c6-26c3-41fe-a30a-3264422bd997","ios":"levelo://app?vid=ce12f6c6-26c3-41fe-a30a-3264422bd997"},"vehicle_type_id":"4","last_reported":1738865521,"current_range_meters":38800,"station_id":"ce4bhgp2rcd13ifvqfc0","pricing_plan_id":"cebpf4jnsgd1na2vs0mg"},{"bike_id":"f71cfc37-58ac-4619-b554-407a661a0b99","system_id":"levelo_inurba_marseille","lat":43.29897,"lon":5.39761,"is_reserved":false,"is_disabled":false,"rental_uris":{"android":"levelo://app?vid=f71cfc37-58ac-4619-b554-407a661a0b99","ios":"levelo://app?vid=f71cfc37-58ac-4619-b554-407a661a0b99"},"vehicle_type_id":"4","last_reported":1738865521,"current_range_meters":24800,"station_id":"ce4bh0h2rcd13ifvqd50","pricing_plan_id":"cebpf4jnsgd1na2vs0mg"},{"bike_id":"aa874f21-4899-4c94-ac56-d6c355723cbb","system_id":"levelo_inurba_marseille","lat":43.23195,"lon":5.39987,"is_reserved":false,"is_disabled":false,"rental_uris":{"android":"levelo://app?vid=aa874f21-4899-4c94-ac56-d6c355723cbb","ios":"levelo://app?vid=aa874f21-4899-4c94-ac56-d6c355723cbb"},"vehicle_type_id":"4","last_reported":1738865521,"current_range_meters":36800,"station_id":"ce4bhn12rcd13ifvqgqg","pricing_plan_id":"cebpf4jnsgd1na2vs0mg"},{"bike_id":"19b11498-b7da-498a-a065-c091cc335a9f","system_id":"levelo_inurba_marseille","lat":43.23196,"lon":5.39977,"is_reserved":false,"is_disabled":false,"rental_uris":{"android":"levelo://app?vid=19b11498-b7da-498a-a065-c091cc335a9f","ios":"levelo://app?vid=19b11498-b7da-498a-a065-c091cc335a9f"},"vehicle_type_id":"4","last_reported":1738865521,"current_range_meters":36000,"station_id":"ce4bhn12rcd13ifvqgqg","pricing_plan_id":"cebpf4jnsgd1na2vs0mg"},{"bike_id":"a4520a0c-4fe5-4cba-b234-35d46032099f","system_id":"levelo_inurba_marseille","lat":43.2481,"lon":5.37456,"is_reserved":false,"is_disabled":false,"rental_uris":{"android":"levelo://app?vid=a4520a0c-4fe5-4cba-b234-35d46032099f","ios":"levelo://app?vid=a4520a0c-4fe5-4cba-b234-35d46032099f"},"vehicle_type_id":"4","last_reported":1738865521,"current_range_meters":1600,"station_id":"ce4bhgh2rcd13ifvqfb0","pricing_plan_id":"cebpf4jnsgd1na2vs0mg"},{"bike_id":"661e52aa-5616-48bc-82c1-d5586c0faf70","system_id":"levelo_inurba_marseille","lat":43.29598,"lon":5.38106,"is_reserved":false,"is_disabled":false,"rental_uris":{"android":"levelo://app?vid=661e52aa-5616-48bc-82c1-d5586c0faf70","ios":"levelo://app?vid=661e52aa-5616-48bc-82c1-d5586c0faf70"},"vehicle_type_id":"4","last_reported":1738865521,"current_range_meters":38800,"station_id":"ce4bgl12rcd13ifvqbo0","pricing_plan_id":"cebpf4jnsgd1na2vs0mg"},{"bike_id":"d0912284-7d68-4397-a466-0da512ff614b","system_id":"levelo_inurba_marseille","lat":43.29312,"lon":5.37167,"is_reserved":false,"is_disabled":false,"rental_uris":{"android":"levelo://app?vid=d0912284-7d68-4397-a466-0da512ff614b","ios":"levelo://app?vid=d0912284-7d68-4397-a466-0da512ff614b"},"vehicle_type_id":"4","last_reported":1738865521,"current_range_meters":31200,"station_id":"ce4bgh92rcd13ifvqb40","pricing_plan_id":"cebpf4jnsgd1na2vs0mg"},{"bike_id":"422d1ae9-3f23-4c23-952d-112dc4aaa449","system_id":"levelo_inurba_marseille","lat":43.29758,"lon":5.38064,"is_reserved":false,"is_disabled":false,"rental_uris":{"android":"levelo://app?vid=422d1ae9-3f23-4c23-952d-112dc4aaa449","ios":"levelo://app?vid=422d1ae9-3f23-4c23-952d-112dc4aaa449"},"vehicle_type_id":"4","last_reported":1738865521,"current_range_meters":12800,"station_id":"","pricing_plan_id":"cebpf4jnsgd1na2vs0mg"},{"bike_id":"d327d221-a4ae-4ce7-8941-3960805fc399","system_id":"levelo_inurba_marseille","lat":43.33769,"lon":5.37475,"is_reserved":false,"is_disabled":true,"rental_uris":{"android":"levelo://app?vid=d327d221-a4ae-4ce7-8941-3960805fc399","ios":"levelo://app?vid=d327d221-a4ae-4ce7-8941-3960805fc399"},"vehicle_type_id":"4","last_reported":1738865521,"current_range_meters":33600,"station_id":"","pricing_plan_id":"cebpf4jnsgd1na2vs0mg"},{"bike_id":"b0f3a0f7-e2de-4f03-875f-8604e476a306","system_id":"levelo_inurba_marseille","lat":43.29168,"lon":5.37146,"is_reserved":false,"is_disabled":false,"rental_uris":{"android":"levelo://app?vid=b0f3a0f7-e2de-4f03-875f-8604e476a306","ios":"levelo://app?vid=b0f3a0f7-e2de-4f03-875f-8604e476a306"},"vehicle_type_id":"4","last_reported":1738865521,"current_range_meters":14000,"station_id":"ce4bha92rcd13ifvqeh0","pricing_plan_id":"cebpf4jnsgd1na2vs0mg"},{"bike_id":"098d220b-e449-43ea-8d6d-9fc78e0abad9","system_id":"levelo_inurba_marseille","lat":43.22938,"lon":5.354,"is_reserved":false,"is_disabled":false,"rental_uris":{"android":"levelo://app?vid=098d220b-e449-43ea-8d6d-9fc78e0abad9","ios":"levelo://app?vid=098d220b-e449-43ea-8d6d-9fc78e0abad9"},"vehicle_type_id":"4","last_reported":1738865521,"current_range_meters":38800,"station_id":"cpo3532slgdg3j2ikp40","pricing_plan_id":"cebpf4jnsgd1na2vs0mg"},{"bike_id":"3de2a62f-ee8b-4633-8581-80f610f7d857","system_id":"levelo_inurba_marseille","lat":43.24548,"lon":5.39525,"is_reserved":false,"is_disabled":true,"rental_uris":{"android":"levelo://app?vid=3de2a62f-ee8b-4633-8581-80f610f7d857","ios":"levelo://app?vid=3de2a62f-ee8b-4633-8581-80f610f7d857"},"vehicle_type_id":"4","last_reported":1738865521,"current_range_meters":800,"station_id":"ce4bhlp2rcd13ifvqgjg","pricing_plan_id":"cebpf4jnsgd1na2vs0mg"},{"bike_id":"e72514e9-9fb0-4cf4-9627-2bdb46835a05","system_id":"levelo_inurba_marseille","lat":43.28722,"lon":5.36091,"is_reserved":false,"is_disabled":false,"rental_uris":{"android":"levelo://app?vid=e72514e9-9fb0-4cf4-9627-2bdb46835a05","ios":"levelo://app?vid=e72514e9-9fb0-4cf4-9627-2bdb46835a05"},"vehicle_type_id":"4","last_reported":1738865521,"current_range_meters":36400,"station_id":"cki0cbj6b192h4jlfktg","pricing_plan_id":"cebpf4jnsgd1na2vs0mg"},{"bike_id":"8134c42b-15c7-43df-91b1-9cea8c89299b","system_id":"levelo_inurba_marseille","lat":43.2586,"lon":5.39905,"is_reserved":false,"is_disabled":true,"rental_uris":{"android":"levelo://app?vid=8134c42b-15c7-43df-91b1-9cea8c89299b","ios":"levelo://app?vid=8134c42b-15c7-43df-91b1-9cea8c89299b"},"vehicle_type_id":"4","last_reported":1738865521,"current_range_meters":32800,"station_id":"ce4bhl92rcd13ifvqghg","pricing_plan_id":"cebpf4jnsgd1na2vs0mg"},{"bike_id":"edaf17a3-9fb8-4281-8efa-d1063bb06377","system_id":"levelo_inurba_marseille","lat":43.27917,"lon":5.39572,"is_reserved":false,"is_disabled":false,"rental_uris":{"android":"levelo://app?vid=edaf17a3-9fb8-4281-8efa-d1063bb06377","ios":"levelo://app?vid=edaf17a3-9fb8-4281-8efa-d1063bb06377"},"vehicle_type_id":"4","last_reported":1738865521,"current_range_meters":3600,"station_id":"ce4bhf92rcd13ifvqf40","pricing_plan_id":"cebpf4jnsgd1na2vs0mg"},{"bike_id":"d7ead273-bf60-49f8-8869-552a00114485","system_id":"levelo_inurba_marseille","lat":43.30797,"lon":5.39209,"is_reserved":false,"is_disabled":true,"rental_uris":{"android":"levelo://app?vid=d7ead273-bf60-49f8-8869-552a00114485","ios":"levelo://app?vid=d7ead273-bf60-49f8-8869-552a00114485"},"vehicle_type_id":"4","last_reported":1738865521,"current_range_meters":0,"station_id":"","pricing_plan_id":"cebpf4jnsgd1na2vs0mg"},{"bike_id":"0002452e-e709-42bb-b579-a6a62a828b87","system_id":"levelo_inurba_marseille","lat":43.29688,"lon":5.37261,"is_reserved":false,"is_disabled":false,"rental_uris":{"android":"levelo://app?vid=0002452e-e709-42bb-b579-a6a62a828b87","ios":"levelo://app?vid=0002452e-e709-42bb-b579-a6a62a828b87"},"vehicle_type_id":"4","last_reported":1738865521,"current_range_meters":24400,"station_id":"ce4bgk12rcd13ifvqbj0","pricing_plan_id":"cebpf4jnsgd1na2vs0mg"},{"bike_id":"d1a6678d-a3d2-4757-8150-b671f6e9633d","system_id":"levelo_inurba_marseille","lat":43.28449,"lon":5.35899,"is_reserved":false,"is_disabled":false,"rental_uris":{"android":"levelo://app?vid=d1a6678d-a3d2-4757-8150-b671f6e9633d","ios":"levelo://app?vid=d1a6678d-a3d2-4757-8150-b671f6e9633d"},"vehicle_type_id":"4","last_reported":1738865521,"current_range_meters":14400,"station_id":"ce4bhah2rcd13ifvqei0","pricing_plan_id":"cebpf4jnsgd1na2vs0mg"},{"bike_id":"e0b55411-73fb-4adf-87b4-dab0500574da","system_id":"levelo_inurba_marseille","lat":43.28414,"lon":5.37518,"is_reserved":false,"is_disabled":false,"rental_uris":{"android":"levelo://app?vid=e0b55411-73fb-4adf-87b4-dab0500574da","ios":"levelo://app?vid=e0b55411-73fb-4adf-87b4-dab0500574da"},"vehicle_type_id":"4","last_reported":1738865521,"current_range_meters":7200,"station_id":"ce4bh412rcd13ifvqds0","pricing_plan_id":"cebpf4jnsgd1na2vs0mg"},{"bike_id":"4ed068d3-7355-4fe3-983e-d958d680cef4","system_id":"levelo_inurba_marseille","lat":43.308,"lon":5.43526,"is_reserved":false,"is_disabled":false,"rental_uris":{"android":"levelo://app?vid=4ed068d3-7355-4fe3-983e-d958d680cef4","ios":"levelo://app?vid=4ed068d3-7355-4fe3-983e-d958d680cef4"},"vehicle_type_id":"4","last_reported":1738865521,"current_range_meters":38800,"station_id":"ce4bhph2rcd13ifvqheg","pricing_plan_id":"cebpf4jnsgd1na2vs0mg"},{"bike_id":"fb5e38d1-8f78-4d80-8808-c9002ed43d33","system_id":"levelo_inurba_marseille","lat":43.28467,"lon":5.38398,"is_reserved":false,"is_disabled":false,"rental_uris":{"android":"levelo://app?vid=fb5e38d1-8f78-4d80-8808-c9002ed43d33","ios":"levelo://app?vid=fb5e38d1-8f78-4d80-8808-c9002ed43d33"},"vehicle_type_id":"4","last_reported":1738865521,"current_range_meters":32800,"station_id":"ce4bh512rcd13ifvqe3g","pricing_plan_id":"cebpf4jnsgd1na2vs0mg"},{"bike_id":"3078e8ce-5d59-4082-8b1a-8d753b4f6935","system_id":"levelo_inurba_marseille","lat":43.23194,"lon":5.39979,"is_reserved":false,"is_disabled":false,"rental_uris":{"android":"levelo://app?vid=3078e8ce-5d59-4082-8b1a-8d753b4f6935","ios":"levelo://app?vid=3078e8ce-5d59-4082-8b1a-8d753b4f6935"},"vehicle_type_id":"4","last_reported":1738865521,"current_range_meters":38800,"station_id":"ce4bhn12rcd13ifvqgqg","pricing_plan_id":"cebpf4jnsgd1na2vs0mg"},{"bike_id":"b1e15155-8511-43e5-bd75-fed6364538ed","system_id":"levelo_inurba_marseille","lat":43.33014,"lon":5.39047,"is_reserved":false,"is_disabled":false,"rental_uris":{"android":"levelo://app?vid=b1e15155-8511-43e5-bd75-fed6364538ed","ios":"levelo://app?vid=b1e15155-8511-43e5-bd75-fed6364538ed"},"vehicle_type_id":"4","last_reported":1738865521,"current_range_meters":32400,"station_id":"ce4bhr92rcd13ifvqhrg","pricing_plan_id":"cebpf4jnsgd1na2vs0mg"},{"bike_id":"f0011e62-1973-4bb3-9bc6-28a02209e607","system_id":"levelo_inurba_marseille","lat":43.30195,"lon":5.36637,"is_reserved":false,"is_disabled":false,"rental_uris":{"android":"levelo://app?vid=f0011e62-1973-4bb3-9bc6-28a02209e607","ios":"levelo://app?vid=f0011e62-1973-4bb3-9bc6-28a02209e607"},"vehicle_type_id":"4","last_reported":1738865521,"current_range_meters":10800,"station_id":"ce4bgrh2rcd13ifvqc8g","pricing_plan_id":"cebpf4jnsgd1na2vs0mg"},{"bike_id":"a8e76632-6d27-4a5d-bcf5-de064ffe9c8a","system_id":"levelo_inurba_marseille","lat":43.33778,"lon":5.37427,"is_reserved":false,"is_disabled":false,"rental_uris":{"android":"levelo://app?vid=a8e76632-6d27-4a5d-bcf5-de064ffe9c8a","ios":"levelo://app?vid=a8e76632-6d27-4a5d-bcf5-de064ffe9c8a"},"vehicle_type_id":"4","last_reported":1738865521,"current_range_meters":14000,"station_id":"","pricing_plan_id":"cebpf4jnsgd1na2vs0mg"},{"bike_id":"f6b85140-a62d-4618-b4d7-46cd4fced3c7","system_id":"levelo_inurba_marseille","lat":43.31365,"lon":5.38487,"is_reserved":false,"is_disabled":false,"rental_uris":{"android":"levelo://app?vid=f6b85140-a62d-4618-b4d7-46cd4fced3c7","ios":"levelo://app?vid=f6b85140-a62d-4618-b4d7-46cd4fced3c7"},"vehicle_type_id":"4","last_reported":1738865521,"current_range_meters":37600,"station_id":"ce4bgt92rcd13ifvqcf0","pricing_plan_id":"cebpf4jnsgd1na2vs0mg"},{"bike_id":"b7170db3-19dc-4a85-8569-b67a5fe155b0","system_id":"levelo_inurba_marseille","lat":43.28722,"lon":5.37927,"is_reserved":false,"is_disabled":false,"rental_uris":{"android":"levelo://app?vid=b7170db3-19dc-4a85-8569-b67a5fe155b0","ios":"levelo://app?vid=b7170db3-19dc-4a85-8569-b67a5fe155b0"},"vehicle_type_id":"4","last_reported":1738865521,"current_range_meters":38800,"station_id":"ce4bh9p2rcd13ifvqec0","pricing_plan_id":"cebpf4jnsgd1na2vs0mg"},{"bike_id":"e1b99d5d-6d75-49ef-9fc3-6b042ac84dd7","system_id":"levelo_inurba_marseille","lat":43.29308,"lon":5.3718,"is_reserved":false,"is_disabled":false,"rental_uris":{"android":"levelo://app?vid=e1b99d5d-6d75-49ef-9fc3-6b042ac84dd7","ios":"levelo://app?vid=e1b99d5d-6d75-49ef-9fc3-6b042ac84dd7"},"vehicle_type_id":"4","last_reported":1738865521,"current_range_meters":34000,"station_id":"ce4bgh92rcd13ifvqb40","pricing_plan_id":"cebpf4jnsgd1na2vs0mg"},{"bike_id":"72933e7f-2bfa-46e1-b4fe-60b7391c3bd3","system_id":"levelo_inurba_marseille","lat":43.27924,"lon":5.39592,"is_reserved":false,"is_disabled":false,"rental_uris":{"android":"levelo://app?vid=72933e7f-2bfa-46e1-b4fe-60b7391c3bd3","ios":"levelo://app?vid=72933e7f-2bfa-46e1-b4fe-60b7391c3bd3"},"vehicle_type_id":"4","last_reported":1738865521,"current_range_meters":31200,"station_id":"ce4bhf92rcd13ifvqf40","pricing_plan_id":"cebpf4jnsgd1na2vs0mg"},{"bike_id":"15d13832-3ae5-42e6-82d9-4929333906d9","system_id":"levelo_inurba_marseille","lat":43.33017,"lon":5.39132,"is_reserved":false,"is_disabled":false,"rental_uris":{"android":"levelo://app?vid=15d13832-3ae5-42e6-82d9-4929333906d9","ios":"levelo://app?vid=15d13832-3ae5-42e6-82d9-4929333906d9"},"vehicle_type_id":"4","last_reported":1738865521,"current_range_meters":25200,"station_id":"","pricing_plan_id":"cebpf4jnsgd1na2vs0mg"},{"bike_id":"f9bc7b10-8440-46aa-8f5e-477165c9a8f6","system_id":"levelo_inurba_marseille","lat":43.28004,"lon":5.40007,"is_reserved":false,"is_disabled":false,"rental_uris":{"android":"levelo://app?vid=f9bc7b10-8440-46aa-8f5e-477165c9a8f6","ios":"levelo://app?vid=f9bc7b10-8440-46aa-8f5e-477165c9a8f6"},"vehicle_type_id":"4","last_reported":1738865521,"current_range_meters":11200,"station_id":"ce4bho92rcd13ifvqh4g","pricing_plan_id":"cebpf4jnsgd1na2vs0mg"},{"bike_id":"18d3bd0a-bc73-45ff-a7b9-72f3471820cb","system_id":"levelo_inurba_marseille","lat":43.29271,"lon":5.3845,"is_reserved":false,"is_disabled":false,"rental_uris":{"android":"levelo://app?vid=18d3bd0a-bc73-45ff-a7b9-72f3471820cb","ios":"levelo://app?vid=18d3bd0a-bc73-45ff-a7b9-72f3471820cb"},"vehicle_type_id":"4","last_reported":1738865521,"current_range_meters":39200,"station_id":"ce4bh692rcd13ifvqea0","pricing_plan_id":"cebpf4jnsgd1na2vs0mg"},{"bike_id":"5c57bbac-bf63-47c0-8ef7-e92217416071","system_id":"levelo_inurba_marseille","lat":43.26498,"lon":5.3954,"is_reserved":false,"is_disabled":true,"rental_uris":{"android":"levelo://app?vid=5c57bbac-bf63-47c0-8ef7-e92217416071","ios":"levelo://app?vid=5c57bbac-bf63-47c0-8ef7-e92217416071"},"vehicle_type_id":"4","last_reported":1738865521,"current_range_meters":400,"station_id":"ce4bhi12rcd13ifvqfq0","pricing_plan_id":"cebpf4jnsgd1na2vs0mg"},{"bike_id":"7bdeb68f-ca49-4c4a-81ec-b8367491732a","system_id":"levelo_inurba_marseille","lat":43.29172,"lon":5.37155,"is_reserved":false,"is_disabled":false,"rental_uris":{"android":"levelo://app?vid=7bdeb68f-ca49-4c4a-81ec-b8367491732a","ios":"levelo://app?vid=7bdeb68f-ca49-4c4a-81ec-b8367491732a"},"vehicle_type_id":"4","last_reported":1738865521,"current_range_meters":6000,"station_id":"ce4bha92rcd13ifvqeh0","pricing_plan_id":"cebpf4jnsgd1na2vs0mg"},{"bike_id":"8b1e3ddc-e60b-449b-a071-b52065cec0be","system_id":"levelo_inurba_marseille","lat":43.32274,"lon":5.3827,"is_reserved":false,"is_disabled":false,"rental_uris":{"android":"levelo://app?vid=8b1e3ddc-e60b-449b-a071-b52065cec0be","ios":"levelo://app?vid=8b1e3ddc-e60b-449b-a071-b52065cec0be"},"vehicle_type_id":"4","last_reported":1738865521,"current_range_meters":28400,"station_id":"ce4bhr12rcd13ifvqhqg","pricing_plan_id":"cebpf4jnsgd1na2vs0mg"},{"bike_id":"773c48f9-de3b-4993-9b27-7dc61ef4b1e8","system_id":"levelo_inurba_marseille","lat":43.28424,"lon":5.37527,"is_reserved":false,"is_disabled":false,"rental_uris":{"android":"levelo://app?vid=773c48f9-de3b-4993-9b27-7dc61ef4b1e8","ios":"levelo://app?vid=773c48f9-de3b-4993-9b27-7dc61ef4b1e8"},"vehicle_type_id":"4","last_reported":1738865521,"current_range_meters":38800,"station_id":"ce4bh412rcd13ifvqds0","pricing_plan_id":"cebpf4jnsgd1na2vs0mg"},{"bike_id":"6cc1dfdb-3ed1-4ff8-957c-546951832f4a","system_id":"levelo_inurba_marseille","lat":43.28415,"lon":5.3752,"is_reserved":false,"is_disabled":false,"rental_uris":{"android":"levelo://app?vid=6cc1dfdb-3ed1-4ff8-957c-546951832f4a","ios":"levelo://app?vid=6cc1dfdb-3ed1-4ff8-957c-546951832f4a"},"vehicle_type_id":"4","last_reported":1738865521,"current_range_meters":9200,"station_id":"ce4bh412rcd13ifvqds0","pricing_plan_id":"cebpf4jnsgd1na2vs0mg"},{"bike_id":"a14ef42f-18de-4f3f-9f4f-3235dfb6d1ec","system_id":"levelo_inurba_marseille","lat":43.29562,"lon":5.42264,"is_reserved":false,"is_disabled":false,"rental_uris":{"android":"levelo://app?vid=a14ef42f-18de-4f3f-9f4f-3235dfb6d1ec","ios":"levelo://app?vid=a14ef42f-18de-4f3f-9f4f-3235dfb6d1ec"},"vehicle_type_id":"4","last_reported":1738865521,"current_range_meters":27200,"station_id":"ce4bhph2rcd13ifvqhdg","pricing_plan_id":"cebpf4jnsgd1na2vs0mg"},{"bike_id":"b73937ba-05e4-41c7-8959-6f24613e2797","system_id":"levelo_inurba_marseille","lat":43.22956,"lon":5.35386,"is_reserved":false,"is_disabled":false,"rental_uris":{"android":"levelo://app?vid=b73937ba-05e4-41c7-8959-6f24613e2797","ios":"levelo://app?vid=b73937ba-05e4-41c7-8959-6f24613e2797"},"vehicle_type_id":"4","last_reported":1738865521,"current_range_meters":37600,"station_id":"cpo3532slgdg3j2ikp40","pricing_plan_id":"cebpf4jnsgd1na2vs0mg"},{"bike_id":"9dbc66af-ff64-41a8-a57c-5ef86f5cb77a","system_id":"levelo_inurba_marseille","lat":43.26807,"lon":5.40257,"is_reserved":false,"is_disabled":true,"rental_uris":{"android":"levelo://app?vid=9dbc66af-ff64-41a8-a57c-5ef86f5cb77a","ios":"levelo://app?vid=9dbc66af-ff64-41a8-a57c-5ef86f5cb77a"},"vehicle_type_id":"4","last_reported":1738865521,"current_range_meters":0,"station_id":"ce501612rcd8frsf0b60","pricing_plan_id":"cebpf4jnsgd1na2vs0mg"},{"bike_id":"ab54e2d0-4c2c-486a-84c7-811ed9008ddc","system_id":"levelo_inurba_marseille","lat":43.27863,"lon":5.4253,"is_reserved":false,"is_disabled":false,"rental_uris":{"android":"levelo://app?vid=ab54e2d0-4c2c-486a-84c7-811ed9008ddc","ios":"levelo://app?vid=ab54e2d0-4c2c-486a-84c7-811ed9008ddc"},"vehicle_type_id":"4","last_reported":1738865521,"current_range_meters":3600,"station_id":"","pricing_plan_id":"cebpf4jnsgd1na2vs0mg"},{"bike_id":"ea93e02c-ed3c-42e6-9e64-8e72c1e6e409","system_id":"levelo_inurba_marseille","lat":43.29627,"lon":5.37157,"is_reserved":false,"is_disabled":false,"rental_uris":{"android":"levelo://app?vid=ea93e02c-ed3c-42e6-9e64-8e72c1e6e409","ios":"levelo://app?vid=ea93e02c-ed3c-42e6-9e64-8e72c1e6e409"},"vehicle_type_id":"4","last_reported":1738865521,"current_range_meters":16800,"station_id":"ce4bgnh2rcd13ifvqc0g","pricing_plan_id":"cebpf4jnsgd1na2vs0mg"},{"bike_id":"fae5ed03-2be2-4e2f-ae1a-9dae265ccade","system_id":"levelo_inurba_marseille","lat":43.32367,"lon":5.38888,"is_reserved":false,"is_disabled":false,"rental_uris":{"android":"levelo://app?vid=fae5ed03-2be2-4e2f-ae1a-9dae265ccade","ios":"levelo://app?vid=fae5ed03-2be2-4e2f-ae1a-9dae265ccade"},"vehicle_type_id":"4","last_reported":1738865521,"current_range_meters":20800,"station_id":"ce4bhqp2rcd13ifvqhog","pricing_plan_id":"cebpf4jnsgd1na2vs0mg"},{"bike_id":"29334589-05e8-4ce2-89a8-776fc9c722f1","system_id":"levelo_inurba_marseille","lat":43.29257,"lon":5.38452,"is_reserved":false,"is_disabled":false,"rental_uris":{"android":"levelo://app?vid=29334589-05e8-4ce2-89a8-776fc9c722f1","ios":"levelo://app?vid=29334589-05e8-4ce2-89a8-776fc9c722f1"},"vehicle_type_id":"4","last_reported":1738865521,"current_range_meters":18000,"station_id":"ce4bh692rcd13ifvqea0","pricing_plan_id":"cebpf4jnsgd1na2vs0mg"},{"bike_id":"c5641105-e769-4317-9782-97f110315a03","system_id":"levelo_inurba_marseille","lat":43.2829,"lon":5.40939,"is_reserved":false,"is_disabled":false,"rental_uris":{"android":"levelo://app?vid=c5641105-e769-4317-9782-97f110315a03","ios":"levelo://app?vid=c5641105-e769-4317-9782-97f110315a03"},"vehicle_type_id":"4","last_reported":1738865521,"current_range_meters":36000,"station_id":"","pricing_plan_id":"cebpf4jnsgd1na2vs0mg"},{"bike_id":"58913607-3d23-4376-841b-881c1361d437","system_id":"levelo_inurba_marseille","lat":43.31292,"lon":5.39749,"is_reserved":false,"is_disabled":false,"rental_uris":{"android":"levelo://app?vid=58913607-3d23-4376-841b-881c1361d437","ios":"levelo://app?vid=58913607-3d23-4376-841b-881c1361d437"},"vehicle_type_id":"4","last_reported":1738865521,"current_range_meters":20400,"station_id":"ce4bgvp2rcd13ifvqcu0","pricing_plan_id":"cebpf4jnsgd1na2vs0mg"},{"bike_id":"363f89dc-7a31-4716-bf7c-5e8b960f961f","system_id":"levelo_inurba_marseille","lat":43.31083,"lon":5.4243,"is_reserved":false,"is_disabled":false,"rental_uris":{"android":"levelo://app?vid=363f89dc-7a31-4716-bf7c-5e8b960f961f","ios":"levelo://app?vid=363f89dc-7a31-4716-bf7c-5e8b960f961f"},"vehicle_type_id":"4","last_reported":1738865521,"current_range_meters":28800,"station_id":"ce4bhp92rcd13ifvqhag","pricing_plan_id":"cebpf4jnsgd1na2vs0mg"},{"bike_id":"9abb8541-f0e4-475d-8c17-01388cf984ad","system_id":"levelo_inurba_marseille","lat":43.27185,"lon":5.41,"is_reserved":false,"is_disabled":false,"rental_uris":{"android":"levelo://app?vid=9abb8541-f0e4-475d-8c17-01388cf984ad","ios":"levelo://app?vid=9abb8541-f0e4-475d-8c17-01388cf984ad"},"vehicle_type_id":"4","last_reported":1738865521,"current_range_meters":38800,"station_id":"ce4bhl12rcd13ifvqgf0","pricing_plan_id":"cebpf4jnsgd1na2vs0mg"},{"bike_id":"69d723b1-5304-4e6b-813c-a586228e494f","system_id":"levelo_inurba_marseille","lat":43.29879,"lon":5.38913,"is_reserved":false,"is_disabled":false,"rental_uris":{"android":"levelo://app?vid=69d723b1-5304-4e6b-813c-a586228e494f","ios":"levelo://app?vid=69d723b1-5304-4e6b-813c-a586228e494f"},"vehicle_type_id":"4","last_reported":1738865521,"current_range_meters":34800,"station_id":"ce4bh392rcd13ifvqdl0","pricing_plan_id":"cebpf4jnsgd1na2vs0mg"},{"bike_id":"b8829ab2-1487-4b8c-ae59-08c14afad745","system_id":"levelo_inurba_marseille","lat":43.32399,"lon":5.38879,"is_reserved":false,"is_disabled":false,"rental_uris":{"android":"levelo://app?vid=b8829ab2-1487-4b8c-ae59-08c14afad745","ios":"levelo://app?vid=b8829ab2-1487-4b8c-ae59-08c14afad745"},"vehicle_type_id":"4","last_reported":1738865521,"current_range_meters":24000,"station_id":"ce4bhqp2rcd13ifvqhog","pricing_plan_id":"cebpf4jnsgd1na2vs0mg"},{"bike_id":"49d1f8d8-94b5-48c0-a93f-6f56560604fc","system_id":"levelo_inurba_marseille","lat":43.23197,"lon":5.39973,"is_reserved":false,"is_disabled":false,"rental_uris":{"android":"levelo://app?vid=49d1f8d8-94b5-48c0-a93f-6f56560604fc","ios":"levelo://app?vid=49d1f8d8-94b5-48c0-a93f-6f56560604fc"},"vehicle_type_id":"4","last_reported":1738865521,"current_range_meters":16000,"station_id":"ce4bhn12rcd13ifvqgqg","pricing_plan_id":"cebpf4jnsgd1na2vs0mg"},{"bike_id":"1aafd4aa-ba2a-4c94-bc8a-0a2b42d0be90","system_id":"levelo_inurba_marseille","lat":43.2781,"lon":5.40715,"is_reserved":false,"is_disabled":false,"rental_uris":{"android":"levelo://app?vid=1aafd4aa-ba2a-4c94-bc8a-0a2b42d0be90","ios":"levelo://app?vid=1aafd4aa-ba2a-4c94-bc8a-0a2b42d0be90"},"vehicle_type_id":"4","last_reported":1738865521,"current_range_meters":8400,"station_id":"ce4bhnh2rcd13ifvqgtg","pricing_plan_id":"cebpf4jnsgd1na2vs0mg"},{"bike_id":"eb315b05-4c41-44a8-8671-b28b2a2547b5","system_id":"levelo_inurba_marseille","lat":43.27581,"lon":5.38401,"is_reserved":false,"is_disabled":false,"rental_uris":{"android":"levelo://app?vid=eb315b05-4c41-44a8-8671-b28b2a2547b5","ios":"levelo://app?vid=eb315b05-4c41-44a8-8671-b28b2a2547b5"},"vehicle_type_id":"4","last_reported":1738865521,"current_range_meters":38400,"station_id":"ce4bhh92rcd13ifvqfi0","pricing_plan_id":"cebpf4jnsgd1na2vs0mg"},{"bike_id":"c177e5ae-988b-457d-916b-169ad0276669","system_id":"levelo_inurba_marseille","lat":43.32288,"lon":5.38267,"is_reserved":false,"is_disabled":true,"rental_uris":{"android":"levelo://app?vid=c177e5ae-988b-457d-916b-169ad0276669","ios":"levelo://app?vid=c177e5ae-988b-457d-916b-169ad0276669"},"vehicle_type_id":"4","last_reported":1738865521,"current_range_meters":0,"station_id":"ce4bhr12rcd13ifvqhqg","pricing_plan_id":"cebpf4jnsgd1na2vs0mg"},{"bike_id":"89ef4b0e-9935-40a8-b11a-d7c8da41f1e5","system_id":"levelo_inurba_marseille","lat":43.28731,"lon":5.36078,"is_reserved":false,"is_disabled":false,"rental_uris":{"android":"levelo://app?vid=89ef4b0e-9935-40a8-b11a-d7c8da41f1e5","ios":"levelo://app?vid=89ef4b0e-9935-40a8-b11a-d7c8da41f1e5"},"vehicle_type_id":"4","last_reported":1738865521,"current_range_meters":38800,"station_id":"cki0cbj6b192h4jlfktg","pricing_plan_id":"cebpf4jnsgd1na2vs0mg"},{"bike_id":"b2c2b162-04fc-4225-8f1d-716091606810","system_id":"levelo_inurba_marseille","lat":43.30294,"lon":5.39199,"is_reserved":false,"is_disabled":false,"rental_uris":{"android":"levelo://app?vid=b2c2b162-04fc-4225-8f1d-716091606810","ios":"levelo://app?vid=b2c2b162-04fc-4225-8f1d-716091606810"},"vehicle_type_id":"4","last_reported":1738865521,"current_range_meters":39200,"station_id":"ce4bgkh2rcd13ifvqbk0","pricing_plan_id":"cebpf4jnsgd1na2vs0mg"},{"bike_id":"a5fe503c-eeaa-40da-8e83-078e1c427239","system_id":"levelo_inurba_marseille","lat":43.29255,"lon":5.38432,"is_reserved":false,"is_disabled":false,"rental_uris":{"android":"levelo://app?vid=a5fe503c-eeaa-40da-8e83-078e1c427239","ios":"levelo://app?vid=a5fe503c-eeaa-40da-8e83-078e1c427239"},"vehicle_type_id":"4","last_reported":1738865521,"current_range_meters":14000,"station_id":"ce4bh692rcd13ifvqea0","pricing_plan_id":"cebpf4jnsgd1na2vs0mg"},{"bike_id":"c346e4c9-1ee3-4421-9c09-d77a597ffa19","system_id":"levelo_inurba_marseille","lat":43.26806,"lon":5.40274,"is_reserved":false,"is_disabled":false,"rental_uris":{"android":"levelo://app?vid=c346e4c9-1ee3-4421-9c09-d77a597ffa19","ios":"levelo://app?vid=c346e4c9-1ee3-4421-9c09-d77a597ffa19"},"vehicle_type_id":"4","last_reported":1738865521,"current_range_meters":4800,"station_id":"ce501612rcd8frsf0b60","pricing_plan_id":"cebpf4jnsgd1na2vs0mg"},{"bike_id":"30c11024-b96a-4c0a-8a3e-8b171049fe3d","system_id":"levelo_inurba_marseille","lat":43.27164,"lon":5.40999,"is_reserved":false,"is_disabled":true,"rental_uris":{"android":"levelo://app?vid=30c11024-b96a-4c0a-8a3e-8b171049fe3d","ios":"levelo://app?vid=30c11024-b96a-4c0a-8a3e-8b171049fe3d"},"vehicle_type_id":"4","last_reported":1738865521,"current_range_meters":0,"station_id":"ce4bhl12rcd13ifvqgf0","pricing_plan_id":"cebpf4jnsgd1na2vs0mg"},{"bike_id":"eef02049-be3d-4617-b6b3-7396f73a2eca","system_id":"levelo_inurba_marseille","lat":43.26229,"lon":5.40455,"is_reserved":false,"is_disabled":false,"rental_uris":{"android":"levelo://app?vid=eef02049-be3d-4617-b6b3-7396f73a2eca","ios":"levelo://app?vid=eef02049-be3d-4617-b6b3-7396f73a2eca"},"vehicle_type_id":"4","last_reported":1738865521,"current_range_meters":28400,"station_id":"ce4bhmh2rcd13ifvqgmg","pricing_plan_id":"cebpf4jnsgd1na2vs0mg"},{"bike_id":"eeab000c-5997-4cfa-bb46-f04f0d033dda","system_id":"levelo_inurba_marseille","lat":43.28846,"lon":5.39317,"is_reserved":false,"is_disabled":false,"rental_uris":{"android":"levelo://app?vid=eeab000c-5997-4cfa-bb46-f04f0d033dda","ios":"levelo://app?vid=eeab000c-5997-4cfa-bb46-f04f0d033dda"},"vehicle_type_id":"4","last_reported":1738865521,"current_range_meters":17600,"station_id":"ce4bh2p2rcd13ifvqdi0","pricing_plan_id":"cebpf4jnsgd1na2vs0mg"},{"bike_id":"ba3d4234-faab-4fb9-b6d8-6d356ab372e0","system_id":"levelo_inurba_marseille","lat":43.26935,"lon":5.40257,"is_reserved":false,"is_disabled":false,"rental_uris":{"android":"levelo://app?vid=ba3d4234-faab-4fb9-b6d8-6d356ab372e0","ios":"levelo://app?vid=ba3d4234-faab-4fb9-b6d8-6d356ab372e0"},"vehicle_type_id":"4","last_reported":1738865521,"current_range_meters":6800,"station_id":"cjm6bp8fraef2m0cb0m0","pricing_plan_id":"cebpf4jnsgd1na2vs0mg"},{"bike_id":"f35665a1-47e5-43fd-8889-5773b49dfd44","system_id":"levelo_inurba_marseille","lat":43.28416,"lon":5.37512,"is_reserved":false,"is_disabled":false,"rental_uris":{"android":"levelo://app?vid=f35665a1-47e5-43fd-8889-5773b49dfd44","ios":"levelo://app?vid=f35665a1-47e5-43fd-8889-5773b49dfd44"},"vehicle_type_id":"4","last_reported":1738865521,"current_range_meters":30800,"station_id":"ce4bh412rcd13ifvqds0","pricing_plan_id":"cebpf4jnsgd1na2vs0mg"},{"bike_id":"1ba23a6a-59ad-4bc8-a563-ab1d8a8b743c","system_id":"levelo_inurba_marseille","lat":43.2813,"lon":5.42613,"is_reserved":false,"is_disabled":false,"rental_uris":{"android":"levelo://app?vid=1ba23a6a-59ad-4bc8-a563-ab1d8a8b743c","ios":"levelo://app?vid=1ba23a6a-59ad-4bc8-a563-ab1d8a8b743c"},"vehicle_type_id":"4","last_reported":1738865521,"current_range_meters":11200,"station_id":"ce4bhnh2rcd13ifvqgug","pricing_plan_id":"cebpf4jnsgd1na2vs0mg"},{"bike_id":"a71918ec-c667-4548-85b6-55beddb960de","system_id":"levelo_inurba_marseille","lat":43.27945,"lon":5.41042,"is_reserved":false,"is_disabled":false,"rental_uris":{"android":"levelo://app?vid=a71918ec-c667-4548-85b6-55beddb960de","ios":"levelo://app?vid=a71918ec-c667-4548-85b6-55beddb960de"},"vehicle_type_id":"4","last_reported":1738865521,"current_range_meters":4800,"station_id":"ce4bhnp2rcd13ifvqh0g","pricing_plan_id":"cebpf4jnsgd1na2vs0mg"},{"bike_id":"ccc0d99a-4f06-4847-88ea-bfbf26a9a708","system_id":"levelo_inurba_marseille","lat":43.27371,"lon":5.3627,"is_reserved":false,"is_disabled":false,"rental_uris":{"android":"levelo://app?vid=ccc0d99a-4f06-4847-88ea-bfbf26a9a708","ios":"levelo://app?vid=ccc0d99a-4f06-4847-88ea-bfbf26a9a708"},"vehicle_type_id":"4","last_reported":1738865521,"current_range_meters":38800,"station_id":"ce4bhbh2rcd13ifvqeo0","pricing_plan_id":"cebpf4jnsgd1na2vs0mg"},{"bike_id":"8197a7ec-5956-4ddf-9fb9-3bbe825baace","system_id":"levelo_inurba_marseille","lat":43.30912,"lon":5.36847,"is_reserved":false,"is_disabled":false,"rental_uris":{"android":"levelo://app?vid=8197a7ec-5956-4ddf-9fb9-3bbe825baace","ios":"levelo://app?vid=8197a7ec-5956-4ddf-9fb9-3bbe825baace"},"vehicle_type_id":"4","last_reported":1738865521,"current_range_meters":28400,"station_id":"ce4bgn92rcd13ifvqbvg","pricing_plan_id":"cebpf4jnsgd1na2vs0mg"},{"bike_id":"d90800d2-0b28-4666-b04d-68e5f6c3e9ab","system_id":"levelo_inurba_marseille","lat":43.23192,"lon":5.399875,"is_reserved":false,"is_disabled":false,"rental_uris":{"android":"levelo://app?vid=d90800d2-0b28-4666-b04d-68e5f6c3e9ab","ios":"levelo://app?vid=d90800d2-0b28-4666-b04d-68e5f6c3e9ab"},"vehicle_type_id":"4","last_reported":1738865521,"current_range_meters":38800,"station_id":"ce4bhn12rcd13ifvqgqg","pricing_plan_id":"cebpf4jnsgd1na2vs0mg"},{"bike_id":"aec98eb7-2332-426c-8d8f-10ba0ae50072","system_id":"levelo_inurba_marseille","lat":43.28047,"lon":5.36948,"is_reserved":false,"is_disabled":false,"rental_uris":{"android":"levelo://app?vid=aec98eb7-2332-426c-8d8f-10ba0ae50072","ios":"levelo://app?vid=aec98eb7-2332-426c-8d8f-10ba0ae50072"},"vehicle_type_id":"4","last_reported":1738865521,"current_range_meters":18000,"station_id":"ce4bha12rcd13ifvqef0","pricing_plan_id":"cebpf4jnsgd1na2vs0mg"},{"bike_id":"a3e0252d-5d39-4c5a-a09e-9e40b77fd995","system_id":"levelo_inurba_marseille","lat":43.31757,"lon":5.39011,"is_reserved":false,"is_disabled":false,"rental_uris":{"android":"levelo://app?vid=a3e0252d-5d39-4c5a-a09e-9e40b77fd995","ios":"levelo://app?vid=a3e0252d-5d39-4c5a-a09e-9e40b77fd995"},"vehicle_type_id":"4","last_reported":1738865521,"current_range_meters":30400,"station_id":"","pricing_plan_id":"cebpf4jnsgd1na2vs0mg"},{"bike_id":"3764b04a-c16a-49b6-9c27-3e632b11bd2c","system_id":"levelo_inurba_marseille","lat":43.26555,"lon":5.37283,"is_reserved":false,"is_disabled":false,"rental_uris":{"android":"levelo://app?vid=3764b04a-c16a-49b6-9c27-3e632b11bd2c","ios":"levelo://app?vid=3764b04a-c16a-49b6-9c27-3e632b11bd2c"},"vehicle_type_id":"4","last_reported":1738865521,"current_range_meters":28400,"station_id":"ce4bhg12rcd13ifvqf70","pricing_plan_id":"cebpf4jnsgd1na2vs0mg"},{"bike_id":"55c531ba-cb99-413a-81f9-84f3b3d5979e","system_id":"levelo_inurba_marseille","lat":43.22933,"lon":5.35371,"is_reserved":false,"is_disabled":false,"rental_uris":{"android":"levelo://app?vid=55c531ba-cb99-413a-81f9-84f3b3d5979e","ios":"levelo://app?vid=55c531ba-cb99-413a-81f9-84f3b3d5979e"},"vehicle_type_id":"4","last_reported":1738865521,"current_range_meters":28000,"station_id":"cpo3532slgdg3j2ikp40","pricing_plan_id":"cebpf4jnsgd1na2vs0mg"},{"bike_id":"8b17b11a-ca6f-4ac5-8583-bad804fcf1ce","system_id":"levelo_inurba_marseille","lat":43.29548,"lon":5.4227,"is_reserved":false,"is_disabled":false,"rental_uris":{"android":"levelo://app?vid=8b17b11a-ca6f-4ac5-8583-bad804fcf1ce","ios":"levelo://app?vid=8b17b11a-ca6f-4ac5-8583-bad804fcf1ce"},"vehicle_type_id":"4","last_reported":1738865521,"current_range_meters":38400,"station_id":"ce4bhph2rcd13ifvqhdg","pricing_plan_id":"cebpf4jnsgd1na2vs0mg"},{"bike_id":"94604c87-9953-45bf-876c-851a44402d2a","system_id":"levelo_inurba_marseille","lat":43.2693,"lon":5.38919,"is_reserved":false,"is_disabled":false,"rental_uris":{"android":"levelo://app?vid=94604c87-9953-45bf-876c-851a44402d2a","ios":"levelo://app?vid=94604c87-9953-45bf-876c-851a44402d2a"},"vehicle_type_id":"4","last_reported":1738865521,"current_range_meters":24000,"station_id":"ce4bhhh2rcd13ifvqfl0","pricing_plan_id":"cebpf4jnsgd1na2vs0mg"},{"bike_id":"25584dfc-d5ff-4811-85c5-933f3dfbdae8","system_id":"levelo_inurba_marseille","lat":43.23967,"lon":5.36615,"is_reserved":false,"is_disabled":false,"rental_uris":{"android":"levelo://app?vid=25584dfc-d5ff-4811-85c5-933f3dfbdae8","ios":"levelo://app?vid=25584dfc-d5ff-4811-85c5-933f3dfbdae8"},"vehicle_type_id":"4","last_reported":1738865521,"current_range_meters":37600,"station_id":"ce4bhi12rcd13ifvqfp0","pricing_plan_id":"cebpf4jnsgd1na2vs0mg"},{"bike_id":"3b6fc1a1-1e64-4698-a113-588a2563418f","system_id":"levelo_inurba_marseille","lat":43.280354,"lon":5.369407,"is_reserved":false,"is_disabled":true,"rental_uris":{"android":"levelo://app?vid=3b6fc1a1-1e64-4698-a113-588a2563418f","ios":"levelo://app?vid=3b6fc1a1-1e64-4698-a113-588a2563418f"},"vehicle_type_id":"4","last_reported":1738865521,"current_range_meters":0,"station_id":"ce4bha12rcd13ifvqef0","pricing_plan_id":"cebpf4jnsgd1na2vs0mg"},{"bike_id":"cab5c314-7cee-4155-983f-1efe90e3bed7","system_id":"levelo_inurba_marseille","lat":43.27575,"lon":5.38414,"is_reserved":false,"is_disabled":false,"rental_uris":{"android":"levelo://app?vid=cab5c314-7cee-4155-983f-1efe90e3bed7","ios":"levelo://app?vid=cab5c314-7cee-4155-983f-1efe90e3bed7"},"vehicle_type_id":"4","last_reported":1738865521,"current_range_meters":38800,"station_id":"ce4bhh92rcd13ifvqfi0","pricing_plan_id":"cebpf4jnsgd1na2vs0mg"},{"bike_id":"7abe1a61-87b0-4131-94db-b94f677927a9","system_id":"levelo_inurba_marseille","lat":43.27418,"lon":5.39413,"is_reserved":false,"is_disabled":false,"rental_uris":{"android":"levelo://app?vid=7abe1a61-87b0-4131-94db-b94f677927a9","ios":"levelo://app?vid=7abe1a61-87b0-4131-94db-b94f677927a9"},"vehicle_type_id":"4","last_reported":1738865521,"current_range_meters":33200,"station_id":"ce4bhdp2rcd13ifvqf20","pricing_plan_id":"cebpf4jnsgd1na2vs0mg"},{"bike_id":"c130fff7-2faf-4f2e-82f9-62c219cfeda5","system_id":"levelo_inurba_marseille","lat":43.2815,"lon":5.42636,"is_reserved":false,"is_disabled":false,"rental_uris":{"android":"levelo://app?vid=c130fff7-2faf-4f2e-82f9-62c219cfeda5","ios":"levelo://app?vid=c130fff7-2faf-4f2e-82f9-62c219cfeda5"},"vehicle_type_id":"4","last_reported":1738865521,"current_range_meters":27600,"station_id":"ce4bhnh2rcd13ifvqgug","pricing_plan_id":"cebpf4jnsgd1na2vs0mg"},{"bike_id":"8ada12d7-8b45-4f45-a94c-328566117b93","system_id":"levelo_inurba_marseille","lat":43.26031,"lon":5.37544,"is_reserved":false,"is_disabled":false,"rental_uris":{"android":"levelo://app?vid=8ada12d7-8b45-4f45-a94c-328566117b93","ios":"levelo://app?vid=8ada12d7-8b45-4f45-a94c-328566117b93"},"vehicle_type_id":"4","last_reported":1738865521,"current_range_meters":38800,"station_id":"ce4bhgh2rcd13ifvqfa0","pricing_plan_id":"cebpf4jnsgd1na2vs0mg"},{"bike_id":"a36a308c-9075-4f72-b2c9-e05163d80524","system_id":"levelo_inurba_marseille","lat":43.24388,"lon":5.37059,"is_reserved":false,"is_disabled":true,"rental_uris":{"android":"levelo://app?vid=a36a308c-9075-4f72-b2c9-e05163d80524","ios":"levelo://app?vid=a36a308c-9075-4f72-b2c9-e05163d80524"},"vehicle_type_id":"4","last_reported":1738865521,"current_range_meters":1200,"station_id":"ce4bhhh2rcd13ifvqfk0","pricing_plan_id":"cebpf4jnsgd1na2vs0mg"},{"bike_id":"5eb997aa-ba06-470a-b7fd-cd40e9642b35","system_id":"levelo_inurba_marseille","lat":43.23184,"lon":5.40002,"is_reserved":false,"is_disabled":false,"rental_uris":{"android":"levelo://app?vid=5eb997aa-ba06-470a-b7fd-cd40e9642b35","ios":"levelo://app?vid=5eb997aa-ba06-470a-b7fd-cd40e9642b35"},"vehicle_type_id":"4","last_reported":1738865521,"current_range_meters":38800,"station_id":"ce4bhn12rcd13ifvqgqg","pricing_plan_id":"cebpf4jnsgd1na2vs0mg"},{"bike_id":"6a1d3b63-dfe9-46e5-b018-ecc32a6736e2","system_id":"levelo_inurba_marseille","lat":43.24195,"lon":5.39727,"is_reserved":false,"is_disabled":false,"rental_uris":{"android":"levelo://app?vid=6a1d3b63-dfe9-46e5-b018-ecc32a6736e2","ios":"levelo://app?vid=6a1d3b63-dfe9-46e5-b018-ecc32a6736e2"},"vehicle_type_id":"4","last_reported":1738865521,"current_range_meters":38800,"station_id":"ce4bhn12rcd13ifvqgpg","pricing_plan_id":"cebpf4jnsgd1na2vs0mg"},{"bike_id":"1da8b17b-ad28-4780-a711-431647c244ed","system_id":"levelo_inurba_marseille","lat":43.23969,"lon":5.36599,"is_reserved":false,"is_disabled":false,"rental_uris":{"android":"levelo://app?vid=1da8b17b-ad28-4780-a711-431647c244ed","ios":"levelo://app?vid=1da8b17b-ad28-4780-a711-431647c244ed"},"vehicle_type_id":"4","last_reported":1738865521,"current_range_meters":30800,"station_id":"ce4bhi12rcd13ifvqfp0","pricing_plan_id":"cebpf4jnsgd1na2vs0mg"},{"bike_id":"88c9bbe5-e201-49f1-b3a7-f94bb4b0e0b4","system_id":"levelo_inurba_marseille","lat":43.299,"lon":5.43677,"is_reserved":false,"is_disabled":false,"rental_uris":{"android":"levelo://app?vid=88c9bbe5-e201-49f1-b3a7-f94bb4b0e0b4","ios":"levelo://app?vid=88c9bbe5-e201-49f1-b3a7-f94bb4b0e0b4"},"vehicle_type_id":"4","last_reported":1738865521,"current_range_meters":36800,"station_id":"ce4bhpp2rcd13ifvqhfg","pricing_plan_id":"cebpf4jnsgd1na2vs0mg"},{"bike_id":"1c187044-f156-4dbb-83f4-3d328cf05e97","system_id":"levelo_inurba_marseille","lat":43.29681,"lon":5.37291,"is_reserved":false,"is_disabled":false,"rental_uris":{"android":"levelo://app?vid=1c187044-f156-4dbb-83f4-3d328cf05e97","ios":"levelo://app?vid=1c187044-f156-4dbb-83f4-3d328cf05e97"},"vehicle_type_id":"4","last_reported":1738865521,"current_range_meters":39200,"station_id":"ce4bgk12rcd13ifvqbj0","pricing_plan_id":"cebpf4jnsgd1na2vs0mg"},{"bike_id":"05e3e712-a180-4890-b6e3-1fa8dcce263e","system_id":"levelo_inurba_marseille","lat":43.23197,"lon":5.39976,"is_reserved":false,"is_disabled":false,"rental_uris":{"android":"levelo://app?vid=05e3e712-a180-4890-b6e3-1fa8dcce263e","ios":"levelo://app?vid=05e3e712-a180-4890-b6e3-1fa8dcce263e"},"vehicle_type_id":"4","last_reported":1738865521,"current_range_meters":14800,"station_id":"ce4bhn12rcd13ifvqgqg","pricing_plan_id":"cebpf4jnsgd1na2vs0mg"},{"bike_id":"fc6fe7b9-4407-479a-943a-7b6c72c878d7","system_id":"levelo_inurba_marseille","lat":43.28442,"lon":5.39205,"is_reserved":false,"is_disabled":false,"rental_uris":{"android":"levelo://app?vid=fc6fe7b9-4407-479a-943a-7b6c72c878d7","ios":"levelo://app?vid=fc6fe7b9-4407-479a-943a-7b6c72c878d7"},"vehicle_type_id":"4","last_reported":1738865521,"current_range_meters":27200,"station_id":"ce4bhoh2rcd13ifvqh5g","pricing_plan_id":"cebpf4jnsgd1na2vs0mg"},{"bike_id":"e2bfb848-3122-40ef-ac4d-793bd6065cc1","system_id":"levelo_inurba_marseille","lat":43.25006,"lon":5.38928,"is_reserved":false,"is_disabled":false,"rental_uris":{"android":"levelo://app?vid=e2bfb848-3122-40ef-ac4d-793bd6065cc1","ios":"levelo://app?vid=e2bfb848-3122-40ef-ac4d-793bd6065cc1"},"vehicle_type_id":"4","last_reported":1738865521,"current_range_meters":28000,"station_id":"ce4bhgp2rcd13ifvqfd0","pricing_plan_id":"cebpf4jnsgd1na2vs0mg"},{"bike_id":"b94acf58-d5c6-4ffe-8464-9994e8697d08","system_id":"levelo_inurba_marseille","lat":43.25868,"lon":5.39897,"is_reserved":false,"is_disabled":false,"rental_uris":{"android":"levelo://app?vid=b94acf58-d5c6-4ffe-8464-9994e8697d08","ios":"levelo://app?vid=b94acf58-d5c6-4ffe-8464-9994e8697d08"},"vehicle_type_id":"4","last_reported":1738865521,"current_range_meters":11200,"station_id":"ce4bhl92rcd13ifvqghg","pricing_plan_id":"cebpf4jnsgd1na2vs0mg"},{"bike_id":"2e06af6b-9bab-4854-ae93-e6352ffb9f96","system_id":"levelo_inurba_marseille","lat":43.28075,"lon":5.39646,"is_reserved":false,"is_disabled":false,"rental_uris":{"android":"levelo://app?vid=2e06af6b-9bab-4854-ae93-e6352ffb9f96","ios":"levelo://app?vid=2e06af6b-9bab-4854-ae93-e6352ffb9f96"},"vehicle_type_id":"4","last_reported":1738865521,"current_range_meters":16800,"station_id":"ce4bho12rcd13ifvqh2g","pricing_plan_id":"cebpf4jnsgd1na2vs0mg"},{"bike_id":"35bbe464-144e-440f-9e93-a17de0bd82a1","system_id":"levelo_inurba_marseille","lat":43.287,"lon":5.37393,"is_reserved":false,"is_disabled":false,"rental_uris":{"android":"levelo://app?vid=35bbe464-144e-440f-9e93-a17de0bd82a1","ios":"levelo://app?vid=35bbe464-144e-440f-9e93-a17de0bd82a1"},"vehicle_type_id":"4","last_reported":1738865521,"current_range_meters":20400,"station_id":"ce4bh3p2rcd13ifvqdq0","pricing_plan_id":"cebpf4jnsgd1na2vs0mg"},{"bike_id":"376d9b9d-e8be-47ed-a43b-384cccf63498","system_id":"levelo_inurba_marseille","lat":43.30416,"lon":5.41286,"is_reserved":false,"is_disabled":false,"rental_uris":{"android":"levelo://app?vid=376d9b9d-e8be-47ed-a43b-384cccf63498","ios":"levelo://app?vid=376d9b9d-e8be-47ed-a43b-384cccf63498"},"vehicle_type_id":"4","last_reported":1738865521,"current_range_meters":22000,"station_id":"ce4bhop2rcd13ifvqh8g","pricing_plan_id":"cebpf4jnsgd1na2vs0mg"},{"bike_id":"5572acb3-1961-47ce-94ec-43f3d0cc8ff9","system_id":"levelo_inurba_marseille","lat":43.29971,"lon":5.3849,"is_reserved":false,"is_disabled":false,"rental_uris":{"android":"levelo://app?vid=5572acb3-1961-47ce-94ec-43f3d0cc8ff9","ios":"levelo://app?vid=5572acb3-1961-47ce-94ec-43f3d0cc8ff9"},"vehicle_type_id":"4","last_reported":1738865521,"current_range_meters":30000,"station_id":"ce4bgj92rcd13ifvqbd0","pricing_plan_id":"cebpf4jnsgd1na2vs0mg"},{"bike_id":"f007c4c1-db59-4a07-8d7b-95ba9982ee49","system_id":"levelo_inurba_marseille","lat":43.33016,"lon":5.3905,"is_reserved":false,"is_disabled":false,"rental_uris":{"android":"levelo://app?vid=f007c4c1-db59-4a07-8d7b-95ba9982ee49","ios":"levelo://app?vid=f007c4c1-db59-4a07-8d7b-95ba9982ee49"},"vehicle_type_id":"4","last_reported":1738865521,"current_range_meters":38800,"station_id":"ce4bhr92rcd13ifvqhrg","pricing_plan_id":"cebpf4jnsgd1na2vs0mg"},{"bike_id":"8664764e-4339-4e00-ab20-76d794b1b7b2","system_id":"levelo_inurba_marseille","lat":43.29935,"lon":5.36551,"is_reserved":false,"is_disabled":false,"rental_uris":{"android":"levelo://app?vid=8664764e-4339-4e00-ab20-76d794b1b7b2","ios":"levelo://app?vid=8664764e-4339-4e00-ab20-76d794b1b7b2"},"vehicle_type_id":"4","last_reported":1738865521,"current_range_meters":37600,"station_id":"ce4bgm92rcd13ifvqbr0","pricing_plan_id":"cebpf4jnsgd1na2vs0mg"},{"bike_id":"48b06d0b-7a79-4c4a-9bef-3bde40720b51","system_id":"levelo_inurba_marseille","lat":43.33063,"lon":5.39018,"is_reserved":false,"is_disabled":false,"rental_uris":{"android":"levelo://app?vid=48b06d0b-7a79-4c4a-9bef-3bde40720b51","ios":"levelo://app?vid=48b06d0b-7a79-4c4a-9bef-3bde40720b51"},"vehicle_type_id":"4","last_reported":1738865521,"current_range_meters":38400,"station_id":"ce4bhr92rcd13ifvqhrg","pricing_plan_id":"cebpf4jnsgd1na2vs0mg"},{"bike_id":"38c47b95-ad7d-4d74-ab3c-fbd6a0ae4207","system_id":"levelo_inurba_marseille","lat":43.28421,"lon":5.37525,"is_reserved":false,"is_disabled":false,"rental_uris":{"android":"levelo://app?vid=38c47b95-ad7d-4d74-ab3c-fbd6a0ae4207","ios":"levelo://app?vid=38c47b95-ad7d-4d74-ab3c-fbd6a0ae4207"},"vehicle_type_id":"4","last_reported":1738865521,"current_range_meters":38800,"station_id":"ce4bh412rcd13ifvqds0","pricing_plan_id":"cebpf4jnsgd1na2vs0mg"},{"bike_id":"7f97dcbd-eb40-473f-a7f4-d224182d9f99","system_id":"levelo_inurba_marseille","lat":43.29709,"lon":5.366,"is_reserved":false,"is_disabled":false,"rental_uris":{"android":"levelo://app?vid=7f97dcbd-eb40-473f-a7f4-d224182d9f99","ios":"levelo://app?vid=7f97dcbd-eb40-473f-a7f4-d224182d9f99"},"vehicle_type_id":"4","last_reported":1738865521,"current_range_meters":38800,"station_id":"ce4bgn12rcd13ifvqbt0","pricing_plan_id":"cebpf4jnsgd1na2vs0mg"},{"bike_id":"252b0da2-dfde-465b-b465-ae4361c3faa5","system_id":"levelo_inurba_marseille","lat":43.29419,"lon":5.38622,"is_reserved":false,"is_disabled":false,"rental_uris":{"android":"levelo://app?vid=252b0da2-dfde-465b-b465-ae4361c3faa5","ios":"levelo://app?vid=252b0da2-dfde-465b-b465-ae4361c3faa5"},"vehicle_type_id":"4","last_reported":1738865521,"current_range_meters":39200,"station_id":"ce4bh2h2rcd13ifvqdh0","pricing_plan_id":"cebpf4jnsgd1na2vs0mg"},{"bike_id":"697a9f5c-4c4c-4ec3-9631-b7bf6f2ce1de","system_id":"levelo_inurba_marseille","lat":43.33027,"lon":5.390407,"is_reserved":false,"is_disabled":false,"rental_uris":{"android":"levelo://app?vid=697a9f5c-4c4c-4ec3-9631-b7bf6f2ce1de","ios":"levelo://app?vid=697a9f5c-4c4c-4ec3-9631-b7bf6f2ce1de"},"vehicle_type_id":"4","last_reported":1738865521,"current_range_meters":24800,"station_id":"ce4bhr92rcd13ifvqhrg","pricing_plan_id":"cebpf4jnsgd1na2vs0mg"},{"bike_id":"1ed19d8d-749b-455f-8421-555ffcf4a7e0","system_id":"levelo_inurba_marseille","lat":43.28834,"lon":5.3931,"is_reserved":false,"is_disabled":false,"rental_uris":{"android":"levelo://app?vid=1ed19d8d-749b-455f-8421-555ffcf4a7e0","ios":"levelo://app?vid=1ed19d8d-749b-455f-8421-555ffcf4a7e0"},"vehicle_type_id":"4","last_reported":1738865521,"current_range_meters":39200,"station_id":"ce4bh2p2rcd13ifvqdi0","pricing_plan_id":"cebpf4jnsgd1na2vs0mg"},{"bike_id":"c1ea5d74-197b-4962-ac87-89c906cbfd90","system_id":"levelo_inurba_marseille","lat":43.29787,"lon":5.39327,"is_reserved":false,"is_disabled":false,"rental_uris":{"android":"levelo://app?vid=c1ea5d74-197b-4962-ac87-89c906cbfd90","ios":"levelo://app?vid=c1ea5d74-197b-4962-ac87-89c906cbfd90"},"vehicle_type_id":"4","last_reported":1738865521,"current_range_meters":26800,"station_id":"chh1huq6cuj3fo74tm60","pricing_plan_id":"cebpf4jnsgd1na2vs0mg"},{"bike_id":"37cb01ac-e047-435b-a332-789de3562158","system_id":"levelo_inurba_marseille","lat":43.25865,"lon":5.39923,"is_reserved":false,"is_disabled":false,"rental_uris":{"android":"levelo://app?vid=37cb01ac-e047-435b-a332-789de3562158","ios":"levelo://app?vid=37cb01ac-e047-435b-a332-789de3562158"},"vehicle_type_id":"4","last_reported":1738865521,"current_range_meters":7200,"station_id":"ce4bhl92rcd13ifvqghg","pricing_plan_id":"cebpf4jnsgd1na2vs0mg"},{"bike_id":"087f0b3a-4aea-43b2-8ccc-2a9ed614bb2e","system_id":"levelo_inurba_marseille","lat":43.31727,"lon":5.42399,"is_reserved":false,"is_disabled":false,"rental_uris":{"android":"levelo://app?vid=087f0b3a-4aea-43b2-8ccc-2a9ed614bb2e","ios":"levelo://app?vid=087f0b3a-4aea-43b2-8ccc-2a9ed614bb2e"},"vehicle_type_id":"4","last_reported":1738865521,"current_range_meters":39200,"station_id":"ce4bhp92rcd13ifvqhbg","pricing_plan_id":"cebpf4jnsgd1na2vs0mg"},{"bike_id":"e3869990-fdc1-4ef6-af32-85dbad05e21f","system_id":"levelo_inurba_marseille","lat":43.29422,"lon":5.38621,"is_reserved":false,"is_disabled":false,"rental_uris":{"android":"levelo://app?vid=e3869990-fdc1-4ef6-af32-85dbad05e21f","ios":"levelo://app?vid=e3869990-fdc1-4ef6-af32-85dbad05e21f"},"vehicle_type_id":"4","last_reported":1738865521,"current_range_meters":11600,"station_id":"ce4bh2h2rcd13ifvqdh0","pricing_plan_id":"cebpf4jnsgd1na2vs0mg"},{"bike_id":"9c0ce03a-5b91-4a8b-a474-9dd4d17d8d50","system_id":"levelo_inurba_marseille","lat":43.26562,"lon":5.39003,"is_reserved":false,"is_disabled":true,"rental_uris":{"android":"levelo://app?vid=9c0ce03a-5b91-4a8b-a474-9dd4d17d8d50","ios":"levelo://app?vid=9c0ce03a-5b91-4a8b-a474-9dd4d17d8d50"},"vehicle_type_id":"4","last_reported":1738865521,"current_range_meters":20400,"station_id":"ce4bhe12rcd13ifvqf30","pricing_plan_id":"cebpf4jnsgd1na2vs0mg"},{"bike_id":"60befa85-5325-46ec-8eca-2638d8171a31","system_id":"levelo_inurba_marseille","lat":43.2989,"lon":5.39735,"is_reserved":false,"is_disabled":false,"rental_uris":{"android":"levelo://app?vid=60befa85-5325-46ec-8eca-2638d8171a31","ios":"levelo://app?vid=60befa85-5325-46ec-8eca-2638d8171a31"},"vehicle_type_id":"4","last_reported":1738865521,"current_range_meters":24400,"station_id":"ce4bh0h2rcd13ifvqd50","pricing_plan_id":"cebpf4jnsgd1na2vs0mg"},{"bike_id":"d24de62b-f43d-4ee9-8636-eae3f9e1d596","system_id":"levelo_inurba_marseille","lat":43.27196,"lon":5.40997,"is_reserved":false,"is_disabled":false,"rental_uris":{"android":"levelo://app?vid=d24de62b-f43d-4ee9-8636-eae3f9e1d596","ios":"levelo://app?vid=d24de62b-f43d-4ee9-8636-eae3f9e1d596"},"vehicle_type_id":"4","last_reported":1738865521,"current_range_meters":36400,"station_id":"ce4bhl12rcd13ifvqgf0","pricing_plan_id":"cebpf4jnsgd1na2vs0mg"},{"bike_id":"b6e31e5d-a0ce-46a6-80cf-ac78999f2993","system_id":"levelo_inurba_marseille","lat":43.31758,"lon":5.39003,"is_reserved":false,"is_disabled":false,"rental_uris":{"android":"levelo://app?vid=b6e31e5d-a0ce-46a6-80cf-ac78999f2993","ios":"levelo://app?vid=b6e31e5d-a0ce-46a6-80cf-ac78999f2993"},"vehicle_type_id":"4","last_reported":1738865521,"current_range_meters":25200,"station_id":"","pricing_plan_id":"cebpf4jnsgd1na2vs0mg"},{"bike_id":"5a75b00d-029e-4827-a9f8-a8d51fd3927d","system_id":"levelo_inurba_marseille","lat":43.25885,"lon":5.39871,"is_reserved":false,"is_disabled":false,"rental_uris":{"android":"levelo://app?vid=5a75b00d-029e-4827-a9f8-a8d51fd3927d","ios":"levelo://app?vid=5a75b00d-029e-4827-a9f8-a8d51fd3927d"},"vehicle_type_id":"4","last_reported":1738865521,"current_range_meters":8400,"station_id":"ce4bhl92rcd13ifvqghg","pricing_plan_id":"cebpf4jnsgd1na2vs0mg"},{"bike_id":"e88d6fd1-4487-4af5-9080-a407a413ae21","system_id":"levelo_inurba_marseille","lat":43.28421,"lon":5.37513,"is_reserved":false,"is_disabled":false,"rental_uris":{"android":"levelo://app?vid=e88d6fd1-4487-4af5-9080-a407a413ae21","ios":"levelo://app?vid=e88d6fd1-4487-4af5-9080-a407a413ae21"},"vehicle_type_id":"4","last_reported":1738865521,"current_range_meters":36800,"station_id":"ce4bh412rcd13ifvqds0","pricing_plan_id":"cebpf4jnsgd1na2vs0mg"},{"bike_id":"dfb2836a-0bf4-4ea6-8faf-0d1d6ebfffb0","system_id":"levelo_inurba_marseille","lat":43.28455,"lon":5.35889,"is_reserved":false,"is_disabled":false,"rental_uris":{"android":"levelo://app?vid=dfb2836a-0bf4-4ea6-8faf-0d1d6ebfffb0","ios":"levelo://app?vid=dfb2836a-0bf4-4ea6-8faf-0d1d6ebfffb0"},"vehicle_type_id":"4","last_reported":1738865521,"current_range_meters":9200,"station_id":"ce4bhah2rcd13ifvqei0","pricing_plan_id":"cebpf4jnsgd1na2vs0mg"},{"bike_id":"c25b6dbd-981e-4c9a-b566-24fa825bcd43","system_id":"levelo_inurba_marseille","lat":43.31372,"lon":5.38488,"is_reserved":false,"is_disabled":false,"rental_uris":{"android":"levelo://app?vid=c25b6dbd-981e-4c9a-b566-24fa825bcd43","ios":"levelo://app?vid=c25b6dbd-981e-4c9a-b566-24fa825bcd43"},"vehicle_type_id":"4","last_reported":1738865521,"current_range_meters":32000,"station_id":"ce4bgt92rcd13ifvqcf0","pricing_plan_id":"cebpf4jnsgd1na2vs0mg"},{"bike_id":"775e7c57-7e2a-41a4-bb53-8e81069898dc","system_id":"levelo_inurba_marseille","lat":43.25576,"lon":5.38222,"is_reserved":false,"is_disabled":false,"rental_uris":{"android":"levelo://app?vid=775e7c57-7e2a-41a4-bb53-8e81069898dc","ios":"levelo://app?vid=775e7c57-7e2a-41a4-bb53-8e81069898dc"},"vehicle_type_id":"4","last_reported":1738865521,"current_range_meters":5600,"station_id":"ce4bhih2rcd13ifvqfs0","pricing_plan_id":"cebpf4jnsgd1na2vs0mg"},{"bike_id":"c6c7381c-523d-4c18-8027-51238dc83c6d","system_id":"levelo_inurba_marseille","lat":43.28108,"lon":5.37838,"is_reserved":false,"is_disabled":true,"rental_uris":{"android":"levelo://app?vid=c6c7381c-523d-4c18-8027-51238dc83c6d","ios":"levelo://app?vid=c6c7381c-523d-4c18-8027-51238dc83c6d"},"vehicle_type_id":"4","last_reported":1738865521,"current_range_meters":800,"station_id":"ce4bha12rcd13ifvqee0","pricing_plan_id":"cebpf4jnsgd1na2vs0mg"},{"bike_id":"9ed41dd8-209d-4b5e-a13e-93bfc18e2429","system_id":"levelo_inurba_marseille","lat":43.30298,"lon":5.39206,"is_reserved":false,"is_disabled":false,"rental_uris":{"android":"levelo://app?vid=9ed41dd8-209d-4b5e-a13e-93bfc18e2429","ios":"levelo://app?vid=9ed41dd8-209d-4b5e-a13e-93bfc18e2429"},"vehicle_type_id":"4","last_reported":1738865521,"current_range_meters":18800,"station_id":"ce4bgkh2rcd13ifvqbk0","pricing_plan_id":"cebpf4jnsgd1na2vs0mg"},{"bike_id":"074964d7-21d1-4dfd-93fb-4af3eeb010fd","system_id":"levelo_inurba_marseille","lat":43.29076,"lon":5.37173,"is_reserved":false,"is_disabled":false,"rental_uris":{"android":"levelo://app?vid=074964d7-21d1-4dfd-93fb-4af3eeb010fd","ios":"levelo://app?vid=074964d7-21d1-4dfd-93fb-4af3eeb010fd"},"vehicle_type_id":"4","last_reported":1738865521,"current_range_meters":34800,"station_id":"ce4bh5p2rcd13ifvqe4g","pricing_plan_id":"cebpf4jnsgd1na2vs0mg"},{"bike_id":"70680240-c0ce-4c00-ba26-bfa78895a67c","system_id":"levelo_inurba_marseille","lat":43.28612,"lon":5.37043,"is_reserved":false,"is_disabled":true,"rental_uris":{"android":"levelo://app?vid=70680240-c0ce-4c00-ba26-bfa78895a67c","ios":"levelo://app?vid=70680240-c0ce-4c00-ba26-bfa78895a67c"},"vehicle_type_id":"4","last_reported":1738865521,"current_range_meters":28000,"station_id":"ce4bht12rcd13ifvqi60","pricing_plan_id":"cebpf4jnsgd1na2vs0mg"},{"bike_id":"ef9913a2-6d43-4639-8377-8b1baeaf5fce","system_id":"levelo_inurba_marseille","lat":43.29164,"lon":5.37178,"is_reserved":false,"is_disabled":false,"rental_uris":{"android":"levelo://app?vid=ef9913a2-6d43-4639-8377-8b1baeaf5fce","ios":"levelo://app?vid=ef9913a2-6d43-4639-8377-8b1baeaf5fce"},"vehicle_type_id":"4","last_reported":1738865521,"current_range_meters":12800,"station_id":"ce4bha92rcd13ifvqeh0","pricing_plan_id":"cebpf4jnsgd1na2vs0mg"},{"bike_id":"79a11ae0-6cda-4176-9dd3-b71924088580","system_id":"levelo_inurba_marseille","lat":43.27812,"lon":5.40711,"is_reserved":false,"is_disabled":false,"rental_uris":{"android":"levelo://app?vid=79a11ae0-6cda-4176-9dd3-b71924088580","ios":"levelo://app?vid=79a11ae0-6cda-4176-9dd3-b71924088580"},"vehicle_type_id":"4","last_reported":1738865521,"current_range_meters":38800,"station_id":"ce4bhnh2rcd13ifvqgtg","pricing_plan_id":"cebpf4jnsgd1na2vs0mg"},{"bike_id":"8dc0b4e5-9b7e-494d-a544-2c50f0f2f820","system_id":"levelo_inurba_marseille","lat":43.31883,"lon":5.40726,"is_reserved":false,"is_disabled":false,"rental_uris":{"android":"levelo://app?vid=8dc0b4e5-9b7e-494d-a544-2c50f0f2f820","ios":"levelo://app?vid=8dc0b4e5-9b7e-494d-a544-2c50f0f2f820"},"vehicle_type_id":"4","last_reported":1738865521,"current_range_meters":37600,"station_id":"ce4bhq12rcd13ifvqhig","pricing_plan_id":"cebpf4jnsgd1na2vs0mg"},{"bike_id":"2863c87a-40f0-4008-ba4d-992efef61444","system_id":"levelo_inurba_marseille","lat":43.3029,"lon":5.39205,"is_reserved":false,"is_disabled":false,"rental_uris":{"android":"levelo://app?vid=2863c87a-40f0-4008-ba4d-992efef61444","ios":"levelo://app?vid=2863c87a-40f0-4008-ba4d-992efef61444"},"vehicle_type_id":"4","last_reported":1738865521,"current_range_meters":27200,"station_id":"ce4bgkh2rcd13ifvqbk0","pricing_plan_id":"cebpf4jnsgd1na2vs0mg"},{"bike_id":"deaab0c2-7c43-4d56-9b77-b6c2036651eb","system_id":"levelo_inurba_marseille","lat":43.2795,"lon":5.41055,"is_reserved":false,"is_disabled":false,"rental_uris":{"android":"levelo://app?vid=deaab0c2-7c43-4d56-9b77-b6c2036651eb","ios":"levelo://app?vid=deaab0c2-7c43-4d56-9b77-b6c2036651eb"},"vehicle_type_id":"4","last_reported":1738865521,"current_range_meters":8400,"station_id":"ce4bhnp2rcd13ifvqh0g","pricing_plan_id":"cebpf4jnsgd1na2vs0mg"},{"bike_id":"61fa4b26-20c8-466a-9fd1-66899d5ff713","system_id":"levelo_inurba_marseille","lat":43.32341,"lon":5.40607,"is_reserved":false,"is_disabled":false,"rental_uris":{"android":"levelo://app?vid=61fa4b26-20c8-466a-9fd1-66899d5ff713","ios":"levelo://app?vid=61fa4b26-20c8-466a-9fd1-66899d5ff713"},"vehicle_type_id":"4","last_reported":1738865521,"current_range_meters":26800,"station_id":"ce4bhq92rcd13ifvqhjg","pricing_plan_id":"cebpf4jnsgd1na2vs0mg"},{"bike_id":"7bc2d4b6-7844-46be-a947-040b3c3e100d","system_id":"levelo_inurba_marseille","lat":43.27925,"lon":5.39563,"is_reserved":false,"is_disabled":false,"rental_uris":{"android":"levelo://app?vid=7bc2d4b6-7844-46be-a947-040b3c3e100d","ios":"levelo://app?vid=7bc2d4b6-7844-46be-a947-040b3c3e100d"},"vehicle_type_id":"4","last_reported":1738865521,"current_range_meters":38400,"station_id":"ce4bhf92rcd13ifvqf40","pricing_plan_id":"cebpf4jnsgd1na2vs0mg"},{"bike_id":"db93c180-6b9e-4251-a127-92ace597c920","system_id":"levelo_inurba_marseille","lat":43.27178,"lon":5.40991,"is_reserved":false,"is_disabled":false,"rental_uris":{"android":"levelo://app?vid=db93c180-6b9e-4251-a127-92ace597c920","ios":"levelo://app?vid=db93c180-6b9e-4251-a127-92ace597c920"},"vehicle_type_id":"4","last_reported":1738865521,"current_range_meters":28800,"station_id":"ce4bhl12rcd13ifvqgf0","pricing_plan_id":"cebpf4jnsgd1na2vs0mg"},{"bike_id":"1e6bd623-b9e9-4650-9f6f-8b4d5252096e","system_id":"levelo_inurba_marseille","lat":43.3082,"lon":5.43483,"is_reserved":false,"is_disabled":false,"rental_uris":{"android":"levelo://app?vid=1e6bd623-b9e9-4650-9f6f-8b4d5252096e","ios":"levelo://app?vid=1e6bd623-b9e9-4650-9f6f-8b4d5252096e"},"vehicle_type_id":"4","last_reported":1738865521,"current_range_meters":39200,"station_id":"ce4bhph2rcd13ifvqheg","pricing_plan_id":"cebpf4jnsgd1na2vs0mg"},{"bike_id":"7a65236e-e55b-4305-a6c7-456e00675e76","system_id":"levelo_inurba_marseille","lat":43.27831,"lon":5.39215,"is_reserved":false,"is_disabled":true,"rental_uris":{"android":"levelo://app?vid=7a65236e-e55b-4305-a6c7-456e00675e76","ios":"levelo://app?vid=7a65236e-e55b-4305-a6c7-456e00675e76"},"vehicle_type_id":"4","last_reported":1738865521,"current_range_meters":1600,"station_id":"ce4bhjp2rcd13ifvqga0","pricing_plan_id":"cebpf4jnsgd1na2vs0mg"},{"bike_id":"0d2768c4-ffd3-49e6-ae50-223632ef44ad","system_id":"levelo_inurba_marseille","lat":43.29688,"lon":5.37303,"is_reserved":false,"is_disabled":true,"rental_uris":{"android":"levelo://app?vid=0d2768c4-ffd3-49e6-ae50-223632ef44ad","ios":"levelo://app?vid=0d2768c4-ffd3-49e6-ae50-223632ef44ad"},"vehicle_type_id":"4","last_reported":1738865521,"current_range_meters":12400,"station_id":"ce4bho92rcd13ifvqh3g","pricing_plan_id":"cebpf4jnsgd1na2vs0mg"},{"bike_id":"4f0a8d03-962d-4436-8b3f-c1fe208f053f","system_id":"levelo_inurba_marseille","lat":43.29244,"lon":5.40892,"is_reserved":false,"is_disabled":false,"rental_uris":{"android":"levelo://app?vid=4f0a8d03-962d-4436-8b3f-c1fe208f053f","ios":"levelo://app?vid=4f0a8d03-962d-4436-8b3f-c1fe208f053f"},"vehicle_type_id":"4","last_reported":1738865521,"current_range_meters":23200,"station_id":"ce4bh192rcd13ifvqdc0","pricing_plan_id":"cebpf4jnsgd1na2vs0mg"},{"bike_id":"adea3fe0-0d5f-493f-bc7a-8db19cd779cc","system_id":"levelo_inurba_marseille","lat":43.26185,"lon":5.3791,"is_reserved":false,"is_disabled":false,"rental_uris":{"android":"levelo://app?vid=adea3fe0-0d5f-493f-bc7a-8db19cd779cc","ios":"levelo://app?vid=adea3fe0-0d5f-493f-bc7a-8db19cd779cc"},"vehicle_type_id":"4","last_reported":1738865521,"current_range_meters":38400,"station_id":"ce4bhjp2rcd13ifvqg90","pricing_plan_id":"cebpf4jnsgd1na2vs0mg"},{"bike_id":"1e7a2219-8a62-4d64-ae7c-c3d6f0f90ba9","system_id":"levelo_inurba_marseille","lat":43.28441,"lon":5.39208,"is_reserved":false,"is_disabled":false,"rental_uris":{"android":"levelo://app?vid=1e7a2219-8a62-4d64-ae7c-c3d6f0f90ba9","ios":"levelo://app?vid=1e7a2219-8a62-4d64-ae7c-c3d6f0f90ba9"},"vehicle_type_id":"4","last_reported":1738865521,"current_range_meters":30000,"station_id":"ce4bhoh2rcd13ifvqh5g","pricing_plan_id":"cebpf4jnsgd1na2vs0mg"},{"bike_id":"cd8428e3-6db6-44eb-9bb3-8b705f8a339d","system_id":"levelo_inurba_marseille","lat":43.30595,"lon":5.39358,"is_reserved":false,"is_disabled":true,"rental_uris":{"android":"levelo://app?vid=cd8428e3-6db6-44eb-9bb3-8b705f8a339d","ios":"levelo://app?vid=cd8428e3-6db6-44eb-9bb3-8b705f8a339d"},"vehicle_type_id":"4","last_reported":1738865521,"current_range_meters":2000,"station_id":"ce4bh0p2rcd13ifvqd80","pricing_plan_id":"cebpf4jnsgd1na2vs0mg"},{"bike_id":"ddabfc2f-5038-4225-9c45-0f70b1e37cba","system_id":"levelo_inurba_marseille","lat":43.31723,"lon":5.43686,"is_reserved":false,"is_disabled":false,"rental_uris":{"android":"levelo://app?vid=ddabfc2f-5038-4225-9c45-0f70b1e37cba","ios":"levelo://app?vid=ddabfc2f-5038-4225-9c45-0f70b1e37cba"},"vehicle_type_id":"4","last_reported":1738865521,"current_range_meters":27200,"station_id":"ce4bhp92rcd13ifvqhcg","pricing_plan_id":"cebpf4jnsgd1na2vs0mg"},{"bike_id":"7cf1f61c-b313-49b8-b3a8-1e15128022cd","system_id":"levelo_inurba_marseille","lat":43.29301,"lon":5.37166,"is_reserved":false,"is_disabled":false,"rental_uris":{"android":"levelo://app?vid=7cf1f61c-b313-49b8-b3a8-1e15128022cd","ios":"levelo://app?vid=7cf1f61c-b313-49b8-b3a8-1e15128022cd"},"vehicle_type_id":"4","last_reported":1738865521,"current_range_meters":20400,"station_id":"ce4bgh92rcd13ifvqb40","pricing_plan_id":"cebpf4jnsgd1na2vs0mg"},{"bike_id":"62b08635-bfc9-43d4-8f11-9baecfe1a891","system_id":"levelo_inurba_marseille","lat":43.29303,"lon":5.3719,"is_reserved":false,"is_disabled":false,"rental_uris":{"android":"levelo://app?vid=62b08635-bfc9-43d4-8f11-9baecfe1a891","ios":"levelo://app?vid=62b08635-bfc9-43d4-8f11-9baecfe1a891"},"vehicle_type_id":"4","last_reported":1738865521,"current_range_meters":17200,"station_id":"ce4bgh92rcd13ifvqb40","pricing_plan_id":"cebpf4jnsgd1na2vs0mg"},{"bike_id":"7c089c61-73bf-43fe-bee5-11d71caa4af4","system_id":"levelo_inurba_marseille","lat":43.28938,"lon":5.36389,"is_reserved":false,"is_disabled":false,"rental_uris":{"android":"levelo://app?vid=7c089c61-73bf-43fe-bee5-11d71caa4af4","ios":"levelo://app?vid=7c089c61-73bf-43fe-bee5-11d71caa4af4"},"vehicle_type_id":"4","last_reported":1738865521,"current_range_meters":17600,"station_id":"ce4bhc92rcd13ifvqetg","pricing_plan_id":"cebpf4jnsgd1na2vs0mg"},{"bike_id":"a196db22-cca3-412c-b5e2-59ac41f87829","system_id":"levelo_inurba_marseille","lat":43.30524,"lon":5.36547,"is_reserved":false,"is_disabled":false,"rental_uris":{"android":"levelo://app?vid=a196db22-cca3-412c-b5e2-59ac41f87829","ios":"levelo://app?vid=a196db22-cca3-412c-b5e2-59ac41f87829"},"vehicle_type_id":"4","last_reported":1738865521,"current_range_meters":26800,"station_id":"ce4bgs12rcd13ifvqcag","pricing_plan_id":"cebpf4jnsgd1na2vs0mg"},{"bike_id":"c27ea722-02e4-41fb-a9b6-7f27c0435dbc","system_id":"levelo_inurba_marseille","lat":43.29256,"lon":5.38436,"is_reserved":false,"is_disabled":false,"rental_uris":{"android":"levelo://app?vid=c27ea722-02e4-41fb-a9b6-7f27c0435dbc","ios":"levelo://app?vid=c27ea722-02e4-41fb-a9b6-7f27c0435dbc"},"vehicle_type_id":"4","last_reported":1738865521,"current_range_meters":24400,"station_id":"ce4bh692rcd13ifvqea0","pricing_plan_id":"cebpf4jnsgd1na2vs0mg"},{"bike_id":"c08f6643-9902-4cff-8630-77056a66ed4b","system_id":"levelo_inurba_marseille","lat":43.28986,"lon":5.37838,"is_reserved":false,"is_disabled":false,"rental_uris":{"android":"levelo://app?vid=c08f6643-9902-4cff-8630-77056a66ed4b","ios":"levelo://app?vid=c08f6643-9902-4cff-8630-77056a66ed4b"},"vehicle_type_id":"4","last_reported":1738865521,"current_range_meters":26000,"station_id":"ce4bh9p2rcd13ifvqed0","pricing_plan_id":"cebpf4jnsgd1na2vs0mg"},{"bike_id":"f38fc671-1bae-4836-a2e7-5dc6c3b36ad7","system_id":"levelo_inurba_marseille","lat":43.29266,"lon":5.38446,"is_reserved":false,"is_disabled":true,"rental_uris":{"android":"levelo://app?vid=f38fc671-1bae-4836-a2e7-5dc6c3b36ad7","ios":"levelo://app?vid=f38fc671-1bae-4836-a2e7-5dc6c3b36ad7"},"vehicle_type_id":"4","last_reported":1738865521,"current_range_meters":400,"station_id":"ce4bh692rcd13ifvqea0","pricing_plan_id":"cebpf4jnsgd1na2vs0mg"},{"bike_id":"59db9156-837c-4bef-bdf0-6cb05d00fb23","system_id":"levelo_inurba_marseille","lat":43.24171,"lon":5.36397,"is_reserved":false,"is_disabled":false,"rental_uris":{"android":"levelo://app?vid=59db9156-837c-4bef-bdf0-6cb05d00fb23","ios":"levelo://app?vid=59db9156-837c-4bef-bdf0-6cb05d00fb23"},"vehicle_type_id":"4","last_reported":1738865521,"current_range_meters":35200,"station_id":"cpo36qri1sfpv3e86is0","pricing_plan_id":"cebpf4jnsgd1na2vs0mg"},{"bike_id":"d6cd594e-5144-4c9e-8087-c0f7204b80c2","system_id":"levelo_inurba_marseille","lat":43.29714,"lon":5.3661,"is_reserved":false,"is_disabled":false,"rental_uris":{"android":"levelo://app?vid=d6cd594e-5144-4c9e-8087-c0f7204b80c2","ios":"levelo://app?vid=d6cd594e-5144-4c9e-8087-c0f7204b80c2"},"vehicle_type_id":"4","last_reported":1738865521,"current_range_meters":27600,"station_id":"ce4bgn12rcd13ifvqbt0","pricing_plan_id":"cebpf4jnsgd1na2vs0mg"},{"bike_id":"19c91191-64ee-4803-94d7-14a4a66340df","system_id":"levelo_inurba_marseille","lat":43.317158,"lon":5.424003,"is_reserved":false,"is_disabled":true,"rental_uris":{"android":"levelo://app?vid=19c91191-64ee-4803-94d7-14a4a66340df","ios":"levelo://app?vid=19c91191-64ee-4803-94d7-14a4a66340df"},"vehicle_type_id":"4","last_reported":1738865521,"current_range_meters":0,"station_id":"ce4bhp92rcd13ifvqhbg","pricing_plan_id":"cebpf4jnsgd1na2vs0mg"},{"bike_id":"0a6a90a0-b9a1-4553-942b-9cc8f0c94f66","system_id":"levelo_inurba_marseille","lat":43.29253,"lon":5.40913,"is_reserved":false,"is_disabled":true,"rental_uris":{"android":"levelo://app?vid=0a6a90a0-b9a1-4553-942b-9cc8f0c94f66","ios":"levelo://app?vid=0a6a90a0-b9a1-4553-942b-9cc8f0c94f66"},"vehicle_type_id":"4","last_reported":1738865521,"current_range_meters":18000,"station_id":"ce4bh192rcd13ifvqdc0","pricing_plan_id":"cebpf4jnsgd1na2vs0mg"},{"bike_id":"fef1bd1d-2ad2-48f6-a1bb-d87aafe8c512","system_id":"levelo_inurba_marseille","lat":43.289303,"lon":5.364033,"is_reserved":false,"is_disabled":true,"rental_uris":{"android":"levelo://app?vid=fef1bd1d-2ad2-48f6-a1bb-d87aafe8c512","ios":"levelo://app?vid=fef1bd1d-2ad2-48f6-a1bb-d87aafe8c512"},"vehicle_type_id":"4","last_reported":1738865521,"current_range_meters":0,"station_id":"ce4bhc92rcd13ifvqetg","pricing_plan_id":"cebpf4jnsgd1na2vs0mg"},{"bike_id":"0cd493da-16fa-43d2-8b0d-c16cf19bf856","system_id":"levelo_inurba_marseille","lat":43.30295,"lon":5.39213,"is_reserved":false,"is_disabled":false,"rental_uris":{"android":"levelo://app?vid=0cd493da-16fa-43d2-8b0d-c16cf19bf856","ios":"levelo://app?vid=0cd493da-16fa-43d2-8b0d-c16cf19bf856"},"vehicle_type_id":"4","last_reported":1738865521,"current_range_meters":38800,"station_id":"ce4bgkh2rcd13ifvqbk0","pricing_plan_id":"cebpf4jnsgd1na2vs0mg"},{"bike_id":"aa20ddd3-fab3-4250-b35b-41c0ae9e33eb","system_id":"levelo_inurba_marseille","lat":43.24528,"lon":5.37289,"is_reserved":false,"is_disabled":false,"rental_uris":{"android":"levelo://app?vid=aa20ddd3-fab3-4250-b35b-41c0ae9e33eb","ios":"levelo://app?vid=aa20ddd3-fab3-4250-b35b-41c0ae9e33eb"},"vehicle_type_id":"4","last_reported":1738865521,"current_range_meters":16400,"station_id":"","pricing_plan_id":"cebpf4jnsgd1na2vs0mg"},{"bike_id":"b9676be3-9819-4252-b649-b1c927d0e51e","system_id":"levelo_inurba_marseille","lat":43.2872,"lon":5.37929,"is_reserved":false,"is_disabled":false,"rental_uris":{"android":"levelo://app?vid=b9676be3-9819-4252-b649-b1c927d0e51e","ios":"levelo://app?vid=b9676be3-9819-4252-b649-b1c927d0e51e"},"vehicle_type_id":"4","last_reported":1738865521,"current_range_meters":36800,"station_id":"ce4bh9p2rcd13ifvqec0","pricing_plan_id":"cebpf4jnsgd1na2vs0mg"},{"bike_id":"0e497770-cf09-4b8a-96bf-de7f715f6fe7","system_id":"levelo_inurba_marseille","lat":43.2952,"lon":5.39031,"is_reserved":false,"is_disabled":false,"rental_uris":{"android":"levelo://app?vid=0e497770-cf09-4b8a-96bf-de7f715f6fe7","ios":"levelo://app?vid=0e497770-cf09-4b8a-96bf-de7f715f6fe7"},"vehicle_type_id":"4","last_reported":1738865521,"current_range_meters":34800,"station_id":"ce4bh3p2rcd13ifvqdp0","pricing_plan_id":"cebpf4jnsgd1na2vs0mg"},{"bike_id":"744f4122-a65c-499d-80ba-7729a1ce92fe","system_id":"levelo_inurba_marseille","lat":43.28435,"lon":5.39195,"is_reserved":false,"is_disabled":true,"rental_uris":{"android":"levelo://app?vid=744f4122-a65c-499d-80ba-7729a1ce92fe","ios":"levelo://app?vid=744f4122-a65c-499d-80ba-7729a1ce92fe"},"vehicle_type_id":"4","last_reported":1738865521,"current_range_meters":38000,"station_id":"ce4bhoh2rcd13ifvqh5g","pricing_plan_id":"cebpf4jnsgd1na2vs0mg"},{"bike_id":"ca1abc1c-edee-4bde-894f-b9bdbd3d4132","system_id":"levelo_inurba_marseille","lat":43.27329,"lon":5.39103,"is_reserved":false,"is_disabled":false,"rental_uris":{"android":"levelo://app?vid=ca1abc1c-edee-4bde-894f-b9bdbd3d4132","ios":"levelo://app?vid=ca1abc1c-edee-4bde-894f-b9bdbd3d4132"},"vehicle_type_id":"4","last_reported":1738865521,"current_range_meters":38800,"station_id":"ce4bhgp2rcd13ifvqfe0","pricing_plan_id":"cebpf4jnsgd1na2vs0mg"},{"bike_id":"5d1dacf3-3fa1-40ba-8373-ce163dd2d283","system_id":"levelo_inurba_marseille","lat":43.26205,"lon":5.37929,"is_reserved":false,"is_disabled":false,"rental_uris":{"android":"levelo://app?vid=5d1dacf3-3fa1-40ba-8373-ce163dd2d283","ios":"levelo://app?vid=5d1dacf3-3fa1-40ba-8373-ce163dd2d283"},"vehicle_type_id":"4","last_reported":1738865521,"current_range_meters":38800,"station_id":"ce4bhjp2rcd13ifvqg90","pricing_plan_id":"cebpf4jnsgd1na2vs0mg"},{"bike_id":"f8381df4-c9f2-43b6-bcc5-4753959612e1","system_id":"levelo_inurba_marseille","lat":43.29518,"lon":5.37513,"is_reserved":false,"is_disabled":false,"rental_uris":{"android":"levelo://app?vid=f8381df4-c9f2-43b6-bcc5-4753959612e1","ios":"levelo://app?vid=f8381df4-c9f2-43b6-bcc5-4753959612e1"},"vehicle_type_id":"4","last_reported":1738865521,"current_range_meters":19600,"station_id":"ce4bgkp2rcd13ifvqbmg","pricing_plan_id":"cebpf4jnsgd1na2vs0mg"},{"bike_id":"bfe4c0f9-8b65-447a-93c2-23976083397d","system_id":"levelo_inurba_marseille","lat":43.29527,"lon":5.39399,"is_reserved":false,"is_disabled":false,"rental_uris":{"android":"levelo://app?vid=bfe4c0f9-8b65-447a-93c2-23976083397d","ios":"levelo://app?vid=bfe4c0f9-8b65-447a-93c2-23976083397d"},"vehicle_type_id":"4","last_reported":1738865521,"current_range_meters":20000,"station_id":"ce4bh292rcd13ifvqdf0","pricing_plan_id":"cebpf4jnsgd1na2vs0mg"},{"bike_id":"eb192197-0219-4cdf-905a-c64bd68ab8be","system_id":"levelo_inurba_marseille","lat":43.28457,"lon":5.35891,"is_reserved":false,"is_disabled":false,"rental_uris":{"android":"levelo://app?vid=eb192197-0219-4cdf-905a-c64bd68ab8be","ios":"levelo://app?vid=eb192197-0219-4cdf-905a-c64bd68ab8be"},"vehicle_type_id":"4","last_reported":1738865521,"current_range_meters":38800,"station_id":"ce4bhah2rcd13ifvqei0","pricing_plan_id":"cebpf4jnsgd1na2vs0mg"},{"bike_id":"8b2375cd-7bac-4044-8d34-541a6bd9df3d","system_id":"levelo_inurba_marseille","lat":43.28661,"lon":5.36347,"is_reserved":false,"is_disabled":false,"rental_uris":{"android":"levelo://app?vid=8b2375cd-7bac-4044-8d34-541a6bd9df3d","ios":"levelo://app?vid=8b2375cd-7bac-4044-8d34-541a6bd9df3d"},"vehicle_type_id":"4","last_reported":1738865521,"current_range_meters":32800,"station_id":"ce4bhah2rcd13ifvqej0","pricing_plan_id":"cebpf4jnsgd1na2vs0mg"},{"bike_id":"26226eb4-bffe-4870-bfd9-66722275b374","system_id":"levelo_inurba_marseille","lat":43.28457,"lon":5.35881,"is_reserved":false,"is_disabled":false,"rental_uris":{"android":"levelo://app?vid=26226eb4-bffe-4870-bfd9-66722275b374","ios":"levelo://app?vid=26226eb4-bffe-4870-bfd9-66722275b374"},"vehicle_type_id":"4","last_reported":1738865521,"current_range_meters":6800,"station_id":"ce4bhah2rcd13ifvqei0","pricing_plan_id":"cebpf4jnsgd1na2vs0mg"},{"bike_id":"d2a4dfe0-c2fb-4fbd-838f-b2baeb0fac54","system_id":"levelo_inurba_marseille","lat":43.29972,"lon":5.38486,"is_reserved":false,"is_disabled":false,"rental_uris":{"android":"levelo://app?vid=d2a4dfe0-c2fb-4fbd-838f-b2baeb0fac54","ios":"levelo://app?vid=d2a4dfe0-c2fb-4fbd-838f-b2baeb0fac54"},"vehicle_type_id":"4","last_reported":1738865521,"current_range_meters":4800,"station_id":"ce4bgj92rcd13ifvqbd0","pricing_plan_id":"cebpf4jnsgd1na2vs0mg"},{"bike_id":"f65d38ea-b115-42cb-99e2-30f40cf15e00","system_id":"levelo_inurba_marseille","lat":43.28454,"lon":5.35891,"is_reserved":false,"is_disabled":false,"rental_uris":{"android":"levelo://app?vid=f65d38ea-b115-42cb-99e2-30f40cf15e00","ios":"levelo://app?vid=f65d38ea-b115-42cb-99e2-30f40cf15e00"},"vehicle_type_id":"4","last_reported":1738865521,"current_range_meters":26000,"station_id":"ce4bhah2rcd13ifvqei0","pricing_plan_id":"cebpf4jnsgd1na2vs0mg"},{"bike_id":"ce329561-6e68-4094-a982-6c2d4f30bc1b","system_id":"levelo_inurba_marseille","lat":43.24078,"lon":5.37758,"is_reserved":false,"is_disabled":false,"rental_uris":{"android":"levelo://app?vid=ce329561-6e68-4094-a982-6c2d4f30bc1b","ios":"levelo://app?vid=ce329561-6e68-4094-a982-6c2d4f30bc1b"},"vehicle_type_id":"4","last_reported":1738865521,"current_range_meters":20800,"station_id":"ce4bhnp2rcd13ifvqgvg","pricing_plan_id":"cebpf4jnsgd1na2vs0mg"},{"bike_id":"d9d46ce6-4774-42c1-9654-aadcbb4cdfbf","system_id":"levelo_inurba_marseille","lat":43.26557,"lon":5.37298,"is_reserved":false,"is_disabled":false,"rental_uris":{"android":"levelo://app?vid=d9d46ce6-4774-42c1-9654-aadcbb4cdfbf","ios":"levelo://app?vid=d9d46ce6-4774-42c1-9654-aadcbb4cdfbf"},"vehicle_type_id":"4","last_reported":1738865521,"current_range_meters":38800,"station_id":"ce4bhg12rcd13ifvqf70","pricing_plan_id":"cebpf4jnsgd1na2vs0mg"},{"bike_id":"c98dac74-8ef2-440f-bb69-0af2b3220a11","system_id":"levelo_inurba_marseille","lat":43.29861,"lon":5.3629,"is_reserved":false,"is_disabled":true,"rental_uris":{"android":"levelo://app?vid=c98dac74-8ef2-440f-bb69-0af2b3220a11","ios":"levelo://app?vid=c98dac74-8ef2-440f-bb69-0af2b3220a11"},"vehicle_type_id":"4","last_reported":1738865521,"current_range_meters":37600,"station_id":"ce4bgpp2rcd13ifvqc3g","pricing_plan_id":"cebpf4jnsgd1na2vs0mg"},{"bike_id":"e5174efd-1a7c-4fdb-b4af-6221476f31e1","system_id":"levelo_inurba_marseille","lat":43.28731,"lon":5.36081,"is_reserved":false,"is_disabled":false,"rental_uris":{"android":"levelo://app?vid=e5174efd-1a7c-4fdb-b4af-6221476f31e1","ios":"levelo://app?vid=e5174efd-1a7c-4fdb-b4af-6221476f31e1"},"vehicle_type_id":"4","last_reported":1738865521,"current_range_meters":27600,"station_id":"cki0cbj6b192h4jlfktg","pricing_plan_id":"cebpf4jnsgd1na2vs0mg"},{"bike_id":"fbb1c951-e76b-4182-bff6-c5c21ef46ae7","system_id":"levelo_inurba_marseille","lat":43.29444,"lon":5.39741,"is_reserved":false,"is_disabled":false,"rental_uris":{"android":"levelo://app?vid=fbb1c951-e76b-4182-bff6-c5c21ef46ae7","ios":"levelo://app?vid=fbb1c951-e76b-4182-bff6-c5c21ef46ae7"},"vehicle_type_id":"4","last_reported":1738865521,"current_range_meters":34800,"station_id":"ce4bh3h2rcd13ifvqdo0","pricing_plan_id":"cebpf4jnsgd1na2vs0mg"},{"bike_id":"9bbe3eeb-ac06-42ed-8860-3fdb15d6e3d6","system_id":"levelo_inurba_marseille","lat":43.29546,"lon":5.42276,"is_reserved":false,"is_disabled":false,"rental_uris":{"android":"levelo://app?vid=9bbe3eeb-ac06-42ed-8860-3fdb15d6e3d6","ios":"levelo://app?vid=9bbe3eeb-ac06-42ed-8860-3fdb15d6e3d6"},"vehicle_type_id":"4","last_reported":1738865521,"current_range_meters":36800,"station_id":"ce4bhph2rcd13ifvqhdg","pricing_plan_id":"cebpf4jnsgd1na2vs0mg"},{"bike_id":"fe146960-7d51-43a8-8d5f-97dd150b0e2d","system_id":"levelo_inurba_marseille","lat":43.26062,"lon":5.39394,"is_reserved":false,"is_disabled":false,"rental_uris":{"android":"levelo://app?vid=fe146960-7d51-43a8-8d5f-97dd150b0e2d","ios":"levelo://app?vid=fe146960-7d51-43a8-8d5f-97dd150b0e2d"},"vehicle_type_id":"4","last_reported":1738865521,"current_range_meters":28800,"station_id":"ce4bhh92rcd13ifvqfj0","pricing_plan_id":"cebpf4jnsgd1na2vs0mg"},{"bike_id":"79eab85b-411d-47b7-ba8c-c70679ea549f","system_id":"levelo_inurba_marseille","lat":43.231823,"lon":5.39983,"is_reserved":false,"is_disabled":false,"rental_uris":{"android":"levelo://app?vid=79eab85b-411d-47b7-ba8c-c70679ea549f","ios":"levelo://app?vid=79eab85b-411d-47b7-ba8c-c70679ea549f"},"vehicle_type_id":"4","last_reported":1738865521,"current_range_meters":18800,"station_id":"ce4bhn12rcd13ifvqgqg","pricing_plan_id":"cebpf4jnsgd1na2vs0mg"},{"bike_id":"9d8389b6-176b-43cc-bbb6-119348efbb9e","system_id":"levelo_inurba_marseille","lat":43.2784,"lon":5.39212,"is_reserved":false,"is_disabled":false,"rental_uris":{"android":"levelo://app?vid=9d8389b6-176b-43cc-bbb6-119348efbb9e","ios":"levelo://app?vid=9d8389b6-176b-43cc-bbb6-119348efbb9e"},"vehicle_type_id":"4","last_reported":1738865521,"current_range_meters":27200,"station_id":"ce4bhjp2rcd13ifvqga0","pricing_plan_id":"cebpf4jnsgd1na2vs0mg"},{"bike_id":"341067f4-d7ed-4f99-954f-691c64a92e97","system_id":"levelo_inurba_marseille","lat":43.23198,"lon":5.39983,"is_reserved":false,"is_disabled":false,"rental_uris":{"android":"levelo://app?vid=341067f4-d7ed-4f99-954f-691c64a92e97","ios":"levelo://app?vid=341067f4-d7ed-4f99-954f-691c64a92e97"},"vehicle_type_id":"4","last_reported":1738865521,"current_range_meters":17200,"station_id":"ce4bhn12rcd13ifvqgqg","pricing_plan_id":"cebpf4jnsgd1na2vs0mg"},{"bike_id":"997261c2-3b19-4e05-94f0-b8c67ee981d2","system_id":"levelo_inurba_marseille","lat":43.28446,"lon":5.35906,"is_reserved":false,"is_disabled":false,"rental_uris":{"android":"levelo://app?vid=997261c2-3b19-4e05-94f0-b8c67ee981d2","ios":"levelo://app?vid=997261c2-3b19-4e05-94f0-b8c67ee981d2"},"vehicle_type_id":"4","last_reported":1738865521,"current_range_meters":36000,"station_id":"ce4bhah2rcd13ifvqei0","pricing_plan_id":"cebpf4jnsgd1na2vs0mg"},{"bike_id":"a49429c3-5f1a-484d-888a-356e7dbeb3c3","system_id":"levelo_inurba_marseille","lat":43.29522,"lon":5.39037,"is_reserved":false,"is_disabled":false,"rental_uris":{"android":"levelo://app?vid=a49429c3-5f1a-484d-888a-356e7dbeb3c3","ios":"levelo://app?vid=a49429c3-5f1a-484d-888a-356e7dbeb3c3"},"vehicle_type_id":"4","last_reported":1738865521,"current_range_meters":27600,"station_id":"ce4bh3p2rcd13ifvqdp0","pricing_plan_id":"cebpf4jnsgd1na2vs0mg"},{"bike_id":"768a712e-08fb-4217-9eb3-ac061823610a","system_id":"levelo_inurba_marseille","lat":43.3105,"lon":5.38352,"is_reserved":false,"is_disabled":false,"rental_uris":{"android":"levelo://app?vid=768a712e-08fb-4217-9eb3-ac061823610a","ios":"levelo://app?vid=768a712e-08fb-4217-9eb3-ac061823610a"},"vehicle_type_id":"4","last_reported":1738865521,"current_range_meters":28800,"station_id":"ce4bgv92rcd13ifvqcr0","pricing_plan_id":"cebpf4jnsgd1na2vs0mg"},{"bike_id":"6598a511-2288-435f-b0cf-a47dea92c964","system_id":"levelo_inurba_marseille","lat":43.2811,"lon":5.37832,"is_reserved":false,"is_disabled":false,"rental_uris":{"android":"levelo://app?vid=6598a511-2288-435f-b0cf-a47dea92c964","ios":"levelo://app?vid=6598a511-2288-435f-b0cf-a47dea92c964"},"vehicle_type_id":"4","last_reported":1738865521,"current_range_meters":20000,"station_id":"ce4bha12rcd13ifvqee0","pricing_plan_id":"cebpf4jnsgd1na2vs0mg"},{"bike_id":"dcfce4a1-db68-4a9f-adb1-77b98e0b2a5c","system_id":"levelo_inurba_marseille","lat":43.28686,"lon":5.38659,"is_reserved":false,"is_disabled":false,"rental_uris":{"android":"levelo://app?vid=dcfce4a1-db68-4a9f-adb1-77b98e0b2a5c","ios":"levelo://app?vid=dcfce4a1-db68-4a9f-adb1-77b98e0b2a5c"},"vehicle_type_id":"4","last_reported":1738865521,"current_range_meters":12800,"station_id":"ce4bh492rcd13ifvqdug","pricing_plan_id":"cebpf4jnsgd1na2vs0mg"},{"bike_id":"d9e1746e-fb35-4488-8bed-3a26bd5c5605","system_id":"levelo_inurba_marseille","lat":43.30286,"lon":5.39808,"is_reserved":false,"is_disabled":true,"rental_uris":{"android":"levelo://app?vid=d9e1746e-fb35-4488-8bed-3a26bd5c5605","ios":"levelo://app?vid=d9e1746e-fb35-4488-8bed-3a26bd5c5605"},"vehicle_type_id":"4","last_reported":1738865521,"current_range_meters":0,"station_id":"","pricing_plan_id":"cebpf4jnsgd1na2vs0mg"},{"bike_id":"7f873232-4598-4c31-9fa1-77204925d563","system_id":"levelo_inurba_marseille","lat":43.25001,"lon":5.38928,"is_reserved":false,"is_disabled":false,"rental_uris":{"android":"levelo://app?vid=7f873232-4598-4c31-9fa1-77204925d563","ios":"levelo://app?vid=7f873232-4598-4c31-9fa1-77204925d563"},"vehicle_type_id":"4","last_reported":1738865521,"current_range_meters":38800,"station_id":"ce4bhgp2rcd13ifvqfd0","pricing_plan_id":"cebpf4jnsgd1na2vs0mg"},{"bike_id":"04543733-9c4c-4530-a572-b5f35e4823fa","system_id":"levelo_inurba_marseille","lat":43.3053,"lon":5.36722,"is_reserved":false,"is_disabled":false,"rental_uris":{"android":"levelo://app?vid=04543733-9c4c-4530-a572-b5f35e4823fa","ios":"levelo://app?vid=04543733-9c4c-4530-a572-b5f35e4823fa"},"vehicle_type_id":"4","last_reported":1738865521,"current_range_meters":38000,"station_id":"ce4bgrp2rcd13ifvqc9g","pricing_plan_id":"cebpf4jnsgd1na2vs0mg"},{"bike_id":"282953a0-0bf5-477a-83af-a3647a6ddf3a","system_id":"levelo_inurba_marseille","lat":43.30885,"lon":5.39647,"is_reserved":false,"is_disabled":false,"rental_uris":{"android":"levelo://app?vid=282953a0-0bf5-477a-83af-a3647a6ddf3a","ios":"levelo://app?vid=282953a0-0bf5-477a-83af-a3647a6ddf3a"},"vehicle_type_id":"4","last_reported":1738865521,"current_range_meters":30000,"station_id":"ce4bh012rcd13ifvqcv0","pricing_plan_id":"cebpf4jnsgd1na2vs0mg"},{"bike_id":"0ae7beaa-00f4-40f6-bfa7-6b4d92723ad7","system_id":"levelo_inurba_marseille","lat":43.29553,"lon":5.42276,"is_reserved":false,"is_disabled":false,"rental_uris":{"android":"levelo://app?vid=0ae7beaa-00f4-40f6-bfa7-6b4d92723ad7","ios":"levelo://app?vid=0ae7beaa-00f4-40f6-bfa7-6b4d92723ad7"},"vehicle_type_id":"4","last_reported":1738865521,"current_range_meters":38800,"station_id":"ce4bhph2rcd13ifvqhdg","pricing_plan_id":"cebpf4jnsgd1na2vs0mg"},{"bike_id":"6468b549-bff2-4d84-b6fb-6f98b7c55796","system_id":"levelo_inurba_marseille","lat":43.30886,"lon":5.39636,"is_reserved":false,"is_disabled":false,"rental_uris":{"android":"levelo://app?vid=6468b549-bff2-4d84-b6fb-6f98b7c55796","ios":"levelo://app?vid=6468b549-bff2-4d84-b6fb-6f98b7c55796"},"vehicle_type_id":"4","last_reported":1738865521,"current_range_meters":36800,"station_id":"ce4bh012rcd13ifvqcv0","pricing_plan_id":"cebpf4jnsgd1na2vs0mg"},{"bike_id":"63c8956c-b2b5-4faa-8b7d-f821c05dd8c4","system_id":"levelo_inurba_marseille","lat":43.260275,"lon":5.37551,"is_reserved":false,"is_disabled":true,"rental_uris":{"android":"levelo://app?vid=63c8956c-b2b5-4faa-8b7d-f821c05dd8c4","ios":"levelo://app?vid=63c8956c-b2b5-4faa-8b7d-f821c05dd8c4"},"vehicle_type_id":"4","last_reported":1738865521,"current_range_meters":8000,"station_id":"","pricing_plan_id":"cebpf4jnsgd1na2vs0mg"},{"bike_id":"f1ebed8b-eba5-4dab-93d5-8c1a70cba92f","system_id":"levelo_inurba_marseille","lat":43.25826,"lon":5.39433,"is_reserved":false,"is_disabled":false,"rental_uris":{"android":"levelo://app?vid=f1ebed8b-eba5-4dab-93d5-8c1a70cba92f","ios":"levelo://app?vid=f1ebed8b-eba5-4dab-93d5-8c1a70cba92f"},"vehicle_type_id":"4","last_reported":1738865521,"current_range_meters":35600,"station_id":"ce4bhip2rcd13ifvqft0","pricing_plan_id":"cebpf4jnsgd1na2vs0mg"},{"bike_id":"436841b0-3661-4dbb-88c4-f6eb9c813f5b","system_id":"levelo_inurba_marseille","lat":43.29288,"lon":5.37433,"is_reserved":false,"is_disabled":true,"rental_uris":{"android":"levelo://app?vid=436841b0-3661-4dbb-88c4-f6eb9c813f5b","ios":"levelo://app?vid=436841b0-3661-4dbb-88c4-f6eb9c813f5b"},"vehicle_type_id":"4","last_reported":1738865521,"current_range_meters":1600,"station_id":"ce4bgi12rcd13ifvqb70","pricing_plan_id":"cebpf4jnsgd1na2vs0mg"},{"bike_id":"3f7ff96d-9623-4aad-b4cc-175dc1dfc2c0","system_id":"levelo_inurba_marseille","lat":43.2842,"lon":5.39186,"is_reserved":false,"is_disabled":false,"rental_uris":{"android":"levelo://app?vid=3f7ff96d-9623-4aad-b4cc-175dc1dfc2c0","ios":"levelo://app?vid=3f7ff96d-9623-4aad-b4cc-175dc1dfc2c0"},"vehicle_type_id":"4","last_reported":1738865521,"current_range_meters":24800,"station_id":"ce4bhoh2rcd13ifvqh5g","pricing_plan_id":"cebpf4jnsgd1na2vs0mg"},{"bike_id":"a7b647d9-1a4b-4ec5-8bea-7b331389070f","system_id":"levelo_inurba_marseille","lat":43.324489,"lon":5.45538,"is_reserved":false,"is_disabled":true,"rental_uris":{"android":"levelo://app?vid=a7b647d9-1a4b-4ec5-8bea-7b331389070f","ios":"levelo://app?vid=a7b647d9-1a4b-4ec5-8bea-7b331389070f"},"vehicle_type_id":"4","last_reported":1738865521,"current_range_meters":14800,"station_id":"","pricing_plan_id":"cebpf4jnsgd1na2vs0mg"},{"bike_id":"1a756986-a670-4019-8587-1ba1d8b20fae","system_id":"levelo_inurba_marseille","lat":43.28936,"lon":5.36392,"is_reserved":false,"is_disabled":false,"rental_uris":{"android":"levelo://app?vid=1a756986-a670-4019-8587-1ba1d8b20fae","ios":"levelo://app?vid=1a756986-a670-4019-8587-1ba1d8b20fae"},"vehicle_type_id":"4","last_reported":1738865521,"current_range_meters":35200,"station_id":"ce4bhc92rcd13ifvqetg","pricing_plan_id":"cebpf4jnsgd1na2vs0mg"},{"bike_id":"507b15d5-ba45-48e8-80b2-0da7459d7c29","system_id":"levelo_inurba_marseille","lat":43.28149,"lon":5.42617,"is_reserved":false,"is_disabled":false,"rental_uris":{"android":"levelo://app?vid=507b15d5-ba45-48e8-80b2-0da7459d7c29","ios":"levelo://app?vid=507b15d5-ba45-48e8-80b2-0da7459d7c29"},"vehicle_type_id":"4","last_reported":1738865521,"current_range_meters":36800,"station_id":"ce4bhnh2rcd13ifvqgug","pricing_plan_id":"cebpf4jnsgd1na2vs0mg"},{"bike_id":"d09a5ec9-24a8-47dc-93a8-fe1773af2ba3","system_id":"levelo_inurba_marseille","lat":43.29784,"lon":5.3934,"is_reserved":false,"is_disabled":false,"rental_uris":{"android":"levelo://app?vid=d09a5ec9-24a8-47dc-93a8-fe1773af2ba3","ios":"levelo://app?vid=d09a5ec9-24a8-47dc-93a8-fe1773af2ba3"},"vehicle_type_id":"4","last_reported":1738865521,"current_range_meters":38000,"station_id":"chh1huq6cuj3fo74tm60","pricing_plan_id":"cebpf4jnsgd1na2vs0mg"},{"bike_id":"969feaef-4bde-4003-b492-3c860b94d6b9","system_id":"levelo_inurba_marseille","lat":43.241682,"lon":5.363927,"is_reserved":false,"is_disabled":false,"rental_uris":{"android":"levelo://app?vid=969feaef-4bde-4003-b492-3c860b94d6b9","ios":"levelo://app?vid=969feaef-4bde-4003-b492-3c860b94d6b9"},"vehicle_type_id":"4","last_reported":1738865521,"current_range_meters":26000,"station_id":"cpo36qri1sfpv3e86is0","pricing_plan_id":"cebpf4jnsgd1na2vs0mg"},{"bike_id":"99c1809b-d2c9-4bbb-8e75-87d758ab24ad","system_id":"levelo_inurba_marseille","lat":43.2307,"lon":5.35499,"is_reserved":false,"is_disabled":false,"rental_uris":{"android":"levelo://app?vid=99c1809b-d2c9-4bbb-8e75-87d758ab24ad","ios":"levelo://app?vid=99c1809b-d2c9-4bbb-8e75-87d758ab24ad"},"vehicle_type_id":"4","last_reported":1738865521,"current_range_meters":17200,"station_id":"cpo3342slgdg3j2ifvpg","pricing_plan_id":"cebpf4jnsgd1na2vs0mg"},{"bike_id":"bccea625-447a-4696-a1d4-40ce5064fe91","system_id":"levelo_inurba_marseille","lat":43.26888,"lon":5.40383,"is_reserved":false,"is_disabled":true,"rental_uris":{"android":"levelo://app?vid=bccea625-447a-4696-a1d4-40ce5064fe91","ios":"levelo://app?vid=bccea625-447a-4696-a1d4-40ce5064fe91"},"vehicle_type_id":"4","last_reported":1738865521,"current_range_meters":400,"station_id":"","pricing_plan_id":"cebpf4jnsgd1na2vs0mg"},{"bike_id":"335f4342-bbca-4c03-b6b1-738712832e20","system_id":"levelo_inurba_marseille","lat":43.28721,"lon":5.360838,"is_reserved":false,"is_disabled":false,"rental_uris":{"android":"levelo://app?vid=335f4342-bbca-4c03-b6b1-738712832e20","ios":"levelo://app?vid=335f4342-bbca-4c03-b6b1-738712832e20"},"vehicle_type_id":"4","last_reported":1738865521,"current_range_meters":39200,"station_id":"cki0cbj6b192h4jlfktg","pricing_plan_id":"cebpf4jnsgd1na2vs0mg"},{"bike_id":"c7fc0d7f-4ca9-4919-aecc-439c87de7f33","system_id":"levelo_inurba_marseille","lat":43.31176,"lon":5.38703,"is_reserved":false,"is_disabled":false,"rental_uris":{"android":"levelo://app?vid=c7fc0d7f-4ca9-4919-aecc-439c87de7f33","ios":"levelo://app?vid=c7fc0d7f-4ca9-4919-aecc-439c87de7f33"},"vehicle_type_id":"4","last_reported":1738865521,"current_range_meters":30800,"station_id":"ce4bgv12rcd13ifvqcp0","pricing_plan_id":"cebpf4jnsgd1na2vs0mg"},{"bike_id":"5b0c2f50-f991-4ce2-962a-5172dccd295b","system_id":"levelo_inurba_marseille","lat":43.31622,"lon":5.38374,"is_reserved":false,"is_disabled":false,"rental_uris":{"android":"levelo://app?vid=5b0c2f50-f991-4ce2-962a-5172dccd295b","ios":"levelo://app?vid=5b0c2f50-f991-4ce2-962a-5172dccd295b"},"vehicle_type_id":"4","last_reported":1738865521,"current_range_meters":24000,"station_id":"","pricing_plan_id":"cebpf4jnsgd1na2vs0mg"},{"bike_id":"d795a45e-215d-4f94-b2ce-e726828b49a5","system_id":"levelo_inurba_marseille","lat":43.24169,"lon":5.36387,"is_reserved":false,"is_disabled":false,"rental_uris":{"android":"levelo://app?vid=d795a45e-215d-4f94-b2ce-e726828b49a5","ios":"levelo://app?vid=d795a45e-215d-4f94-b2ce-e726828b49a5"},"vehicle_type_id":"4","last_reported":1738865521,"current_range_meters":29600,"station_id":"cpo36qri1sfpv3e86is0","pricing_plan_id":"cebpf4jnsgd1na2vs0mg"},{"bike_id":"ee5ccade-f238-41c4-b536-d0ebb9724bf7","system_id":"levelo_inurba_marseille","lat":43.26027,"lon":5.37556,"is_reserved":false,"is_disabled":false,"rental_uris":{"android":"levelo://app?vid=ee5ccade-f238-41c4-b536-d0ebb9724bf7","ios":"levelo://app?vid=ee5ccade-f238-41c4-b536-d0ebb9724bf7"},"vehicle_type_id":"4","last_reported":1738865521,"current_range_meters":38800,"station_id":"ce4bhgh2rcd13ifvqfa0","pricing_plan_id":"cebpf4jnsgd1na2vs0mg"},{"bike_id":"b45f75d1-7c23-49e5-bc2c-7ff74aa245ff","system_id":"levelo_inurba_marseille","lat":43.23186,"lon":5.39986,"is_reserved":false,"is_disabled":false,"rental_uris":{"android":"levelo://app?vid=b45f75d1-7c23-49e5-bc2c-7ff74aa245ff","ios":"levelo://app?vid=b45f75d1-7c23-49e5-bc2c-7ff74aa245ff"},"vehicle_type_id":"4","last_reported":1738865521,"current_range_meters":7200,"station_id":"ce4bhn12rcd13ifvqgqg","pricing_plan_id":"cebpf4jnsgd1na2vs0mg"},{"bike_id":"61da7116-7296-41b4-8f63-4baf4580ff80","system_id":"levelo_inurba_marseille","lat":43.2898,"lon":5.3783,"is_reserved":false,"is_disabled":false,"rental_uris":{"android":"levelo://app?vid=61da7116-7296-41b4-8f63-4baf4580ff80","ios":"levelo://app?vid=61da7116-7296-41b4-8f63-4baf4580ff80"},"vehicle_type_id":"4","last_reported":1738865521,"current_range_meters":16400,"station_id":"ce4bh9p2rcd13ifvqed0","pricing_plan_id":"cebpf4jnsgd1na2vs0mg"},{"bike_id":"0b601d27-6c47-4fd4-9c44-325b36fbe13c","system_id":"levelo_inurba_marseille","lat":43.24397,"lon":5.37053,"is_reserved":false,"is_disabled":false,"rental_uris":{"android":"levelo://app?vid=0b601d27-6c47-4fd4-9c44-325b36fbe13c","ios":"levelo://app?vid=0b601d27-6c47-4fd4-9c44-325b36fbe13c"},"vehicle_type_id":"4","last_reported":1738865521,"current_range_meters":38000,"station_id":"ce4bhhh2rcd13ifvqfk0","pricing_plan_id":"cebpf4jnsgd1na2vs0mg"},{"bike_id":"68362651-8fc8-4e37-88e8-97e488fc82b5","system_id":"levelo_inurba_marseille","lat":43.25584,"lon":5.38238,"is_reserved":false,"is_disabled":false,"rental_uris":{"android":"levelo://app?vid=68362651-8fc8-4e37-88e8-97e488fc82b5","ios":"levelo://app?vid=68362651-8fc8-4e37-88e8-97e488fc82b5"},"vehicle_type_id":"4","last_reported":1738865521,"current_range_meters":39200,"station_id":"ce4bhih2rcd13ifvqfs0","pricing_plan_id":"cebpf4jnsgd1na2vs0mg"},{"bike_id":"c057fc5b-12b4-452b-8b53-634370782623","system_id":"levelo_inurba_marseille","lat":43.28541,"lon":5.37756,"is_reserved":false,"is_disabled":false,"rental_uris":{"android":"levelo://app?vid=c057fc5b-12b4-452b-8b53-634370782623","ios":"levelo://app?vid=c057fc5b-12b4-452b-8b53-634370782623"},