{"last_updated":1745060883,"ttl":60,"version":"2.2","data":{"bikes":[{"bike_id":"7f0bc0d1-c9d8-4ae4-ba3b-8c6339295943","system_id":"levelo_inurba_marseille","lat":43.23145,"lon":5.43712,"is_reserved":false,"is_disabled":true,"rental_uris":{"android":"levelo://app?vid=7f0bc0d1-c9d8-4ae4-ba3b-8c6339295943","ios":"levelo://app?vid=7f0bc0d1-c9d8-4ae4-ba3b-8c6339295943"},"vehicle_type_id":"4","last_reported":1745060883,"current_range_meters":2800,"station_id":"ce4bhmp2rcd13ifvqgog","pricing_plan_id":"cebpf4jnsgd1na2vs0mg"},{"bike_id":"51e1f98e-b2bc-4090-97ee-3486fcb51e47","system_id":"levelo_inurba_marseille","lat":43.29029,"lon":5.38656,"is_reserved":false,"is_disabled":false,"rental_uris":{"android":"levelo://app?vid=51e1f98e-b2bc-4090-97ee-3486fcb51e47","ios":"levelo://app?vid=51e1f98e-b2bc-4090-97ee-3486fcb51e47"},"vehicle_type_id":"4","last_reported":1745060883,"current_range_meters":3200,"station_id":"ce4bh4p2rcd13ifvqe0g","pricing_plan_id":"cebpf4jnsgd1na2vs0mg"},{"bike_id":"f23a8dc8-58ca-4148-9748-3a4d7e9c0d97","system_id":"levelo_inurba_marseille","lat":43.2894,"lon":5.36646,"is_reserved":false,"is_disabled":false,"rental_uris":{"android":"levelo://app?vid=f23a8dc8-58ca-4148-9748-3a4d7e9c0d97","ios":"levelo://app?vid=f23a8dc8-58ca-4148-9748-3a4d7e9c0d97"},"vehicle_type_id":"4","last_reported":1745060883,"current_range_meters":3600,"station_id":"ce4bhap2rcd13ifvqek0","pricing_plan_id":"cebpf4jnsgd1na2vs0mg"},{"bike_id":"54372046-6a26-41ef-a925-ba22d3a3c5f6","system_id":"levelo_inurba_marseille","lat":43.28261,"lon":5.3506,"is_reserved":false,"is_disabled":false,"rental_uris":{"android":"levelo://app?vid=54372046-6a26-41ef-a925-ba22d3a3c5f6","ios":"levelo://app?vid=54372046-6a26-41ef-a925-ba22d3a3c5f6"},"vehicle_type_id":"4","last_reported":1745060883,"current_range_meters":3600,"station_id":"ce4bhbp2rcd13ifvqerg","pricing_plan_id":"cebpf4jnsgd1na2vs0mg"},{"bike_id":"c66bf4ad-07c5-4a49-9d03-35e1d25797da","system_id":"levelo_inurba_marseille","lat":43.23961,"lon":5.36634,"is_reserved":false,"is_disabled":false,"rental_uris":{"android":"levelo://app?vid=c66bf4ad-07c5-4a49-9d03-35e1d25797da","ios":"levelo://app?vid=c66bf4ad-07c5-4a49-9d03-35e1d25797da"},"vehicle_type_id":"4","last_reported":1745060883,"current_range_meters":4800,"station_id":"ce4bhi12rcd13ifvqfp0","pricing_plan_id":"cebpf4jnsgd1na2vs0mg"},{"bike_id":"abd70e71-c44f-4ef5-962a-28e629079420","system_id":"levelo_inurba_marseille","lat":43.26689,"lon":5.38273,"is_reserved":false,"is_disabled":false,"rental_uris":{"android":"levelo://app?vid=abd70e71-c44f-4ef5-962a-28e629079420","ios":"levelo://app?vid=abd70e71-c44f-4ef5-962a-28e629079420"},"vehicle_type_id":"4","last_reported":1745060883,"current_range_meters":4800,"station_id":"ce4bhg92rcd13ifvqf90","pricing_plan_id":"cebpf4jnsgd1na2vs0mg"},{"bike_id":"d202ca57-a645-4c02-ae80-fc111c96b580","system_id":"levelo_inurba_marseille","lat":43.24385,"lon":5.37058,"is_reserved":false,"is_disabled":false,"rental_uris":{"android":"levelo://app?vid=d202ca57-a645-4c02-ae80-fc111c96b580","ios":"levelo://app?vid=d202ca57-a645-4c02-ae80-fc111c96b580"},"vehicle_type_id":"4","last_reported":1745060883,"current_range_meters":5600,"station_id":"ce4bhhh2rcd13ifvqfk0","pricing_plan_id":"cebpf4jnsgd1na2vs0mg"},{"bike_id":"28c95082-c8de-4155-8ae2-bbfd43e6e110","system_id":"levelo_inurba_marseille","lat":43.29618,"lon":5.37165,"is_reserved":false,"is_disabled":false,"rental_uris":{"android":"levelo://app?vid=28c95082-c8de-4155-8ae2-bbfd43e6e110","ios":"levelo://app?vid=28c95082-c8de-4155-8ae2-bbfd43e6e110"},"vehicle_type_id":"4","last_reported":1745060883,"current_range_meters":5600,"station_id":"ce4bgnh2rcd13ifvqc0g","pricing_plan_id":"cebpf4jnsgd1na2vs0mg"},{"bike_id":"759c02fa-e66c-45af-987e-f762aa4e6636","system_id":"levelo_inurba_marseille","lat":43.30321,"lon":5.3691,"is_reserved":false,"is_disabled":false,"rental_uris":{"android":"levelo://app?vid=759c02fa-e66c-45af-987e-f762aa4e6636","ios":"levelo://app?vid=759c02fa-e66c-45af-987e-f762aa4e6636"},"vehicle_type_id":"4","last_reported":1745060883,"current_range_meters":5600,"station_id":"ce4bgqh2rcd13ifvqc5g","pricing_plan_id":"cebpf4jnsgd1na2vs0mg"},{"bike_id":"2765abf3-ddbe-48ad-80fd-7421d9be652e","system_id":"levelo_inurba_marseille","lat":43.2941,"lon":5.3863,"is_reserved":false,"is_disabled":false,"rental_uris":{"android":"levelo://app?vid=2765abf3-ddbe-48ad-80fd-7421d9be652e","ios":"levelo://app?vid=2765abf3-ddbe-48ad-80fd-7421d9be652e"},"vehicle_type_id":"4","last_reported":1745060883,"current_range_meters":5600,"station_id":"ce4bh2h2rcd13ifvqdh0","pricing_plan_id":"cebpf4jnsgd1na2vs0mg"},{"bike_id":"6987c513-b50c-45b1-80e3-356055d982d5","system_id":"levelo_inurba_marseille","lat":43.29961,"lon":5.37735,"is_reserved":false,"is_disabled":true,"rental_uris":{"android":"levelo://app?vid=6987c513-b50c-45b1-80e3-356055d982d5","ios":"levelo://app?vid=6987c513-b50c-45b1-80e3-356055d982d5"},"vehicle_type_id":"4","last_reported":1745060883,"current_range_meters":6000,"station_id":"","pricing_plan_id":"cebpf4jnsgd1na2vs0mg"},{"bike_id":"11973036-ee2a-4056-ab2d-0c81cae98124","system_id":"levelo_inurba_marseille","lat":43.29005,"lon":5.3561,"is_reserved":false,"is_disabled":false,"rental_uris":{"android":"levelo://app?vid=11973036-ee2a-4056-ab2d-0c81cae98124","ios":"levelo://app?vid=11973036-ee2a-4056-ab2d-0c81cae98124"},"vehicle_type_id":"4","last_reported":1745060883,"current_range_meters":6000,"station_id":"ce4bhb92rcd13ifvqen0","pricing_plan_id":"cebpf4jnsgd1na2vs0mg"},{"bike_id":"167ab478-5cf4-4113-91c5-04bcacfa862e","system_id":"levelo_inurba_marseille","lat":43.266785,"lon":5.38274,"is_reserved":false,"is_disabled":false,"rental_uris":{"android":"levelo://app?vid=167ab478-5cf4-4113-91c5-04bcacfa862e","ios":"levelo://app?vid=167ab478-5cf4-4113-91c5-04bcacfa862e"},"vehicle_type_id":"4","last_reported":1745060883,"current_range_meters":6400,"station_id":"ce4bhg92rcd13ifvqf90","pricing_plan_id":"cebpf4jnsgd1na2vs0mg"},{"bike_id":"9da00f29-0652-4ae2-82ff-be099f9d0d82","system_id":"levelo_inurba_marseille","lat":43.29285,"lon":5.36847,"is_reserved":false,"is_disabled":false,"rental_uris":{"android":"levelo://app?vid=9da00f29-0652-4ae2-82ff-be099f9d0d82","ios":"levelo://app?vid=9da00f29-0652-4ae2-82ff-be099f9d0d82"},"vehicle_type_id":"4","last_reported":1745060883,"current_range_meters":6400,"station_id":"ce4bhbp2rcd13ifvqesg","pricing_plan_id":"cebpf4jnsgd1na2vs0mg"},{"bike_id":"f80edf55-75b7-48f1-8770-a2827fd79913","system_id":"levelo_inurba_marseille","lat":43.28074,"lon":5.39637,"is_reserved":false,"is_disabled":false,"rental_uris":{"android":"levelo://app?vid=f80edf55-75b7-48f1-8770-a2827fd79913","ios":"levelo://app?vid=f80edf55-75b7-48f1-8770-a2827fd79913"},"vehicle_type_id":"4","last_reported":1745060883,"current_range_meters":6400,"station_id":"ce4bho12rcd13ifvqh2g","pricing_plan_id":"cebpf4jnsgd1na2vs0mg"},{"bike_id":"da3db9c9-2c3f-4308-ad4c-8d376df3948a","system_id":"levelo_inurba_marseille","lat":43.316623,"lon":5.378167,"is_reserved":false,"is_disabled":false,"rental_uris":{"android":"levelo://app?vid=da3db9c9-2c3f-4308-ad4c-8d376df3948a","ios":"levelo://app?vid=da3db9c9-2c3f-4308-ad4c-8d376df3948a"},"vehicle_type_id":"4","last_reported":1745060883,"current_range_meters":6400,"station_id":"","pricing_plan_id":"cebpf4jnsgd1na2vs0mg"},{"bike_id":"a968bc14-c848-422a-b8e8-61f50cb7032f","system_id":"levelo_inurba_marseille","lat":43.30805,"lon":5.43539,"is_reserved":false,"is_disabled":false,"rental_uris":{"android":"levelo://app?vid=a968bc14-c848-422a-b8e8-61f50cb7032f","ios":"levelo://app?vid=a968bc14-c848-422a-b8e8-61f50cb7032f"},"vehicle_type_id":"4","last_reported":1745060883,"current_range_meters":6400,"station_id":"ce4bhph2rcd13ifvqheg","pricing_plan_id":"cebpf4jnsgd1na2vs0mg"},{"bike_id":"d4d9b665-d4f4-49cf-9dcd-00e920a45b50","system_id":"levelo_inurba_marseille","lat":43.25829,"lon":5.39432,"is_reserved":false,"is_disabled":false,"rental_uris":{"android":"levelo://app?vid=d4d9b665-d4f4-49cf-9dcd-00e920a45b50","ios":"levelo://app?vid=d4d9b665-d4f4-49cf-9dcd-00e920a45b50"},"vehicle_type_id":"4","last_reported":1745060883,"current_range_meters":6400,"station_id":"ce4bhip2rcd13ifvqft0","pricing_plan_id":"cebpf4jnsgd1na2vs0mg"},{"bike_id":"d0693017-3219-4f2c-9252-be27486404d3","system_id":"levelo_inurba_marseille","lat":43.24696,"lon":5.38115,"is_reserved":false,"is_disabled":false,"rental_uris":{"android":"levelo://app?vid=d0693017-3219-4f2c-9252-be27486404d3","ios":"levelo://app?vid=d0693017-3219-4f2c-9252-be27486404d3"},"vehicle_type_id":"4","last_reported":1745060883,"current_range_meters":6800,"station_id":"ce4bhih2rcd13ifvqfr0","pricing_plan_id":"cebpf4jnsgd1na2vs0mg"},{"bike_id":"b0a1bded-1b2c-4242-acc0-c950264c26f6","system_id":"levelo_inurba_marseille","lat":43.30797,"lon":5.37645,"is_reserved":false,"is_disabled":false,"rental_uris":{"android":"levelo://app?vid=b0a1bded-1b2c-4242-acc0-c950264c26f6","ios":"levelo://app?vid=b0a1bded-1b2c-4242-acc0-c950264c26f6"},"vehicle_type_id":"4","last_reported":1745060883,"current_range_meters":6800,"station_id":"ce4bgv92rcd13ifvqcq0","pricing_plan_id":"cebpf4jnsgd1na2vs0mg"},{"bike_id":"1b2fbc27-2bb6-45fc-9836-1b24b2218ed9","system_id":"levelo_inurba_marseille","lat":43.26193,"lon":5.37451,"is_reserved":false,"is_disabled":false,"rental_uris":{"android":"levelo://app?vid=1b2fbc27-2bb6-45fc-9836-1b24b2218ed9","ios":"levelo://app?vid=1b2fbc27-2bb6-45fc-9836-1b24b2218ed9"},"vehicle_type_id":"4","last_reported":1745060883,"current_range_meters":6800,"station_id":"ce4bhgp2rcd13ifvqfc0","pricing_plan_id":"cebpf4jnsgd1na2vs0mg"},{"bike_id":"d61de19d-d2c1-4522-9ef8-fb414bf1294c","system_id":"levelo_inurba_marseille","lat":43.28471,"lon":5.38424,"is_reserved":false,"is_disabled":false,"rental_uris":{"android":"levelo://app?vid=d61de19d-d2c1-4522-9ef8-fb414bf1294c","ios":"levelo://app?vid=d61de19d-d2c1-4522-9ef8-fb414bf1294c"},"vehicle_type_id":"4","last_reported":1745060883,"current_range_meters":6800,"station_id":"ce4bh512rcd13ifvqe3g","pricing_plan_id":"cebpf4jnsgd1na2vs0mg"},{"bike_id":"678d1aa7-dc7f-4ee1-a950-5a4f554ad695","system_id":"levelo_inurba_marseille","lat":43.29815,"lon":5.39332,"is_reserved":false,"is_disabled":true,"rental_uris":{"android":"levelo://app?vid=678d1aa7-dc7f-4ee1-a950-5a4f554ad695","ios":"levelo://app?vid=678d1aa7-dc7f-4ee1-a950-5a4f554ad695"},"vehicle_type_id":"4","last_reported":1745060883,"current_range_meters":6800,"station_id":"chh1huq6cuj3fo74tm60","pricing_plan_id":"cebpf4jnsgd1na2vs0mg"},{"bike_id":"bacb7911-fbdf-476f-906b-14dda2b9167d","system_id":"levelo_inurba_marseille","lat":43.2558,"lon":5.38226,"is_reserved":false,"is_disabled":false,"rental_uris":{"android":"levelo://app?vid=bacb7911-fbdf-476f-906b-14dda2b9167d","ios":"levelo://app?vid=bacb7911-fbdf-476f-906b-14dda2b9167d"},"vehicle_type_id":"4","last_reported":1745060883,"current_range_meters":7200,"station_id":"ce4bhih2rcd13ifvqfs0","pricing_plan_id":"cebpf4jnsgd1na2vs0mg"},{"bike_id":"f2d09a49-02ca-41b9-870e-fdff640473d6","system_id":"levelo_inurba_marseille","lat":43.24185,"lon":5.36402,"is_reserved":false,"is_disabled":false,"rental_uris":{"android":"levelo://app?vid=f2d09a49-02ca-41b9-870e-fdff640473d6","ios":"levelo://app?vid=f2d09a49-02ca-41b9-870e-fdff640473d6"},"vehicle_type_id":"4","last_reported":1745060883,"current_range_meters":7200,"station_id":"cpo36qri1sfpv3e86is0","pricing_plan_id":"cebpf4jnsgd1na2vs0mg"},{"bike_id":"1210dc72-37b8-49f7-b249-6faa54daba28","system_id":"levelo_inurba_marseille","lat":43.32364,"lon":5.36766,"is_reserved":false,"is_disabled":false,"rental_uris":{"android":"levelo://app?vid=1210dc72-37b8-49f7-b249-6faa54daba28","ios":"levelo://app?vid=1210dc72-37b8-49f7-b249-6faa54daba28"},"vehicle_type_id":"4","last_reported":1745060883,"current_range_meters":7200,"station_id":"ce4bhsh2rcd13ifvqi2g","pricing_plan_id":"cebpf4jnsgd1na2vs0mg"},{"bike_id":"a0d26712-d659-41d6-817a-d1559ea43e17","system_id":"levelo_inurba_marseille","lat":43.23965,"lon":5.36624,"is_reserved":false,"is_disabled":false,"rental_uris":{"android":"levelo://app?vid=a0d26712-d659-41d6-817a-d1559ea43e17","ios":"levelo://app?vid=a0d26712-d659-41d6-817a-d1559ea43e17"},"vehicle_type_id":"4","last_reported":1745060883,"current_range_meters":7200,"station_id":"ce4bhi12rcd13ifvqfp0","pricing_plan_id":"cebpf4jnsgd1na2vs0mg"},{"bike_id":"ceccb53e-f407-4874-bbec-f56a430aea7c","system_id":"levelo_inurba_marseille","lat":43.24806,"lon":5.37451,"is_reserved":false,"is_disabled":true,"rental_uris":{"android":"levelo://app?vid=ceccb53e-f407-4874-bbec-f56a430aea7c","ios":"levelo://app?vid=ceccb53e-f407-4874-bbec-f56a430aea7c"},"vehicle_type_id":"4","last_reported":1745060883,"current_range_meters":7200,"station_id":"ce4bhgh2rcd13ifvqfb0","pricing_plan_id":"cebpf4jnsgd1na2vs0mg"},{"bike_id":"60191f64-97b4-4952-8216-9f626d4420e6","system_id":"levelo_inurba_marseille","lat":43.28074,"lon":5.3966,"is_reserved":false,"is_disabled":false,"rental_uris":{"android":"levelo://app?vid=60191f64-97b4-4952-8216-9f626d4420e6","ios":"levelo://app?vid=60191f64-97b4-4952-8216-9f626d4420e6"},"vehicle_type_id":"4","last_reported":1745060883,"current_range_meters":7200,"station_id":"ce4bho12rcd13ifvqh2g","pricing_plan_id":"cebpf4jnsgd1na2vs0mg"},{"bike_id":"38d71541-39fa-44bc-b9fa-dad7cbdc7434","system_id":"levelo_inurba_marseille","lat":43.28763,"lon":5.38629,"is_reserved":false,"is_disabled":false,"rental_uris":{"android":"levelo://app?vid=38d71541-39fa-44bc-b9fa-dad7cbdc7434","ios":"levelo://app?vid=38d71541-39fa-44bc-b9fa-dad7cbdc7434"},"vehicle_type_id":"4","last_reported":1745060883,"current_range_meters":7200,"station_id":"","pricing_plan_id":"cebpf4jnsgd1na2vs0mg"},{"bike_id":"90aa4f1b-9f80-4926-8a6b-bb0dab6df0e1","system_id":"levelo_inurba_marseille","lat":43.26952,"lon":5.38627,"is_reserved":false,"is_disabled":false,"rental_uris":{"android":"levelo://app?vid=90aa4f1b-9f80-4926-8a6b-bb0dab6df0e1","ios":"levelo://app?vid=90aa4f1b-9f80-4926-8a6b-bb0dab6df0e1"},"vehicle_type_id":"4","last_reported":1745060883,"current_range_meters":7200,"station_id":"ce4bhh92rcd13ifvqfh0","pricing_plan_id":"cebpf4jnsgd1na2vs0mg"},{"bike_id":"782da538-2223-4ccd-8232-244cda12462d","system_id":"levelo_inurba_marseille","lat":43.23195,"lon":5.39988,"is_reserved":false,"is_disabled":false,"rental_uris":{"android":"levelo://app?vid=782da538-2223-4ccd-8232-244cda12462d","ios":"levelo://app?vid=782da538-2223-4ccd-8232-244cda12462d"},"vehicle_type_id":"4","last_reported":1745060883,"current_range_meters":8000,"station_id":"ce4bhn12rcd13ifvqgqg","pricing_plan_id":"cebpf4jnsgd1na2vs0mg"},{"bike_id":"cadf646b-3a7e-4b91-bde4-16a8b3864ece","system_id":"levelo_inurba_marseille","lat":43.29569,"lon":5.39963,"is_reserved":false,"is_disabled":false,"rental_uris":{"android":"levelo://app?vid=cadf646b-3a7e-4b91-bde4-16a8b3864ece","ios":"levelo://app?vid=cadf646b-3a7e-4b91-bde4-16a8b3864ece"},"vehicle_type_id":"4","last_reported":1745060883,"current_range_meters":7200,"station_id":"ce4bh312rcd13ifvqdj0","pricing_plan_id":"cebpf4jnsgd1na2vs0mg"},{"bike_id":"5f518b85-4bc7-4fc9-b9c5-5ce31cf652ca","system_id":"levelo_inurba_marseille","lat":43.28475,"lon":5.38427,"is_reserved":false,"is_disabled":true,"rental_uris":{"android":"levelo://app?vid=5f518b85-4bc7-4fc9-b9c5-5ce31cf652ca","ios":"levelo://app?vid=5f518b85-4bc7-4fc9-b9c5-5ce31cf652ca"},"vehicle_type_id":"4","last_reported":1745060883,"current_range_meters":8000,"station_id":"ce4bh512rcd13ifvqe3g","pricing_plan_id":"cebpf4jnsgd1na2vs0mg"},{"bike_id":"c42c97dc-851b-476d-ba23-67d0582febc0","system_id":"levelo_inurba_marseille","lat":43.30315,"lon":5.40439,"is_reserved":false,"is_disabled":true,"rental_uris":{"android":"levelo://app?vid=c42c97dc-851b-476d-ba23-67d0582febc0","ios":"levelo://app?vid=c42c97dc-851b-476d-ba23-67d0582febc0"},"vehicle_type_id":"4","last_reported":1745060883,"current_range_meters":8400,"station_id":"ce4bh012rcd13ifvqd10","pricing_plan_id":"cebpf4jnsgd1na2vs0mg"},{"bike_id":"6c3894bc-d2db-41ef-9ad3-2618f05462a8","system_id":"levelo_inurba_marseille","lat":43.29267,"lon":5.37625,"is_reserved":false,"is_disabled":false,"rental_uris":{"android":"levelo://app?vid=6c3894bc-d2db-41ef-9ad3-2618f05462a8","ios":"levelo://app?vid=6c3894bc-d2db-41ef-9ad3-2618f05462a8"},"vehicle_type_id":"4","last_reported":1745060883,"current_range_meters":8400,"station_id":"ce4bgi12rcd13ifvqb80","pricing_plan_id":"cebpf4jnsgd1na2vs0mg"},{"bike_id":"03acd94d-bdec-42ea-bd4d-b4e2f4327c34","system_id":"levelo_inurba_marseille","lat":43.266854,"lon":5.38271,"is_reserved":false,"is_disabled":false,"rental_uris":{"android":"levelo://app?vid=03acd94d-bdec-42ea-bd4d-b4e2f4327c34","ios":"levelo://app?vid=03acd94d-bdec-42ea-bd4d-b4e2f4327c34"},"vehicle_type_id":"4","last_reported":1745060883,"current_range_meters":8000,"station_id":"ce4bhg92rcd13ifvqf90","pricing_plan_id":"cebpf4jnsgd1na2vs0mg"},{"bike_id":"934a8fc0-98f8-4aaf-a145-d485dee937c7","system_id":"levelo_inurba_marseille","lat":43.32369,"lon":5.36758,"is_reserved":false,"is_disabled":false,"rental_uris":{"android":"levelo://app?vid=934a8fc0-98f8-4aaf-a145-d485dee937c7","ios":"levelo://app?vid=934a8fc0-98f8-4aaf-a145-d485dee937c7"},"vehicle_type_id":"4","last_reported":1745060883,"current_range_meters":8400,"station_id":"ce4bhsh2rcd13ifvqi2g","pricing_plan_id":"cebpf4jnsgd1na2vs0mg"},{"bike_id":"b82e7487-8815-4b1c-aee9-138af389845f","system_id":"levelo_inurba_marseille","lat":43.30258,"lon":5.40082,"is_reserved":false,"is_disabled":false,"rental_uris":{"android":"levelo://app?vid=b82e7487-8815-4b1c-aee9-138af389845f","ios":"levelo://app?vid=b82e7487-8815-4b1c-aee9-138af389845f"},"vehicle_type_id":"4","last_reported":1745060883,"current_range_meters":8800,"station_id":"ce4bgvh2rcd13ifvqcs0","pricing_plan_id":"cebpf4jnsgd1na2vs0mg"},{"bike_id":"3abcd8a1-bc4b-4780-96f7-c41259227a65","system_id":"levelo_inurba_marseille","lat":43.298757,"lon":5.384013,"is_reserved":false,"is_disabled":false,"rental_uris":{"android":"levelo://app?vid=3abcd8a1-bc4b-4780-96f7-c41259227a65","ios":"levelo://app?vid=3abcd8a1-bc4b-4780-96f7-c41259227a65"},"vehicle_type_id":"4","last_reported":1745060883,"current_range_meters":8800,"station_id":"","pricing_plan_id":"cebpf4jnsgd1na2vs0mg"},{"bike_id":"4a86d0f8-ff65-4446-9521-1002867a3da0","system_id":"levelo_inurba_marseille","lat":43.24554,"lon":5.39534,"is_reserved":false,"is_disabled":true,"rental_uris":{"android":"levelo://app?vid=4a86d0f8-ff65-4446-9521-1002867a3da0","ios":"levelo://app?vid=4a86d0f8-ff65-4446-9521-1002867a3da0"},"vehicle_type_id":"4","last_reported":1745060883,"current_range_meters":8800,"station_id":"ce4bhlp2rcd13ifvqgjg","pricing_plan_id":"cebpf4jnsgd1na2vs0mg"},{"bike_id":"8cf4950d-1e34-42dd-8550-0b9b6695ee8c","system_id":"levelo_inurba_marseille","lat":43.2902,"lon":5.38645,"is_reserved":false,"is_disabled":false,"rental_uris":{"android":"levelo://app?vid=8cf4950d-1e34-42dd-8550-0b9b6695ee8c","ios":"levelo://app?vid=8cf4950d-1e34-42dd-8550-0b9b6695ee8c"},"vehicle_type_id":"4","last_reported":1745060883,"current_range_meters":8800,"station_id":"ce4bh4p2rcd13ifvqe0g","pricing_plan_id":"cebpf4jnsgd1na2vs0mg"},{"bike_id":"a0ddb0a5-f7f0-4281-aa27-9e82747cc573","system_id":"levelo_inurba_marseille","lat":43.33754,"lon":5.37491,"is_reserved":false,"is_disabled":false,"rental_uris":{"android":"levelo://app?vid=a0ddb0a5-f7f0-4281-aa27-9e82747cc573","ios":"levelo://app?vid=a0ddb0a5-f7f0-4281-aa27-9e82747cc573"},"vehicle_type_id":"4","last_reported":1745060883,"current_range_meters":8800,"station_id":"","pricing_plan_id":"cebpf4jnsgd1na2vs0mg"},{"bike_id":"b533da40-1ac1-44f8-bd85-fc30198053a2","system_id":"levelo_inurba_marseille","lat":43.2407,"lon":5.37757,"is_reserved":false,"is_disabled":false,"rental_uris":{"android":"levelo://app?vid=b533da40-1ac1-44f8-bd85-fc30198053a2","ios":"levelo://app?vid=b533da40-1ac1-44f8-bd85-fc30198053a2"},"vehicle_type_id":"4","last_reported":1745060883,"current_range_meters":9200,"station_id":"ce4bhnp2rcd13ifvqgvg","pricing_plan_id":"cebpf4jnsgd1na2vs0mg"},{"bike_id":"40cf7771-7bb3-48d5-838e-856dd72c19fd","system_id":"levelo_inurba_marseille","lat":43.2175,"lon":5.34599,"is_reserved":false,"is_disabled":false,"rental_uris":{"android":"levelo://app?vid=40cf7771-7bb3-48d5-838e-856dd72c19fd","ios":"levelo://app?vid=40cf7771-7bb3-48d5-838e-856dd72c19fd"},"vehicle_type_id":"4","last_reported":1745060883,"current_range_meters":9200,"station_id":"","pricing_plan_id":"cebpf4jnsgd1na2vs0mg"},{"bike_id":"da54d534-cdfc-4dbf-9f0d-6cfc2a37323d","system_id":"levelo_inurba_marseille","lat":43.23334,"lon":5.36146,"is_reserved":false,"is_disabled":false,"rental_uris":{"android":"levelo://app?vid=da54d534-cdfc-4dbf-9f0d-6cfc2a37323d","ios":"levelo://app?vid=da54d534-cdfc-4dbf-9f0d-6cfc2a37323d"},"vehicle_type_id":"4","last_reported":1745060883,"current_range_meters":9200,"station_id":"","pricing_plan_id":"cebpf4jnsgd1na2vs0mg"},{"bike_id":"ac110555-ec26-4f4d-a8ad-407e9b9aebe3","system_id":"levelo_inurba_marseille","lat":43.29005,"lon":5.35603,"is_reserved":false,"is_disabled":false,"rental_uris":{"android":"levelo://app?vid=ac110555-ec26-4f4d-a8ad-407e9b9aebe3","ios":"levelo://app?vid=ac110555-ec26-4f4d-a8ad-407e9b9aebe3"},"vehicle_type_id":"4","last_reported":1745060883,"current_range_meters":9600,"station_id":"ce4bhb92rcd13ifvqen0","pricing_plan_id":"cebpf4jnsgd1na2vs0mg"},{"bike_id":"3380ed0a-91f8-4430-98d5-1b26cda6cc90","system_id":"levelo_inurba_marseille","lat":43.25501,"lon":5.3765,"is_reserved":false,"is_disabled":false,"rental_uris":{"android":"levelo://app?vid=3380ed0a-91f8-4430-98d5-1b26cda6cc90","ios":"levelo://app?vid=3380ed0a-91f8-4430-98d5-1b26cda6cc90"},"vehicle_type_id":"4","last_reported":1745060883,"current_range_meters":9600,"station_id":"ce4bhh12rcd13ifvqff0","pricing_plan_id":"cebpf4jnsgd1na2vs0mg"},{"bike_id":"e4f904e3-0059-4ebb-b055-5dce15829d2a","system_id":"levelo_inurba_marseille","lat":43.29571,"lon":5.37518,"is_reserved":false,"is_disabled":false,"rental_uris":{"android":"levelo://app?vid=e4f904e3-0059-4ebb-b055-5dce15829d2a","ios":"levelo://app?vid=e4f904e3-0059-4ebb-b055-5dce15829d2a"},"vehicle_type_id":"4","last_reported":1745060883,"current_range_meters":10000,"station_id":"ce4bgh92rcd13ifvqb50","pricing_plan_id":"cebpf4jnsgd1na2vs0mg"},{"bike_id":"4afbb993-3a66-4342-8cb4-322d4b63dffe","system_id":"levelo_inurba_marseille","lat":43.29618,"lon":5.37717,"is_reserved":false,"is_disabled":false,"rental_uris":{"android":"levelo://app?vid=4afbb993-3a66-4342-8cb4-322d4b63dffe","ios":"levelo://app?vid=4afbb993-3a66-4342-8cb4-322d4b63dffe"},"vehicle_type_id":"4","last_reported":1745060883,"current_range_meters":10000,"station_id":"ce4bgi92rcd13ifvqb90","pricing_plan_id":"cebpf4jnsgd1na2vs0mg"},{"bike_id":"1eaca8f5-0017-418a-9bfc-52185bf67513","system_id":"levelo_inurba_marseille","lat":43.33727,"lon":5.39193,"is_reserved":false,"is_disabled":false,"rental_uris":{"android":"levelo://app?vid=1eaca8f5-0017-418a-9bfc-52185bf67513","ios":"levelo://app?vid=1eaca8f5-0017-418a-9bfc-52185bf67513"},"vehicle_type_id":"4","last_reported":1745060883,"current_range_meters":10800,"station_id":"ce4bhr92rcd13ifvqhsg","pricing_plan_id":"cebpf4jnsgd1na2vs0mg"},{"bike_id":"bd252512-7aef-49a5-b319-c1c41d41e1eb","system_id":"levelo_inurba_marseille","lat":43.27503,"lon":5.42455,"is_reserved":false,"is_disabled":false,"rental_uris":{"android":"levelo://app?vid=bd252512-7aef-49a5-b319-c1c41d41e1eb","ios":"levelo://app?vid=bd252512-7aef-49a5-b319-c1c41d41e1eb"},"vehicle_type_id":"4","last_reported":1745060883,"current_range_meters":10800,"station_id":"ce4bhn92rcd13ifvqgrg","pricing_plan_id":"cebpf4jnsgd1na2vs0mg"},{"bike_id":"3268ab68-b35e-4bd9-95f2-122b2cbfb388","system_id":"levelo_inurba_marseille","lat":43.23194,"lon":5.3555,"is_reserved":false,"is_disabled":false,"rental_uris":{"android":"levelo://app?vid=3268ab68-b35e-4bd9-95f2-122b2cbfb388","ios":"levelo://app?vid=3268ab68-b35e-4bd9-95f2-122b2cbfb388"},"vehicle_type_id":"4","last_reported":1745060883,"current_range_meters":10800,"station_id":"ce4bhu92rcd13ifvqi70","pricing_plan_id":"cebpf4jnsgd1na2vs0mg"},{"bike_id":"de08492d-ffa5-4976-a30b-573408cffcfb","system_id":"levelo_inurba_marseille","lat":43.26183,"lon":5.37453,"is_reserved":false,"is_disabled":false,"rental_uris":{"android":"levelo://app?vid=de08492d-ffa5-4976-a30b-573408cffcfb","ios":"levelo://app?vid=de08492d-ffa5-4976-a30b-573408cffcfb"},"vehicle_type_id":"4","last_reported":1745060883,"current_range_meters":10800,"station_id":"ce4bhgp2rcd13ifvqfc0","pricing_plan_id":"cebpf4jnsgd1na2vs0mg"},{"bike_id":"bf5f7aee-a7e5-4469-bbd9-2accef644f26","system_id":"levelo_inurba_marseille","lat":43.29298,"lon":5.37453,"is_reserved":false,"is_disabled":false,"rental_uris":{"android":"levelo://app?vid=bf5f7aee-a7e5-4469-bbd9-2accef644f26","ios":"levelo://app?vid=bf5f7aee-a7e5-4469-bbd9-2accef644f26"},"vehicle_type_id":"4","last_reported":1745060883,"current_range_meters":10800,"station_id":"ce4bgi12rcd13ifvqb70","pricing_plan_id":"cebpf4jnsgd1na2vs0mg"},{"bike_id":"7eb8853e-3665-40f5-8308-1299f0674652","system_id":"levelo_inurba_marseille","lat":43.30378,"lon":5.42502,"is_reserved":false,"is_disabled":false,"rental_uris":{"android":"levelo://app?vid=7eb8853e-3665-40f5-8308-1299f0674652","ios":"levelo://app?vid=7eb8853e-3665-40f5-8308-1299f0674652"},"vehicle_type_id":"4","last_reported":1745060883,"current_range_meters":10800,"station_id":"ce4bhoh2rcd13ifvqh6g","pricing_plan_id":"cebpf4jnsgd1na2vs0mg"},{"bike_id":"186380b9-3dab-457b-b648-71d123fa0368","system_id":"levelo_inurba_marseille","lat":43.251038,"lon":5.403273,"is_reserved":false,"is_disabled":true,"rental_uris":{"android":"levelo://app?vid=186380b9-3dab-457b-b648-71d123fa0368","ios":"levelo://app?vid=186380b9-3dab-457b-b648-71d123fa0368"},"vehicle_type_id":"4","last_reported":1745060883,"current_range_meters":10800,"station_id":"ce4bhlh2rcd13ifvqgig","pricing_plan_id":"cebpf4jnsgd1na2vs0mg"},{"bike_id":"110c4abb-ffb8-4fd0-ba35-0e68e73379e5","system_id":"levelo_inurba_marseille","lat":43.21724,"lon":5.34618,"is_reserved":false,"is_disabled":false,"rental_uris":{"android":"levelo://app?vid=110c4abb-ffb8-4fd0-ba35-0e68e73379e5","ios":"levelo://app?vid=110c4abb-ffb8-4fd0-ba35-0e68e73379e5"},"vehicle_type_id":"4","last_reported":1745060883,"current_range_meters":10800,"station_id":"","pricing_plan_id":"cebpf4jnsgd1na2vs0mg"},{"bike_id":"216fd791-bd27-43e0-81b0-8747d873bb99","system_id":"levelo_inurba_marseille","lat":43.24067,"lon":5.3776,"is_reserved":false,"is_disabled":false,"rental_uris":{"android":"levelo://app?vid=216fd791-bd27-43e0-81b0-8747d873bb99","ios":"levelo://app?vid=216fd791-bd27-43e0-81b0-8747d873bb99"},"vehicle_type_id":"4","last_reported":1745060883,"current_range_meters":11200,"station_id":"ce4bhnp2rcd13ifvqgvg","pricing_plan_id":"cebpf4jnsgd1na2vs0mg"},{"bike_id":"e6efcb3b-0461-4b14-9400-93f562c4c8c2","system_id":"levelo_inurba_marseille","lat":43.28935,"lon":5.36647,"is_reserved":false,"is_disabled":false,"rental_uris":{"android":"levelo://app?vid=e6efcb3b-0461-4b14-9400-93f562c4c8c2","ios":"levelo://app?vid=e6efcb3b-0461-4b14-9400-93f562c4c8c2"},"vehicle_type_id":"4","last_reported":1745060883,"current_range_meters":11200,"station_id":"ce4bhap2rcd13ifvqek0","pricing_plan_id":"cebpf4jnsgd1na2vs0mg"},{"bike_id":"cd6dba3f-f979-4f4c-8f2b-0f282d942da4","system_id":"levelo_inurba_marseille","lat":43.21752,"lon":5.34599,"is_reserved":false,"is_disabled":false,"rental_uris":{"android":"levelo://app?vid=cd6dba3f-f979-4f4c-8f2b-0f282d942da4","ios":"levelo://app?vid=cd6dba3f-f979-4f4c-8f2b-0f282d942da4"},"vehicle_type_id":"4","last_reported":1745060883,"current_range_meters":11200,"station_id":"","pricing_plan_id":"cebpf4jnsgd1na2vs0mg"},{"bike_id":"32adbfef-9330-405b-8916-6d8ff3cd3a7e","system_id":"levelo_inurba_marseille","lat":43.21187,"lon":5.3507,"is_reserved":false,"is_disabled":false,"rental_uris":{"android":"levelo://app?vid=32adbfef-9330-405b-8916-6d8ff3cd3a7e","ios":"levelo://app?vid=32adbfef-9330-405b-8916-6d8ff3cd3a7e"},"vehicle_type_id":"4","last_reported":1745060883,"current_range_meters":11200,"station_id":"st_cvj6sg6p6f1abm77japg","pricing_plan_id":"cebpf4jnsgd1na2vs0mg"},{"bike_id":"1a54bb11-0d6d-4b8b-a42c-ad27c0d84e75","system_id":"levelo_inurba_marseille","lat":43.29898,"lon":5.43674,"is_reserved":false,"is_disabled":false,"rental_uris":{"android":"levelo://app?vid=1a54bb11-0d6d-4b8b-a42c-ad27c0d84e75","ios":"levelo://app?vid=1a54bb11-0d6d-4b8b-a42c-ad27c0d84e75"},"vehicle_type_id":"4","last_reported":1745060883,"current_range_meters":11600,"station_id":"ce4bhpp2rcd13ifvqhfg","pricing_plan_id":"cebpf4jnsgd1na2vs0mg"},{"bike_id":"baebd87a-d533-41df-8d1c-1a8e62d3b4e8","system_id":"levelo_inurba_marseille","lat":43.29802,"lon":5.36508,"is_reserved":false,"is_disabled":false,"rental_uris":{"android":"levelo://app?vid=baebd87a-d533-41df-8d1c-1a8e62d3b4e8","ios":"levelo://app?vid=baebd87a-d533-41df-8d1c-1a8e62d3b4e8"},"vehicle_type_id":"4","last_reported":1745060883,"current_range_meters":11600,"station_id":"","pricing_plan_id":"cebpf4jnsgd1na2vs0mg"},{"bike_id":"70210e32-a1a4-4540-a105-6743bad77d4c","system_id":"levelo_inurba_marseille","lat":43.24072,"lon":5.37758,"is_reserved":false,"is_disabled":false,"rental_uris":{"android":"levelo://app?vid=70210e32-a1a4-4540-a105-6743bad77d4c","ios":"levelo://app?vid=70210e32-a1a4-4540-a105-6743bad77d4c"},"vehicle_type_id":"4","last_reported":1745060883,"current_range_meters":11600,"station_id":"ce4bhnp2rcd13ifvqgvg","pricing_plan_id":"cebpf4jnsgd1na2vs0mg"},{"bike_id":"15272bd3-686d-4f89-b7cb-d76e72753cce","system_id":"levelo_inurba_marseille","lat":43.21743,"lon":5.34606,"is_reserved":false,"is_disabled":true,"rental_uris":{"android":"levelo://app?vid=15272bd3-686d-4f89-b7cb-d76e72753cce","ios":"levelo://app?vid=15272bd3-686d-4f89-b7cb-d76e72753cce"},"vehicle_type_id":"4","last_reported":1745060883,"current_range_meters":11600,"station_id":"st_cvj6r9ubvosntc0bgbag","pricing_plan_id":"cebpf4jnsgd1na2vs0mg"},{"bike_id":"d33f612a-b5d5-4251-81fb-5a51db4ee1ef","system_id":"levelo_inurba_marseille","lat":43.24678,"lon":5.38164,"is_reserved":false,"is_disabled":false,"rental_uris":{"android":"levelo://app?vid=d33f612a-b5d5-4251-81fb-5a51db4ee1ef","ios":"levelo://app?vid=d33f612a-b5d5-4251-81fb-5a51db4ee1ef"},"vehicle_type_id":"4","last_reported":1745060883,"current_range_meters":12000,"station_id":"ce4bhih2rcd13ifvqfr0","pricing_plan_id":"cebpf4jnsgd1na2vs0mg"},{"bike_id":"904fb01d-7241-46ce-a67c-332bfceba3ad","system_id":"levelo_inurba_marseille","lat":43.28424,"lon":5.34999,"is_reserved":false,"is_disabled":false,"rental_uris":{"android":"levelo://app?vid=904fb01d-7241-46ce-a67c-332bfceba3ad","ios":"levelo://app?vid=904fb01d-7241-46ce-a67c-332bfceba3ad"},"vehicle_type_id":"4","last_reported":1745060883,"current_range_meters":12000,"station_id":"ce4bhbh2rcd13ifvqepg","pricing_plan_id":"cebpf4jnsgd1na2vs0mg"},{"bike_id":"b7974e0c-2fc7-4c70-b248-039a4c339752","system_id":"levelo_inurba_marseille","lat":43.24178,"lon":5.3973,"is_reserved":false,"is_disabled":false,"rental_uris":{"android":"levelo://app?vid=b7974e0c-2fc7-4c70-b248-039a4c339752","ios":"levelo://app?vid=b7974e0c-2fc7-4c70-b248-039a4c339752"},"vehicle_type_id":"4","last_reported":1745060883,"current_range_meters":12000,"station_id":"ce4bhn12rcd13ifvqgpg","pricing_plan_id":"cebpf4jnsgd1na2vs0mg"},{"bike_id":"84ad88af-d8fc-428c-8922-f289d8839d1c","system_id":"levelo_inurba_marseille","lat":43.270045,"lon":5.40258,"is_reserved":false,"is_disabled":false,"rental_uris":{"android":"levelo://app?vid=84ad88af-d8fc-428c-8922-f289d8839d1c","ios":"levelo://app?vid=84ad88af-d8fc-428c-8922-f289d8839d1c"},"vehicle_type_id":"4","last_reported":1745060883,"current_range_meters":12000,"station_id":"ce501612rcd8frsf0b60","pricing_plan_id":"cebpf4jnsgd1na2vs0mg"},{"bike_id":"97e50bb0-9a70-481b-b370-e509345e710a","system_id":"levelo_inurba_marseille","lat":43.2804,"lon":5.36944,"is_reserved":false,"is_disabled":true,"rental_uris":{"android":"levelo://app?vid=97e50bb0-9a70-481b-b370-e509345e710a","ios":"levelo://app?vid=97e50bb0-9a70-481b-b370-e509345e710a"},"vehicle_type_id":"4","last_reported":1745060883,"current_range_meters":12400,"station_id":"ce4bha12rcd13ifvqef0","pricing_plan_id":"cebpf4jnsgd1na2vs0mg"},{"bike_id":"00c2f4d7-da07-489d-8b56-536cf2a498a3","system_id":"levelo_inurba_marseille","lat":43.24673,"lon":5.38158,"is_reserved":false,"is_disabled":false,"rental_uris":{"android":"levelo://app?vid=00c2f4d7-da07-489d-8b56-536cf2a498a3","ios":"levelo://app?vid=00c2f4d7-da07-489d-8b56-536cf2a498a3"},"vehicle_type_id":"4","last_reported":1745060883,"current_range_meters":12400,"station_id":"ce4bhih2rcd13ifvqfr0","pricing_plan_id":"cebpf4jnsgd1na2vs0mg"},{"bike_id":"7b34292a-704c-4644-8c5b-8070a98f3cf7","system_id":"levelo_inurba_marseille","lat":43.2439,"lon":5.37064,"is_reserved":false,"is_disabled":false,"rental_uris":{"android":"levelo://app?vid=7b34292a-704c-4644-8c5b-8070a98f3cf7","ios":"levelo://app?vid=7b34292a-704c-4644-8c5b-8070a98f3cf7"},"vehicle_type_id":"4","last_reported":1745060883,"current_range_meters":12400,"station_id":"ce4bhhh2rcd13ifvqfk0","pricing_plan_id":"cebpf4jnsgd1na2vs0mg"},{"bike_id":"7f44b622-fe66-4447-98b6-d7912a7c91a6","system_id":"levelo_inurba_marseille","lat":43.252338,"lon":5.394617,"is_reserved":false,"is_disabled":false,"rental_uris":{"android":"levelo://app?vid=7f44b622-fe66-4447-98b6-d7912a7c91a6","ios":"levelo://app?vid=7f44b622-fe66-4447-98b6-d7912a7c91a6"},"vehicle_type_id":"4","last_reported":1745060883,"current_range_meters":12400,"station_id":"ce4bhm12rcd13ifvqgkg","pricing_plan_id":"cebpf4jnsgd1na2vs0mg"},{"bike_id":"8fa28d8b-a306-4634-a63f-67977d4df362","system_id":"levelo_inurba_marseille","lat":43.25584,"lon":5.38224,"is_reserved":false,"is_disabled":false,"rental_uris":{"android":"levelo://app?vid=8fa28d8b-a306-4634-a63f-67977d4df362","ios":"levelo://app?vid=8fa28d8b-a306-4634-a63f-67977d4df362"},"vehicle_type_id":"4","last_reported":1745060883,"current_range_meters":12400,"station_id":"ce4bhih2rcd13ifvqfs0","pricing_plan_id":"cebpf4jnsgd1na2vs0mg"},{"bike_id":"3a5e4f5d-359e-4974-ba2f-5cdb545a7560","system_id":"levelo_inurba_marseille","lat":43.29911,"lon":5.38138,"is_reserved":false,"is_disabled":false,"rental_uris":{"android":"levelo://app?vid=3a5e4f5d-359e-4974-ba2f-5cdb545a7560","ios":"levelo://app?vid=3a5e4f5d-359e-4974-ba2f-5cdb545a7560"},"vehicle_type_id":"4","last_reported":1745060883,"current_range_meters":12400,"station_id":"ce4bgj12rcd13ifvqbc0","pricing_plan_id":"cebpf4jnsgd1na2vs0mg"},{"bike_id":"2e01b58f-c7ff-4cdf-8b9e-68de9b92b9bd","system_id":"levelo_inurba_marseille","lat":43.22919,"lon":5.35388,"is_reserved":false,"is_disabled":false,"rental_uris":{"android":"levelo://app?vid=2e01b58f-c7ff-4cdf-8b9e-68de9b92b9bd","ios":"levelo://app?vid=2e01b58f-c7ff-4cdf-8b9e-68de9b92b9bd"},"vehicle_type_id":"4","last_reported":1745060883,"current_range_meters":12800,"station_id":"cpo3532slgdg3j2ikp40","pricing_plan_id":"cebpf4jnsgd1na2vs0mg"},{"bike_id":"40b8da9a-962a-4cfd-9c79-c6121ec122f0","system_id":"levelo_inurba_marseille","lat":43.2869,"lon":5.38657,"is_reserved":false,"is_disabled":true,"rental_uris":{"android":"levelo://app?vid=40b8da9a-962a-4cfd-9c79-c6121ec122f0","ios":"levelo://app?vid=40b8da9a-962a-4cfd-9c79-c6121ec122f0"},"vehicle_type_id":"4","last_reported":1745060883,"current_range_meters":12800,"station_id":"ce4bh492rcd13ifvqdug","pricing_plan_id":"cebpf4jnsgd1na2vs0mg"},{"bike_id":"cde63968-deb1-442c-9b7d-cc5013bb056f","system_id":"levelo_inurba_marseille","lat":43.29577,"lon":5.37519,"is_reserved":false,"is_disabled":false,"rental_uris":{"android":"levelo://app?vid=cde63968-deb1-442c-9b7d-cc5013bb056f","ios":"levelo://app?vid=cde63968-deb1-442c-9b7d-cc5013bb056f"},"vehicle_type_id":"4","last_reported":1745060883,"current_range_meters":12800,"station_id":"ce4bgh92rcd13ifvqb50","pricing_plan_id":"cebpf4jnsgd1na2vs0mg"},{"bike_id":"00c2d630-196a-4c3b-b0a2-c8b7c3e2e869","system_id":"levelo_inurba_marseille","lat":43.29812,"lon":5.38093,"is_reserved":false,"is_disabled":false,"rental_uris":{"android":"levelo://app?vid=00c2d630-196a-4c3b-b0a2-c8b7c3e2e869","ios":"levelo://app?vid=00c2d630-196a-4c3b-b0a2-c8b7c3e2e869"},"vehicle_type_id":"4","last_reported":1745060883,"current_range_meters":12800,"station_id":"ce4bgip2rcd13ifvqbb0","pricing_plan_id":"cebpf4jnsgd1na2vs0mg"},{"bike_id":"b945350f-ae78-44ee-9c51-f181bce8c601","system_id":"levelo_inurba_marseille","lat":43.30095,"lon":5.39086,"is_reserved":false,"is_disabled":false,"rental_uris":{"android":"levelo://app?vid=b945350f-ae78-44ee-9c51-f181bce8c601","ios":"levelo://app?vid=b945350f-ae78-44ee-9c51-f181bce8c601"},"vehicle_type_id":"4","last_reported":1745060883,"current_range_meters":12800,"station_id":"ce4bh192rcd13ifvqdb0","pricing_plan_id":"cebpf4jnsgd1na2vs0mg"},{"bike_id":"dc2fb775-bf84-4d42-9030-f10de43b63ec","system_id":"levelo_inurba_marseille","lat":43.28266,"lon":5.35071,"is_reserved":false,"is_disabled":false,"rental_uris":{"android":"levelo://app?vid=dc2fb775-bf84-4d42-9030-f10de43b63ec","ios":"levelo://app?vid=dc2fb775-bf84-4d42-9030-f10de43b63ec"},"vehicle_type_id":"4","last_reported":1745060883,"current_range_meters":13600,"station_id":"ce4bhbp2rcd13ifvqerg","pricing_plan_id":"cebpf4jnsgd1na2vs0mg"},{"bike_id":"d688fe6e-ff34-41b9-9635-1a1d6493c092","system_id":"levelo_inurba_marseille","lat":43.30151,"lon":5.38071,"is_reserved":false,"is_disabled":false,"rental_uris":{"android":"levelo://app?vid=d688fe6e-ff34-41b9-9635-1a1d6493c092","ios":"levelo://app?vid=d688fe6e-ff34-41b9-9635-1a1d6493c092"},"vehicle_type_id":"4","last_reported":1745060883,"current_range_meters":13600,"station_id":"ce4bgjp2rcd13ifvqbh0","pricing_plan_id":"cebpf4jnsgd1na2vs0mg"},{"bike_id":"19cd9beb-adaf-4129-b085-f902dae7fe37","system_id":"levelo_inurba_marseille","lat":43.286118,"lon":5.370665,"is_reserved":false,"is_disabled":false,"rental_uris":{"android":"levelo://app?vid=19cd9beb-adaf-4129-b085-f902dae7fe37","ios":"levelo://app?vid=19cd9beb-adaf-4129-b085-f902dae7fe37"},"vehicle_type_id":"4","last_reported":1745060883,"current_range_meters":13600,"station_id":"ce4bht12rcd13ifvqi60","pricing_plan_id":"cebpf4jnsgd1na2vs0mg"},{"bike_id":"be25a9ac-da60-452b-958d-e1274123ca63","system_id":"levelo_inurba_marseille","lat":43.26681,"lon":5.38267,"is_reserved":false,"is_disabled":false,"rental_uris":{"android":"levelo://app?vid=be25a9ac-da60-452b-958d-e1274123ca63","ios":"levelo://app?vid=be25a9ac-da60-452b-958d-e1274123ca63"},"vehicle_type_id":"4","last_reported":1745060883,"current_range_meters":13600,"station_id":"ce4bhg92rcd13ifvqf90","pricing_plan_id":"cebpf4jnsgd1na2vs0mg"},{"bike_id":"ffc23a55-3c3f-4179-bc94-84e1d4ad80d6","system_id":"levelo_inurba_marseille","lat":43.22928,"lon":5.35377,"is_reserved":false,"is_disabled":false,"rental_uris":{"android":"levelo://app?vid=ffc23a55-3c3f-4179-bc94-84e1d4ad80d6","ios":"levelo://app?vid=ffc23a55-3c3f-4179-bc94-84e1d4ad80d6"},"vehicle_type_id":"4","last_reported":1745060883,"current_range_meters":13600,"station_id":"cpo3532slgdg3j2ikp40","pricing_plan_id":"cebpf4jnsgd1na2vs0mg"},{"bike_id":"a827af81-901c-418e-9cc3-237c30e51e4b","system_id":"levelo_inurba_marseille","lat":43.23967,"lon":5.36631,"is_reserved":false,"is_disabled":false,"rental_uris":{"android":"levelo://app?vid=a827af81-901c-418e-9cc3-237c30e51e4b","ios":"levelo://app?vid=a827af81-901c-418e-9cc3-237c30e51e4b"},"vehicle_type_id":"4","last_reported":1745060883,"current_range_meters":14000,"station_id":"ce4bhi12rcd13ifvqfp0","pricing_plan_id":"cebpf4jnsgd1na2vs0mg"},{"bike_id":"b61db117-d88c-461a-977f-0d6e9ac7403f","system_id":"levelo_inurba_marseille","lat":43.299532,"lon":5.385112,"is_reserved":false,"is_disabled":false,"rental_uris":{"android":"levelo://app?vid=b61db117-d88c-461a-977f-0d6e9ac7403f","ios":"levelo://app?vid=b61db117-d88c-461a-977f-0d6e9ac7403f"},"vehicle_type_id":"4","last_reported":1745060883,"current_range_meters":14000,"station_id":"ce4bgj92rcd13ifvqbd0","pricing_plan_id":"cebpf4jnsgd1na2vs0mg"},{"bike_id":"8ce28d5f-69bd-4b0b-abd1-db80c1cfb9aa","system_id":"levelo_inurba_marseille","lat":43.27416,"lon":5.39417,"is_reserved":false,"is_disabled":false,"rental_uris":{"android":"levelo://app?vid=8ce28d5f-69bd-4b0b-abd1-db80c1cfb9aa","ios":"levelo://app?vid=8ce28d5f-69bd-4b0b-abd1-db80c1cfb9aa"},"vehicle_type_id":"4","last_reported":1745060883,"current_range_meters":14000,"station_id":"ce4bhdp2rcd13ifvqf20","pricing_plan_id":"cebpf4jnsgd1na2vs0mg"},{"bike_id":"24213b37-b766-4d9c-a174-f6bf34920497","system_id":"levelo_inurba_marseille","lat":43.28469,"lon":5.384178,"is_reserved":false,"is_disabled":false,"rental_uris":{"android":"levelo://app?vid=24213b37-b766-4d9c-a174-f6bf34920497","ios":"levelo://app?vid=24213b37-b766-4d9c-a174-f6bf34920497"},"vehicle_type_id":"4","last_reported":1745060883,"current_range_meters":14400,"station_id":"ce4bh512rcd13ifvqe3g","pricing_plan_id":"cebpf4jnsgd1na2vs0mg"},{"bike_id":"0408fe9d-748b-450e-95a2-63ab2f1cc657","system_id":"levelo_inurba_marseille","lat":43.28158,"lon":5.42642,"is_reserved":false,"is_disabled":false,"rental_uris":{"android":"levelo://app?vid=0408fe9d-748b-450e-95a2-63ab2f1cc657","ios":"levelo://app?vid=0408fe9d-748b-450e-95a2-63ab2f1cc657"},"vehicle_type_id":"4","last_reported":1745060883,"current_range_meters":14400,"station_id":"ce4bhnh2rcd13ifvqgug","pricing_plan_id":"cebpf4jnsgd1na2vs0mg"},{"bike_id":"138c8eef-0928-4f6d-9505-c8780b63f244","system_id":"levelo_inurba_marseille","lat":43.23193,"lon":5.3555,"is_reserved":false,"is_disabled":false,"rental_uris":{"android":"levelo://app?vid=138c8eef-0928-4f6d-9505-c8780b63f244","ios":"levelo://app?vid=138c8eef-0928-4f6d-9505-c8780b63f244"},"vehicle_type_id":"4","last_reported":1745060883,"current_range_meters":14400,"station_id":"ce4bhu92rcd13ifvqi70","pricing_plan_id":"cebpf4jnsgd1na2vs0mg"},{"bike_id":"d1cba264-ee64-45e5-9655-7c30ef1420c0","system_id":"levelo_inurba_marseille","lat":43.26503,"lon":5.39536,"is_reserved":false,"is_disabled":false,"rental_uris":{"android":"levelo://app?vid=d1cba264-ee64-45e5-9655-7c30ef1420c0","ios":"levelo://app?vid=d1cba264-ee64-45e5-9655-7c30ef1420c0"},"vehicle_type_id":"4","last_reported":1745060883,"current_range_meters":14400,"station_id":"ce4bhi12rcd13ifvqfq0","pricing_plan_id":"cebpf4jnsgd1na2vs0mg"},{"bike_id":"873527d0-d009-4ec8-8835-0b0ab6164007","system_id":"levelo_inurba_marseille","lat":43.280211,"lon":5.386672,"is_reserved":false,"is_disabled":false,"rental_uris":{"android":"levelo://app?vid=873527d0-d009-4ec8-8835-0b0ab6164007","ios":"levelo://app?vid=873527d0-d009-4ec8-8835-0b0ab6164007"},"vehicle_type_id":"4","last_reported":1745060883,"current_range_meters":14400,"station_id":"ce4bhg92rcd13ifvqf90","pricing_plan_id":"cebpf4jnsgd1na2vs0mg"},{"bike_id":"4195af50-6415-4ea7-b745-6ec761be4050","system_id":"levelo_inurba_marseille","lat":43.24171,"lon":5.364,"is_reserved":false,"is_disabled":false,"rental_uris":{"android":"levelo://app?vid=4195af50-6415-4ea7-b745-6ec761be4050","ios":"levelo://app?vid=4195af50-6415-4ea7-b745-6ec761be4050"},"vehicle_type_id":"4","last_reported":1745060883,"current_range_meters":14800,"station_id":"cpo36qri1sfpv3e86is0","pricing_plan_id":"cebpf4jnsgd1na2vs0mg"},{"bike_id":"4e6892ef-dbe3-43e4-bc69-b2da5d802c90","system_id":"levelo_inurba_marseille","lat":43.27374,"lon":5.36244,"is_reserved":false,"is_disabled":true,"rental_uris":{"android":"levelo://app?vid=4e6892ef-dbe3-43e4-bc69-b2da5d802c90","ios":"levelo://app?vid=4e6892ef-dbe3-43e4-bc69-b2da5d802c90"},"vehicle_type_id":"4","last_reported":1745060883,"current_range_meters":14800,"station_id":"ce4bhbh2rcd13ifvqeo0","pricing_plan_id":"cebpf4jnsgd1na2vs0mg"},{"bike_id":"6affe129-897f-4d56-81b1-155cca0b618c","system_id":"levelo_inurba_marseille","lat":43.24194,"lon":5.39735,"is_reserved":false,"is_disabled":false,"rental_uris":{"android":"levelo://app?vid=6affe129-897f-4d56-81b1-155cca0b618c","ios":"levelo://app?vid=6affe129-897f-4d56-81b1-155cca0b618c"},"vehicle_type_id":"4","last_reported":1745060883,"current_range_meters":14800,"station_id":"ce4bhn12rcd13ifvqgpg","pricing_plan_id":"cebpf4jnsgd1na2vs0mg"},{"bike_id":"fd472357-c036-4525-98fc-2e9a54f7a5d6","system_id":"levelo_inurba_marseille","lat":43.298763,"lon":5.389048,"is_reserved":false,"is_disabled":false,"rental_uris":{"android":"levelo://app?vid=fd472357-c036-4525-98fc-2e9a54f7a5d6","ios":"levelo://app?vid=fd472357-c036-4525-98fc-2e9a54f7a5d6"},"vehicle_type_id":"4","last_reported":1745060883,"current_range_meters":14800,"station_id":"ce4bh392rcd13ifvqdl0","pricing_plan_id":"cebpf4jnsgd1na2vs0mg"},{"bike_id":"36028acb-1986-4460-84fe-b2aca491647c","system_id":"levelo_inurba_marseille","lat":43.267843,"lon":5.394048,"is_reserved":false,"is_disabled":false,"rental_uris":{"android":"levelo://app?vid=36028acb-1986-4460-84fe-b2aca491647c","ios":"levelo://app?vid=36028acb-1986-4460-84fe-b2aca491647c"},"vehicle_type_id":"4","last_reported":1745060883,"current_range_meters":14800,"station_id":"ce4bhh12rcd13ifvqfg0","pricing_plan_id":"cebpf4jnsgd1na2vs0mg"},{"bike_id":"a70ede09-fd23-44d2-99d0-fc70e8413977","system_id":"levelo_inurba_marseille","lat":43.26614,"lon":5.39044,"is_reserved":false,"is_disabled":false,"rental_uris":{"android":"levelo://app?vid=a70ede09-fd23-44d2-99d0-fc70e8413977","ios":"levelo://app?vid=a70ede09-fd23-44d2-99d0-fc70e8413977"},"vehicle_type_id":"4","last_reported":1745060883,"current_range_meters":15200,"station_id":"ce4bhe12rcd13ifvqf30","pricing_plan_id":"cebpf4jnsgd1na2vs0mg"},{"bike_id":"8b386a13-d7ce-4797-850b-d66b405de4c3","system_id":"levelo_inurba_marseille","lat":43.29614,"lon":5.37517,"is_reserved":false,"is_disabled":false,"rental_uris":{"android":"levelo://app?vid=8b386a13-d7ce-4797-850b-d66b405de4c3","ios":"levelo://app?vid=8b386a13-d7ce-4797-850b-d66b405de4c3"},"vehicle_type_id":"4","last_reported":1745060883,"current_range_meters":16000,"station_id":"ce4bgh92rcd13ifvqb50","pricing_plan_id":"cebpf4jnsgd1na2vs0mg"},{"bike_id":"1fad1949-da2d-4b93-9386-de1f3dc78d1f","system_id":"levelo_inurba_marseille","lat":43.30604,"lon":5.39359,"is_reserved":false,"is_disabled":true,"rental_uris":{"android":"levelo://app?vid=1fad1949-da2d-4b93-9386-de1f3dc78d1f","ios":"levelo://app?vid=1fad1949-da2d-4b93-9386-de1f3dc78d1f"},"vehicle_type_id":"4","last_reported":1745060883,"current_range_meters":16000,"station_id":"ce4bh0p2rcd13ifvqd80","pricing_plan_id":"cebpf4jnsgd1na2vs0mg"},{"bike_id":"49a1d797-b941-4171-af94-57eb3416bda4","system_id":"levelo_inurba_marseille","lat":43.30801,"lon":5.43524,"is_reserved":false,"is_disabled":false,"rental_uris":{"android":"levelo://app?vid=49a1d797-b941-4171-af94-57eb3416bda4","ios":"levelo://app?vid=49a1d797-b941-4171-af94-57eb3416bda4"},"vehicle_type_id":"4","last_reported":1745060883,"current_range_meters":16000,"station_id":"ce4bhph2rcd13ifvqheg","pricing_plan_id":"cebpf4jnsgd1na2vs0mg"},{"bike_id":"44c2515b-ff63-4bac-a0f9-f4fef656ac10","system_id":"levelo_inurba_marseille","lat":43.28424,"lon":5.34999,"is_reserved":false,"is_disabled":false,"rental_uris":{"android":"levelo://app?vid=44c2515b-ff63-4bac-a0f9-f4fef656ac10","ios":"levelo://app?vid=44c2515b-ff63-4bac-a0f9-f4fef656ac10"},"vehicle_type_id":"4","last_reported":1745060883,"current_range_meters":16000,"station_id":"ce4bhbh2rcd13ifvqepg","pricing_plan_id":"cebpf4jnsgd1na2vs0mg"},{"bike_id":"b075c115-a3f9-4f40-83ed-cbc1e8e5f84e","system_id":"levelo_inurba_marseille","lat":43.30545,"lon":5.36687,"is_reserved":false,"is_disabled":true,"rental_uris":{"android":"levelo://app?vid=b075c115-a3f9-4f40-83ed-cbc1e8e5f84e","ios":"levelo://app?vid=b075c115-a3f9-4f40-83ed-cbc1e8e5f84e"},"vehicle_type_id":"4","last_reported":1745060883,"current_range_meters":16000,"station_id":"ce4bgrp2rcd13ifvqc9g","pricing_plan_id":"cebpf4jnsgd1na2vs0mg"},{"bike_id":"1c46e1ef-ecc2-40e9-bb84-3560d46edbc0","system_id":"levelo_inurba_marseille","lat":43.22927,"lon":5.35383,"is_reserved":false,"is_disabled":false,"rental_uris":{"android":"levelo://app?vid=1c46e1ef-ecc2-40e9-bb84-3560d46edbc0","ios":"levelo://app?vid=1c46e1ef-ecc2-40e9-bb84-3560d46edbc0"},"vehicle_type_id":"4","last_reported":1745060883,"current_range_meters":16000,"station_id":"cpo3532slgdg3j2ikp40","pricing_plan_id":"cebpf4jnsgd1na2vs0mg"},{"bike_id":"13b31f8f-095e-4302-ac35-4cfd47f60cb0","system_id":"levelo_inurba_marseille","lat":43.29867,"lon":5.38919,"is_reserved":false,"is_disabled":true,"rental_uris":{"android":"levelo://app?vid=13b31f8f-095e-4302-ac35-4cfd47f60cb0","ios":"levelo://app?vid=13b31f8f-095e-4302-ac35-4cfd47f60cb0"},"vehicle_type_id":"4","last_reported":1745060883,"current_range_meters":16000,"station_id":"ce4bh392rcd13ifvqdl0","pricing_plan_id":"cebpf4jnsgd1na2vs0mg"},{"bike_id":"597236d8-ee38-4d6f-b6ab-d41b8c4bd7ed","system_id":"levelo_inurba_marseille","lat":43.29026,"lon":5.35638,"is_reserved":false,"is_disabled":false,"rental_uris":{"android":"levelo://app?vid=597236d8-ee38-4d6f-b6ab-d41b8c4bd7ed","ios":"levelo://app?vid=597236d8-ee38-4d6f-b6ab-d41b8c4bd7ed"},"vehicle_type_id":"4","last_reported":1745060883,"current_range_meters":16000,"station_id":"ce4bhb92rcd13ifvqen0","pricing_plan_id":"cebpf4jnsgd1na2vs0mg"},{"bike_id":"15572984-94dd-404c-b34b-0eba775da91a","system_id":"levelo_inurba_marseille","lat":43.25018,"lon":5.38923,"is_reserved":false,"is_disabled":false,"rental_uris":{"android":"levelo://app?vid=15572984-94dd-404c-b34b-0eba775da91a","ios":"levelo://app?vid=15572984-94dd-404c-b34b-0eba775da91a"},"vehicle_type_id":"4","last_reported":1745060883,"current_range_meters":16400,"station_id":"ce4bhgp2rcd13ifvqfd0","pricing_plan_id":"cebpf4jnsgd1na2vs0mg"},{"bike_id":"ee98629b-5388-4096-8e72-91c155a49aea","system_id":"levelo_inurba_marseille","lat":43.2958,"lon":5.37511,"is_reserved":false,"is_disabled":false,"rental_uris":{"android":"levelo://app?vid=ee98629b-5388-4096-8e72-91c155a49aea","ios":"levelo://app?vid=ee98629b-5388-4096-8e72-91c155a49aea"},"vehicle_type_id":"4","last_reported":1745060883,"current_range_meters":16400,"station_id":"ce4bgh92rcd13ifvqb50","pricing_plan_id":"cebpf4jnsgd1na2vs0mg"},{"bike_id":"1f0b90b9-30fa-4dd7-b895-745993c01d9e","system_id":"levelo_inurba_marseille","lat":43.301536,"lon":5.380761,"is_reserved":false,"is_disabled":false,"rental_uris":{"android":"levelo://app?vid=1f0b90b9-30fa-4dd7-b895-745993c01d9e","ios":"levelo://app?vid=1f0b90b9-30fa-4dd7-b895-745993c01d9e"},"vehicle_type_id":"4","last_reported":1745060883,"current_range_meters":16400,"station_id":"ce4bgjp2rcd13ifvqbh0","pricing_plan_id":"cebpf4jnsgd1na2vs0mg"},{"bike_id":"a6afc765-5ec8-4f85-93c2-7a32b92a42c5","system_id":"levelo_inurba_marseille","lat":43.248,"lon":5.37477,"is_reserved":false,"is_disabled":false,"rental_uris":{"android":"levelo://app?vid=a6afc765-5ec8-4f85-93c2-7a32b92a42c5","ios":"levelo://app?vid=a6afc765-5ec8-4f85-93c2-7a32b92a42c5"},"vehicle_type_id":"4","last_reported":1745060883,"current_range_meters":16400,"station_id":"ce4bhgh2rcd13ifvqfb0","pricing_plan_id":"cebpf4jnsgd1na2vs0mg"},{"bike_id":"19424b2f-613f-4509-bee5-7831a8ef2e95","system_id":"levelo_inurba_marseille","lat":43.26787,"lon":5.3941,"is_reserved":false,"is_disabled":false,"rental_uris":{"android":"levelo://app?vid=19424b2f-613f-4509-bee5-7831a8ef2e95","ios":"levelo://app?vid=19424b2f-613f-4509-bee5-7831a8ef2e95"},"vehicle_type_id":"4","last_reported":1745060883,"current_range_meters":16400,"station_id":"ce4bhh12rcd13ifvqfg0","pricing_plan_id":"cebpf4jnsgd1na2vs0mg"},{"bike_id":"00879c1d-a962-4133-ba5d-8de0f524e6f5","system_id":"levelo_inurba_marseille","lat":43.27503,"lon":5.42463,"is_reserved":false,"is_disabled":false,"rental_uris":{"android":"levelo://app?vid=00879c1d-a962-4133-ba5d-8de0f524e6f5","ios":"levelo://app?vid=00879c1d-a962-4133-ba5d-8de0f524e6f5"},"vehicle_type_id":"4","last_reported":1745060883,"current_range_meters":16400,"station_id":"ce4bhn92rcd13ifvqgrg","pricing_plan_id":"cebpf4jnsgd1na2vs0mg"},{"bike_id":"0fabe441-18a7-4ca5-b3d6-02a723f7cf99","system_id":"levelo_inurba_marseille","lat":43.22936,"lon":5.35388,"is_reserved":false,"is_disabled":false,"rental_uris":{"android":"levelo://app?vid=0fabe441-18a7-4ca5-b3d6-02a723f7cf99","ios":"levelo://app?vid=0fabe441-18a7-4ca5-b3d6-02a723f7cf99"},"vehicle_type_id":"4","last_reported":1745060883,"current_range_meters":16400,"station_id":"cpo3532slgdg3j2ikp40","pricing_plan_id":"cebpf4jnsgd1na2vs0mg"},{"bike_id":"ce98f9ed-57b3-49be-88aa-3bcd8853be8c","system_id":"levelo_inurba_marseille","lat":43.217492,"lon":5.345987,"is_reserved":false,"is_disabled":false,"rental_uris":{"android":"levelo://app?vid=ce98f9ed-57b3-49be-88aa-3bcd8853be8c","ios":"levelo://app?vid=ce98f9ed-57b3-49be-88aa-3bcd8853be8c"},"vehicle_type_id":"4","last_reported":1745060883,"current_range_meters":16800,"station_id":"","pricing_plan_id":"cebpf4jnsgd1na2vs0mg"},{"bike_id":"de4a1fab-b4ed-4a5e-8907-5790b8555841","system_id":"levelo_inurba_marseille","lat":43.31483,"lon":5.37312,"is_reserved":false,"is_disabled":false,"rental_uris":{"android":"levelo://app?vid=de4a1fab-b4ed-4a5e-8907-5790b8555841","ios":"levelo://app?vid=de4a1fab-b4ed-4a5e-8907-5790b8555841"},"vehicle_type_id":"4","last_reported":1745060883,"current_range_meters":17200,"station_id":"ce4bgt12rcd13ifvqcd0","pricing_plan_id":"cebpf4jnsgd1na2vs0mg"},{"bike_id":"67a0abc2-45b2-4e20-b320-51fa3b21831e","system_id":"levelo_inurba_marseille","lat":43.29268,"lon":5.37617,"is_reserved":false,"is_disabled":false,"rental_uris":{"android":"levelo://app?vid=67a0abc2-45b2-4e20-b320-51fa3b21831e","ios":"levelo://app?vid=67a0abc2-45b2-4e20-b320-51fa3b21831e"},"vehicle_type_id":"4","last_reported":1745060883,"current_range_meters":17200,"station_id":"ce4bgi12rcd13ifvqb80","pricing_plan_id":"cebpf4jnsgd1na2vs0mg"},{"bike_id":"17838dcc-f3d4-409a-a81d-5606207b2e48","system_id":"levelo_inurba_marseille","lat":43.2619,"lon":5.3745,"is_reserved":false,"is_disabled":false,"rental_uris":{"android":"levelo://app?vid=17838dcc-f3d4-409a-a81d-5606207b2e48","ios":"levelo://app?vid=17838dcc-f3d4-409a-a81d-5606207b2e48"},"vehicle_type_id":"4","last_reported":1745060883,"current_range_meters":17200,"station_id":"ce4bhgp2rcd13ifvqfc0","pricing_plan_id":"cebpf4jnsgd1na2vs0mg"},{"bike_id":"e7935cff-94e5-42e9-8307-c580d48ac0f0","system_id":"levelo_inurba_marseille","lat":43.28473,"lon":5.3587,"is_reserved":false,"is_disabled":false,"rental_uris":{"android":"levelo://app?vid=e7935cff-94e5-42e9-8307-c580d48ac0f0","ios":"levelo://app?vid=e7935cff-94e5-42e9-8307-c580d48ac0f0"},"vehicle_type_id":"4","last_reported":1745060883,"current_range_meters":17200,"station_id":"ce4bhah2rcd13ifvqei0","pricing_plan_id":"cebpf4jnsgd1na2vs0mg"},{"bike_id":"3ce33f55-eaea-4767-9178-711f59e9f83b","system_id":"levelo_inurba_marseille","lat":43.21749,"lon":5.34605,"is_reserved":false,"is_disabled":false,"rental_uris":{"android":"levelo://app?vid=3ce33f55-eaea-4767-9178-711f59e9f83b","ios":"levelo://app?vid=3ce33f55-eaea-4767-9178-711f59e9f83b"},"vehicle_type_id":"4","last_reported":1745060883,"current_range_meters":17200,"station_id":"ce4bhb92rcd13ifvqen0","pricing_plan_id":"cebpf4jnsgd1na2vs0mg"},{"bike_id":"a5d5a898-74b6-4240-8b9f-5a2fbd6883bf","system_id":"levelo_inurba_marseille","lat":43.30481,"lon":5.37888,"is_reserved":false,"is_disabled":false,"rental_uris":{"android":"levelo://app?vid=a5d5a898-74b6-4240-8b9f-5a2fbd6883bf","ios":"levelo://app?vid=a5d5a898-74b6-4240-8b9f-5a2fbd6883bf"},"vehicle_type_id":"4","last_reported":1745060883,"current_range_meters":17200,"station_id":"ce4bgup2rcd13ifvqcn0","pricing_plan_id":"cebpf4jnsgd1na2vs0mg"},{"bike_id":"1862e19c-bd64-4aff-b9f1-0272dbf85fa5","system_id":"levelo_inurba_marseille","lat":43.2292,"lon":5.35398,"is_reserved":false,"is_disabled":false,"rental_uris":{"android":"levelo://app?vid=1862e19c-bd64-4aff-b9f1-0272dbf85fa5","ios":"levelo://app?vid=1862e19c-bd64-4aff-b9f1-0272dbf85fa5"},"vehicle_type_id":"4","last_reported":1745060883,"current_range_meters":17600,"station_id":"cpo3532slgdg3j2ikp40","pricing_plan_id":"cebpf4jnsgd1na2vs0mg"},{"bike_id":"dcadee89-c8a6-4313-b793-04e5ea1bd2c7","system_id":"levelo_inurba_marseille","lat":43.28465,"lon":5.3589,"is_reserved":false,"is_disabled":false,"rental_uris":{"android":"levelo://app?vid=dcadee89-c8a6-4313-b793-04e5ea1bd2c7","ios":"levelo://app?vid=dcadee89-c8a6-4313-b793-04e5ea1bd2c7"},"vehicle_type_id":"4","last_reported":1745060883,"current_range_meters":17600,"station_id":"ce4bhah2rcd13ifvqei0","pricing_plan_id":"cebpf4jnsgd1na2vs0mg"},{"bike_id":"ce27d1c0-1a26-4b20-919b-84e9558e9dd0","system_id":"levelo_inurba_marseille","lat":43.2815,"lon":5.42651,"is_reserved":false,"is_disabled":false,"rental_uris":{"android":"levelo://app?vid=ce27d1c0-1a26-4b20-919b-84e9558e9dd0","ios":"levelo://app?vid=ce27d1c0-1a26-4b20-919b-84e9558e9dd0"},"vehicle_type_id":"4","last_reported":1745060883,"current_range_meters":17600,"station_id":"ce4bhnh2rcd13ifvqgug","pricing_plan_id":"cebpf4jnsgd1na2vs0mg"},{"bike_id":"8b7ecac2-bab3-4c15-badb-06f4509df80f","system_id":"levelo_inurba_marseille","lat":43.286019,"lon":5.370433,"is_reserved":false,"is_disabled":false,"rental_uris":{"android":"levelo://app?vid=8b7ecac2-bab3-4c15-badb-06f4509df80f","ios":"levelo://app?vid=8b7ecac2-bab3-4c15-badb-06f4509df80f"},"vehicle_type_id":"4","last_reported":1745060883,"current_range_meters":18000,"station_id":"ce4bht12rcd13ifvqi60","pricing_plan_id":"cebpf4jnsgd1na2vs0mg"},{"bike_id":"6143963f-319d-413f-bf2c-e6baafbf199a","system_id":"levelo_inurba_marseille","lat":43.27317,"lon":5.39077,"is_reserved":false,"is_disabled":false,"rental_uris":{"android":"levelo://app?vid=6143963f-319d-413f-bf2c-e6baafbf199a","ios":"levelo://app?vid=6143963f-319d-413f-bf2c-e6baafbf199a"},"vehicle_type_id":"4","last_reported":1745060883,"current_range_meters":18000,"station_id":"ce4bhgp2rcd13ifvqfe0","pricing_plan_id":"cebpf4jnsgd1na2vs0mg"},{"bike_id":"1301f5c8-854c-4e9b-aba0-90564dfafc5d","system_id":"levelo_inurba_marseille","lat":43.28468,"lon":5.35889,"is_reserved":false,"is_disabled":false,"rental_uris":{"android":"levelo://app?vid=1301f5c8-854c-4e9b-aba0-90564dfafc5d","ios":"levelo://app?vid=1301f5c8-854c-4e9b-aba0-90564dfafc5d"},"vehicle_type_id":"4","last_reported":1745060883,"current_range_meters":18000,"station_id":"ce4bhah2rcd13ifvqei0","pricing_plan_id":"cebpf4jnsgd1na2vs0mg"},{"bike_id":"4658232a-77b6-4679-b12b-266752ae56a6","system_id":"levelo_inurba_marseille","lat":43.21744,"lon":5.34602,"is_reserved":false,"is_disabled":false,"rental_uris":{"android":"levelo://app?vid=4658232a-77b6-4679-b12b-266752ae56a6","ios":"levelo://app?vid=4658232a-77b6-4679-b12b-266752ae56a6"},"vehicle_type_id":"4","last_reported":1745060883,"current_range_meters":18000,"station_id":"","pricing_plan_id":"cebpf4jnsgd1na2vs0mg"},{"bike_id":"d35d0f85-f00c-4a65-b550-2fb004a0ef99","system_id":"levelo_inurba_marseille","lat":43.23972,"lon":5.36618,"is_reserved":false,"is_disabled":false,"rental_uris":{"android":"levelo://app?vid=d35d0f85-f00c-4a65-b550-2fb004a0ef99","ios":"levelo://app?vid=d35d0f85-f00c-4a65-b550-2fb004a0ef99"},"vehicle_type_id":"4","last_reported":1745060883,"current_range_meters":18000,"station_id":"ce4bhi12rcd13ifvqfp0","pricing_plan_id":"cebpf4jnsgd1na2vs0mg"},{"bike_id":"65e1488e-5480-4b90-bd26-ada33787465d","system_id":"levelo_inurba_marseille","lat":43.29271,"lon":5.3763,"is_reserved":false,"is_disabled":false,"rental_uris":{"android":"levelo://app?vid=65e1488e-5480-4b90-bd26-ada33787465d","ios":"levelo://app?vid=65e1488e-5480-4b90-bd26-ada33787465d"},"vehicle_type_id":"4","last_reported":1745060883,"current_range_meters":18000,"station_id":"ce4bgi12rcd13ifvqb80","pricing_plan_id":"cebpf4jnsgd1na2vs0mg"},{"bike_id":"aabcf4c0-9173-4fdc-ad55-e85141e71082","system_id":"levelo_inurba_marseille","lat":43.29006,"lon":5.35613,"is_reserved":false,"is_disabled":false,"rental_uris":{"android":"levelo://app?vid=aabcf4c0-9173-4fdc-ad55-e85141e71082","ios":"levelo://app?vid=aabcf4c0-9173-4fdc-ad55-e85141e71082"},"vehicle_type_id":"4","last_reported":1745060883,"current_range_meters":18800,"station_id":"ce4bhb92rcd13ifvqen0","pricing_plan_id":"cebpf4jnsgd1na2vs0mg"},{"bike_id":"bc13e988-5248-4aa1-83de-ba0e22e6793d","system_id":"levelo_inurba_marseille","lat":43.27489,"lon":5.42463,"is_reserved":false,"is_disabled":false,"rental_uris":{"android":"levelo://app?vid=bc13e988-5248-4aa1-83de-ba0e22e6793d","ios":"levelo://app?vid=bc13e988-5248-4aa1-83de-ba0e22e6793d"},"vehicle_type_id":"4","last_reported":1745060883,"current_range_meters":18800,"station_id":"ce4bhn92rcd13ifvqgrg","pricing_plan_id":"cebpf4jnsgd1na2vs0mg"},{"bike_id":"c698f0fe-d464-42fb-bdba-94280d3468ed","system_id":"levelo_inurba_marseille","lat":43.29615,"lon":5.36712,"is_reserved":false,"is_disabled":false,"rental_uris":{"android":"levelo://app?vid=c698f0fe-d464-42fb-bdba-94280d3468ed","ios":"levelo://app?vid=c698f0fe-d464-42fb-bdba-94280d3468ed"},"vehicle_type_id":"4","last_reported":1745060883,"current_range_meters":18800,"station_id":"ce4bgph2rcd13ifvqc2g","pricing_plan_id":"cebpf4jnsgd1na2vs0mg"},{"bike_id":"56352ad9-530b-4aee-879d-b560c4f43bf5","system_id":"levelo_inurba_marseille","lat":43.25491,"lon":5.37658,"is_reserved":false,"is_disabled":false,"rental_uris":{"android":"levelo://app?vid=56352ad9-530b-4aee-879d-b560c4f43bf5","ios":"levelo://app?vid=56352ad9-530b-4aee-879d-b560c4f43bf5"},"vehicle_type_id":"4","last_reported":1745060883,"current_range_meters":18800,"station_id":"ce4bhh12rcd13ifvqff0","pricing_plan_id":"cebpf4jnsgd1na2vs0mg"},{"bike_id":"fe0d906c-18a4-47fa-96e1-6c88b9eb5396","system_id":"levelo_inurba_marseille","lat":43.2416,"lon":5.3973,"is_reserved":false,"is_disabled":false,"rental_uris":{"android":"levelo://app?vid=fe0d906c-18a4-47fa-96e1-6c88b9eb5396","ios":"levelo://app?vid=fe0d906c-18a4-47fa-96e1-6c88b9eb5396"},"vehicle_type_id":"4","last_reported":1745060883,"current_range_meters":18800,"station_id":"ce4bhn12rcd13ifvqgpg","pricing_plan_id":"cebpf4jnsgd1na2vs0mg"},{"bike_id":"6019390b-7088-4c04-b80b-2acf1cb29041","system_id":"levelo_inurba_marseille","lat":43.29401,"lon":5.41257,"is_reserved":false,"is_disabled":false,"rental_uris":{"android":"levelo://app?vid=6019390b-7088-4c04-b80b-2acf1cb29041","ios":"levelo://app?vid=6019390b-7088-4c04-b80b-2acf1cb29041"},"vehicle_type_id":"4","last_reported":1745060883,"current_range_meters":19200,"station_id":"","pricing_plan_id":"cebpf4jnsgd1na2vs0mg"},{"bike_id":"cccf4278-0b97-430d-8f0f-af7920d18c80","system_id":"levelo_inurba_marseille","lat":43.29592,"lon":5.37695,"is_reserved":false,"is_disabled":false,"rental_uris":{"android":"levelo://app?vid=cccf4278-0b97-430d-8f0f-af7920d18c80","ios":"levelo://app?vid=cccf4278-0b97-430d-8f0f-af7920d18c80"},"vehicle_type_id":"4","last_reported":1745060883,"current_range_meters":19200,"station_id":"ce4bgi92rcd13ifvqb90","pricing_plan_id":"cebpf4jnsgd1na2vs0mg"},{"bike_id":"f8442109-c8ef-48a4-b568-31abb28ea87c","system_id":"levelo_inurba_marseille","lat":43.23206,"lon":5.39958,"is_reserved":false,"is_disabled":false,"rental_uris":{"android":"levelo://app?vid=f8442109-c8ef-48a4-b568-31abb28ea87c","ios":"levelo://app?vid=f8442109-c8ef-48a4-b568-31abb28ea87c"},"vehicle_type_id":"4","last_reported":1745060883,"current_range_meters":19200,"station_id":"ce4bhn12rcd13ifvqgqg","pricing_plan_id":"cebpf4jnsgd1na2vs0mg"},{"bike_id":"0043446f-6269-4fcb-840d-07dea13ec719","system_id":"levelo_inurba_marseille","lat":43.27985,"lon":5.38741,"is_reserved":false,"is_disabled":false,"rental_uris":{"android":"levelo://app?vid=0043446f-6269-4fcb-840d-07dea13ec719","ios":"levelo://app?vid=0043446f-6269-4fcb-840d-07dea13ec719"},"vehicle_type_id":"4","last_reported":1745060883,"current_range_meters":19600,"station_id":"ce4bhg12rcd13ifvqf80","pricing_plan_id":"cebpf4jnsgd1na2vs0mg"},{"bike_id":"d3646cc0-45fc-4663-ac5c-b61f8d0ad0fe","system_id":"levelo_inurba_marseille","lat":43.30553,"lon":5.36535,"is_reserved":false,"is_disabled":false,"rental_uris":{"android":"levelo://app?vid=d3646cc0-45fc-4663-ac5c-b61f8d0ad0fe","ios":"levelo://app?vid=d3646cc0-45fc-4663-ac5c-b61f8d0ad0fe"},"vehicle_type_id":"4","last_reported":1745060883,"current_range_meters":19600,"station_id":"ce4bgs12rcd13ifvqcag","pricing_plan_id":"cebpf4jnsgd1na2vs0mg"},{"bike_id":"dd8b06ed-d5ed-4547-b9c2-1cb249facbee","system_id":"levelo_inurba_marseille","lat":43.28607,"lon":5.3706,"is_reserved":false,"is_disabled":false,"rental_uris":{"android":"levelo://app?vid=dd8b06ed-d5ed-4547-b9c2-1cb249facbee","ios":"levelo://app?vid=dd8b06ed-d5ed-4547-b9c2-1cb249facbee"},"vehicle_type_id":"4","last_reported":1745060883,"current_range_meters":19600,"station_id":"ce4bht12rcd13ifvqi60","pricing_plan_id":"cebpf4jnsgd1na2vs0mg"},{"bike_id":"d5bf3e51-83b4-419b-b784-58ab0f4a9ad2","system_id":"levelo_inurba_marseille","lat":43.217425,"lon":5.345983,"is_reserved":false,"is_disabled":false,"rental_uris":{"android":"levelo://app?vid=d5bf3e51-83b4-419b-b784-58ab0f4a9ad2","ios":"levelo://app?vid=d5bf3e51-83b4-419b-b784-58ab0f4a9ad2"},"vehicle_type_id":"4","last_reported":1745060883,"current_range_meters":19600,"station_id":"","pricing_plan_id":"cebpf4jnsgd1na2vs0mg"},{"bike_id":"f7027e6a-48d2-4cae-b50c-97b01f670552","system_id":"levelo_inurba_marseille","lat":43.23959,"lon":5.36644,"is_reserved":false,"is_disabled":false,"rental_uris":{"android":"levelo://app?vid=f7027e6a-48d2-4cae-b50c-97b01f670552","ios":"levelo://app?vid=f7027e6a-48d2-4cae-b50c-97b01f670552"},"vehicle_type_id":"4","last_reported":1745060883,"current_range_meters":19600,"station_id":"ce4bhi12rcd13ifvqfp0","pricing_plan_id":"cebpf4jnsgd1na2vs0mg"},{"bike_id":"7d28bf23-bfe0-45d0-a2d7-4f2ce3bcb384","system_id":"levelo_inurba_marseille","lat":43.28274,"lon":5.35072,"is_reserved":false,"is_disabled":false,"rental_uris":{"android":"levelo://app?vid=7d28bf23-bfe0-45d0-a2d7-4f2ce3bcb384","ios":"levelo://app?vid=7d28bf23-bfe0-45d0-a2d7-4f2ce3bcb384"},"vehicle_type_id":"4","last_reported":1745060883,"current_range_meters":19600,"station_id":"ce4bhbp2rcd13ifvqerg","pricing_plan_id":"cebpf4jnsgd1na2vs0mg"},{"bike_id":"81ca8029-1b27-4084-98c4-68991eed982a","system_id":"levelo_inurba_marseille","lat":43.24646,"lon":5.3889,"is_reserved":false,"is_disabled":false,"rental_uris":{"android":"levelo://app?vid=81ca8029-1b27-4084-98c4-68991eed982a","ios":"levelo://app?vid=81ca8029-1b27-4084-98c4-68991eed982a"},"vehicle_type_id":"4","last_reported":1745060883,"current_range_meters":19200,"station_id":"ce4bhg12rcd13ifvqf60","pricing_plan_id":"cebpf4jnsgd1na2vs0mg"},{"bike_id":"d53e964c-f934-484c-a259-3e8f23cdd819","system_id":"levelo_inurba_marseille","lat":43.337255,"lon":5.391821,"is_reserved":false,"is_disabled":false,"rental_uris":{"android":"levelo://app?vid=d53e964c-f934-484c-a259-3e8f23cdd819","ios":"levelo://app?vid=d53e964c-f934-484c-a259-3e8f23cdd819"},"vehicle_type_id":"4","last_reported":1745060883,"current_range_meters":20000,"station_id":"ce4bhr92rcd13ifvqhsg","pricing_plan_id":"cebpf4jnsgd1na2vs0mg"},{"bike_id":"9ab40f21-3028-4abd-bfd1-d5184d5bcea3","system_id":"levelo_inurba_marseille","lat":43.27315,"lon":5.3912,"is_reserved":false,"is_disabled":false,"rental_uris":{"android":"levelo://app?vid=9ab40f21-3028-4abd-bfd1-d5184d5bcea3","ios":"levelo://app?vid=9ab40f21-3028-4abd-bfd1-d5184d5bcea3"},"vehicle_type_id":"4","last_reported":1745060883,"current_range_meters":20000,"station_id":"ce4bhgp2rcd13ifvqfe0","pricing_plan_id":"cebpf4jnsgd1na2vs0mg"},{"bike_id":"1ac72f6d-d14e-4a49-b231-f4fedee389f7","system_id":"levelo_inurba_marseille","lat":43.26195,"lon":5.37451,"is_reserved":false,"is_disabled":false,"rental_uris":{"android":"levelo://app?vid=1ac72f6d-d14e-4a49-b231-f4fedee389f7","ios":"levelo://app?vid=1ac72f6d-d14e-4a49-b231-f4fedee389f7"},"vehicle_type_id":"4","last_reported":1745060883,"current_range_meters":20000,"station_id":"ce4bhgp2rcd13ifvqfc0","pricing_plan_id":"cebpf4jnsgd1na2vs0mg"},{"bike_id":"35d163c4-5d99-4110-b43e-8b7ca87002b2","system_id":"levelo_inurba_marseille","lat":43.28843,"lon":5.39308,"is_reserved":false,"is_disabled":false,"rental_uris":{"android":"levelo://app?vid=35d163c4-5d99-4110-b43e-8b7ca87002b2","ios":"levelo://app?vid=35d163c4-5d99-4110-b43e-8b7ca87002b2"},"vehicle_type_id":"4","last_reported":1745060883,"current_range_meters":20000,"station_id":"ce4bh2p2rcd13ifvqdi0","pricing_plan_id":"cebpf4jnsgd1na2vs0mg"},{"bike_id":"0ed64c53-3fe0-4b4c-9f5f-bb86a13a3b6c","system_id":"levelo_inurba_marseille","lat":43.29025,"lon":5.35614,"is_reserved":false,"is_disabled":false,"rental_uris":{"android":"levelo://app?vid=0ed64c53-3fe0-4b4c-9f5f-bb86a13a3b6c","ios":"levelo://app?vid=0ed64c53-3fe0-4b4c-9f5f-bb86a13a3b6c"},"vehicle_type_id":"4","last_reported":1745060883,"current_range_meters":20000,"station_id":"ce4bhb92rcd13ifvqen0","pricing_plan_id":"cebpf4jnsgd1na2vs0mg"},{"bike_id":"a076c957-72ca-40a9-9089-cf0927ff780c","system_id":"levelo_inurba_marseille","lat":43.3149,"lon":5.37315,"is_reserved":false,"is_disabled":false,"rental_uris":{"android":"levelo://app?vid=a076c957-72ca-40a9-9089-cf0927ff780c","ios":"levelo://app?vid=a076c957-72ca-40a9-9089-cf0927ff780c"},"vehicle_type_id":"4","last_reported":1745060883,"current_range_meters":20000,"station_id":"ce4bgt12rcd13ifvqcd0","pricing_plan_id":"cebpf4jnsgd1na2vs0mg"},{"bike_id":"86b57f97-912b-4c2f-82c5-ac2dae2565de","system_id":"levelo_inurba_marseille","lat":43.29847,"lon":5.36275,"is_reserved":false,"is_disabled":false,"rental_uris":{"android":"levelo://app?vid=86b57f97-912b-4c2f-82c5-ac2dae2565de","ios":"levelo://app?vid=86b57f97-912b-4c2f-82c5-ac2dae2565de"},"vehicle_type_id":"4","last_reported":1745060883,"current_range_meters":20400,"station_id":"ce4bhi12rcd13ifvqfp0","pricing_plan_id":"cebpf4jnsgd1na2vs0mg"},{"bike_id":"dc457be4-e210-439b-8819-42eb077a68c6","system_id":"levelo_inurba_marseille","lat":43.29006,"lon":5.35609,"is_reserved":false,"is_disabled":false,"rental_uris":{"android":"levelo://app?vid=dc457be4-e210-439b-8819-42eb077a68c6","ios":"levelo://app?vid=dc457be4-e210-439b-8819-42eb077a68c6"},"vehicle_type_id":"4","last_reported":1745060883,"current_range_meters":20400,"station_id":"ce4bhb92rcd13ifvqen0","pricing_plan_id":"cebpf4jnsgd1na2vs0mg"},{"bike_id":"b8808bd5-b66c-42b1-8122-616501d1d082","system_id":"levelo_inurba_marseille","lat":43.2175,"lon":5.3459,"is_reserved":false,"is_disabled":false,"rental_uris":{"android":"levelo://app?vid=b8808bd5-b66c-42b1-8122-616501d1d082","ios":"levelo://app?vid=b8808bd5-b66c-42b1-8122-616501d1d082"},"vehicle_type_id":"4","last_reported":1745060883,"current_range_meters":20400,"station_id":"st_cvj6r9ubvosntc0bgbag","pricing_plan_id":"cebpf4jnsgd1na2vs0mg"},{"bike_id":"d56342d1-42a9-4a0d-8d32-7746fb6ef985","system_id":"levelo_inurba_marseille","lat":43.30146,"lon":5.38122,"is_reserved":false,"is_disabled":false,"rental_uris":{"android":"levelo://app?vid=d56342d1-42a9-4a0d-8d32-7746fb6ef985","ios":"levelo://app?vid=d56342d1-42a9-4a0d-8d32-7746fb6ef985"},"vehicle_type_id":"4","last_reported":1745060883,"current_range_meters":20800,"station_id":"ce4bgjp2rcd13ifvqbh0","pricing_plan_id":"cebpf4jnsgd1na2vs0mg"},{"bike_id":"48125d32-6e8e-41b3-874c-14873b3cc7af","system_id":"levelo_inurba_marseille","lat":43.28163,"lon":5.42627,"is_reserved":false,"is_disabled":false,"rental_uris":{"android":"levelo://app?vid=48125d32-6e8e-41b3-874c-14873b3cc7af","ios":"levelo://app?vid=48125d32-6e8e-41b3-874c-14873b3cc7af"},"vehicle_type_id":"4","last_reported":1745060883,"current_range_meters":20400,"station_id":"ce4bhnh2rcd13ifvqgug","pricing_plan_id":"cebpf4jnsgd1na2vs0mg"},{"bike_id":"5f5a2218-9aea-45ba-b6b0-5cc309feb693","system_id":"levelo_inurba_marseille","lat":43.2846,"lon":5.35885,"is_reserved":false,"is_disabled":false,"rental_uris":{"android":"levelo://app?vid=5f5a2218-9aea-45ba-b6b0-5cc309feb693","ios":"levelo://app?vid=5f5a2218-9aea-45ba-b6b0-5cc309feb693"},"vehicle_type_id":"4","last_reported":1745060883,"current_range_meters":20800,"station_id":"ce4bhah2rcd13ifvqei0","pricing_plan_id":"cebpf4jnsgd1na2vs0mg"},{"bike_id":"0203ffac-2eec-45d7-85c8-fe64d5f0b05c","system_id":"levelo_inurba_marseille","lat":43.296302,"lon":5.377126,"is_reserved":false,"is_disabled":false,"rental_uris":{"android":"levelo://app?vid=0203ffac-2eec-45d7-85c8-fe64d5f0b05c","ios":"levelo://app?vid=0203ffac-2eec-45d7-85c8-fe64d5f0b05c"},"vehicle_type_id":"4","last_reported":1745060883,"current_range_meters":20800,"station_id":"ce4bgi92rcd13ifvqb90","pricing_plan_id":"cebpf4jnsgd1na2vs0mg"},{"bike_id":"06b4057f-7716-4e88-8471-689774ea7eac","system_id":"levelo_inurba_marseille","lat":43.28475,"lon":5.38417,"is_reserved":false,"is_disabled":false,"rental_uris":{"android":"levelo://app?vid=06b4057f-7716-4e88-8471-689774ea7eac","ios":"levelo://app?vid=06b4057f-7716-4e88-8471-689774ea7eac"},"vehicle_type_id":"4","last_reported":1745060883,"current_range_meters":20800,"station_id":"ce4bh512rcd13ifvqe3g","pricing_plan_id":"cebpf4jnsgd1na2vs0mg"},{"bike_id":"f187a741-29ec-4cdb-8bf9-0c04448b7a86","system_id":"levelo_inurba_marseille","lat":43.24172,"lon":5.39727,"is_reserved":false,"is_disabled":false,"rental_uris":{"android":"levelo://app?vid=f187a741-29ec-4cdb-8bf9-0c04448b7a86","ios":"levelo://app?vid=f187a741-29ec-4cdb-8bf9-0c04448b7a86"},"vehicle_type_id":"4","last_reported":1745060883,"current_range_meters":20800,"station_id":"ce4bhn12rcd13ifvqgpg","pricing_plan_id":"cebpf4jnsgd1na2vs0mg"},{"bike_id":"b41ff6ba-b8e4-4364-81e3-68caec55f315","system_id":"levelo_inurba_marseille","lat":43.29196,"lon":5.39331,"is_reserved":false,"is_disabled":false,"rental_uris":{"android":"levelo://app?vid=b41ff6ba-b8e4-4364-81e3-68caec55f315","ios":"levelo://app?vid=b41ff6ba-b8e4-4364-81e3-68caec55f315"},"vehicle_type_id":"4","last_reported":1745060883,"current_range_meters":20800,"station_id":"ce4bh192rcd13ifvqdd0","pricing_plan_id":"cebpf4jnsgd1na2vs0mg"},{"bike_id":"61e7a4fc-6f7c-4102-a5cd-a78a0decbd3a","system_id":"levelo_inurba_marseille","lat":43.23138,"lon":5.43715,"is_reserved":false,"is_disabled":false,"rental_uris":{"android":"levelo://app?vid=61e7a4fc-6f7c-4102-a5cd-a78a0decbd3a","ios":"levelo://app?vid=61e7a4fc-6f7c-4102-a5cd-a78a0decbd3a"},"vehicle_type_id":"4","last_reported":1745060883,"current_range_meters":20800,"station_id":"ce4bhmp2rcd13ifvqgog","pricing_plan_id":"cebpf4jnsgd1na2vs0mg"},{"bike_id":"210d3669-e710-4cfb-bac4-2059f4fa7eea","system_id":"levelo_inurba_marseille","lat":43.31336,"lon":5.39705,"is_reserved":false,"is_disabled":false,"rental_uris":{"android":"levelo://app?vid=210d3669-e710-4cfb-bac4-2059f4fa7eea","ios":"levelo://app?vid=210d3669-e710-4cfb-bac4-2059f4fa7eea"},"vehicle_type_id":"4","last_reported":1745060883,"current_range_meters":20800,"station_id":"ce4bh2h2rcd13ifvqdh0","pricing_plan_id":"cebpf4jnsgd1na2vs0mg"},{"bike_id":"48005c46-eabc-4ea8-b4de-e287d98d22b5","system_id":"levelo_inurba_marseille","lat":43.23194,"lon":5.35551,"is_reserved":false,"is_disabled":false,"rental_uris":{"android":"levelo://app?vid=48005c46-eabc-4ea8-b4de-e287d98d22b5","ios":"levelo://app?vid=48005c46-eabc-4ea8-b4de-e287d98d22b5"},"vehicle_type_id":"4","last_reported":1745060883,"current_range_meters":20800,"station_id":"ce4bhu92rcd13ifvqi70","pricing_plan_id":"cebpf4jnsgd1na2vs0mg"},{"bike_id":"621651e8-405d-4704-881e-af5f0e2d4d2f","system_id":"levelo_inurba_marseille","lat":43.28475,"lon":5.38433,"is_reserved":false,"is_disabled":false,"rental_uris":{"android":"levelo://app?vid=621651e8-405d-4704-881e-af5f0e2d4d2f","ios":"levelo://app?vid=621651e8-405d-4704-881e-af5f0e2d4d2f"},"vehicle_type_id":"4","last_reported":1745060883,"current_range_meters":21600,"station_id":"ce4bh512rcd13ifvqe3g","pricing_plan_id":"cebpf4jnsgd1na2vs0mg"},{"bike_id":"5d11f732-53ff-4e38-b19f-5b4f1973d946","system_id":"levelo_inurba_marseille","lat":43.29262,"lon":5.37626,"is_reserved":false,"is_disabled":false,"rental_uris":{"android":"levelo://app?vid=5d11f732-53ff-4e38-b19f-5b4f1973d946","ios":"levelo://app?vid=5d11f732-53ff-4e38-b19f-5b4f1973d946"},"vehicle_type_id":"4","last_reported":1745060883,"current_range_meters":21600,"station_id":"ce4bgi12rcd13ifvqb80","pricing_plan_id":"cebpf4jnsgd1na2vs0mg"},{"bike_id":"226c5630-2ddf-4039-99a0-b4656e6d6d68","system_id":"levelo_inurba_marseille","lat":43.24809,"lon":5.37456,"is_reserved":false,"is_disabled":false,"rental_uris":{"android":"levelo://app?vid=226c5630-2ddf-4039-99a0-b4656e6d6d68","ios":"levelo://app?vid=226c5630-2ddf-4039-99a0-b4656e6d6d68"},"vehicle_type_id":"4","last_reported":1745060883,"current_range_meters":21600,"station_id":"ce4bhgh2rcd13ifvqfb0","pricing_plan_id":"cebpf4jnsgd1na2vs0mg"},{"bike_id":"34d3e214-8d88-4340-be3f-f0c8d5eb810e","system_id":"levelo_inurba_marseille","lat":43.24806,"lon":5.37461,"is_reserved":false,"is_disabled":false,"rental_uris":{"android":"levelo://app?vid=34d3e214-8d88-4340-be3f-f0c8d5eb810e","ios":"levelo://app?vid=34d3e214-8d88-4340-be3f-f0c8d5eb810e"},"vehicle_type_id":"4","last_reported":1745060883,"current_range_meters":21600,"station_id":"ce4bhgh2rcd13ifvqfb0","pricing_plan_id":"cebpf4jnsgd1na2vs0mg"},{"bike_id":"9cd66f20-0974-44a3-a00c-3af08e74ebf2","system_id":"levelo_inurba_marseille","lat":43.260163,"lon":5.417504,"is_reserved":false,"is_disabled":false,"rental_uris":{"android":"levelo://app?vid=9cd66f20-0974-44a3-a00c-3af08e74ebf2","ios":"levelo://app?vid=9cd66f20-0974-44a3-a00c-3af08e74ebf2"},"vehicle_type_id":"4","last_reported":1745060883,"current_range_meters":21600,"station_id":"","pricing_plan_id":"cebpf4jnsgd1na2vs0mg"},{"bike_id":"6d10d7a7-6c32-4e1e-8e59-bb1ff89e5fa7","system_id":"levelo_inurba_marseille","lat":43.32356,"lon":5.36745,"is_reserved":false,"is_disabled":false,"rental_uris":{"android":"levelo://app?vid=6d10d7a7-6c32-4e1e-8e59-bb1ff89e5fa7","ios":"levelo://app?vid=6d10d7a7-6c32-4e1e-8e59-bb1ff89e5fa7"},"vehicle_type_id":"4","last_reported":1745060883,"current_range_meters":21600,"station_id":"ce4bhsh2rcd13ifvqi2g","pricing_plan_id":"cebpf4jnsgd1na2vs0mg"},{"bike_id":"5b394266-9662-44fd-acf6-846c9b62b159","system_id":"levelo_inurba_marseille","lat":43.2931,"lon":5.3717,"is_reserved":false,"is_disabled":false,"rental_uris":{"android":"levelo://app?vid=5b394266-9662-44fd-acf6-846c9b62b159","ios":"levelo://app?vid=5b394266-9662-44fd-acf6-846c9b62b159"},"vehicle_type_id":"4","last_reported":1745060883,"current_range_meters":22000,"station_id":"ce4bgh92rcd13ifvqb40","pricing_plan_id":"cebpf4jnsgd1na2vs0mg"},{"bike_id":"58797e32-2008-407a-8b22-6c2c5fbc6257","system_id":"levelo_inurba_marseille","lat":43.284209,"lon":5.349848,"is_reserved":false,"is_disabled":false,"rental_uris":{"android":"levelo://app?vid=58797e32-2008-407a-8b22-6c2c5fbc6257","ios":"levelo://app?vid=58797e32-2008-407a-8b22-6c2c5fbc6257"},"vehicle_type_id":"4","last_reported":1745060883,"current_range_meters":22000,"station_id":"ce4bha92rcd13ifvqeh0","pricing_plan_id":"cebpf4jnsgd1na2vs0mg"},{"bike_id":"fc9e4a0b-cef4-449a-b7db-636c773d6309","system_id":"levelo_inurba_marseille","lat":43.27389,"lon":5.39802,"is_reserved":false,"is_disabled":false,"rental_uris":{"android":"levelo://app?vid=fc9e4a0b-cef4-449a-b7db-636c773d6309","ios":"levelo://app?vid=fc9e4a0b-cef4-449a-b7db-636c773d6309"},"vehicle_type_id":"4","last_reported":1745060883,"current_range_meters":22000,"station_id":"","pricing_plan_id":"cebpf4jnsgd1na2vs0mg"},{"bike_id":"c2fd7da9-2999-4957-bf42-27635f89aacf","system_id":"levelo_inurba_marseille","lat":43.24809,"lon":5.37462,"is_reserved":false,"is_disabled":false,"rental_uris":{"android":"levelo://app?vid=c2fd7da9-2999-4957-bf42-27635f89aacf","ios":"levelo://app?vid=c2fd7da9-2999-4957-bf42-27635f89aacf"},"vehicle_type_id":"4","last_reported":1745060883,"current_range_meters":22000,"station_id":"ce4bhgh2rcd13ifvqfb0","pricing_plan_id":"cebpf4jnsgd1na2vs0mg"},{"bike_id":"a328e0a0-fc98-4a92-9f85-b6d0fe32d766","system_id":"levelo_inurba_marseille","lat":43.32484,"lon":5.36562,"is_reserved":false,"is_disabled":false,"rental_uris":{"android":"levelo://app?vid=a328e0a0-fc98-4a92-9f85-b6d0fe32d766","ios":"levelo://app?vid=a328e0a0-fc98-4a92-9f85-b6d0fe32d766"},"vehicle_type_id":"4","last_reported":1745060883,"current_range_meters":22000,"station_id":"ce4bhs12rcd13ifvqhvg","pricing_plan_id":"cebpf4jnsgd1na2vs0mg"},{"bike_id":"43d16f90-36ad-4f55-8765-f7d472e03959","system_id":"levelo_inurba_marseille","lat":43.323724,"lon":5.367731,"is_reserved":false,"is_disabled":false,"rental_uris":{"android":"levelo://app?vid=43d16f90-36ad-4f55-8765-f7d472e03959","ios":"levelo://app?vid=43d16f90-36ad-4f55-8765-f7d472e03959"},"vehicle_type_id":"4","last_reported":1745060883,"current_range_meters":22000,"station_id":"ce4bhsh2rcd13ifvqi2g","pricing_plan_id":"cebpf4jnsgd1na2vs0mg"},{"bike_id":"d4c6d0c3-0202-41a5-a694-44290daeb0e7","system_id":"levelo_inurba_marseille","lat":43.29519,"lon":5.37488,"is_reserved":false,"is_disabled":false,"rental_uris":{"android":"levelo://app?vid=d4c6d0c3-0202-41a5-a694-44290daeb0e7","ios":"levelo://app?vid=d4c6d0c3-0202-41a5-a694-44290daeb0e7"},"vehicle_type_id":"4","last_reported":1745060883,"current_range_meters":22000,"station_id":"ce4bgkp2rcd13ifvqbmg","pricing_plan_id":"cebpf4jnsgd1na2vs0mg"},{"bike_id":"b8445599-e057-4159-bf7c-189081a210a4","system_id":"levelo_inurba_marseille","lat":43.290079,"lon":5.356146,"is_reserved":false,"is_disabled":false,"rental_uris":{"android":"levelo://app?vid=b8445599-e057-4159-bf7c-189081a210a4","ios":"levelo://app?vid=b8445599-e057-4159-bf7c-189081a210a4"},"vehicle_type_id":"4","last_reported":1745060883,"current_range_meters":22000,"station_id":"ce4bhb92rcd13ifvqen0","pricing_plan_id":"cebpf4jnsgd1na2vs0mg"},{"bike_id":"b0c2c0a2-1d5b-447f-9b41-04f038277e77","system_id":"levelo_inurba_marseille","lat":43.28675,"lon":5.3866,"is_reserved":false,"is_disabled":false,"rental_uris":{"android":"levelo://app?vid=b0c2c0a2-1d5b-447f-9b41-04f038277e77","ios":"levelo://app?vid=b0c2c0a2-1d5b-447f-9b41-04f038277e77"},"vehicle_type_id":"4","last_reported":1745060883,"current_range_meters":22400,"station_id":"ce4bh492rcd13ifvqdug","pricing_plan_id":"cebpf4jnsgd1na2vs0mg"},{"bike_id":"b77962ae-d8d5-47c4-be32-dad5f13623f7","system_id":"levelo_inurba_marseille","lat":43.28459,"lon":5.35888,"is_reserved":false,"is_disabled":false,"rental_uris":{"android":"levelo://app?vid=b77962ae-d8d5-47c4-be32-dad5f13623f7","ios":"levelo://app?vid=b77962ae-d8d5-47c4-be32-dad5f13623f7"},"vehicle_type_id":"4","last_reported":1745060883,"current_range_meters":22400,"station_id":"ce4bhah2rcd13ifvqei0","pricing_plan_id":"cebpf4jnsgd1na2vs0mg"},{"bike_id":"d305c559-8125-4ee9-932c-a4d73f0aab32","system_id":"levelo_inurba_marseille","lat":43.30147,"lon":5.38077,"is_reserved":false,"is_disabled":false,"rental_uris":{"android":"levelo://app?vid=d305c559-8125-4ee9-932c-a4d73f0aab32","ios":"levelo://app?vid=d305c559-8125-4ee9-932c-a4d73f0aab32"},"vehicle_type_id":"4","last_reported":1745060883,"current_range_meters":22400,"station_id":"ce4bgjp2rcd13ifvqbh0","pricing_plan_id":"cebpf4jnsgd1na2vs0mg"},{"bike_id":"6b756a6a-3e2a-4904-8a4d-c16a5babc7ae","system_id":"levelo_inurba_marseille","lat":43.323656,"lon":5.367568,"is_reserved":false,"is_disabled":false,"rental_uris":{"android":"levelo://app?vid=6b756a6a-3e2a-4904-8a4d-c16a5babc7ae","ios":"levelo://app?vid=6b756a6a-3e2a-4904-8a4d-c16a5babc7ae"},"vehicle_type_id":"4","last_reported":1745060883,"current_range_meters":22400,"station_id":"ce4bhsh2rcd13ifvqi2g","pricing_plan_id":"cebpf4jnsgd1na2vs0mg"},{"bike_id":"c2a20a84-78e0-48b0-af08-9859324f3db0","system_id":"levelo_inurba_marseille","lat":43.30143,"lon":5.38079,"is_reserved":false,"is_disabled":false,"rental_uris":{"android":"levelo://app?vid=c2a20a84-78e0-48b0-af08-9859324f3db0","ios":"levelo://app?vid=c2a20a84-78e0-48b0-af08-9859324f3db0"},"vehicle_type_id":"4","last_reported":1745060883,"current_range_meters":22400,"station_id":"ce4bgjp2rcd13ifvqbh0","pricing_plan_id":"cebpf4jnsgd1na2vs0mg"},{"bike_id":"431c287d-79f9-4898-ad96-377a6f26754c","system_id":"levelo_inurba_marseille","lat":43.28425,"lon":5.34981,"is_reserved":false,"is_disabled":false,"rental_uris":{"android":"levelo://app?vid=431c287d-79f9-4898-ad96-377a6f26754c","ios":"levelo://app?vid=431c287d-79f9-4898-ad96-377a6f26754c"},"vehicle_type_id":"4","last_reported":1745060883,"current_range_meters":22800,"station_id":"ce4bhbh2rcd13ifvqepg","pricing_plan_id":"cebpf4jnsgd1na2vs0mg"},{"bike_id":"47cef8a3-5f29-480f-9aa1-5de5048545e9","system_id":"levelo_inurba_marseille","lat":43.27309,"lon":5.39111,"is_reserved":false,"is_disabled":false,"rental_uris":{"android":"levelo://app?vid=47cef8a3-5f29-480f-9aa1-5de5048545e9","ios":"levelo://app?vid=47cef8a3-5f29-480f-9aa1-5de5048545e9"},"vehicle_type_id":"4","last_reported":1745060883,"current_range_meters":22800,"station_id":"ce4bhgp2rcd13ifvqfe0","pricing_plan_id":"cebpf4jnsgd1na2vs0mg"},{"bike_id":"b9c6f319-f10c-4468-89ba-898c39ca9ffa","system_id":"levelo_inurba_marseille","lat":43.28423,"lon":5.34978,"is_reserved":false,"is_disabled":false,"rental_uris":{"android":"levelo://app?vid=b9c6f319-f10c-4468-89ba-898c39ca9ffa","ios":"levelo://app?vid=b9c6f319-f10c-4468-89ba-898c39ca9ffa"},"vehicle_type_id":"4","last_reported":1745060883,"current_range_meters":22800,"station_id":"ce4bhbh2rcd13ifvqepg","pricing_plan_id":"cebpf4jnsgd1na2vs0mg"},{"bike_id":"fdd2561d-6fe8-477b-a369-67c863d13125","system_id":"levelo_inurba_marseille","lat":43.296265,"lon":5.406029,"is_reserved":false,"is_disabled":true,"rental_uris":{"android":"levelo://app?vid=fdd2561d-6fe8-477b-a369-67c863d13125","ios":"levelo://app?vid=fdd2561d-6fe8-477b-a369-67c863d13125"},"vehicle_type_id":"4","last_reported":1745060883,"current_range_meters":22800,"station_id":"ce4bh0h2rcd13ifvqd60","pricing_plan_id":"cebpf4jnsgd1na2vs0mg"},{"bike_id":"249263d9-6cb8-4a28-8ac8-ac5c2f1beae2","system_id":"levelo_inurba_marseille","lat":43.21189,"lon":5.35073,"is_reserved":false,"is_disabled":false,"rental_uris":{"android":"levelo://app?vid=249263d9-6cb8-4a28-8ac8-ac5c2f1beae2","ios":"levelo://app?vid=249263d9-6cb8-4a28-8ac8-ac5c2f1beae2"},"vehicle_type_id":"4","last_reported":1745060883,"current_range_meters":22800,"station_id":"st_cvj6sg6p6f1abm77japg","pricing_plan_id":"cebpf4jnsgd1na2vs0mg"},{"bike_id":"e1f634a6-f5af-4357-8e40-639d1cfcc22f","system_id":"levelo_inurba_marseille","lat":43.29716,"lon":5.36622,"is_reserved":false,"is_disabled":false,"rental_uris":{"android":"levelo://app?vid=e1f634a6-f5af-4357-8e40-639d1cfcc22f","ios":"levelo://app?vid=e1f634a6-f5af-4357-8e40-639d1cfcc22f"},"vehicle_type_id":"4","last_reported":1745060883,"current_range_meters":22800,"station_id":"ce4bgn12rcd13ifvqbt0","pricing_plan_id":"cebpf4jnsgd1na2vs0mg"},{"bike_id":"51bc3827-b153-4b7e-bc38-aa2d18b38c07","system_id":"levelo_inurba_marseille","lat":43.23967,"lon":5.36624,"is_reserved":false,"is_disabled":false,"rental_uris":{"android":"levelo://app?vid=51bc3827-b153-4b7e-bc38-aa2d18b38c07","ios":"levelo://app?vid=51bc3827-b153-4b7e-bc38-aa2d18b38c07"},"vehicle_type_id":"4","last_reported":1745060883,"current_range_meters":22800,"station_id":"ce4bhi12rcd13ifvqfp0","pricing_plan_id":"cebpf4jnsgd1na2vs0mg"},{"bike_id":"c0e0ba24-a93e-4d8f-ae3a-85a5a9197456","system_id":"levelo_inurba_marseille","lat":43.23966,"lon":5.36582,"is_reserved":false,"is_disabled":false,"rental_uris":{"android":"levelo://app?vid=c0e0ba24-a93e-4d8f-ae3a-85a5a9197456","ios":"levelo://app?vid=c0e0ba24-a93e-4d8f-ae3a-85a5a9197456"},"vehicle_type_id":"4","last_reported":1745060883,"current_range_meters":22800,"station_id":"ce4bhi12rcd13ifvqfp0","pricing_plan_id":"cebpf4jnsgd1na2vs0mg"},{"bike_id":"c8e1be64-08a9-482b-9907-53af9dbc1ade","system_id":"levelo_inurba_marseille","lat":43.295727,"lon":5.37512,"is_reserved":false,"is_disabled":false,"rental_uris":{"android":"levelo://app?vid=c8e1be64-08a9-482b-9907-53af9dbc1ade","ios":"levelo://app?vid=c8e1be64-08a9-482b-9907-53af9dbc1ade"},"vehicle_type_id":"4","last_reported":1745060883,"current_range_meters":23200,"station_id":"ce4bgh92rcd13ifvqb50","pricing_plan_id":"cebpf4jnsgd1na2vs0mg"},{"bike_id":"cf41f844-1b9e-445c-b3d7-62c0a3f36ee1","system_id":"levelo_inurba_marseille","lat":43.29577,"lon":5.36743,"is_reserved":false,"is_disabled":false,"rental_uris":{"android":"levelo://app?vid=cf41f844-1b9e-445c-b3d7-62c0a3f36ee1","ios":"levelo://app?vid=cf41f844-1b9e-445c-b3d7-62c0a3f36ee1"},"vehicle_type_id":"4","last_reported":1745060883,"current_range_meters":23200,"station_id":"ce4bgph2rcd13ifvqc2g","pricing_plan_id":"cebpf4jnsgd1na2vs0mg"},{"bike_id":"91db7cc5-4cb8-4d8e-a156-89beb883420e","system_id":"levelo_inurba_marseille","lat":43.30142,"lon":5.37403,"is_reserved":false,"is_disabled":false,"rental_uris":{"android":"levelo://app?vid=91db7cc5-4cb8-4d8e-a156-89beb883420e","ios":"levelo://app?vid=91db7cc5-4cb8-4d8e-a156-89beb883420e"},"vehicle_type_id":"4","last_reported":1745060883,"current_range_meters":23200,"station_id":"ce4bgs92rcd13ifvqcc0","pricing_plan_id":"cebpf4jnsgd1na2vs0mg"},{"bike_id":"3e3c8c50-0433-4468-9b5f-71ae2ad7c709","system_id":"levelo_inurba_marseille","lat":43.32359,"lon":5.36745,"is_reserved":false,"is_disabled":false,"rental_uris":{"android":"levelo://app?vid=3e3c8c50-0433-4468-9b5f-71ae2ad7c709","ios":"levelo://app?vid=3e3c8c50-0433-4468-9b5f-71ae2ad7c709"},"vehicle_type_id":"4","last_reported":1745060883,"current_range_meters":23200,"station_id":"ce4bhsh2rcd13ifvqi2g","pricing_plan_id":"cebpf4jnsgd1na2vs0mg"},{"bike_id":"79794525-a122-4760-b336-3ca5b84a9c19","system_id":"levelo_inurba_marseille","lat":43.296023,"lon":5.380949,"is_reserved":false,"is_disabled":false,"rental_uris":{"android":"levelo://app?vid=79794525-a122-4760-b336-3ca5b84a9c19","ios":"levelo://app?vid=79794525-a122-4760-b336-3ca5b84a9c19"},"vehicle_type_id":"4","last_reported":1745060883,"current_range_meters":23200,"station_id":"ce4bgl12rcd13ifvqbo0","pricing_plan_id":"cebpf4jnsgd1na2vs0mg"},{"bike_id":"06172e70-0cbd-405d-86c8-6ec998258388","system_id":"levelo_inurba_marseille","lat":43.23961,"lon":5.36628,"is_reserved":false,"is_disabled":false,"rental_uris":{"android":"levelo://app?vid=06172e70-0cbd-405d-86c8-6ec998258388","ios":"levelo://app?vid=06172e70-0cbd-405d-86c8-6ec998258388"},"vehicle_type_id":"4","last_reported":1745060883,"current_range_meters":23200,"station_id":"ce4bhi12rcd13ifvqfp0","pricing_plan_id":"cebpf4jnsgd1na2vs0mg"},{"bike_id":"8de7f0b2-3ded-492b-a766-05fddb8e53ab","system_id":"levelo_inurba_marseille","lat":43.28418,"lon":5.349711,"is_reserved":false,"is_disabled":false,"rental_uris":{"android":"levelo://app?vid=8de7f0b2-3ded-492b-a766-05fddb8e53ab","ios":"levelo://app?vid=8de7f0b2-3ded-492b-a766-05fddb8e53ab"},"vehicle_type_id":"4","last_reported":1745060883,"current_range_meters":23200,"station_id":"ce4bh492rcd13ifvqdug","pricing_plan_id":"cebpf4jnsgd1na2vs0mg"},{"bike_id":"16597d02-1710-4246-a147-ff8aff77958c","system_id":"levelo_inurba_marseille","lat":43.25577,"lon":5.38224,"is_reserved":false,"is_disabled":false,"rental_uris":{"android":"levelo://app?vid=16597d02-1710-4246-a147-ff8aff77958c","ios":"levelo://app?vid=16597d02-1710-4246-a147-ff8aff77958c"},"vehicle_type_id":"4","last_reported":1745060883,"current_range_meters":23200,"station_id":"ce4bhih2rcd13ifvqfs0","pricing_plan_id":"cebpf4jnsgd1na2vs0mg"},{"bike_id":"06426a6f-3608-4057-b2dd-7b9d45717656","system_id":"levelo_inurba_marseille","lat":43.29551,"lon":5.37503,"is_reserved":false,"is_disabled":false,"rental_uris":{"android":"levelo://app?vid=06426a6f-3608-4057-b2dd-7b9d45717656","ios":"levelo://app?vid=06426a6f-3608-4057-b2dd-7b9d45717656"},"vehicle_type_id":"4","last_reported":1745060883,"current_range_meters":24000,"station_id":"ce4bgkp2rcd13ifvqbmg","pricing_plan_id":"cebpf4jnsgd1na2vs0mg"},{"bike_id":"f16207f7-8bb1-4752-af1b-569fdd0f0519","system_id":"levelo_inurba_marseille","lat":43.31063,"lon":5.383545,"is_reserved":false,"is_disabled":false,"rental_uris":{"android":"levelo://app?vid=f16207f7-8bb1-4752-af1b-569fdd0f0519","ios":"levelo://app?vid=f16207f7-8bb1-4752-af1b-569fdd0f0519"},"vehicle_type_id":"4","last_reported":1745060883,"current_range_meters":24000,"station_id":"","pricing_plan_id":"cebpf4jnsgd1na2vs0mg"},{"bike_id":"31135c95-7586-4287-904a-b175916669a9","system_id":"levelo_inurba_marseille","lat":43.29014,"lon":5.35612,"is_reserved":false,"is_disabled":false,"rental_uris":{"android":"levelo://app?vid=31135c95-7586-4287-904a-b175916669a9","ios":"levelo://app?vid=31135c95-7586-4287-904a-b175916669a9"},"vehicle_type_id":"4","last_reported":1745060883,"current_range_meters":24000,"station_id":"ce4bhb92rcd13ifvqen0","pricing_plan_id":"cebpf4jnsgd1na2vs0mg"},{"bike_id":"facc8aa7-ceef-420d-98c4-0d7f9d1f826b","system_id":"levelo_inurba_marseille","lat":43.3152,"lon":5.37236,"is_reserved":false,"is_disabled":false,"rental_uris":{"android":"levelo://app?vid=facc8aa7-ceef-420d-98c4-0d7f9d1f826b","ios":"levelo://app?vid=facc8aa7-ceef-420d-98c4-0d7f9d1f826b"},"vehicle_type_id":"4","last_reported":1745060883,"current_range_meters":24000,"station_id":"ce4bgt12rcd13ifvqcd0","pricing_plan_id":"cebpf4jnsgd1na2vs0mg"},{"bike_id":"27d3be90-b5b6-4055-9bed-f6401ee79fb4","system_id":"levelo_inurba_marseille","lat":43.26502,"lon":5.39537,"is_reserved":false,"is_disabled":false,"rental_uris":{"android":"levelo://app?vid=27d3be90-b5b6-4055-9bed-f6401ee79fb4","ios":"levelo://app?vid=27d3be90-b5b6-4055-9bed-f6401ee79fb4"},"vehicle_type_id":"4","last_reported":1745060883,"current_range_meters":24000,"station_id":"ce4bhi12rcd13ifvqfq0","pricing_plan_id":"cebpf4jnsgd1na2vs0mg"},{"bike_id":"e121e0f7-94f5-4477-a572-cce28884beec","system_id":"levelo_inurba_marseille","lat":43.324646,"lon":5.365479,"is_reserved":false,"is_disabled":false,"rental_uris":{"android":"levelo://app?vid=e121e0f7-94f5-4477-a572-cce28884beec","ios":"levelo://app?vid=e121e0f7-94f5-4477-a572-cce28884beec"},"vehicle_type_id":"4","last_reported":1745060883,"current_range_meters":24000,"station_id":"ce4bhs12rcd13ifvqhvg","pricing_plan_id":"cebpf4jnsgd1na2vs0mg"},{"bike_id":"b25e565a-d6f8-403f-95e5-cf6bbeeb2a95","system_id":"levelo_inurba_marseille","lat":43.241686,"lon":5.3639,"is_reserved":false,"is_disabled":false,"rental_uris":{"android":"levelo://app?vid=b25e565a-d6f8-403f-95e5-cf6bbeeb2a95","ios":"levelo://app?vid=b25e565a-d6f8-403f-95e5-cf6bbeeb2a95"},"vehicle_type_id":"4","last_reported":1745060883,"current_range_meters":24000,"station_id":"ce4bhb92rcd13ifvqen0","pricing_plan_id":"cebpf4jnsgd1na2vs0mg"},{"bike_id":"ef64a4ae-4be0-477f-9461-2cf957c44728","system_id":"levelo_inurba_marseille","lat":43.28178,"lon":5.42651,"is_reserved":false,"is_disabled":false,"rental_uris":{"android":"levelo://app?vid=ef64a4ae-4be0-477f-9461-2cf957c44728","ios":"levelo://app?vid=ef64a4ae-4be0-477f-9461-2cf957c44728"},"vehicle_type_id":"4","last_reported":1745060883,"current_range_meters":24000,"station_id":"ce4bhnh2rcd13ifvqgug","pricing_plan_id":"cebpf4jnsgd1na2vs0mg"},{"bike_id":"cd7fc3b3-62d8-411c-add9-25dae018bc04","system_id":"levelo_inurba_marseille","lat":43.23173,"lon":5.40051,"is_reserved":false,"is_disabled":false,"rental_uris":{"android":"levelo://app?vid=cd7fc3b3-62d8-411c-add9-25dae018bc04","ios":"levelo://app?vid=cd7fc3b3-62d8-411c-add9-25dae018bc04"},"vehicle_type_id":"4","last_reported":1745060883,"current_range_meters":24000,"station_id":"ce4bhn12rcd13ifvqgqg","pricing_plan_id":"cebpf4jnsgd1na2vs0mg"},{"bike_id":"6b6c4a70-e048-41cf-b1e3-07323baf8ec1","system_id":"levelo_inurba_marseille","lat":43.30145,"lon":5.38092,"is_reserved":false,"is_disabled":true,"rental_uris":{"android":"levelo://app?vid=6b6c4a70-e048-41cf-b1e3-07323baf8ec1","ios":"levelo://app?vid=6b6c4a70-e048-41cf-b1e3-07323baf8ec1"},"vehicle_type_id":"4","last_reported":1745060883,"current_range_meters":24400,"station_id":"ce4bgjp2rcd13ifvqbh0","pricing_plan_id":"cebpf4jnsgd1na2vs0mg"},{"bike_id":"9eac07f2-82ec-48ad-812a-7895798acad0","system_id":"levelo_inurba_marseille","lat":43.23198,"lon":5.35553,"is_reserved":false,"is_disabled":false,"rental_uris":{"android":"levelo://app?vid=9eac07f2-82ec-48ad-812a-7895798acad0","ios":"levelo://app?vid=9eac07f2-82ec-48ad-812a-7895798acad0"},"vehicle_type_id":"4","last_reported":1745060883,"current_range_meters":24400,"station_id":"ce4bhu92rcd13ifvqi70","pricing_plan_id":"cebpf4jnsgd1na2vs0mg"},{"bike_id":"d236e0ab-bd27-47d6-b0ed-bf6a360f6e0d","system_id":"levelo_inurba_marseille","lat":43.2439,"lon":5.37063,"is_reserved":false,"is_disabled":false,"rental_uris":{"android":"levelo://app?vid=d236e0ab-bd27-47d6-b0ed-bf6a360f6e0d","ios":"levelo://app?vid=d236e0ab-bd27-47d6-b0ed-bf6a360f6e0d"},"vehicle_type_id":"4","last_reported":1745060883,"current_range_meters":24400,"station_id":"ce4bhhh2rcd13ifvqfk0","pricing_plan_id":"cebpf4jnsgd1na2vs0mg"},{"bike_id":"4904efde-eb0f-41ce-abe8-c360fedc5a2e","system_id":"levelo_inurba_marseille","lat":43.28397,"lon":5.37507,"is_reserved":false,"is_disabled":false,"rental_uris":{"android":"levelo://app?vid=4904efde-eb0f-41ce-abe8-c360fedc5a2e","ios":"levelo://app?vid=4904efde-eb0f-41ce-abe8-c360fedc5a2e"},"vehicle_type_id":"4","last_reported":1745060883,"current_range_meters":24400,"station_id":"ce4bh412rcd13ifvqds0","pricing_plan_id":"cebpf4jnsgd1na2vs0mg"},{"bike_id":"e8bf6d51-a7a8-414f-bc90-e7496445c12b","system_id":"levelo_inurba_marseille","lat":43.2603,"lon":5.37558,"is_reserved":false,"is_disabled":false,"rental_uris":{"android":"levelo://app?vid=e8bf6d51-a7a8-414f-bc90-e7496445c12b","ios":"levelo://app?vid=e8bf6d51-a7a8-414f-bc90-e7496445c12b"},"vehicle_type_id":"4","last_reported":1745060883,"current_range_meters":24400,"station_id":"ce4bhgh2rcd13ifvqfa0","pricing_plan_id":"cebpf4jnsgd1na2vs0mg"},{"bike_id":"986062de-98ce-4fba-b904-352476db8d32","system_id":"levelo_inurba_marseille","lat":43.29528,"lon":5.39025,"is_reserved":false,"is_disabled":true,"rental_uris":{"android":"levelo://app?vid=986062de-98ce-4fba-b904-352476db8d32","ios":"levelo://app?vid=986062de-98ce-4fba-b904-352476db8d32"},"vehicle_type_id":"4","last_reported":1745060883,"current_range_meters":24400,"station_id":"","pricing_plan_id":"cebpf4jnsgd1na2vs0mg"},{"bike_id":"0af02a07-994b-43ed-97c8-10c549a0c16d","system_id":"levelo_inurba_marseille","lat":43.27055,"lon":5.40258,"is_reserved":false,"is_disabled":false,"rental_uris":{"android":"levelo://app?vid=0af02a07-994b-43ed-97c8-10c549a0c16d","ios":"levelo://app?vid=0af02a07-994b-43ed-97c8-10c549a0c16d"},"vehicle_type_id":"4","last_reported":1745060883,"current_range_meters":24800,"station_id":"ce4bhk92rcd13ifvqgc0","pricing_plan_id":"cebpf4jnsgd1na2vs0mg"},{"bike_id":"9cf10dcf-8655-427d-864d-290e82f9c68b","system_id":"levelo_inurba_marseille","lat":43.29581,"lon":5.37517,"is_reserved":false,"is_disabled":false,"rental_uris":{"android":"levelo://app?vid=9cf10dcf-8655-427d-864d-290e82f9c68b","ios":"levelo://app?vid=9cf10dcf-8655-427d-864d-290e82f9c68b"},"vehicle_type_id":"4","last_reported":1745060883,"current_range_meters":24800,"station_id":"ce4bgh92rcd13ifvqb50","pricing_plan_id":"cebpf4jnsgd1na2vs0mg"},{"bike_id":"2c9354df-45f4-4371-b449-dd847b95b783","system_id":"levelo_inurba_marseille","lat":43.30541,"lon":5.36551,"is_reserved":false,"is_disabled":false,"rental_uris":{"android":"levelo://app?vid=2c9354df-45f4-4371-b449-dd847b95b783","ios":"levelo://app?vid=2c9354df-45f4-4371-b449-dd847b95b783"},"vehicle_type_id":"4","last_reported":1745060883,"current_range_meters":24800,"station_id":"ce4bgs12rcd13ifvqcag","pricing_plan_id":"cebpf4jnsgd1na2vs0mg"},{"bike_id":"a18081fe-e94b-41fb-beae-d4cabc746d67","system_id":"levelo_inurba_marseille","lat":43.25926,"lon":5.39899,"is_reserved":false,"is_disabled":false,"rental_uris":{"android":"levelo://app?vid=a18081fe-e94b-41fb-beae-d4cabc746d67","ios":"levelo://app?vid=a18081fe-e94b-41fb-beae-d4cabc746d67"},"vehicle_type_id":"4","last_reported":1745060883,"current_range_meters":24800,"station_id":"ce4bhl92rcd13ifvqghg","pricing_plan_id":"cebpf4jnsgd1na2vs0mg"},