{"last_updated":1728054565,"ttl":60,"version":"2.2","data":{"bikes":[{"bike_id":"f4fca1d7-e426-4239-a91a-6f3451be01df","system_id":"levelo_inurba_marseille","lat":43.27809,"lon":5.40707,"is_reserved":false,"is_disabled":false,"rental_uris":{"android":"levelo://app?vid=f4fca1d7-e426-4239-a91a-6f3451be01df","ios":"levelo://app?vid=f4fca1d7-e426-4239-a91a-6f3451be01df"},"vehicle_type_id":"4","last_reported":1728054566,"current_range_meters":38800,"station_id":"ce4bhnh2rcd13ifvqgtg","pricing_plan_id":"cebpf4jnsgd1na2vs0mg"},{"bike_id":"83c75cf2-25aa-4616-b416-17bbc23bfb4e","system_id":"levelo_inurba_marseille","lat":43.28669,"lon":5.36344,"is_reserved":false,"is_disabled":false,"rental_uris":{"android":"levelo://app?vid=83c75cf2-25aa-4616-b416-17bbc23bfb4e","ios":"levelo://app?vid=83c75cf2-25aa-4616-b416-17bbc23bfb4e"},"vehicle_type_id":"4","last_reported":1728054566,"current_range_meters":26000,"station_id":"ce4bhah2rcd13ifvqej0","pricing_plan_id":"cebpf4jnsgd1na2vs0mg"},{"bike_id":"7d14ffcd-701f-423c-995d-258cdca29bd1","system_id":"levelo_inurba_marseille","lat":43.31996,"lon":5.38154,"is_reserved":false,"is_disabled":false,"rental_uris":{"android":"levelo://app?vid=7d14ffcd-701f-423c-995d-258cdca29bd1","ios":"levelo://app?vid=7d14ffcd-701f-423c-995d-258cdca29bd1"},"vehicle_type_id":"4","last_reported":1728054566,"current_range_meters":26000,"station_id":"ce4bhr12rcd13ifvqhpg","pricing_plan_id":"cebpf4jnsgd1na2vs0mg"},{"bike_id":"ea1c4b47-df71-47c6-91fa-b3b8c49b241b","system_id":"levelo_inurba_marseille","lat":43.30155,"lon":5.38095,"is_reserved":false,"is_disabled":false,"rental_uris":{"android":"levelo://app?vid=ea1c4b47-df71-47c6-91fa-b3b8c49b241b","ios":"levelo://app?vid=ea1c4b47-df71-47c6-91fa-b3b8c49b241b"},"vehicle_type_id":"4","last_reported":1728054566,"current_range_meters":12000,"station_id":"ce4bgjp2rcd13ifvqbh0","pricing_plan_id":"cebpf4jnsgd1na2vs0mg"},{"bike_id":"0ab31a2b-100e-46ba-8518-e3de7fc7122e","system_id":"levelo_inurba_marseille","lat":43.3376,"lon":5.37439,"is_reserved":false,"is_disabled":false,"rental_uris":{"android":"levelo://app?vid=0ab31a2b-100e-46ba-8518-e3de7fc7122e","ios":"levelo://app?vid=0ab31a2b-100e-46ba-8518-e3de7fc7122e"},"vehicle_type_id":"4","last_reported":1728054566,"current_range_meters":38000,"station_id":"","pricing_plan_id":"cebpf4jnsgd1na2vs0mg"},{"bike_id":"7f528f9c-e10d-4310-b1e8-1156af8894a5","system_id":"levelo_inurba_marseille","lat":43.25084,"lon":5.39517,"is_reserved":false,"is_disabled":false,"rental_uris":{"android":"levelo://app?vid=7f528f9c-e10d-4310-b1e8-1156af8894a5","ios":"levelo://app?vid=7f528f9c-e10d-4310-b1e8-1156af8894a5"},"vehicle_type_id":"4","last_reported":1728054566,"current_range_meters":14800,"station_id":"ce4bhm12rcd13ifvqgkg","pricing_plan_id":"cebpf4jnsgd1na2vs0mg"},{"bike_id":"756088e4-bd38-4606-aa6f-cbbf1461af00","system_id":"levelo_inurba_marseille","lat":43.22936,"lon":5.35378,"is_reserved":false,"is_disabled":false,"rental_uris":{"android":"levelo://app?vid=756088e4-bd38-4606-aa6f-cbbf1461af00","ios":"levelo://app?vid=756088e4-bd38-4606-aa6f-cbbf1461af00"},"vehicle_type_id":"4","last_reported":1728054566,"current_range_meters":11600,"station_id":"cpo3532slgdg3j2ikp40","pricing_plan_id":"cebpf4jnsgd1na2vs0mg"},{"bike_id":"b55713ae-e46a-46b9-b649-ec204bdca1f5","system_id":"levelo_inurba_marseille","lat":43.29835,"lon":5.36279,"is_reserved":false,"is_disabled":false,"rental_uris":{"android":"levelo://app?vid=b55713ae-e46a-46b9-b649-ec204bdca1f5","ios":"levelo://app?vid=b55713ae-e46a-46b9-b649-ec204bdca1f5"},"vehicle_type_id":"4","last_reported":1728054566,"current_range_meters":30800,"station_id":"ce4bgpp2rcd13ifvqc3g","pricing_plan_id":"cebpf4jnsgd1na2vs0mg"},{"bike_id":"64ed675a-7e74-4a3b-8e49-81bef5ed819d","system_id":"levelo_inurba_marseille","lat":43.2843,"lon":5.3499,"is_reserved":false,"is_disabled":false,"rental_uris":{"android":"levelo://app?vid=64ed675a-7e74-4a3b-8e49-81bef5ed819d","ios":"levelo://app?vid=64ed675a-7e74-4a3b-8e49-81bef5ed819d"},"vehicle_type_id":"4","last_reported":1728054566,"current_range_meters":39200,"station_id":"ce4bhbh2rcd13ifvqepg","pricing_plan_id":"cebpf4jnsgd1na2vs0mg"},{"bike_id":"d670dfb8-d2ba-4938-ab00-8a24d634781b","system_id":"levelo_inurba_marseille","lat":43.2511,"lon":5.4033,"is_reserved":false,"is_disabled":false,"rental_uris":{"android":"levelo://app?vid=d670dfb8-d2ba-4938-ab00-8a24d634781b","ios":"levelo://app?vid=d670dfb8-d2ba-4938-ab00-8a24d634781b"},"vehicle_type_id":"4","last_reported":1728054566,"current_range_meters":19600,"station_id":"ce4bhlh2rcd13ifvqgig","pricing_plan_id":"cebpf4jnsgd1na2vs0mg"},{"bike_id":"26683230-745f-4de4-a550-1afa1de5de0e","system_id":"levelo_inurba_marseille","lat":43.2737,"lon":5.36256,"is_reserved":false,"is_disabled":false,"rental_uris":{"android":"levelo://app?vid=26683230-745f-4de4-a550-1afa1de5de0e","ios":"levelo://app?vid=26683230-745f-4de4-a550-1afa1de5de0e"},"vehicle_type_id":"4","last_reported":1728054566,"current_range_meters":2000,"station_id":"ce4bhbh2rcd13ifvqeo0","pricing_plan_id":"cebpf4jnsgd1na2vs0mg"},{"bike_id":"ef928a60-a0b4-4f9b-ae08-d87140d3ea88","system_id":"levelo_inurba_marseille","lat":43.28932,"lon":5.38401,"is_reserved":false,"is_disabled":false,"rental_uris":{"android":"levelo://app?vid=ef928a60-a0b4-4f9b-ae08-d87140d3ea88","ios":"levelo://app?vid=ef928a60-a0b4-4f9b-ae08-d87140d3ea88"},"vehicle_type_id":"4","last_reported":1728054566,"current_range_meters":11600,"station_id":"ce4bh612rcd13ifvqe6g","pricing_plan_id":"cebpf4jnsgd1na2vs0mg"},{"bike_id":"c6f6b8c4-4be6-4a20-8d41-eb75a04a4318","system_id":"levelo_inurba_marseille","lat":43.3044,"lon":5.3889,"is_reserved":false,"is_disabled":false,"rental_uris":{"android":"levelo://app?vid=c6f6b8c4-4be6-4a20-8d41-eb75a04a4318","ios":"levelo://app?vid=c6f6b8c4-4be6-4a20-8d41-eb75a04a4318"},"vehicle_type_id":"4","last_reported":1728054566,"current_range_meters":4400,"station_id":"ce4bgk12rcd13ifvqbi0","pricing_plan_id":"cebpf4jnsgd1na2vs0mg"},{"bike_id":"617c41d9-0731-4a76-8b56-e6ecb7b72397","system_id":"levelo_inurba_marseille","lat":43.31364,"lon":5.36721,"is_reserved":false,"is_disabled":false,"rental_uris":{"android":"levelo://app?vid=617c41d9-0731-4a76-8b56-e6ecb7b72397","ios":"levelo://app?vid=617c41d9-0731-4a76-8b56-e6ecb7b72397"},"vehicle_type_id":"4","last_reported":1728054566,"current_range_meters":17200,"station_id":"ce4bgr92rcd13ifvqc6g","pricing_plan_id":"cebpf4jnsgd1na2vs0mg"},{"bike_id":"051a4a54-dbbf-4c78-9cd4-78daa448f8aa","system_id":"levelo_inurba_marseille","lat":43.29189,"lon":5.37142,"is_reserved":false,"is_disabled":false,"rental_uris":{"android":"levelo://app?vid=051a4a54-dbbf-4c78-9cd4-78daa448f8aa","ios":"levelo://app?vid=051a4a54-dbbf-4c78-9cd4-78daa448f8aa"},"vehicle_type_id":"4","last_reported":1728054566,"current_range_meters":30400,"station_id":"ce4bha92rcd13ifvqeh0","pricing_plan_id":"cebpf4jnsgd1na2vs0mg"},{"bike_id":"50454529-c2d5-4705-9ec4-667f52dc76da","system_id":"levelo_inurba_marseille","lat":43.25866,"lon":5.39896,"is_reserved":false,"is_disabled":false,"rental_uris":{"android":"levelo://app?vid=50454529-c2d5-4705-9ec4-667f52dc76da","ios":"levelo://app?vid=50454529-c2d5-4705-9ec4-667f52dc76da"},"vehicle_type_id":"4","last_reported":1728054566,"current_range_meters":7200,"station_id":"ce4bhl92rcd13ifvqghg","pricing_plan_id":"cebpf4jnsgd1na2vs0mg"},{"bike_id":"a8044015-1395-4677-80a3-1b3f497d95df","system_id":"levelo_inurba_marseille","lat":43.29525,"lon":5.39395,"is_reserved":false,"is_disabled":false,"rental_uris":{"android":"levelo://app?vid=a8044015-1395-4677-80a3-1b3f497d95df","ios":"levelo://app?vid=a8044015-1395-4677-80a3-1b3f497d95df"},"vehicle_type_id":"4","last_reported":1728054566,"current_range_meters":16000,"station_id":"ce4bh292rcd13ifvqdf0","pricing_plan_id":"cebpf4jnsgd1na2vs0mg"},{"bike_id":"85a9e6a4-b1a0-4b4b-8442-b841cbbb277a","system_id":"levelo_inurba_marseille","lat":43.29301,"lon":5.37453,"is_reserved":false,"is_disabled":false,"rental_uris":{"android":"levelo://app?vid=85a9e6a4-b1a0-4b4b-8442-b841cbbb277a","ios":"levelo://app?vid=85a9e6a4-b1a0-4b4b-8442-b841cbbb277a"},"vehicle_type_id":"4","last_reported":1728054566,"current_range_meters":14000,"station_id":"ce4bgi12rcd13ifvqb70","pricing_plan_id":"cebpf4jnsgd1na2vs0mg"},{"bike_id":"ef064925-5135-4ec7-8943-118aac471224","system_id":"levelo_inurba_marseille","lat":43.31126,"lon":5.37769,"is_reserved":false,"is_disabled":false,"rental_uris":{"android":"levelo://app?vid=ef064925-5135-4ec7-8943-118aac471224","ios":"levelo://app?vid=ef064925-5135-4ec7-8943-118aac471224"},"vehicle_type_id":"4","last_reported":1728054566,"current_range_meters":39200,"station_id":"ce4bgt92rcd13ifvqcg0","pricing_plan_id":"cebpf4jnsgd1na2vs0mg"},{"bike_id":"cb92aba5-4872-4e7f-a488-965e8c3995a3","system_id":"levelo_inurba_marseille","lat":43.29895,"lon":5.43665,"is_reserved":false,"is_disabled":false,"rental_uris":{"android":"levelo://app?vid=cb92aba5-4872-4e7f-a488-965e8c3995a3","ios":"levelo://app?vid=cb92aba5-4872-4e7f-a488-965e8c3995a3"},"vehicle_type_id":"4","last_reported":1728054566,"current_range_meters":31200,"station_id":"ce4bhpp2rcd13ifvqhfg","pricing_plan_id":"cebpf4jnsgd1na2vs0mg"},{"bike_id":"1cfb68e9-ae90-4ad3-833a-f1c7784a486f","system_id":"levelo_inurba_marseille","lat":43.28081,"lon":5.39659,"is_reserved":false,"is_disabled":false,"rental_uris":{"android":"levelo://app?vid=1cfb68e9-ae90-4ad3-833a-f1c7784a486f","ios":"levelo://app?vid=1cfb68e9-ae90-4ad3-833a-f1c7784a486f"},"vehicle_type_id":"4","last_reported":1728054566,"current_range_meters":38800,"station_id":"ce4bho12rcd13ifvqh2g","pricing_plan_id":"cebpf4jnsgd1na2vs0mg"},{"bike_id":"8ff84461-c6d3-4e26-bdef-b7ece3fbf962","system_id":"levelo_inurba_marseille","lat":43.27058,"lon":5.40252,"is_reserved":false,"is_disabled":false,"rental_uris":{"android":"levelo://app?vid=8ff84461-c6d3-4e26-bdef-b7ece3fbf962","ios":"levelo://app?vid=8ff84461-c6d3-4e26-bdef-b7ece3fbf962"},"vehicle_type_id":"4","last_reported":1728054566,"current_range_meters":30400,"station_id":"ce4bhk92rcd13ifvqgc0","pricing_plan_id":"cebpf4jnsgd1na2vs0mg"},{"bike_id":"bbe16d9f-1398-4ae8-9389-fdd330196eb0","system_id":"levelo_inurba_marseille","lat":43.2843,"lon":5.34984,"is_reserved":false,"is_disabled":false,"rental_uris":{"android":"levelo://app?vid=bbe16d9f-1398-4ae8-9389-fdd330196eb0","ios":"levelo://app?vid=bbe16d9f-1398-4ae8-9389-fdd330196eb0"},"vehicle_type_id":"4","last_reported":1728054566,"current_range_meters":38800,"station_id":"ce4bhbh2rcd13ifvqepg","pricing_plan_id":"cebpf4jnsgd1na2vs0mg"},{"bike_id":"e6b2df58-b4a0-4aec-933d-a62e42f34d34","system_id":"levelo_inurba_marseille","lat":43.33723,"lon":5.39188,"is_reserved":false,"is_disabled":false,"rental_uris":{"android":"levelo://app?vid=e6b2df58-b4a0-4aec-933d-a62e42f34d34","ios":"levelo://app?vid=e6b2df58-b4a0-4aec-933d-a62e42f34d34"},"vehicle_type_id":"4","last_reported":1728054566,"current_range_meters":19200,"station_id":"ce4bhr92rcd13ifvqhsg","pricing_plan_id":"cebpf4jnsgd1na2vs0mg"},{"bike_id":"67b8daab-6613-495d-b8d5-983daed599ba","system_id":"levelo_inurba_marseille","lat":43.285751,"lon":5.395,"is_reserved":false,"is_disabled":false,"rental_uris":{"android":"levelo://app?vid=67b8daab-6613-495d-b8d5-983daed599ba","ios":"levelo://app?vid=67b8daab-6613-495d-b8d5-983daed599ba"},"vehicle_type_id":"4","last_reported":1728054566,"current_range_meters":14400,"station_id":"ce4bhah2rcd13ifvqej0","pricing_plan_id":"cebpf4jnsgd1na2vs0mg"},{"bike_id":"4b4b451e-6189-4187-9293-52ce198bce77","system_id":"levelo_inurba_marseille","lat":43.28424,"lon":5.34985,"is_reserved":false,"is_disabled":false,"rental_uris":{"android":"levelo://app?vid=4b4b451e-6189-4187-9293-52ce198bce77","ios":"levelo://app?vid=4b4b451e-6189-4187-9293-52ce198bce77"},"vehicle_type_id":"4","last_reported":1728054566,"current_range_meters":35600,"station_id":"ce4bhbh2rcd13ifvqepg","pricing_plan_id":"cebpf4jnsgd1na2vs0mg"},{"bike_id":"d77938b7-ff1e-465c-a8b9-4b07085a5cc9","system_id":"levelo_inurba_marseille","lat":43.23064,"lon":5.35496,"is_reserved":false,"is_disabled":false,"rental_uris":{"android":"levelo://app?vid=d77938b7-ff1e-465c-a8b9-4b07085a5cc9","ios":"levelo://app?vid=d77938b7-ff1e-465c-a8b9-4b07085a5cc9"},"vehicle_type_id":"4","last_reported":1728054566,"current_range_meters":19200,"station_id":"cpo3342slgdg3j2ifvpg","pricing_plan_id":"cebpf4jnsgd1na2vs0mg"},{"bike_id":"69c4eb56-058e-4af1-b352-7ce95220b25e","system_id":"levelo_inurba_marseille","lat":43.33753,"lon":5.37426,"is_reserved":false,"is_disabled":false,"rental_uris":{"android":"levelo://app?vid=69c4eb56-058e-4af1-b352-7ce95220b25e","ios":"levelo://app?vid=69c4eb56-058e-4af1-b352-7ce95220b25e"},"vehicle_type_id":"4","last_reported":1728054566,"current_range_meters":38400,"station_id":"","pricing_plan_id":"cebpf4jnsgd1na2vs0mg"},{"bike_id":"6239df78-4329-4e6d-babc-2f236e151c51","system_id":"levelo_inurba_marseille","lat":43.30369,"lon":5.39685,"is_reserved":false,"is_disabled":false,"rental_uris":{"android":"levelo://app?vid=6239df78-4329-4e6d-babc-2f236e151c51","ios":"levelo://app?vid=6239df78-4329-4e6d-babc-2f236e151c51"},"vehicle_type_id":"4","last_reported":1728054566,"current_range_meters":9200,"station_id":"ce4bh092rcd13ifvqd20","pricing_plan_id":"cebpf4jnsgd1na2vs0mg"},{"bike_id":"e3e773d9-83a0-489d-b44d-5aaaa16de9d5","system_id":"levelo_inurba_marseille","lat":43.28662,"lon":5.36332,"is_reserved":false,"is_disabled":false,"rental_uris":{"android":"levelo://app?vid=e3e773d9-83a0-489d-b44d-5aaaa16de9d5","ios":"levelo://app?vid=e3e773d9-83a0-489d-b44d-5aaaa16de9d5"},"vehicle_type_id":"4","last_reported":1728054566,"current_range_meters":21600,"station_id":"ce4bhah2rcd13ifvqej0","pricing_plan_id":"cebpf4jnsgd1na2vs0mg"},{"bike_id":"566a9cf0-f209-4c9f-9e1e-a43a024de395","system_id":"levelo_inurba_marseille","lat":43.27379,"lon":5.36248,"is_reserved":false,"is_disabled":false,"rental_uris":{"android":"levelo://app?vid=566a9cf0-f209-4c9f-9e1e-a43a024de395","ios":"levelo://app?vid=566a9cf0-f209-4c9f-9e1e-a43a024de395"},"vehicle_type_id":"4","last_reported":1728054566,"current_range_meters":25200,"station_id":"ce4bhbh2rcd13ifvqeo0","pricing_plan_id":"cebpf4jnsgd1na2vs0mg"},{"bike_id":"b73551f1-4737-42f3-8efd-5f2fca843848","system_id":"levelo_inurba_marseille","lat":43.29894,"lon":5.43666,"is_reserved":false,"is_disabled":false,"rental_uris":{"android":"levelo://app?vid=b73551f1-4737-42f3-8efd-5f2fca843848","ios":"levelo://app?vid=b73551f1-4737-42f3-8efd-5f2fca843848"},"vehicle_type_id":"4","last_reported":1728054566,"current_range_meters":17200,"station_id":"ce4bhpp2rcd13ifvqhfg","pricing_plan_id":"cebpf4jnsgd1na2vs0mg"},{"bike_id":"927496ac-271f-40b5-9f4d-02eddf45f975","system_id":"levelo_inurba_marseille","lat":43.28424,"lon":5.34983,"is_reserved":false,"is_disabled":false,"rental_uris":{"android":"levelo://app?vid=927496ac-271f-40b5-9f4d-02eddf45f975","ios":"levelo://app?vid=927496ac-271f-40b5-9f4d-02eddf45f975"},"vehicle_type_id":"4","last_reported":1728054566,"current_range_meters":18000,"station_id":"ce4bhbh2rcd13ifvqepg","pricing_plan_id":"cebpf4jnsgd1na2vs0mg"},{"bike_id":"8cbcbce5-76c7-479a-bb54-ab697e3b28de","system_id":"levelo_inurba_marseille","lat":43.294883,"lon":5.433348,"is_reserved":false,"is_disabled":false,"rental_uris":{"android":"levelo://app?vid=8cbcbce5-76c7-479a-bb54-ab697e3b28de","ios":"levelo://app?vid=8cbcbce5-76c7-479a-bb54-ab697e3b28de"},"vehicle_type_id":"4","last_reported":1728054566,"current_range_meters":9600,"station_id":"ce4bhpp2rcd13ifvqhfg","pricing_plan_id":"cebpf4jnsgd1na2vs0mg"},{"bike_id":"2593e2b8-2e16-4953-9d47-9db8bfce2b3a","system_id":"levelo_inurba_marseille","lat":43.264069,"lon":5.378018,"is_reserved":false,"is_disabled":false,"rental_uris":{"android":"levelo://app?vid=2593e2b8-2e16-4953-9d47-9db8bfce2b3a","ios":"levelo://app?vid=2593e2b8-2e16-4953-9d47-9db8bfce2b3a"},"vehicle_type_id":"4","last_reported":1728054566,"current_range_meters":31200,"station_id":"","pricing_plan_id":"cebpf4jnsgd1na2vs0mg"},{"bike_id":"1e0f3adb-61e6-4c18-b68a-68e0fd432f6c","system_id":"levelo_inurba_marseille","lat":43.30314,"lon":5.36902,"is_reserved":false,"is_disabled":false,"rental_uris":{"android":"levelo://app?vid=1e0f3adb-61e6-4c18-b68a-68e0fd432f6c","ios":"levelo://app?vid=1e0f3adb-61e6-4c18-b68a-68e0fd432f6c"},"vehicle_type_id":"4","last_reported":1728054566,"current_range_meters":38000,"station_id":"ce4bgqh2rcd13ifvqc5g","pricing_plan_id":"cebpf4jnsgd1na2vs0mg"},{"bike_id":"4b27b309-c758-4143-a19d-344715a64597","system_id":"levelo_inurba_marseille","lat":43.30256,"lon":5.40072,"is_reserved":false,"is_disabled":false,"rental_uris":{"android":"levelo://app?vid=4b27b309-c758-4143-a19d-344715a64597","ios":"levelo://app?vid=4b27b309-c758-4143-a19d-344715a64597"},"vehicle_type_id":"4","last_reported":1728054566,"current_range_meters":6400,"station_id":"ce4bgvh2rcd13ifvqcs0","pricing_plan_id":"cebpf4jnsgd1na2vs0mg"},{"bike_id":"86a59fdf-5419-4bd8-a9ed-c91c60731103","system_id":"levelo_inurba_marseille","lat":43.30318,"lon":5.37941,"is_reserved":false,"is_disabled":false,"rental_uris":{"android":"levelo://app?vid=86a59fdf-5419-4bd8-a9ed-c91c60731103","ios":"levelo://app?vid=86a59fdf-5419-4bd8-a9ed-c91c60731103"},"vehicle_type_id":"4","last_reported":1728054566,"current_range_meters":17200,"station_id":"","pricing_plan_id":"cebpf4jnsgd1na2vs0mg"},{"bike_id":"8282cab0-9b0a-497c-a4a5-6a78c2c5a743","system_id":"levelo_inurba_marseille","lat":43.29985,"lon":5.37184,"is_reserved":false,"is_disabled":false,"rental_uris":{"android":"levelo://app?vid=8282cab0-9b0a-497c-a4a5-6a78c2c5a743","ios":"levelo://app?vid=8282cab0-9b0a-497c-a4a5-6a78c2c5a743"},"vehicle_type_id":"4","last_reported":1728054566,"current_range_meters":37600,"station_id":"ce4bgr92rcd13ifvqc7g","pricing_plan_id":"cebpf4jnsgd1na2vs0mg"},{"bike_id":"8415ea03-c99e-45ae-a548-d6dca9836e16","system_id":"levelo_inurba_marseille","lat":43.25105,"lon":5.40325,"is_reserved":false,"is_disabled":false,"rental_uris":{"android":"levelo://app?vid=8415ea03-c99e-45ae-a548-d6dca9836e16","ios":"levelo://app?vid=8415ea03-c99e-45ae-a548-d6dca9836e16"},"vehicle_type_id":"4","last_reported":1728054566,"current_range_meters":32800,"station_id":"ce4bhlh2rcd13ifvqgig","pricing_plan_id":"cebpf4jnsgd1na2vs0mg"},{"bike_id":"dbf9b4a0-8645-4f9a-aace-547e6b047340","system_id":"levelo_inurba_marseille","lat":43.30422,"lon":5.41284,"is_reserved":false,"is_disabled":false,"rental_uris":{"android":"levelo://app?vid=dbf9b4a0-8645-4f9a-aace-547e6b047340","ios":"levelo://app?vid=dbf9b4a0-8645-4f9a-aace-547e6b047340"},"vehicle_type_id":"4","last_reported":1728054566,"current_range_meters":8000,"station_id":"ce4bhop2rcd13ifvqh8g","pricing_plan_id":"cebpf4jnsgd1na2vs0mg"},{"bike_id":"8a7e30ae-f0da-4bf9-973e-b088899cdba8","system_id":"levelo_inurba_marseille","lat":43.28273,"lon":5.3507,"is_reserved":false,"is_disabled":false,"rental_uris":{"android":"levelo://app?vid=8a7e30ae-f0da-4bf9-973e-b088899cdba8","ios":"levelo://app?vid=8a7e30ae-f0da-4bf9-973e-b088899cdba8"},"vehicle_type_id":"4","last_reported":1728054566,"current_range_meters":17200,"station_id":"ce4bhbp2rcd13ifvqerg","pricing_plan_id":"cebpf4jnsgd1na2vs0mg"},{"bike_id":"e8f64531-78f2-4733-b0a7-451c19a567c6","system_id":"levelo_inurba_marseille","lat":43.29677,"lon":5.37285,"is_reserved":false,"is_disabled":false,"rental_uris":{"android":"levelo://app?vid=e8f64531-78f2-4733-b0a7-451c19a567c6","ios":"levelo://app?vid=e8f64531-78f2-4733-b0a7-451c19a567c6"},"vehicle_type_id":"4","last_reported":1728054566,"current_range_meters":30000,"station_id":"ce4bgk12rcd13ifvqbj0","pricing_plan_id":"cebpf4jnsgd1na2vs0mg"},{"bike_id":"6102bacc-0bb3-4c79-854a-2d4ec81b21c1","system_id":"levelo_inurba_marseille","lat":43.31715,"lon":5.42395,"is_reserved":false,"is_disabled":false,"rental_uris":{"android":"levelo://app?vid=6102bacc-0bb3-4c79-854a-2d4ec81b21c1","ios":"levelo://app?vid=6102bacc-0bb3-4c79-854a-2d4ec81b21c1"},"vehicle_type_id":"4","last_reported":1728054566,"current_range_meters":39200,"station_id":"ce4bhp92rcd13ifvqhbg","pricing_plan_id":"cebpf4jnsgd1na2vs0mg"},{"bike_id":"6af614a6-478f-4fb6-a274-79aed3fdf505","system_id":"levelo_inurba_marseille","lat":43.26555,"lon":5.37289,"is_reserved":false,"is_disabled":false,"rental_uris":{"android":"levelo://app?vid=6af614a6-478f-4fb6-a274-79aed3fdf505","ios":"levelo://app?vid=6af614a6-478f-4fb6-a274-79aed3fdf505"},"vehicle_type_id":"4","last_reported":1728054566,"current_range_meters":25600,"station_id":"ce4bhg12rcd13ifvqf70","pricing_plan_id":"cebpf4jnsgd1na2vs0mg"},{"bike_id":"6f9ea692-b854-4466-8783-f86828c11080","system_id":"levelo_inurba_marseille","lat":43.325406,"lon":5.414368,"is_reserved":false,"is_disabled":false,"rental_uris":{"android":"levelo://app?vid=6f9ea692-b854-4466-8783-f86828c11080","ios":"levelo://app?vid=6f9ea692-b854-4466-8783-f86828c11080"},"vehicle_type_id":"4","last_reported":1728054566,"current_range_meters":38800,"station_id":"ce4bhq12rcd13ifvqhhg","pricing_plan_id":"cebpf4jnsgd1na2vs0mg"},{"bike_id":"35347ff9-1df5-4143-a126-6d01f12fc425","system_id":"levelo_inurba_marseille","lat":43.28611,"lon":5.37061,"is_reserved":false,"is_disabled":false,"rental_uris":{"android":"levelo://app?vid=35347ff9-1df5-4143-a126-6d01f12fc425","ios":"levelo://app?vid=35347ff9-1df5-4143-a126-6d01f12fc425"},"vehicle_type_id":"4","last_reported":1728054566,"current_range_meters":8000,"station_id":"ce4bht12rcd13ifvqi60","pricing_plan_id":"cebpf4jnsgd1na2vs0mg"},{"bike_id":"a3f348ba-c14d-4ee9-b7d6-d6baebed5828","system_id":"levelo_inurba_marseille","lat":43.28467,"lon":5.35897,"is_reserved":false,"is_disabled":false,"rental_uris":{"android":"levelo://app?vid=a3f348ba-c14d-4ee9-b7d6-d6baebed5828","ios":"levelo://app?vid=a3f348ba-c14d-4ee9-b7d6-d6baebed5828"},"vehicle_type_id":"4","last_reported":1728054566,"current_range_meters":16400,"station_id":"ce4bhah2rcd13ifvqei0","pricing_plan_id":"cebpf4jnsgd1na2vs0mg"},{"bike_id":"f214cf31-2934-4d86-be30-3a2665d3d269","system_id":"levelo_inurba_marseille","lat":43.28422,"lon":5.3499,"is_reserved":false,"is_disabled":false,"rental_uris":{"android":"levelo://app?vid=f214cf31-2934-4d86-be30-3a2665d3d269","ios":"levelo://app?vid=f214cf31-2934-4d86-be30-3a2665d3d269"},"vehicle_type_id":"4","last_reported":1728054566,"current_range_meters":20800,"station_id":"ce4bhbh2rcd13ifvqepg","pricing_plan_id":"cebpf4jnsgd1na2vs0mg"},{"bike_id":"877c12d0-b06d-429a-87a4-06095eb609ae","system_id":"levelo_inurba_marseille","lat":43.28918,"lon":5.38751,"is_reserved":false,"is_disabled":false,"rental_uris":{"android":"levelo://app?vid=877c12d0-b06d-429a-87a4-06095eb609ae","ios":"levelo://app?vid=877c12d0-b06d-429a-87a4-06095eb609ae"},"vehicle_type_id":"4","last_reported":1728054566,"current_range_meters":8400,"station_id":"ce4bhh92rcd13ifvqfj0","pricing_plan_id":"cebpf4jnsgd1na2vs0mg"},{"bike_id":"e08c062f-61a2-493a-875d-6e296e2965d6","system_id":"levelo_inurba_marseille","lat":43.33757,"lon":5.37438,"is_reserved":false,"is_disabled":false,"rental_uris":{"android":"levelo://app?vid=e08c062f-61a2-493a-875d-6e296e2965d6","ios":"levelo://app?vid=e08c062f-61a2-493a-875d-6e296e2965d6"},"vehicle_type_id":"4","last_reported":1728054566,"current_range_meters":34800,"station_id":"","pricing_plan_id":"cebpf4jnsgd1na2vs0mg"},{"bike_id":"1ba74478-9364-4f11-a7db-cd8cc326237c","system_id":"levelo_inurba_marseille","lat":43.29689,"lon":5.37288,"is_reserved":false,"is_disabled":false,"rental_uris":{"android":"levelo://app?vid=1ba74478-9364-4f11-a7db-cd8cc326237c","ios":"levelo://app?vid=1ba74478-9364-4f11-a7db-cd8cc326237c"},"vehicle_type_id":"4","last_reported":1728054566,"current_range_meters":27200,"station_id":"ce4bgk12rcd13ifvqbj0","pricing_plan_id":"cebpf4jnsgd1na2vs0mg"},{"bike_id":"d2940846-8984-465b-bbaa-9e158fa700fd","system_id":"levelo_inurba_marseille","lat":43.23968,"lon":5.36625,"is_reserved":false,"is_disabled":false,"rental_uris":{"android":"levelo://app?vid=d2940846-8984-465b-bbaa-9e158fa700fd","ios":"levelo://app?vid=d2940846-8984-465b-bbaa-9e158fa700fd"},"vehicle_type_id":"4","last_reported":1728054566,"current_range_meters":22000,"station_id":"ce4bhi12rcd13ifvqfp0","pricing_plan_id":"cebpf4jnsgd1na2vs0mg"},{"bike_id":"c12c32d7-ec93-4232-a8a9-81c464d0fa43","system_id":"levelo_inurba_marseille","lat":43.30416,"lon":5.41285,"is_reserved":false,"is_disabled":false,"rental_uris":{"android":"levelo://app?vid=c12c32d7-ec93-4232-a8a9-81c464d0fa43","ios":"levelo://app?vid=c12c32d7-ec93-4232-a8a9-81c464d0fa43"},"vehicle_type_id":"4","last_reported":1728054566,"current_range_meters":9600,"station_id":"ce4bhop2rcd13ifvqh8g","pricing_plan_id":"cebpf4jnsgd1na2vs0mg"},{"bike_id":"118ba2bb-2618-45ac-8d25-c57db7f653c3","system_id":"levelo_inurba_marseille","lat":43.29524,"lon":5.39037,"is_reserved":false,"is_disabled":false,"rental_uris":{"android":"levelo://app?vid=118ba2bb-2618-45ac-8d25-c57db7f653c3","ios":"levelo://app?vid=118ba2bb-2618-45ac-8d25-c57db7f653c3"},"vehicle_type_id":"4","last_reported":1728054566,"current_range_meters":6400,"station_id":"ce4bh3p2rcd13ifvqdp0","pricing_plan_id":"cebpf4jnsgd1na2vs0mg"},{"bike_id":"c8f00aee-c26f-4759-bc69-7803f7a149c4","system_id":"levelo_inurba_marseille","lat":43.29789,"lon":5.39345,"is_reserved":false,"is_disabled":false,"rental_uris":{"android":"levelo://app?vid=c8f00aee-c26f-4759-bc69-7803f7a149c4","ios":"levelo://app?vid=c8f00aee-c26f-4759-bc69-7803f7a149c4"},"vehicle_type_id":"4","last_reported":1728054566,"current_range_meters":18800,"station_id":"chh1huq6cuj3fo74tm60","pricing_plan_id":"cebpf4jnsgd1na2vs0mg"},{"bike_id":"cbfb4002-9c78-490f-b6ac-f3f21f053e8d","system_id":"levelo_inurba_marseille","lat":43.24662,"lon":5.38161,"is_reserved":false,"is_disabled":false,"rental_uris":{"android":"levelo://app?vid=cbfb4002-9c78-490f-b6ac-f3f21f053e8d","ios":"levelo://app?vid=cbfb4002-9c78-490f-b6ac-f3f21f053e8d"},"vehicle_type_id":"4","last_reported":1728054566,"current_range_meters":16000,"station_id":"ce4bhih2rcd13ifvqfr0","pricing_plan_id":"cebpf4jnsgd1na2vs0mg"},{"bike_id":"b3404529-2fc0-49b4-84f0-b644e8a2b421","system_id":"levelo_inurba_marseille","lat":43.25107,"lon":5.40323,"is_reserved":false,"is_disabled":false,"rental_uris":{"android":"levelo://app?vid=b3404529-2fc0-49b4-84f0-b644e8a2b421","ios":"levelo://app?vid=b3404529-2fc0-49b4-84f0-b644e8a2b421"},"vehicle_type_id":"4","last_reported":1728054566,"current_range_meters":32400,"station_id":"ce4bhlh2rcd13ifvqgig","pricing_plan_id":"cebpf4jnsgd1na2vs0mg"},{"bike_id":"0ee5a269-3791-44f3-8e86-1ad6ed0ce130","system_id":"levelo_inurba_marseille","lat":43.29423,"lon":5.38623,"is_reserved":false,"is_disabled":false,"rental_uris":{"android":"levelo://app?vid=0ee5a269-3791-44f3-8e86-1ad6ed0ce130","ios":"levelo://app?vid=0ee5a269-3791-44f3-8e86-1ad6ed0ce130"},"vehicle_type_id":"4","last_reported":1728054566,"current_range_meters":17200,"station_id":"ce4bh2h2rcd13ifvqdh0","pricing_plan_id":"cebpf4jnsgd1na2vs0mg"},{"bike_id":"310e1c4b-a170-4ebe-abad-8bfdf146275d","system_id":"levelo_inurba_marseille","lat":43.29706,"lon":5.3663,"is_reserved":false,"is_disabled":false,"rental_uris":{"android":"levelo://app?vid=310e1c4b-a170-4ebe-abad-8bfdf146275d","ios":"levelo://app?vid=310e1c4b-a170-4ebe-abad-8bfdf146275d"},"vehicle_type_id":"4","last_reported":1728054566,"current_range_meters":8000,"station_id":"ce4bgn12rcd13ifvqbt0","pricing_plan_id":"cebpf4jnsgd1na2vs0mg"},{"bike_id":"c6967a3c-493e-441b-81e5-7d3a115792de","system_id":"levelo_inurba_marseille","lat":43.26528,"lon":5.39545,"is_reserved":false,"is_disabled":false,"rental_uris":{"android":"levelo://app?vid=c6967a3c-493e-441b-81e5-7d3a115792de","ios":"levelo://app?vid=c6967a3c-493e-441b-81e5-7d3a115792de"},"vehicle_type_id":"4","last_reported":1728054566,"current_range_meters":22400,"station_id":"ce4bhi12rcd13ifvqfq0","pricing_plan_id":"cebpf4jnsgd1na2vs0mg"},{"bike_id":"f7d9ad5f-801e-489d-9b5f-191e408fe604","system_id":"levelo_inurba_marseille","lat":43.25863,"lon":5.39899,"is_reserved":false,"is_disabled":false,"rental_uris":{"android":"levelo://app?vid=f7d9ad5f-801e-489d-9b5f-191e408fe604","ios":"levelo://app?vid=f7d9ad5f-801e-489d-9b5f-191e408fe604"},"vehicle_type_id":"4","last_reported":1728054566,"current_range_meters":32800,"station_id":"ce4bhl92rcd13ifvqghg","pricing_plan_id":"cebpf4jnsgd1na2vs0mg"},{"bike_id":"f8ed632c-c457-46f0-9bd3-99ae6d0f74e3","system_id":"levelo_inurba_marseille","lat":43.30781,"lon":5.37655,"is_reserved":false,"is_disabled":false,"rental_uris":{"android":"levelo://app?vid=f8ed632c-c457-46f0-9bd3-99ae6d0f74e3","ios":"levelo://app?vid=f8ed632c-c457-46f0-9bd3-99ae6d0f74e3"},"vehicle_type_id":"4","last_reported":1728054566,"current_range_meters":6000,"station_id":"ce4bgv92rcd13ifvqcq0","pricing_plan_id":"cebpf4jnsgd1na2vs0mg"},{"bike_id":"fd872ba7-9877-4e67-9269-d8995abba644","system_id":"levelo_inurba_marseille","lat":43.22936,"lon":5.35378,"is_reserved":false,"is_disabled":false,"rental_uris":{"android":"levelo://app?vid=fd872ba7-9877-4e67-9269-d8995abba644","ios":"levelo://app?vid=fd872ba7-9877-4e67-9269-d8995abba644"},"vehicle_type_id":"4","last_reported":1728054566,"current_range_meters":19200,"station_id":"cpo3532slgdg3j2ikp40","pricing_plan_id":"cebpf4jnsgd1na2vs0mg"},{"bike_id":"d5f2b119-646b-48eb-b2de-dc913a155647","system_id":"levelo_inurba_marseille","lat":43.292908,"lon":5.382742,"is_reserved":false,"is_disabled":false,"rental_uris":{"android":"levelo://app?vid=d5f2b119-646b-48eb-b2de-dc913a155647","ios":"levelo://app?vid=d5f2b119-646b-48eb-b2de-dc913a155647"},"vehicle_type_id":"4","last_reported":1728054566,"current_range_meters":35200,"station_id":"ce4bh692rcd13ifvqea0","pricing_plan_id":"cebpf4jnsgd1na2vs0mg"},{"bike_id":"97ef7b1b-8448-4c8a-b13b-51164f3a27e0","system_id":"levelo_inurba_marseille","lat":43.30546,"lon":5.36547,"is_reserved":false,"is_disabled":false,"rental_uris":{"android":"levelo://app?vid=97ef7b1b-8448-4c8a-b13b-51164f3a27e0","ios":"levelo://app?vid=97ef7b1b-8448-4c8a-b13b-51164f3a27e0"},"vehicle_type_id":"4","last_reported":1728054566,"current_range_meters":19200,"station_id":"ce4bgs12rcd13ifvqcag","pricing_plan_id":"cebpf4jnsgd1na2vs0mg"},{"bike_id":"2645c9c9-f05d-4dc3-9d40-8bbcebb78b2a","system_id":"levelo_inurba_marseille","lat":43.27678,"lon":5.38873,"is_reserved":false,"is_disabled":false,"rental_uris":{"android":"levelo://app?vid=2645c9c9-f05d-4dc3-9d40-8bbcebb78b2a","ios":"levelo://app?vid=2645c9c9-f05d-4dc3-9d40-8bbcebb78b2a"},"vehicle_type_id":"4","last_reported":1728054566,"current_range_meters":11200,"station_id":"ce4bhi12rcd13ifvqfo0","pricing_plan_id":"cebpf4jnsgd1na2vs0mg"},{"bike_id":"f8f29749-dec3-40ff-a668-00725db6b7e7","system_id":"levelo_inurba_marseille","lat":43.29619,"lon":5.37167,"is_reserved":false,"is_disabled":false,"rental_uris":{"android":"levelo://app?vid=f8f29749-dec3-40ff-a668-00725db6b7e7","ios":"levelo://app?vid=f8f29749-dec3-40ff-a668-00725db6b7e7"},"vehicle_type_id":"4","last_reported":1728054566,"current_range_meters":38800,"station_id":"ce4bgnh2rcd13ifvqc0g","pricing_plan_id":"cebpf4jnsgd1na2vs0mg"},{"bike_id":"b0cae3bc-ca54-49a8-9e15-e8771c355e27","system_id":"levelo_inurba_marseille","lat":43.26947,"lon":5.40254,"is_reserved":false,"is_disabled":false,"rental_uris":{"android":"levelo://app?vid=b0cae3bc-ca54-49a8-9e15-e8771c355e27","ios":"levelo://app?vid=b0cae3bc-ca54-49a8-9e15-e8771c355e27"},"vehicle_type_id":"4","last_reported":1728054566,"current_range_meters":2000,"station_id":"cjm6bp8fraef2m0cb0m0","pricing_plan_id":"cebpf4jnsgd1na2vs0mg"},{"bike_id":"fa720896-6722-4236-89e7-f13512558494","system_id":"levelo_inurba_marseille","lat":43.2937,"lon":5.37839,"is_reserved":false,"is_disabled":false,"rental_uris":{"android":"levelo://app?vid=fa720896-6722-4236-89e7-f13512558494","ios":"levelo://app?vid=fa720896-6722-4236-89e7-f13512558494"},"vehicle_type_id":"4","last_reported":1728054566,"current_range_meters":38800,"station_id":"ce4bgjh2rcd13ifvqbf0","pricing_plan_id":"cebpf4jnsgd1na2vs0mg"},{"bike_id":"ee401616-448e-4017-9cf8-b771bd824c1c","system_id":"levelo_inurba_marseille","lat":43.31331,"lon":5.3969,"is_reserved":false,"is_disabled":false,"rental_uris":{"android":"levelo://app?vid=ee401616-448e-4017-9cf8-b771bd824c1c","ios":"levelo://app?vid=ee401616-448e-4017-9cf8-b771bd824c1c"},"vehicle_type_id":"4","last_reported":1728054566,"current_range_meters":39200,"station_id":"ce4bgvp2rcd13ifvqcu0","pricing_plan_id":"cebpf4jnsgd1na2vs0mg"},{"bike_id":"f36f5f45-0e07-46d0-89d6-5d25abe1e53f","system_id":"levelo_inurba_marseille","lat":43.33022,"lon":5.39042,"is_reserved":false,"is_disabled":false,"rental_uris":{"android":"levelo://app?vid=f36f5f45-0e07-46d0-89d6-5d25abe1e53f","ios":"levelo://app?vid=f36f5f45-0e07-46d0-89d6-5d25abe1e53f"},"vehicle_type_id":"4","last_reported":1728054566,"current_range_meters":23200,"station_id":"ce4bhr92rcd13ifvqhrg","pricing_plan_id":"cebpf4jnsgd1na2vs0mg"},{"bike_id":"50e6aeb8-7e25-4c09-9781-24c9f5d23dff","system_id":"levelo_inurba_marseille","lat":43.33752,"lon":5.37443,"is_reserved":false,"is_disabled":false,"rental_uris":{"android":"levelo://app?vid=50e6aeb8-7e25-4c09-9781-24c9f5d23dff","ios":"levelo://app?vid=50e6aeb8-7e25-4c09-9781-24c9f5d23dff"},"vehicle_type_id":"4","last_reported":1728054566,"current_range_meters":32000,"station_id":"","pricing_plan_id":"cebpf4jnsgd1na2vs0mg"},{"bike_id":"ca1fd373-8e6c-4001-8bca-fbe07985dc68","system_id":"levelo_inurba_marseille","lat":43.254883,"lon":5.376143,"is_reserved":false,"is_disabled":false,"rental_uris":{"android":"levelo://app?vid=ca1fd373-8e6c-4001-8bca-fbe07985dc68","ios":"levelo://app?vid=ca1fd373-8e6c-4001-8bca-fbe07985dc68"},"vehicle_type_id":"4","last_reported":1728054566,"current_range_meters":14800,"station_id":"ce4bhh12rcd13ifvqff0","pricing_plan_id":"cebpf4jnsgd1na2vs0mg"},{"bike_id":"2fa80a2d-1591-492e-b225-696fcb5c87fd","system_id":"levelo_inurba_marseille","lat":43.26551,"lon":5.37285,"is_reserved":false,"is_disabled":false,"rental_uris":{"android":"levelo://app?vid=2fa80a2d-1591-492e-b225-696fcb5c87fd","ios":"levelo://app?vid=2fa80a2d-1591-492e-b225-696fcb5c87fd"},"vehicle_type_id":"4","last_reported":1728054566,"current_range_meters":30000,"station_id":"ce4bhg12rcd13ifvqf70","pricing_plan_id":"cebpf4jnsgd1na2vs0mg"},{"bike_id":"654eb909-5ed6-47ab-b052-18059fb4a04c","system_id":"levelo_inurba_marseille","lat":43.29974,"lon":5.37173,"is_reserved":false,"is_disabled":false,"rental_uris":{"android":"levelo://app?vid=654eb909-5ed6-47ab-b052-18059fb4a04c","ios":"levelo://app?vid=654eb909-5ed6-47ab-b052-18059fb4a04c"},"vehicle_type_id":"4","last_reported":1728054566,"current_range_meters":24800,"station_id":"ce4bgr92rcd13ifvqc7g","pricing_plan_id":"cebpf4jnsgd1na2vs0mg"},{"bike_id":"166e3348-9679-4e6e-9add-7357dfdbb1ad","system_id":"levelo_inurba_marseille","lat":43.29755,"lon":5.37093,"is_reserved":false,"is_disabled":false,"rental_uris":{"android":"levelo://app?vid=166e3348-9679-4e6e-9add-7357dfdbb1ad","ios":"levelo://app?vid=166e3348-9679-4e6e-9add-7357dfdbb1ad"},"vehicle_type_id":"4","last_reported":1728054566,"current_range_meters":38800,"station_id":"ce4bgop2rcd13ifvqc1g","pricing_plan_id":"cebpf4jnsgd1na2vs0mg"},{"bike_id":"1235b972-1e95-4c72-bc01-d6d0780807f2","system_id":"levelo_inurba_marseille","lat":43.2894,"lon":5.3639,"is_reserved":false,"is_disabled":false,"rental_uris":{"android":"levelo://app?vid=1235b972-1e95-4c72-bc01-d6d0780807f2","ios":"levelo://app?vid=1235b972-1e95-4c72-bc01-d6d0780807f2"},"vehicle_type_id":"4","last_reported":1728054566,"current_range_meters":22000,"station_id":"ce4bhc92rcd13ifvqetg","pricing_plan_id":"cebpf4jnsgd1na2vs0mg"},{"bike_id":"1931cb15-0560-4219-a7f1-15fe4affd917","system_id":"levelo_inurba_marseille","lat":43.243655,"lon":5.379588,"is_reserved":false,"is_disabled":false,"rental_uris":{"android":"levelo://app?vid=1931cb15-0560-4219-a7f1-15fe4affd917","ios":"levelo://app?vid=1931cb15-0560-4219-a7f1-15fe4affd917"},"vehicle_type_id":"4","last_reported":1728054566,"current_range_meters":4800,"station_id":"ce4bhnp2rcd13ifvqgvg","pricing_plan_id":"cebpf4jnsgd1na2vs0mg"},{"bike_id":"a3824d28-62a1-444e-90fa-f0f15aa0a303","system_id":"levelo_inurba_marseille","lat":43.25867,"lon":5.39895,"is_reserved":false,"is_disabled":false,"rental_uris":{"android":"levelo://app?vid=a3824d28-62a1-444e-90fa-f0f15aa0a303","ios":"levelo://app?vid=a3824d28-62a1-444e-90fa-f0f15aa0a303"},"vehicle_type_id":"4","last_reported":1728054566,"current_range_meters":23200,"station_id":"ce4bhl92rcd13ifvqghg","pricing_plan_id":"cebpf4jnsgd1na2vs0mg"},{"bike_id":"6ce60676-3f86-4aaa-a5df-572436c32ad4","system_id":"levelo_inurba_marseille","lat":43.23193,"lon":5.35545,"is_reserved":false,"is_disabled":false,"rental_uris":{"android":"levelo://app?vid=6ce60676-3f86-4aaa-a5df-572436c32ad4","ios":"levelo://app?vid=6ce60676-3f86-4aaa-a5df-572436c32ad4"},"vehicle_type_id":"4","last_reported":1728054566,"current_range_meters":14400,"station_id":"ce4bhu92rcd13ifvqi70","pricing_plan_id":"cebpf4jnsgd1na2vs0mg"},{"bike_id":"319e64f5-4b5c-4a5a-b46b-da0758786c14","system_id":"levelo_inurba_marseille","lat":43.2958,"lon":5.36743,"is_reserved":false,"is_disabled":false,"rental_uris":{"android":"levelo://app?vid=319e64f5-4b5c-4a5a-b46b-da0758786c14","ios":"levelo://app?vid=319e64f5-4b5c-4a5a-b46b-da0758786c14"},"vehicle_type_id":"4","last_reported":1728054566,"current_range_meters":31200,"station_id":"ce4bgph2rcd13ifvqc2g","pricing_plan_id":"cebpf4jnsgd1na2vs0mg"},{"bike_id":"7c71d753-cdbb-4d8d-8c96-d3ea74207cfc","system_id":"levelo_inurba_marseille","lat":43.31367,"lon":5.38491,"is_reserved":false,"is_disabled":false,"rental_uris":{"android":"levelo://app?vid=7c71d753-cdbb-4d8d-8c96-d3ea74207cfc","ios":"levelo://app?vid=7c71d753-cdbb-4d8d-8c96-d3ea74207cfc"},"vehicle_type_id":"4","last_reported":1728054566,"current_range_meters":2800,"station_id":"ce4bgt92rcd13ifvqcf0","pricing_plan_id":"cebpf4jnsgd1na2vs0mg"},{"bike_id":"6e35f1ac-5f7c-4f6d-86df-597b763c3f74","system_id":"levelo_inurba_marseille","lat":43.29047,"lon":5.39947,"is_reserved":false,"is_disabled":false,"rental_uris":{"android":"levelo://app?vid=6e35f1ac-5f7c-4f6d-86df-597b763c3f74","ios":"levelo://app?vid=6e35f1ac-5f7c-4f6d-86df-597b763c3f74"},"vehicle_type_id":"4","last_reported":1728054566,"current_range_meters":6800,"station_id":"ce4bh392rcd13ifvqdm0","pricing_plan_id":"cebpf4jnsgd1na2vs0mg"},{"bike_id":"a9338a90-5308-4ab5-b892-58e3ab621376","system_id":"levelo_inurba_marseille","lat":43.29722,"lon":5.37701,"is_reserved":false,"is_disabled":false,"rental_uris":{"android":"levelo://app?vid=a9338a90-5308-4ab5-b892-58e3ab621376","ios":"levelo://app?vid=a9338a90-5308-4ab5-b892-58e3ab621376"},"vehicle_type_id":"4","last_reported":1728054566,"current_range_meters":2800,"station_id":"ce4bgkh2rcd13ifvqbl0","pricing_plan_id":"cebpf4jnsgd1na2vs0mg"},{"bike_id":"c702d214-432e-4a5d-835c-0fc2d9e67048","system_id":"levelo_inurba_marseille","lat":43.32344,"lon":5.406255,"is_reserved":false,"is_disabled":false,"rental_uris":{"android":"levelo://app?vid=c702d214-432e-4a5d-835c-0fc2d9e67048","ios":"levelo://app?vid=c702d214-432e-4a5d-835c-0fc2d9e67048"},"vehicle_type_id":"4","last_reported":1728054566,"current_range_meters":28000,"station_id":"ce4bhq92rcd13ifvqhjg","pricing_plan_id":"cebpf4jnsgd1na2vs0mg"},{"bike_id":"ac491eed-1fef-4832-b4ca-d42b5b54f337","system_id":"levelo_inurba_marseille","lat":43.28426,"lon":5.34985,"is_reserved":false,"is_disabled":false,"rental_uris":{"android":"levelo://app?vid=ac491eed-1fef-4832-b4ca-d42b5b54f337","ios":"levelo://app?vid=ac491eed-1fef-4832-b4ca-d42b5b54f337"},"vehicle_type_id":"4","last_reported":1728054566,"current_range_meters":36400,"station_id":"ce4bhbh2rcd13ifvqepg","pricing_plan_id":"cebpf4jnsgd1na2vs0mg"},{"bike_id":"bb5f5452-4b9b-417d-b148-b396a874f3d9","system_id":"levelo_inurba_marseille","lat":43.33765,"lon":5.37438,"is_reserved":false,"is_disabled":false,"rental_uris":{"android":"levelo://app?vid=bb5f5452-4b9b-417d-b148-b396a874f3d9","ios":"levelo://app?vid=bb5f5452-4b9b-417d-b148-b396a874f3d9"},"vehicle_type_id":"4","last_reported":1728054566,"current_range_meters":36400,"station_id":"","pricing_plan_id":"cebpf4jnsgd1na2vs0mg"},{"bike_id":"b7d27fac-b3d9-4247-bdaa-8183e526e1c3","system_id":"levelo_inurba_marseille","lat":43.26496,"lon":5.39541,"is_reserved":false,"is_disabled":false,"rental_uris":{"android":"levelo://app?vid=b7d27fac-b3d9-4247-bdaa-8183e526e1c3","ios":"levelo://app?vid=b7d27fac-b3d9-4247-bdaa-8183e526e1c3"},"vehicle_type_id":"4","last_reported":1728054566,"current_range_meters":9600,"station_id":"ce4bhi12rcd13ifvqfq0","pricing_plan_id":"cebpf4jnsgd1na2vs0mg"},{"bike_id":"364c6e35-9ac3-4ea6-b01b-b6a378366ce5","system_id":"levelo_inurba_marseille","lat":43.25086,"lon":5.39526,"is_reserved":false,"is_disabled":false,"rental_uris":{"android":"levelo://app?vid=364c6e35-9ac3-4ea6-b01b-b6a378366ce5","ios":"levelo://app?vid=364c6e35-9ac3-4ea6-b01b-b6a378366ce5"},"vehicle_type_id":"4","last_reported":1728054566,"current_range_meters":5600,"station_id":"ce4bhm12rcd13ifvqgkg","pricing_plan_id":"cebpf4jnsgd1na2vs0mg"},{"bike_id":"8e1b100c-b7d6-4d05-8c21-c65318282235","system_id":"levelo_inurba_marseille","lat":43.28279,"lon":5.3507,"is_reserved":false,"is_disabled":false,"rental_uris":{"android":"levelo://app?vid=8e1b100c-b7d6-4d05-8c21-c65318282235","ios":"levelo://app?vid=8e1b100c-b7d6-4d05-8c21-c65318282235"},"vehicle_type_id":"4","last_reported":1728054566,"current_range_meters":6800,"station_id":"ce4bhbp2rcd13ifvqerg","pricing_plan_id":"cebpf4jnsgd1na2vs0mg"},{"bike_id":"d7a0298f-5c2b-438d-ab05-5d6a7ac83160","system_id":"levelo_inurba_marseille","lat":43.30795,"lon":5.4353,"is_reserved":false,"is_disabled":false,"rental_uris":{"android":"levelo://app?vid=d7a0298f-5c2b-438d-ab05-5d6a7ac83160","ios":"levelo://app?vid=d7a0298f-5c2b-438d-ab05-5d6a7ac83160"},"vehicle_type_id":"4","last_reported":1728054566,"current_range_meters":38800,"station_id":"ce4bhph2rcd13ifvqheg","pricing_plan_id":"cebpf4jnsgd1na2vs0mg"},{"bike_id":"21b82fcf-16a7-49ce-a6e0-6e159f2278c0","system_id":"levelo_inurba_marseille","lat":43.27174,"lon":5.40996,"is_reserved":false,"is_disabled":false,"rental_uris":{"android":"levelo://app?vid=21b82fcf-16a7-49ce-a6e0-6e159f2278c0","ios":"levelo://app?vid=21b82fcf-16a7-49ce-a6e0-6e159f2278c0"},"vehicle_type_id":"4","last_reported":1728054566,"current_range_meters":26000,"station_id":"ce4bhl12rcd13ifvqgf0","pricing_plan_id":"cebpf4jnsgd1na2vs0mg"},{"bike_id":"c9b17965-01b8-492c-82e0-72357686b52a","system_id":"levelo_inurba_marseille","lat":43.25117,"lon":5.40317,"is_reserved":false,"is_disabled":false,"rental_uris":{"android":"levelo://app?vid=c9b17965-01b8-492c-82e0-72357686b52a","ios":"levelo://app?vid=c9b17965-01b8-492c-82e0-72357686b52a"},"vehicle_type_id":"4","last_reported":1728054566,"current_range_meters":24800,"station_id":"ce4bhlh2rcd13ifvqgig","pricing_plan_id":"cebpf4jnsgd1na2vs0mg"},{"bike_id":"a7923302-db92-4415-b286-8db9f6371804","system_id":"levelo_inurba_marseille","lat":43.29034,"lon":5.37567,"is_reserved":false,"is_disabled":false,"rental_uris":{"android":"levelo://app?vid=a7923302-db92-4415-b286-8db9f6371804","ios":"levelo://app?vid=a7923302-db92-4415-b286-8db9f6371804"},"vehicle_type_id":"4","last_reported":1728054566,"current_range_meters":16800,"station_id":"ce4bh692rcd13ifvqe90","pricing_plan_id":"cebpf4jnsgd1na2vs0mg"},{"bike_id":"6edb6a1f-c151-4ec9-9308-f41e759a4b31","system_id":"levelo_inurba_marseille","lat":43.2549,"lon":5.37649,"is_reserved":false,"is_disabled":false,"rental_uris":{"android":"levelo://app?vid=6edb6a1f-c151-4ec9-9308-f41e759a4b31","ios":"levelo://app?vid=6edb6a1f-c151-4ec9-9308-f41e759a4b31"},"vehicle_type_id":"4","last_reported":1728054566,"current_range_meters":20000,"station_id":"ce4bhh12rcd13ifvqff0","pricing_plan_id":"cebpf4jnsgd1na2vs0mg"},{"bike_id":"09261616-a755-4cb2-91c5-524d0c5271e7","system_id":"levelo_inurba_marseille","lat":43.27813,"lon":5.40716,"is_reserved":false,"is_disabled":false,"rental_uris":{"android":"levelo://app?vid=09261616-a755-4cb2-91c5-524d0c5271e7","ios":"levelo://app?vid=09261616-a755-4cb2-91c5-524d0c5271e7"},"vehicle_type_id":"4","last_reported":1728054566,"current_range_meters":4000,"station_id":"ce4bhnh2rcd13ifvqgtg","pricing_plan_id":"cebpf4jnsgd1na2vs0mg"},{"bike_id":"ae06c55b-ba32-47c0-8eff-d32f8582347d","system_id":"levelo_inurba_marseille","lat":43.2798,"lon":5.38744,"is_reserved":false,"is_disabled":false,"rental_uris":{"android":"levelo://app?vid=ae06c55b-ba32-47c0-8eff-d32f8582347d","ios":"levelo://app?vid=ae06c55b-ba32-47c0-8eff-d32f8582347d"},"vehicle_type_id":"4","last_reported":1728054566,"current_range_meters":38800,"station_id":"ce4bhg12rcd13ifvqf80","pricing_plan_id":"cebpf4jnsgd1na2vs0mg"},{"bike_id":"7294dc29-da5a-48ef-9815-5e1d9ec776a6","system_id":"levelo_inurba_marseille","lat":43.26566,"lon":5.3902,"is_reserved":false,"is_disabled":false,"rental_uris":{"android":"levelo://app?vid=7294dc29-da5a-48ef-9815-5e1d9ec776a6","ios":"levelo://app?vid=7294dc29-da5a-48ef-9815-5e1d9ec776a6"},"vehicle_type_id":"4","last_reported":1728054566,"current_range_meters":9200,"station_id":"ce4bhe12rcd13ifvqf30","pricing_plan_id":"cebpf4jnsgd1na2vs0mg"},{"bike_id":"c8e4ff73-620c-4248-92f7-758d5098242c","system_id":"levelo_inurba_marseille","lat":43.22931,"lon":5.35376,"is_reserved":false,"is_disabled":false,"rental_uris":{"android":"levelo://app?vid=c8e4ff73-620c-4248-92f7-758d5098242c","ios":"levelo://app?vid=c8e4ff73-620c-4248-92f7-758d5098242c"},"vehicle_type_id":"4","last_reported":1728054566,"current_range_meters":20400,"station_id":"cpo3532slgdg3j2ikp40","pricing_plan_id":"cebpf4jnsgd1na2vs0mg"},{"bike_id":"d5158089-3a37-467c-a561-c8a0186135db","system_id":"levelo_inurba_marseille","lat":43.28428,"lon":5.35,"is_reserved":false,"is_disabled":false,"rental_uris":{"android":"levelo://app?vid=d5158089-3a37-467c-a561-c8a0186135db","ios":"levelo://app?vid=d5158089-3a37-467c-a561-c8a0186135db"},"vehicle_type_id":"4","last_reported":1728054566,"current_range_meters":17600,"station_id":"ce4bhbh2rcd13ifvqepg","pricing_plan_id":"cebpf4jnsgd1na2vs0mg"},{"bike_id":"7a8064d8-2c61-42bf-93c2-86140e052d4b","system_id":"levelo_inurba_marseille","lat":43.29048,"lon":5.3591,"is_reserved":false,"is_disabled":false,"rental_uris":{"android":"levelo://app?vid=7a8064d8-2c61-42bf-93c2-86140e052d4b","ios":"levelo://app?vid=7a8064d8-2c61-42bf-93c2-86140e052d4b"},"vehicle_type_id":"4","last_reported":1728054566,"current_range_meters":12000,"station_id":"ce4bha92rcd13ifvqeg0","pricing_plan_id":"cebpf4jnsgd1na2vs0mg"},{"bike_id":"ba647dd6-c256-4455-9ccc-7fcafd9016d4","system_id":"levelo_inurba_marseille","lat":43.30547,"lon":5.36698,"is_reserved":false,"is_disabled":false,"rental_uris":{"android":"levelo://app?vid=ba647dd6-c256-4455-9ccc-7fcafd9016d4","ios":"levelo://app?vid=ba647dd6-c256-4455-9ccc-7fcafd9016d4"},"vehicle_type_id":"4","last_reported":1728054566,"current_range_meters":28400,"station_id":"ce4bgrp2rcd13ifvqc9g","pricing_plan_id":"cebpf4jnsgd1na2vs0mg"},{"bike_id":"77c59eab-5250-44c4-be86-099c0defe9c4","system_id":"levelo_inurba_marseille","lat":43.33755,"lon":5.37442,"is_reserved":false,"is_disabled":false,"rental_uris":{"android":"levelo://app?vid=77c59eab-5250-44c4-be86-099c0defe9c4","ios":"levelo://app?vid=77c59eab-5250-44c4-be86-099c0defe9c4"},"vehicle_type_id":"4","last_reported":1728054566,"current_range_meters":30400,"station_id":"","pricing_plan_id":"cebpf4jnsgd1na2vs0mg"},{"bike_id":"be8cdbc3-f6de-4414-9726-620c4b18a83e","system_id":"levelo_inurba_marseille","lat":43.26944,"lon":5.40247,"is_reserved":false,"is_disabled":false,"rental_uris":{"android":"levelo://app?vid=be8cdbc3-f6de-4414-9726-620c4b18a83e","ios":"levelo://app?vid=be8cdbc3-f6de-4414-9726-620c4b18a83e"},"vehicle_type_id":"4","last_reported":1728054566,"current_range_meters":10000,"station_id":"cjm6bp8fraef2m0cb0m0","pricing_plan_id":"cebpf4jnsgd1na2vs0mg"},{"bike_id":"65ddf105-5a24-49eb-86fe-478ad8aa9831","system_id":"levelo_inurba_marseille","lat":43.26187,"lon":5.37446,"is_reserved":false,"is_disabled":false,"rental_uris":{"android":"levelo://app?vid=65ddf105-5a24-49eb-86fe-478ad8aa9831","ios":"levelo://app?vid=65ddf105-5a24-49eb-86fe-478ad8aa9831"},"vehicle_type_id":"4","last_reported":1728054566,"current_range_meters":4000,"station_id":"ce4bhgp2rcd13ifvqfc0","pricing_plan_id":"cebpf4jnsgd1na2vs0mg"},{"bike_id":"fa009e38-9978-4a0c-8d74-7cc8752f32b5","system_id":"levelo_inurba_marseille","lat":43.25863,"lon":5.39899,"is_reserved":false,"is_disabled":false,"rental_uris":{"android":"levelo://app?vid=fa009e38-9978-4a0c-8d74-7cc8752f32b5","ios":"levelo://app?vid=fa009e38-9978-4a0c-8d74-7cc8752f32b5"},"vehicle_type_id":"4","last_reported":1728054566,"current_range_meters":32000,"station_id":"ce4bhl92rcd13ifvqghg","pricing_plan_id":"cebpf4jnsgd1na2vs0mg"},{"bike_id":"141d4c76-0791-46ef-9f99-31d55180248e","system_id":"levelo_inurba_marseille","lat":43.26495,"lon":5.39538,"is_reserved":false,"is_disabled":false,"rental_uris":{"android":"levelo://app?vid=141d4c76-0791-46ef-9f99-31d55180248e","ios":"levelo://app?vid=141d4c76-0791-46ef-9f99-31d55180248e"},"vehicle_type_id":"4","last_reported":1728054566,"current_range_meters":25200,"station_id":"ce4bhi12rcd13ifvqfq0","pricing_plan_id":"cebpf4jnsgd1na2vs0mg"},{"bike_id":"83623599-9828-4154-b0da-6db73f040383","system_id":"levelo_inurba_marseille","lat":43.3149,"lon":5.37297,"is_reserved":false,"is_disabled":false,"rental_uris":{"android":"levelo://app?vid=83623599-9828-4154-b0da-6db73f040383","ios":"levelo://app?vid=83623599-9828-4154-b0da-6db73f040383"},"vehicle_type_id":"4","last_reported":1728054566,"current_range_meters":14000,"station_id":"ce4bgt12rcd13ifvqcd0","pricing_plan_id":"cebpf4jnsgd1na2vs0mg"},{"bike_id":"0818a9a3-df08-4e31-abd7-9006667250dc","system_id":"levelo_inurba_marseille","lat":43.29693,"lon":5.37286,"is_reserved":false,"is_disabled":false,"rental_uris":{"android":"levelo://app?vid=0818a9a3-df08-4e31-abd7-9006667250dc","ios":"levelo://app?vid=0818a9a3-df08-4e31-abd7-9006667250dc"},"vehicle_type_id":"4","last_reported":1728054566,"current_range_meters":28000,"station_id":"ce4bgk12rcd13ifvqbj0","pricing_plan_id":"cebpf4jnsgd1na2vs0mg"},{"bike_id":"f261b418-7c26-444a-9925-bad57735eb6c","system_id":"levelo_inurba_marseille","lat":43.25085,"lon":5.39524,"is_reserved":false,"is_disabled":false,"rental_uris":{"android":"levelo://app?vid=f261b418-7c26-444a-9925-bad57735eb6c","ios":"levelo://app?vid=f261b418-7c26-444a-9925-bad57735eb6c"},"vehicle_type_id":"4","last_reported":1728054566,"current_range_meters":10800,"station_id":"ce4bhm12rcd13ifvqgkg","pricing_plan_id":"cebpf4jnsgd1na2vs0mg"},{"bike_id":"095f004b-c5f5-432c-ba39-e816d702dd5c","system_id":"levelo_inurba_marseille","lat":43.30551,"lon":5.36544,"is_reserved":false,"is_disabled":false,"rental_uris":{"android":"levelo://app?vid=095f004b-c5f5-432c-ba39-e816d702dd5c","ios":"levelo://app?vid=095f004b-c5f5-432c-ba39-e816d702dd5c"},"vehicle_type_id":"4","last_reported":1728054566,"current_range_meters":22800,"station_id":"ce4bgs12rcd13ifvqcag","pricing_plan_id":"cebpf4jnsgd1na2vs0mg"},{"bike_id":"b417a8d0-1fac-4a2b-9294-35cea48e57c1","system_id":"levelo_inurba_marseille","lat":43.33024,"lon":5.39039,"is_reserved":false,"is_disabled":false,"rental_uris":{"android":"levelo://app?vid=b417a8d0-1fac-4a2b-9294-35cea48e57c1","ios":"levelo://app?vid=b417a8d0-1fac-4a2b-9294-35cea48e57c1"},"vehicle_type_id":"4","last_reported":1728054566,"current_range_meters":32000,"station_id":"ce4bhr92rcd13ifvqhrg","pricing_plan_id":"cebpf4jnsgd1na2vs0mg"},{"bike_id":"cd263065-6168-49c0-ba60-b843a97d0388","system_id":"levelo_inurba_marseille","lat":43.26804,"lon":5.40252,"is_reserved":false,"is_disabled":false,"rental_uris":{"android":"levelo://app?vid=cd263065-6168-49c0-ba60-b843a97d0388","ios":"levelo://app?vid=cd263065-6168-49c0-ba60-b843a97d0388"},"vehicle_type_id":"4","last_reported":1728054566,"current_range_meters":30000,"station_id":"ce501612rcd8frsf0b60","pricing_plan_id":"cebpf4jnsgd1na2vs0mg"},{"bike_id":"c399cc96-15c6-4b02-b67f-0ea635f4cc52","system_id":"levelo_inurba_marseille","lat":43.2768,"lon":5.38864,"is_reserved":false,"is_disabled":false,"rental_uris":{"android":"levelo://app?vid=c399cc96-15c6-4b02-b67f-0ea635f4cc52","ios":"levelo://app?vid=c399cc96-15c6-4b02-b67f-0ea635f4cc52"},"vehicle_type_id":"4","last_reported":1728054566,"current_range_meters":6400,"station_id":"ce4bhi12rcd13ifvqfo0","pricing_plan_id":"cebpf4jnsgd1na2vs0mg"},{"bike_id":"3d743f14-6bda-4d52-ac79-3261a0662f90","system_id":"levelo_inurba_marseille","lat":43.25082,"lon":5.39513,"is_reserved":false,"is_disabled":false,"rental_uris":{"android":"levelo://app?vid=3d743f14-6bda-4d52-ac79-3261a0662f90","ios":"levelo://app?vid=3d743f14-6bda-4d52-ac79-3261a0662f90"},"vehicle_type_id":"4","last_reported":1728054566,"current_range_meters":39200,"station_id":"ce4bhm12rcd13ifvqgkg","pricing_plan_id":"cebpf4jnsgd1na2vs0mg"},{"bike_id":"91f5d4d0-29b4-416e-b80a-21fa1cdd290c","system_id":"levelo_inurba_marseille","lat":43.25027,"lon":5.375498,"is_reserved":false,"is_disabled":false,"rental_uris":{"android":"levelo://app?vid=91f5d4d0-29b4-416e-b80a-21fa1cdd290c","ios":"levelo://app?vid=91f5d4d0-29b4-416e-b80a-21fa1cdd290c"},"vehicle_type_id":"4","last_reported":1728054566,"current_range_meters":16400,"station_id":"","pricing_plan_id":"cebpf4jnsgd1na2vs0mg"},{"bike_id":"411a622e-0c64-4ae7-ab3a-3b4f2603408c","system_id":"levelo_inurba_marseille","lat":43.29897,"lon":5.43667,"is_reserved":false,"is_disabled":false,"rental_uris":{"android":"levelo://app?vid=411a622e-0c64-4ae7-ab3a-3b4f2603408c","ios":"levelo://app?vid=411a622e-0c64-4ae7-ab3a-3b4f2603408c"},"vehicle_type_id":"4","last_reported":1728054566,"current_range_meters":39200,"station_id":"ce4bhpp2rcd13ifvqhfg","pricing_plan_id":"cebpf4jnsgd1na2vs0mg"},{"bike_id":"d9513a24-3235-43a7-b9a5-1c5cfe37603f","system_id":"levelo_inurba_marseille","lat":43.23056,"lon":5.35493,"is_reserved":false,"is_disabled":false,"rental_uris":{"android":"levelo://app?vid=d9513a24-3235-43a7-b9a5-1c5cfe37603f","ios":"levelo://app?vid=d9513a24-3235-43a7-b9a5-1c5cfe37603f"},"vehicle_type_id":"4","last_reported":1728054566,"current_range_meters":24800,"station_id":"cpo3342slgdg3j2ifvpg","pricing_plan_id":"cebpf4jnsgd1na2vs0mg"},{"bike_id":"5fc891cd-3f05-499c-a7e9-7777b310368e","system_id":"levelo_inurba_marseille","lat":43.28857,"lon":5.39302,"is_reserved":false,"is_disabled":false,"rental_uris":{"android":"levelo://app?vid=5fc891cd-3f05-499c-a7e9-7777b310368e","ios":"levelo://app?vid=5fc891cd-3f05-499c-a7e9-7777b310368e"},"vehicle_type_id":"4","last_reported":1728054566,"current_range_meters":6400,"station_id":"ce4bh2p2rcd13ifvqdi0","pricing_plan_id":"cebpf4jnsgd1na2vs0mg"},{"bike_id":"7e470b60-8c40-41b4-9f47-c4247df50851","system_id":"levelo_inurba_marseille","lat":43.24081,"lon":5.37754,"is_reserved":false,"is_disabled":false,"rental_uris":{"android":"levelo://app?vid=7e470b60-8c40-41b4-9f47-c4247df50851","ios":"levelo://app?vid=7e470b60-8c40-41b4-9f47-c4247df50851"},"vehicle_type_id":"4","last_reported":1728054566,"current_range_meters":19200,"station_id":"ce4bhnp2rcd13ifvqgvg","pricing_plan_id":"cebpf4jnsgd1na2vs0mg"},{"bike_id":"57138f47-3f11-45ab-b570-bb2f34c56e96","system_id":"levelo_inurba_marseille","lat":43.27569,"lon":5.38405,"is_reserved":false,"is_disabled":false,"rental_uris":{"android":"levelo://app?vid=57138f47-3f11-45ab-b570-bb2f34c56e96","ios":"levelo://app?vid=57138f47-3f11-45ab-b570-bb2f34c56e96"},"vehicle_type_id":"4","last_reported":1728054566,"current_range_meters":22400,"station_id":"ce4bhh92rcd13ifvqfi0","pricing_plan_id":"cebpf4jnsgd1na2vs0mg"},{"bike_id":"4e0c83a2-b0c3-4894-8559-e509681998d3","system_id":"levelo_inurba_marseille","lat":43.31127,"lon":5.38334,"is_reserved":false,"is_disabled":false,"rental_uris":{"android":"levelo://app?vid=4e0c83a2-b0c3-4894-8559-e509681998d3","ios":"levelo://app?vid=4e0c83a2-b0c3-4894-8559-e509681998d3"},"vehicle_type_id":"4","last_reported":1728054566,"current_range_meters":22800,"station_id":"","pricing_plan_id":"cebpf4jnsgd1na2vs0mg"},{"bike_id":"39629a34-f386-4e9e-be10-8e3977ab4b75","system_id":"levelo_inurba_marseille","lat":43.29569,"lon":5.37522,"is_reserved":false,"is_disabled":false,"rental_uris":{"android":"levelo://app?vid=39629a34-f386-4e9e-be10-8e3977ab4b75","ios":"levelo://app?vid=39629a34-f386-4e9e-be10-8e3977ab4b75"},"vehicle_type_id":"4","last_reported":1728054566,"current_range_meters":0,"station_id":"ce4bgh92rcd13ifvqb50","pricing_plan_id":"cebpf4jnsgd1na2vs0mg"},{"bike_id":"dc852ba8-32f2-497f-a66a-6178eae58d48","system_id":"levelo_inurba_marseille","lat":43.32479,"lon":5.36567,"is_reserved":false,"is_disabled":false,"rental_uris":{"android":"levelo://app?vid=dc852ba8-32f2-497f-a66a-6178eae58d48","ios":"levelo://app?vid=dc852ba8-32f2-497f-a66a-6178eae58d48"},"vehicle_type_id":"4","last_reported":1728054566,"current_range_meters":10800,"station_id":"ce4bhs12rcd13ifvqhvg","pricing_plan_id":"cebpf4jnsgd1na2vs0mg"},{"bike_id":"701c6d99-5cc9-4f4a-aff8-cbd84ddd36e7","system_id":"levelo_inurba_marseille","lat":43.25108,"lon":5.40321,"is_reserved":false,"is_disabled":false,"rental_uris":{"android":"levelo://app?vid=701c6d99-5cc9-4f4a-aff8-cbd84ddd36e7","ios":"levelo://app?vid=701c6d99-5cc9-4f4a-aff8-cbd84ddd36e7"},"vehicle_type_id":"4","last_reported":1728054566,"current_range_meters":38800,"station_id":"ce4bhlh2rcd13ifvqgig","pricing_plan_id":"cebpf4jnsgd1na2vs0mg"},{"bike_id":"7449fd64-9630-4a1c-a770-cf3fbf60c649","system_id":"levelo_inurba_marseille","lat":43.29614,"lon":5.3773,"is_reserved":false,"is_disabled":false,"rental_uris":{"android":"levelo://app?vid=7449fd64-9630-4a1c-a770-cf3fbf60c649","ios":"levelo://app?vid=7449fd64-9630-4a1c-a770-cf3fbf60c649"},"vehicle_type_id":"4","last_reported":1728054566,"current_range_meters":38800,"station_id":"ce4bgi92rcd13ifvqb90","pricing_plan_id":"cebpf4jnsgd1na2vs0mg"},{"bike_id":"745956e2-85a4-4e28-8a9f-f9dc9abb062e","system_id":"levelo_inurba_marseille","lat":43.31072,"lon":5.40078,"is_reserved":false,"is_disabled":false,"rental_uris":{"android":"levelo://app?vid=745956e2-85a4-4e28-8a9f-f9dc9abb062e","ios":"levelo://app?vid=745956e2-85a4-4e28-8a9f-f9dc9abb062e"},"vehicle_type_id":"4","last_reported":1728054566,"current_range_meters":38800,"station_id":"","pricing_plan_id":"cebpf4jnsgd1na2vs0mg"},{"bike_id":"d8a71f1c-4447-49a3-9875-b3a81dd08a52","system_id":"levelo_inurba_marseille","lat":43.27842,"lon":5.39205,"is_reserved":false,"is_disabled":false,"rental_uris":{"android":"levelo://app?vid=d8a71f1c-4447-49a3-9875-b3a81dd08a52","ios":"levelo://app?vid=d8a71f1c-4447-49a3-9875-b3a81dd08a52"},"vehicle_type_id":"4","last_reported":1728054566,"current_range_meters":11200,"station_id":"ce4bhjp2rcd13ifvqga0","pricing_plan_id":"cebpf4jnsgd1na2vs0mg"},{"bike_id":"cc8612c2-298f-4c0f-9e0f-914f9ab06767","system_id":"levelo_inurba_marseille","lat":43.2465,"lon":5.38883,"is_reserved":false,"is_disabled":false,"rental_uris":{"android":"levelo://app?vid=cc8612c2-298f-4c0f-9e0f-914f9ab06767","ios":"levelo://app?vid=cc8612c2-298f-4c0f-9e0f-914f9ab06767"},"vehicle_type_id":"4","last_reported":1728054566,"current_range_meters":25200,"station_id":"ce4bhg12rcd13ifvqf60","pricing_plan_id":"cebpf4jnsgd1na2vs0mg"},{"bike_id":"fd67db3d-cfc6-4457-99c9-b1cfb05a9bdf","system_id":"levelo_inurba_marseille","lat":43.23059,"lon":5.35487,"is_reserved":false,"is_disabled":false,"rental_uris":{"android":"levelo://app?vid=fd67db3d-cfc6-4457-99c9-b1cfb05a9bdf","ios":"levelo://app?vid=fd67db3d-cfc6-4457-99c9-b1cfb05a9bdf"},"vehicle_type_id":"4","last_reported":1728054566,"current_range_meters":22000,"station_id":"cpo3342slgdg3j2ifvpg","pricing_plan_id":"cebpf4jnsgd1na2vs0mg"},{"bike_id":"27de9e10-b859-4f21-b954-fdf7390f7da8","system_id":"levelo_inurba_marseille","lat":43.31487,"lon":5.37297,"is_reserved":false,"is_disabled":false,"rental_uris":{"android":"levelo://app?vid=27de9e10-b859-4f21-b954-fdf7390f7da8","ios":"levelo://app?vid=27de9e10-b859-4f21-b954-fdf7390f7da8"},"vehicle_type_id":"4","last_reported":1728054566,"current_range_meters":28400,"station_id":"ce4bgt12rcd13ifvqcd0","pricing_plan_id":"cebpf4jnsgd1na2vs0mg"},{"bike_id":"c34b7ba2-759c-423b-86d7-5178eed8ee47","system_id":"levelo_inurba_marseille","lat":43.2953,"lon":5.39038,"is_reserved":false,"is_disabled":false,"rental_uris":{"android":"levelo://app?vid=c34b7ba2-759c-423b-86d7-5178eed8ee47","ios":"levelo://app?vid=c34b7ba2-759c-423b-86d7-5178eed8ee47"},"vehicle_type_id":"4","last_reported":1728054566,"current_range_meters":6000,"station_id":"ce4bh3p2rcd13ifvqdp0","pricing_plan_id":"cebpf4jnsgd1na2vs0mg"},{"bike_id":"ab9e9c77-bdfd-41c4-aa69-559652e2e35f","system_id":"levelo_inurba_marseille","lat":43.29274,"lon":5.38447,"is_reserved":false,"is_disabled":false,"rental_uris":{"android":"levelo://app?vid=ab9e9c77-bdfd-41c4-aa69-559652e2e35f","ios":"levelo://app?vid=ab9e9c77-bdfd-41c4-aa69-559652e2e35f"},"vehicle_type_id":"4","last_reported":1728054566,"current_range_meters":27600,"station_id":"ce4bh692rcd13ifvqea0","pricing_plan_id":"cebpf4jnsgd1na2vs0mg"},{"bike_id":"abedcaca-ce9a-464c-8437-8a94d42dcb16","system_id":"levelo_inurba_marseille","lat":43.29845,"lon":5.36272,"is_reserved":false,"is_disabled":false,"rental_uris":{"android":"levelo://app?vid=abedcaca-ce9a-464c-8437-8a94d42dcb16","ios":"levelo://app?vid=abedcaca-ce9a-464c-8437-8a94d42dcb16"},"vehicle_type_id":"4","last_reported":1728054566,"current_range_meters":37600,"station_id":"ce4bgpp2rcd13ifvqc3g","pricing_plan_id":"cebpf4jnsgd1na2vs0mg"},{"bike_id":"650262df-c1d1-46ae-ad74-907bc1d8f23e","system_id":"levelo_inurba_marseille","lat":43.28447,"lon":5.39176,"is_reserved":false,"is_disabled":false,"rental_uris":{"android":"levelo://app?vid=650262df-c1d1-46ae-ad74-907bc1d8f23e","ios":"levelo://app?vid=650262df-c1d1-46ae-ad74-907bc1d8f23e"},"vehicle_type_id":"4","last_reported":1728054566,"current_range_meters":20000,"station_id":"ce4bhoh2rcd13ifvqh5g","pricing_plan_id":"cebpf4jnsgd1na2vs0mg"},{"bike_id":"68b3e916-c982-44c4-afa0-77802fb0cdfd","system_id":"levelo_inurba_marseille","lat":43.28276,"lon":5.35076,"is_reserved":false,"is_disabled":false,"rental_uris":{"android":"levelo://app?vid=68b3e916-c982-44c4-afa0-77802fb0cdfd","ios":"levelo://app?vid=68b3e916-c982-44c4-afa0-77802fb0cdfd"},"vehicle_type_id":"4","last_reported":1728054566,"current_range_meters":28000,"station_id":"ce4bhbp2rcd13ifvqerg","pricing_plan_id":"cebpf4jnsgd1na2vs0mg"},{"bike_id":"49121b7b-3a04-410c-9d32-519d85a1f7ba","system_id":"levelo_inurba_marseille","lat":43.29275,"lon":5.36842,"is_reserved":false,"is_disabled":false,"rental_uris":{"android":"levelo://app?vid=49121b7b-3a04-410c-9d32-519d85a1f7ba","ios":"levelo://app?vid=49121b7b-3a04-410c-9d32-519d85a1f7ba"},"vehicle_type_id":"4","last_reported":1728054566,"current_range_meters":38800,"station_id":"ce4bhbp2rcd13ifvqesg","pricing_plan_id":"cebpf4jnsgd1na2vs0mg"},{"bike_id":"ff05e47d-9be3-4488-abdf-d00ade7865e2","system_id":"levelo_inurba_marseille","lat":43.32055,"lon":5.41541,"is_reserved":false,"is_disabled":false,"rental_uris":{"android":"levelo://app?vid=ff05e47d-9be3-4488-abdf-d00ade7865e2","ios":"levelo://app?vid=ff05e47d-9be3-4488-abdf-d00ade7865e2"},"vehicle_type_id":"4","last_reported":1728054566,"current_range_meters":38800,"station_id":"ce4bhq92rcd13ifvqhkg","pricing_plan_id":"cebpf4jnsgd1na2vs0mg"},{"bike_id":"556694e7-b42f-4aa3-b21a-447be4e64dd4","system_id":"levelo_inurba_marseille","lat":43.24669,"lon":5.38155,"is_reserved":false,"is_disabled":false,"rental_uris":{"android":"levelo://app?vid=556694e7-b42f-4aa3-b21a-447be4e64dd4","ios":"levelo://app?vid=556694e7-b42f-4aa3-b21a-447be4e64dd4"},"vehicle_type_id":"4","last_reported":1728054566,"current_range_meters":38800,"station_id":"ce4bhih2rcd13ifvqfr0","pricing_plan_id":"cebpf4jnsgd1na2vs0mg"},{"bike_id":"27e7f6f4-9bfa-4304-b709-0da03928d44d","system_id":"levelo_inurba_marseille","lat":43.29953,"lon":5.41324,"is_reserved":false,"is_disabled":false,"rental_uris":{"android":"levelo://app?vid=27e7f6f4-9bfa-4304-b709-0da03928d44d","ios":"levelo://app?vid=27e7f6f4-9bfa-4304-b709-0da03928d44d"},"vehicle_type_id":"4","last_reported":1728054566,"current_range_meters":38800,"station_id":"ce4bhp12rcd13ifvqh9g","pricing_plan_id":"cebpf4jnsgd1na2vs0mg"},{"bike_id":"2fea117d-023b-467e-93a2-9f0d37f6e5f2","system_id":"levelo_inurba_marseille","lat":43.2783,"lon":5.40735,"is_reserved":false,"is_disabled":false,"rental_uris":{"android":"levelo://app?vid=2fea117d-023b-467e-93a2-9f0d37f6e5f2","ios":"levelo://app?vid=2fea117d-023b-467e-93a2-9f0d37f6e5f2"},"vehicle_type_id":"4","last_reported":1728054566,"current_range_meters":38800,"station_id":"ce4bhnh2rcd13ifvqgtg","pricing_plan_id":"cebpf4jnsgd1na2vs0mg"},{"bike_id":"1b9c660b-18c0-46b2-8a8e-e0945a28e87d","system_id":"levelo_inurba_marseille","lat":43.27058,"lon":5.40255,"is_reserved":false,"is_disabled":false,"rental_uris":{"android":"levelo://app?vid=1b9c660b-18c0-46b2-8a8e-e0945a28e87d","ios":"levelo://app?vid=1b9c660b-18c0-46b2-8a8e-e0945a28e87d"},"vehicle_type_id":"4","last_reported":1728054566,"current_range_meters":32800,"station_id":"ce4bhk92rcd13ifvqgc0","pricing_plan_id":"cebpf4jnsgd1na2vs0mg"},{"bike_id":"05875f5a-6e36-4ed4-b34a-429266400251","system_id":"levelo_inurba_marseille","lat":43.33023,"lon":5.39042,"is_reserved":false,"is_disabled":false,"rental_uris":{"android":"levelo://app?vid=05875f5a-6e36-4ed4-b34a-429266400251","ios":"levelo://app?vid=05875f5a-6e36-4ed4-b34a-429266400251"},"vehicle_type_id":"4","last_reported":1728054566,"current_range_meters":30800,"station_id":"ce4bhr92rcd13ifvqhrg","pricing_plan_id":"cebpf4jnsgd1na2vs0mg"},{"bike_id":"26f290bb-1447-4f43-ab6d-1590e2a06a4b","system_id":"levelo_inurba_marseille","lat":43.31457,"lon":5.37384,"is_reserved":false,"is_disabled":false,"rental_uris":{"android":"levelo://app?vid=26f290bb-1447-4f43-ab6d-1590e2a06a4b","ios":"levelo://app?vid=26f290bb-1447-4f43-ab6d-1590e2a06a4b"},"vehicle_type_id":"4","last_reported":1728054566,"current_range_meters":38800,"station_id":"ce4bgt12rcd13ifvqcd0","pricing_plan_id":"cebpf4jnsgd1na2vs0mg"},{"bike_id":"5f79e251-953e-41c5-be9c-933a56bdf307","system_id":"levelo_inurba_marseille","lat":43.30541,"lon":5.36699,"is_reserved":false,"is_disabled":false,"rental_uris":{"android":"levelo://app?vid=5f79e251-953e-41c5-be9c-933a56bdf307","ios":"levelo://app?vid=5f79e251-953e-41c5-be9c-933a56bdf307"},"vehicle_type_id":"4","last_reported":1728054566,"current_range_meters":18800,"station_id":"ce4bgrp2rcd13ifvqc9g","pricing_plan_id":"cebpf4jnsgd1na2vs0mg"},{"bike_id":"7279784c-61d8-4dfc-9c18-93dcb1dbe107","system_id":"levelo_inurba_marseille","lat":43.3234,"lon":5.40613,"is_reserved":false,"is_disabled":false,"rental_uris":{"android":"levelo://app?vid=7279784c-61d8-4dfc-9c18-93dcb1dbe107","ios":"levelo://app?vid=7279784c-61d8-4dfc-9c18-93dcb1dbe107"},"vehicle_type_id":"4","last_reported":1728054566,"current_range_meters":20800,"station_id":"ce4bhq92rcd13ifvqhjg","pricing_plan_id":"cebpf4jnsgd1na2vs0mg"},{"bike_id":"40eee244-96c8-4790-ae6d-dd0cb3dac76d","system_id":"levelo_inurba_marseille","lat":43.3372,"lon":5.39177,"is_reserved":false,"is_disabled":false,"rental_uris":{"android":"levelo://app?vid=40eee244-96c8-4790-ae6d-dd0cb3dac76d","ios":"levelo://app?vid=40eee244-96c8-4790-ae6d-dd0cb3dac76d"},"vehicle_type_id":"4","last_reported":1728054566,"current_range_meters":32800,"station_id":"ce4bhr92rcd13ifvqhsg","pricing_plan_id":"cebpf4jnsgd1na2vs0mg"},{"bike_id":"5b0a6d7f-c426-454a-82ad-28e2608bee63","system_id":"levelo_inurba_marseille","lat":43.32365,"lon":5.38877,"is_reserved":false,"is_disabled":false,"rental_uris":{"android":"levelo://app?vid=5b0a6d7f-c426-454a-82ad-28e2608bee63","ios":"levelo://app?vid=5b0a6d7f-c426-454a-82ad-28e2608bee63"},"vehicle_type_id":"4","last_reported":1728054566,"current_range_meters":26000,"station_id":"ce4bhqp2rcd13ifvqhog","pricing_plan_id":"cebpf4jnsgd1na2vs0mg"},{"bike_id":"39ebd98e-e6c8-47e6-98d6-68c22014e990","system_id":"levelo_inurba_marseille","lat":43.29277,"lon":5.3684,"is_reserved":false,"is_disabled":false,"rental_uris":{"android":"levelo://app?vid=39ebd98e-e6c8-47e6-98d6-68c22014e990","ios":"levelo://app?vid=39ebd98e-e6c8-47e6-98d6-68c22014e990"},"vehicle_type_id":"4","last_reported":1728054566,"current_range_meters":13600,"station_id":"ce4bhbp2rcd13ifvqesg","pricing_plan_id":"cebpf4jnsgd1na2vs0mg"},{"bike_id":"01053b7c-c140-41ea-bc69-59d23c1af039","system_id":"levelo_inurba_marseille","lat":43.30551,"lon":5.36702,"is_reserved":false,"is_disabled":false,"rental_uris":{"android":"levelo://app?vid=01053b7c-c140-41ea-bc69-59d23c1af039","ios":"levelo://app?vid=01053b7c-c140-41ea-bc69-59d23c1af039"},"vehicle_type_id":"4","last_reported":1728054566,"current_range_meters":14800,"station_id":"ce4bgrp2rcd13ifvqc9g","pricing_plan_id":"cebpf4jnsgd1na2vs0mg"},{"bike_id":"c27bd2ec-b1b8-4f9c-839d-c8e88bc7ec66","system_id":"levelo_inurba_marseille","lat":43.29844,"lon":5.36267,"is_reserved":false,"is_disabled":false,"rental_uris":{"android":"levelo://app?vid=c27bd2ec-b1b8-4f9c-839d-c8e88bc7ec66","ios":"levelo://app?vid=c27bd2ec-b1b8-4f9c-839d-c8e88bc7ec66"},"vehicle_type_id":"4","last_reported":1728054566,"current_range_meters":38800,"station_id":"ce4bgpp2rcd13ifvqc3g","pricing_plan_id":"cebpf4jnsgd1na2vs0mg"},{"bike_id":"002e6078-43b9-4133-94c0-999780899320","system_id":"levelo_inurba_marseille","lat":43.31327,"lon":5.39694,"is_reserved":false,"is_disabled":false,"rental_uris":{"android":"levelo://app?vid=002e6078-43b9-4133-94c0-999780899320","ios":"levelo://app?vid=002e6078-43b9-4133-94c0-999780899320"},"vehicle_type_id":"4","last_reported":1728054566,"current_range_meters":22000,"station_id":"ce4bgvp2rcd13ifvqcu0","pricing_plan_id":"cebpf4jnsgd1na2vs0mg"},{"bike_id":"40e27bd2-1780-4061-b64e-a496814e2637","system_id":"levelo_inurba_marseille","lat":43.3167,"lon":5.37624,"is_reserved":false,"is_disabled":false,"rental_uris":{"android":"levelo://app?vid=40e27bd2-1780-4061-b64e-a496814e2637","ios":"levelo://app?vid=40e27bd2-1780-4061-b64e-a496814e2637"},"vehicle_type_id":"4","last_reported":1728054566,"current_range_meters":31200,"station_id":"","pricing_plan_id":"cebpf4jnsgd1na2vs0mg"},{"bike_id":"0cb9acb2-15eb-485b-842c-a3f570e8e7c5","system_id":"levelo_inurba_marseille","lat":43.22937,"lon":5.35378,"is_reserved":false,"is_disabled":false,"rental_uris":{"android":"levelo://app?vid=0cb9acb2-15eb-485b-842c-a3f570e8e7c5","ios":"levelo://app?vid=0cb9acb2-15eb-485b-842c-a3f570e8e7c5"},"vehicle_type_id":"4","last_reported":1728054566,"current_range_meters":20800,"station_id":"cpo3532slgdg3j2ikp40","pricing_plan_id":"cebpf4jnsgd1na2vs0mg"},{"bike_id":"e9bc8e34-7fc9-401e-8798-81c511b3e3c8","system_id":"levelo_inurba_marseille","lat":43.333901,"lon":5.410564,"is_reserved":false,"is_disabled":false,"rental_uris":{"android":"levelo://app?vid=e9bc8e34-7fc9-401e-8798-81c511b3e3c8","ios":"levelo://app?vid=e9bc8e34-7fc9-401e-8798-81c511b3e3c8"},"vehicle_type_id":"4","last_reported":1728054566,"current_range_meters":10800,"station_id":"","pricing_plan_id":"cebpf4jnsgd1na2vs0mg"},{"bike_id":"c8e00c6d-b748-4ab1-a04a-08bff7f1c61e","system_id":"levelo_inurba_marseille","lat":43.29837,"lon":5.36257,"is_reserved":false,"is_disabled":false,"rental_uris":{"android":"levelo://app?vid=c8e00c6d-b748-4ab1-a04a-08bff7f1c61e","ios":"levelo://app?vid=c8e00c6d-b748-4ab1-a04a-08bff7f1c61e"},"vehicle_type_id":"4","last_reported":1728054566,"current_range_meters":38800,"station_id":"ce4bgpp2rcd13ifvqc3g","pricing_plan_id":"cebpf4jnsgd1na2vs0mg"},{"bike_id":"fb15dfb7-b67d-4f7c-880e-fb7bc1fa0695","system_id":"levelo_inurba_marseille","lat":43.29804,"lon":5.38106,"is_reserved":false,"is_disabled":false,"rental_uris":{"android":"levelo://app?vid=fb15dfb7-b67d-4f7c-880e-fb7bc1fa0695","ios":"levelo://app?vid=fb15dfb7-b67d-4f7c-880e-fb7bc1fa0695"},"vehicle_type_id":"4","last_reported":1728054566,"current_range_meters":18800,"station_id":"ce4bgip2rcd13ifvqbb0","pricing_plan_id":"cebpf4jnsgd1na2vs0mg"},{"bike_id":"fb46c388-758b-408a-a875-488544be0fd3","system_id":"levelo_inurba_marseille","lat":43.32342,"lon":5.40619,"is_reserved":false,"is_disabled":false,"rental_uris":{"android":"levelo://app?vid=fb46c388-758b-408a-a875-488544be0fd3","ios":"levelo://app?vid=fb46c388-758b-408a-a875-488544be0fd3"},"vehicle_type_id":"4","last_reported":1728054566,"current_range_meters":30000,"station_id":"ce4bhq92rcd13ifvqhjg","pricing_plan_id":"cebpf4jnsgd1na2vs0mg"},{"bike_id":"51f22627-a9ed-499f-a6c6-a2efc49aca17","system_id":"levelo_inurba_marseille","lat":43.26213,"lon":5.3744,"is_reserved":false,"is_disabled":false,"rental_uris":{"android":"levelo://app?vid=51f22627-a9ed-499f-a6c6-a2efc49aca17","ios":"levelo://app?vid=51f22627-a9ed-499f-a6c6-a2efc49aca17"},"vehicle_type_id":"4","last_reported":1728054566,"current_range_meters":19600,"station_id":"ce4bhgp2rcd13ifvqfc0","pricing_plan_id":"cebpf4jnsgd1na2vs0mg"},{"bike_id":"64bd957e-b978-44cb-a85c-928d627d24ec","system_id":"levelo_inurba_marseille","lat":43.35448,"lon":5.3589,"is_reserved":false,"is_disabled":false,"rental_uris":{"android":"levelo://app?vid=64bd957e-b978-44cb-a85c-928d627d24ec","ios":"levelo://app?vid=64bd957e-b978-44cb-a85c-928d627d24ec"},"vehicle_type_id":"4","last_reported":1728054566,"current_range_meters":8800,"station_id":"","pricing_plan_id":"cebpf4jnsgd1na2vs0mg"},{"bike_id":"38a690d7-e99e-4de5-bdfe-f410e85adf9a","system_id":"levelo_inurba_marseille","lat":43.30551,"lon":5.36691,"is_reserved":false,"is_disabled":false,"rental_uris":{"android":"levelo://app?vid=38a690d7-e99e-4de5-bdfe-f410e85adf9a","ios":"levelo://app?vid=38a690d7-e99e-4de5-bdfe-f410e85adf9a"},"vehicle_type_id":"4","last_reported":1728054566,"current_range_meters":14000,"station_id":"ce4bgrp2rcd13ifvqc9g","pricing_plan_id":"cebpf4jnsgd1na2vs0mg"},{"bike_id":"85e6c97e-258d-4c29-8fb3-1e06052a991b","system_id":"levelo_inurba_marseille","lat":43.27812,"lon":5.40713,"is_reserved":false,"is_disabled":false,"rental_uris":{"android":"levelo://app?vid=85e6c97e-258d-4c29-8fb3-1e06052a991b","ios":"levelo://app?vid=85e6c97e-258d-4c29-8fb3-1e06052a991b"},"vehicle_type_id":"4","last_reported":1728054566,"current_range_meters":38800,"station_id":"ce4bhnh2rcd13ifvqgtg","pricing_plan_id":"cebpf4jnsgd1na2vs0mg"},{"bike_id":"b00cf890-4187-46a3-ac11-265bf03bf625","system_id":"levelo_inurba_marseille","lat":43.29877,"lon":5.39735,"is_reserved":false,"is_disabled":false,"rental_uris":{"android":"levelo://app?vid=b00cf890-4187-46a3-ac11-265bf03bf625","ios":"levelo://app?vid=b00cf890-4187-46a3-ac11-265bf03bf625"},"vehicle_type_id":"4","last_reported":1728054566,"current_range_meters":8400,"station_id":"ce4bh0h2rcd13ifvqd50","pricing_plan_id":"cebpf4jnsgd1na2vs0mg"},{"bike_id":"7774ff58-8048-4599-b619-86e6b049feae","system_id":"levelo_inurba_marseille","lat":43.25943,"lon":5.40896,"is_reserved":false,"is_disabled":false,"rental_uris":{"android":"levelo://app?vid=7774ff58-8048-4599-b619-86e6b049feae","ios":"levelo://app?vid=7774ff58-8048-4599-b619-86e6b049feae"},"vehicle_type_id":"4","last_reported":1728054566,"current_range_meters":4000,"station_id":"ce4bhm92rcd13ifvqglg","pricing_plan_id":"cebpf4jnsgd1na2vs0mg"},{"bike_id":"19a51a99-e3bd-4d28-8afe-aa351ad7d955","system_id":"levelo_inurba_marseille","lat":43.28078,"lon":5.39642,"is_reserved":false,"is_disabled":false,"rental_uris":{"android":"levelo://app?vid=19a51a99-e3bd-4d28-8afe-aa351ad7d955","ios":"levelo://app?vid=19a51a99-e3bd-4d28-8afe-aa351ad7d955"},"vehicle_type_id":"4","last_reported":1728054566,"current_range_meters":32400,"station_id":"ce4bho12rcd13ifvqh2g","pricing_plan_id":"cebpf4jnsgd1na2vs0mg"},{"bike_id":"1dfde707-53e4-4bf5-bc92-042569e60e45","system_id":"levelo_inurba_marseille","lat":43.30152,"lon":5.38097,"is_reserved":false,"is_disabled":false,"rental_uris":{"android":"levelo://app?vid=1dfde707-53e4-4bf5-bc92-042569e60e45","ios":"levelo://app?vid=1dfde707-53e4-4bf5-bc92-042569e60e45"},"vehicle_type_id":"4","last_reported":1728054566,"current_range_meters":27600,"station_id":"ce4bgjp2rcd13ifvqbh0","pricing_plan_id":"cebpf4jnsgd1na2vs0mg"},{"bike_id":"c0cbbe2d-2904-4b60-aa3d-42d226b2fc9b","system_id":"levelo_inurba_marseille","lat":43.30545,"lon":5.36704,"is_reserved":false,"is_disabled":false,"rental_uris":{"android":"levelo://app?vid=c0cbbe2d-2904-4b60-aa3d-42d226b2fc9b","ios":"levelo://app?vid=c0cbbe2d-2904-4b60-aa3d-42d226b2fc9b"},"vehicle_type_id":"4","last_reported":1728054566,"current_range_meters":13600,"station_id":"ce4bgrp2rcd13ifvqc9g","pricing_plan_id":"cebpf4jnsgd1na2vs0mg"},{"bike_id":"6d679b6b-38e0-4f37-8caf-d0dfb3677fc5","system_id":"levelo_inurba_marseille","lat":43.2293,"lon":5.35379,"is_reserved":false,"is_disabled":false,"rental_uris":{"android":"levelo://app?vid=6d679b6b-38e0-4f37-8caf-d0dfb3677fc5","ios":"levelo://app?vid=6d679b6b-38e0-4f37-8caf-d0dfb3677fc5"},"vehicle_type_id":"4","last_reported":1728054566,"current_range_meters":17600,"station_id":"cpo3532slgdg3j2ikp40","pricing_plan_id":"cebpf4jnsgd1na2vs0mg"},{"bike_id":"84f39aec-f84e-4c3d-9924-898829e7c99d","system_id":"levelo_inurba_marseille","lat":43.26206,"lon":5.37933,"is_reserved":false,"is_disabled":false,"rental_uris":{"android":"levelo://app?vid=84f39aec-f84e-4c3d-9924-898829e7c99d","ios":"levelo://app?vid=84f39aec-f84e-4c3d-9924-898829e7c99d"},"vehicle_type_id":"4","last_reported":1728054566,"current_range_meters":7200,"station_id":"ce4bhjp2rcd13ifvqg90","pricing_plan_id":"cebpf4jnsgd1na2vs0mg"},{"bike_id":"c785524c-9e30-42ab-b81e-e254c7af6661","system_id":"levelo_inurba_marseille","lat":43.27053,"lon":5.40263,"is_reserved":false,"is_disabled":false,"rental_uris":{"android":"levelo://app?vid=c785524c-9e30-42ab-b81e-e254c7af6661","ios":"levelo://app?vid=c785524c-9e30-42ab-b81e-e254c7af6661"},"vehicle_type_id":"4","last_reported":1728054566,"current_range_meters":3200,"station_id":"ce4bhk92rcd13ifvqgc0","pricing_plan_id":"cebpf4jnsgd1na2vs0mg"},{"bike_id":"ef5a9180-45f1-49e4-bbc2-f86a7c779331","system_id":"levelo_inurba_marseille","lat":43.33022,"lon":5.39038,"is_reserved":false,"is_disabled":false,"rental_uris":{"android":"levelo://app?vid=ef5a9180-45f1-49e4-bbc2-f86a7c779331","ios":"levelo://app?vid=ef5a9180-45f1-49e4-bbc2-f86a7c779331"},"vehicle_type_id":"4","last_reported":1728054566,"current_range_meters":14400,"station_id":"ce4bhr92rcd13ifvqhrg","pricing_plan_id":"cebpf4jnsgd1na2vs0mg"},{"bike_id":"42715632-e225-47f3-813c-9451f24e5700","system_id":"levelo_inurba_marseille","lat":43.2319,"lon":5.35544,"is_reserved":false,"is_disabled":false,"rental_uris":{"android":"levelo://app?vid=42715632-e225-47f3-813c-9451f24e5700","ios":"levelo://app?vid=42715632-e225-47f3-813c-9451f24e5700"},"vehicle_type_id":"4","last_reported":1728054566,"current_range_meters":14400,"station_id":"ce4bhu92rcd13ifvqi70","pricing_plan_id":"cebpf4jnsgd1na2vs0mg"},{"bike_id":"2430d101-5126-4a00-b2a3-39ff80d0a471","system_id":"levelo_inurba_marseille","lat":43.31329,"lon":5.39692,"is_reserved":false,"is_disabled":false,"rental_uris":{"android":"levelo://app?vid=2430d101-5126-4a00-b2a3-39ff80d0a471","ios":"levelo://app?vid=2430d101-5126-4a00-b2a3-39ff80d0a471"},"vehicle_type_id":"4","last_reported":1728054566,"current_range_meters":32800,"station_id":"ce4bgvp2rcd13ifvqcu0","pricing_plan_id":"cebpf4jnsgd1na2vs0mg"},{"bike_id":"19fda076-d268-459f-89fc-41482cd3ae93","system_id":"levelo_inurba_marseille","lat":43.28615,"lon":5.35112,"is_reserved":false,"is_disabled":false,"rental_uris":{"android":"levelo://app?vid=19fda076-d268-459f-89fc-41482cd3ae93","ios":"levelo://app?vid=19fda076-d268-459f-89fc-41482cd3ae93"},"vehicle_type_id":"4","last_reported":1728054566,"current_range_meters":17200,"station_id":"ce4bhch2rcd13ifvqeug","pricing_plan_id":"cebpf4jnsgd1na2vs0mg"},{"bike_id":"a59f2d4f-591f-4d2a-ba41-9f7425a47984","system_id":"levelo_inurba_marseille","lat":43.32365,"lon":5.38881,"is_reserved":false,"is_disabled":false,"rental_uris":{"android":"levelo://app?vid=a59f2d4f-591f-4d2a-ba41-9f7425a47984","ios":"levelo://app?vid=a59f2d4f-591f-4d2a-ba41-9f7425a47984"},"vehicle_type_id":"4","last_reported":1728054566,"current_range_meters":8800,"station_id":"ce4bhqp2rcd13ifvqhog","pricing_plan_id":"cebpf4jnsgd1na2vs0mg"},{"bike_id":"9c6ceacf-46aa-4972-8a1c-69fbeaf93293","system_id":"levelo_inurba_marseille","lat":43.31759,"lon":5.39016,"is_reserved":false,"is_disabled":false,"rental_uris":{"android":"levelo://app?vid=9c6ceacf-46aa-4972-8a1c-69fbeaf93293","ios":"levelo://app?vid=9c6ceacf-46aa-4972-8a1c-69fbeaf93293"},"vehicle_type_id":"4","last_reported":1728054566,"current_range_meters":11600,"station_id":"ce4bhqp2rcd13ifvqhng","pricing_plan_id":"cebpf4jnsgd1na2vs0mg"},{"bike_id":"aa52df7a-6036-4b51-b89d-4900cec91c4c","system_id":"levelo_inurba_marseille","lat":43.28426,"lon":5.34988,"is_reserved":false,"is_disabled":false,"rental_uris":{"android":"levelo://app?vid=aa52df7a-6036-4b51-b89d-4900cec91c4c","ios":"levelo://app?vid=aa52df7a-6036-4b51-b89d-4900cec91c4c"},"vehicle_type_id":"4","last_reported":1728054566,"current_range_meters":38800,"station_id":"ce4bhbh2rcd13ifvqepg","pricing_plan_id":"cebpf4jnsgd1na2vs0mg"},{"bike_id":"42f4d590-8792-4749-9bba-6bcedf283d34","system_id":"levelo_inurba_marseille","lat":43.26499,"lon":5.3954,"is_reserved":false,"is_disabled":false,"rental_uris":{"android":"levelo://app?vid=42f4d590-8792-4749-9bba-6bcedf283d34","ios":"levelo://app?vid=42f4d590-8792-4749-9bba-6bcedf283d34"},"vehicle_type_id":"4","last_reported":1728054566,"current_range_meters":13600,"station_id":"ce4bhi12rcd13ifvqfq0","pricing_plan_id":"cebpf4jnsgd1na2vs0mg"},{"bike_id":"e37b42d8-9f9a-4adf-94f7-c413178d17fe","system_id":"levelo_inurba_marseille","lat":43.25867,"lon":5.39907,"is_reserved":false,"is_disabled":false,"rental_uris":{"android":"levelo://app?vid=e37b42d8-9f9a-4adf-94f7-c413178d17fe","ios":"levelo://app?vid=e37b42d8-9f9a-4adf-94f7-c413178d17fe"},"vehicle_type_id":"4","last_reported":1728054566,"current_range_meters":10800,"station_id":"ce4bhl92rcd13ifvqghg","pricing_plan_id":"cebpf4jnsgd1na2vs0mg"},{"bike_id":"a81e4719-348d-46ac-a3e3-7f5f70704a24","system_id":"levelo_inurba_marseille","lat":43.2655,"lon":5.37285,"is_reserved":false,"is_disabled":false,"rental_uris":{"android":"levelo://app?vid=a81e4719-348d-46ac-a3e3-7f5f70704a24","ios":"levelo://app?vid=a81e4719-348d-46ac-a3e3-7f5f70704a24"},"vehicle_type_id":"4","last_reported":1728054566,"current_range_meters":14800,"station_id":"ce4bhg12rcd13ifvqf70","pricing_plan_id":"cebpf4jnsgd1na2vs0mg"},{"bike_id":"2b17a594-bff2-4889-9583-7866465b8af4","system_id":"levelo_inurba_marseille","lat":43.29559,"lon":5.37517,"is_reserved":false,"is_disabled":false,"rental_uris":{"android":"levelo://app?vid=2b17a594-bff2-4889-9583-7866465b8af4","ios":"levelo://app?vid=2b17a594-bff2-4889-9583-7866465b8af4"},"vehicle_type_id":"4","last_reported":1728054566,"current_range_meters":0,"station_id":"ce4bgh92rcd13ifvqb50","pricing_plan_id":"cebpf4jnsgd1na2vs0mg"},{"bike_id":"2ae07cb9-873c-459e-b99b-e2d2146c75e4","system_id":"levelo_inurba_marseille","lat":43.28441,"lon":5.39189,"is_reserved":false,"is_disabled":false,"rental_uris":{"android":"levelo://app?vid=2ae07cb9-873c-459e-b99b-e2d2146c75e4","ios":"levelo://app?vid=2ae07cb9-873c-459e-b99b-e2d2146c75e4"},"vehicle_type_id":"4","last_reported":1728054566,"current_range_meters":24000,"station_id":"ce4bhoh2rcd13ifvqh5g","pricing_plan_id":"cebpf4jnsgd1na2vs0mg"},{"bike_id":"5c9e9803-56a7-4a01-9bfd-e00acd0d6178","system_id":"levelo_inurba_marseille","lat":43.32,"lon":5.38145,"is_reserved":false,"is_disabled":false,"rental_uris":{"android":"levelo://app?vid=5c9e9803-56a7-4a01-9bfd-e00acd0d6178","ios":"levelo://app?vid=5c9e9803-56a7-4a01-9bfd-e00acd0d6178"},"vehicle_type_id":"4","last_reported":1728054566,"current_range_meters":3600,"station_id":"ce4bhr12rcd13ifvqhpg","pricing_plan_id":"cebpf4jnsgd1na2vs0mg"},{"bike_id":"8c999e2d-d4cc-4b86-a684-ef19c4b992b1","system_id":"levelo_inurba_marseille","lat":43.28999,"lon":5.35606,"is_reserved":false,"is_disabled":false,"rental_uris":{"android":"levelo://app?vid=8c999e2d-d4cc-4b86-a684-ef19c4b992b1","ios":"levelo://app?vid=8c999e2d-d4cc-4b86-a684-ef19c4b992b1"},"vehicle_type_id":"4","last_reported":1728054566,"current_range_meters":34800,"station_id":"ce4bhb92rcd13ifvqen0","pricing_plan_id":"cebpf4jnsgd1na2vs0mg"},{"bike_id":"d42ecac8-0118-44b8-8b6c-b549729d1c5b","system_id":"levelo_inurba_marseille","lat":43.298827,"lon":5.389096,"is_reserved":false,"is_disabled":false,"rental_uris":{"android":"levelo://app?vid=d42ecac8-0118-44b8-8b6c-b549729d1c5b","ios":"levelo://app?vid=d42ecac8-0118-44b8-8b6c-b549729d1c5b"},"vehicle_type_id":"4","last_reported":1728054566,"current_range_meters":19600,"station_id":"ce4bh392rcd13ifvqdl0","pricing_plan_id":"cebpf4jnsgd1na2vs0mg"},{"bike_id":"e315600c-3ff8-4893-abe5-0c310d48465d","system_id":"levelo_inurba_marseille","lat":43.33774,"lon":5.37417,"is_reserved":false,"is_disabled":false,"rental_uris":{"android":"levelo://app?vid=e315600c-3ff8-4893-abe5-0c310d48465d","ios":"levelo://app?vid=e315600c-3ff8-4893-abe5-0c310d48465d"},"vehicle_type_id":"4","last_reported":1728054566,"current_range_meters":38000,"station_id":"","pricing_plan_id":"cebpf4jnsgd1na2vs0mg"},{"bike_id":"4fc6893d-7fdc-49da-af86-ff798f2167e2","system_id":"levelo_inurba_marseille","lat":43.27375,"lon":5.36245,"is_reserved":false,"is_disabled":false,"rental_uris":{"android":"levelo://app?vid=4fc6893d-7fdc-49da-af86-ff798f2167e2","ios":"levelo://app?vid=4fc6893d-7fdc-49da-af86-ff798f2167e2"},"vehicle_type_id":"4","last_reported":1728054566,"current_range_meters":14800,"station_id":"ce4bhbh2rcd13ifvqeo0","pricing_plan_id":"cebpf4jnsgd1na2vs0mg"},{"bike_id":"bda54a69-f40b-4725-b91a-b78a4d28c0ea","system_id":"levelo_inurba_marseille","lat":43.28031,"lon":5.36955,"is_reserved":false,"is_disabled":false,"rental_uris":{"android":"levelo://app?vid=bda54a69-f40b-4725-b91a-b78a4d28c0ea","ios":"levelo://app?vid=bda54a69-f40b-4725-b91a-b78a4d28c0ea"},"vehicle_type_id":"4","last_reported":1728054566,"current_range_meters":17200,"station_id":"ce4bha12rcd13ifvqef0","pricing_plan_id":"cebpf4jnsgd1na2vs0mg"},{"bike_id":"59de508c-95bf-44b8-b541-cf311b41ce22","system_id":"levelo_inurba_marseille","lat":43.28855,"lon":5.393,"is_reserved":false,"is_disabled":false,"rental_uris":{"android":"levelo://app?vid=59de508c-95bf-44b8-b541-cf311b41ce22","ios":"levelo://app?vid=59de508c-95bf-44b8-b541-cf311b41ce22"},"vehicle_type_id":"4","last_reported":1728054566,"current_range_meters":17200,"station_id":"ce4bh2p2rcd13ifvqdi0","pricing_plan_id":"cebpf4jnsgd1na2vs0mg"},{"bike_id":"947d8870-bfc2-4ac5-89ae-8d8d34b6cd43","system_id":"levelo_inurba_marseille","lat":43.30244,"lon":5.36641,"is_reserved":false,"is_disabled":false,"rental_uris":{"android":"levelo://app?vid=947d8870-bfc2-4ac5-89ae-8d8d34b6cd43","ios":"levelo://app?vid=947d8870-bfc2-4ac5-89ae-8d8d34b6cd43"},"vehicle_type_id":"4","last_reported":1728054566,"current_range_meters":12000,"station_id":"ce4bgrh2rcd13ifvqc8g","pricing_plan_id":"cebpf4jnsgd1na2vs0mg"},{"bike_id":"042b8a66-fdd1-421e-9ed9-3e2a0d5311f4","system_id":"levelo_inurba_marseille","lat":43.30549,"lon":5.36536,"is_reserved":false,"is_disabled":false,"rental_uris":{"android":"levelo://app?vid=042b8a66-fdd1-421e-9ed9-3e2a0d5311f4","ios":"levelo://app?vid=042b8a66-fdd1-421e-9ed9-3e2a0d5311f4"},"vehicle_type_id":"4","last_reported":1728054566,"current_range_meters":28400,"station_id":"ce4bgs12rcd13ifvqcag","pricing_plan_id":"cebpf4jnsgd1na2vs0mg"},{"bike_id":"b170bbea-d78b-4285-8517-a99b0a2ca83b","system_id":"levelo_inurba_marseille","lat":43.26557,"lon":5.37287,"is_reserved":false,"is_disabled":false,"rental_uris":{"android":"levelo://app?vid=b170bbea-d78b-4285-8517-a99b0a2ca83b","ios":"levelo://app?vid=b170bbea-d78b-4285-8517-a99b0a2ca83b"},"vehicle_type_id":"4","last_reported":1728054566,"current_range_meters":30400,"station_id":"ce4bhg12rcd13ifvqf70","pricing_plan_id":"cebpf4jnsgd1na2vs0mg"},{"bike_id":"81cda6f4-94c7-41e4-8e00-ce3e8baeaa4b","system_id":"levelo_inurba_marseille","lat":43.31708,"lon":5.37752,"is_reserved":false,"is_disabled":false,"rental_uris":{"android":"levelo://app?vid=81cda6f4-94c7-41e4-8e00-ce3e8baeaa4b","ios":"levelo://app?vid=81cda6f4-94c7-41e4-8e00-ce3e8baeaa4b"},"vehicle_type_id":"4","last_reported":1728054566,"current_range_meters":22400,"station_id":"ce4bgth2rcd13ifvqch0","pricing_plan_id":"cebpf4jnsgd1na2vs0mg"},{"bike_id":"aafe6ad2-d853-44d6-a46a-5f9526c06411","system_id":"levelo_inurba_marseille","lat":43.27056,"lon":5.40247,"is_reserved":false,"is_disabled":false,"rental_uris":{"android":"levelo://app?vid=aafe6ad2-d853-44d6-a46a-5f9526c06411","ios":"levelo://app?vid=aafe6ad2-d853-44d6-a46a-5f9526c06411"},"vehicle_type_id":"4","last_reported":1728054566,"current_range_meters":16400,"station_id":"ce4bhk92rcd13ifvqgc0","pricing_plan_id":"cebpf4jnsgd1na2vs0mg"},{"bike_id":"740aa9b1-bf7f-495f-b4b6-8c44676bc674","system_id":"levelo_inurba_marseille","lat":43.33763,"lon":5.37441,"is_reserved":false,"is_disabled":false,"rental_uris":{"android":"levelo://app?vid=740aa9b1-bf7f-495f-b4b6-8c44676bc674","ios":"levelo://app?vid=740aa9b1-bf7f-495f-b4b6-8c44676bc674"},"vehicle_type_id":"4","last_reported":1728054566,"current_range_meters":9200,"station_id":"","pricing_plan_id":"cebpf4jnsgd1na2vs0mg"},{"bike_id":"e027f24f-0473-42ed-b341-0ac5426f0eaa","system_id":"levelo_inurba_marseille","lat":43.29899,"lon":5.38296,"is_reserved":false,"is_disabled":false,"rental_uris":{"android":"levelo://app?vid=e027f24f-0473-42ed-b341-0ac5426f0eaa","ios":"levelo://app?vid=e027f24f-0473-42ed-b341-0ac5426f0eaa"},"vehicle_type_id":"4","last_reported":1728054566,"current_range_meters":8000,"station_id":"","pricing_plan_id":"cebpf4jnsgd1na2vs0mg"},{"bike_id":"67a34cf7-5b07-44dd-b5b1-cdeeb7da0646","system_id":"levelo_inurba_marseille","lat":43.28283,"lon":5.35062,"is_reserved":false,"is_disabled":false,"rental_uris":{"android":"levelo://app?vid=67a34cf7-5b07-44dd-b5b1-cdeeb7da0646","ios":"levelo://app?vid=67a34cf7-5b07-44dd-b5b1-cdeeb7da0646"},"vehicle_type_id":"4","last_reported":1728054566,"current_range_meters":6400,"station_id":"ce4bhbp2rcd13ifvqerg","pricing_plan_id":"cebpf4jnsgd1na2vs0mg"},{"bike_id":"77b9203a-0842-4b45-acd8-ada92dfc3441","system_id":"levelo_inurba_marseille","lat":43.29902,"lon":5.38194,"is_reserved":false,"is_disabled":false,"rental_uris":{"android":"levelo://app?vid=77b9203a-0842-4b45-acd8-ada92dfc3441","ios":"levelo://app?vid=77b9203a-0842-4b45-acd8-ada92dfc3441"},"vehicle_type_id":"4","last_reported":1728054566,"current_range_meters":17600,"station_id":"ce4bgj12rcd13ifvqbc0","pricing_plan_id":"cebpf4jnsgd1na2vs0mg"},{"bike_id":"8c61526c-2d67-4b1a-8f32-0018924d753f","system_id":"levelo_inurba_marseille","lat":43.337444,"lon":5.374475,"is_reserved":false,"is_disabled":false,"rental_uris":{"android":"levelo://app?vid=8c61526c-2d67-4b1a-8f32-0018924d753f","ios":"levelo://app?vid=8c61526c-2d67-4b1a-8f32-0018924d753f"},"vehicle_type_id":"4","last_reported":1728054566,"current_range_meters":38800,"station_id":"","pricing_plan_id":"cebpf4jnsgd1na2vs0mg"},{"bike_id":"c35a559e-b41b-4c99-836a-034e295c5684","system_id":"levelo_inurba_marseille","lat":43.26927,"lon":5.38931,"is_reserved":false,"is_disabled":false,"rental_uris":{"android":"levelo://app?vid=c35a559e-b41b-4c99-836a-034e295c5684","ios":"levelo://app?vid=c35a559e-b41b-4c99-836a-034e295c5684"},"vehicle_type_id":"4","last_reported":1728054566,"current_range_meters":24400,"station_id":"ce4bhhh2rcd13ifvqfl0","pricing_plan_id":"cebpf4jnsgd1na2vs0mg"},{"bike_id":"d8106566-8ef6-48ca-b8b9-2cb9827f5770","system_id":"levelo_inurba_marseille","lat":43.306461,"lon":5.400923,"is_reserved":false,"is_disabled":false,"rental_uris":{"android":"levelo://app?vid=d8106566-8ef6-48ca-b8b9-2cb9827f5770","ios":"levelo://app?vid=d8106566-8ef6-48ca-b8b9-2cb9827f5770"},"vehicle_type_id":"4","last_reported":1728054566,"current_range_meters":35200,"station_id":"ce4bh112rcd13ifvqda0","pricing_plan_id":"cebpf4jnsgd1na2vs0mg"},{"bike_id":"c4cd9a50-964c-4ac6-9b9b-7e57532534c3","system_id":"levelo_inurba_marseille","lat":43.29226,"lon":5.3606,"is_reserved":false,"is_disabled":false,"rental_uris":{"android":"levelo://app?vid=c4cd9a50-964c-4ac6-9b9b-7e57532534c3","ios":"levelo://app?vid=c4cd9a50-964c-4ac6-9b9b-7e57532534c3"},"vehicle_type_id":"4","last_reported":1728054566,"current_range_meters":38000,"station_id":"ce4bhbh2rcd13ifvqeqg","pricing_plan_id":"cebpf4jnsgd1na2vs0mg"},{"bike_id":"6b315d99-3ae8-4acd-8c24-9531c7a83eb8","system_id":"levelo_inurba_marseille","lat":43.23063,"lon":5.35493,"is_reserved":false,"is_disabled":false,"rental_uris":{"android":"levelo://app?vid=6b315d99-3ae8-4acd-8c24-9531c7a83eb8","ios":"levelo://app?vid=6b315d99-3ae8-4acd-8c24-9531c7a83eb8"},"vehicle_type_id":"4","last_reported":1728054566,"current_range_meters":18800,"station_id":"cpo3342slgdg3j2ifvpg","pricing_plan_id":"cebpf4jnsgd1na2vs0mg"},{"bike_id":"d36330d0-fca5-4f24-9648-0297f0f085a7","system_id":"levelo_inurba_marseille","lat":43.27374,"lon":5.3625,"is_reserved":false,"is_disabled":false,"rental_uris":{"android":"levelo://app?vid=d36330d0-fca5-4f24-9648-0297f0f085a7","ios":"levelo://app?vid=d36330d0-fca5-4f24-9648-0297f0f085a7"},"vehicle_type_id":"4","last_reported":1728054566,"current_range_meters":6400,"station_id":"ce4bhbh2rcd13ifvqeo0","pricing_plan_id":"cebpf4jnsgd1na2vs0mg"},{"bike_id":"d26e4c8e-6154-43fe-9bb3-8cfbcdb85e0a","system_id":"levelo_inurba_marseille","lat":43.30333,"lon":5.37048,"is_reserved":false,"is_disabled":false,"rental_uris":{"android":"levelo://app?vid=d26e4c8e-6154-43fe-9bb3-8cfbcdb85e0a","ios":"levelo://app?vid=d26e4c8e-6154-43fe-9bb3-8cfbcdb85e0a"},"vehicle_type_id":"4","last_reported":1728054566,"current_range_meters":6800,"station_id":"","pricing_plan_id":"cebpf4jnsgd1na2vs0mg"},{"bike_id":"55188226-ff9f-45e8-99b6-3c0c54d286d9","system_id":"levelo_inurba_marseille","lat":43.28439,"lon":5.36642,"is_reserved":false,"is_disabled":false,"rental_uris":{"android":"levelo://app?vid=55188226-ff9f-45e8-99b6-3c0c54d286d9","ios":"levelo://app?vid=55188226-ff9f-45e8-99b6-3c0c54d286d9"},"vehicle_type_id":"4","last_reported":1728054566,"current_range_meters":8000,"station_id":"ce4bhbp2rcd13ifvqerg","pricing_plan_id":"cebpf4jnsgd1na2vs0mg"},{"bike_id":"26143496-adc1-49fd-a760-c3c10e833da2","system_id":"levelo_inurba_marseille","lat":43.32345,"lon":5.40618,"is_reserved":false,"is_disabled":false,"rental_uris":{"android":"levelo://app?vid=26143496-adc1-49fd-a760-c3c10e833da2","ios":"levelo://app?vid=26143496-adc1-49fd-a760-c3c10e833da2"},"vehicle_type_id":"4","last_reported":1728054566,"current_range_meters":36800,"station_id":"ce4bhq92rcd13ifvqhjg","pricing_plan_id":"cebpf4jnsgd1na2vs0mg"},{"bike_id":"9cbbab00-5320-4d52-8d7f-bad878bc90ea","system_id":"levelo_inurba_marseille","lat":43.23059,"lon":5.35493,"is_reserved":false,"is_disabled":false,"rental_uris":{"android":"levelo://app?vid=9cbbab00-5320-4d52-8d7f-bad878bc90ea","ios":"levelo://app?vid=9cbbab00-5320-4d52-8d7f-bad878bc90ea"},"vehicle_type_id":"4","last_reported":1728054566,"current_range_meters":10000,"station_id":"cpo3342slgdg3j2ifvpg","pricing_plan_id":"cebpf4jnsgd1na2vs0mg"},{"bike_id":"61cf602d-da01-4757-b431-7fc5b5fa9331","system_id":"levelo_inurba_marseille","lat":43.29624,"lon":5.37167,"is_reserved":false,"is_disabled":false,"rental_uris":{"android":"levelo://app?vid=61cf602d-da01-4757-b431-7fc5b5fa9331","ios":"levelo://app?vid=61cf602d-da01-4757-b431-7fc5b5fa9331"},"vehicle_type_id":"4","last_reported":1728054566,"current_range_meters":36800,"station_id":"ce4bgnh2rcd13ifvqc0g","pricing_plan_id":"cebpf4jnsgd1na2vs0mg"},{"bike_id":"73ff5f9a-231e-4ff5-9c80-262086e1855b","system_id":"levelo_inurba_marseille","lat":43.26495,"lon":5.39546,"is_reserved":false,"is_disabled":false,"rental_uris":{"android":"levelo://app?vid=73ff5f9a-231e-4ff5-9c80-262086e1855b","ios":"levelo://app?vid=73ff5f9a-231e-4ff5-9c80-262086e1855b"},"vehicle_type_id":"4","last_reported":1728054566,"current_range_meters":27600,"station_id":"ce4bhi12rcd13ifvqfq0","pricing_plan_id":"cebpf4jnsgd1na2vs0mg"},{"bike_id":"d5690c74-00c5-4c33-bf2f-ef1139669972","system_id":"levelo_inurba_marseille","lat":43.30149,"lon":5.38104,"is_reserved":false,"is_disabled":false,"rental_uris":{"android":"levelo://app?vid=d5690c74-00c5-4c33-bf2f-ef1139669972","ios":"levelo://app?vid=d5690c74-00c5-4c33-bf2f-ef1139669972"},"vehicle_type_id":"4","last_reported":1728054566,"current_range_meters":24000,"station_id":"ce4bgjp2rcd13ifvqbh0","pricing_plan_id":"cebpf4jnsgd1na2vs0mg"},{"bike_id":"aa0855a3-552e-40ae-8494-7c0e59fa6041","system_id":"levelo_inurba_marseille","lat":43.26805,"lon":5.4027,"is_reserved":false,"is_disabled":false,"rental_uris":{"android":"levelo://app?vid=aa0855a3-552e-40ae-8494-7c0e59fa6041","ios":"levelo://app?vid=aa0855a3-552e-40ae-8494-7c0e59fa6041"},"vehicle_type_id":"4","last_reported":1728054566,"current_range_meters":38800,"station_id":"ce501612rcd8frsf0b60","pricing_plan_id":"cebpf4jnsgd1na2vs0mg"},{"bike_id":"cfffe3a5-6b46-4419-9872-bf2e67912f50","system_id":"levelo_inurba_marseille","lat":43.30333,"lon":5.40432,"is_reserved":false,"is_disabled":false,"rental_uris":{"android":"levelo://app?vid=cfffe3a5-6b46-4419-9872-bf2e67912f50","ios":"levelo://app?vid=cfffe3a5-6b46-4419-9872-bf2e67912f50"},"vehicle_type_id":"4","last_reported":1728054566,"current_range_meters":21600,"station_id":"ce4bh012rcd13ifvqd10","pricing_plan_id":"cebpf4jnsgd1na2vs0mg"},{"bike_id":"b28d1615-6625-412b-a25e-311bd42b704d","system_id":"levelo_inurba_marseille","lat":43.26558,"lon":5.37287,"is_reserved":false,"is_disabled":false,"rental_uris":{"android":"levelo://app?vid=b28d1615-6625-412b-a25e-311bd42b704d","ios":"levelo://app?vid=b28d1615-6625-412b-a25e-311bd42b704d"},"vehicle_type_id":"4","last_reported":1728054566,"current_range_meters":34000,"station_id":"ce4bhg12rcd13ifvqf70","pricing_plan_id":"cebpf4jnsgd1na2vs0mg"},{"bike_id":"9a4212d4-dfbb-45d0-9670-69900c1c2395","system_id":"levelo_inurba_marseille","lat":43.317333,"lon":5.371607,"is_reserved":false,"is_disabled":false,"rental_uris":{"android":"levelo://app?vid=9a4212d4-dfbb-45d0-9670-69900c1c2395","ios":"levelo://app?vid=9a4212d4-dfbb-45d0-9670-69900c1c2395"},"vehicle_type_id":"4","last_reported":1728054566,"current_range_meters":17200,"station_id":"","pricing_plan_id":"cebpf4jnsgd1na2vs0mg"},{"bike_id":"f3c85aee-57b6-46cc-a62e-67a004a01b65","system_id":"levelo_inurba_marseille","lat":43.26554,"lon":5.37288,"is_reserved":false,"is_disabled":false,"rental_uris":{"android":"levelo://app?vid=f3c85aee-57b6-46cc-a62e-67a004a01b65","ios":"levelo://app?vid=f3c85aee-57b6-46cc-a62e-67a004a01b65"},"vehicle_type_id":"4","last_reported":1728054566,"current_range_meters":26000,"station_id":"ce4bhg12rcd13ifvqf70","pricing_plan_id":"cebpf4jnsgd1na2vs0mg"},{"bike_id":"7182fd36-0357-4c14-bcf5-e3d4cd95e299","system_id":"levelo_inurba_marseille","lat":43.27676,"lon":5.38878,"is_reserved":false,"is_disabled":false,"rental_uris":{"android":"levelo://app?vid=7182fd36-0357-4c14-bcf5-e3d4cd95e299","ios":"levelo://app?vid=7182fd36-0357-4c14-bcf5-e3d4cd95e299"},"vehicle_type_id":"4","last_reported":1728054566,"current_range_meters":11600,"station_id":"ce4bhi12rcd13ifvqfo0","pricing_plan_id":"cebpf4jnsgd1na2vs0mg"},{"bike_id":"ebd2dc26-fbb6-49ef-8de9-3231d9435a56","system_id":"levelo_inurba_marseille","lat":43.32475,"lon":5.36568,"is_reserved":false,"is_disabled":false,"rental_uris":{"android":"levelo://app?vid=ebd2dc26-fbb6-49ef-8de9-3231d9435a56","ios":"levelo://app?vid=ebd2dc26-fbb6-49ef-8de9-3231d9435a56"},"vehicle_type_id":"4","last_reported":1728054566,"current_range_meters":28400,"station_id":"ce4bhs12rcd13ifvqhvg","pricing_plan_id":"cebpf4jnsgd1na2vs0mg"},{"bike_id":"38213cab-9169-4449-86cd-5c5bf2a279aa","system_id":"levelo_inurba_marseille","lat":43.25868,"lon":5.39892,"is_reserved":false,"is_disabled":false,"rental_uris":{"android":"levelo://app?vid=38213cab-9169-4449-86cd-5c5bf2a279aa","ios":"levelo://app?vid=38213cab-9169-4449-86cd-5c5bf2a279aa"},