{"last_updated":1731651409,"ttl":60,"version":"2.2","data":{"bikes":[{"bike_id":"6b570738-0568-43dc-a9db-ba0d386149ef","system_id":"levelo_inurba_marseille","lat":43.31688,"lon":5.40474,"is_reserved":false,"is_disabled":false,"rental_uris":{"android":"levelo://app?vid=6b570738-0568-43dc-a9db-ba0d386149ef","ios":"levelo://app?vid=6b570738-0568-43dc-a9db-ba0d386149ef"},"vehicle_type_id":"4","last_reported":1731651409,"current_range_meters":37600,"station_id":"ce4bh012rcd13ifvqd00","pricing_plan_id":"cebpf4jnsgd1na2vs0mg"},{"bike_id":"4829cad7-0477-49bd-be6b-63b148cab481","system_id":"levelo_inurba_marseille","lat":43.27559,"lon":5.38425,"is_reserved":false,"is_disabled":false,"rental_uris":{"android":"levelo://app?vid=4829cad7-0477-49bd-be6b-63b148cab481","ios":"levelo://app?vid=4829cad7-0477-49bd-be6b-63b148cab481"},"vehicle_type_id":"4","last_reported":1731651409,"current_range_meters":37600,"station_id":"ce4bhh92rcd13ifvqfi0","pricing_plan_id":"cebpf4jnsgd1na2vs0mg"},{"bike_id":"1d936b62-1bb8-40f6-afdf-7dac3ed8caa9","system_id":"levelo_inurba_marseille","lat":43.28421,"lon":5.35906,"is_reserved":false,"is_disabled":false,"rental_uris":{"android":"levelo://app?vid=1d936b62-1bb8-40f6-afdf-7dac3ed8caa9","ios":"levelo://app?vid=1d936b62-1bb8-40f6-afdf-7dac3ed8caa9"},"vehicle_type_id":"4","last_reported":1731651409,"current_range_meters":16400,"station_id":"ce4bhah2rcd13ifvqei0","pricing_plan_id":"cebpf4jnsgd1na2vs0mg"},{"bike_id":"2c96f6ca-2597-4e0f-bec7-ba4c545d4690","system_id":"levelo_inurba_marseille","lat":43.28734,"lon":5.36072,"is_reserved":false,"is_disabled":false,"rental_uris":{"android":"levelo://app?vid=2c96f6ca-2597-4e0f-bec7-ba4c545d4690","ios":"levelo://app?vid=2c96f6ca-2597-4e0f-bec7-ba4c545d4690"},"vehicle_type_id":"4","last_reported":1731651409,"current_range_meters":38800,"station_id":"cki0cbj6b192h4jlfktg","pricing_plan_id":"cebpf4jnsgd1na2vs0mg"},{"bike_id":"ddcda3b5-0819-4619-b7c5-ad8c5d969953","system_id":"levelo_inurba_marseille","lat":43.27987,"lon":5.4167,"is_reserved":false,"is_disabled":false,"rental_uris":{"android":"levelo://app?vid=ddcda3b5-0819-4619-b7c5-ad8c5d969953","ios":"levelo://app?vid=ddcda3b5-0819-4619-b7c5-ad8c5d969953"},"vehicle_type_id":"4","last_reported":1731651409,"current_range_meters":17600,"station_id":"ce4bho12rcd13ifvqh1g","pricing_plan_id":"cebpf4jnsgd1na2vs0mg"},{"bike_id":"0ee0ce32-b90c-4f34-80dc-1486e3aa3591","system_id":"levelo_inurba_marseille","lat":43.28452,"lon":5.35891,"is_reserved":false,"is_disabled":false,"rental_uris":{"android":"levelo://app?vid=0ee0ce32-b90c-4f34-80dc-1486e3aa3591","ios":"levelo://app?vid=0ee0ce32-b90c-4f34-80dc-1486e3aa3591"},"vehicle_type_id":"4","last_reported":1731651409,"current_range_meters":38800,"station_id":"ce4bhah2rcd13ifvqei0","pricing_plan_id":"cebpf4jnsgd1na2vs0mg"},{"bike_id":"93ee4e53-0b08-432a-8df5-beb35cdea60c","system_id":"levelo_inurba_marseille","lat":43.24389,"lon":5.37048,"is_reserved":false,"is_disabled":false,"rental_uris":{"android":"levelo://app?vid=93ee4e53-0b08-432a-8df5-beb35cdea60c","ios":"levelo://app?vid=93ee4e53-0b08-432a-8df5-beb35cdea60c"},"vehicle_type_id":"4","last_reported":1731651409,"current_range_meters":38800,"station_id":"ce4bhhh2rcd13ifvqfk0","pricing_plan_id":"cebpf4jnsgd1na2vs0mg"},{"bike_id":"c64a60b6-317d-4054-8f52-b03871d4495a","system_id":"levelo_inurba_marseille","lat":43.30807,"lon":5.43523,"is_reserved":false,"is_disabled":false,"rental_uris":{"android":"levelo://app?vid=c64a60b6-317d-4054-8f52-b03871d4495a","ios":"levelo://app?vid=c64a60b6-317d-4054-8f52-b03871d4495a"},"vehicle_type_id":"4","last_reported":1731651409,"current_range_meters":6400,"station_id":"ce4bhph2rcd13ifvqheg","pricing_plan_id":"cebpf4jnsgd1na2vs0mg"},{"bike_id":"5993bac6-5c24-49b7-a326-e88b8c1f8cc7","system_id":"levelo_inurba_marseille","lat":43.313549,"lon":5.384996,"is_reserved":false,"is_disabled":false,"rental_uris":{"android":"levelo://app?vid=5993bac6-5c24-49b7-a326-e88b8c1f8cc7","ios":"levelo://app?vid=5993bac6-5c24-49b7-a326-e88b8c1f8cc7"},"vehicle_type_id":"4","last_reported":1731651409,"current_range_meters":36400,"station_id":"ce4bgt92rcd13ifvqcf0","pricing_plan_id":"cebpf4jnsgd1na2vs0mg"},{"bike_id":"44611800-1428-408c-9660-04824b7466ef","system_id":"levelo_inurba_marseille","lat":43.258659,"lon":5.399051,"is_reserved":false,"is_disabled":false,"rental_uris":{"android":"levelo://app?vid=44611800-1428-408c-9660-04824b7466ef","ios":"levelo://app?vid=44611800-1428-408c-9660-04824b7466ef"},"vehicle_type_id":"4","last_reported":1731651409,"current_range_meters":31200,"station_id":"ce4bhl92rcd13ifvqghg","pricing_plan_id":"cebpf4jnsgd1na2vs0mg"},{"bike_id":"16fde11b-ad8b-4dc1-964d-0dcff4c00b3f","system_id":"levelo_inurba_marseille","lat":43.27997,"lon":5.40008,"is_reserved":false,"is_disabled":false,"rental_uris":{"android":"levelo://app?vid=16fde11b-ad8b-4dc1-964d-0dcff4c00b3f","ios":"levelo://app?vid=16fde11b-ad8b-4dc1-964d-0dcff4c00b3f"},"vehicle_type_id":"4","last_reported":1731651409,"current_range_meters":24400,"station_id":"ce4bho92rcd13ifvqh4g","pricing_plan_id":"cebpf4jnsgd1na2vs0mg"},{"bike_id":"8b22f74b-1b72-47ca-8c5e-a56972a0285b","system_id":"levelo_inurba_marseille","lat":43.3089,"lon":5.39645,"is_reserved":false,"is_disabled":false,"rental_uris":{"android":"levelo://app?vid=8b22f74b-1b72-47ca-8c5e-a56972a0285b","ios":"levelo://app?vid=8b22f74b-1b72-47ca-8c5e-a56972a0285b"},"vehicle_type_id":"4","last_reported":1731651409,"current_range_meters":38400,"station_id":"ce4bh012rcd13ifvqcv0","pricing_plan_id":"cebpf4jnsgd1na2vs0mg"},{"bike_id":"78b77ac8-4c63-432d-b19f-de7fa33d9847","system_id":"levelo_inurba_marseille","lat":43.3414,"lon":5.40906,"is_reserved":false,"is_disabled":false,"rental_uris":{"android":"levelo://app?vid=78b77ac8-4c63-432d-b19f-de7fa33d9847","ios":"levelo://app?vid=78b77ac8-4c63-432d-b19f-de7fa33d9847"},"vehicle_type_id":"4","last_reported":1731651409,"current_range_meters":38800,"station_id":"ce4bhqh2rcd13ifvqhlg","pricing_plan_id":"cebpf4jnsgd1na2vs0mg"},{"bike_id":"03a975f5-5857-4808-ac83-1e08fd421270","system_id":"levelo_inurba_marseille","lat":43.32371,"lon":5.38889,"is_reserved":false,"is_disabled":false,"rental_uris":{"android":"levelo://app?vid=03a975f5-5857-4808-ac83-1e08fd421270","ios":"levelo://app?vid=03a975f5-5857-4808-ac83-1e08fd421270"},"vehicle_type_id":"4","last_reported":1731651409,"current_range_meters":30800,"station_id":"ce4bhqp2rcd13ifvqhog","pricing_plan_id":"cebpf4jnsgd1na2vs0mg"},{"bike_id":"ae580608-3fd2-4e39-b37d-3f382858cedb","system_id":"levelo_inurba_marseille","lat":43.29085,"lon":5.38115,"is_reserved":false,"is_disabled":false,"rental_uris":{"android":"levelo://app?vid=ae580608-3fd2-4e39-b37d-3f382858cedb","ios":"levelo://app?vid=ae580608-3fd2-4e39-b37d-3f382858cedb"},"vehicle_type_id":"4","last_reported":1731651409,"current_range_meters":27200,"station_id":"ce4bh512rcd13ifvqe2g","pricing_plan_id":"cebpf4jnsgd1na2vs0mg"},{"bike_id":"940df703-1080-43ad-af7d-a596c5fab11d","system_id":"levelo_inurba_marseille","lat":43.24072,"lon":5.37763,"is_reserved":false,"is_disabled":false,"rental_uris":{"android":"levelo://app?vid=940df703-1080-43ad-af7d-a596c5fab11d","ios":"levelo://app?vid=940df703-1080-43ad-af7d-a596c5fab11d"},"vehicle_type_id":"4","last_reported":1731651409,"current_range_meters":28400,"station_id":"ce4bhnp2rcd13ifvqgvg","pricing_plan_id":"cebpf4jnsgd1na2vs0mg"},{"bike_id":"322929c1-8f42-441c-a8e7-5b80c2019ad2","system_id":"levelo_inurba_marseille","lat":43.28268,"lon":5.35074,"is_reserved":false,"is_disabled":false,"rental_uris":{"android":"levelo://app?vid=322929c1-8f42-441c-a8e7-5b80c2019ad2","ios":"levelo://app?vid=322929c1-8f42-441c-a8e7-5b80c2019ad2"},"vehicle_type_id":"4","last_reported":1731651409,"current_range_meters":38800,"station_id":"ce4bhbp2rcd13ifvqerg","pricing_plan_id":"cebpf4jnsgd1na2vs0mg"},{"bike_id":"e3cb1a55-4148-430e-8e94-feb4c70ed1b6","system_id":"levelo_inurba_marseille","lat":43.241829,"lon":5.397299,"is_reserved":false,"is_disabled":false,"rental_uris":{"android":"levelo://app?vid=e3cb1a55-4148-430e-8e94-feb4c70ed1b6","ios":"levelo://app?vid=e3cb1a55-4148-430e-8e94-feb4c70ed1b6"},"vehicle_type_id":"4","last_reported":1731651409,"current_range_meters":8400,"station_id":"ce4bhn12rcd13ifvqgpg","pricing_plan_id":"cebpf4jnsgd1na2vs0mg"},{"bike_id":"28f57333-68f3-4817-9d5c-4c988253a539","system_id":"levelo_inurba_marseille","lat":43.290544,"lon":5.399737,"is_reserved":false,"is_disabled":false,"rental_uris":{"android":"levelo://app?vid=28f57333-68f3-4817-9d5c-4c988253a539","ios":"levelo://app?vid=28f57333-68f3-4817-9d5c-4c988253a539"},"vehicle_type_id":"4","last_reported":1731651409,"current_range_meters":30400,"station_id":"ce4bh392rcd13ifvqdm0","pricing_plan_id":"cebpf4jnsgd1na2vs0mg"},{"bike_id":"bd976e31-5225-4116-a406-80069dff21f2","system_id":"levelo_inurba_marseille","lat":43.28029,"lon":5.36948,"is_reserved":false,"is_disabled":false,"rental_uris":{"android":"levelo://app?vid=bd976e31-5225-4116-a406-80069dff21f2","ios":"levelo://app?vid=bd976e31-5225-4116-a406-80069dff21f2"},"vehicle_type_id":"4","last_reported":1731651409,"current_range_meters":38000,"station_id":"ce4bha12rcd13ifvqef0","pricing_plan_id":"cebpf4jnsgd1na2vs0mg"},{"bike_id":"9ef76943-592f-4d3b-a0f1-da70d440e9b4","system_id":"levelo_inurba_marseille","lat":43.29898,"lon":5.43671,"is_reserved":false,"is_disabled":false,"rental_uris":{"android":"levelo://app?vid=9ef76943-592f-4d3b-a0f1-da70d440e9b4","ios":"levelo://app?vid=9ef76943-592f-4d3b-a0f1-da70d440e9b4"},"vehicle_type_id":"4","last_reported":1731651409,"current_range_meters":24800,"station_id":"ce4bhpp2rcd13ifvqhfg","pricing_plan_id":"cebpf4jnsgd1na2vs0mg"},{"bike_id":"ff9e8fbd-afb5-4332-8f0e-8863372f7ff1","system_id":"levelo_inurba_marseille","lat":43.28156,"lon":5.42641,"is_reserved":false,"is_disabled":false,"rental_uris":{"android":"levelo://app?vid=ff9e8fbd-afb5-4332-8f0e-8863372f7ff1","ios":"levelo://app?vid=ff9e8fbd-afb5-4332-8f0e-8863372f7ff1"},"vehicle_type_id":"4","last_reported":1731651409,"current_range_meters":17600,"station_id":"ce4bhnh2rcd13ifvqgug","pricing_plan_id":"cebpf4jnsgd1na2vs0mg"},{"bike_id":"a2824603-538d-4f20-8dcc-bb0102e732b8","system_id":"levelo_inurba_marseille","lat":43.27813,"lon":5.40706,"is_reserved":false,"is_disabled":false,"rental_uris":{"android":"levelo://app?vid=a2824603-538d-4f20-8dcc-bb0102e732b8","ios":"levelo://app?vid=a2824603-538d-4f20-8dcc-bb0102e732b8"},"vehicle_type_id":"4","last_reported":1731651409,"current_range_meters":38800,"station_id":"ce4bhnh2rcd13ifvqgtg","pricing_plan_id":"cebpf4jnsgd1na2vs0mg"},{"bike_id":"d9e695fc-913d-4089-90d1-0b4ac35f153c","system_id":"levelo_inurba_marseille","lat":43.27497,"lon":5.42451,"is_reserved":false,"is_disabled":false,"rental_uris":{"android":"levelo://app?vid=d9e695fc-913d-4089-90d1-0b4ac35f153c","ios":"levelo://app?vid=d9e695fc-913d-4089-90d1-0b4ac35f153c"},"vehicle_type_id":"4","last_reported":1731651409,"current_range_meters":38000,"station_id":"ce4bhn92rcd13ifvqgrg","pricing_plan_id":"cebpf4jnsgd1na2vs0mg"},{"bike_id":"12be8816-9edc-48be-afea-bec14c436cd5","system_id":"levelo_inurba_marseille","lat":43.323419,"lon":5.406196,"is_reserved":false,"is_disabled":false,"rental_uris":{"android":"levelo://app?vid=12be8816-9edc-48be-afea-bec14c436cd5","ios":"levelo://app?vid=12be8816-9edc-48be-afea-bec14c436cd5"},"vehicle_type_id":"4","last_reported":1731651409,"current_range_meters":36800,"station_id":"ce4bhq92rcd13ifvqhjg","pricing_plan_id":"cebpf4jnsgd1na2vs0mg"},{"bike_id":"9f0387ec-34e6-4eac-99af-58b98fc92d36","system_id":"levelo_inurba_marseille","lat":43.28845,"lon":5.35846,"is_reserved":false,"is_disabled":false,"rental_uris":{"android":"levelo://app?vid=9f0387ec-34e6-4eac-99af-58b98fc92d36","ios":"levelo://app?vid=9f0387ec-34e6-4eac-99af-58b98fc92d36"},"vehicle_type_id":"4","last_reported":1731651409,"current_range_meters":21600,"station_id":"ce4bhb12rcd13ifvqem0","pricing_plan_id":"cebpf4jnsgd1na2vs0mg"},{"bike_id":"354f040a-9ab6-488a-9d26-4c39ec3baaa7","system_id":"levelo_inurba_marseille","lat":43.23184,"lon":5.35611,"is_reserved":false,"is_disabled":false,"rental_uris":{"android":"levelo://app?vid=354f040a-9ab6-488a-9d26-4c39ec3baaa7","ios":"levelo://app?vid=354f040a-9ab6-488a-9d26-4c39ec3baaa7"},"vehicle_type_id":"4","last_reported":1731651409,"current_range_meters":39200,"station_id":"ce4bhu92rcd13ifvqi70","pricing_plan_id":"cebpf4jnsgd1na2vs0mg"},{"bike_id":"52984805-f491-454f-af90-05d09711ad26","system_id":"levelo_inurba_marseille","lat":43.25497,"lon":5.37651,"is_reserved":false,"is_disabled":false,"rental_uris":{"android":"levelo://app?vid=52984805-f491-454f-af90-05d09711ad26","ios":"levelo://app?vid=52984805-f491-454f-af90-05d09711ad26"},"vehicle_type_id":"4","last_reported":1731651409,"current_range_meters":38400,"station_id":"ce4bhh12rcd13ifvqff0","pricing_plan_id":"cebpf4jnsgd1na2vs0mg"},{"bike_id":"9e9b8741-981e-4ce4-9777-8bfa675fdb4e","system_id":"levelo_inurba_marseille","lat":43.295751,"lon":5.399791,"is_reserved":false,"is_disabled":false,"rental_uris":{"android":"levelo://app?vid=9e9b8741-981e-4ce4-9777-8bfa675fdb4e","ios":"levelo://app?vid=9e9b8741-981e-4ce4-9777-8bfa675fdb4e"},"vehicle_type_id":"4","last_reported":1731651409,"current_range_meters":20000,"station_id":"","pricing_plan_id":"cebpf4jnsgd1na2vs0mg"},{"bike_id":"0260fce1-189f-4c03-8fc8-ab055174978c","system_id":"levelo_inurba_marseille","lat":43.28106,"lon":5.37849,"is_reserved":false,"is_disabled":false,"rental_uris":{"android":"levelo://app?vid=0260fce1-189f-4c03-8fc8-ab055174978c","ios":"levelo://app?vid=0260fce1-189f-4c03-8fc8-ab055174978c"},"vehicle_type_id":"4","last_reported":1731651409,"current_range_meters":6000,"station_id":"ce4bha12rcd13ifvqee0","pricing_plan_id":"cebpf4jnsgd1na2vs0mg"},{"bike_id":"b983f6e5-3fdf-4e84-afe9-f31e1871bb9a","system_id":"levelo_inurba_marseille","lat":43.28461,"lon":5.35893,"is_reserved":false,"is_disabled":false,"rental_uris":{"android":"levelo://app?vid=b983f6e5-3fdf-4e84-afe9-f31e1871bb9a","ios":"levelo://app?vid=b983f6e5-3fdf-4e84-afe9-f31e1871bb9a"},"vehicle_type_id":"4","last_reported":1731651409,"current_range_meters":19600,"station_id":"ce4bhah2rcd13ifvqei0","pricing_plan_id":"cebpf4jnsgd1na2vs0mg"},{"bike_id":"6d3df71a-5a02-4932-8c27-6f07f04cc755","system_id":"levelo_inurba_marseille","lat":43.24545,"lon":5.39525,"is_reserved":false,"is_disabled":false,"rental_uris":{"android":"levelo://app?vid=6d3df71a-5a02-4932-8c27-6f07f04cc755","ios":"levelo://app?vid=6d3df71a-5a02-4932-8c27-6f07f04cc755"},"vehicle_type_id":"4","last_reported":1731651409,"current_range_meters":38800,"station_id":"ce4bhlp2rcd13ifvqgjg","pricing_plan_id":"cebpf4jnsgd1na2vs0mg"},{"bike_id":"4a74f469-1d99-48ee-a8ca-9199898c00a4","system_id":"levelo_inurba_marseille","lat":43.23197,"lon":5.35544,"is_reserved":false,"is_disabled":false,"rental_uris":{"android":"levelo://app?vid=4a74f469-1d99-48ee-a8ca-9199898c00a4","ios":"levelo://app?vid=4a74f469-1d99-48ee-a8ca-9199898c00a4"},"vehicle_type_id":"4","last_reported":1731651409,"current_range_meters":16800,"station_id":"ce4bhu92rcd13ifvqi70","pricing_plan_id":"cebpf4jnsgd1na2vs0mg"},{"bike_id":"d13a87f9-953a-4c4d-9d1f-b8db7eaf93ea","system_id":"levelo_inurba_marseille","lat":43.30311,"lon":5.40451,"is_reserved":false,"is_disabled":false,"rental_uris":{"android":"levelo://app?vid=d13a87f9-953a-4c4d-9d1f-b8db7eaf93ea","ios":"levelo://app?vid=d13a87f9-953a-4c4d-9d1f-b8db7eaf93ea"},"vehicle_type_id":"4","last_reported":1731651409,"current_range_meters":31200,"station_id":"ce4bh012rcd13ifvqd10","pricing_plan_id":"cebpf4jnsgd1na2vs0mg"},{"bike_id":"f1f664cf-43f1-46b2-b12b-9111374546e1","system_id":"levelo_inurba_marseille","lat":43.30805,"lon":5.38157,"is_reserved":false,"is_disabled":false,"rental_uris":{"android":"levelo://app?vid=f1f664cf-43f1-46b2-b12b-9111374546e1","ios":"levelo://app?vid=f1f664cf-43f1-46b2-b12b-9111374546e1"},"vehicle_type_id":"4","last_reported":1731651409,"current_range_meters":38800,"station_id":"ce4bgt12rcd13ifvqce0","pricing_plan_id":"cebpf4jnsgd1na2vs0mg"},{"bike_id":"5a9487f5-1f4a-4526-91df-278697abb58b","system_id":"levelo_inurba_marseille","lat":43.28159,"lon":5.4264,"is_reserved":false,"is_disabled":false,"rental_uris":{"android":"levelo://app?vid=5a9487f5-1f4a-4526-91df-278697abb58b","ios":"levelo://app?vid=5a9487f5-1f4a-4526-91df-278697abb58b"},"vehicle_type_id":"4","last_reported":1731651409,"current_range_meters":21600,"station_id":"ce4bhnh2rcd13ifvqgug","pricing_plan_id":"cebpf4jnsgd1na2vs0mg"},{"bike_id":"840845de-ecbb-423a-b455-7f88e749edf5","system_id":"levelo_inurba_marseille","lat":43.30641,"lon":5.40087,"is_reserved":false,"is_disabled":false,"rental_uris":{"android":"levelo://app?vid=840845de-ecbb-423a-b455-7f88e749edf5","ios":"levelo://app?vid=840845de-ecbb-423a-b455-7f88e749edf5"},"vehicle_type_id":"4","last_reported":1731651409,"current_range_meters":38800,"station_id":"ce4bh112rcd13ifvqda0","pricing_plan_id":"cebpf4jnsgd1na2vs0mg"},{"bike_id":"12491cd5-0566-4373-af79-d3a99275b0f7","system_id":"levelo_inurba_marseille","lat":43.303256,"lon":5.404359,"is_reserved":false,"is_disabled":false,"rental_uris":{"android":"levelo://app?vid=12491cd5-0566-4373-af79-d3a99275b0f7","ios":"levelo://app?vid=12491cd5-0566-4373-af79-d3a99275b0f7"},"vehicle_type_id":"4","last_reported":1731651409,"current_range_meters":33600,"station_id":"ce4bh012rcd13ifvqd10","pricing_plan_id":"cebpf4jnsgd1na2vs0mg"},{"bike_id":"ac9ff0e2-0c2f-4cb0-8b16-0d7bb3087fdf","system_id":"levelo_inurba_marseille","lat":43.26959,"lon":5.38635,"is_reserved":false,"is_disabled":false,"rental_uris":{"android":"levelo://app?vid=ac9ff0e2-0c2f-4cb0-8b16-0d7bb3087fdf","ios":"levelo://app?vid=ac9ff0e2-0c2f-4cb0-8b16-0d7bb3087fdf"},"vehicle_type_id":"4","last_reported":1731651409,"current_range_meters":38800,"station_id":"ce4bhh92rcd13ifvqfh0","pricing_plan_id":"cebpf4jnsgd1na2vs0mg"},{"bike_id":"a45a259f-87ca-4f76-952e-40bfea604cbc","system_id":"levelo_inurba_marseille","lat":43.28491,"lon":5.38545,"is_reserved":false,"is_disabled":false,"rental_uris":{"android":"levelo://app?vid=a45a259f-87ca-4f76-952e-40bfea604cbc","ios":"levelo://app?vid=a45a259f-87ca-4f76-952e-40bfea604cbc"},"vehicle_type_id":"4","last_reported":1731651409,"current_range_meters":8400,"station_id":"ce4bh8p2rcd13ifvqeb0","pricing_plan_id":"cebpf4jnsgd1na2vs0mg"},{"bike_id":"2c35c49c-dc15-40b0-90c8-c6504305c667","system_id":"levelo_inurba_marseille","lat":43.28711,"lon":5.3609,"is_reserved":false,"is_disabled":false,"rental_uris":{"android":"levelo://app?vid=2c35c49c-dc15-40b0-90c8-c6504305c667","ios":"levelo://app?vid=2c35c49c-dc15-40b0-90c8-c6504305c667"},"vehicle_type_id":"4","last_reported":1731651409,"current_range_meters":38800,"station_id":"cki0cbj6b192h4jlfktg","pricing_plan_id":"cebpf4jnsgd1na2vs0mg"},{"bike_id":"cdce8673-200c-455e-8f7f-c78d0fab3e45","system_id":"levelo_inurba_marseille","lat":43.30321,"lon":5.40443,"is_reserved":false,"is_disabled":false,"rental_uris":{"android":"levelo://app?vid=cdce8673-200c-455e-8f7f-c78d0fab3e45","ios":"levelo://app?vid=cdce8673-200c-455e-8f7f-c78d0fab3e45"},"vehicle_type_id":"4","last_reported":1731651409,"current_range_meters":36000,"station_id":"ce4bh012rcd13ifvqd10","pricing_plan_id":"cebpf4jnsgd1na2vs0mg"},{"bike_id":"ea5ad0b2-48a6-4d38-99d0-8a91e3a1cf4e","system_id":"levelo_inurba_marseille","lat":43.23958,"lon":5.36629,"is_reserved":false,"is_disabled":false,"rental_uris":{"android":"levelo://app?vid=ea5ad0b2-48a6-4d38-99d0-8a91e3a1cf4e","ios":"levelo://app?vid=ea5ad0b2-48a6-4d38-99d0-8a91e3a1cf4e"},"vehicle_type_id":"4","last_reported":1731651409,"current_range_meters":37600,"station_id":"ce4bhi12rcd13ifvqfp0","pricing_plan_id":"cebpf4jnsgd1na2vs0mg"},{"bike_id":"81117fe0-1e47-4966-a7e0-0145c8ef9c98","system_id":"levelo_inurba_marseille","lat":43.258606,"lon":5.399054,"is_reserved":false,"is_disabled":false,"rental_uris":{"android":"levelo://app?vid=81117fe0-1e47-4966-a7e0-0145c8ef9c98","ios":"levelo://app?vid=81117fe0-1e47-4966-a7e0-0145c8ef9c98"},"vehicle_type_id":"4","last_reported":1731651409,"current_range_meters":3200,"station_id":"ce4bhl92rcd13ifvqghg","pricing_plan_id":"cebpf4jnsgd1na2vs0mg"},{"bike_id":"5c495074-f0a5-4b38-b863-af2e25b66c81","system_id":"levelo_inurba_marseille","lat":43.31497,"lon":5.37298,"is_reserved":false,"is_disabled":false,"rental_uris":{"android":"levelo://app?vid=5c495074-f0a5-4b38-b863-af2e25b66c81","ios":"levelo://app?vid=5c495074-f0a5-4b38-b863-af2e25b66c81"},"vehicle_type_id":"4","last_reported":1731651409,"current_range_meters":11600,"station_id":"ce4bgt12rcd13ifvqcd0","pricing_plan_id":"cebpf4jnsgd1na2vs0mg"},{"bike_id":"1cd6853f-ffdd-4358-bc58-45b6b9d8d7be","system_id":"levelo_inurba_marseille","lat":43.28847,"lon":5.35833,"is_reserved":false,"is_disabled":false,"rental_uris":{"android":"levelo://app?vid=1cd6853f-ffdd-4358-bc58-45b6b9d8d7be","ios":"levelo://app?vid=1cd6853f-ffdd-4358-bc58-45b6b9d8d7be"},"vehicle_type_id":"4","last_reported":1731651409,"current_range_meters":36800,"station_id":"ce4bhb12rcd13ifvqem0","pricing_plan_id":"cebpf4jnsgd1na2vs0mg"},{"bike_id":"f3261bfe-54e6-422d-9a80-717eea542e06","system_id":"levelo_inurba_marseille","lat":43.28862,"lon":5.35839,"is_reserved":false,"is_disabled":false,"rental_uris":{"android":"levelo://app?vid=f3261bfe-54e6-422d-9a80-717eea542e06","ios":"levelo://app?vid=f3261bfe-54e6-422d-9a80-717eea542e06"},"vehicle_type_id":"4","last_reported":1731651409,"current_range_meters":37600,"station_id":"ce4bhb12rcd13ifvqem0","pricing_plan_id":"cebpf4jnsgd1na2vs0mg"},{"bike_id":"64f99bb0-c0fd-4f5e-b1c6-37b7b86158f2","system_id":"levelo_inurba_marseille","lat":43.2509,"lon":5.39516,"is_reserved":false,"is_disabled":false,"rental_uris":{"android":"levelo://app?vid=64f99bb0-c0fd-4f5e-b1c6-37b7b86158f2","ios":"levelo://app?vid=64f99bb0-c0fd-4f5e-b1c6-37b7b86158f2"},"vehicle_type_id":"4","last_reported":1731651409,"current_range_meters":36400,"station_id":"ce4bhm12rcd13ifvqgkg","pricing_plan_id":"cebpf4jnsgd1na2vs0mg"},{"bike_id":"035cc09f-5965-49b7-ba42-6ddf5ce96b29","system_id":"levelo_inurba_marseille","lat":43.29839,"lon":5.36265,"is_reserved":false,"is_disabled":false,"rental_uris":{"android":"levelo://app?vid=035cc09f-5965-49b7-ba42-6ddf5ce96b29","ios":"levelo://app?vid=035cc09f-5965-49b7-ba42-6ddf5ce96b29"},"vehicle_type_id":"4","last_reported":1731651409,"current_range_meters":25200,"station_id":"ce4bgpp2rcd13ifvqc3g","pricing_plan_id":"cebpf4jnsgd1na2vs0mg"},{"bike_id":"82d70f42-a3bb-40a2-adc3-adc463171e39","system_id":"levelo_inurba_marseille","lat":43.32651,"lon":5.41002,"is_reserved":false,"is_disabled":false,"rental_uris":{"android":"levelo://app?vid=82d70f42-a3bb-40a2-adc3-adc463171e39","ios":"levelo://app?vid=82d70f42-a3bb-40a2-adc3-adc463171e39"},"vehicle_type_id":"4","last_reported":1731651409,"current_range_meters":26800,"station_id":"ce4bhpp2rcd13ifvqhgg","pricing_plan_id":"cebpf4jnsgd1na2vs0mg"},{"bike_id":"efa8c3d1-15b0-406a-a10a-ef5ffefd3156","system_id":"levelo_inurba_marseille","lat":43.2811,"lon":5.3784,"is_reserved":false,"is_disabled":false,"rental_uris":{"android":"levelo://app?vid=efa8c3d1-15b0-406a-a10a-ef5ffefd3156","ios":"levelo://app?vid=efa8c3d1-15b0-406a-a10a-ef5ffefd3156"},"vehicle_type_id":"4","last_reported":1731651409,"current_range_meters":8400,"station_id":"ce4bha12rcd13ifvqee0","pricing_plan_id":"cebpf4jnsgd1na2vs0mg"},{"bike_id":"d728a349-ebfd-458d-861e-629eb0fb3d32","system_id":"levelo_inurba_marseille","lat":43.29037,"lon":5.3995,"is_reserved":false,"is_disabled":false,"rental_uris":{"android":"levelo://app?vid=d728a349-ebfd-458d-861e-629eb0fb3d32","ios":"levelo://app?vid=d728a349-ebfd-458d-861e-629eb0fb3d32"},"vehicle_type_id":"4","last_reported":1731651409,"current_range_meters":38800,"station_id":"ce4bh392rcd13ifvqdm0","pricing_plan_id":"cebpf4jnsgd1na2vs0mg"},{"bike_id":"a6dcc830-39bc-4857-934b-df62e8ea4f60","system_id":"levelo_inurba_marseille","lat":43.25582,"lon":5.38236,"is_reserved":false,"is_disabled":false,"rental_uris":{"android":"levelo://app?vid=a6dcc830-39bc-4857-934b-df62e8ea4f60","ios":"levelo://app?vid=a6dcc830-39bc-4857-934b-df62e8ea4f60"},"vehicle_type_id":"4","last_reported":1731651409,"current_range_meters":39200,"station_id":"ce4bhih2rcd13ifvqfs0","pricing_plan_id":"cebpf4jnsgd1na2vs0mg"},{"bike_id":"631284bc-ca79-4566-a19e-c81968ea3fef","system_id":"levelo_inurba_marseille","lat":43.26691,"lon":5.38274,"is_reserved":false,"is_disabled":false,"rental_uris":{"android":"levelo://app?vid=631284bc-ca79-4566-a19e-c81968ea3fef","ios":"levelo://app?vid=631284bc-ca79-4566-a19e-c81968ea3fef"},"vehicle_type_id":"4","last_reported":1731651409,"current_range_meters":31200,"station_id":"ce4bhg92rcd13ifvqf90","pricing_plan_id":"cebpf4jnsgd1na2vs0mg"},{"bike_id":"a5d62cce-cc9c-41aa-ac86-0eec74aeed9a","system_id":"levelo_inurba_marseille","lat":43.32365,"lon":5.38884,"is_reserved":false,"is_disabled":false,"rental_uris":{"android":"levelo://app?vid=a5d62cce-cc9c-41aa-ac86-0eec74aeed9a","ios":"levelo://app?vid=a5d62cce-cc9c-41aa-ac86-0eec74aeed9a"},"vehicle_type_id":"4","last_reported":1731651409,"current_range_meters":14000,"station_id":"ce4bhqp2rcd13ifvqhog","pricing_plan_id":"cebpf4jnsgd1na2vs0mg"},{"bike_id":"424cff11-b483-4184-8dab-be42e72b648e","system_id":"levelo_inurba_marseille","lat":43.31329,"lon":5.39695,"is_reserved":false,"is_disabled":false,"rental_uris":{"android":"levelo://app?vid=424cff11-b483-4184-8dab-be42e72b648e","ios":"levelo://app?vid=424cff11-b483-4184-8dab-be42e72b648e"},"vehicle_type_id":"4","last_reported":1731651409,"current_range_meters":38000,"station_id":"ce4bgvp2rcd13ifvqcu0","pricing_plan_id":"cebpf4jnsgd1na2vs0mg"},{"bike_id":"d0f0148a-3bfd-49ee-9bfc-87966b4463d6","system_id":"levelo_inurba_marseille","lat":43.324823,"lon":5.365641,"is_reserved":false,"is_disabled":false,"rental_uris":{"android":"levelo://app?vid=d0f0148a-3bfd-49ee-9bfc-87966b4463d6","ios":"levelo://app?vid=d0f0148a-3bfd-49ee-9bfc-87966b4463d6"},"vehicle_type_id":"4","last_reported":1731651409,"current_range_meters":27200,"station_id":"ce4bhs12rcd13ifvqhvg","pricing_plan_id":"cebpf4jnsgd1na2vs0mg"},{"bike_id":"3f972a24-5744-4a24-bd78-0b23937d4da8","system_id":"levelo_inurba_marseille","lat":43.31532,"lon":5.38035,"is_reserved":false,"is_disabled":false,"rental_uris":{"android":"levelo://app?vid=3f972a24-5744-4a24-bd78-0b23937d4da8","ios":"levelo://app?vid=3f972a24-5744-4a24-bd78-0b23937d4da8"},"vehicle_type_id":"4","last_reported":1731651409,"current_range_meters":28400,"station_id":"ce4bhsp2rcd13ifvqi50","pricing_plan_id":"cebpf4jnsgd1na2vs0mg"},{"bike_id":"905e9d7f-4c09-4eaa-97a7-99bf75673614","system_id":"levelo_inurba_marseille","lat":43.309325,"lon":5.401439,"is_reserved":false,"is_disabled":false,"rental_uris":{"android":"levelo://app?vid=905e9d7f-4c09-4eaa-97a7-99bf75673614","ios":"levelo://app?vid=905e9d7f-4c09-4eaa-97a7-99bf75673614"},"vehicle_type_id":"4","last_reported":1731651409,"current_range_meters":39200,"station_id":"ce4bgvp2rcd13ifvqct0","pricing_plan_id":"cebpf4jnsgd1na2vs0mg"},{"bike_id":"9b2b2486-f3ad-43dd-9972-051be7f2ddba","system_id":"levelo_inurba_marseille","lat":43.28151,"lon":5.42641,"is_reserved":false,"is_disabled":false,"rental_uris":{"android":"levelo://app?vid=9b2b2486-f3ad-43dd-9972-051be7f2ddba","ios":"levelo://app?vid=9b2b2486-f3ad-43dd-9972-051be7f2ddba"},"vehicle_type_id":"4","last_reported":1731651409,"current_range_meters":36800,"station_id":"ce4bhnh2rcd13ifvqgug","pricing_plan_id":"cebpf4jnsgd1na2vs0mg"},{"bike_id":"675fe710-f9e5-46cf-95f1-88cbcbaf9606","system_id":"levelo_inurba_marseille","lat":43.28154,"lon":5.42644,"is_reserved":false,"is_disabled":false,"rental_uris":{"android":"levelo://app?vid=675fe710-f9e5-46cf-95f1-88cbcbaf9606","ios":"levelo://app?vid=675fe710-f9e5-46cf-95f1-88cbcbaf9606"},"vehicle_type_id":"4","last_reported":1731651409,"current_range_meters":27200,"station_id":"ce4bhnh2rcd13ifvqgug","pricing_plan_id":"cebpf4jnsgd1na2vs0mg"},{"bike_id":"467e06f8-8e59-4c72-950d-efe3464d762a","system_id":"levelo_inurba_marseille","lat":43.30353,"lon":5.41874,"is_reserved":false,"is_disabled":false,"rental_uris":{"android":"levelo://app?vid=467e06f8-8e59-4c72-950d-efe3464d762a","ios":"levelo://app?vid=467e06f8-8e59-4c72-950d-efe3464d762a"},"vehicle_type_id":"4","last_reported":1731651409,"current_range_meters":28000,"station_id":"ce4bhop2rcd13ifvqh7g","pricing_plan_id":"cebpf4jnsgd1na2vs0mg"},{"bike_id":"bb65540a-63bf-482e-ae28-4c05953402e5","system_id":"levelo_inurba_marseille","lat":43.231885,"lon":5.399792,"is_reserved":false,"is_disabled":false,"rental_uris":{"android":"levelo://app?vid=bb65540a-63bf-482e-ae28-4c05953402e5","ios":"levelo://app?vid=bb65540a-63bf-482e-ae28-4c05953402e5"},"vehicle_type_id":"4","last_reported":1731651409,"current_range_meters":6800,"station_id":"ce4bhn12rcd13ifvqgqg","pricing_plan_id":"cebpf4jnsgd1na2vs0mg"},{"bike_id":"df7f14e8-03da-402b-ad76-8e5a3da7bc84","system_id":"levelo_inurba_marseille","lat":43.30886,"lon":5.39633,"is_reserved":false,"is_disabled":false,"rental_uris":{"android":"levelo://app?vid=df7f14e8-03da-402b-ad76-8e5a3da7bc84","ios":"levelo://app?vid=df7f14e8-03da-402b-ad76-8e5a3da7bc84"},"vehicle_type_id":"4","last_reported":1731651409,"current_range_meters":25600,"station_id":"ce4bh012rcd13ifvqcv0","pricing_plan_id":"cebpf4jnsgd1na2vs0mg"},{"bike_id":"a271cbfc-3cc6-4a9e-bc9d-57e735019ddf","system_id":"levelo_inurba_marseille","lat":43.31507,"lon":5.38992,"is_reserved":false,"is_disabled":false,"rental_uris":{"android":"levelo://app?vid=a271cbfc-3cc6-4a9e-bc9d-57e735019ddf","ios":"levelo://app?vid=a271cbfc-3cc6-4a9e-bc9d-57e735019ddf"},"vehicle_type_id":"4","last_reported":1731651409,"current_range_meters":30800,"station_id":"","pricing_plan_id":"cebpf4jnsgd1na2vs0mg"},{"bike_id":"19403e5b-9388-47f8-803d-8d1235a538c6","system_id":"levelo_inurba_marseille","lat":43.23191,"lon":5.35566,"is_reserved":false,"is_disabled":false,"rental_uris":{"android":"levelo://app?vid=19403e5b-9388-47f8-803d-8d1235a538c6","ios":"levelo://app?vid=19403e5b-9388-47f8-803d-8d1235a538c6"},"vehicle_type_id":"4","last_reported":1731651409,"current_range_meters":38400,"station_id":"ce4bhu92rcd13ifvqi70","pricing_plan_id":"cebpf4jnsgd1na2vs0mg"},{"bike_id":"dff7b9a3-d1f1-446b-94fd-a71bb1847898","system_id":"levelo_inurba_marseille","lat":43.23958,"lon":5.36627,"is_reserved":false,"is_disabled":false,"rental_uris":{"android":"levelo://app?vid=dff7b9a3-d1f1-446b-94fd-a71bb1847898","ios":"levelo://app?vid=dff7b9a3-d1f1-446b-94fd-a71bb1847898"},"vehicle_type_id":"4","last_reported":1731651409,"current_range_meters":37600,"station_id":"ce4bhi12rcd13ifvqfp0","pricing_plan_id":"cebpf4jnsgd1na2vs0mg"},{"bike_id":"e950bf4f-a36a-44c8-99fb-91246952c7ba","system_id":"levelo_inurba_marseille","lat":43.28414,"lon":5.37514,"is_reserved":false,"is_disabled":false,"rental_uris":{"android":"levelo://app?vid=e950bf4f-a36a-44c8-99fb-91246952c7ba","ios":"levelo://app?vid=e950bf4f-a36a-44c8-99fb-91246952c7ba"},"vehicle_type_id":"4","last_reported":1731651409,"current_range_meters":30400,"station_id":"ce4bh412rcd13ifvqds0","pricing_plan_id":"cebpf4jnsgd1na2vs0mg"},{"bike_id":"9a8b7443-707a-4209-b2c8-7cb879bc18a4","system_id":"levelo_inurba_marseille","lat":43.23186,"lon":5.39987,"is_reserved":false,"is_disabled":false,"rental_uris":{"android":"levelo://app?vid=9a8b7443-707a-4209-b2c8-7cb879bc18a4","ios":"levelo://app?vid=9a8b7443-707a-4209-b2c8-7cb879bc18a4"},"vehicle_type_id":"4","last_reported":1731651409,"current_range_meters":6400,"station_id":"ce4bhn12rcd13ifvqgqg","pricing_plan_id":"cebpf4jnsgd1na2vs0mg"},{"bike_id":"23b6726b-07ca-4d73-af56-0a55a8236802","system_id":"levelo_inurba_marseille","lat":43.29805,"lon":5.38102,"is_reserved":false,"is_disabled":false,"rental_uris":{"android":"levelo://app?vid=23b6726b-07ca-4d73-af56-0a55a8236802","ios":"levelo://app?vid=23b6726b-07ca-4d73-af56-0a55a8236802"},"vehicle_type_id":"4","last_reported":1731651409,"current_range_meters":37600,"station_id":"ce4bgip2rcd13ifvqbb0","pricing_plan_id":"cebpf4jnsgd1na2vs0mg"},{"bike_id":"ecb3fdc1-2828-46e9-9605-e9d30462b222","system_id":"levelo_inurba_marseille","lat":43.28083,"lon":5.39666,"is_reserved":false,"is_disabled":false,"rental_uris":{"android":"levelo://app?vid=ecb3fdc1-2828-46e9-9605-e9d30462b222","ios":"levelo://app?vid=ecb3fdc1-2828-46e9-9605-e9d30462b222"},"vehicle_type_id":"4","last_reported":1731651409,"current_range_meters":33200,"station_id":"ce4bho12rcd13ifvqh2g","pricing_plan_id":"cebpf4jnsgd1na2vs0mg"},{"bike_id":"1bda7f93-5e07-4d55-9634-1c55956005d0","system_id":"levelo_inurba_marseille","lat":43.25867,"lon":5.39899,"is_reserved":false,"is_disabled":false,"rental_uris":{"android":"levelo://app?vid=1bda7f93-5e07-4d55-9634-1c55956005d0","ios":"levelo://app?vid=1bda7f93-5e07-4d55-9634-1c55956005d0"},"vehicle_type_id":"4","last_reported":1731651409,"current_range_meters":38800,"station_id":"ce4bhl92rcd13ifvqghg","pricing_plan_id":"cebpf4jnsgd1na2vs0mg"},{"bike_id":"ce1e7e71-2e5b-442c-80fa-72efb8f6a64b","system_id":"levelo_inurba_marseille","lat":43.27914,"lon":5.41227,"is_reserved":false,"is_disabled":false,"rental_uris":{"android":"levelo://app?vid=ce1e7e71-2e5b-442c-80fa-72efb8f6a64b","ios":"levelo://app?vid=ce1e7e71-2e5b-442c-80fa-72efb8f6a64b"},"vehicle_type_id":"4","last_reported":1731651409,"current_range_meters":2000,"station_id":"","pricing_plan_id":"cebpf4jnsgd1na2vs0mg"},{"bike_id":"d99bff46-e3e0-4c25-9719-3fa3dd9a1a6e","system_id":"levelo_inurba_marseille","lat":43.31874,"lon":5.37364,"is_reserved":false,"is_disabled":false,"rental_uris":{"android":"levelo://app?vid=d99bff46-e3e0-4c25-9719-3fa3dd9a1a6e","ios":"levelo://app?vid=d99bff46-e3e0-4c25-9719-3fa3dd9a1a6e"},"vehicle_type_id":"4","last_reported":1731651409,"current_range_meters":20400,"station_id":"","pricing_plan_id":"cebpf4jnsgd1na2vs0mg"},{"bike_id":"61e4d8f2-6ee3-4d4d-86ee-2c2682bb17bc","system_id":"levelo_inurba_marseille","lat":43.260568,"lon":5.393927,"is_reserved":false,"is_disabled":false,"rental_uris":{"android":"levelo://app?vid=61e4d8f2-6ee3-4d4d-86ee-2c2682bb17bc","ios":"levelo://app?vid=61e4d8f2-6ee3-4d4d-86ee-2c2682bb17bc"},"vehicle_type_id":"4","last_reported":1731651409,"current_range_meters":38400,"station_id":"ce4bhh92rcd13ifvqfj0","pricing_plan_id":"cebpf4jnsgd1na2vs0mg"},{"bike_id":"90b4ec0c-19aa-437d-99ed-b506154d15e9","system_id":"levelo_inurba_marseille","lat":43.33024,"lon":5.39043,"is_reserved":false,"is_disabled":false,"rental_uris":{"android":"levelo://app?vid=90b4ec0c-19aa-437d-99ed-b506154d15e9","ios":"levelo://app?vid=90b4ec0c-19aa-437d-99ed-b506154d15e9"},"vehicle_type_id":"4","last_reported":1731651409,"current_range_meters":38800,"station_id":"ce4bhr92rcd13ifvqhrg","pricing_plan_id":"cebpf4jnsgd1na2vs0mg"},{"bike_id":"1d74bc52-c8fd-442b-946b-e61aa82e32f3","system_id":"levelo_inurba_marseille","lat":43.28412,"lon":5.37517,"is_reserved":false,"is_disabled":false,"rental_uris":{"android":"levelo://app?vid=1d74bc52-c8fd-442b-946b-e61aa82e32f3","ios":"levelo://app?vid=1d74bc52-c8fd-442b-946b-e61aa82e32f3"},"vehicle_type_id":"4","last_reported":1731651409,"current_range_meters":37600,"station_id":"ce4bh412rcd13ifvqds0","pricing_plan_id":"cebpf4jnsgd1na2vs0mg"},{"bike_id":"4d6402b1-57e5-4b0a-b809-dd29febde586","system_id":"levelo_inurba_marseille","lat":43.31516,"lon":5.36838,"is_reserved":false,"is_disabled":false,"rental_uris":{"android":"levelo://app?vid=4d6402b1-57e5-4b0a-b809-dd29febde586","ios":"levelo://app?vid=4d6402b1-57e5-4b0a-b809-dd29febde586"},"vehicle_type_id":"4","last_reported":1731651409,"current_range_meters":32000,"station_id":"","pricing_plan_id":"cebpf4jnsgd1na2vs0mg"},{"bike_id":"ef750473-b38f-438c-a262-61095095d9f9","system_id":"levelo_inurba_marseille","lat":43.23187,"lon":5.39986,"is_reserved":false,"is_disabled":false,"rental_uris":{"android":"levelo://app?vid=ef750473-b38f-438c-a262-61095095d9f9","ios":"levelo://app?vid=ef750473-b38f-438c-a262-61095095d9f9"},"vehicle_type_id":"4","last_reported":1731651409,"current_range_meters":36400,"station_id":"ce4bhn12rcd13ifvqgqg","pricing_plan_id":"cebpf4jnsgd1na2vs0mg"},{"bike_id":"32905f97-482e-4526-becb-e91ba7cedc16","system_id":"levelo_inurba_marseille","lat":43.28405,"lon":5.37535,"is_reserved":false,"is_disabled":false,"rental_uris":{"android":"levelo://app?vid=32905f97-482e-4526-becb-e91ba7cedc16","ios":"levelo://app?vid=32905f97-482e-4526-becb-e91ba7cedc16"},"vehicle_type_id":"4","last_reported":1731651409,"current_range_meters":33200,"station_id":"ce4bh412rcd13ifvqds0","pricing_plan_id":"cebpf4jnsgd1na2vs0mg"},{"bike_id":"1ce85507-4c6d-46a4-8a00-0c77b288f505","system_id":"levelo_inurba_marseille","lat":43.28321,"lon":5.40903,"is_reserved":false,"is_disabled":false,"rental_uris":{"android":"levelo://app?vid=1ce85507-4c6d-46a4-8a00-0c77b288f505","ios":"levelo://app?vid=1ce85507-4c6d-46a4-8a00-0c77b288f505"},"vehicle_type_id":"4","last_reported":1731651409,"current_range_meters":36800,"station_id":"","pricing_plan_id":"cebpf4jnsgd1na2vs0mg"},{"bike_id":"7d220298-f41b-4493-a4e0-c3cbc70e9c56","system_id":"levelo_inurba_marseille","lat":43.29002,"lon":5.35616,"is_reserved":false,"is_disabled":false,"rental_uris":{"android":"levelo://app?vid=7d220298-f41b-4493-a4e0-c3cbc70e9c56","ios":"levelo://app?vid=7d220298-f41b-4493-a4e0-c3cbc70e9c56"},"vehicle_type_id":"4","last_reported":1731651409,"current_range_meters":38800,"station_id":"ce4bhb92rcd13ifvqen0","pricing_plan_id":"cebpf4jnsgd1na2vs0mg"},{"bike_id":"3f1eab25-bbd0-4519-b2ce-b4566d191542","system_id":"levelo_inurba_marseille","lat":43.25091,"lon":5.39513,"is_reserved":false,"is_disabled":false,"rental_uris":{"android":"levelo://app?vid=3f1eab25-bbd0-4519-b2ce-b4566d191542","ios":"levelo://app?vid=3f1eab25-bbd0-4519-b2ce-b4566d191542"},"vehicle_type_id":"4","last_reported":1731651409,"current_range_meters":37600,"station_id":"ce4bhm12rcd13ifvqgkg","pricing_plan_id":"cebpf4jnsgd1na2vs0mg"},{"bike_id":"0b23fed5-99b7-4e0f-a796-000a479e47f4","system_id":"levelo_inurba_marseille","lat":43.31176,"lon":5.38713,"is_reserved":false,"is_disabled":false,"rental_uris":{"android":"levelo://app?vid=0b23fed5-99b7-4e0f-a796-000a479e47f4","ios":"levelo://app?vid=0b23fed5-99b7-4e0f-a796-000a479e47f4"},"vehicle_type_id":"4","last_reported":1731651409,"current_range_meters":35200,"station_id":"ce4bgv12rcd13ifvqcp0","pricing_plan_id":"cebpf4jnsgd1na2vs0mg"},{"bike_id":"b15ad833-99dc-427d-b9bc-2e07a14741f6","system_id":"levelo_inurba_marseille","lat":43.25724,"lon":5.41114,"is_reserved":false,"is_disabled":false,"rental_uris":{"android":"levelo://app?vid=b15ad833-99dc-427d-b9bc-2e07a14741f6","ios":"levelo://app?vid=b15ad833-99dc-427d-b9bc-2e07a14741f6"},"vehicle_type_id":"4","last_reported":1731651409,"current_range_meters":9200,"station_id":"ce4bhkp2rcd13ifvqgd0","pricing_plan_id":"cebpf4jnsgd1na2vs0mg"},{"bike_id":"f7f95039-1142-457b-aa6f-cb8f8d404286","system_id":"levelo_inurba_marseille","lat":43.30311,"lon":5.36898,"is_reserved":false,"is_disabled":false,"rental_uris":{"android":"levelo://app?vid=f7f95039-1142-457b-aa6f-cb8f8d404286","ios":"levelo://app?vid=f7f95039-1142-457b-aa6f-cb8f8d404286"},"vehicle_type_id":"4","last_reported":1731651409,"current_range_meters":28800,"station_id":"ce4bgqh2rcd13ifvqc5g","pricing_plan_id":"cebpf4jnsgd1na2vs0mg"},{"bike_id":"e5bb307a-3df0-48bc-bf15-4b9a012fd2e4","system_id":"levelo_inurba_marseille","lat":43.25728,"lon":5.41105,"is_reserved":false,"is_disabled":false,"rental_uris":{"android":"levelo://app?vid=e5bb307a-3df0-48bc-bf15-4b9a012fd2e4","ios":"levelo://app?vid=e5bb307a-3df0-48bc-bf15-4b9a012fd2e4"},"vehicle_type_id":"4","last_reported":1731651409,"current_range_meters":36400,"station_id":"ce4bhkp2rcd13ifvqgd0","pricing_plan_id":"cebpf4jnsgd1na2vs0mg"},{"bike_id":"613c16f4-1824-419f-8317-e2406ec4d7b8","system_id":"levelo_inurba_marseille","lat":43.29631,"lon":5.40601,"is_reserved":false,"is_disabled":false,"rental_uris":{"android":"levelo://app?vid=613c16f4-1824-419f-8317-e2406ec4d7b8","ios":"levelo://app?vid=613c16f4-1824-419f-8317-e2406ec4d7b8"},"vehicle_type_id":"4","last_reported":1731651409,"current_range_meters":38800,"station_id":"ce4bh0h2rcd13ifvqd60","pricing_plan_id":"cebpf4jnsgd1na2vs0mg"},{"bike_id":"b8f91035-b021-405d-9e06-47c03ff95ddd","system_id":"levelo_inurba_marseille","lat":43.282743,"lon":5.350643,"is_reserved":false,"is_disabled":false,"rental_uris":{"android":"levelo://app?vid=b8f91035-b021-405d-9e06-47c03ff95ddd","ios":"levelo://app?vid=b8f91035-b021-405d-9e06-47c03ff95ddd"},"vehicle_type_id":"4","last_reported":1731651409,"current_range_meters":36800,"station_id":"ce4bhbp2rcd13ifvqerg","pricing_plan_id":"cebpf4jnsgd1na2vs0mg"},{"bike_id":"be971794-1572-4681-9ca6-8cf57f838954","system_id":"levelo_inurba_marseille","lat":43.28101,"lon":5.37849,"is_reserved":false,"is_disabled":false,"rental_uris":{"android":"levelo://app?vid=be971794-1572-4681-9ca6-8cf57f838954","ios":"levelo://app?vid=be971794-1572-4681-9ca6-8cf57f838954"},"vehicle_type_id":"4","last_reported":1731651409,"current_range_meters":24400,"station_id":"ce4bha12rcd13ifvqee0","pricing_plan_id":"cebpf4jnsgd1na2vs0mg"},{"bike_id":"56f5a57f-a613-4e55-bf8b-f1bd6d289526","system_id":"levelo_inurba_marseille","lat":43.31069,"lon":5.3835,"is_reserved":false,"is_disabled":false,"rental_uris":{"android":"levelo://app?vid=56f5a57f-a613-4e55-bf8b-f1bd6d289526","ios":"levelo://app?vid=56f5a57f-a613-4e55-bf8b-f1bd6d289526"},"vehicle_type_id":"4","last_reported":1731651409,"current_range_meters":30800,"station_id":"ce4bgv92rcd13ifvqcr0","pricing_plan_id":"cebpf4jnsgd1na2vs0mg"},{"bike_id":"c0baf966-c915-479a-936e-2ec6e745b907","system_id":"levelo_inurba_marseille","lat":43.30471,"lon":5.3791,"is_reserved":false,"is_disabled":false,"rental_uris":{"android":"levelo://app?vid=c0baf966-c915-479a-936e-2ec6e745b907","ios":"levelo://app?vid=c0baf966-c915-479a-936e-2ec6e745b907"},"vehicle_type_id":"4","last_reported":1731651409,"current_range_meters":19200,"station_id":"ce4bgup2rcd13ifvqcn0","pricing_plan_id":"cebpf4jnsgd1na2vs0mg"},{"bike_id":"12731917-d1c0-4083-bb25-35cc67dffea3","system_id":"levelo_inurba_marseille","lat":43.30418,"lon":5.41286,"is_reserved":false,"is_disabled":false,"rental_uris":{"android":"levelo://app?vid=12731917-d1c0-4083-bb25-35cc67dffea3","ios":"levelo://app?vid=12731917-d1c0-4083-bb25-35cc67dffea3"},"vehicle_type_id":"4","last_reported":1731651409,"current_range_meters":38800,"station_id":"ce4bhop2rcd13ifvqh8g","pricing_plan_id":"cebpf4jnsgd1na2vs0mg"},{"bike_id":"0b313868-c171-43f7-988c-0f2e18c0dd5e","system_id":"levelo_inurba_marseille","lat":43.22933,"lon":5.35379,"is_reserved":false,"is_disabled":false,"rental_uris":{"android":"levelo://app?vid=0b313868-c171-43f7-988c-0f2e18c0dd5e","ios":"levelo://app?vid=0b313868-c171-43f7-988c-0f2e18c0dd5e"},"vehicle_type_id":"4","last_reported":1731651409,"current_range_meters":37600,"station_id":"cpo3532slgdg3j2ikp40","pricing_plan_id":"cebpf4jnsgd1na2vs0mg"},{"bike_id":"898343a1-2642-491c-a1ab-47e0e0534d2f","system_id":"levelo_inurba_marseille","lat":43.3361,"lon":5.41039,"is_reserved":false,"is_disabled":false,"rental_uris":{"android":"levelo://app?vid=898343a1-2642-491c-a1ab-47e0e0534d2f","ios":"levelo://app?vid=898343a1-2642-491c-a1ab-47e0e0534d2f"},"vehicle_type_id":"4","last_reported":1731651409,"current_range_meters":12000,"station_id":"ce4bhqh2rcd13ifvqhmg","pricing_plan_id":"cebpf4jnsgd1na2vs0mg"},{"bike_id":"e9e0e692-4d4c-4b76-98a0-03070dcc3dda","system_id":"levelo_inurba_marseille","lat":43.311859,"lon":5.377117,"is_reserved":false,"is_disabled":false,"rental_uris":{"android":"levelo://app?vid=e9e0e692-4d4c-4b76-98a0-03070dcc3dda","ios":"levelo://app?vid=e9e0e692-4d4c-4b76-98a0-03070dcc3dda"},"vehicle_type_id":"4","last_reported":1731651409,"current_range_meters":36400,"station_id":"ce4bgr92rcd13ifvqc6g","pricing_plan_id":"cebpf4jnsgd1na2vs0mg"},{"bike_id":"7d2acd7b-40b2-430a-8360-5af1c25c3717","system_id":"levelo_inurba_marseille","lat":43.26808,"lon":5.402661,"is_reserved":false,"is_disabled":false,"rental_uris":{"android":"levelo://app?vid=7d2acd7b-40b2-430a-8360-5af1c25c3717","ios":"levelo://app?vid=7d2acd7b-40b2-430a-8360-5af1c25c3717"},"vehicle_type_id":"4","last_reported":1731651409,"current_range_meters":38000,"station_id":"ce501612rcd8frsf0b60","pricing_plan_id":"cebpf4jnsgd1na2vs0mg"},{"bike_id":"443a10aa-b3ee-4084-a763-3dcf6407cc16","system_id":"levelo_inurba_marseille","lat":43.30928,"lon":5.40146,"is_reserved":false,"is_disabled":false,"rental_uris":{"android":"levelo://app?vid=443a10aa-b3ee-4084-a763-3dcf6407cc16","ios":"levelo://app?vid=443a10aa-b3ee-4084-a763-3dcf6407cc16"},"vehicle_type_id":"4","last_reported":1731651409,"current_range_meters":32000,"station_id":"ce4bgvp2rcd13ifvqct0","pricing_plan_id":"cebpf4jnsgd1na2vs0mg"},{"bike_id":"0640b632-6876-4227-9267-eb35ea8d7191","system_id":"levelo_inurba_marseille","lat":43.28458,"lon":5.35891,"is_reserved":false,"is_disabled":false,"rental_uris":{"android":"levelo://app?vid=0640b632-6876-4227-9267-eb35ea8d7191","ios":"levelo://app?vid=0640b632-6876-4227-9267-eb35ea8d7191"},"vehicle_type_id":"4","last_reported":1731651409,"current_range_meters":39200,"station_id":"ce4bhah2rcd13ifvqei0","pricing_plan_id":"cebpf4jnsgd1na2vs0mg"},{"bike_id":"5bd3ef85-798d-4160-9c90-ce69105aff3a","system_id":"levelo_inurba_marseille","lat":43.24393,"lon":5.37055,"is_reserved":false,"is_disabled":false,"rental_uris":{"android":"levelo://app?vid=5bd3ef85-798d-4160-9c90-ce69105aff3a","ios":"levelo://app?vid=5bd3ef85-798d-4160-9c90-ce69105aff3a"},"vehicle_type_id":"4","last_reported":1731651409,"current_range_meters":38800,"station_id":"ce4bhhh2rcd13ifvqfk0","pricing_plan_id":"cebpf4jnsgd1na2vs0mg"},{"bike_id":"83d0c08b-53e5-4e1d-aa28-dd3ec259f354","system_id":"levelo_inurba_marseille","lat":43.28099,"lon":5.42228,"is_reserved":false,"is_disabled":false,"rental_uris":{"android":"levelo://app?vid=83d0c08b-53e5-4e1d-aa28-dd3ec259f354","ios":"levelo://app?vid=83d0c08b-53e5-4e1d-aa28-dd3ec259f354"},"vehicle_type_id":"4","last_reported":1731651409,"current_range_meters":9600,"station_id":"","pricing_plan_id":"cebpf4jnsgd1na2vs0mg"},{"bike_id":"ee26f58e-b8c7-4191-bda2-353090292f42","system_id":"levelo_inurba_marseille","lat":43.31169,"lon":5.38719,"is_reserved":false,"is_disabled":false,"rental_uris":{"android":"levelo://app?vid=ee26f58e-b8c7-4191-bda2-353090292f42","ios":"levelo://app?vid=ee26f58e-b8c7-4191-bda2-353090292f42"},"vehicle_type_id":"4","last_reported":1731651409,"current_range_meters":6800,"station_id":"ce4bgv12rcd13ifvqcp0","pricing_plan_id":"cebpf4jnsgd1na2vs0mg"},{"bike_id":"4014045f-fe4f-46d0-ad63-84058c1bf276","system_id":"levelo_inurba_marseille","lat":43.26685,"lon":5.38269,"is_reserved":false,"is_disabled":false,"rental_uris":{"android":"levelo://app?vid=4014045f-fe4f-46d0-ad63-84058c1bf276","ios":"levelo://app?vid=4014045f-fe4f-46d0-ad63-84058c1bf276"},"vehicle_type_id":"4","last_reported":1731651409,"current_range_meters":38400,"station_id":"ce4bhg92rcd13ifvqf90","pricing_plan_id":"cebpf4jnsgd1na2vs0mg"},{"bike_id":"92e3ad17-17c9-4714-a148-ef9436ad6113","system_id":"levelo_inurba_marseille","lat":43.22932,"lon":5.35386,"is_reserved":false,"is_disabled":false,"rental_uris":{"android":"levelo://app?vid=92e3ad17-17c9-4714-a148-ef9436ad6113","ios":"levelo://app?vid=92e3ad17-17c9-4714-a148-ef9436ad6113"},"vehicle_type_id":"4","last_reported":1731651409,"current_range_meters":38800,"station_id":"cpo3532slgdg3j2ikp40","pricing_plan_id":"cebpf4jnsgd1na2vs0mg"},{"bike_id":"312cd973-a1d6-4033-978d-469d60effb94","system_id":"levelo_inurba_marseille","lat":43.29557,"lon":5.42284,"is_reserved":false,"is_disabled":false,"rental_uris":{"android":"levelo://app?vid=312cd973-a1d6-4033-978d-469d60effb94","ios":"levelo://app?vid=312cd973-a1d6-4033-978d-469d60effb94"},"vehicle_type_id":"4","last_reported":1731651409,"current_range_meters":38000,"station_id":"ce4bhph2rcd13ifvqhdg","pricing_plan_id":"cebpf4jnsgd1na2vs0mg"},{"bike_id":"094cc33d-da3c-49ab-bc5f-c983906b9f18","system_id":"levelo_inurba_marseille","lat":43.23184,"lon":5.39982,"is_reserved":false,"is_disabled":false,"rental_uris":{"android":"levelo://app?vid=094cc33d-da3c-49ab-bc5f-c983906b9f18","ios":"levelo://app?vid=094cc33d-da3c-49ab-bc5f-c983906b9f18"},"vehicle_type_id":"4","last_reported":1731651409,"current_range_meters":10800,"station_id":"ce4bhn12rcd13ifvqgqg","pricing_plan_id":"cebpf4jnsgd1na2vs0mg"},{"bike_id":"5326c5f8-bba7-40e6-bfc7-8e986a3bddf3","system_id":"levelo_inurba_marseille","lat":43.31904,"lon":5.38237,"is_reserved":false,"is_disabled":false,"rental_uris":{"android":"levelo://app?vid=5326c5f8-bba7-40e6-bfc7-8e986a3bddf3","ios":"levelo://app?vid=5326c5f8-bba7-40e6-bfc7-8e986a3bddf3"},"vehicle_type_id":"4","last_reported":1731651409,"current_range_meters":22800,"station_id":"ce4bhr12rcd13ifvqhqg","pricing_plan_id":"cebpf4jnsgd1na2vs0mg"},{"bike_id":"bd04527e-b885-4f79-b93b-0d229327e277","system_id":"levelo_inurba_marseille","lat":43.31076,"lon":5.38348,"is_reserved":false,"is_disabled":false,"rental_uris":{"android":"levelo://app?vid=bd04527e-b885-4f79-b93b-0d229327e277","ios":"levelo://app?vid=bd04527e-b885-4f79-b93b-0d229327e277"},"vehicle_type_id":"4","last_reported":1731651409,"current_range_meters":28800,"station_id":"ce4bgv92rcd13ifvqcr0","pricing_plan_id":"cebpf4jnsgd1na2vs0mg"},{"bike_id":"82f309e6-c4ae-421f-89cb-1d64a8e0ef10","system_id":"levelo_inurba_marseille","lat":43.337444,"lon":5.374475,"is_reserved":false,"is_disabled":false,"rental_uris":{"android":"levelo://app?vid=82f309e6-c4ae-421f-89cb-1d64a8e0ef10","ios":"levelo://app?vid=82f309e6-c4ae-421f-89cb-1d64a8e0ef10"},"vehicle_type_id":"4","last_reported":1731651409,"current_range_meters":29600,"station_id":"","pricing_plan_id":"cebpf4jnsgd1na2vs0mg"},{"bike_id":"ad998524-5cea-4355-99d8-50f015aa8ae5","system_id":"levelo_inurba_marseille","lat":43.31279,"lon":5.40172,"is_reserved":false,"is_disabled":false,"rental_uris":{"android":"levelo://app?vid=ad998524-5cea-4355-99d8-50f015aa8ae5","ios":"levelo://app?vid=ad998524-5cea-4355-99d8-50f015aa8ae5"},"vehicle_type_id":"4","last_reported":1731651409,"current_range_meters":25200,"station_id":"ce4bh092rcd13ifvqd30","pricing_plan_id":"cebpf4jnsgd1na2vs0mg"},{"bike_id":"ceab052d-e8bf-48cb-8e46-2cba85cc785c","system_id":"levelo_inurba_marseille","lat":43.28083,"lon":5.39654,"is_reserved":false,"is_disabled":false,"rental_uris":{"android":"levelo://app?vid=ceab052d-e8bf-48cb-8e46-2cba85cc785c","ios":"levelo://app?vid=ceab052d-e8bf-48cb-8e46-2cba85cc785c"},"vehicle_type_id":"4","last_reported":1731651409,"current_range_meters":26000,"station_id":"ce4bho12rcd13ifvqh2g","pricing_plan_id":"cebpf4jnsgd1na2vs0mg"},{"bike_id":"31bf78df-9640-4b42-9ce9-50ee9c1e825b","system_id":"levelo_inurba_marseille","lat":43.30663,"lon":5.4009,"is_reserved":false,"is_disabled":false,"rental_uris":{"android":"levelo://app?vid=31bf78df-9640-4b42-9ce9-50ee9c1e825b","ios":"levelo://app?vid=31bf78df-9640-4b42-9ce9-50ee9c1e825b"},"vehicle_type_id":"4","last_reported":1731651409,"current_range_meters":36400,"station_id":"ce4bh112rcd13ifvqda0","pricing_plan_id":"cebpf4jnsgd1na2vs0mg"},{"bike_id":"3798d6cd-bfdb-48b5-9973-ac3e45e98d8a","system_id":"levelo_inurba_marseille","lat":43.27069,"lon":5.42276,"is_reserved":false,"is_disabled":false,"rental_uris":{"android":"levelo://app?vid=3798d6cd-bfdb-48b5-9973-ac3e45e98d8a","ios":"levelo://app?vid=3798d6cd-bfdb-48b5-9973-ac3e45e98d8a"},"vehicle_type_id":"4","last_reported":1731651409,"current_range_meters":38000,"station_id":"ce4bhk92rcd13ifvqgb0","pricing_plan_id":"cebpf4jnsgd1na2vs0mg"},{"bike_id":"feca3b77-9b16-4f1f-8742-27d5e1074087","system_id":"levelo_inurba_marseille","lat":43.26558,"lon":5.39002,"is_reserved":false,"is_disabled":false,"rental_uris":{"android":"levelo://app?vid=feca3b77-9b16-4f1f-8742-27d5e1074087","ios":"levelo://app?vid=feca3b77-9b16-4f1f-8742-27d5e1074087"},"vehicle_type_id":"4","last_reported":1731651409,"current_range_meters":36800,"station_id":"ce4bhe12rcd13ifvqf30","pricing_plan_id":"cebpf4jnsgd1na2vs0mg"},{"bike_id":"31139bd4-9c6d-4100-a744-c1d0ce199198","system_id":"levelo_inurba_marseille","lat":43.31176,"lon":5.38716,"is_reserved":false,"is_disabled":false,"rental_uris":{"android":"levelo://app?vid=31139bd4-9c6d-4100-a744-c1d0ce199198","ios":"levelo://app?vid=31139bd4-9c6d-4100-a744-c1d0ce199198"},"vehicle_type_id":"4","last_reported":1731651409,"current_range_meters":38800,"station_id":"ce4bgv12rcd13ifvqcp0","pricing_plan_id":"cebpf4jnsgd1na2vs0mg"},{"bike_id":"c92ba6c3-cfad-4e72-bbc2-f532d28c58c1","system_id":"levelo_inurba_marseille","lat":43.30136,"lon":5.38087,"is_reserved":false,"is_disabled":false,"rental_uris":{"android":"levelo://app?vid=c92ba6c3-cfad-4e72-bbc2-f532d28c58c1","ios":"levelo://app?vid=c92ba6c3-cfad-4e72-bbc2-f532d28c58c1"},"vehicle_type_id":"4","last_reported":1731651409,"current_range_meters":38000,"station_id":"ce4bgjp2rcd13ifvqbh0","pricing_plan_id":"cebpf4jnsgd1na2vs0mg"},{"bike_id":"85c5aade-4211-4f4d-bb5f-b16ff3eb1ce0","system_id":"levelo_inurba_marseille","lat":43.30298,"lon":5.39222,"is_reserved":false,"is_disabled":false,"rental_uris":{"android":"levelo://app?vid=85c5aade-4211-4f4d-bb5f-b16ff3eb1ce0","ios":"levelo://app?vid=85c5aade-4211-4f4d-bb5f-b16ff3eb1ce0"},"vehicle_type_id":"4","last_reported":1731651409,"current_range_meters":37600,"station_id":"ce4bgkh2rcd13ifvqbk0","pricing_plan_id":"cebpf4jnsgd1na2vs0mg"},{"bike_id":"e9831758-7fbb-4bb8-92fd-5b32e1ae3ab6","system_id":"levelo_inurba_marseille","lat":43.330273,"lon":5.390469,"is_reserved":false,"is_disabled":false,"rental_uris":{"android":"levelo://app?vid=e9831758-7fbb-4bb8-92fd-5b32e1ae3ab6","ios":"levelo://app?vid=e9831758-7fbb-4bb8-92fd-5b32e1ae3ab6"},"vehicle_type_id":"4","last_reported":1731651409,"current_range_meters":28000,"station_id":"ce4bhr92rcd13ifvqhrg","pricing_plan_id":"cebpf4jnsgd1na2vs0mg"},{"bike_id":"8781d0fe-a968-4075-9453-c800ea4b95d6","system_id":"levelo_inurba_marseille","lat":43.30326,"lon":5.40443,"is_reserved":false,"is_disabled":false,"rental_uris":{"android":"levelo://app?vid=8781d0fe-a968-4075-9453-c800ea4b95d6","ios":"levelo://app?vid=8781d0fe-a968-4075-9453-c800ea4b95d6"},"vehicle_type_id":"4","last_reported":1731651409,"current_range_meters":34000,"station_id":"ce4bh012rcd13ifvqd10","pricing_plan_id":"cebpf4jnsgd1na2vs0mg"},{"bike_id":"10ee9802-65e2-4054-b483-c12260fae2e6","system_id":"levelo_inurba_marseille","lat":43.26948,"lon":5.38646,"is_reserved":false,"is_disabled":false,"rental_uris":{"android":"levelo://app?vid=10ee9802-65e2-4054-b483-c12260fae2e6","ios":"levelo://app?vid=10ee9802-65e2-4054-b483-c12260fae2e6"},"vehicle_type_id":"4","last_reported":1731651409,"current_range_meters":34000,"station_id":"ce4bhh92rcd13ifvqfh0","pricing_plan_id":"cebpf4jnsgd1na2vs0mg"},{"bike_id":"d4357b6e-382d-42fb-a863-ff7fd5649955","system_id":"levelo_inurba_marseille","lat":43.24999,"lon":5.38928,"is_reserved":false,"is_disabled":false,"rental_uris":{"android":"levelo://app?vid=d4357b6e-382d-42fb-a863-ff7fd5649955","ios":"levelo://app?vid=d4357b6e-382d-42fb-a863-ff7fd5649955"},"vehicle_type_id":"4","last_reported":1731651409,"current_range_meters":38400,"station_id":"ce4bhgp2rcd13ifvqfd0","pricing_plan_id":"cebpf4jnsgd1na2vs0mg"},{"bike_id":"b0651c55-4a75-4286-abc3-36735f80d0fd","system_id":"levelo_inurba_marseille","lat":43.27184,"lon":5.40986,"is_reserved":false,"is_disabled":false,"rental_uris":{"android":"levelo://app?vid=b0651c55-4a75-4286-abc3-36735f80d0fd","ios":"levelo://app?vid=b0651c55-4a75-4286-abc3-36735f80d0fd"},"vehicle_type_id":"4","last_reported":1731651409,"current_range_meters":38400,"station_id":"ce4bhl12rcd13ifvqgf0","pricing_plan_id":"cebpf4jnsgd1na2vs0mg"},{"bike_id":"7f6746c7-68cf-4c77-b03b-d21cc90e6f13","system_id":"levelo_inurba_marseille","lat":43.270675,"lon":5.422795,"is_reserved":false,"is_disabled":false,"rental_uris":{"android":"levelo://app?vid=7f6746c7-68cf-4c77-b03b-d21cc90e6f13","ios":"levelo://app?vid=7f6746c7-68cf-4c77-b03b-d21cc90e6f13"},"vehicle_type_id":"4","last_reported":1731651409,"current_range_meters":38000,"station_id":"ce4bhk92rcd13ifvqgb0","pricing_plan_id":"cebpf4jnsgd1na2vs0mg"},{"bike_id":"da29062c-3d72-404e-8948-b52b3fdb0a72","system_id":"levelo_inurba_marseille","lat":43.28455,"lon":5.3588,"is_reserved":false,"is_disabled":false,"rental_uris":{"android":"levelo://app?vid=da29062c-3d72-404e-8948-b52b3fdb0a72","ios":"levelo://app?vid=da29062c-3d72-404e-8948-b52b3fdb0a72"},"vehicle_type_id":"4","last_reported":1731651409,"current_range_meters":24800,"station_id":"ce4bhah2rcd13ifvqei0","pricing_plan_id":"cebpf4jnsgd1na2vs0mg"},{"bike_id":"caeccd2a-3064-45bc-a2bc-36bb5c1f045d","system_id":"levelo_inurba_marseille","lat":43.27069,"lon":5.42281,"is_reserved":false,"is_disabled":false,"rental_uris":{"android":"levelo://app?vid=caeccd2a-3064-45bc-a2bc-36bb5c1f045d","ios":"levelo://app?vid=caeccd2a-3064-45bc-a2bc-36bb5c1f045d"},"vehicle_type_id":"4","last_reported":1731651409,"current_range_meters":32000,"station_id":"ce4bhk92rcd13ifvqgb0","pricing_plan_id":"cebpf4jnsgd1na2vs0mg"},{"bike_id":"54b6f214-c1b1-4cdc-88fd-c4f6b3a9e286","system_id":"levelo_inurba_marseille","lat":43.27186,"lon":5.40989,"is_reserved":false,"is_disabled":false,"rental_uris":{"android":"levelo://app?vid=54b6f214-c1b1-4cdc-88fd-c4f6b3a9e286","ios":"levelo://app?vid=54b6f214-c1b1-4cdc-88fd-c4f6b3a9e286"},"vehicle_type_id":"4","last_reported":1731651409,"current_range_meters":34800,"station_id":"ce4bhl12rcd13ifvqgf0","pricing_plan_id":"cebpf4jnsgd1na2vs0mg"},{"bike_id":"7eda8e5f-367f-4f3c-944c-a5365b30f0c9","system_id":"levelo_inurba_marseille","lat":43.31531,"lon":5.38027,"is_reserved":false,"is_disabled":false,"rental_uris":{"android":"levelo://app?vid=7eda8e5f-367f-4f3c-944c-a5365b30f0c9","ios":"levelo://app?vid=7eda8e5f-367f-4f3c-944c-a5365b30f0c9"},"vehicle_type_id":"4","last_reported":1731651409,"current_range_meters":37600,"station_id":"ce4bhsp2rcd13ifvqi50","pricing_plan_id":"cebpf4jnsgd1na2vs0mg"},{"bike_id":"3f586522-ff42-4db7-92ee-b7fa108fd2a9","system_id":"levelo_inurba_marseille","lat":43.31167,"lon":5.38706,"is_reserved":false,"is_disabled":false,"rental_uris":{"android":"levelo://app?vid=3f586522-ff42-4db7-92ee-b7fa108fd2a9","ios":"levelo://app?vid=3f586522-ff42-4db7-92ee-b7fa108fd2a9"},"vehicle_type_id":"4","last_reported":1731651409,"current_range_meters":30400,"station_id":"ce4bgv12rcd13ifvqcp0","pricing_plan_id":"cebpf4jnsgd1na2vs0mg"},{"bike_id":"add6469e-6694-4a2e-bfcd-ec1f32bc46a7","system_id":"levelo_inurba_marseille","lat":43.246502,"lon":5.38902,"is_reserved":false,"is_disabled":false,"rental_uris":{"android":"levelo://app?vid=add6469e-6694-4a2e-bfcd-ec1f32bc46a7","ios":"levelo://app?vid=add6469e-6694-4a2e-bfcd-ec1f32bc46a7"},"vehicle_type_id":"4","last_reported":1731651409,"current_range_meters":38800,"station_id":"ce4bhg12rcd13ifvqf60","pricing_plan_id":"cebpf4jnsgd1na2vs0mg"},{"bike_id":"e6ad9383-9b86-4091-bd19-09c09422cf32","system_id":"levelo_inurba_marseille","lat":43.30469,"lon":5.379,"is_reserved":false,"is_disabled":false,"rental_uris":{"android":"levelo://app?vid=e6ad9383-9b86-4091-bd19-09c09422cf32","ios":"levelo://app?vid=e6ad9383-9b86-4091-bd19-09c09422cf32"},"vehicle_type_id":"4","last_reported":1731651409,"current_range_meters":36400,"station_id":"ce4bgup2rcd13ifvqcn0","pricing_plan_id":"cebpf4jnsgd1na2vs0mg"},{"bike_id":"6dcbb2ce-c695-4325-893f-7eb3313c10e8","system_id":"levelo_inurba_marseille","lat":43.28101,"lon":5.37844,"is_reserved":false,"is_disabled":false,"rental_uris":{"android":"levelo://app?vid=6dcbb2ce-c695-4325-893f-7eb3313c10e8","ios":"levelo://app?vid=6dcbb2ce-c695-4325-893f-7eb3313c10e8"},"vehicle_type_id":"4","last_reported":1731651409,"current_range_meters":38400,"station_id":"ce4bha12rcd13ifvqee0","pricing_plan_id":"cebpf4jnsgd1na2vs0mg"},{"bike_id":"7d12dc8c-a659-4a64-a14b-6a9bb6868c73","system_id":"levelo_inurba_marseille","lat":43.28438,"lon":5.39193,"is_reserved":false,"is_disabled":false,"rental_uris":{"android":"levelo://app?vid=7d12dc8c-a659-4a64-a14b-6a9bb6868c73","ios":"levelo://app?vid=7d12dc8c-a659-4a64-a14b-6a9bb6868c73"},"vehicle_type_id":"4","last_reported":1731651409,"current_range_meters":38800,"station_id":"ce4bhoh2rcd13ifvqh5g","pricing_plan_id":"cebpf4jnsgd1na2vs0mg"},{"bike_id":"834fc017-8dd7-4f68-a47b-9f77ecb78fbd","system_id":"levelo_inurba_marseille","lat":43.27987,"lon":5.41662,"is_reserved":false,"is_disabled":false,"rental_uris":{"android":"levelo://app?vid=834fc017-8dd7-4f68-a47b-9f77ecb78fbd","ios":"levelo://app?vid=834fc017-8dd7-4f68-a47b-9f77ecb78fbd"},"vehicle_type_id":"4","last_reported":1731651409,"current_range_meters":6400,"station_id":"ce4bho12rcd13ifvqh1g","pricing_plan_id":"cebpf4jnsgd1na2vs0mg"},{"bike_id":"a32f3da8-cd3b-447c-b91d-1764310a8577","system_id":"levelo_inurba_marseille","lat":43.30803,"lon":5.38155,"is_reserved":false,"is_disabled":false,"rental_uris":{"android":"levelo://app?vid=a32f3da8-cd3b-447c-b91d-1764310a8577","ios":"levelo://app?vid=a32f3da8-cd3b-447c-b91d-1764310a8577"},"vehicle_type_id":"4","last_reported":1731651409,"current_range_meters":38800,"station_id":"ce4bgt12rcd13ifvqce0","pricing_plan_id":"cebpf4jnsgd1na2vs0mg"},{"bike_id":"468aec06-b334-4719-8875-db58ed6bb579","system_id":"levelo_inurba_marseille","lat":43.28703,"lon":5.39983,"is_reserved":false,"is_disabled":false,"rental_uris":{"android":"levelo://app?vid=468aec06-b334-4719-8875-db58ed6bb579","ios":"levelo://app?vid=468aec06-b334-4719-8875-db58ed6bb579"},"vehicle_type_id":"4","last_reported":1731651409,"current_range_meters":8800,"station_id":"ce4bho92rcd13ifvqh3g","pricing_plan_id":"cebpf4jnsgd1na2vs0mg"},{"bike_id":"51704817-2877-45ea-ad31-d3fdee0f0146","system_id":"levelo_inurba_marseille","lat":43.27951,"lon":5.4105,"is_reserved":false,"is_disabled":false,"rental_uris":{"android":"levelo://app?vid=51704817-2877-45ea-ad31-d3fdee0f0146","ios":"levelo://app?vid=51704817-2877-45ea-ad31-d3fdee0f0146"},"vehicle_type_id":"4","last_reported":1731651409,"current_range_meters":16000,"station_id":"ce4bhnp2rcd13ifvqh0g","pricing_plan_id":"cebpf4jnsgd1na2vs0mg"},{"bike_id":"b47cb991-57c8-4ef2-ba6f-88a50e1a1219","system_id":"levelo_inurba_marseille","lat":43.22926,"lon":5.35382,"is_reserved":false,"is_disabled":false,"rental_uris":{"android":"levelo://app?vid=b47cb991-57c8-4ef2-ba6f-88a50e1a1219","ios":"levelo://app?vid=b47cb991-57c8-4ef2-ba6f-88a50e1a1219"},"vehicle_type_id":"4","last_reported":1731651409,"current_range_meters":38000,"station_id":"cpo3532slgdg3j2ikp40","pricing_plan_id":"cebpf4jnsgd1na2vs0mg"},{"bike_id":"88a375c0-c2cf-457b-bf04-08702385fd77","system_id":"levelo_inurba_marseille","lat":43.27899,"lon":5.38016,"is_reserved":false,"is_disabled":false,"rental_uris":{"android":"levelo://app?vid=88a375c0-c2cf-457b-bf04-08702385fd77","ios":"levelo://app?vid=88a375c0-c2cf-457b-bf04-08702385fd77"},"vehicle_type_id":"4","last_reported":1731651409,"current_range_meters":8800,"station_id":"ce4bhf92rcd13ifvqf50","pricing_plan_id":"cebpf4jnsgd1na2vs0mg"},{"bike_id":"58b80146-6940-479a-a5e0-170bae3adb1d","system_id":"levelo_inurba_marseille","lat":43.30152,"lon":5.38074,"is_reserved":false,"is_disabled":false,"rental_uris":{"android":"levelo://app?vid=58b80146-6940-479a-a5e0-170bae3adb1d","ios":"levelo://app?vid=58b80146-6940-479a-a5e0-170bae3adb1d"},"vehicle_type_id":"4","last_reported":1731651409,"current_range_meters":35600,"station_id":"ce4bgjp2rcd13ifvqbh0","pricing_plan_id":"cebpf4jnsgd1na2vs0mg"},{"bike_id":"1edee465-0655-4469-bddc-77d889918a3d","system_id":"levelo_inurba_marseille","lat":43.28023,"lon":5.36966,"is_reserved":false,"is_disabled":false,"rental_uris":{"android":"levelo://app?vid=1edee465-0655-4469-bddc-77d889918a3d","ios":"levelo://app?vid=1edee465-0655-4469-bddc-77d889918a3d"},"vehicle_type_id":"4","last_reported":1731651409,"current_range_meters":37600,"station_id":"ce4bha12rcd13ifvqef0","pricing_plan_id":"cebpf4jnsgd1na2vs0mg"},{"bike_id":"1d36ec1c-d89d-4bb1-8e0d-ff1c762508b7","system_id":"levelo_inurba_marseille","lat":43.22928,"lon":5.35375,"is_reserved":false,"is_disabled":false,"rental_uris":{"android":"levelo://app?vid=1d36ec1c-d89d-4bb1-8e0d-ff1c762508b7","ios":"levelo://app?vid=1d36ec1c-d89d-4bb1-8e0d-ff1c762508b7"},"vehicle_type_id":"4","last_reported":1731651409,"current_range_meters":10800,"station_id":"cpo3532slgdg3j2ikp40","pricing_plan_id":"cebpf4jnsgd1na2vs0mg"},{"bike_id":"a22adc0e-b747-43b4-a342-21b59614973b","system_id":"levelo_inurba_marseille","lat":43.31493,"lon":5.373,"is_reserved":false,"is_disabled":false,"rental_uris":{"android":"levelo://app?vid=a22adc0e-b747-43b4-a342-21b59614973b","ios":"levelo://app?vid=a22adc0e-b747-43b4-a342-21b59614973b"},"vehicle_type_id":"4","last_reported":1731651409,"current_range_meters":14000,"station_id":"ce4bgt12rcd13ifvqcd0","pricing_plan_id":"cebpf4jnsgd1na2vs0mg"},{"bike_id":"96982182-a7c7-450e-8433-0ac9d985aed2","system_id":"levelo_inurba_marseille","lat":43.33725,"lon":5.39181,"is_reserved":false,"is_disabled":false,"rental_uris":{"android":"levelo://app?vid=96982182-a7c7-450e-8433-0ac9d985aed2","ios":"levelo://app?vid=96982182-a7c7-450e-8433-0ac9d985aed2"},"vehicle_type_id":"4","last_reported":1731651409,"current_range_meters":38800,"station_id":"ce4bhr92rcd13ifvqhsg","pricing_plan_id":"cebpf4jnsgd1na2vs0mg"},{"bike_id":"37212eb8-cfa6-47ba-9ed7-bfed51287466","system_id":"levelo_inurba_marseille","lat":43.31478,"lon":5.37375,"is_reserved":false,"is_disabled":false,"rental_uris":{"android":"levelo://app?vid=37212eb8-cfa6-47ba-9ed7-bfed51287466","ios":"levelo://app?vid=37212eb8-cfa6-47ba-9ed7-bfed51287466"},"vehicle_type_id":"4","last_reported":1731651409,"current_range_meters":36800,"station_id":"","pricing_plan_id":"cebpf4jnsgd1na2vs0mg"},{"bike_id":"0a7a7ac5-f54c-44af-a6b9-bff324764339","system_id":"levelo_inurba_marseille","lat":43.2306,"lon":5.35503,"is_reserved":false,"is_disabled":false,"rental_uris":{"android":"levelo://app?vid=0a7a7ac5-f54c-44af-a6b9-bff324764339","ios":"levelo://app?vid=0a7a7ac5-f54c-44af-a6b9-bff324764339"},"vehicle_type_id":"4","last_reported":1731651409,"current_range_meters":16400,"station_id":"cpo3342slgdg3j2ifvpg","pricing_plan_id":"cebpf4jnsgd1na2vs0mg"},{"bike_id":"a1cdc542-bfc7-4899-9725-e3a5494c0599","system_id":"levelo_inurba_marseille","lat":43.25107,"lon":5.40323,"is_reserved":false,"is_disabled":false,"rental_uris":{"android":"levelo://app?vid=a1cdc542-bfc7-4899-9725-e3a5494c0599","ios":"levelo://app?vid=a1cdc542-bfc7-4899-9725-e3a5494c0599"},"vehicle_type_id":"4","last_reported":1731651409,"current_range_meters":16800,"station_id":"ce4bhlh2rcd13ifvqgig","pricing_plan_id":"cebpf4jnsgd1na2vs0mg"},{"bike_id":"bef7ca68-0ccd-456c-a245-4471193ed987","system_id":"levelo_inurba_marseille","lat":43.26053,"lon":5.394,"is_reserved":false,"is_disabled":false,"rental_uris":{"android":"levelo://app?vid=bef7ca68-0ccd-456c-a245-4471193ed987","ios":"levelo://app?vid=bef7ca68-0ccd-456c-a245-4471193ed987"},"vehicle_type_id":"4","last_reported":1731651409,"current_range_meters":38000,"station_id":"ce4bhh92rcd13ifvqfj0","pricing_plan_id":"cebpf4jnsgd1na2vs0mg"},{"bike_id":"8897a496-04b5-4b30-a869-f03059793a2c","system_id":"levelo_inurba_marseille","lat":43.30357,"lon":5.41873,"is_reserved":false,"is_disabled":false,"rental_uris":{"android":"levelo://app?vid=8897a496-04b5-4b30-a869-f03059793a2c","ios":"levelo://app?vid=8897a496-04b5-4b30-a869-f03059793a2c"},"vehicle_type_id":"4","last_reported":1731651409,"current_range_meters":38000,"station_id":"ce4bhop2rcd13ifvqh7g","pricing_plan_id":"cebpf4jnsgd1na2vs0mg"},{"bike_id":"d13fcb32-d8e6-477f-be3d-4bc64066cf1b","system_id":"levelo_inurba_marseille","lat":43.284588,"lon":5.358863,"is_reserved":false,"is_disabled":false,"rental_uris":{"android":"levelo://app?vid=d13fcb32-d8e6-477f-be3d-4bc64066cf1b","ios":"levelo://app?vid=d13fcb32-d8e6-477f-be3d-4bc64066cf1b"},"vehicle_type_id":"4","last_reported":1731651409,"current_range_meters":36800,"station_id":"ce4bhah2rcd13ifvqei0","pricing_plan_id":"cebpf4jnsgd1na2vs0mg"},{"bike_id":"ad3689c7-f80e-4e87-bb45-8b7a3995a15c","system_id":"levelo_inurba_marseille","lat":43.2904,"lon":5.35921,"is_reserved":false,"is_disabled":false,"rental_uris":{"android":"levelo://app?vid=ad3689c7-f80e-4e87-bb45-8b7a3995a15c","ios":"levelo://app?vid=ad3689c7-f80e-4e87-bb45-8b7a3995a15c"},"vehicle_type_id":"4","last_reported":1731651409,"current_range_meters":14000,"station_id":"ce4bha92rcd13ifvqeg0","pricing_plan_id":"cebpf4jnsgd1na2vs0mg"},{"bike_id":"a9d2fc76-c8a7-48fd-9084-8d111a89867b","system_id":"levelo_inurba_marseille","lat":43.306422,"lon":5.400758,"is_reserved":false,"is_disabled":false,"rental_uris":{"android":"levelo://app?vid=a9d2fc76-c8a7-48fd-9084-8d111a89867b","ios":"levelo://app?vid=a9d2fc76-c8a7-48fd-9084-8d111a89867b"},"vehicle_type_id":"4","last_reported":1731651409,"current_range_meters":26800,"station_id":"ce4bh112rcd13ifvqda0","pricing_plan_id":"cebpf4jnsgd1na2vs0mg"},{"bike_id":"206137e3-505f-4c07-8db9-b4dea21fdc42","system_id":"levelo_inurba_marseille","lat":43.28655,"lon":5.36355,"is_reserved":false,"is_disabled":false,"rental_uris":{"android":"levelo://app?vid=206137e3-505f-4c07-8db9-b4dea21fdc42","ios":"levelo://app?vid=206137e3-505f-4c07-8db9-b4dea21fdc42"},"vehicle_type_id":"4","last_reported":1731651409,"current_range_meters":3200,"station_id":"ce4bhah2rcd13ifvqej0","pricing_plan_id":"cebpf4jnsgd1na2vs0mg"},{"bike_id":"366cfb73-f810-4c90-999d-a691fedac1aa","system_id":"levelo_inurba_marseille","lat":43.243901,"lon":5.370565,"is_reserved":false,"is_disabled":false,"rental_uris":{"android":"levelo://app?vid=366cfb73-f810-4c90-999d-a691fedac1aa","ios":"levelo://app?vid=366cfb73-f810-4c90-999d-a691fedac1aa"},"vehicle_type_id":"4","last_reported":1731651409,"current_range_meters":39200,"station_id":"ce4bhhh2rcd13ifvqfk0","pricing_plan_id":"cebpf4jnsgd1na2vs0mg"},{"bike_id":"4951dcb3-f505-43d3-a0be-f4e5650dfafa","system_id":"levelo_inurba_marseille","lat":43.31165,"lon":5.38718,"is_reserved":false,"is_disabled":false,"rental_uris":{"android":"levelo://app?vid=4951dcb3-f505-43d3-a0be-f4e5650dfafa","ios":"levelo://app?vid=4951dcb3-f505-43d3-a0be-f4e5650dfafa"},"vehicle_type_id":"4","last_reported":1731651409,"current_range_meters":25200,"station_id":"ce4bgv12rcd13ifvqcp0","pricing_plan_id":"cebpf4jnsgd1na2vs0mg"},{"bike_id":"aaec841f-2a7c-4d64-8722-c25c02ca7092","system_id":"levelo_inurba_marseille","lat":43.23779,"lon":5.43059,"is_reserved":false,"is_disabled":false,"rental_uris":{"android":"levelo://app?vid=aaec841f-2a7c-4d64-8722-c25c02ca7092","ios":"levelo://app?vid=aaec841f-2a7c-4d64-8722-c25c02ca7092"},"vehicle_type_id":"4","last_reported":1731651409,"current_range_meters":35200,"station_id":"","pricing_plan_id":"cebpf4jnsgd1na2vs0mg"},{"bike_id":"d8d9769c-5795-43ab-a6b5-351abc0ce424","system_id":"levelo_inurba_marseille","lat":43.30937,"lon":5.4014,"is_reserved":false,"is_disabled":false,"rental_uris":{"android":"levelo://app?vid=d8d9769c-5795-43ab-a6b5-351abc0ce424","ios":"levelo://app?vid=d8d9769c-5795-43ab-a6b5-351abc0ce424"},"vehicle_type_id":"4","last_reported":1731651409,"current_range_meters":38800,"station_id":"ce4bgvp2rcd13ifvqct0","pricing_plan_id":"cebpf4jnsgd1na2vs0mg"},{"bike_id":"2e9c1a66-87ba-4664-8d2d-458a86c4b0b1","system_id":"levelo_inurba_marseille","lat":43.29253,"lon":5.40902,"is_reserved":false,"is_disabled":false,"rental_uris":{"android":"levelo://app?vid=2e9c1a66-87ba-4664-8d2d-458a86c4b0b1","ios":"levelo://app?vid=2e9c1a66-87ba-4664-8d2d-458a86c4b0b1"},"vehicle_type_id":"4","last_reported":1731651409,"current_range_meters":39200,"station_id":"ce4bh192rcd13ifvqdc0","pricing_plan_id":"cebpf4jnsgd1na2vs0mg"},{"bike_id":"6d757fef-4f26-43f9-ac2c-ffab39bf7dae","system_id":"levelo_inurba_marseille","lat":43.32249,"lon":5.36901,"is_reserved":false,"is_disabled":false,"rental_uris":{"android":"levelo://app?vid=6d757fef-4f26-43f9-ac2c-ffab39bf7dae","ios":"levelo://app?vid=6d757fef-4f26-43f9-ac2c-ffab39bf7dae"},"vehicle_type_id":"4","last_reported":1731651409,"current_range_meters":25600,"station_id":"","pricing_plan_id":"cebpf4jnsgd1na2vs0mg"},{"bike_id":"5afc81b6-96c7-4ccb-afff-b7555b8e12c9","system_id":"levelo_inurba_marseille","lat":43.30647,"lon":5.400916,"is_reserved":false,"is_disabled":false,"rental_uris":{"android":"levelo://app?vid=5afc81b6-96c7-4ccb-afff-b7555b8e12c9","ios":"levelo://app?vid=5afc81b6-96c7-4ccb-afff-b7555b8e12c9"},"vehicle_type_id":"4","last_reported":1731651409,"current_range_meters":36800,"station_id":"ce4bh112rcd13ifvqda0","pricing_plan_id":"cebpf4jnsgd1na2vs0mg"},{"bike_id":"cf1e3033-c8d0-4e74-a9aa-3098ae594db7","system_id":"levelo_inurba_marseille","lat":43.33027,"lon":5.39044,"is_reserved":false,"is_disabled":false,"rental_uris":{"android":"levelo://app?vid=cf1e3033-c8d0-4e74-a9aa-3098ae594db7","ios":"levelo://app?vid=cf1e3033-c8d0-4e74-a9aa-3098ae594db7"},"vehicle_type_id":"4","last_reported":1731651409,"current_range_meters":38800,"station_id":"ce4bhr92rcd13ifvqhrg","pricing_plan_id":"cebpf4jnsgd1na2vs0mg"},{"bike_id":"f66a7dad-88f1-4ddf-bbae-47eb5d1257d2","system_id":"levelo_inurba_marseille","lat":43.301483,"lon":5.400534,"is_reserved":false,"is_disabled":false,"rental_uris":{"android":"levelo://app?vid=f66a7dad-88f1-4ddf-bbae-47eb5d1257d2","ios":"levelo://app?vid=f66a7dad-88f1-4ddf-bbae-47eb5d1257d2"},"vehicle_type_id":"4","last_reported":1731651409,"current_range_meters":38800,"station_id":"ce4bgvh2rcd13ifvqcs0","pricing_plan_id":"cebpf4jnsgd1na2vs0mg"},{"bike_id":"20cbd690-2d9f-45b3-9d37-bb08a779573a","system_id":"levelo_inurba_marseille","lat":43.271777,"lon":5.40991,"is_reserved":false,"is_disabled":false,"rental_uris":{"android":"levelo://app?vid=20cbd690-2d9f-45b3-9d37-bb08a779573a","ios":"levelo://app?vid=20cbd690-2d9f-45b3-9d37-bb08a779573a"},"vehicle_type_id":"4","last_reported":1731651409,"current_range_meters":39200,"station_id":"ce4bhl12rcd13ifvqgf0","pricing_plan_id":"cebpf4jnsgd1na2vs0mg"},{"bike_id":"625e1693-e210-4796-9ba4-a89bb9e5236c","system_id":"levelo_inurba_marseille","lat":43.28721,"lon":5.36088,"is_reserved":false,"is_disabled":false,"rental_uris":{"android":"levelo://app?vid=625e1693-e210-4796-9ba4-a89bb9e5236c","ios":"levelo://app?vid=625e1693-e210-4796-9ba4-a89bb9e5236c"},"vehicle_type_id":"4","last_reported":1731651409,"current_range_meters":39200,"station_id":"cki0cbj6b192h4jlfktg","pricing_plan_id":"cebpf4jnsgd1na2vs0mg"},{"bike_id":"cf68c7fb-d837-4c5d-b668-9260b2e02073","system_id":"levelo_inurba_marseille","lat":43.31757,"lon":5.39019,"is_reserved":false,"is_disabled":false,"rental_uris":{"android":"levelo://app?vid=cf68c7fb-d837-4c5d-b668-9260b2e02073","ios":"levelo://app?vid=cf68c7fb-d837-4c5d-b668-9260b2e02073"},"vehicle_type_id":"4","last_reported":1731651409,"current_range_meters":38400,"station_id":"ce4bhqp2rcd13ifvqhng","pricing_plan_id":"cebpf4jnsgd1na2vs0mg"},{"bike_id":"101d5fa3-de10-421f-ad0f-584b5cdd6627","system_id":"levelo_inurba_marseille","lat":43.26678,"lon":5.38278,"is_reserved":false,"is_disabled":false,"rental_uris":{"android":"levelo://app?vid=101d5fa3-de10-421f-ad0f-584b5cdd6627","ios":"levelo://app?vid=101d5fa3-de10-421f-ad0f-584b5cdd6627"},"vehicle_type_id":"4","last_reported":1731651409,"current_range_meters":38800,"station_id":"ce4bhg92rcd13ifvqf90","pricing_plan_id":"cebpf4jnsgd1na2vs0mg"},{"bike_id":"fdd586c2-2702-41a6-b5a2-d5ae102a07bf","system_id":"levelo_inurba_marseille","lat":43.31365,"lon":5.38497,"is_reserved":false,"is_disabled":false,"rental_uris":{"android":"levelo://app?vid=fdd586c2-2702-41a6-b5a2-d5ae102a07bf","ios":"levelo://app?vid=fdd586c2-2702-41a6-b5a2-d5ae102a07bf"},"vehicle_type_id":"4","last_reported":1731651409,"current_range_meters":38000,"station_id":"ce4bgt92rcd13ifvqcf0","pricing_plan_id":"cebpf4jnsgd1na2vs0mg"},{"bike_id":"7d5d63d5-249a-452f-9690-63a9fd494b32","system_id":"levelo_inurba_marseille","lat":43.26562,"lon":5.38996,"is_reserved":false,"is_disabled":false,"rental_uris":{"android":"levelo://app?vid=7d5d63d5-249a-452f-9690-63a9fd494b32","ios":"levelo://app?vid=7d5d63d5-249a-452f-9690-63a9fd494b32"},"vehicle_type_id":"4","last_reported":1731651409,"current_range_meters":18800,"station_id":"ce4bhe12rcd13ifvqf30","pricing_plan_id":"cebpf4jnsgd1na2vs0mg"},{"bike_id":"4df7c49e-022d-40a5-b465-fbd364b6f490","system_id":"levelo_inurba_marseille","lat":43.32482,"lon":5.36563,"is_reserved":false,"is_disabled":false,"rental_uris":{"android":"levelo://app?vid=4df7c49e-022d-40a5-b465-fbd364b6f490","ios":"levelo://app?vid=4df7c49e-022d-40a5-b465-fbd364b6f490"},"vehicle_type_id":"4","last_reported":1731651409,"current_range_meters":39200,"station_id":"ce4bhs12rcd13ifvqhvg","pricing_plan_id":"cebpf4jnsgd1na2vs0mg"},{"bike_id":"c875ac3e-e2ac-48be-a26e-493b4c7cc485","system_id":"levelo_inurba_marseille","lat":43.298789,"lon":5.397424,"is_reserved":false,"is_disabled":false,"rental_uris":{"android":"levelo://app?vid=c875ac3e-e2ac-48be-a26e-493b4c7cc485","ios":"levelo://app?vid=c875ac3e-e2ac-48be-a26e-493b4c7cc485"},"vehicle_type_id":"4","last_reported":1731651409,"current_range_meters":36800,"station_id":"ce4bh0h2rcd13ifvqd50","pricing_plan_id":"cebpf4jnsgd1na2vs0mg"},{"bike_id":"779ce6e1-e11f-4f1a-b144-e31fdcd83726","system_id":"levelo_inurba_marseille","lat":43.32659,"lon":5.40986,"is_reserved":false,"is_disabled":false,"rental_uris":{"android":"levelo://app?vid=779ce6e1-e11f-4f1a-b144-e31fdcd83726","ios":"levelo://app?vid=779ce6e1-e11f-4f1a-b144-e31fdcd83726"},"vehicle_type_id":"4","last_reported":1731651409,"current_range_meters":38800,"station_id":"ce4bhpp2rcd13ifvqhgg","pricing_plan_id":"cebpf4jnsgd1na2vs0mg"},{"bike_id":"47f96357-d2fb-409b-89ea-63d7a175db01","system_id":"levelo_inurba_marseille","lat":43.306509,"lon":5.400786,"is_reserved":false,"is_disabled":false,"rental_uris":{"android":"levelo://app?vid=47f96357-d2fb-409b-89ea-63d7a175db01","ios":"levelo://app?vid=47f96357-d2fb-409b-89ea-63d7a175db01"},"vehicle_type_id":"4","last_reported":1731651409,"current_range_meters":24800,"station_id":"ce4bh112rcd13ifvqda0","pricing_plan_id":"cebpf4jnsgd1na2vs0mg"},{"bike_id":"9fb901f3-5e11-4495-882b-23bdca9997cc","system_id":"levelo_inurba_marseille","lat":43.2293,"lon":5.35383,"is_reserved":false,"is_disabled":false,"rental_uris":{"android":"levelo://app?vid=9fb901f3-5e11-4495-882b-23bdca9997cc","ios":"levelo://app?vid=9fb901f3-5e11-4495-882b-23bdca9997cc"},"vehicle_type_id":"4","last_reported":1731651409,"current_range_meters":34000,"station_id":"cpo3532slgdg3j2ikp40","pricing_plan_id":"cebpf4jnsgd1na2vs0mg"},{"bike_id":"b9199b52-e535-459f-9108-c1adde7caf28","system_id":"levelo_inurba_marseille","lat":43.30466,"lon":5.37901,"is_reserved":false,"is_disabled":false,"rental_uris":{"android":"levelo://app?vid=b9199b52-e535-459f-9108-c1adde7caf28","ios":"levelo://app?vid=b9199b52-e535-459f-9108-c1adde7caf28"},"vehicle_type_id":"4","last_reported":1731651409,"current_range_meters":28000,"station_id":"ce4bgup2rcd13ifvqcn0","pricing_plan_id":"cebpf4jnsgd1na2vs0mg"},{"bike_id":"2ba01715-3170-4a7e-ae00-4a8868ac1042","system_id":"levelo_inurba_marseille","lat":43.250888,"lon":5.395113,"is_reserved":false,"is_disabled":false,"rental_uris":{"android":"levelo://app?vid=2ba01715-3170-4a7e-ae00-4a8868ac1042","ios":"levelo://app?vid=2ba01715-3170-4a7e-ae00-4a8868ac1042"},"vehicle_type_id":"4","last_reported":1731651409,"current_range_meters":26000,"station_id":"ce4bhm12rcd13ifvqgkg","pricing_plan_id":"cebpf4jnsgd1na2vs0mg"},{"bike_id":"a5bcaa3e-e10e-4588-be0d-c322f181b4e4","system_id":"levelo_inurba_marseille","lat":43.24679,"lon":5.38158,"is_reserved":false,"is_disabled":false,"rental_uris":{"android":"levelo://app?vid=a5bcaa3e-e10e-4588-be0d-c322f181b4e4","ios":"levelo://app?vid=a5bcaa3e-e10e-4588-be0d-c322f181b4e4"},"vehicle_type_id":"4","last_reported":1731651409,"current_range_meters":38400,"station_id":"ce4bhih2rcd13ifvqfr0","pricing_plan_id":"cebpf4jnsgd1na2vs0mg"},{"bike_id":"af72970a-4890-4594-ae7c-b099dce2e887","system_id":"levelo_inurba_marseille","lat":43.336147,"lon":5.410174,"is_reserved":false,"is_disabled":false,"rental_uris":{"android":"levelo://app?vid=af72970a-4890-4594-ae7c-b099dce2e887","ios":"levelo://app?vid=af72970a-4890-4594-ae7c-b099dce2e887"},"vehicle_type_id":"4","last_reported":1731651409,"current_range_meters":24000,"station_id":"ce4bhqh2rcd13ifvqhmg","pricing_plan_id":"cebpf4jnsgd1na2vs0mg"},{"bike_id":"359db04f-5d69-43c1-b38e-4defe71ed94d","system_id":"levelo_inurba_marseille","lat":43.25862,"lon":5.39904,"is_reserved":false,"is_disabled":false,"rental_uris":{"android":"levelo://app?vid=359db04f-5d69-43c1-b38e-4defe71ed94d","ios":"levelo://app?vid=359db04f-5d69-43c1-b38e-4defe71ed94d"},"vehicle_type_id":"4","last_reported":1731651409,"current_range_meters":37600,"station_id":"ce4bhl92rcd13ifvqghg","pricing_plan_id":"cebpf4jnsgd1na2vs0mg"},{"bike_id":"b010bb8d-1878-402c-a1da-799058333ea8","system_id":"levelo_inurba_marseille","lat":43.30415,"lon":5.39764,"is_reserved":false,"is_disabled":false,"rental_uris":{"android":"levelo://app?vid=b010bb8d-1878-402c-a1da-799058333ea8","ios":"levelo://app?vid=b010bb8d-1878-402c-a1da-799058333ea8"},"vehicle_type_id":"4","last_reported":1731651409,"current_range_meters":38800,"station_id":"ce4bh092rcd13ifvqd20","pricing_plan_id":"cebpf4jnsgd1na2vs0mg"},{"bike_id":"3af5230d-21db-48d0-8884-9610ea6ca601","system_id":"levelo_inurba_marseille","lat":43.30891,"lon":5.39639,"is_reserved":false,"is_disabled":false,"rental_uris":{"android":"levelo://app?vid=3af5230d-21db-48d0-8884-9610ea6ca601","ios":"levelo://app?vid=3af5230d-21db-48d0-8884-9610ea6ca601"},"vehicle_type_id":"4","last_reported":1731651409,"current_range_meters":38000,"station_id":"ce4bh012rcd13ifvqcv0","pricing_plan_id":"cebpf4jnsgd1na2vs0mg"},{"bike_id":"63c0d4e9-6e13-4251-a41f-e6b5a9a78b17","system_id":"levelo_inurba_marseille","lat":43.30144,"lon":5.38066,"is_reserved":false,"is_disabled":false,"rental_uris":{"android":"levelo://app?vid=63c0d4e9-6e13-4251-a41f-e6b5a9a78b17","ios":"levelo://app?vid=63c0d4e9-6e13-4251-a41f-e6b5a9a78b17"},"vehicle_type_id":"4","last_reported":1731651409,"current_range_meters":24000,"station_id":"ce4bgjp2rcd13ifvqbh0","pricing_plan_id":"cebpf4jnsgd1na2vs0mg"},{"bike_id":"ad9e5643-959a-4636-935c-2a6093955f09","system_id":"levelo_inurba_marseille","lat":43.262008,"lon":5.379251,"is_reserved":false,"is_disabled":false,"rental_uris":{"android":"levelo://app?vid=ad9e5643-959a-4636-935c-2a6093955f09","ios":"levelo://app?vid=ad9e5643-959a-4636-935c-2a6093955f09"},"vehicle_type_id":"4","last_reported":1731651409,"current_range_meters":38800,"station_id":"ce4bhjp2rcd13ifvqg90","pricing_plan_id":"cebpf4jnsgd1na2vs0mg"},{"bike_id":"6290061e-7002-4bed-8242-03e0a269a134","system_id":"levelo_inurba_marseille","lat":43.30328,"lon":5.40437,"is_reserved":false,"is_disabled":false,"rental_uris":{"android":"levelo://app?vid=6290061e-7002-4bed-8242-03e0a269a134","ios":"levelo://app?vid=6290061e-7002-4bed-8242-03e0a269a134"},"vehicle_type_id":"4","last_reported":1731651409,"current_range_meters":25600,"station_id":"ce4bh012rcd13ifvqd10","pricing_plan_id":"cebpf4jnsgd1na2vs0mg"},{"bike_id":"021ab24c-2a0d-440d-8e09-9e35589bcbc7","system_id":"levelo_inurba_marseille","lat":43.28004,"lon":5.40011,"is_reserved":false,"is_disabled":false,"rental_uris":{"android":"levelo://app?vid=021ab24c-2a0d-440d-8e09-9e35589bcbc7","ios":"levelo://app?vid=021ab24c-2a0d-440d-8e09-9e35589bcbc7"},"vehicle_type_id":"4","last_reported":1731651409,"current_range_meters":36400,"station_id":"ce4bho92rcd13ifvqh4g","pricing_plan_id":"cebpf4jnsgd1na2vs0mg"},{"bike_id":"6f45bdb5-bfdc-40f2-a38c-f51a93e95c83","system_id":"levelo_inurba_marseille","lat":43.25821,"lon":5.39426,"is_reserved":false,"is_disabled":false,"rental_uris":{"android":"levelo://app?vid=6f45bdb5-bfdc-40f2-a38c-f51a93e95c83","ios":"levelo://app?vid=6f45bdb5-bfdc-40f2-a38c-f51a93e95c83"},"vehicle_type_id":"4","last_reported":1731651409,"current_range_meters":8000,"station_id":"ce4bhip2rcd13ifvqft0","pricing_plan_id":"cebpf4jnsgd1na2vs0mg"},{"bike_id":"2db46c00-d305-49fb-9f59-368dd8a841d1","system_id":"levelo_inurba_marseille","lat":43.28451,"lon":5.35892,"is_reserved":false,"is_disabled":false,"rental_uris":{"android":"levelo://app?vid=2db46c00-d305-49fb-9f59-368dd8a841d1","ios":"levelo://app?vid=2db46c00-d305-49fb-9f59-368dd8a841d1"},"vehicle_type_id":"4","last_reported":1731651409,"current_range_meters":38000,"station_id":"ce4bhah2rcd13ifvqei0","pricing_plan_id":"cebpf4jnsgd1na2vs0mg"},{"bike_id":"a80c9e44-605c-4128-ab05-4b5073332fae","system_id":"levelo_inurba_marseille","lat":43.283356,"lon":5.382147,"is_reserved":false,"is_disabled":false,"rental_uris":{"android":"levelo://app?vid=a80c9e44-605c-4128-ab05-4b5073332fae","ios":"levelo://app?vid=a80c9e44-605c-4128-ab05-4b5073332fae"},"vehicle_type_id":"4","last_reported":1731651409,"current_range_meters":19600,"station_id":"","pricing_plan_id":"cebpf4jnsgd1na2vs0mg"},{"bike_id":"5e376865-56e2-47a6-9795-23f39f9f35e3","system_id":"levelo_inurba_marseille","lat":43.30136,"lon":5.37444,"is_reserved":false,"is_disabled":false,"rental_uris":{"android":"levelo://app?vid=5e376865-56e2-47a6-9795-23f39f9f35e3","ios":"levelo://app?vid=5e376865-56e2-47a6-9795-23f39f9f35e3"},"vehicle_type_id":"4","last_reported":1731651409,"current_range_meters":38400,"station_id":"ce4bgs92rcd13ifvqcc0","pricing_plan_id":"cebpf4jnsgd1na2vs0mg"},{"bike_id":"8e12737c-b68e-4dc9-a8c9-536f660541a7","system_id":"levelo_inurba_marseille","lat":43.28452,"lon":5.35896,"is_reserved":false,"is_disabled":false,"rental_uris":{"android":"levelo://app?vid=8e12737c-b68e-4dc9-a8c9-536f660541a7","ios":"levelo://app?vid=8e12737c-b68e-4dc9-a8c9-536f660541a7"},"vehicle_type_id":"4","last_reported":1731651409,"current_range_meters":17200,"station_id":"ce4bhah2rcd13ifvqei0","pricing_plan_id":"cebpf4jnsgd1na2vs0mg"},{"bike_id":"37f52798-cde3-4570-a5d2-b0908bfd3884","system_id":"levelo_inurba_marseille","lat":43.2508,"lon":5.39518,"is_reserved":false,"is_disabled":false,"rental_uris":{"android":"levelo://app?vid=37f52798-cde3-4570-a5d2-b0908bfd3884","ios":"levelo://app?vid=37f52798-cde3-4570-a5d2-b0908bfd3884"},"vehicle_type_id":"4","last_reported":1731651409,"current_range_meters":20000,"station_id":"ce4bhm12rcd13ifvqgkg","pricing_plan_id":"cebpf4jnsgd1na2vs0mg"},{"bike_id":"137e8591-3cbf-402c-85ff-bf8489e44528","system_id":"levelo_inurba_marseille","lat":43.26779,"lon":5.39416,"is_reserved":false,"is_disabled":false,"rental_uris":{"android":"levelo://app?vid=137e8591-3cbf-402c-85ff-bf8489e44528","ios":"levelo://app?vid=137e8591-3cbf-402c-85ff-bf8489e44528"},"vehicle_type_id":"4","last_reported":1731651409,"current_range_meters":37600,"station_id":"ce4bhh12rcd13ifvqfg0","pricing_plan_id":"cebpf4jnsgd1na2vs0mg"},{"bike_id":"9ec89d1e-7011-4465-8b25-2def71567c35","system_id":"levelo_inurba_marseille","lat":43.28451,"lon":5.35885,"is_reserved":false,"is_disabled":false,"rental_uris":{"android":"levelo://app?vid=9ec89d1e-7011-4465-8b25-2def71567c35","ios":"levelo://app?vid=9ec89d1e-7011-4465-8b25-2def71567c35"},"vehicle_type_id":"4","last_reported":1731651409,"current_range_meters":22000,"station_id":"ce4bhah2rcd13ifvqei0","pricing_plan_id":"cebpf4jnsgd1na2vs0mg"},{"bike_id":"67acd962-61fe-4c41-93b6-69cf808e27bd","system_id":"levelo_inurba_marseille","lat":43.31853,"lon":5.38352,"is_reserved":false,"is_disabled":false,"rental_uris":{"android":"levelo://app?vid=67acd962-61fe-4c41-93b6-69cf808e27bd","ios":"levelo://app?vid=67acd962-61fe-4c41-93b6-69cf808e27bd"},"vehicle_type_id":"4","last_reported":1731651409,"current_range_meters":20800,"station_id":"","pricing_plan_id":"cebpf4jnsgd1na2vs0mg"},{"bike_id":"2d8d329c-bd0c-43e6-b753-fca880463eba","system_id":"levelo_inurba_marseille","lat":43.28414,"lon":5.37512,"is_reserved":false,"is_disabled":false,"rental_uris":{"android":"levelo://app?vid=2d8d329c-bd0c-43e6-b753-fca880463eba","ios":"levelo://app?vid=2d8d329c-bd0c-43e6-b753-fca880463eba"},"vehicle_type_id":"4","last_reported":1731651409,"current_range_meters":20800,"station_id":"ce4bh412rcd13ifvqds0","pricing_plan_id":"cebpf4jnsgd1na2vs0mg"},{"bike_id":"3801d79e-aba9-453c-9e83-33f3550a7c41","system_id":"levelo_inurba_marseille","lat":43.24396,"lon":5.37063,"is_reserved":false,"is_disabled":false,"rental_uris":{"android":"levelo://app?vid=3801d79e-aba9-453c-9e83-33f3550a7c41","ios":"levelo://app?vid=3801d79e-aba9-453c-9e83-33f3550a7c41"},"vehicle_type_id":"4","last_reported":1731651409,"current_range_meters":38400,"station_id":"ce4bhhh2rcd13ifvqfk0","pricing_plan_id":"cebpf4jnsgd1na2vs0mg"},{"bike_id":"792531a3-4da6-4082-bd0a-16451cbb2558","system_id":"levelo_inurba_marseille","lat":43.26026,"lon":5.3755,"is_reserved":false,"is_disabled":false,"rental_uris":{"android":"levelo://app?vid=792531a3-4da6-4082-bd0a-16451cbb2558","ios":"levelo://app?vid=792531a3-4da6-4082-bd0a-16451cbb2558"},"vehicle_type_id":"4","last_reported":1731651409,"current_range_meters":24000,"station_id":"ce4bhgh2rcd13ifvqfa0","pricing_plan_id":"cebpf4jnsgd1na2vs0mg"},{"bike_id":"ae392e5f-25ce-4d0e-9ce3-1e2a8bf46846","system_id":"levelo_inurba_marseille","lat":43.27809,"lon":5.40714,"is_reserved":false,"is_disabled":false,"rental_uris":{"android":"levelo://app?vid=ae392e5f-25ce-4d0e-9ce3-1e2a8bf46846","ios":"levelo://app?vid=ae392e5f-25ce-4d0e-9ce3-1e2a8bf46846"},"vehicle_type_id":"4","last_reported":1731651409,"current_range_meters":27600,"station_id":"ce4bhnh2rcd13ifvqgtg","pricing_plan_id":"cebpf4jnsgd1na2vs0mg"},{"bike_id":"68fc7ebc-cf88-4204-b580-f333ce1c0a1b","system_id":"levelo_inurba_marseille","lat":43.30319,"lon":5.4044,"is_reserved":false,"is_disabled":false,"rental_uris":{"android":"levelo://app?vid=68fc7ebc-cf88-4204-b580-f333ce1c0a1b","ios":"levelo://app?vid=68fc7ebc-cf88-4204-b580-f333ce1c0a1b"},"vehicle_type_id":"4","last_reported":1731651409,"current_range_meters":30400,"station_id":"ce4bh012rcd13ifvqd10","pricing_plan_id":"cebpf4jnsgd1na2vs0mg"},{"bike_id":"96c725ec-f3d7-4d01-98c5-667f995689d9","system_id":"levelo_inurba_marseille","lat":43.30538,"lon":5.36558,"is_reserved":false,"is_disabled":false,"rental_uris":{"android":"levelo://app?vid=96c725ec-f3d7-4d01-98c5-667f995689d9","ios":"levelo://app?vid=96c725ec-f3d7-4d01-98c5-667f995689d9"},"vehicle_type_id":"4","last_reported":1731651409,"current_range_meters":31200,"station_id":"ce4bgs12rcd13ifvqcag","pricing_plan_id":"cebpf4jnsgd1na2vs0mg"},{"bike_id":"06a8209f-64d3-46bd-83d2-483209754eff","system_id":"levelo_inurba_marseille","lat":43.2418,"lon":5.39726,"is_reserved":false,"is_disabled":false,"rental_uris":{"android":"levelo://app?vid=06a8209f-64d3-46bd-83d2-483209754eff","ios":"levelo://app?vid=06a8209f-64d3-46bd-83d2-483209754eff"},"vehicle_type_id":"4","last_reported":1731651409,"current_range_meters":4800,"station_id":"ce4bhn12rcd13ifvqgpg","pricing_plan_id":"cebpf4jnsgd1na2vs0mg"},{"bike_id":"1311c692-6e9d-4afb-b7b0-20686564fe7a","system_id":"levelo_inurba_marseille","lat":43.337444,"lon":5.374475,"is_reserved":false,"is_disabled":false,"rental_uris":{"android":"levelo://app?vid=1311c692-6e9d-4afb-b7b0-20686564fe7a","ios":"levelo://app?vid=1311c692-6e9d-4afb-b7b0-20686564fe7a"},"vehicle_type_id":"4","last_reported":1731651409,"current_range_meters":29600,"station_id":"","pricing_plan_id":"cebpf4jnsgd1na2vs0mg"},{"bike_id":"7b160239-2815-4060-aaa0-232f8fc76079","system_id":"levelo_inurba_marseille","lat":43.31094,"lon":5.37782,"is_reserved":false,"is_disabled":false,"rental_uris":{"android":"levelo://app?vid=7b160239-2815-4060-aaa0-232f8fc76079","ios":"levelo://app?vid=7b160239-2815-4060-aaa0-232f8fc76079"},"vehicle_type_id":"4","last_reported":1731651409,"current_range_meters":36800,"station_id":"ce4bgt92rcd13ifvqcg0","pricing_plan_id":"cebpf4jnsgd1na2vs0mg"},{"bike_id":"db79510e-58e6-4d69-a4d0-b02a58fdb1f1","system_id":"levelo_inurba_marseille","lat":43.23957,"lon":5.36636,"is_reserved":false,"is_disabled":false,"rental_uris":{"android":"levelo://app?vid=db79510e-58e6-4d69-a4d0-b02a58fdb1f1","ios":"levelo://app?vid=db79510e-58e6-4d69-a4d0-b02a58fdb1f1"},"vehicle_type_id":"4","last_reported":1731651409,"current_range_meters":33600,"station_id":"ce4bhi12rcd13ifvqfp0","pricing_plan_id":"cebpf4jnsgd1na2vs0mg"},{"bike_id":"645736ec-802b-47e5-809f-bd31a78a83ae","system_id":"levelo_inurba_marseille","lat":43.31722,"lon":5.42404,"is_reserved":false,"is_disabled":false,"rental_uris":{"android":"levelo://app?vid=645736ec-802b-47e5-809f-bd31a78a83ae","ios":"levelo://app?vid=645736ec-802b-47e5-809f-bd31a78a83ae"},"vehicle_type_id":"4","last_reported":1731651409,"current_range_meters":37600,"station_id":"ce4bhp92rcd13ifvqhbg","pricing_plan_id":"cebpf4jnsgd1na2vs0mg"},{"bike_id":"c0ac1168-21ff-4da4-a13f-e813768e4b83","system_id":"levelo_inurba_marseille","lat":43.34147,"lon":5.40908,"is_reserved":false,"is_disabled":false,"rental_uris":{"android":"levelo://app?vid=c0ac1168-21ff-4da4-a13f-e813768e4b83","ios":"levelo://app?vid=c0ac1168-21ff-4da4-a13f-e813768e4b83"},"vehicle_type_id":"4","last_reported":1731651409,"current_range_meters":38800,"station_id":"ce4bhqh2rcd13ifvqhlg","pricing_plan_id":"cebpf4jnsgd1na2vs0mg"},{"bike_id":"2ac1e61c-e8c2-4472-89f3-52c9c2e8bce2","system_id":"levelo_inurba_marseille","lat":43.3015,"lon":5.38092,"is_reserved":false,"is_disabled":false,"rental_uris":{"android":"levelo://app?vid=2ac1e61c-e8c2-4472-89f3-52c9c2e8bce2","ios":"levelo://app?vid=2ac1e61c-e8c2-4472-89f3-52c9c2e8bce2"},"vehicle_type_id":"4","last_reported":1731651409,"current_range_meters":25200,"station_id":"ce4bgjp2rcd13ifvqbh0","pricing_plan_id":"cebpf4jnsgd1na2vs0mg"},{"bike_id":"35460df3-e095-4792-9505-5748e3be263d","system_id":"levelo_inurba_marseille","lat":43.23188,"lon":5.39986,"is_reserved":false,"is_disabled":false,"rental_uris":{"android":"levelo://app?vid=35460df3-e095-4792-9505-5748e3be263d","ios":"levelo://app?vid=35460df3-e095-4792-9505-5748e3be263d"},"vehicle_type_id":"4","last_reported":1731651409,"current_range_meters":38400,"station_id":"ce4bhn12rcd13ifvqgqg","pricing_plan_id":"cebpf4jnsgd1na2vs0mg"},{"bike_id":"20bfa247-829c-4a60-b5bf-172805de17b2","system_id":"levelo_inurba_marseille","lat":43.28846,"lon":5.39308,"is_reserved":false,"is_disabled":false,"rental_uris":{"android":"levelo://app?vid=20bfa247-829c-4a60-b5bf-172805de17b2","ios":"levelo://app?vid=20bfa247-829c-4a60-b5bf-172805de17b2"},"vehicle_type_id":"4","last_reported":1731651409,"current_range_meters":24800,"station_id":"ce4bh2p2rcd13ifvqdi0","pricing_plan_id":"cebpf4jnsgd1na2vs0mg"},{"bike_id":"f6e63c56-e76b-4e7f-9c35-ff272f3e7c44","system_id":"levelo_inurba_marseille","lat":43.27812,"lon":5.40716,"is_reserved":false,"is_disabled":false,"rental_uris":{"android":"levelo://app?vid=f6e63c56-e76b-4e7f-9c35-ff272f3e7c44","ios":"levelo://app?vid=f6e63c56-e76b-4e7f-9c35-ff272f3e7c44"},"vehicle_type_id":"4","last_reported":1731651409,"current_range_meters":38000,"station_id":"ce4bhnh2rcd13ifvqgtg","pricing_plan_id":"cebpf4jnsgd1na2vs0mg"},{"bike_id":"4d8c2b2b-c7e0-4a00-b28e-b4c407c86208","system_id":"levelo_inurba_marseille","lat":43.29555,"lon":5.42296,"is_reserved":false,"is_disabled":false,"rental_uris":{"android":"levelo://app?vid=4d8c2b2b-c7e0-4a00-b28e-b4c407c86208","ios":"levelo://app?vid=4d8c2b2b-c7e0-4a00-b28e-b4c407c86208"},"vehicle_type_id":"4","last_reported":1731651409,"current_range_meters":30400,"station_id":"ce4bhph2rcd13ifvqhdg","pricing_plan_id":"cebpf4jnsgd1na2vs0mg"},{"bike_id":"1db7e47b-80a0-46fa-b3dc-cc5c159bde15","system_id":"levelo_inurba_marseille","lat":43.31084,"lon":5.42423,"is_reserved":false,"is_disabled":false,"rental_uris":{"android":"levelo://app?vid=1db7e47b-80a0-46fa-b3dc-cc5c159bde15","ios":"levelo://app?vid=1db7e47b-80a0-46fa-b3dc-cc5c159bde15"},"vehicle_type_id":"4","last_reported":1731651409,"current_range_meters":39200,"station_id":"ce4bhp92rcd13ifvqhag","pricing_plan_id":"cebpf4jnsgd1na2vs0mg"},{"bike_id":"962548b5-1fdc-41b9-aacc-aaec643779c6","system_id":"levelo_inurba_marseille","lat":43.28099,"lon":5.37847,"is_reserved":false,"is_disabled":false,"rental_uris":{"android":"levelo://app?vid=962548b5-1fdc-41b9-aacc-aaec643779c6","ios":"levelo://app?vid=962548b5-1fdc-41b9-aacc-aaec643779c6"},"vehicle_type_id":"4","last_reported":1731651409,"current_range_meters":6000,"station_id":"ce4bha12rcd13ifvqee0","pricing_plan_id":"cebpf4jnsgd1na2vs0mg"},{"bike_id":"e5fe9c6f-8df7-42f6-b790-fc724ed219e4","system_id":"levelo_inurba_marseille","lat":43.28571,"lon":5.39502,"is_reserved":false,"is_disabled":false,"rental_uris":{"android":"levelo://app?vid=e5fe9c6f-8df7-42f6-b790-fc724ed219e4","ios":"levelo://app?vid=e5fe9c6f-8df7-42f6-b790-fc724ed219e4"},"vehicle_type_id":"4","last_reported":1731651409,"current_range_meters":37600,"station_id":"ce4bh292rcd13ifvqdg0","pricing_plan_id":"cebpf4jnsgd1na2vs0mg"},{"bike_id":"e8f9fde6-5e65-4ad9-aa4f-c053afad736a","system_id":"levelo_inurba_marseille","lat":43.30545,"lon":5.38424,"is_reserved":false,"is_disabled":false,"rental_uris":{"android":"levelo://app?vid=e8f9fde6-5e65-4ad9-aa4f-c053afad736a","ios":"levelo://app?vid=e8f9fde6-5e65-4ad9-aa4f-c053afad736a"},"vehicle_type_id":"4","last_reported":1731651409,"current_range_meters":38000,"station_id":"ce4bgg92rcd13ifvqb30","pricing_plan_id":"cebpf4jnsgd1na2vs0mg"},{"bike_id":"a6b8c285-acc9-4039-9531-1aae39136a33","system_id":"levelo_inurba_marseille","lat":43.312042,"lon":5.367348,"is_reserved":false,"is_disabled":false,"rental_uris":{"android":"levelo://app?vid=a6b8c285-acc9-4039-9531-1aae39136a33","ios":"levelo://app?vid=a6b8c285-acc9-4039-9531-1aae39136a33"},"vehicle_type_id":"4","last_reported":1731651409,"current_range_meters":20400,"station_id":"","pricing_plan_id":"cebpf4jnsgd1na2vs0mg"},{"bike_id":"969fc660-e18c-47b7-beed-36ead3f43ca6","system_id":"levelo_inurba_marseille","lat":43.284604,"lon":5.358926,"is_reserved":false,"is_disabled":false,"rental_uris":{"android":"levelo://app?vid=969fc660-e18c-47b7-beed-36ead3f43ca6","ios":"levelo://app?vid=969fc660-e18c-47b7-beed-36ead3f43ca6"},"vehicle_type_id":"4","last_reported":1731651409,"current_range_meters":39200,"station_id":"ce4bhah2rcd13ifvqei0","pricing_plan_id":"cebpf4jnsgd1na2vs0mg"},{"bike_id":"c5d0194e-34c9-4d5b-9425-62c78e5d0cfb","system_id":"levelo_inurba_marseille","lat":43.24175,"lon":5.39736,"is_reserved":false,"is_disabled":false,"rental_uris":{"android":"levelo://app?vid=c5d0194e-34c9-4d5b-9425-62c78e5d0cfb","ios":"levelo://app?vid=c5d0194e-34c9-4d5b-9425-62c78e5d0cfb"},"vehicle_type_id":"4","last_reported":1731651409,"current_range_meters":6400,"station_id":"ce4bhn12rcd13ifvqgpg","pricing_plan_id":"cebpf4jnsgd1na2vs0mg"},{"bike_id":"31e215c2-7dd6-45e6-9b1e-64fa63bf89c1","system_id":"levelo_inurba_marseille","lat":43.2509,"lon":5.39516,"is_reserved":false,"is_disabled":false,"rental_uris":{"android":"levelo://app?vid=31e215c2-7dd6-45e6-9b1e-64fa63bf89c1","ios":"levelo://app?vid=31e215c2-7dd6-45e6-9b1e-64fa63bf89c1"},"vehicle_type_id":"4","last_reported":1731651409,"current_range_meters":38000,"station_id":"ce4bhm12rcd13ifvqgkg","pricing_plan_id":"cebpf4jnsgd1na2vs0mg"},{"bike_id":"3f7d9060-ccd7-4517-b6a0-d7ffda1be0d0","system_id":"levelo_inurba_marseille","lat":43.279016,"lon":5.380075,"is_reserved":false,"is_disabled":false,"rental_uris":{"android":"levelo://app?vid=3f7d9060-ccd7-4517-b6a0-d7ffda1be0d0","ios":"levelo://app?vid=3f7d9060-ccd7-4517-b6a0-d7ffda1be0d0"},"vehicle_type_id":"4","last_reported":1731651409,"current_range_meters":9600,"station_id":"ce4bhf92rcd13ifvqf50","pricing_plan_id":"cebpf4jnsgd1na2vs0mg"},{"bike_id":"b9916238-6860-4e40-a31b-eb86b789d0e1","system_id":"levelo_inurba_marseille","lat":43.24181,"lon":5.39727,"is_reserved":false,"is_disabled":false,"rental_uris":{"android":"levelo://app?vid=b9916238-6860-4e40-a31b-eb86b789d0e1","ios":"levelo://app?vid=b9916238-6860-4e40-a31b-eb86b789d0e1"},"vehicle_type_id":"4","last_reported":1731651409,"current_range_meters":28400,"station_id":"ce4bhn12rcd13ifvqgpg","pricing_plan_id":"cebpf4jnsgd1na2vs0mg"},