{"last_updated":1727770385,"ttl":60,"version":"2.2","data":{"bikes":[{"bike_id":"62e3c682-372a-444c-aaa3-4be924a9a56b","system_id":"levelo_inurba_marseille","lat":43.29715,"lon":5.37695,"is_reserved":false,"is_disabled":false,"rental_uris":{"android":"levelo://app?vid=62e3c682-372a-444c-aaa3-4be924a9a56b","ios":"levelo://app?vid=62e3c682-372a-444c-aaa3-4be924a9a56b"},"vehicle_type_id":"4","last_reported":1727770385,"current_range_meters":12800,"station_id":"ce4bgkh2rcd13ifvqbl0","pricing_plan_id":"cebpf4jnsgd1na2vs0mg"},{"bike_id":"641442a4-b1e9-4bb3-a10e-050a866e9266","system_id":"levelo_inurba_marseille","lat":43.31222,"lon":5.36867,"is_reserved":false,"is_disabled":false,"rental_uris":{"android":"levelo://app?vid=641442a4-b1e9-4bb3-a10e-050a866e9266","ios":"levelo://app?vid=641442a4-b1e9-4bb3-a10e-050a866e9266"},"vehicle_type_id":"4","last_reported":1727770385,"current_range_meters":10800,"station_id":"ce4bgl92rcd13ifvqbq0","pricing_plan_id":"cebpf4jnsgd1na2vs0mg"},{"bike_id":"f3dafe68-1b2f-4c5e-9181-3da7f4fe320c","system_id":"levelo_inurba_marseille","lat":43.30191,"lon":5.36623,"is_reserved":false,"is_disabled":false,"rental_uris":{"android":"levelo://app?vid=f3dafe68-1b2f-4c5e-9181-3da7f4fe320c","ios":"levelo://app?vid=f3dafe68-1b2f-4c5e-9181-3da7f4fe320c"},"vehicle_type_id":"4","last_reported":1727770385,"current_range_meters":22000,"station_id":"ce4bgrh2rcd13ifvqc8g","pricing_plan_id":"cebpf4jnsgd1na2vs0mg"},{"bike_id":"45278508-ffed-42b8-b0fa-7766eabb2075","system_id":"levelo_inurba_marseille","lat":43.34154,"lon":5.40905,"is_reserved":false,"is_disabled":false,"rental_uris":{"android":"levelo://app?vid=45278508-ffed-42b8-b0fa-7766eabb2075","ios":"levelo://app?vid=45278508-ffed-42b8-b0fa-7766eabb2075"},"vehicle_type_id":"4","last_reported":1727770385,"current_range_meters":36000,"station_id":"ce4bhqh2rcd13ifvqhlg","pricing_plan_id":"cebpf4jnsgd1na2vs0mg"},{"bike_id":"6e236a91-5773-4ff0-a2dc-6729f0b0ae40","system_id":"levelo_inurba_marseille","lat":43.28107,"lon":5.37845,"is_reserved":false,"is_disabled":false,"rental_uris":{"android":"levelo://app?vid=6e236a91-5773-4ff0-a2dc-6729f0b0ae40","ios":"levelo://app?vid=6e236a91-5773-4ff0-a2dc-6729f0b0ae40"},"vehicle_type_id":"4","last_reported":1727770385,"current_range_meters":36000,"station_id":"ce4bha12rcd13ifvqee0","pricing_plan_id":"cebpf4jnsgd1na2vs0mg"},{"bike_id":"dad62afc-f55e-4d7d-8a4c-c944cff61821","system_id":"levelo_inurba_marseille","lat":43.24404,"lon":5.37013,"is_reserved":false,"is_disabled":false,"rental_uris":{"android":"levelo://app?vid=dad62afc-f55e-4d7d-8a4c-c944cff61821","ios":"levelo://app?vid=dad62afc-f55e-4d7d-8a4c-c944cff61821"},"vehicle_type_id":"4","last_reported":1727770385,"current_range_meters":19600,"station_id":"ce4bhhh2rcd13ifvqfk0","pricing_plan_id":"cebpf4jnsgd1na2vs0mg"},{"bike_id":"a6fa0cf1-ec47-4817-9795-cad14a92d455","system_id":"levelo_inurba_marseille","lat":43.28082,"lon":5.39653,"is_reserved":false,"is_disabled":false,"rental_uris":{"android":"levelo://app?vid=a6fa0cf1-ec47-4817-9795-cad14a92d455","ios":"levelo://app?vid=a6fa0cf1-ec47-4817-9795-cad14a92d455"},"vehicle_type_id":"4","last_reported":1727770385,"current_range_meters":30000,"station_id":"ce4bho12rcd13ifvqh2g","pricing_plan_id":"cebpf4jnsgd1na2vs0mg"},{"bike_id":"513c5bd8-bf1f-4410-a827-c1858341840c","system_id":"levelo_inurba_marseille","lat":43.24387,"lon":5.37053,"is_reserved":false,"is_disabled":false,"rental_uris":{"android":"levelo://app?vid=513c5bd8-bf1f-4410-a827-c1858341840c","ios":"levelo://app?vid=513c5bd8-bf1f-4410-a827-c1858341840c"},"vehicle_type_id":"4","last_reported":1727770385,"current_range_meters":28800,"station_id":"ce4bhhh2rcd13ifvqfk0","pricing_plan_id":"cebpf4jnsgd1na2vs0mg"},{"bike_id":"f7ab1ff5-e3c9-48ef-bb52-3f7e8d2513a3","system_id":"levelo_inurba_marseille","lat":43.305558,"lon":5.367038,"is_reserved":false,"is_disabled":false,"rental_uris":{"android":"levelo://app?vid=f7ab1ff5-e3c9-48ef-bb52-3f7e8d2513a3","ios":"levelo://app?vid=f7ab1ff5-e3c9-48ef-bb52-3f7e8d2513a3"},"vehicle_type_id":"4","last_reported":1727770385,"current_range_meters":6800,"station_id":"ce4bgrp2rcd13ifvqc9g","pricing_plan_id":"cebpf4jnsgd1na2vs0mg"},{"bike_id":"f418cd20-7628-40e9-a26b-b8ca96af3437","system_id":"levelo_inurba_marseille","lat":43.29554,"lon":5.4229,"is_reserved":false,"is_disabled":false,"rental_uris":{"android":"levelo://app?vid=f418cd20-7628-40e9-a26b-b8ca96af3437","ios":"levelo://app?vid=f418cd20-7628-40e9-a26b-b8ca96af3437"},"vehicle_type_id":"4","last_reported":1727770385,"current_range_meters":12000,"station_id":"ce4bhph2rcd13ifvqhdg","pricing_plan_id":"cebpf4jnsgd1na2vs0mg"},{"bike_id":"25f9f23c-4b19-46a6-97e3-06a702f41dc9","system_id":"levelo_inurba_marseille","lat":43.30473,"lon":5.37894,"is_reserved":false,"is_disabled":false,"rental_uris":{"android":"levelo://app?vid=25f9f23c-4b19-46a6-97e3-06a702f41dc9","ios":"levelo://app?vid=25f9f23c-4b19-46a6-97e3-06a702f41dc9"},"vehicle_type_id":"4","last_reported":1727770385,"current_range_meters":26800,"station_id":"ce4bgup2rcd13ifvqcn0","pricing_plan_id":"cebpf4jnsgd1na2vs0mg"},{"bike_id":"27e22fd8-b976-4b3d-94ef-b910dbc7fdf8","system_id":"levelo_inurba_marseille","lat":43.25934,"lon":5.40908,"is_reserved":false,"is_disabled":false,"rental_uris":{"android":"levelo://app?vid=27e22fd8-b976-4b3d-94ef-b910dbc7fdf8","ios":"levelo://app?vid=27e22fd8-b976-4b3d-94ef-b910dbc7fdf8"},"vehicle_type_id":"4","last_reported":1727770385,"current_range_meters":28000,"station_id":"ce4bhm92rcd13ifvqglg","pricing_plan_id":"cebpf4jnsgd1na2vs0mg"},{"bike_id":"96fc2d61-401a-4679-b3d0-fe240de168f4","system_id":"levelo_inurba_marseille","lat":43.33772,"lon":5.37479,"is_reserved":false,"is_disabled":false,"rental_uris":{"android":"levelo://app?vid=96fc2d61-401a-4679-b3d0-fe240de168f4","ios":"levelo://app?vid=96fc2d61-401a-4679-b3d0-fe240de168f4"},"vehicle_type_id":"4","last_reported":1727770385,"current_range_meters":17600,"station_id":"","pricing_plan_id":"cebpf4jnsgd1na2vs0mg"},{"bike_id":"4f5f571b-2480-4e15-9c00-aa4e592bddbe","system_id":"levelo_inurba_marseille","lat":43.31336,"lon":5.36729,"is_reserved":false,"is_disabled":false,"rental_uris":{"android":"levelo://app?vid=4f5f571b-2480-4e15-9c00-aa4e592bddbe","ios":"levelo://app?vid=4f5f571b-2480-4e15-9c00-aa4e592bddbe"},"vehicle_type_id":"4","last_reported":1727770385,"current_range_meters":35600,"station_id":"ce4bgr92rcd13ifvqc6g","pricing_plan_id":"cebpf4jnsgd1na2vs0mg"},{"bike_id":"6fc0ad42-2767-4eea-bbe6-f50e92ac93e4","system_id":"levelo_inurba_marseille","lat":43.29972,"lon":5.41317,"is_reserved":false,"is_disabled":false,"rental_uris":{"android":"levelo://app?vid=6fc0ad42-2767-4eea-bbe6-f50e92ac93e4","ios":"levelo://app?vid=6fc0ad42-2767-4eea-bbe6-f50e92ac93e4"},"vehicle_type_id":"4","last_reported":1727770385,"current_range_meters":38800,"station_id":"ce4bhp12rcd13ifvqh9g","pricing_plan_id":"cebpf4jnsgd1na2vs0mg"},{"bike_id":"2da5f1b3-c2a9-4899-ba79-a0ea0fb8b9dd","system_id":"levelo_inurba_marseille","lat":43.2408,"lon":5.37751,"is_reserved":false,"is_disabled":false,"rental_uris":{"android":"levelo://app?vid=2da5f1b3-c2a9-4899-ba79-a0ea0fb8b9dd","ios":"levelo://app?vid=2da5f1b3-c2a9-4899-ba79-a0ea0fb8b9dd"},"vehicle_type_id":"4","last_reported":1727770385,"current_range_meters":8000,"station_id":"ce4bhnp2rcd13ifvqgvg","pricing_plan_id":"cebpf4jnsgd1na2vs0mg"},{"bike_id":"5fc7f6b1-9a5d-442e-a59a-c5c71593d4b5","system_id":"levelo_inurba_marseille","lat":43.29578,"lon":5.36736,"is_reserved":false,"is_disabled":false,"rental_uris":{"android":"levelo://app?vid=5fc7f6b1-9a5d-442e-a59a-c5c71593d4b5","ios":"levelo://app?vid=5fc7f6b1-9a5d-442e-a59a-c5c71593d4b5"},"vehicle_type_id":"4","last_reported":1727770385,"current_range_meters":38000,"station_id":"ce4bgph2rcd13ifvqc2g","pricing_plan_id":"cebpf4jnsgd1na2vs0mg"},{"bike_id":"64ee29d5-dc36-4eca-b595-d58999ae65c1","system_id":"levelo_inurba_marseille","lat":43.31342,"lon":5.36728,"is_reserved":false,"is_disabled":false,"rental_uris":{"android":"levelo://app?vid=64ee29d5-dc36-4eca-b595-d58999ae65c1","ios":"levelo://app?vid=64ee29d5-dc36-4eca-b595-d58999ae65c1"},"vehicle_type_id":"4","last_reported":1727770385,"current_range_meters":36800,"station_id":"ce4bgr92rcd13ifvqc6g","pricing_plan_id":"cebpf4jnsgd1na2vs0mg"},{"bike_id":"9e03787a-2278-4bc0-9f90-d1b5cb4d5e8e","system_id":"levelo_inurba_marseille","lat":43.30539,"lon":5.36547,"is_reserved":false,"is_disabled":false,"rental_uris":{"android":"levelo://app?vid=9e03787a-2278-4bc0-9f90-d1b5cb4d5e8e","ios":"levelo://app?vid=9e03787a-2278-4bc0-9f90-d1b5cb4d5e8e"},"vehicle_type_id":"4","last_reported":1727770385,"current_range_meters":36000,"station_id":"ce4bgs12rcd13ifvqcag","pricing_plan_id":"cebpf4jnsgd1na2vs0mg"},{"bike_id":"4f9a8983-493f-47bf-8ad4-e9e74de1d2d4","system_id":"levelo_inurba_marseille","lat":43.264928,"lon":5.395412,"is_reserved":false,"is_disabled":false,"rental_uris":{"android":"levelo://app?vid=4f9a8983-493f-47bf-8ad4-e9e74de1d2d4","ios":"levelo://app?vid=4f9a8983-493f-47bf-8ad4-e9e74de1d2d4"},"vehicle_type_id":"4","last_reported":1727770385,"current_range_meters":8400,"station_id":"ce4bhi12rcd13ifvqfq0","pricing_plan_id":"cebpf4jnsgd1na2vs0mg"},{"bike_id":"a7c6e37b-63b1-4d51-b926-bcd9ab15fdf3","system_id":"levelo_inurba_marseille","lat":43.26789,"lon":5.39421,"is_reserved":false,"is_disabled":false,"rental_uris":{"android":"levelo://app?vid=a7c6e37b-63b1-4d51-b926-bcd9ab15fdf3","ios":"levelo://app?vid=a7c6e37b-63b1-4d51-b926-bcd9ab15fdf3"},"vehicle_type_id":"4","last_reported":1727770385,"current_range_meters":24400,"station_id":"ce4bhh12rcd13ifvqfg0","pricing_plan_id":"cebpf4jnsgd1na2vs0mg"},{"bike_id":"a09f389b-08fe-436a-9fac-a332159c7a30","system_id":"levelo_inurba_marseille","lat":43.27493,"lon":5.42455,"is_reserved":false,"is_disabled":false,"rental_uris":{"android":"levelo://app?vid=a09f389b-08fe-436a-9fac-a332159c7a30","ios":"levelo://app?vid=a09f389b-08fe-436a-9fac-a332159c7a30"},"vehicle_type_id":"4","last_reported":1727770385,"current_range_meters":18800,"station_id":"ce4bhn92rcd13ifvqgrg","pricing_plan_id":"cebpf4jnsgd1na2vs0mg"},{"bike_id":"74dcd09d-9212-4b44-9964-c7ba6bc4fdfc","system_id":"levelo_inurba_marseille","lat":43.25943,"lon":5.40905,"is_reserved":false,"is_disabled":false,"rental_uris":{"android":"levelo://app?vid=74dcd09d-9212-4b44-9964-c7ba6bc4fdfc","ios":"levelo://app?vid=74dcd09d-9212-4b44-9964-c7ba6bc4fdfc"},"vehicle_type_id":"4","last_reported":1727770385,"current_range_meters":30800,"station_id":"ce4bhm92rcd13ifvqglg","pricing_plan_id":"cebpf4jnsgd1na2vs0mg"},{"bike_id":"068b2f9a-ba2d-481e-a87a-d34831ca26cb","system_id":"levelo_inurba_marseille","lat":43.30152,"lon":5.38077,"is_reserved":false,"is_disabled":false,"rental_uris":{"android":"levelo://app?vid=068b2f9a-ba2d-481e-a87a-d34831ca26cb","ios":"levelo://app?vid=068b2f9a-ba2d-481e-a87a-d34831ca26cb"},"vehicle_type_id":"4","last_reported":1727770385,"current_range_meters":24400,"station_id":"ce4bgjp2rcd13ifvqbh0","pricing_plan_id":"cebpf4jnsgd1na2vs0mg"},{"bike_id":"aecdfc92-01f0-4002-8d4b-8d6382641f8a","system_id":"levelo_inurba_marseille","lat":43.28418,"lon":5.34979,"is_reserved":false,"is_disabled":false,"rental_uris":{"android":"levelo://app?vid=aecdfc92-01f0-4002-8d4b-8d6382641f8a","ios":"levelo://app?vid=aecdfc92-01f0-4002-8d4b-8d6382641f8a"},"vehicle_type_id":"4","last_reported":1727770385,"current_range_meters":36800,"station_id":"ce4bhbh2rcd13ifvqepg","pricing_plan_id":"cebpf4jnsgd1na2vs0mg"},{"bike_id":"0c02fcde-2e7f-44cc-97f3-a3fb7f90bf3f","system_id":"levelo_inurba_marseille","lat":43.30956,"lon":5.39038,"is_reserved":false,"is_disabled":false,"rental_uris":{"android":"levelo://app?vid=0c02fcde-2e7f-44cc-97f3-a3fb7f90bf3f","ios":"levelo://app?vid=0c02fcde-2e7f-44cc-97f3-a3fb7f90bf3f"},"vehicle_type_id":"4","last_reported":1727770385,"current_range_meters":8000,"station_id":"ce4bgup2rcd13ifvqco0","pricing_plan_id":"cebpf4jnsgd1na2vs0mg"},{"bike_id":"e8a6161e-bd30-4c88-9db9-731562a29b58","system_id":"levelo_inurba_marseille","lat":43.27808,"lon":5.40711,"is_reserved":false,"is_disabled":false,"rental_uris":{"android":"levelo://app?vid=e8a6161e-bd30-4c88-9db9-731562a29b58","ios":"levelo://app?vid=e8a6161e-bd30-4c88-9db9-731562a29b58"},"vehicle_type_id":"4","last_reported":1727770385,"current_range_meters":23200,"station_id":"ce4bhnh2rcd13ifvqgtg","pricing_plan_id":"cebpf4jnsgd1na2vs0mg"},{"bike_id":"3f5205da-c6a9-4034-acd8-b9e43a5c01dd","system_id":"levelo_inurba_marseille","lat":43.30481,"lon":5.37893,"is_reserved":false,"is_disabled":false,"rental_uris":{"android":"levelo://app?vid=3f5205da-c6a9-4034-acd8-b9e43a5c01dd","ios":"levelo://app?vid=3f5205da-c6a9-4034-acd8-b9e43a5c01dd"},"vehicle_type_id":"4","last_reported":1727770385,"current_range_meters":28400,"station_id":"ce4bgup2rcd13ifvqcn0","pricing_plan_id":"cebpf4jnsgd1na2vs0mg"},{"bike_id":"63cf5f95-1f2f-4952-b165-86a8c0f95bb8","system_id":"levelo_inurba_marseille","lat":43.27315,"lon":5.39053,"is_reserved":false,"is_disabled":false,"rental_uris":{"android":"levelo://app?vid=63cf5f95-1f2f-4952-b165-86a8c0f95bb8","ios":"levelo://app?vid=63cf5f95-1f2f-4952-b165-86a8c0f95bb8"},"vehicle_type_id":"4","last_reported":1727770385,"current_range_meters":19200,"station_id":"ce4bhgp2rcd13ifvqfe0","pricing_plan_id":"cebpf4jnsgd1na2vs0mg"},{"bike_id":"6ab918ad-6b0d-4d12-b15c-67a2cccf6160","system_id":"levelo_inurba_marseille","lat":43.25938,"lon":5.40917,"is_reserved":false,"is_disabled":false,"rental_uris":{"android":"levelo://app?vid=6ab918ad-6b0d-4d12-b15c-67a2cccf6160","ios":"levelo://app?vid=6ab918ad-6b0d-4d12-b15c-67a2cccf6160"},"vehicle_type_id":"4","last_reported":1727770385,"current_range_meters":8000,"station_id":"ce4bhm92rcd13ifvqglg","pricing_plan_id":"cebpf4jnsgd1na2vs0mg"},{"bike_id":"e3bc9daa-d7c3-457f-bb34-575407f959d1","system_id":"levelo_inurba_marseille","lat":43.30902,"lon":5.36852,"is_reserved":false,"is_disabled":false,"rental_uris":{"android":"levelo://app?vid=e3bc9daa-d7c3-457f-bb34-575407f959d1","ios":"levelo://app?vid=e3bc9daa-d7c3-457f-bb34-575407f959d1"},"vehicle_type_id":"4","last_reported":1727770385,"current_range_meters":26800,"station_id":"ce4bgn92rcd13ifvqbvg","pricing_plan_id":"cebpf4jnsgd1na2vs0mg"},{"bike_id":"763e76f3-4818-44ec-9b23-75e72ff560bd","system_id":"levelo_inurba_marseille","lat":43.3062,"lon":5.37234,"is_reserved":false,"is_disabled":false,"rental_uris":{"android":"levelo://app?vid=763e76f3-4818-44ec-9b23-75e72ff560bd","ios":"levelo://app?vid=763e76f3-4818-44ec-9b23-75e72ff560bd"},"vehicle_type_id":"4","last_reported":1727770385,"current_range_meters":38000,"station_id":"ce4bgqh2rcd13ifvqc4g","pricing_plan_id":"cebpf4jnsgd1na2vs0mg"},{"bike_id":"7078a88a-c6ad-4e42-a03d-585647e9b75d","system_id":"levelo_inurba_marseille","lat":43.27487,"lon":5.42454,"is_reserved":false,"is_disabled":false,"rental_uris":{"android":"levelo://app?vid=7078a88a-c6ad-4e42-a03d-585647e9b75d","ios":"levelo://app?vid=7078a88a-c6ad-4e42-a03d-585647e9b75d"},"vehicle_type_id":"4","last_reported":1727770385,"current_range_meters":38800,"station_id":"ce4bhn92rcd13ifvqgrg","pricing_plan_id":"cebpf4jnsgd1na2vs0mg"},{"bike_id":"8b502fc4-6ea4-40e6-be32-3cbc353a5967","system_id":"levelo_inurba_marseille","lat":43.26684,"lon":5.3827,"is_reserved":false,"is_disabled":false,"rental_uris":{"android":"levelo://app?vid=8b502fc4-6ea4-40e6-be32-3cbc353a5967","ios":"levelo://app?vid=8b502fc4-6ea4-40e6-be32-3cbc353a5967"},"vehicle_type_id":"4","last_reported":1727770385,"current_range_meters":13600,"station_id":"ce4bhg92rcd13ifvqf90","pricing_plan_id":"cebpf4jnsgd1na2vs0mg"},{"bike_id":"1207ea17-bf06-4729-be5b-59d9a874cfcc","system_id":"levelo_inurba_marseille","lat":43.2439,"lon":5.37054,"is_reserved":false,"is_disabled":false,"rental_uris":{"android":"levelo://app?vid=1207ea17-bf06-4729-be5b-59d9a874cfcc","ios":"levelo://app?vid=1207ea17-bf06-4729-be5b-59d9a874cfcc"},"vehicle_type_id":"4","last_reported":1727770385,"current_range_meters":38800,"station_id":"ce4bhhh2rcd13ifvqfk0","pricing_plan_id":"cebpf4jnsgd1na2vs0mg"},{"bike_id":"0732ed65-12f7-48b9-9d9c-6e3d30128fbb","system_id":"levelo_inurba_marseille","lat":43.2847,"lon":5.38413,"is_reserved":false,"is_disabled":false,"rental_uris":{"android":"levelo://app?vid=0732ed65-12f7-48b9-9d9c-6e3d30128fbb","ios":"levelo://app?vid=0732ed65-12f7-48b9-9d9c-6e3d30128fbb"},"vehicle_type_id":"4","last_reported":1727770385,"current_range_meters":11600,"station_id":"ce4bh512rcd13ifvqe3g","pricing_plan_id":"cebpf4jnsgd1na2vs0mg"},{"bike_id":"8b6093db-3634-446a-b668-55835c0dbcfb","system_id":"levelo_inurba_marseille","lat":43.25945,"lon":5.40901,"is_reserved":false,"is_disabled":false,"rental_uris":{"android":"levelo://app?vid=8b6093db-3634-446a-b668-55835c0dbcfb","ios":"levelo://app?vid=8b6093db-3634-446a-b668-55835c0dbcfb"},"vehicle_type_id":"4","last_reported":1727770385,"current_range_meters":6000,"station_id":"ce4bhm92rcd13ifvqglg","pricing_plan_id":"cebpf4jnsgd1na2vs0mg"},{"bike_id":"72db7dd8-df33-490a-84aa-a801c43bf43c","system_id":"levelo_inurba_marseille","lat":43.26805,"lon":5.40271,"is_reserved":false,"is_disabled":false,"rental_uris":{"android":"levelo://app?vid=72db7dd8-df33-490a-84aa-a801c43bf43c","ios":"levelo://app?vid=72db7dd8-df33-490a-84aa-a801c43bf43c"},"vehicle_type_id":"4","last_reported":1727770385,"current_range_meters":37600,"station_id":"ce501612rcd8frsf0b60","pricing_plan_id":"cebpf4jnsgd1na2vs0mg"},{"bike_id":"8ec30c77-0462-4329-92d6-1a8de0834fde","system_id":"levelo_inurba_marseille","lat":43.27493,"lon":5.42455,"is_reserved":false,"is_disabled":false,"rental_uris":{"android":"levelo://app?vid=8ec30c77-0462-4329-92d6-1a8de0834fde","ios":"levelo://app?vid=8ec30c77-0462-4329-92d6-1a8de0834fde"},"vehicle_type_id":"4","last_reported":1727770385,"current_range_meters":22800,"station_id":"ce4bhn92rcd13ifvqgrg","pricing_plan_id":"cebpf4jnsgd1na2vs0mg"},{"bike_id":"cebd3eee-4d43-48d2-bc20-08ae08a02893","system_id":"levelo_inurba_marseille","lat":43.33608,"lon":5.41024,"is_reserved":false,"is_disabled":false,"rental_uris":{"android":"levelo://app?vid=cebd3eee-4d43-48d2-bc20-08ae08a02893","ios":"levelo://app?vid=cebd3eee-4d43-48d2-bc20-08ae08a02893"},"vehicle_type_id":"4","last_reported":1727770385,"current_range_meters":8800,"station_id":"ce4bhqh2rcd13ifvqhmg","pricing_plan_id":"cebpf4jnsgd1na2vs0mg"},{"bike_id":"bdd561a9-978c-4c45-8115-60ced473fff2","system_id":"levelo_inurba_marseille","lat":43.30539,"lon":5.36709,"is_reserved":false,"is_disabled":false,"rental_uris":{"android":"levelo://app?vid=bdd561a9-978c-4c45-8115-60ced473fff2","ios":"levelo://app?vid=bdd561a9-978c-4c45-8115-60ced473fff2"},"vehicle_type_id":"4","last_reported":1727770385,"current_range_meters":6800,"station_id":"ce4bgrp2rcd13ifvqc9g","pricing_plan_id":"cebpf4jnsgd1na2vs0mg"},{"bike_id":"331bf754-18c5-49b3-a53c-f5ee9aaecd7b","system_id":"levelo_inurba_marseille","lat":43.31494,"lon":5.37302,"is_reserved":false,"is_disabled":false,"rental_uris":{"android":"levelo://app?vid=331bf754-18c5-49b3-a53c-f5ee9aaecd7b","ios":"levelo://app?vid=331bf754-18c5-49b3-a53c-f5ee9aaecd7b"},"vehicle_type_id":"4","last_reported":1727770385,"current_range_meters":36800,"station_id":"ce4bgt12rcd13ifvqcd0","pricing_plan_id":"cebpf4jnsgd1na2vs0mg"},{"bike_id":"5c3cfa4a-be88-419e-85e1-323de203fcdb","system_id":"levelo_inurba_marseille","lat":43.26949,"lon":5.38635,"is_reserved":false,"is_disabled":false,"rental_uris":{"android":"levelo://app?vid=5c3cfa4a-be88-419e-85e1-323de203fcdb","ios":"levelo://app?vid=5c3cfa4a-be88-419e-85e1-323de203fcdb"},"vehicle_type_id":"4","last_reported":1727770385,"current_range_meters":38800,"station_id":"ce4bhh92rcd13ifvqfh0","pricing_plan_id":"cebpf4jnsgd1na2vs0mg"},{"bike_id":"4d0b9339-c598-4ffb-85a8-252ed21d4499","system_id":"levelo_inurba_marseille","lat":43.29039,"lon":5.37577,"is_reserved":false,"is_disabled":false,"rental_uris":{"android":"levelo://app?vid=4d0b9339-c598-4ffb-85a8-252ed21d4499","ios":"levelo://app?vid=4d0b9339-c598-4ffb-85a8-252ed21d4499"},"vehicle_type_id":"4","last_reported":1727770385,"current_range_meters":28000,"station_id":"ce4bh692rcd13ifvqe90","pricing_plan_id":"cebpf4jnsgd1na2vs0mg"},{"bike_id":"e8d1dd4c-9ff0-4557-8d17-a7e0856997d5","system_id":"levelo_inurba_marseille","lat":43.29617,"lon":5.37728,"is_reserved":false,"is_disabled":false,"rental_uris":{"android":"levelo://app?vid=e8d1dd4c-9ff0-4557-8d17-a7e0856997d5","ios":"levelo://app?vid=e8d1dd4c-9ff0-4557-8d17-a7e0856997d5"},"vehicle_type_id":"4","last_reported":1727770385,"current_range_meters":38400,"station_id":"ce4bgi92rcd13ifvqb90","pricing_plan_id":"cebpf4jnsgd1na2vs0mg"},{"bike_id":"265aa75e-515d-4954-b314-88b927de0b6c","system_id":"levelo_inurba_marseille","lat":43.23427,"lon":5.35929,"is_reserved":false,"is_disabled":false,"rental_uris":{"android":"levelo://app?vid=265aa75e-515d-4954-b314-88b927de0b6c","ios":"levelo://app?vid=265aa75e-515d-4954-b314-88b927de0b6c"},"vehicle_type_id":"4","last_reported":1727770385,"current_range_meters":37600,"station_id":"","pricing_plan_id":"cebpf4jnsgd1na2vs0mg"},{"bike_id":"ee4c39f0-bb30-48bd-be92-5e42c02027fc","system_id":"levelo_inurba_marseille","lat":43.2668,"lon":5.38263,"is_reserved":false,"is_disabled":false,"rental_uris":{"android":"levelo://app?vid=ee4c39f0-bb30-48bd-be92-5e42c02027fc","ios":"levelo://app?vid=ee4c39f0-bb30-48bd-be92-5e42c02027fc"},"vehicle_type_id":"4","last_reported":1727770385,"current_range_meters":9200,"station_id":"ce4bhg92rcd13ifvqf90","pricing_plan_id":"cebpf4jnsgd1na2vs0mg"},{"bike_id":"d59bbd63-b5bb-4486-aeb7-5ade47b68ade","system_id":"levelo_inurba_marseille","lat":43.29579,"lon":5.36743,"is_reserved":false,"is_disabled":false,"rental_uris":{"android":"levelo://app?vid=d59bbd63-b5bb-4486-aeb7-5ade47b68ade","ios":"levelo://app?vid=d59bbd63-b5bb-4486-aeb7-5ade47b68ade"},"vehicle_type_id":"4","last_reported":1727770385,"current_range_meters":22000,"station_id":"ce4bgph2rcd13ifvqc2g","pricing_plan_id":"cebpf4jnsgd1na2vs0mg"},{"bike_id":"4ca8fc43-7223-4a26-9506-42cde5d42328","system_id":"levelo_inurba_marseille","lat":43.30474,"lon":5.37901,"is_reserved":false,"is_disabled":false,"rental_uris":{"android":"levelo://app?vid=4ca8fc43-7223-4a26-9506-42cde5d42328","ios":"levelo://app?vid=4ca8fc43-7223-4a26-9506-42cde5d42328"},"vehicle_type_id":"4","last_reported":1727770385,"current_range_meters":38800,"station_id":"ce4bgup2rcd13ifvqcn0","pricing_plan_id":"cebpf4jnsgd1na2vs0mg"},{"bike_id":"1dcdcf5f-3bcb-4a0d-b1b8-2ae7e82479ef","system_id":"levelo_inurba_marseille","lat":43.23159,"lon":5.437,"is_reserved":false,"is_disabled":false,"rental_uris":{"android":"levelo://app?vid=1dcdcf5f-3bcb-4a0d-b1b8-2ae7e82479ef","ios":"levelo://app?vid=1dcdcf5f-3bcb-4a0d-b1b8-2ae7e82479ef"},"vehicle_type_id":"4","last_reported":1727770385,"current_range_meters":19200,"station_id":"ce4bhmp2rcd13ifvqgog","pricing_plan_id":"cebpf4jnsgd1na2vs0mg"},{"bike_id":"98c876c4-b073-4c31-b4b3-a4ca228aaa0d","system_id":"levelo_inurba_marseille","lat":43.2959,"lon":5.40017,"is_reserved":false,"is_disabled":false,"rental_uris":{"android":"levelo://app?vid=98c876c4-b073-4c31-b4b3-a4ca228aaa0d","ios":"levelo://app?vid=98c876c4-b073-4c31-b4b3-a4ca228aaa0d"},"vehicle_type_id":"4","last_reported":1727770385,"current_range_meters":26800,"station_id":"ce4bh312rcd13ifvqdj0","pricing_plan_id":"cebpf4jnsgd1na2vs0mg"},{"bike_id":"61655881-16c9-4131-ab8d-8f63c999894c","system_id":"levelo_inurba_marseille","lat":43.305523,"lon":5.36529,"is_reserved":false,"is_disabled":false,"rental_uris":{"android":"levelo://app?vid=61655881-16c9-4131-ab8d-8f63c999894c","ios":"levelo://app?vid=61655881-16c9-4131-ab8d-8f63c999894c"},"vehicle_type_id":"4","last_reported":1727770385,"current_range_meters":39200,"station_id":"ce4bgs12rcd13ifvqcag","pricing_plan_id":"cebpf4jnsgd1na2vs0mg"},{"bike_id":"43f691ba-780c-433f-bfe4-d50a1a9a1745","system_id":"levelo_inurba_marseille","lat":43.24812,"lon":5.37457,"is_reserved":false,"is_disabled":false,"rental_uris":{"android":"levelo://app?vid=43f691ba-780c-433f-bfe4-d50a1a9a1745","ios":"levelo://app?vid=43f691ba-780c-433f-bfe4-d50a1a9a1745"},"vehicle_type_id":"4","last_reported":1727770385,"current_range_meters":24800,"station_id":"ce4bhgh2rcd13ifvqfb0","pricing_plan_id":"cebpf4jnsgd1na2vs0mg"},{"bike_id":"c61439cb-2752-4ce8-aef8-6b819fb31626","system_id":"levelo_inurba_marseille","lat":43.30541,"lon":5.36723,"is_reserved":false,"is_disabled":false,"rental_uris":{"android":"levelo://app?vid=c61439cb-2752-4ce8-aef8-6b819fb31626","ios":"levelo://app?vid=c61439cb-2752-4ce8-aef8-6b819fb31626"},"vehicle_type_id":"4","last_reported":1727770385,"current_range_meters":20800,"station_id":"ce4bgrp2rcd13ifvqc9g","pricing_plan_id":"cebpf4jnsgd1na2vs0mg"},{"bike_id":"a1e449c9-30e5-460e-ba67-82a7d6db830f","system_id":"levelo_inurba_marseille","lat":43.24174,"lon":5.39739,"is_reserved":false,"is_disabled":false,"rental_uris":{"android":"levelo://app?vid=a1e449c9-30e5-460e-ba67-82a7d6db830f","ios":"levelo://app?vid=a1e449c9-30e5-460e-ba67-82a7d6db830f"},"vehicle_type_id":"4","last_reported":1727770385,"current_range_meters":29600,"station_id":"ce4bhn12rcd13ifvqgpg","pricing_plan_id":"cebpf4jnsgd1na2vs0mg"},{"bike_id":"be30166f-ceee-4e17-bed4-145fa4d704d0","system_id":"levelo_inurba_marseille","lat":43.30962,"lon":5.39048,"is_reserved":false,"is_disabled":false,"rental_uris":{"android":"levelo://app?vid=be30166f-ceee-4e17-bed4-145fa4d704d0","ios":"levelo://app?vid=be30166f-ceee-4e17-bed4-145fa4d704d0"},"vehicle_type_id":"4","last_reported":1727770385,"current_range_meters":24800,"station_id":"ce4bgup2rcd13ifvqco0","pricing_plan_id":"cebpf4jnsgd1na2vs0mg"},{"bike_id":"339388e8-ee6b-4b29-9911-0612c4420461","system_id":"levelo_inurba_marseille","lat":43.337444,"lon":5.374475,"is_reserved":false,"is_disabled":false,"rental_uris":{"android":"levelo://app?vid=339388e8-ee6b-4b29-9911-0612c4420461","ios":"levelo://app?vid=339388e8-ee6b-4b29-9911-0612c4420461"},"vehicle_type_id":"4","last_reported":1727770385,"current_range_meters":37600,"station_id":"","pricing_plan_id":"cebpf4jnsgd1na2vs0mg"},{"bike_id":"040c0dee-6f56-4696-bc60-b436e0337a3a","system_id":"levelo_inurba_marseille","lat":43.30198,"lon":5.36613,"is_reserved":false,"is_disabled":false,"rental_uris":{"android":"levelo://app?vid=040c0dee-6f56-4696-bc60-b436e0337a3a","ios":"levelo://app?vid=040c0dee-6f56-4696-bc60-b436e0337a3a"},"vehicle_type_id":"4","last_reported":1727770385,"current_range_meters":28000,"station_id":"ce4bgrh2rcd13ifvqc8g","pricing_plan_id":"cebpf4jnsgd1na2vs0mg"},{"bike_id":"7fb5d065-2ef8-4492-8b6f-c63a16373982","system_id":"levelo_inurba_marseille","lat":43.3054,"lon":5.36547,"is_reserved":false,"is_disabled":false,"rental_uris":{"android":"levelo://app?vid=7fb5d065-2ef8-4492-8b6f-c63a16373982","ios":"levelo://app?vid=7fb5d065-2ef8-4492-8b6f-c63a16373982"},"vehicle_type_id":"4","last_reported":1727770385,"current_range_meters":39200,"station_id":"ce4bgs12rcd13ifvqcag","pricing_plan_id":"cebpf4jnsgd1na2vs0mg"},{"bike_id":"3ce4f3f4-fd79-494d-bf3c-f16b33b2ac88","system_id":"levelo_inurba_marseille","lat":43.28728,"lon":5.36096,"is_reserved":false,"is_disabled":false,"rental_uris":{"android":"levelo://app?vid=3ce4f3f4-fd79-494d-bf3c-f16b33b2ac88","ios":"levelo://app?vid=3ce4f3f4-fd79-494d-bf3c-f16b33b2ac88"},"vehicle_type_id":"4","last_reported":1727770385,"current_range_meters":38000,"station_id":"cki0cbj6b192h4jlfktg","pricing_plan_id":"cebpf4jnsgd1na2vs0mg"},{"bike_id":"e17d2d3d-fbf7-414a-bb9b-f7b19bbb1986","system_id":"levelo_inurba_marseille","lat":43.27497,"lon":5.42448,"is_reserved":false,"is_disabled":false,"rental_uris":{"android":"levelo://app?vid=e17d2d3d-fbf7-414a-bb9b-f7b19bbb1986","ios":"levelo://app?vid=e17d2d3d-fbf7-414a-bb9b-f7b19bbb1986"},"vehicle_type_id":"4","last_reported":1727770385,"current_range_meters":33200,"station_id":"ce4bhn92rcd13ifvqgrg","pricing_plan_id":"cebpf4jnsgd1na2vs0mg"},{"bike_id":"07788736-eb50-4db6-a2cc-abf82ff5d71c","system_id":"levelo_inurba_marseille","lat":43.26782,"lon":5.39408,"is_reserved":false,"is_disabled":false,"rental_uris":{"android":"levelo://app?vid=07788736-eb50-4db6-a2cc-abf82ff5d71c","ios":"levelo://app?vid=07788736-eb50-4db6-a2cc-abf82ff5d71c"},"vehicle_type_id":"4","last_reported":1727770385,"current_range_meters":27200,"station_id":"ce4bhh12rcd13ifvqfg0","pricing_plan_id":"cebpf4jnsgd1na2vs0mg"},{"bike_id":"f8f20fa6-f1d5-43f8-9c31-1ab159b24e4b","system_id":"levelo_inurba_marseille","lat":43.29623,"lon":5.37161,"is_reserved":false,"is_disabled":false,"rental_uris":{"android":"levelo://app?vid=f8f20fa6-f1d5-43f8-9c31-1ab159b24e4b","ios":"levelo://app?vid=f8f20fa6-f1d5-43f8-9c31-1ab159b24e4b"},"vehicle_type_id":"4","last_reported":1727770385,"current_range_meters":16000,"station_id":"ce4bgnh2rcd13ifvqc0g","pricing_plan_id":"cebpf4jnsgd1na2vs0mg"},{"bike_id":"ce765d71-c182-4dcb-9374-4375e91d28f9","system_id":"levelo_inurba_marseille","lat":43.282318,"lon":5.379117,"is_reserved":false,"is_disabled":false,"rental_uris":{"android":"levelo://app?vid=ce765d71-c182-4dcb-9374-4375e91d28f9","ios":"levelo://app?vid=ce765d71-c182-4dcb-9374-4375e91d28f9"},"vehicle_type_id":"4","last_reported":1727770385,"current_range_meters":29600,"station_id":"ce4bh4p2rcd13ifvqe1g","pricing_plan_id":"cebpf4jnsgd1na2vs0mg"},{"bike_id":"3a646dff-22ac-4a8a-a419-57c191bacf87","system_id":"levelo_inurba_marseille","lat":43.28612,"lon":5.35098,"is_reserved":false,"is_disabled":false,"rental_uris":{"android":"levelo://app?vid=3a646dff-22ac-4a8a-a419-57c191bacf87","ios":"levelo://app?vid=3a646dff-22ac-4a8a-a419-57c191bacf87"},"vehicle_type_id":"4","last_reported":1727770385,"current_range_meters":14000,"station_id":"ce4bhch2rcd13ifvqeug","pricing_plan_id":"cebpf4jnsgd1na2vs0mg"},{"bike_id":"5fc93a89-0253-4e0f-905f-a5855f039bf0","system_id":"levelo_inurba_marseille","lat":43.27496,"lon":5.42449,"is_reserved":false,"is_disabled":false,"rental_uris":{"android":"levelo://app?vid=5fc93a89-0253-4e0f-905f-a5855f039bf0","ios":"levelo://app?vid=5fc93a89-0253-4e0f-905f-a5855f039bf0"},"vehicle_type_id":"4","last_reported":1727770385,"current_range_meters":30800,"station_id":"ce4bhn92rcd13ifvqgrg","pricing_plan_id":"cebpf4jnsgd1na2vs0mg"},{"bike_id":"e5330c06-f489-499e-840e-2f6df58e3e72","system_id":"levelo_inurba_marseille","lat":43.27379,"lon":5.36258,"is_reserved":false,"is_disabled":false,"rental_uris":{"android":"levelo://app?vid=e5330c06-f489-499e-840e-2f6df58e3e72","ios":"levelo://app?vid=e5330c06-f489-499e-840e-2f6df58e3e72"},"vehicle_type_id":"4","last_reported":1727770385,"current_range_meters":31200,"station_id":"ce4bhbh2rcd13ifvqeo0","pricing_plan_id":"cebpf4jnsgd1na2vs0mg"},{"bike_id":"526eb47c-6085-4332-a1b9-c5835546644d","system_id":"levelo_inurba_marseille","lat":43.29707,"lon":5.36608,"is_reserved":false,"is_disabled":false,"rental_uris":{"android":"levelo://app?vid=526eb47c-6085-4332-a1b9-c5835546644d","ios":"levelo://app?vid=526eb47c-6085-4332-a1b9-c5835546644d"},"vehicle_type_id":"4","last_reported":1727770385,"current_range_meters":25200,"station_id":"ce4bgn12rcd13ifvqbt0","pricing_plan_id":"cebpf4jnsgd1na2vs0mg"},{"bike_id":"4b11a6fb-f08a-4099-8391-ac7fb4221887","system_id":"levelo_inurba_marseille","lat":43.31757,"lon":5.39019,"is_reserved":false,"is_disabled":false,"rental_uris":{"android":"levelo://app?vid=4b11a6fb-f08a-4099-8391-ac7fb4221887","ios":"levelo://app?vid=4b11a6fb-f08a-4099-8391-ac7fb4221887"},"vehicle_type_id":"4","last_reported":1727770385,"current_range_meters":32800,"station_id":"ce4bhqp2rcd13ifvqhng","pricing_plan_id":"cebpf4jnsgd1na2vs0mg"},{"bike_id":"5d34d44a-5657-4046-9997-746fa7323ea5","system_id":"levelo_inurba_marseille","lat":43.32554,"lon":5.41424,"is_reserved":false,"is_disabled":false,"rental_uris":{"android":"levelo://app?vid=5d34d44a-5657-4046-9997-746fa7323ea5","ios":"levelo://app?vid=5d34d44a-5657-4046-9997-746fa7323ea5"},"vehicle_type_id":"4","last_reported":1727770385,"current_range_meters":37600,"station_id":"ce4bhq12rcd13ifvqhhg","pricing_plan_id":"cebpf4jnsgd1na2vs0mg"},{"bike_id":"ca5ae2be-2a47-4994-8010-7ccd8bf83efe","system_id":"levelo_inurba_marseille","lat":43.24078,"lon":5.37752,"is_reserved":false,"is_disabled":false,"rental_uris":{"android":"levelo://app?vid=ca5ae2be-2a47-4994-8010-7ccd8bf83efe","ios":"levelo://app?vid=ca5ae2be-2a47-4994-8010-7ccd8bf83efe"},"vehicle_type_id":"4","last_reported":1727770385,"current_range_meters":3600,"station_id":"ce4bhnp2rcd13ifvqgvg","pricing_plan_id":"cebpf4jnsgd1na2vs0mg"},{"bike_id":"4bec41d5-e300-46de-9544-3aee13fac75c","system_id":"levelo_inurba_marseille","lat":43.24073,"lon":5.37763,"is_reserved":false,"is_disabled":false,"rental_uris":{"android":"levelo://app?vid=4bec41d5-e300-46de-9544-3aee13fac75c","ios":"levelo://app?vid=4bec41d5-e300-46de-9544-3aee13fac75c"},"vehicle_type_id":"4","last_reported":1727770385,"current_range_meters":32000,"station_id":"ce4bhnp2rcd13ifvqgvg","pricing_plan_id":"cebpf4jnsgd1na2vs0mg"},{"bike_id":"a85ce21b-5ed7-46cd-a8e6-5ed48ca6beaf","system_id":"levelo_inurba_marseille","lat":43.26783,"lon":5.39422,"is_reserved":false,"is_disabled":false,"rental_uris":{"android":"levelo://app?vid=a85ce21b-5ed7-46cd-a8e6-5ed48ca6beaf","ios":"levelo://app?vid=a85ce21b-5ed7-46cd-a8e6-5ed48ca6beaf"},"vehicle_type_id":"4","last_reported":1727770385,"current_range_meters":38000,"station_id":"ce4bhh12rcd13ifvqfg0","pricing_plan_id":"cebpf4jnsgd1na2vs0mg"},{"bike_id":"73f79ee4-ba2d-4ba8-84c3-1d4893db1329","system_id":"levelo_inurba_marseille","lat":43.304705,"lon":5.379221,"is_reserved":false,"is_disabled":false,"rental_uris":{"android":"levelo://app?vid=73f79ee4-ba2d-4ba8-84c3-1d4893db1329","ios":"levelo://app?vid=73f79ee4-ba2d-4ba8-84c3-1d4893db1329"},"vehicle_type_id":"4","last_reported":1727770385,"current_range_meters":3600,"station_id":"ce4bgup2rcd13ifvqcn0","pricing_plan_id":"cebpf4jnsgd1na2vs0mg"},{"bike_id":"63f10e86-8660-4331-a40e-1476b016bc7b","system_id":"levelo_inurba_marseille","lat":43.23433,"lon":5.35938,"is_reserved":false,"is_disabled":false,"rental_uris":{"android":"levelo://app?vid=63f10e86-8660-4331-a40e-1476b016bc7b","ios":"levelo://app?vid=63f10e86-8660-4331-a40e-1476b016bc7b"},"vehicle_type_id":"4","last_reported":1727770385,"current_range_meters":31200,"station_id":"","pricing_plan_id":"cebpf4jnsgd1na2vs0mg"},{"bike_id":"b1f09baf-efb6-4048-8222-4ed4e16cbf39","system_id":"levelo_inurba_marseille","lat":43.23153,"lon":5.43714,"is_reserved":false,"is_disabled":false,"rental_uris":{"android":"levelo://app?vid=b1f09baf-efb6-4048-8222-4ed4e16cbf39","ios":"levelo://app?vid=b1f09baf-efb6-4048-8222-4ed4e16cbf39"},"vehicle_type_id":"4","last_reported":1727770385,"current_range_meters":9600,"station_id":"ce4bhmp2rcd13ifvqgog","pricing_plan_id":"cebpf4jnsgd1na2vs0mg"},{"bike_id":"b7087556-b0d0-4f22-8a63-a19f5e53adb4","system_id":"levelo_inurba_marseille","lat":43.30151,"lon":5.3808,"is_reserved":false,"is_disabled":false,"rental_uris":{"android":"levelo://app?vid=b7087556-b0d0-4f22-8a63-a19f5e53adb4","ios":"levelo://app?vid=b7087556-b0d0-4f22-8a63-a19f5e53adb4"},"vehicle_type_id":"4","last_reported":1727770385,"current_range_meters":38800,"station_id":"ce4bgjp2rcd13ifvqbh0","pricing_plan_id":"cebpf4jnsgd1na2vs0mg"},{"bike_id":"96efbf29-503c-4bbd-a337-fd7c45f0f409","system_id":"levelo_inurba_marseille","lat":43.27921,"lon":5.39574,"is_reserved":false,"is_disabled":false,"rental_uris":{"android":"levelo://app?vid=96efbf29-503c-4bbd-a337-fd7c45f0f409","ios":"levelo://app?vid=96efbf29-503c-4bbd-a337-fd7c45f0f409"},"vehicle_type_id":"4","last_reported":1727770385,"current_range_meters":29600,"station_id":"ce4bhf92rcd13ifvqf40","pricing_plan_id":"cebpf4jnsgd1na2vs0mg"},{"bike_id":"d0babadb-8879-488e-92f8-d76769a9b0e4","system_id":"levelo_inurba_marseille","lat":43.30549,"lon":5.36529,"is_reserved":false,"is_disabled":false,"rental_uris":{"android":"levelo://app?vid=d0babadb-8879-488e-92f8-d76769a9b0e4","ios":"levelo://app?vid=d0babadb-8879-488e-92f8-d76769a9b0e4"},"vehicle_type_id":"4","last_reported":1727770385,"current_range_meters":24000,"station_id":"ce4bgs12rcd13ifvqcag","pricing_plan_id":"cebpf4jnsgd1na2vs0mg"},{"bike_id":"06be2232-c49c-48cf-b5cd-d8e7b3b40da0","system_id":"levelo_inurba_marseille","lat":43.30144,"lon":5.37416,"is_reserved":false,"is_disabled":false,"rental_uris":{"android":"levelo://app?vid=06be2232-c49c-48cf-b5cd-d8e7b3b40da0","ios":"levelo://app?vid=06be2232-c49c-48cf-b5cd-d8e7b3b40da0"},"vehicle_type_id":"4","last_reported":1727770385,"current_range_meters":28000,"station_id":"ce4bgs92rcd13ifvqcc0","pricing_plan_id":"cebpf4jnsgd1na2vs0mg"},{"bike_id":"39cbb076-b5af-4e50-ad15-63d4ea491119","system_id":"levelo_inurba_marseille","lat":43.26487,"lon":5.39548,"is_reserved":false,"is_disabled":false,"rental_uris":{"android":"levelo://app?vid=39cbb076-b5af-4e50-ad15-63d4ea491119","ios":"levelo://app?vid=39cbb076-b5af-4e50-ad15-63d4ea491119"},"vehicle_type_id":"4","last_reported":1727770385,"current_range_meters":36400,"station_id":"ce4bhi12rcd13ifvqfq0","pricing_plan_id":"cebpf4jnsgd1na2vs0mg"},{"bike_id":"1e37e45a-ffba-4ff3-bbd3-5a2788cc89b2","system_id":"levelo_inurba_marseille","lat":43.33611,"lon":5.41027,"is_reserved":false,"is_disabled":false,"rental_uris":{"android":"levelo://app?vid=1e37e45a-ffba-4ff3-bbd3-5a2788cc89b2","ios":"levelo://app?vid=1e37e45a-ffba-4ff3-bbd3-5a2788cc89b2"},"vehicle_type_id":"4","last_reported":1727770385,"current_range_meters":39200,"station_id":"ce4bhqh2rcd13ifvqhmg","pricing_plan_id":"cebpf4jnsgd1na2vs0mg"},{"bike_id":"cfdb47d3-1507-413a-a1c8-ccda97b2d99f","system_id":"levelo_inurba_marseille","lat":43.31495,"lon":5.37309,"is_reserved":false,"is_disabled":false,"rental_uris":{"android":"levelo://app?vid=cfdb47d3-1507-413a-a1c8-ccda97b2d99f","ios":"levelo://app?vid=cfdb47d3-1507-413a-a1c8-ccda97b2d99f"},"vehicle_type_id":"4","last_reported":1727770385,"current_range_meters":36800,"station_id":"ce4bgt12rcd13ifvqcd0","pricing_plan_id":"cebpf4jnsgd1na2vs0mg"},{"bike_id":"4f7d1635-9c7c-4564-98f8-f043fd5253d5","system_id":"levelo_inurba_marseille","lat":43.31357,"lon":5.3672,"is_reserved":false,"is_disabled":false,"rental_uris":{"android":"levelo://app?vid=4f7d1635-9c7c-4564-98f8-f043fd5253d5","ios":"levelo://app?vid=4f7d1635-9c7c-4564-98f8-f043fd5253d5"},"vehicle_type_id":"4","last_reported":1727770385,"current_range_meters":19600,"station_id":"ce4bgr92rcd13ifvqc6g","pricing_plan_id":"cebpf4jnsgd1na2vs0mg"},{"bike_id":"c3efae4e-1fa8-4c63-9762-e375703c1cb6","system_id":"levelo_inurba_marseille","lat":43.3028,"lon":5.37701,"is_reserved":false,"is_disabled":false,"rental_uris":{"android":"levelo://app?vid=c3efae4e-1fa8-4c63-9762-e375703c1cb6","ios":"levelo://app?vid=c3efae4e-1fa8-4c63-9762-e375703c1cb6"},"vehicle_type_id":"4","last_reported":1727770385,"current_range_meters":20400,"station_id":"ce4bguh2rcd13ifvqcj0","pricing_plan_id":"cebpf4jnsgd1na2vs0mg"},{"bike_id":"d0f65785-8fdf-4cf1-a675-729295860d7a","system_id":"levelo_inurba_marseille","lat":43.25943,"lon":5.40893,"is_reserved":false,"is_disabled":false,"rental_uris":{"android":"levelo://app?vid=d0f65785-8fdf-4cf1-a675-729295860d7a","ios":"levelo://app?vid=d0f65785-8fdf-4cf1-a675-729295860d7a"},"vehicle_type_id":"4","last_reported":1727770385,"current_range_meters":30800,"station_id":"ce4bhm92rcd13ifvqglg","pricing_plan_id":"cebpf4jnsgd1na2vs0mg"},{"bike_id":"dc41bac1-4198-489d-8a30-bcd817c6eedb","system_id":"levelo_inurba_marseille","lat":43.25582,"lon":5.38229,"is_reserved":false,"is_disabled":false,"rental_uris":{"android":"levelo://app?vid=dc41bac1-4198-489d-8a30-bcd817c6eedb","ios":"levelo://app?vid=dc41bac1-4198-489d-8a30-bcd817c6eedb"},"vehicle_type_id":"4","last_reported":1727770385,"current_range_meters":4800,"station_id":"ce4bhih2rcd13ifvqfs0","pricing_plan_id":"cebpf4jnsgd1na2vs0mg"},{"bike_id":"3f6d908a-8341-4f5f-8c83-53d11db78ff2","system_id":"levelo_inurba_marseille","lat":43.23968,"lon":5.36631,"is_reserved":false,"is_disabled":false,"rental_uris":{"android":"levelo://app?vid=3f6d908a-8341-4f5f-8c83-53d11db78ff2","ios":"levelo://app?vid=3f6d908a-8341-4f5f-8c83-53d11db78ff2"},"vehicle_type_id":"4","last_reported":1727770385,"current_range_meters":28800,"station_id":"ce4bhi12rcd13ifvqfp0","pricing_plan_id":"cebpf4jnsgd1na2vs0mg"},{"bike_id":"456ed098-8bb1-4745-bf06-480607717776","system_id":"levelo_inurba_marseille","lat":43.30153,"lon":5.37413,"is_reserved":false,"is_disabled":false,"rental_uris":{"android":"levelo://app?vid=456ed098-8bb1-4745-bf06-480607717776","ios":"levelo://app?vid=456ed098-8bb1-4745-bf06-480607717776"},"vehicle_type_id":"4","last_reported":1727770385,"current_range_meters":28800,"station_id":"ce4bgs92rcd13ifvqcc0","pricing_plan_id":"cebpf4jnsgd1na2vs0mg"},{"bike_id":"b1b702e5-7232-41c3-ac4a-fc1f0dcb2180","system_id":"levelo_inurba_marseille","lat":43.25942,"lon":5.40909,"is_reserved":false,"is_disabled":false,"rental_uris":{"android":"levelo://app?vid=b1b702e5-7232-41c3-ac4a-fc1f0dcb2180","ios":"levelo://app?vid=b1b702e5-7232-41c3-ac4a-fc1f0dcb2180"},"vehicle_type_id":"4","last_reported":1727770385,"current_range_meters":36800,"station_id":"ce4bhm92rcd13ifvqglg","pricing_plan_id":"cebpf4jnsgd1na2vs0mg"},{"bike_id":"b5b12e0c-dde0-4e63-93d3-9622a82bb045","system_id":"levelo_inurba_marseille","lat":43.309519,"lon":5.401523,"is_reserved":false,"is_disabled":false,"rental_uris":{"android":"levelo://app?vid=b5b12e0c-dde0-4e63-93d3-9622a82bb045","ios":"levelo://app?vid=b5b12e0c-dde0-4e63-93d3-9622a82bb045"},"vehicle_type_id":"4","last_reported":1727770385,"current_range_meters":16800,"station_id":"ce4bgvp2rcd13ifvqct0","pricing_plan_id":"cebpf4jnsgd1na2vs0mg"},{"bike_id":"b07279f0-0817-4a51-ba92-c54a03d00832","system_id":"levelo_inurba_marseille","lat":43.26501,"lon":5.39517,"is_reserved":false,"is_disabled":false,"rental_uris":{"android":"levelo://app?vid=b07279f0-0817-4a51-ba92-c54a03d00832","ios":"levelo://app?vid=b07279f0-0817-4a51-ba92-c54a03d00832"},"vehicle_type_id":"4","last_reported":1727770385,"current_range_meters":37600,"station_id":"ce4bhi12rcd13ifvqfq0","pricing_plan_id":"cebpf4jnsgd1na2vs0mg"},{"bike_id":"5b53d9a5-e777-4fe1-858c-c82998bbaafd","system_id":"levelo_inurba_marseille","lat":43.30261,"lon":5.37716,"is_reserved":false,"is_disabled":false,"rental_uris":{"android":"levelo://app?vid=5b53d9a5-e777-4fe1-858c-c82998bbaafd","ios":"levelo://app?vid=5b53d9a5-e777-4fe1-858c-c82998bbaafd"},"vehicle_type_id":"4","last_reported":1727770385,"current_range_meters":32400,"station_id":"ce4bguh2rcd13ifvqcj0","pricing_plan_id":"cebpf4jnsgd1na2vs0mg"},{"bike_id":"59dea60b-0868-493c-8d4e-1efd870d8b0c","system_id":"levelo_inurba_marseille","lat":43.31537,"lon":5.38045,"is_reserved":false,"is_disabled":false,"rental_uris":{"android":"levelo://app?vid=59dea60b-0868-493c-8d4e-1efd870d8b0c","ios":"levelo://app?vid=59dea60b-0868-493c-8d4e-1efd870d8b0c"},"vehicle_type_id":"4","last_reported":1727770385,"current_range_meters":6400,"station_id":"ce4bhsp2rcd13ifvqi50","pricing_plan_id":"cebpf4jnsgd1na2vs0mg"},{"bike_id":"6810347e-438f-4289-8ab8-7fb274f04548","system_id":"levelo_inurba_marseille","lat":43.304673,"lon":5.379063,"is_reserved":false,"is_disabled":false,"rental_uris":{"android":"levelo://app?vid=6810347e-438f-4289-8ab8-7fb274f04548","ios":"levelo://app?vid=6810347e-438f-4289-8ab8-7fb274f04548"},"vehicle_type_id":"4","last_reported":1727770385,"current_range_meters":36800,"station_id":"ce4bgup2rcd13ifvqcn0","pricing_plan_id":"cebpf4jnsgd1na2vs0mg"},{"bike_id":"f9c2d9bc-7621-42ba-b01d-15c91a7785c8","system_id":"levelo_inurba_marseille","lat":43.24082,"lon":5.37763,"is_reserved":false,"is_disabled":false,"rental_uris":{"android":"levelo://app?vid=f9c2d9bc-7621-42ba-b01d-15c91a7785c8","ios":"levelo://app?vid=f9c2d9bc-7621-42ba-b01d-15c91a7785c8"},"vehicle_type_id":"4","last_reported":1727770385,"current_range_meters":34000,"station_id":"ce4bhlp2rcd13ifvqgjg","pricing_plan_id":"cebpf4jnsgd1na2vs0mg"},{"bike_id":"5d220f3e-7476-41f2-ac05-780114b00dd2","system_id":"levelo_inurba_marseille","lat":43.30475,"lon":5.37905,"is_reserved":false,"is_disabled":false,"rental_uris":{"android":"levelo://app?vid=5d220f3e-7476-41f2-ac05-780114b00dd2","ios":"levelo://app?vid=5d220f3e-7476-41f2-ac05-780114b00dd2"},"vehicle_type_id":"4","last_reported":1727770385,"current_range_meters":39200,"station_id":"ce4bgup2rcd13ifvqcn0","pricing_plan_id":"cebpf4jnsgd1na2vs0mg"},{"bike_id":"695c6edc-9d98-4011-8dff-68578c4ede8a","system_id":"levelo_inurba_marseille","lat":43.23148,"lon":5.43734,"is_reserved":false,"is_disabled":false,"rental_uris":{"android":"levelo://app?vid=695c6edc-9d98-4011-8dff-68578c4ede8a","ios":"levelo://app?vid=695c6edc-9d98-4011-8dff-68578c4ede8a"},"vehicle_type_id":"4","last_reported":1727770385,"current_range_meters":20800,"station_id":"ce4bhmp2rcd13ifvqgog","pricing_plan_id":"cebpf4jnsgd1na2vs0mg"},{"bike_id":"1bcc961e-7cfa-4202-a281-0e30c5922ed6","system_id":"levelo_inurba_marseille","lat":43.25865,"lon":5.399,"is_reserved":false,"is_disabled":false,"rental_uris":{"android":"levelo://app?vid=1bcc961e-7cfa-4202-a281-0e30c5922ed6","ios":"levelo://app?vid=1bcc961e-7cfa-4202-a281-0e30c5922ed6"},"vehicle_type_id":"4","last_reported":1727770385,"current_range_meters":36800,"station_id":"ce4bhl92rcd13ifvqghg","pricing_plan_id":"cebpf4jnsgd1na2vs0mg"},{"bike_id":"b5cee419-0bf1-43b6-a625-0f8592325c45","system_id":"levelo_inurba_marseille","lat":43.30271,"lon":5.37688,"is_reserved":false,"is_disabled":false,"rental_uris":{"android":"levelo://app?vid=b5cee419-0bf1-43b6-a625-0f8592325c45","ios":"levelo://app?vid=b5cee419-0bf1-43b6-a625-0f8592325c45"},"vehicle_type_id":"4","last_reported":1727770385,"current_range_meters":35200,"station_id":"ce4bguh2rcd13ifvqcj0","pricing_plan_id":"cebpf4jnsgd1na2vs0mg"},{"bike_id":"f8f518e3-bd48-40f5-801a-4ead88758ee2","system_id":"levelo_inurba_marseille","lat":43.32109,"lon":5.36777,"is_reserved":false,"is_disabled":false,"rental_uris":{"android":"levelo://app?vid=f8f518e3-bd48-40f5-801a-4ead88758ee2","ios":"levelo://app?vid=f8f518e3-bd48-40f5-801a-4ead88758ee2"},"vehicle_type_id":"4","last_reported":1727770385,"current_range_meters":16800,"station_id":"ce4bhrh2rcd13ifvqhug","pricing_plan_id":"cebpf4jnsgd1na2vs0mg"},{"bike_id":"ee6c2aa8-feaf-41aa-9106-42404ebc437e","system_id":"levelo_inurba_marseille","lat":43.28149,"lon":5.42639,"is_reserved":false,"is_disabled":false,"rental_uris":{"android":"levelo://app?vid=ee6c2aa8-feaf-41aa-9106-42404ebc437e","ios":"levelo://app?vid=ee6c2aa8-feaf-41aa-9106-42404ebc437e"},"vehicle_type_id":"4","last_reported":1727770385,"current_range_meters":14400,"station_id":"ce4bhnh2rcd13ifvqgug","pricing_plan_id":"cebpf4jnsgd1na2vs0mg"},{"bike_id":"3c4c5693-eb66-40b4-b04d-6f2442f8f13e","system_id":"levelo_inurba_marseille","lat":43.2707,"lon":5.4228,"is_reserved":false,"is_disabled":false,"rental_uris":{"android":"levelo://app?vid=3c4c5693-eb66-40b4-b04d-6f2442f8f13e","ios":"levelo://app?vid=3c4c5693-eb66-40b4-b04d-6f2442f8f13e"},"vehicle_type_id":"4","last_reported":1727770385,"current_range_meters":2000,"station_id":"ce4bhk92rcd13ifvqgb0","pricing_plan_id":"cebpf4jnsgd1na2vs0mg"},{"bike_id":"99fc8182-8535-4a97-a465-b996b660b037","system_id":"levelo_inurba_marseille","lat":43.30542,"lon":5.36722,"is_reserved":false,"is_disabled":false,"rental_uris":{"android":"levelo://app?vid=99fc8182-8535-4a97-a465-b996b660b037","ios":"levelo://app?vid=99fc8182-8535-4a97-a465-b996b660b037"},"vehicle_type_id":"4","last_reported":1727770385,"current_range_meters":39200,"station_id":"ce4bgrp2rcd13ifvqc9g","pricing_plan_id":"cebpf4jnsgd1na2vs0mg"},{"bike_id":"231a96c3-6108-4cd1-9e26-06ff02ddbc65","system_id":"levelo_inurba_marseille","lat":43.29564,"lon":5.37523,"is_reserved":false,"is_disabled":false,"rental_uris":{"android":"levelo://app?vid=231a96c3-6108-4cd1-9e26-06ff02ddbc65","ios":"levelo://app?vid=231a96c3-6108-4cd1-9e26-06ff02ddbc65"},"vehicle_type_id":"4","last_reported":1727770385,"current_range_meters":33200,"station_id":"ce4bgh92rcd13ifvqb50","pricing_plan_id":"cebpf4jnsgd1na2vs0mg"},{"bike_id":"bd908910-f989-4788-a9b2-a14c625fc930","system_id":"levelo_inurba_marseille","lat":43.29715,"lon":5.37694,"is_reserved":false,"is_disabled":false,"rental_uris":{"android":"levelo://app?vid=bd908910-f989-4788-a9b2-a14c625fc930","ios":"levelo://app?vid=bd908910-f989-4788-a9b2-a14c625fc930"},"vehicle_type_id":"4","last_reported":1727770385,"current_range_meters":38400,"station_id":"ce4bgkh2rcd13ifvqbl0","pricing_plan_id":"cebpf4jnsgd1na2vs0mg"},{"bike_id":"10f5e0ed-ca69-4d92-ac51-4ffe321dd32f","system_id":"levelo_inurba_marseille","lat":43.3091,"lon":5.36854,"is_reserved":false,"is_disabled":false,"rental_uris":{"android":"levelo://app?vid=10f5e0ed-ca69-4d92-ac51-4ffe321dd32f","ios":"levelo://app?vid=10f5e0ed-ca69-4d92-ac51-4ffe321dd32f"},"vehicle_type_id":"4","last_reported":1727770385,"current_range_meters":28800,"station_id":"ce4bgn92rcd13ifvqbvg","pricing_plan_id":"cebpf4jnsgd1na2vs0mg"},{"bike_id":"d9aa2af3-d6e7-45ae-9671-de00650f6fc2","system_id":"levelo_inurba_marseille","lat":43.25,"lon":5.38925,"is_reserved":false,"is_disabled":false,"rental_uris":{"android":"levelo://app?vid=d9aa2af3-d6e7-45ae-9671-de00650f6fc2","ios":"levelo://app?vid=d9aa2af3-d6e7-45ae-9671-de00650f6fc2"},"vehicle_type_id":"4","last_reported":1727770385,"current_range_meters":36400,"station_id":"ce4bhgp2rcd13ifvqfd0","pricing_plan_id":"cebpf4jnsgd1na2vs0mg"},{"bike_id":"8348ce12-ff0e-49a0-833d-0e92ac879452","system_id":"levelo_inurba_marseille","lat":43.30797,"lon":5.43527,"is_reserved":false,"is_disabled":false,"rental_uris":{"android":"levelo://app?vid=8348ce12-ff0e-49a0-833d-0e92ac879452","ios":"levelo://app?vid=8348ce12-ff0e-49a0-833d-0e92ac879452"},"vehicle_type_id":"4","last_reported":1727770385,"current_range_meters":38000,"station_id":"ce4bhph2rcd13ifvqheg","pricing_plan_id":"cebpf4jnsgd1na2vs0mg"},{"bike_id":"8ca666f6-e8cc-4b95-bd67-8f3036c8f282","system_id":"levelo_inurba_marseille","lat":43.29917,"lon":5.37482,"is_reserved":false,"is_disabled":false,"rental_uris":{"android":"levelo://app?vid=8ca666f6-e8cc-4b95-bd67-8f3036c8f282","ios":"levelo://app?vid=8ca666f6-e8cc-4b95-bd67-8f3036c8f282"},"vehicle_type_id":"4","last_reported":1727770385,"current_range_meters":30800,"station_id":"ce4bgjh2rcd13ifvqbg0","pricing_plan_id":"cebpf4jnsgd1na2vs0mg"},{"bike_id":"e6089f1e-de3b-4f07-9c9a-f45c6ba10db0","system_id":"levelo_inurba_marseille","lat":43.30061,"lon":5.4035,"is_reserved":false,"is_disabled":false,"rental_uris":{"android":"levelo://app?vid=e6089f1e-de3b-4f07-9c9a-f45c6ba10db0","ios":"levelo://app?vid=e6089f1e-de3b-4f07-9c9a-f45c6ba10db0"},"vehicle_type_id":"4","last_reported":1727770385,"current_range_meters":2800,"station_id":"","pricing_plan_id":"cebpf4jnsgd1na2vs0mg"},{"bike_id":"889814a6-4283-4166-8b98-28936eb88537","system_id":"levelo_inurba_marseille","lat":43.29802,"lon":5.38107,"is_reserved":false,"is_disabled":false,"rental_uris":{"android":"levelo://app?vid=889814a6-4283-4166-8b98-28936eb88537","ios":"levelo://app?vid=889814a6-4283-4166-8b98-28936eb88537"},"vehicle_type_id":"4","last_reported":1727770385,"current_range_meters":11600,"station_id":"ce4bgip2rcd13ifvqbb0","pricing_plan_id":"cebpf4jnsgd1na2vs0mg"},{"bike_id":"0b33cad6-eea1-4dba-b72e-933de1398403","system_id":"levelo_inurba_marseille","lat":43.25861,"lon":5.39904,"is_reserved":false,"is_disabled":false,"rental_uris":{"android":"levelo://app?vid=0b33cad6-eea1-4dba-b72e-933de1398403","ios":"levelo://app?vid=0b33cad6-eea1-4dba-b72e-933de1398403"},"vehicle_type_id":"4","last_reported":1727770385,"current_range_meters":31200,"station_id":"ce4bhl92rcd13ifvqghg","pricing_plan_id":"cebpf4jnsgd1na2vs0mg"},{"bike_id":"eebea755-b49e-42ec-a242-9888e8747fb5","system_id":"levelo_inurba_marseille","lat":43.30908,"lon":5.36852,"is_reserved":false,"is_disabled":false,"rental_uris":{"android":"levelo://app?vid=eebea755-b49e-42ec-a242-9888e8747fb5","ios":"levelo://app?vid=eebea755-b49e-42ec-a242-9888e8747fb5"},"vehicle_type_id":"4","last_reported":1727770385,"current_range_meters":32800,"station_id":"ce4bgn92rcd13ifvqbvg","pricing_plan_id":"cebpf4jnsgd1na2vs0mg"},{"bike_id":"5b730282-bfab-4d94-8875-6682f72324cb","system_id":"levelo_inurba_marseille","lat":43.2771,"lon":5.37324,"is_reserved":false,"is_disabled":false,"rental_uris":{"android":"levelo://app?vid=5b730282-bfab-4d94-8875-6682f72324cb","ios":"levelo://app?vid=5b730282-bfab-4d94-8875-6682f72324cb"},"vehicle_type_id":"4","last_reported":1727770385,"current_range_meters":26800,"station_id":"","pricing_plan_id":"cebpf4jnsgd1na2vs0mg"},{"bike_id":"8766606e-fbea-4190-a140-a202c1cc3b74","system_id":"levelo_inurba_marseille","lat":43.26678,"lon":5.38272,"is_reserved":false,"is_disabled":false,"rental_uris":{"android":"levelo://app?vid=8766606e-fbea-4190-a140-a202c1cc3b74","ios":"levelo://app?vid=8766606e-fbea-4190-a140-a202c1cc3b74"},"vehicle_type_id":"4","last_reported":1727770385,"current_range_meters":32000,"station_id":"ce4bhg92rcd13ifvqf90","pricing_plan_id":"cebpf4jnsgd1na2vs0mg"},{"bike_id":"1cdcf173-9677-4386-9d4f-a8ba76a52195","system_id":"levelo_inurba_marseille","lat":43.30468,"lon":5.37904,"is_reserved":false,"is_disabled":false,"rental_uris":{"android":"levelo://app?vid=1cdcf173-9677-4386-9d4f-a8ba76a52195","ios":"levelo://app?vid=1cdcf173-9677-4386-9d4f-a8ba76a52195"},"vehicle_type_id":"4","last_reported":1727770385,"current_range_meters":16400,"station_id":"ce4bgup2rcd13ifvqcn0","pricing_plan_id":"cebpf4jnsgd1na2vs0mg"},{"bike_id":"e2973350-a192-4ad7-997e-932573a214dd","system_id":"levelo_inurba_marseille","lat":43.23149,"lon":5.4372,"is_reserved":false,"is_disabled":false,"rental_uris":{"android":"levelo://app?vid=e2973350-a192-4ad7-997e-932573a214dd","ios":"levelo://app?vid=e2973350-a192-4ad7-997e-932573a214dd"},"vehicle_type_id":"4","last_reported":1727770385,"current_range_meters":26800,"station_id":"ce4bhmp2rcd13ifvqgog","pricing_plan_id":"cebpf4jnsgd1na2vs0mg"},{"bike_id":"ac42fb59-2101-49eb-be3a-4c371efbbea3","system_id":"levelo_inurba_marseille","lat":43.30911,"lon":5.36857,"is_reserved":false,"is_disabled":false,"rental_uris":{"android":"levelo://app?vid=ac42fb59-2101-49eb-be3a-4c371efbbea3","ios":"levelo://app?vid=ac42fb59-2101-49eb-be3a-4c371efbbea3"},"vehicle_type_id":"4","last_reported":1727770385,"current_range_meters":17200,"station_id":"ce4bgn92rcd13ifvqbvg","pricing_plan_id":"cebpf4jnsgd1na2vs0mg"},{"bike_id":"dd9933ae-8f37-4c99-9b24-80e76b5bc45a","system_id":"levelo_inurba_marseille","lat":43.29577,"lon":5.37523,"is_reserved":false,"is_disabled":false,"rental_uris":{"android":"levelo://app?vid=dd9933ae-8f37-4c99-9b24-80e76b5bc45a","ios":"levelo://app?vid=dd9933ae-8f37-4c99-9b24-80e76b5bc45a"},"vehicle_type_id":"4","last_reported":1727770385,"current_range_meters":27600,"station_id":"ce4bgh92rcd13ifvqb50","pricing_plan_id":"cebpf4jnsgd1na2vs0mg"},{"bike_id":"d995d233-d2fe-4db9-b69b-baa1337469bf","system_id":"levelo_inurba_marseille","lat":43.26719,"lon":5.40145,"is_reserved":false,"is_disabled":false,"rental_uris":{"android":"levelo://app?vid=d995d233-d2fe-4db9-b69b-baa1337469bf","ios":"levelo://app?vid=d995d233-d2fe-4db9-b69b-baa1337469bf"},"vehicle_type_id":"4","last_reported":1727770385,"current_range_meters":14400,"station_id":"ce4bhm92rcd13ifvqglg","pricing_plan_id":"cebpf4jnsgd1na2vs0mg"},{"bike_id":"1ba7b6fd-e265-4d06-8e20-b26ba84ee730","system_id":"levelo_inurba_marseille","lat":43.23153,"lon":5.43709,"is_reserved":false,"is_disabled":false,"rental_uris":{"android":"levelo://app?vid=1ba7b6fd-e265-4d06-8e20-b26ba84ee730","ios":"levelo://app?vid=1ba7b6fd-e265-4d06-8e20-b26ba84ee730"},"vehicle_type_id":"4","last_reported":1727770385,"current_range_meters":24000,"station_id":"ce4bhmp2rcd13ifvqgog","pricing_plan_id":"cebpf4jnsgd1na2vs0mg"},{"bike_id":"a3c56ffa-a0f7-4f08-840d-ea15a2b4ab7e","system_id":"levelo_inurba_marseille","lat":43.26957,"lon":5.3864,"is_reserved":false,"is_disabled":false,"rental_uris":{"android":"levelo://app?vid=a3c56ffa-a0f7-4f08-840d-ea15a2b4ab7e","ios":"levelo://app?vid=a3c56ffa-a0f7-4f08-840d-ea15a2b4ab7e"},"vehicle_type_id":"4","last_reported":1727770385,"current_range_meters":36400,"station_id":"ce4bhh92rcd13ifvqfh0","pricing_plan_id":"cebpf4jnsgd1na2vs0mg"},{"bike_id":"0945aae7-9082-40d1-a01b-e579bc3782e5","system_id":"levelo_inurba_marseille","lat":43.23156,"lon":5.43708,"is_reserved":false,"is_disabled":false,"rental_uris":{"android":"levelo://app?vid=0945aae7-9082-40d1-a01b-e579bc3782e5","ios":"levelo://app?vid=0945aae7-9082-40d1-a01b-e579bc3782e5"},"vehicle_type_id":"4","last_reported":1727770385,"current_range_meters":11200,"station_id":"ce4bhmp2rcd13ifvqgog","pricing_plan_id":"cebpf4jnsgd1na2vs0mg"},{"bike_id":"c8bac657-f5c7-4ec3-b154-cd3dc8f7f0cb","system_id":"levelo_inurba_marseille","lat":43.306,"lon":5.37228,"is_reserved":false,"is_disabled":false,"rental_uris":{"android":"levelo://app?vid=c8bac657-f5c7-4ec3-b154-cd3dc8f7f0cb","ios":"levelo://app?vid=c8bac657-f5c7-4ec3-b154-cd3dc8f7f0cb"},"vehicle_type_id":"4","last_reported":1727770385,"current_range_meters":39200,"station_id":"ce4bgqh2rcd13ifvqc4g","pricing_plan_id":"cebpf4jnsgd1na2vs0mg"},{"bike_id":"3c4d762d-4938-4850-977d-004ac0ad79ce","system_id":"levelo_inurba_marseille","lat":43.28981,"lon":5.37843,"is_reserved":false,"is_disabled":false,"rental_uris":{"android":"levelo://app?vid=3c4d762d-4938-4850-977d-004ac0ad79ce","ios":"levelo://app?vid=3c4d762d-4938-4850-977d-004ac0ad79ce"},"vehicle_type_id":"4","last_reported":1727770385,"current_range_meters":12800,"station_id":"ce4bh9p2rcd13ifvqed0","pricing_plan_id":"cebpf4jnsgd1na2vs0mg"},{"bike_id":"619ac23a-009d-4c9f-8bc7-bd0e502cbb34","system_id":"levelo_inurba_marseille","lat":43.3091,"lon":5.36845,"is_reserved":false,"is_disabled":false,"rental_uris":{"android":"levelo://app?vid=619ac23a-009d-4c9f-8bc7-bd0e502cbb34","ios":"levelo://app?vid=619ac23a-009d-4c9f-8bc7-bd0e502cbb34"},"vehicle_type_id":"4","last_reported":1727770385,"current_range_meters":34000,"station_id":"ce4bgn92rcd13ifvqbvg","pricing_plan_id":"cebpf4jnsgd1na2vs0mg"},{"bike_id":"fcad1394-88f4-4f6d-962a-33c383ee7e38","system_id":"levelo_inurba_marseille","lat":43.30476,"lon":5.3791,"is_reserved":false,"is_disabled":false,"rental_uris":{"android":"levelo://app?vid=fcad1394-88f4-4f6d-962a-33c383ee7e38","ios":"levelo://app?vid=fcad1394-88f4-4f6d-962a-33c383ee7e38"},"vehicle_type_id":"4","last_reported":1727770385,"current_range_meters":31200,"station_id":"ce4bgup2rcd13ifvqcn0","pricing_plan_id":"cebpf4jnsgd1na2vs0mg"},{"bike_id":"a8b6040a-6e13-40b9-9a75-8c0825303e6e","system_id":"levelo_inurba_marseille","lat":43.25872,"lon":5.39892,"is_reserved":false,"is_disabled":false,"rental_uris":{"android":"levelo://app?vid=a8b6040a-6e13-40b9-9a75-8c0825303e6e","ios":"levelo://app?vid=a8b6040a-6e13-40b9-9a75-8c0825303e6e"},"vehicle_type_id":"4","last_reported":1727770385,"current_range_meters":24400,"station_id":"ce4bhl92rcd13ifvqghg","pricing_plan_id":"cebpf4jnsgd1na2vs0mg"},{"bike_id":"e070bd45-288a-4622-b5c4-f3cb962d3327","system_id":"levelo_inurba_marseille","lat":43.3054,"lon":5.36706,"is_reserved":false,"is_disabled":false,"rental_uris":{"android":"levelo://app?vid=e070bd45-288a-4622-b5c4-f3cb962d3327","ios":"levelo://app?vid=e070bd45-288a-4622-b5c4-f3cb962d3327"},"vehicle_type_id":"4","last_reported":1727770385,"current_range_meters":25600,"station_id":"ce4bgrp2rcd13ifvqc9g","pricing_plan_id":"cebpf4jnsgd1na2vs0mg"},{"bike_id":"b652f429-09b8-4697-9c1b-3b9adc3c55d8","system_id":"levelo_inurba_marseille","lat":43.26871,"lon":5.39135,"is_reserved":false,"is_disabled":false,"rental_uris":{"android":"levelo://app?vid=b652f429-09b8-4697-9c1b-3b9adc3c55d8","ios":"levelo://app?vid=b652f429-09b8-4697-9c1b-3b9adc3c55d8"},"vehicle_type_id":"4","last_reported":1727770385,"current_range_meters":8400,"station_id":"","pricing_plan_id":"cebpf4jnsgd1na2vs0mg"},{"bike_id":"47f1c0ba-602b-4386-9133-d00a7611575a","system_id":"levelo_inurba_marseille","lat":43.27494,"lon":5.42463,"is_reserved":false,"is_disabled":false,"rental_uris":{"android":"levelo://app?vid=47f1c0ba-602b-4386-9133-d00a7611575a","ios":"levelo://app?vid=47f1c0ba-602b-4386-9133-d00a7611575a"},"vehicle_type_id":"4","last_reported":1727770385,"current_range_meters":14800,"station_id":"ce4bhn92rcd13ifvqgrg","pricing_plan_id":"cebpf4jnsgd1na2vs0mg"},{"bike_id":"63948fa4-ae6d-4866-abff-02440e87cd47","system_id":"levelo_inurba_marseille","lat":43.24388,"lon":5.37044,"is_reserved":false,"is_disabled":false,"rental_uris":{"android":"levelo://app?vid=63948fa4-ae6d-4866-abff-02440e87cd47","ios":"levelo://app?vid=63948fa4-ae6d-4866-abff-02440e87cd47"},"vehicle_type_id":"4","last_reported":1727770385,"current_range_meters":36800,"station_id":"ce4bhhh2rcd13ifvqfk0","pricing_plan_id":"cebpf4jnsgd1na2vs0mg"},{"bike_id":"786fac57-4b3b-44df-9f37-db347f577860","system_id":"levelo_inurba_marseille","lat":43.26782,"lon":5.39422,"is_reserved":false,"is_disabled":false,"rental_uris":{"android":"levelo://app?vid=786fac57-4b3b-44df-9f37-db347f577860","ios":"levelo://app?vid=786fac57-4b3b-44df-9f37-db347f577860"},"vehicle_type_id":"4","last_reported":1727770385,"current_range_meters":38000,"station_id":"ce4bhh12rcd13ifvqfg0","pricing_plan_id":"cebpf4jnsgd1na2vs0mg"},{"bike_id":"3a8740f6-3fc7-44b8-a8ce-416b6ef94361","system_id":"levelo_inurba_marseille","lat":43.33609,"lon":5.41038,"is_reserved":false,"is_disabled":false,"rental_uris":{"android":"levelo://app?vid=3a8740f6-3fc7-44b8-a8ce-416b6ef94361","ios":"levelo://app?vid=3a8740f6-3fc7-44b8-a8ce-416b6ef94361"},"vehicle_type_id":"4","last_reported":1727770385,"current_range_meters":24800,"station_id":"ce4bhqh2rcd13ifvqhmg","pricing_plan_id":"cebpf4jnsgd1na2vs0mg"},{"bike_id":"0d20297a-9907-45ed-b183-139f5aef58db","system_id":"levelo_inurba_marseille","lat":43.27489,"lon":5.42462,"is_reserved":false,"is_disabled":false,"rental_uris":{"android":"levelo://app?vid=0d20297a-9907-45ed-b183-139f5aef58db","ios":"levelo://app?vid=0d20297a-9907-45ed-b183-139f5aef58db"},"vehicle_type_id":"4","last_reported":1727770385,"current_range_meters":8800,"station_id":"ce4bhn92rcd13ifvqgrg","pricing_plan_id":"cebpf4jnsgd1na2vs0mg"},{"bike_id":"7a8b241f-57ad-4336-b3e1-9209d3fac587","system_id":"levelo_inurba_marseille","lat":43.31352,"lon":5.36727,"is_reserved":false,"is_disabled":false,"rental_uris":{"android":"levelo://app?vid=7a8b241f-57ad-4336-b3e1-9209d3fac587","ios":"levelo://app?vid=7a8b241f-57ad-4336-b3e1-9209d3fac587"},"vehicle_type_id":"4","last_reported":1727770385,"current_range_meters":27200,"station_id":"ce4bgr92rcd13ifvqc6g","pricing_plan_id":"cebpf4jnsgd1na2vs0mg"},{"bike_id":"45596cd0-68da-4d16-ba39-f76634cdcaf7","system_id":"levelo_inurba_marseille","lat":43.29884,"lon":5.38895,"is_reserved":false,"is_disabled":false,"rental_uris":{"android":"levelo://app?vid=45596cd0-68da-4d16-ba39-f76634cdcaf7","ios":"levelo://app?vid=45596cd0-68da-4d16-ba39-f76634cdcaf7"},"vehicle_type_id":"4","last_reported":1727770385,"current_range_meters":18000,"station_id":"ce4bh392rcd13ifvqdl0","pricing_plan_id":"cebpf4jnsgd1na2vs0mg"},{"bike_id":"c68752ac-cd24-4d62-b01d-3b238d6d51d4","system_id":"levelo_inurba_marseille","lat":43.34147,"lon":5.40899,"is_reserved":false,"is_disabled":false,"rental_uris":{"android":"levelo://app?vid=c68752ac-cd24-4d62-b01d-3b238d6d51d4","ios":"levelo://app?vid=c68752ac-cd24-4d62-b01d-3b238d6d51d4"},"vehicle_type_id":"4","last_reported":1727770385,"current_range_meters":38800,"station_id":"ce4bhqh2rcd13ifvqhlg","pricing_plan_id":"cebpf4jnsgd1na2vs0mg"},{"bike_id":"97167045-c5e0-40fc-9c31-a890a291a145","system_id":"levelo_inurba_marseille","lat":43.337444,"lon":5.374475,"is_reserved":false,"is_disabled":false,"rental_uris":{"android":"levelo://app?vid=97167045-c5e0-40fc-9c31-a890a291a145","ios":"levelo://app?vid=97167045-c5e0-40fc-9c31-a890a291a145"},"vehicle_type_id":"4","last_reported":1727770385,"current_range_meters":34000,"station_id":"","pricing_plan_id":"cebpf4jnsgd1na2vs0mg"},{"bike_id":"c5b39a6b-6a7c-4b9d-941f-0f6180cbaab5","system_id":"levelo_inurba_marseille","lat":43.295021,"lon":5.375102,"is_reserved":false,"is_disabled":false,"rental_uris":{"android":"levelo://app?vid=c5b39a6b-6a7c-4b9d-941f-0f6180cbaab5","ios":"levelo://app?vid=c5b39a6b-6a7c-4b9d-941f-0f6180cbaab5"},"vehicle_type_id":"4","last_reported":1727770385,"current_range_meters":16000,"station_id":"ce4bgkp2rcd13ifvqbmg","pricing_plan_id":"cebpf4jnsgd1na2vs0mg"},{"bike_id":"9b157023-570a-400f-bf84-92b851e2bda2","system_id":"levelo_inurba_marseille","lat":43.24073,"lon":5.37763,"is_reserved":false,"is_disabled":false,"rental_uris":{"android":"levelo://app?vid=9b157023-570a-400f-bf84-92b851e2bda2","ios":"levelo://app?vid=9b157023-570a-400f-bf84-92b851e2bda2"},"vehicle_type_id":"4","last_reported":1727770385,"current_range_meters":24000,"station_id":"ce4bhnp2rcd13ifvqgvg","pricing_plan_id":"cebpf4jnsgd1na2vs0mg"},{"bike_id":"4bfc1303-601c-4936-a0e3-acccc22cfaf4","system_id":"levelo_inurba_marseille","lat":43.25582,"lon":5.38239,"is_reserved":false,"is_disabled":false,"rental_uris":{"android":"levelo://app?vid=4bfc1303-601c-4936-a0e3-acccc22cfaf4","ios":"levelo://app?vid=4bfc1303-601c-4936-a0e3-acccc22cfaf4"},"vehicle_type_id":"4","last_reported":1727770385,"current_range_meters":3200,"station_id":"ce4bhih2rcd13ifvqfs0","pricing_plan_id":"cebpf4jnsgd1na2vs0mg"},{"bike_id":"aa64f582-e2ef-4c95-823e-399ea34c7c0e","system_id":"levelo_inurba_marseille","lat":43.29585,"lon":5.3674,"is_reserved":false,"is_disabled":false,"rental_uris":{"android":"levelo://app?vid=aa64f582-e2ef-4c95-823e-399ea34c7c0e","ios":"levelo://app?vid=aa64f582-e2ef-4c95-823e-399ea34c7c0e"},"vehicle_type_id":"4","last_reported":1727770385,"current_range_meters":24400,"station_id":"ce4bgph2rcd13ifvqc2g","pricing_plan_id":"cebpf4jnsgd1na2vs0mg"},{"bike_id":"ca982a33-bcc1-41d9-8388-8671af91acb9","system_id":"levelo_inurba_marseille","lat":43.2407,"lon":5.37757,"is_reserved":false,"is_disabled":false,"rental_uris":{"android":"levelo://app?vid=ca982a33-bcc1-41d9-8388-8671af91acb9","ios":"levelo://app?vid=ca982a33-bcc1-41d9-8388-8671af91acb9"},"vehicle_type_id":"4","last_reported":1727770385,"current_range_meters":38400,"station_id":"ce4bhnp2rcd13ifvqgvg","pricing_plan_id":"cebpf4jnsgd1na2vs0mg"},{"bike_id":"b73f3c2f-dfce-4524-925a-2f1fc8439295","system_id":"levelo_inurba_marseille","lat":43.30558,"lon":5.36552,"is_reserved":false,"is_disabled":false,"rental_uris":{"android":"levelo://app?vid=b73f3c2f-dfce-4524-925a-2f1fc8439295","ios":"levelo://app?vid=b73f3c2f-dfce-4524-925a-2f1fc8439295"},"vehicle_type_id":"4","last_reported":1727770385,"current_range_meters":7200,"station_id":"ce4bgs12rcd13ifvqcag","pricing_plan_id":"cebpf4jnsgd1na2vs0mg"},{"bike_id":"9ffad66a-1303-4159-93ec-b077cb1d0c58","system_id":"levelo_inurba_marseille","lat":43.30151,"lon":5.38081,"is_reserved":false,"is_disabled":false,"rental_uris":{"android":"levelo://app?vid=9ffad66a-1303-4159-93ec-b077cb1d0c58","ios":"levelo://app?vid=9ffad66a-1303-4159-93ec-b077cb1d0c58"},"vehicle_type_id":"4","last_reported":1727770385,"current_range_meters":25200,"station_id":"ce4bgjp2rcd13ifvqbh0","pricing_plan_id":"cebpf4jnsgd1na2vs0mg"},{"bike_id":"c69c85db-83ef-43a1-bbfa-bd5f738fbddb","system_id":"levelo_inurba_marseille","lat":43.27207,"lon":5.39087,"is_reserved":false,"is_disabled":false,"rental_uris":{"android":"levelo://app?vid=c69c85db-83ef-43a1-bbfa-bd5f738fbddb","ios":"levelo://app?vid=c69c85db-83ef-43a1-bbfa-bd5f738fbddb"},"vehicle_type_id":"4","last_reported":1727770385,"current_range_meters":8000,"station_id":"ce4bhg12rcd13ifvqf80","pricing_plan_id":"cebpf4jnsgd1na2vs0mg"},{"bike_id":"40a159ae-098b-405e-94d9-02ac0c192c08","system_id":"levelo_inurba_marseille","lat":43.27307,"lon":5.391,"is_reserved":false,"is_disabled":false,"rental_uris":{"android":"levelo://app?vid=40a159ae-098b-405e-94d9-02ac0c192c08","ios":"levelo://app?vid=40a159ae-098b-405e-94d9-02ac0c192c08"},"vehicle_type_id":"4","last_reported":1727770385,"current_range_meters":38800,"station_id":"ce4bhgp2rcd13ifvqfe0","pricing_plan_id":"cebpf4jnsgd1na2vs0mg"},{"bike_id":"5a51fd24-efa8-4c53-8665-7df13193c044","system_id":"levelo_inurba_marseille","lat":43.29276,"lon":5.40116,"is_reserved":false,"is_disabled":false,"rental_uris":{"android":"levelo://app?vid=5a51fd24-efa8-4c53-8665-7df13193c044","ios":"levelo://app?vid=5a51fd24-efa8-4c53-8665-7df13193c044"},"vehicle_type_id":"4","last_reported":1727770385,"current_range_meters":9600,"station_id":"ce4bh312rcd13ifvqdk0","pricing_plan_id":"cebpf4jnsgd1na2vs0mg"},{"bike_id":"d83dbb0e-916b-4490-b545-21e2373d0d3b","system_id":"levelo_inurba_marseille","lat":43.27378,"lon":5.3626,"is_reserved":false,"is_disabled":false,"rental_uris":{"android":"levelo://app?vid=d83dbb0e-916b-4490-b545-21e2373d0d3b","ios":"levelo://app?vid=d83dbb0e-916b-4490-b545-21e2373d0d3b"},"vehicle_type_id":"4","last_reported":1727770385,"current_range_meters":22800,"station_id":"ce4bhbh2rcd13ifvqeo0","pricing_plan_id":"cebpf4jnsgd1na2vs0mg"},{"bike_id":"e6c88988-c5ee-496f-bf87-a1d9852b71db","system_id":"levelo_inurba_marseille","lat":43.30909,"lon":5.36853,"is_reserved":false,"is_disabled":false,"rental_uris":{"android":"levelo://app?vid=e6c88988-c5ee-496f-bf87-a1d9852b71db","ios":"levelo://app?vid=e6c88988-c5ee-496f-bf87-a1d9852b71db"},"vehicle_type_id":"4","last_reported":1727770385,"current_range_meters":28000,"station_id":"ce4bgn92rcd13ifvqbvg","pricing_plan_id":"cebpf4jnsgd1na2vs0mg"},{"bike_id":"bb0db29b-307e-4e3c-9fb8-089947d27aae","system_id":"levelo_inurba_marseille","lat":43.3054,"lon":5.3654,"is_reserved":false,"is_disabled":false,"rental_uris":{"android":"levelo://app?vid=bb0db29b-307e-4e3c-9fb8-089947d27aae","ios":"levelo://app?vid=bb0db29b-307e-4e3c-9fb8-089947d27aae"},"vehicle_type_id":"4","last_reported":1727770385,"current_range_meters":35600,"station_id":"ce4bgs12rcd13ifvqcag","pricing_plan_id":"cebpf4jnsgd1na2vs0mg"},{"bike_id":"6046accf-c436-472b-b605-a5dc98654bbf","system_id":"levelo_inurba_marseille","lat":43.30946,"lon":5.39023,"is_reserved":false,"is_disabled":false,"rental_uris":{"android":"levelo://app?vid=6046accf-c436-472b-b605-a5dc98654bbf","ios":"levelo://app?vid=6046accf-c436-472b-b605-a5dc98654bbf"},"vehicle_type_id":"4","last_reported":1727770385,"current_range_meters":22800,"station_id":"ce4bgup2rcd13ifvqco0","pricing_plan_id":"cebpf4jnsgd1na2vs0mg"},{"bike_id":"17346577-f0d6-4544-b4b0-1fd855e7857c","system_id":"levelo_inurba_marseille","lat":43.27905,"lon":5.38023,"is_reserved":false,"is_disabled":false,"rental_uris":{"android":"levelo://app?vid=17346577-f0d6-4544-b4b0-1fd855e7857c","ios":"levelo://app?vid=17346577-f0d6-4544-b4b0-1fd855e7857c"},"vehicle_type_id":"4","last_reported":1727770385,"current_range_meters":34800,"station_id":"ce4bhf92rcd13ifvqf50","pricing_plan_id":"cebpf4jnsgd1na2vs0mg"},{"bike_id":"a248b654-bd34-480a-a07d-a25ad1cea206","system_id":"levelo_inurba_marseille","lat":43.25938,"lon":5.40899,"is_reserved":false,"is_disabled":false,"rental_uris":{"android":"levelo://app?vid=a248b654-bd34-480a-a07d-a25ad1cea206","ios":"levelo://app?vid=a248b654-bd34-480a-a07d-a25ad1cea206"},"vehicle_type_id":"4","last_reported":1727770385,"current_range_meters":7200,"station_id":"ce4bhm92rcd13ifvqglg","pricing_plan_id":"cebpf4jnsgd1na2vs0mg"},{"bike_id":"5153d2f0-650d-4dbc-805b-a3e38d4759c4","system_id":"levelo_inurba_marseille","lat":43.30466,"lon":5.37905,"is_reserved":false,"is_disabled":false,"rental_uris":{"android":"levelo://app?vid=5153d2f0-650d-4dbc-805b-a3e38d4759c4","ios":"levelo://app?vid=5153d2f0-650d-4dbc-805b-a3e38d4759c4"},"vehicle_type_id":"4","last_reported":1727770385,"current_range_meters":36800,"station_id":"ce4bgup2rcd13ifvqcn0","pricing_plan_id":"cebpf4jnsgd1na2vs0mg"},{"bike_id":"bbfa1072-43cd-4cc7-bf78-556e11e70d56","system_id":"levelo_inurba_marseille","lat":43.26785,"lon":5.39425,"is_reserved":false,"is_disabled":false,"rental_uris":{"android":"levelo://app?vid=bbfa1072-43cd-4cc7-bf78-556e11e70d56","ios":"levelo://app?vid=bbfa1072-43cd-4cc7-bf78-556e11e70d56"},"vehicle_type_id":"4","last_reported":1727770385,"current_range_meters":38400,"station_id":"ce4bhh12rcd13ifvqfg0","pricing_plan_id":"cebpf4jnsgd1na2vs0mg"},{"bike_id":"2ae518ed-a511-4607-b96a-760b6b3f2b7b","system_id":"levelo_inurba_marseille","lat":43.28157,"lon":5.4264,"is_reserved":false,"is_disabled":false,"rental_uris":{"android":"levelo://app?vid=2ae518ed-a511-4607-b96a-760b6b3f2b7b","ios":"levelo://app?vid=2ae518ed-a511-4607-b96a-760b6b3f2b7b"},"vehicle_type_id":"4","last_reported":1727770385,"current_range_meters":13600,"station_id":"ce4bhnh2rcd13ifvqgug","pricing_plan_id":"cebpf4jnsgd1na2vs0mg"},{"bike_id":"d88a8e39-d11a-4617-be1c-3380f477edbf","system_id":"levelo_inurba_marseille","lat":43.24076,"lon":5.37763,"is_reserved":false,"is_disabled":false,"rental_uris":{"android":"levelo://app?vid=d88a8e39-d11a-4617-be1c-3380f477edbf","ios":"levelo://app?vid=d88a8e39-d11a-4617-be1c-3380f477edbf"},"vehicle_type_id":"4","last_reported":1727770385,"current_range_meters":2000,"station_id":"ce4bhnp2rcd13ifvqgvg","pricing_plan_id":"cebpf4jnsgd1na2vs0mg"},{"bike_id":"38b3fbba-7aa5-4fad-94a6-00f40ec984c3","system_id":"levelo_inurba_marseille","lat":43.30912,"lon":5.36845,"is_reserved":false,"is_disabled":false,"rental_uris":{"android":"levelo://app?vid=38b3fbba-7aa5-4fad-94a6-00f40ec984c3","ios":"levelo://app?vid=38b3fbba-7aa5-4fad-94a6-00f40ec984c3"},"vehicle_type_id":"4","last_reported":1727770385,"current_range_meters":36800,"station_id":"ce4bgn92rcd13ifvqbvg","pricing_plan_id":"cebpf4jnsgd1na2vs0mg"},{"bike_id":"1455c359-4044-473b-96a3-a0abee8cb49a","system_id":"levelo_inurba_marseille","lat":43.295797,"lon":5.367451,"is_reserved":false,"is_disabled":false,"rental_uris":{"android":"levelo://app?vid=1455c359-4044-473b-96a3-a0abee8cb49a","ios":"levelo://app?vid=1455c359-4044-473b-96a3-a0abee8cb49a"},"vehicle_type_id":"4","last_reported":1727770385,"current_range_meters":24400,"station_id":"ce4bgph2rcd13ifvqc2g","pricing_plan_id":"cebpf4jnsgd1na2vs0mg"},{"bike_id":"7364cdc0-7df5-476e-a18e-e527029a5bad","system_id":"levelo_inurba_marseille","lat":43.28944,"lon":5.36372,"is_reserved":false,"is_disabled":false,"rental_uris":{"android":"levelo://app?vid=7364cdc0-7df5-476e-a18e-e527029a5bad","ios":"levelo://app?vid=7364cdc0-7df5-476e-a18e-e527029a5bad"},"vehicle_type_id":"4","last_reported":1727770385,"current_range_meters":27600,"station_id":"ce4bhc92rcd13ifvqetg","pricing_plan_id":"cebpf4jnsgd1na2vs0mg"},{"bike_id":"69103f01-1d57-4c2f-844a-e110ceb2d473","system_id":"levelo_inurba_marseille","lat":43.29625,"lon":5.37153,"is_reserved":false,"is_disabled":false,"rental_uris":{"android":"levelo://app?vid=69103f01-1d57-4c2f-844a-e110ceb2d473","ios":"levelo://app?vid=69103f01-1d57-4c2f-844a-e110ceb2d473"},"vehicle_type_id":"4","last_reported":1727770385,"current_range_meters":36400,"station_id":"ce4bgnh2rcd13ifvqc0g","pricing_plan_id":"cebpf4jnsgd1na2vs0mg"},{"bike_id":"c10b955e-d816-4c19-b03c-5098252291ba","system_id":"levelo_inurba_marseille","lat":43.24073,"lon":5.37764,"is_reserved":false,"is_disabled":false,"rental_uris":{"android":"levelo://app?vid=c10b955e-d816-4c19-b03c-5098252291ba","ios":"levelo://app?vid=c10b955e-d816-4c19-b03c-5098252291ba"},"vehicle_type_id":"4","last_reported":1727770385,"current_range_meters":37600,"station_id":"ce4bhnp2rcd13ifvqgvg","pricing_plan_id":"cebpf4jnsgd1na2vs0mg"},{"bike_id":"df3246d2-826f-45f2-868b-0d23ff1782d9","system_id":"levelo_inurba_marseille","lat":43.32536,"lon":5.41458,"is_reserved":false,"is_disabled":false,"rental_uris":{"android":"levelo://app?vid=df3246d2-826f-45f2-868b-0d23ff1782d9","ios":"levelo://app?vid=df3246d2-826f-45f2-868b-0d23ff1782d9"},"vehicle_type_id":"4","last_reported":1727770385,"current_range_meters":36800,"station_id":"ce4bhq12rcd13ifvqhhg","pricing_plan_id":"cebpf4jnsgd1na2vs0mg"},{"bike_id":"646b4c85-8c7e-4715-856c-f450496d3f81","system_id":"levelo_inurba_marseille","lat":43.25933,"lon":5.40908,"is_reserved":false,"is_disabled":false,"rental_uris":{"android":"levelo://app?vid=646b4c85-8c7e-4715-856c-f450496d3f81","ios":"levelo://app?vid=646b4c85-8c7e-4715-856c-f450496d3f81"},"vehicle_type_id":"4","last_reported":1727770385,"current_range_meters":28000,"station_id":"ce4bhm92rcd13ifvqglg","pricing_plan_id":"cebpf4jnsgd1na2vs0mg"},{"bike_id":"73559937-4209-41eb-80d8-d0a8dc15a87f","system_id":"levelo_inurba_marseille","lat":43.284912,"lon":5.390712,"is_reserved":false,"is_disabled":false,"rental_uris":{"android":"levelo://app?vid=73559937-4209-41eb-80d8-d0a8dc15a87f","ios":"levelo://app?vid=73559937-4209-41eb-80d8-d0a8dc15a87f"},"vehicle_type_id":"4","last_reported":1727770385,"current_range_meters":3200,"station_id":"ce4bhoh2rcd13ifvqh5g","pricing_plan_id":"cebpf4jnsgd1na2vs0mg"},{"bike_id":"d7ce7a5c-b08f-49b4-8b23-521e5b122803","system_id":"levelo_inurba_marseille","lat":43.23146,"lon":5.43709,"is_reserved":false,"is_disabled":false,"rental_uris":{"android":"levelo://app?vid=d7ce7a5c-b08f-49b4-8b23-521e5b122803","ios":"levelo://app?vid=d7ce7a5c-b08f-49b4-8b23-521e5b122803"},"vehicle_type_id":"4","last_reported":1727770385,"current_range_meters":18000,"station_id":"ce4bhmp2rcd13ifvqgog","pricing_plan_id":"cebpf4jnsgd1na2vs0mg"},{"bike_id":"c0384585-e5ae-4a77-95de-1c9fe10c6460","system_id":"levelo_inurba_marseille","lat":43.25939,"lon":5.40908,"is_reserved":false,"is_disabled":false,"rental_uris":{"android":"levelo://app?vid=c0384585-e5ae-4a77-95de-1c9fe10c6460","ios":"levelo://app?vid=c0384585-e5ae-4a77-95de-1c9fe10c6460"},"vehicle_type_id":"4","last_reported":1727770385,"current_range_meters":16800,"station_id":"ce4bhm92rcd13ifvqglg","pricing_plan_id":"cebpf4jnsgd1na2vs0mg"},{"bike_id":"07b5a74b-d824-4607-9a9d-31a616d5b59d","system_id":"levelo_inurba_marseille","lat":43.33774,"lon":5.37476,"is_reserved":false,"is_disabled":false,"rental_uris":{"android":"levelo://app?vid=07b5a74b-d824-4607-9a9d-31a616d5b59d","ios":"levelo://app?vid=07b5a74b-d824-4607-9a9d-31a616d5b59d"},"vehicle_type_id":"4","last_reported":1727770385,"current_range_meters":38800,"station_id":"","pricing_plan_id":"cebpf4jnsgd1na2vs0mg"},{"bike_id":"cdf40b8d-72c3-4a45-958e-305bcf956c69","system_id":"levelo_inurba_marseille","lat":43.31402,"lon":5.3675,"is_reserved":false,"is_disabled":false,"rental_uris":{"android":"levelo://app?vid=cdf40b8d-72c3-4a45-958e-305bcf956c69","ios":"levelo://app?vid=cdf40b8d-72c3-4a45-958e-305bcf956c69"},"vehicle_type_id":"4","last_reported":1727770385,"current_range_meters":8800,"station_id":"ce4bgr92rcd13ifvqc6g","pricing_plan_id":"cebpf4jnsgd1na2vs0mg"},{"bike_id":"0286604c-ebcd-4b76-ab34-035b2515523e","system_id":"levelo_inurba_marseille","lat":43.30474,"lon":5.37895,"is_reserved":false,"is_disabled":false,"rental_uris":{"android":"levelo://app?vid=0286604c-ebcd-4b76-ab34-035b2515523e","ios":"levelo://app?vid=0286604c-ebcd-4b76-ab34-035b2515523e"},"vehicle_type_id":"4","last_reported":1727770385,"current_range_meters":34000,"station_id":"ce4bgup2rcd13ifvqcn0","pricing_plan_id":"cebpf4jnsgd1na2vs0mg"},{"bike_id":"d14a727e-4cc4-487c-9047-b2f8278d75f0","system_id":"levelo_inurba_marseille","lat":43.27963,"lon":5.38739,"is_reserved":false,"is_disabled":false,"rental_uris":{"android":"levelo://app?vid=d14a727e-4cc4-487c-9047-b2f8278d75f0","ios":"levelo://app?vid=d14a727e-4cc4-487c-9047-b2f8278d75f0"},"vehicle_type_id":"4","last_reported":1727770385,"current_range_meters":10800,"station_id":"ce4bhg12rcd13ifvqf80","pricing_plan_id":"cebpf4jnsgd1na2vs0mg"},{"bike_id":"cf702a11-3da4-41e3-a575-0cd2df48d4b0","system_id":"levelo_inurba_marseille","lat":43.31272,"lon":5.40165,"is_reserved":false,"is_disabled":false,"rental_uris":{"android":"levelo://app?vid=cf702a11-3da4-41e3-a575-0cd2df48d4b0","ios":"levelo://app?vid=cf702a11-3da4-41e3-a575-0cd2df48d4b0"},"vehicle_type_id":"4","last_reported":1727770385,"current_range_meters":6800,"station_id":"ce4bh092rcd13ifvqd30","pricing_plan_id":"cebpf4jnsgd1na2vs0mg"},{"bike_id":"87056d5e-5752-44bd-9f0d-2dbc1a76e759","system_id":"levelo_inurba_marseille","lat":43.32476,"lon":5.36578,"is_reserved":false,"is_disabled":false,"rental_uris":{"android":"levelo://app?vid=87056d5e-5752-44bd-9f0d-2dbc1a76e759","ios":"levelo://app?vid=87056d5e-5752-44bd-9f0d-2dbc1a76e759"},"vehicle_type_id":"4","last_reported":1727770385,"current_range_meters":34000,"station_id":"ce4bhs12rcd13ifvqhvg","pricing_plan_id":"cebpf4jnsgd1na2vs0mg"},{"bike_id":"07f8191c-a63f-4b66-bd63-62ba6c94342f","system_id":"levelo_inurba_marseille","lat":43.2953,"lon":5.39034,"is_reserved":false,"is_disabled":false,"rental_uris":{"android":"levelo://app?vid=07f8191c-a63f-4b66-bd63-62ba6c94342f","ios":"levelo://app?vid=07f8191c-a63f-4b66-bd63-62ba6c94342f"},"vehicle_type_id":"4","last_reported":1727770385,"current_range_meters":10800,"station_id":"ce4bh3p2rcd13ifvqdp0","pricing_plan_id":"cebpf4jnsgd1na2vs0mg"},{"bike_id":"3beadf9d-cc57-4cfa-b23e-ac53aab533e0","system_id":"levelo_inurba_marseille","lat":43.30274,"lon":5.37695,"is_reserved":false,"is_disabled":false,"rental_uris":{"android":"levelo://app?vid=3beadf9d-cc57-4cfa-b23e-ac53aab533e0","ios":"levelo://app?vid=3beadf9d-cc57-4cfa-b23e-ac53aab533e0"},"vehicle_type_id":"4","last_reported":1727770385,"current_range_meters":38000,"station_id":"ce4bguh2rcd13ifvqcj0","pricing_plan_id":"cebpf4jnsgd1na2vs0mg"},{"bike_id":"34207c2e-6603-4fd8-ad26-481dd3caf2c4","system_id":"levelo_inurba_marseille","lat":43.3009,"lon":5.39073,"is_reserved":false,"is_disabled":false,"rental_uris":{"android":"levelo://app?vid=34207c2e-6603-4fd8-ad26-481dd3caf2c4","ios":"levelo://app?vid=34207c2e-6603-4fd8-ad26-481dd3caf2c4"},"vehicle_type_id":"4","last_reported":1727770385,"current_range_meters":38800,"station_id":"ce4bh192rcd13ifvqdb0","pricing_plan_id":"cebpf4jnsgd1na2vs0mg"},{"bike_id":"6c4a97ef-ed56-4d85-98d9-463a709b63f3","system_id":"levelo_inurba_marseille","lat":43.24194,"lon":5.40554,"is_reserved":false,"is_disabled":false,"rental_uris":{"android":"levelo://app?vid=6c4a97ef-ed56-4d85-98d9-463a709b63f3","ios":"levelo://app?vid=6c4a97ef-ed56-4d85-98d9-463a709b63f3"},"vehicle_type_id":"4","last_reported":1727770385,"current_range_meters":19600,"station_id":"","pricing_plan_id":"cebpf4jnsgd1na2vs0mg"},{"bike_id":"ab80b424-bfc5-4709-9b95-a2bee6a56f64","system_id":"levelo_inurba_marseille","lat":43.32294,"lon":5.38274,"is_reserved":false,"is_disabled":false,"rental_uris":{"android":"levelo://app?vid=ab80b424-bfc5-4709-9b95-a2bee6a56f64","ios":"levelo://app?vid=ab80b424-bfc5-4709-9b95-a2bee6a56f64"},"vehicle_type_id":"4","last_reported":1727770385,"current_range_meters":39200,"station_id":"ce4bhr12rcd13ifvqhqg","pricing_plan_id":"cebpf4jnsgd1na2vs0mg"},{"bike_id":"2bfd4452-d854-4ea1-8b71-db38f940202a","system_id":"levelo_inurba_marseille","lat":43.30535,"lon":5.36705,"is_reserved":false,"is_disabled":false,"rental_uris":{"android":"levelo://app?vid=2bfd4452-d854-4ea1-8b71-db38f940202a","ios":"levelo://app?vid=2bfd4452-d854-4ea1-8b71-db38f940202a"},"vehicle_type_id":"4","last_reported":1727770385,"current_range_meters":36000,"station_id":"ce4bgrp2rcd13ifvqc9g","pricing_plan_id":"cebpf4jnsgd1na2vs0mg"},{"bike_id":"157abced-53dc-49f0-8be0-a1a494696491","system_id":"levelo_inurba_marseille","lat":43.25938,"lon":5.40903,"is_reserved":false,"is_disabled":false,"rental_uris":{"android":"levelo://app?vid=157abced-53dc-49f0-8be0-a1a494696491","ios":"levelo://app?vid=157abced-53dc-49f0-8be0-a1a494696491"},"vehicle_type_id":"4","last_reported":1727770385,"current_range_meters":32400,"station_id":"ce4bhm92rcd13ifvqglg","pricing_plan_id":"cebpf4jnsgd1na2vs0mg"},{"bike_id":"dd05cf58-177b-4d66-8ca2-fe7872404e55","system_id":"levelo_inurba_marseille","lat":43.23154,"lon":5.4371,"is_reserved":false,"is_disabled":false,"rental_uris":{"android":"levelo://app?vid=dd05cf58-177b-4d66-8ca2-fe7872404e55","ios":"levelo://app?vid=dd05cf58-177b-4d66-8ca2-fe7872404e55"},"vehicle_type_id":"4","last_reported":1727770385,"current_range_meters":33200,"station_id":"ce4bhmp2rcd13ifvqgog","pricing_plan_id":"cebpf4jnsgd1na2vs0mg"},{"bike_id":"8bc9d069-e21e-466b-87c2-8dfa6d23d3cc","system_id":"levelo_inurba_marseille","lat":43.30468,"lon":5.37899,"is_reserved":false,"is_disabled":false,"rental_uris":{"android":"levelo://app?vid=8bc9d069-e21e-466b-87c2-8dfa6d23d3cc","ios":"levelo://app?vid=8bc9d069-e21e-466b-87c2-8dfa6d23d3cc"},"vehicle_type_id":"4","last_reported":1727770385,"current_range_meters":32800,"station_id":"ce4bgup2rcd13ifvqcn0","pricing_plan_id":"cebpf4jnsgd1na2vs0mg"},{"bike_id":"0f7723ce-f6c2-47f2-83e1-10a85772de08","system_id":"levelo_inurba_marseille","lat":43.24178,"lon":5.39731,"is_reserved":false,"is_disabled":false,"rental_uris":{"android":"levelo://app?vid=0f7723ce-f6c2-47f2-83e1-10a85772de08","ios":"levelo://app?vid=0f7723ce-f6c2-47f2-83e1-10a85772de08"},"vehicle_type_id":"4","last_reported":1727770385,"current_range_meters":28400,"station_id":"ce4bhn12rcd13ifvqgpg","pricing_plan_id":"cebpf4jnsgd1na2vs0mg"},{"bike_id":"5a9f13c9-9e95-48e9-ab85-4e426f691561","system_id":"levelo_inurba_marseille","lat":43.26684,"lon":5.38271,"is_reserved":false,"is_disabled":false,"rental_uris":{"android":"levelo://app?vid=5a9f13c9-9e95-48e9-ab85-4e426f691561","ios":"levelo://app?vid=5a9f13c9-9e95-48e9-ab85-4e426f691561"},"vehicle_type_id":"4","last_reported":1727770385,"current_range_meters":32000,"station_id":"ce4bhg92rcd13ifvqf90","pricing_plan_id":"cebpf4jnsgd1na2vs0mg"},{"bike_id":"f493192b-13c6-47a1-9573-739dd32e633f","system_id":"levelo_inurba_marseille","lat":43.337444,"lon":5.374475,"is_reserved":false,"is_disabled":false,"rental_uris":{"android":"levelo://app?vid=f493192b-13c6-47a1-9573-739dd32e633f","ios":"levelo://app?vid=f493192b-13c6-47a1-9573-739dd32e633f"},"vehicle_type_id":"4","last_reported":1727770385,"current_range_meters":18000,"station_id":"","pricing_plan_id":"cebpf4jnsgd1na2vs0mg"},{"bike_id":"57215a18-38e5-4f54-9c14-a0d77f31f508","system_id":"levelo_inurba_marseille","lat":43.30915,"lon":5.36847,"is_reserved":false,"is_disabled":false,"rental_uris":{"android":"levelo://app?vid=57215a18-38e5-4f54-9c14-a0d77f31f508","ios":"levelo://app?vid=57215a18-38e5-4f54-9c14-a0d77f31f508"},"vehicle_type_id":"4","last_reported":1727770385,"current_range_meters":23200,"station_id":"ce4bgn92rcd13ifvqbvg","pricing_plan_id":"cebpf4jnsgd1na2vs0mg"},{"bike_id":"9d1d3c92-cfa3-46c4-a687-f6d65be16f82","system_id":"levelo_inurba_marseille","lat":43.32543,"lon":5.41447,"is_reserved":false,"is_disabled":false,"rental_uris":{"android":"levelo://app?vid=9d1d3c92-cfa3-46c4-a687-f6d65be16f82","ios":"levelo://app?vid=9d1d3c92-cfa3-46c4-a687-f6d65be16f82"},"vehicle_type_id":"4","last_reported":1727770385,"current_range_meters":24400,"station_id":"ce4bhq12rcd13ifvqhhg","pricing_plan_id":"cebpf4jnsgd1na2vs0mg"},{"bike_id":"ce6166ea-c4ad-4ecf-8cb6-35a2f13ea8fd","system_id":"levelo_inurba_marseille","lat":43.23956,"lon":5.36632,"is_reserved":false,"is_disabled":false,"rental_uris":{"android":"levelo://app?vid=ce6166ea-c4ad-4ecf-8cb6-35a2f13ea8fd","ios":"levelo://app?vid=ce6166ea-c4ad-4ecf-8cb6-35a2f13ea8fd"},"vehicle_type_id":"4","last_reported":1727770385,"current_range_meters":18000,"station_id":"ce4bhi12rcd13ifvqfp0","pricing_plan_id":"cebpf4jnsgd1na2vs0mg"},{"bike_id":"3dab0a02-c252-4bc7-9c17-a17097a1ad7c","system_id":"levelo_inurba_marseille","lat":43.27491,"lon":5.42459,"is_reserved":false,"is_disabled":false,"rental_uris":{"android":"levelo://app?vid=3dab0a02-c252-4bc7-9c17-a17097a1ad7c","ios":"levelo://app?vid=3dab0a02-c252-4bc7-9c17-a17097a1ad7c"},"vehicle_type_id":"4","last_reported":1727770385,"current_range_meters":14000,"station_id":"ce4bhn92rcd13ifvqgrg","pricing_plan_id":"cebpf4jnsgd1na2vs0mg"},{"bike_id":"2d56c800-db80-4bff-9152-feb48cf399f4","system_id":"levelo_inurba_marseille","lat":43.29636,"lon":5.40595,"is_reserved":false,"is_disabled":false,"rental_uris":{"android":"levelo://app?vid=2d56c800-db80-4bff-9152-feb48cf399f4","ios":"levelo://app?vid=2d56c800-db80-4bff-9152-feb48cf399f4"},"vehicle_type_id":"4","last_reported":1727770385,"current_range_meters":28000,"station_id":"ce4bh0h2rcd13ifvqd60","pricing_plan_id":"cebpf4jnsgd1na2vs0mg"},{"bike_id":"d8dff190-fa19-4e22-9be5-6934ad267ba4","system_id":"levelo_inurba_marseille","lat":43.26684,"lon":5.38267,"is_reserved":false,"is_disabled":false,"rental_uris":{"android":"levelo://app?vid=d8dff190-fa19-4e22-9be5-6934ad267ba4","ios":"levelo://app?vid=d8dff190-fa19-4e22-9be5-6934ad267ba4"},"vehicle_type_id":"4","last_reported":1727770385,"current_range_meters":26000,"station_id":"ce4bhg92rcd13ifvqf90","pricing_plan_id":"cebpf4jnsgd1na2vs0mg"},{"bike_id":"11b3b2a1-2d3b-4d2a-9ced-1ab56b95ace1","system_id":"levelo_inurba_marseille","lat":43.23157,"lon":5.43726,"is_reserved":false,"is_disabled":false,"rental_uris":{"android":"levelo://app?vid=11b3b2a1-2d3b-4d2a-9ced-1ab56b95ace1","ios":"levelo://app?vid=11b3b2a1-2d3b-4d2a-9ced-1ab56b95ace1"},"vehicle_type_id":"4","last_reported":1727770385,"current_range_meters":8000,"station_id":"ce4bhmp2rcd13ifvqgog","pricing_plan_id":"cebpf4jnsgd1na2vs0mg"},{"bike_id":"e3ccb747-72e6-485a-9971-038c1c0033f2","system_id":"levelo_inurba_marseille","lat":43.27493,"lon":5.42459,"is_reserved":false,"is_disabled":false,"rental_uris":{"android":"levelo://app?vid=e3ccb747-72e6-485a-9971-038c1c0033f2","ios":"levelo://app?vid=e3ccb747-72e6-485a-9971-038c1c0033f2"},"vehicle_type_id":"4","last_reported":1727770385,"current_range_meters":20000,"station_id":"ce4bhn92rcd13ifvqgrg","pricing_plan_id":"cebpf4jnsgd1na2vs0mg"},{"bike_id":"682e8091-68ea-4fce-b1bd-5ad117660139","system_id":"levelo_inurba_marseille","lat":43.28272,"lon":5.35081,"is_reserved":false,"is_disabled":false,"rental_uris":{"android":"levelo://app?vid=682e8091-68ea-4fce-b1bd-5ad117660139","ios":"levelo://app?vid=682e8091-68ea-4fce-b1bd-5ad117660139"},"vehicle_type_id":"4","last_reported":1727770385,"current_range_meters":26800,"station_id":"ce4bhbp2rcd13ifvqerg","pricing_plan_id":"cebpf4jnsgd1na2vs0mg"},{"bike_id":"b1d24671-07cf-4217-874f-d33bb3918dec","system_id":"levelo_inurba_marseille","lat":43.25936,"lon":5.40912,"is_reserved":false,"is_disabled":false,"rental_uris":{"android":"levelo://app?vid=b1d24671-07cf-4217-874f-d33bb3918dec","ios":"levelo://app?vid=b1d24671-07cf-4217-874f-d33bb3918dec"},"vehicle_type_id":"4","last_reported":1727770385,"current_range_meters":16800,"station_id":"ce4bhm92rcd13ifvqglg","pricing_plan_id":"cebpf4jnsgd1na2vs0mg"},{"bike_id":"2805f4c3-81fa-431e-94ba-e5d48719baf6","system_id":"levelo_inurba_marseille","lat":43.29621,"lon":5.37171,"is_reserved":false,"is_disabled":false,"rental_uris":{"android":"levelo://app?vid=2805f4c3-81fa-431e-94ba-e5d48719baf6","ios":"levelo://app?vid=2805f4c3-81fa-431e-94ba-e5d48719baf6"},"vehicle_type_id":"4","last_reported":1727770385,"current_range_meters":28800,"station_id":"ce4bgnh2rcd13ifvqc0g","pricing_plan_id":"cebpf4jnsgd1na2vs0mg"},{"bike_id":"7ffd9458-24c8-48ed-ab18-22c9578e8219","system_id":"levelo_inurba_marseille","lat":43.29972,"lon":5.3849,"is_reserved":false,"is_disabled":false,"rental_uris":{"android":"levelo://app?vid=7ffd9458-24c8-48ed-ab18-22c9578e8219","ios":"levelo://app?vid=7ffd9458-24c8-48ed-ab18-22c9578e8219"},"vehicle_type_id":"4","last_reported":1727770385,"current_range_meters":30400,"station_id":"ce4bgj92rcd13ifvqbd0","pricing_plan_id":"cebpf4jnsgd1na2vs0mg"},{"bike_id":"7123b58c-bb77-48f8-8d0e-0d06f320fbef","system_id":"levelo_inurba_marseille","lat":43.31342,"lon":5.36732,"is_reserved":false,"is_disabled":false,"rental_uris":{"android":"levelo://app?vid=7123b58c-bb77-48f8-8d0e-0d06f320fbef","ios":"levelo://app?vid=7123b58c-bb77-48f8-8d0e-0d06f320fbef"},"vehicle_type_id":"4","last_reported":1727770385,"current_range_meters":38800,"station_id":"ce4bgr92rcd13ifvqc6g","pricing_plan_id":"cebpf4jnsgd1na2vs0mg"},{"bike_id":"3eb398bc-7c75-4637-8479-11f62120404f","system_id":"levelo_inurba_marseille","lat":43.31343,"lon":5.36749,"is_reserved":false,"is_disabled":false,"rental_uris":{"android":"levelo://app?vid=3eb398bc-7c75-4637-8479-11f62120404f","ios":"levelo://app?vid=3eb398bc-7c75-4637-8479-11f62120404f"},"vehicle_type_id":"4","last_reported":1727770385,"current_range_meters":25600,"station_id":"ce4bgr92rcd13ifvqc6g","pricing_plan_id":"cebpf4jnsgd1na2vs0mg"},{"bike_id":"5fdb59ea-177a-40ae-bdac-1d76255af3ca","system_id":"levelo_inurba_marseille","lat":43.29628,"lon":5.37158,"is_reserved":false,"is_disabled":false,"rental_uris":{"android":"levelo://app?vid=5fdb59ea-177a-40ae-bdac-1d76255af3ca","ios":"levelo://app?vid=5fdb59ea-177a-40ae-bdac-1d76255af3ca"},"vehicle_type_id":"4","last_reported":1727770385,"current_range_meters":36400,"station_id":"ce4bgnh2rcd13ifvqc0g","pricing_plan_id":"cebpf4jnsgd1na2vs0mg"},{"bike_id":"e3f658f2-4155-4818-b7f2-817ddb02bc45","system_id":"levelo_inurba_marseille","lat":43.30478,"lon":5.37899,"is_reserved":false,"is_disabled":false,"rental_uris":{"android":"levelo://app?vid=e3f658f2-4155-4818-b7f2-817ddb02bc45","ios":"levelo://app?vid=e3f658f2-4155-4818-b7f2-817ddb02bc45"},"vehicle_type_id":"4","last_reported":1727770385,"current_range_meters":8400,"station_id":"ce4bgup2rcd13ifvqcn0","pricing_plan_id":"cebpf4jnsgd1na2vs0mg"},{"bike_id":"eef0ff24-2e3f-471a-8736-b680248f123f","system_id":"levelo_inurba_marseille","lat":43.31715,"lon":5.37777,"is_reserved":false,"is_disabled":false,"rental_uris":{"android":"levelo://app?vid=eef0ff24-2e3f-471a-8736-b680248f123f","ios":"levelo://app?vid=eef0ff24-2e3f-471a-8736-b680248f123f"},"vehicle_type_id":"4","last_reported":1727770385,"current_range_meters":38000,"station_id":"ce4bgth2rcd13ifvqch0","pricing_plan_id":"cebpf4jnsgd1na2vs0mg"},{"bike_id":"14d9f3bf-5a5a-4507-8014-34dc028174a0","system_id":"levelo_inurba_marseille","lat":43.29966,"lon":5.38496,"is_reserved":false,"is_disabled":false,"rental_uris":{"android":"levelo://app?vid=14d9f3bf-5a5a-4507-8014-34dc028174a0","ios":"levelo://app?vid=14d9f3bf-5a5a-4507-8014-34dc028174a0"},"vehicle_type_id":"4","last_reported":1727770385,"current_range_meters":22000,"station_id":"ce4bgj92rcd13ifvqbd0","pricing_plan_id":"cebpf4jnsgd1na2vs0mg"},{"bike_id":"754d1159-7bf9-45bf-a8a8-9a700a3047fa","system_id":"levelo_inurba_marseille","lat":43.29621,"lon":5.37786,"is_reserved":false,"is_disabled":false,"rental_uris":{"android":"levelo://app?vid=754d1159-7bf9-45bf-a8a8-9a700a3047fa","ios":"levelo://app?vid=754d1159-7bf9-45bf-a8a8-9a700a3047fa"},"vehicle_type_id":"4","last_reported":1727770385,"current_range_meters":19600,"station_id":"ce4bgi92rcd13ifvqb90","pricing_plan_id":"cebpf4jnsgd1na2vs0mg"},{"bike_id":"ca666272-f8a3-493c-b104-d03775ac96ba","system_id":"levelo_inurba_marseille","lat":43.27073,"lon":5.42275,"is_reserved":false,"is_disabled":false,"rental_uris":{"android":"levelo://app?vid=ca666272-f8a3-493c-b104-d03775ac96ba","ios":"levelo://app?vid=ca666272-f8a3-493c-b104-d03775ac96ba"},"vehicle_type_id":"4","last_reported":1727770385,"current_range_meters":28800,"station_id":"ce4bhk92rcd13ifvqgb0","pricing_plan_id":"cebpf4jnsgd1na2vs0mg"},{"bike_id":"fa8c94ac-2761-41ee-a071-ba830a2812c9","system_id":"levelo_inurba_marseille","lat":43.30466,"lon":5.37901,"is_reserved":false,"is_disabled":false,"rental_uris":{"android":"levelo://app?vid=fa8c94ac-2761-41ee-a071-ba830a2812c9","ios":"levelo://app?vid=fa8c94ac-2761-41ee-a071-ba830a2812c9"},"vehicle_type_id":"4","last_reported":1727770385,"current_range_meters":38800,"station_id":"ce4bgup2rcd13ifvqcn0","pricing_plan_id":"cebpf4jnsgd1na2vs0mg"},{"bike_id":"9711c5af-ceda-4c50-b517-1e16cc14a4c7","system_id":"levelo_inurba_marseille","lat":43.23151,"lon":5.43719,"is_reserved":false,"is_disabled":false,"rental_uris":{"android":"levelo://app?vid=9711c5af-ceda-4c50-b517-1e16cc14a4c7","ios":"levelo://app?vid=9711c5af-ceda-4c50-b517-1e16cc14a4c7"},"vehicle_type_id":"4","last_reported":1727770385,"current_range_meters":11200,"station_id":"ce4bhmp2rcd13ifvqgog","pricing_plan_id":"cebpf4jnsgd1na2vs0mg"},{"bike_id":"c140181c-295c-48d3-9d2f-f9a7624dcd1d","system_id":"levelo_inurba_marseille","lat":43.30905,"lon":5.36856,"is_reserved":false,"is_disabled":false,"rental_uris":{"android":"levelo://app?vid=c140181c-295c-48d3-9d2f-f9a7624dcd1d","ios":"levelo://app?vid=c140181c-295c-48d3-9d2f-f9a7624dcd1d"},"vehicle_type_id":"4","last_reported":1727770385,"current_range_meters":39200,"station_id":"ce4bgn92rcd13ifvqbvg","pricing_plan_id":"cebpf4jnsgd1na2vs0mg"},{"bike_id":"aa122f98-8b5e-4a7d-bbd7-05f7603260ae","system_id":"levelo_inurba_marseille","lat":43.27491,"lon":5.42468,"is_reserved":false,"is_disabled":false,"rental_uris":{"android":"levelo://app?vid=aa122f98-8b5e-4a7d-bbd7-05f7603260ae","ios":"levelo://app?vid=aa122f98-8b5e-4a7d-bbd7-05f7603260ae"},"vehicle_type_id":"4","last_reported":1727770385,"current_range_meters":38400,"station_id":"ce4bhn92rcd13ifvqgrg","pricing_plan_id":"cebpf4jnsgd1na2vs0mg"},{"bike_id":"77a42bf1-5185-47ee-966f-30c7afcd7b5b","system_id":"levelo_inurba_marseille","lat":43.28262,"lon":5.3507,"is_reserved":false,"is_disabled":false,"rental_uris":{"android":"levelo://app?vid=77a42bf1-5185-47ee-966f-30c7afcd7b5b","ios":"levelo://app?vid=77a42bf1-5185-47ee-966f-30c7afcd7b5b"},"vehicle_type_id":"4","last_reported":1727770385,"current_range_meters":37600,"station_id":"ce4bhbp2rcd13ifvqerg","pricing_plan_id":"cebpf4jnsgd1na2vs0mg"},{"bike_id":"a8b2b094-8e78-44e1-816c-9eff62369494","system_id":"levelo_inurba_marseille","lat":43.23155,"lon":5.43706,"is_reserved":false,"is_disabled":false,"rental_uris":{"android":"levelo://app?vid=a8b2b094-8e78-44e1-816c-9eff62369494","ios":"levelo://app?vid=a8b2b094-8e78-44e1-816c-9eff62369494"},"vehicle_type_id":"4","last_reported":1727770385,"current_range_meters":10000,"station_id":"ce4bhmp2rcd13ifvqgog","pricing_plan_id":"cebpf4jnsgd1na2vs0mg"},{"bike_id":"be6266f1-8008-4b25-a3d5-82291b869f14","system_id":"levelo_inurba_marseille","lat":43.29314,"lon":5.37184,"is_reserved":false,"is_disabled":false,"rental_uris":{"android":"levelo://app?vid=be6266f1-8008-4b25-a3d5-82291b869f14","ios":"levelo://app?vid=be6266f1-8008-4b25-a3d5-82291b869f14"},"vehicle_type_id":"4","last_reported":1727770385,"current_range_meters":36800,"station_id":"ce4bgh92rcd13ifvqb40","pricing_plan_id":"cebpf4jnsgd1na2vs0mg"},{"bike_id":"c16cba12-f5d0-40c1-9bd3-47a6d3180c64","system_id":"levelo_inurba_marseille","lat":43.23196,"lon":5.35561,"is_reserved":false,"is_disabled":false,"rental_uris":{"android":"levelo://app?vid=c16cba12-f5d0-40c1-9bd3-47a6d3180c64","ios":"levelo://app?vid=c16cba12-f5d0-40c1-9bd3-47a6d3180c64"},"vehicle_type_id":"4","last_reported":1727770385,"current_range_meters":12400,"station_id":"ce4bhu92rcd13ifvqi70","pricing_plan_id":"cebpf4jnsgd1na2vs0mg"},{"bike_id":"38002a1a-cc6d-4640-a25a-f6d8ed440284","system_id":"levelo_inurba_marseille","lat":43.30948,"lon":5.3903,"is_reserved":false,"is_disabled":false,"rental_uris":{"android":"levelo://app?vid=38002a1a-cc6d-4640-a25a-f6d8ed440284","ios":"levelo://app?vid=38002a1a-cc6d-4640-a25a-f6d8ed440284"},"vehicle_type_id":"4","last_reported":1727770385,"current_range_meters":25200,"station_id":"ce4bgup2rcd13ifvqco0","pricing_plan_id":"cebpf4jnsgd1na2vs0mg"},{"bike_id":"fa612911-5e32-4a4c-b98c-c5e615b8fc4d","system_id":"levelo_inurba_marseille","lat":43.28079,"lon":5.39669,"is_reserved":false,"is_disabled":false,"rental_uris":{"android":"levelo://app?vid=fa612911-5e32-4a4c-b98c-c5e615b8fc4d","ios":"levelo://app?vid=fa612911-5e32-4a4c-b98c-c5e615b8fc4d"},"vehicle_type_id":"4","last_reported":1727770385,"current_range_meters":11200,"station_id":"ce4bho12rcd13ifvqh2g","pricing_plan_id":"cebpf4jnsgd1na2vs0mg"},{"bike_id":"9c8ec900-0c10-4872-bd04-47276c3c8ed6","system_id":"levelo_inurba_marseille","lat":43.30538,"lon":5.36705,"is_reserved":false,"is_disabled":false,"rental_uris":{"android":"levelo://app?vid=9c8ec900-0c10-4872-bd04-47276c3c8ed6","ios":"levelo://app?vid=9c8ec900-0c10-4872-bd04-47276c3c8ed6"},"vehicle_type_id":"4","last_reported":1727770385,"current_range_meters":36400,"station_id":"ce4bgrp2rcd13ifvqc9g","pricing_plan_id":"cebpf4jnsgd1na2vs0mg"},