{"last_updated":1702285703,"ttl":30,"version":"2.2","data":{"bikes":[{"bike_id":"22f592ed-7213-4141-b405-b53acc01ff6c","system_id":"levelo_inurba_marseille","lat":43.313391,"lon":5.36706,"is_reserved":false,"is_disabled":false,"rental_uris":{"android":"levelo://app?vid=22f592ed-7213-4141-b405-b53acc01ff6c","ios":"levelo://app?vid=22f592ed-7213-4141-b405-b53acc01ff6c"},"vehicle_type_id":"4","last_reported":1702285703,"current_range_meters":10400,"station_id":"ce4bgr92rcd13ifvqc6g","pricing_plan_id":"free"},{"bike_id":"055d2ef5-9139-4356-9d69-cd322234ae4b","system_id":"levelo_inurba_marseille","lat":43.31341,"lon":5.367098,"is_reserved":false,"is_disabled":false,"rental_uris":{"android":"levelo://app?vid=055d2ef5-9139-4356-9d69-cd322234ae4b","ios":"levelo://app?vid=055d2ef5-9139-4356-9d69-cd322234ae4b"},"vehicle_type_id":"4","last_reported":1702285703,"current_range_meters":20800,"station_id":"ce4bgr92rcd13ifvqc6g","pricing_plan_id":"free"},{"bike_id":"a19087a6-47e6-403e-a488-7ee9a44459a6","system_id":"levelo_inurba_marseille","lat":43.313391,"lon":5.36706,"is_reserved":false,"is_disabled":false,"rental_uris":{"android":"levelo://app?vid=a19087a6-47e6-403e-a488-7ee9a44459a6","ios":"levelo://app?vid=a19087a6-47e6-403e-a488-7ee9a44459a6"},"vehicle_type_id":"4","last_reported":1702285703,"current_range_meters":20000,"station_id":"ce4bgr92rcd13ifvqc6g","pricing_plan_id":"free"},{"bike_id":"bc58274e-d2d6-448d-ac09-facbdfbc86e7","system_id":"levelo_inurba_marseille","lat":43.31341,"lon":5.367098,"is_reserved":false,"is_disabled":false,"rental_uris":{"android":"levelo://app?vid=bc58274e-d2d6-448d-ac09-facbdfbc86e7","ios":"levelo://app?vid=bc58274e-d2d6-448d-ac09-facbdfbc86e7"},"vehicle_type_id":"4","last_reported":1702285703,"current_range_meters":18400,"station_id":"ce4bgr92rcd13ifvqc6g","pricing_plan_id":"free"},{"bike_id":"9e204e3e-87b9-4913-aacd-3c8c14629e10","system_id":"levelo_inurba_marseille","lat":43.31345,"lon":5.36714,"is_reserved":false,"is_disabled":false,"rental_uris":{"android":"levelo://app?vid=9e204e3e-87b9-4913-aacd-3c8c14629e10","ios":"levelo://app?vid=9e204e3e-87b9-4913-aacd-3c8c14629e10"},"vehicle_type_id":"4","last_reported":1702285703,"current_range_meters":0,"station_id":"ce4bgr92rcd13ifvqc6g","pricing_plan_id":"free"},{"bike_id":"8dead90f-577d-4d9f-9331-28e8ecb446e2","system_id":"levelo_inurba_marseille","lat":43.31341,"lon":5.367098,"is_reserved":false,"is_disabled":false,"rental_uris":{"android":"levelo://app?vid=8dead90f-577d-4d9f-9331-28e8ecb446e2","ios":"levelo://app?vid=8dead90f-577d-4d9f-9331-28e8ecb446e2"},"vehicle_type_id":"4","last_reported":1702285703,"current_range_meters":6400,"station_id":"ce4bgr92rcd13ifvqc6g","pricing_plan_id":"free"},{"bike_id":"cae15194-13d0-47b9-b8ad-026da81b6fe4","system_id":"levelo_inurba_marseille","lat":43.31341,"lon":5.367098,"is_reserved":false,"is_disabled":false,"rental_uris":{"android":"levelo://app?vid=cae15194-13d0-47b9-b8ad-026da81b6fe4","ios":"levelo://app?vid=cae15194-13d0-47b9-b8ad-026da81b6fe4"},"vehicle_type_id":"4","last_reported":1702285703,"current_range_meters":5200,"station_id":"ce4bgr92rcd13ifvqc6g","pricing_plan_id":"free"},{"bike_id":"8ac9870d-3e79-4926-a23c-724057773296","system_id":"levelo_inurba_marseille","lat":43.313391,"lon":5.36706,"is_reserved":false,"is_disabled":false,"rental_uris":{"android":"levelo://app?vid=8ac9870d-3e79-4926-a23c-724057773296","ios":"levelo://app?vid=8ac9870d-3e79-4926-a23c-724057773296"},"vehicle_type_id":"4","last_reported":1702285703,"current_range_meters":22400,"station_id":"ce4bgr92rcd13ifvqc6g","pricing_plan_id":"free"},{"bike_id":"af115bc0-0c1b-4a35-af11-e2be8c394adc","system_id":"levelo_inurba_marseille","lat":43.31359,"lon":5.367077,"is_reserved":false,"is_disabled":false,"rental_uris":{"android":"levelo://app?vid=af115bc0-0c1b-4a35-af11-e2be8c394adc","ios":"levelo://app?vid=af115bc0-0c1b-4a35-af11-e2be8c394adc"},"vehicle_type_id":"4","last_reported":1702285703,"current_range_meters":17600,"station_id":"ce4bgr92rcd13ifvqc6g","pricing_plan_id":"free"},{"bike_id":"1a78223d-601f-4e4b-8d20-47d9e10e8866","system_id":"levelo_inurba_marseille","lat":43.313391,"lon":5.36706,"is_reserved":false,"is_disabled":false,"rental_uris":{"android":"levelo://app?vid=1a78223d-601f-4e4b-8d20-47d9e10e8866","ios":"levelo://app?vid=1a78223d-601f-4e4b-8d20-47d9e10e8866"},"vehicle_type_id":"4","last_reported":1702285703,"current_range_meters":25600,"station_id":"ce4bgr92rcd13ifvqc6g","pricing_plan_id":"free"},{"bike_id":"73f066ed-19d2-4a73-bfe3-5fecf411b3a9","system_id":"levelo_inurba_marseille","lat":43.312239,"lon":5.368562,"is_reserved":false,"is_disabled":false,"rental_uris":{"android":"levelo://app?vid=73f066ed-19d2-4a73-bfe3-5fecf411b3a9","ios":"levelo://app?vid=73f066ed-19d2-4a73-bfe3-5fecf411b3a9"},"vehicle_type_id":"4","last_reported":1702285703,"current_range_meters":28000,"station_id":"ce4bgl92rcd13ifvqbq0","pricing_plan_id":"free"},{"bike_id":"6cd761da-992d-406f-95f3-c40e30a4b263","system_id":"levelo_inurba_marseille","lat":43.312239,"lon":5.368562,"is_reserved":false,"is_disabled":false,"rental_uris":{"android":"levelo://app?vid=6cd761da-992d-406f-95f3-c40e30a4b263","ios":"levelo://app?vid=6cd761da-992d-406f-95f3-c40e30a4b263"},"vehicle_type_id":"4","last_reported":1702285703,"current_range_meters":30800,"station_id":"ce4bgl92rcd13ifvqbq0","pricing_plan_id":"free"},{"bike_id":"6b9d7cd0-b11e-47a2-b2cb-d94eba6f8c81","system_id":"levelo_inurba_marseille","lat":43.309076,"lon":5.368465,"is_reserved":false,"is_disabled":false,"rental_uris":{"android":"levelo://app?vid=6b9d7cd0-b11e-47a2-b2cb-d94eba6f8c81","ios":"levelo://app?vid=6b9d7cd0-b11e-47a2-b2cb-d94eba6f8c81"},"vehicle_type_id":"4","last_reported":1702285703,"current_range_meters":20800,"station_id":"ce4bgn92rcd13ifvqbvg","pricing_plan_id":"free"},{"bike_id":"5c5d885d-3a80-4972-a0a7-75d6086b9f07","system_id":"levelo_inurba_marseille","lat":43.309076,"lon":5.368465,"is_reserved":false,"is_disabled":false,"rental_uris":{"android":"levelo://app?vid=5c5d885d-3a80-4972-a0a7-75d6086b9f07","ios":"levelo://app?vid=5c5d885d-3a80-4972-a0a7-75d6086b9f07"},"vehicle_type_id":"4","last_reported":1702285703,"current_range_meters":31600,"station_id":"ce4bgn92rcd13ifvqbvg","pricing_plan_id":"free"},{"bike_id":"7d54a54f-1ed4-4054-bd39-74b70c1cf8ab","system_id":"levelo_inurba_marseille","lat":43.309076,"lon":5.368465,"is_reserved":false,"is_disabled":false,"rental_uris":{"android":"levelo://app?vid=7d54a54f-1ed4-4054-bd39-74b70c1cf8ab","ios":"levelo://app?vid=7d54a54f-1ed4-4054-bd39-74b70c1cf8ab"},"vehicle_type_id":"4","last_reported":1702285703,"current_range_meters":12800,"station_id":"ce4bgn92rcd13ifvqbvg","pricing_plan_id":"free"},{"bike_id":"569c08b3-dc9b-4aa6-ae98-ea1387a91f61","system_id":"levelo_inurba_marseille","lat":43.309076,"lon":5.368465,"is_reserved":false,"is_disabled":false,"rental_uris":{"android":"levelo://app?vid=569c08b3-dc9b-4aa6-ae98-ea1387a91f61","ios":"levelo://app?vid=569c08b3-dc9b-4aa6-ae98-ea1387a91f61"},"vehicle_type_id":"4","last_reported":1702285703,"current_range_meters":12800,"station_id":"ce4bgn92rcd13ifvqbvg","pricing_plan_id":"free"},{"bike_id":"d4522b01-5b2f-4fbf-a365-c8a6c838bc3b","system_id":"levelo_inurba_marseille","lat":43.309076,"lon":5.368465,"is_reserved":false,"is_disabled":false,"rental_uris":{"android":"levelo://app?vid=d4522b01-5b2f-4fbf-a365-c8a6c838bc3b","ios":"levelo://app?vid=d4522b01-5b2f-4fbf-a365-c8a6c838bc3b"},"vehicle_type_id":"4","last_reported":1702285703,"current_range_meters":13600,"station_id":"ce4bgn92rcd13ifvqbvg","pricing_plan_id":"free"},{"bike_id":"fdaf4ab5-a9d9-4192-aa17-96757f60edc3","system_id":"levelo_inurba_marseille","lat":43.313391,"lon":5.36706,"is_reserved":false,"is_disabled":false,"rental_uris":{"android":"levelo://app?vid=fdaf4ab5-a9d9-4192-aa17-96757f60edc3","ios":"levelo://app?vid=fdaf4ab5-a9d9-4192-aa17-96757f60edc3"},"vehicle_type_id":"4","last_reported":1702285703,"current_range_meters":32000,"station_id":"ce4bgr92rcd13ifvqc6g","pricing_plan_id":"free"},{"bike_id":"9373dedc-f86f-4ad2-ba19-8d4b5ef0366b","system_id":"levelo_inurba_marseille","lat":43.309039,"lon":5.371797,"is_reserved":false,"is_disabled":false,"rental_uris":{"android":"levelo://app?vid=9373dedc-f86f-4ad2-ba19-8d4b5ef0366b","ios":"levelo://app?vid=9373dedc-f86f-4ad2-ba19-8d4b5ef0366b"},"vehicle_type_id":"4","last_reported":1702285703,"current_range_meters":17600,"station_id":"ce4bguh2rcd13ifvqckg","pricing_plan_id":"free"},{"bike_id":"47e6cf27-a921-4cb9-81be-31ae9f787368","system_id":"levelo_inurba_marseille","lat":43.309039,"lon":5.371797,"is_reserved":false,"is_disabled":false,"rental_uris":{"android":"levelo://app?vid=47e6cf27-a921-4cb9-81be-31ae9f787368","ios":"levelo://app?vid=47e6cf27-a921-4cb9-81be-31ae9f787368"},"vehicle_type_id":"4","last_reported":1702285703,"current_range_meters":28400,"station_id":"ce4bguh2rcd13ifvqckg","pricing_plan_id":"free"},{"bike_id":"5631c8f0-2d02-473f-b0c0-85e9c529d1d0","system_id":"levelo_inurba_marseille","lat":43.313967,"lon":5.376082,"is_reserved":false,"is_disabled":false,"rental_uris":{"android":"levelo://app?vid=5631c8f0-2d02-473f-b0c0-85e9c529d1d0","ios":"levelo://app?vid=5631c8f0-2d02-473f-b0c0-85e9c529d1d0"},"vehicle_type_id":"4","last_reported":1702285703,"current_range_meters":9600,"station_id":"","pricing_plan_id":"free"},{"bike_id":"4db13260-b8d3-44cc-8200-438470ed9027","system_id":"levelo_inurba_marseille","lat":43.305712,"lon":5.365641,"is_reserved":false,"is_disabled":false,"rental_uris":{"android":"levelo://app?vid=4db13260-b8d3-44cc-8200-438470ed9027","ios":"levelo://app?vid=4db13260-b8d3-44cc-8200-438470ed9027"},"vehicle_type_id":"4","last_reported":1702285703,"current_range_meters":28400,"station_id":"ce4bgs12rcd13ifvqcag","pricing_plan_id":"free"},{"bike_id":"eb8c69ff-171d-4519-9a56-fd82bc9e96e9","system_id":"levelo_inurba_marseille","lat":43.305368,"lon":5.367343,"is_reserved":false,"is_disabled":false,"rental_uris":{"android":"levelo://app?vid=eb8c69ff-171d-4519-9a56-fd82bc9e96e9","ios":"levelo://app?vid=eb8c69ff-171d-4519-9a56-fd82bc9e96e9"},"vehicle_type_id":"4","last_reported":1702285703,"current_range_meters":12800,"station_id":"ce4bgrp2rcd13ifvqc9g","pricing_plan_id":"free"},{"bike_id":"be0e8b83-aba4-4252-acb8-e29c225b270b","system_id":"levelo_inurba_marseille","lat":43.305712,"lon":5.365641,"is_reserved":false,"is_disabled":false,"rental_uris":{"android":"levelo://app?vid=be0e8b83-aba4-4252-acb8-e29c225b270b","ios":"levelo://app?vid=be0e8b83-aba4-4252-acb8-e29c225b270b"},"vehicle_type_id":"4","last_reported":1702285703,"current_range_meters":5200,"station_id":"ce4bgs12rcd13ifvqcag","pricing_plan_id":"free"},{"bike_id":"9745a796-a930-4e60-980a-72238f197532","system_id":"levelo_inurba_marseille","lat":43.305714,"lon":5.365633,"is_reserved":false,"is_disabled":false,"rental_uris":{"android":"levelo://app?vid=9745a796-a930-4e60-980a-72238f197532","ios":"levelo://app?vid=9745a796-a930-4e60-980a-72238f197532"},"vehicle_type_id":"4","last_reported":1702285703,"current_range_meters":25600,"station_id":"ce4bgs12rcd13ifvqcag","pricing_plan_id":"free"},{"bike_id":"25784a51-0995-4c53-a90b-e096069ed004","system_id":"levelo_inurba_marseille","lat":43.305714,"lon":5.365633,"is_reserved":false,"is_disabled":false,"rental_uris":{"android":"levelo://app?vid=25784a51-0995-4c53-a90b-e096069ed004","ios":"levelo://app?vid=25784a51-0995-4c53-a90b-e096069ed004"},"vehicle_type_id":"4","last_reported":1702285703,"current_range_meters":31200,"station_id":"ce4bgs12rcd13ifvqcag","pricing_plan_id":"free"},{"bike_id":"5d1e08d7-0a65-4e1f-ab18-dc1887fe88e9","system_id":"levelo_inurba_marseille","lat":43.305706,"lon":5.365654,"is_reserved":false,"is_disabled":false,"rental_uris":{"android":"levelo://app?vid=5d1e08d7-0a65-4e1f-ab18-dc1887fe88e9","ios":"levelo://app?vid=5d1e08d7-0a65-4e1f-ab18-dc1887fe88e9"},"vehicle_type_id":"4","last_reported":1702285703,"current_range_meters":21200,"station_id":"ce4bgs12rcd13ifvqcag","pricing_plan_id":"free"},{"bike_id":"8f991687-24d5-403c-8b66-db9c07e90445","system_id":"levelo_inurba_marseille","lat":43.30526,"lon":5.366937,"is_reserved":false,"is_disabled":false,"rental_uris":{"android":"levelo://app?vid=8f991687-24d5-403c-8b66-db9c07e90445","ios":"levelo://app?vid=8f991687-24d5-403c-8b66-db9c07e90445"},"vehicle_type_id":"4","last_reported":1702285703,"current_range_meters":0,"station_id":"ce4bgrp2rcd13ifvqc9g","pricing_plan_id":"free"},{"bike_id":"fa86253f-b3b4-44f1-8c3d-cc0d2f54cd90","system_id":"levelo_inurba_marseille","lat":43.305706,"lon":5.365654,"is_reserved":false,"is_disabled":false,"rental_uris":{"android":"levelo://app?vid=fa86253f-b3b4-44f1-8c3d-cc0d2f54cd90","ios":"levelo://app?vid=fa86253f-b3b4-44f1-8c3d-cc0d2f54cd90"},"vehicle_type_id":"4","last_reported":1702285703,"current_range_meters":28800,"station_id":"ce4bgs12rcd13ifvqcag","pricing_plan_id":"free"},{"bike_id":"7a28f93b-1f1f-45b1-b67d-1e9564a5c059","system_id":"levelo_inurba_marseille","lat":43.305989,"lon":5.37225,"is_reserved":false,"is_disabled":false,"rental_uris":{"android":"levelo://app?vid=7a28f93b-1f1f-45b1-b67d-1e9564a5c059","ios":"levelo://app?vid=7a28f93b-1f1f-45b1-b67d-1e9564a5c059"},"vehicle_type_id":"4","last_reported":1702285703,"current_range_meters":22400,"station_id":"ce4bgqh2rcd13ifvqc4g","pricing_plan_id":"free"},{"bike_id":"4266b9ea-2925-490b-b157-24c2389d9e10","system_id":"levelo_inurba_marseille","lat":43.315353,"lon":5.380208,"is_reserved":false,"is_disabled":false,"rental_uris":{"android":"levelo://app?vid=4266b9ea-2925-490b-b157-24c2389d9e10","ios":"levelo://app?vid=4266b9ea-2925-490b-b157-24c2389d9e10"},"vehicle_type_id":"4","last_reported":1702285703,"current_range_meters":21600,"station_id":"ce4bhsp2rcd13ifvqi50","pricing_plan_id":"free"},{"bike_id":"43d1c11a-3c5c-47ae-91af-97240a2fa14e","system_id":"levelo_inurba_marseille","lat":43.30191,"lon":5.36613,"is_reserved":false,"is_disabled":false,"rental_uris":{"android":"levelo://app?vid=43d1c11a-3c5c-47ae-91af-97240a2fa14e","ios":"levelo://app?vid=43d1c11a-3c5c-47ae-91af-97240a2fa14e"},"vehicle_type_id":"4","last_reported":1702285703,"current_range_meters":29200,"station_id":"ce4bgrh2rcd13ifvqc8g","pricing_plan_id":"free"},{"bike_id":"553d6fad-ed52-43fb-a0cf-fbcf4f118d01","system_id":"levelo_inurba_marseille","lat":43.308012,"lon":5.381511,"is_reserved":false,"is_disabled":false,"rental_uris":{"android":"levelo://app?vid=553d6fad-ed52-43fb-a0cf-fbcf4f118d01","ios":"levelo://app?vid=553d6fad-ed52-43fb-a0cf-fbcf4f118d01"},"vehicle_type_id":"4","last_reported":1702285703,"current_range_meters":13600,"station_id":"ce4bgt12rcd13ifvqce0","pricing_plan_id":"free"},{"bike_id":"e82a02fc-0d54-40b0-ba23-6f4ec1ca0b4e","system_id":"levelo_inurba_marseille","lat":43.304606,"lon":5.379026,"is_reserved":false,"is_disabled":false,"rental_uris":{"android":"levelo://app?vid=e82a02fc-0d54-40b0-ba23-6f4ec1ca0b4e","ios":"levelo://app?vid=e82a02fc-0d54-40b0-ba23-6f4ec1ca0b4e"},"vehicle_type_id":"4","last_reported":1702285703,"current_range_meters":800,"station_id":"ce4bgup2rcd13ifvqcn0","pricing_plan_id":"free"},{"bike_id":"d507dc20-f3f0-485a-b520-e5ecd0effbe5","system_id":"levelo_inurba_marseille","lat":43.31994,"lon":5.38139,"is_reserved":false,"is_disabled":false,"rental_uris":{"android":"levelo://app?vid=d507dc20-f3f0-485a-b520-e5ecd0effbe5","ios":"levelo://app?vid=d507dc20-f3f0-485a-b520-e5ecd0effbe5"},"vehicle_type_id":"4","last_reported":1702285703,"current_range_meters":19600,"station_id":"ce4bhr12rcd13ifvqhpg","pricing_plan_id":"free"},{"bike_id":"2b7f7a37-391a-4eb2-b1a1-ddc45a522eff","system_id":"levelo_inurba_marseille","lat":43.319935,"lon":5.381699,"is_reserved":false,"is_disabled":false,"rental_uris":{"android":"levelo://app?vid=2b7f7a37-391a-4eb2-b1a1-ddc45a522eff","ios":"levelo://app?vid=2b7f7a37-391a-4eb2-b1a1-ddc45a522eff"},"vehicle_type_id":"4","last_reported":1702285703,"current_range_meters":27600,"station_id":"ce4bhr12rcd13ifvqhpg","pricing_plan_id":"free"},{"bike_id":"d8be298e-f4c0-4479-a66b-e307c680d7cc","system_id":"levelo_inurba_marseille","lat":43.31356,"lon":5.38493,"is_reserved":false,"is_disabled":false,"rental_uris":{"android":"levelo://app?vid=d8be298e-f4c0-4479-a66b-e307c680d7cc","ios":"levelo://app?vid=d8be298e-f4c0-4479-a66b-e307c680d7cc"},"vehicle_type_id":"4","last_reported":1702285703,"current_range_meters":17200,"station_id":"ce4bgt92rcd13ifvqcf0","pricing_plan_id":"free"},{"bike_id":"e8004e48-71cc-4124-a840-cf575cb160a0","system_id":"levelo_inurba_marseille","lat":43.299222,"lon":5.365554,"is_reserved":false,"is_disabled":false,"rental_uris":{"android":"levelo://app?vid=e8004e48-71cc-4124-a840-cf575cb160a0","ios":"levelo://app?vid=e8004e48-71cc-4124-a840-cf575cb160a0"},"vehicle_type_id":"4","last_reported":1702285703,"current_range_meters":7600,"station_id":"ce4bgm92rcd13ifvqbr0","pricing_plan_id":"free"},{"bike_id":"4c9035cf-2966-43f8-b826-6908870c5c35","system_id":"levelo_inurba_marseille","lat":43.298433,"lon":5.362774,"is_reserved":false,"is_disabled":false,"rental_uris":{"android":"levelo://app?vid=4c9035cf-2966-43f8-b826-6908870c5c35","ios":"levelo://app?vid=4c9035cf-2966-43f8-b826-6908870c5c35"},"vehicle_type_id":"4","last_reported":1702285703,"current_range_meters":17200,"station_id":"ce4bgpp2rcd13ifvqc3g","pricing_plan_id":"free"},{"bike_id":"744c7b29-e0b3-498a-b0e8-d3004aceb3e5","system_id":"levelo_inurba_marseille","lat":43.298433,"lon":5.362774,"is_reserved":false,"is_disabled":false,"rental_uris":{"android":"levelo://app?vid=744c7b29-e0b3-498a-b0e8-d3004aceb3e5","ios":"levelo://app?vid=744c7b29-e0b3-498a-b0e8-d3004aceb3e5"},"vehicle_type_id":"4","last_reported":1702285703,"current_range_meters":31600,"station_id":"ce4bgpp2rcd13ifvqc3g","pricing_plan_id":"free"},{"bike_id":"855da1e0-b9a0-428b-bd73-d89ad0b8504b","system_id":"levelo_inurba_marseille","lat":43.298433,"lon":5.362774,"is_reserved":false,"is_disabled":false,"rental_uris":{"android":"levelo://app?vid=855da1e0-b9a0-428b-bd73-d89ad0b8504b","ios":"levelo://app?vid=855da1e0-b9a0-428b-bd73-d89ad0b8504b"},"vehicle_type_id":"4","last_reported":1702285703,"current_range_meters":9600,"station_id":"ce4bgpp2rcd13ifvqc3g","pricing_plan_id":"free"},{"bike_id":"5ff8eedd-72c0-417a-a955-802b2c4b5b76","system_id":"levelo_inurba_marseille","lat":43.311722,"lon":5.387247,"is_reserved":false,"is_disabled":false,"rental_uris":{"android":"levelo://app?vid=5ff8eedd-72c0-417a-a955-802b2c4b5b76","ios":"levelo://app?vid=5ff8eedd-72c0-417a-a955-802b2c4b5b76"},"vehicle_type_id":"4","last_reported":1702285703,"current_range_meters":19200,"station_id":"ce4bgv12rcd13ifvqcp0","pricing_plan_id":"free"},{"bike_id":"6ac675f1-e0be-498c-ad2f-b742a949d4b0","system_id":"levelo_inurba_marseille","lat":43.298218,"lon":5.374416,"is_reserved":false,"is_disabled":false,"rental_uris":{"android":"levelo://app?vid=6ac675f1-e0be-498c-ad2f-b742a949d4b0","ios":"levelo://app?vid=6ac675f1-e0be-498c-ad2f-b742a949d4b0"},"vehicle_type_id":"4","last_reported":1702285703,"current_range_meters":0,"station_id":"","pricing_plan_id":"free"},{"bike_id":"52d8b7ba-7505-413c-b898-efb75f14c13c","system_id":"levelo_inurba_marseille","lat":43.328371,"lon":5.366909,"is_reserved":false,"is_disabled":false,"rental_uris":{"android":"levelo://app?vid=52d8b7ba-7505-413c-b898-efb75f14c13c","ios":"levelo://app?vid=52d8b7ba-7505-413c-b898-efb75f14c13c"},"vehicle_type_id":"4","last_reported":1702285703,"current_range_meters":18400,"station_id":"ce4bhs92rcd13ifvqi0g","pricing_plan_id":"free"},{"bike_id":"9b0409c8-952e-43cd-8929-2c98668b8e00","system_id":"levelo_inurba_marseille","lat":43.328371,"lon":5.366909,"is_reserved":false,"is_disabled":false,"rental_uris":{"android":"levelo://app?vid=9b0409c8-952e-43cd-8929-2c98668b8e00","ios":"levelo://app?vid=9b0409c8-952e-43cd-8929-2c98668b8e00"},"vehicle_type_id":"4","last_reported":1702285703,"current_range_meters":16000,"station_id":"ce4bhs92rcd13ifvqi0g","pricing_plan_id":"free"},{"bike_id":"a5589e38-f15a-46fe-9b37-27cf16ba9de2","system_id":"levelo_inurba_marseille","lat":43.328323,"lon":5.366884,"is_reserved":false,"is_disabled":false,"rental_uris":{"android":"levelo://app?vid=a5589e38-f15a-46fe-9b37-27cf16ba9de2","ios":"levelo://app?vid=a5589e38-f15a-46fe-9b37-27cf16ba9de2"},"vehicle_type_id":"4","last_reported":1702285703,"current_range_meters":20400,"station_id":"ce4bhs92rcd13ifvqi0g","pricing_plan_id":"free"},{"bike_id":"171f6e77-9703-43bf-b1d2-126a46648f3f","system_id":"levelo_inurba_marseille","lat":43.297163,"lon":5.365866,"is_reserved":false,"is_disabled":false,"rental_uris":{"android":"levelo://app?vid=171f6e77-9703-43bf-b1d2-126a46648f3f","ios":"levelo://app?vid=171f6e77-9703-43bf-b1d2-126a46648f3f"},"vehicle_type_id":"4","last_reported":1702285703,"current_range_meters":20000,"station_id":"ce4bgn12rcd13ifvqbt0","pricing_plan_id":"free"},{"bike_id":"49876152-9879-48af-9d52-dc39be63ee70","system_id":"levelo_inurba_marseille","lat":43.29573,"lon":5.367355,"is_reserved":false,"is_disabled":false,"rental_uris":{"android":"levelo://app?vid=49876152-9879-48af-9d52-dc39be63ee70","ios":"levelo://app?vid=49876152-9879-48af-9d52-dc39be63ee70"},"vehicle_type_id":"4","last_reported":1702285703,"current_range_meters":2400,"station_id":"ce4bgph2rcd13ifvqc2g","pricing_plan_id":"free"},{"bike_id":"8b3de8ff-11f3-4631-8bfc-e0c469688b94","system_id":"levelo_inurba_marseille","lat":43.299028,"lon":5.381509,"is_reserved":false,"is_disabled":false,"rental_uris":{"android":"levelo://app?vid=8b3de8ff-11f3-4631-8bfc-e0c469688b94","ios":"levelo://app?vid=8b3de8ff-11f3-4631-8bfc-e0c469688b94"},"vehicle_type_id":"4","last_reported":1702285703,"current_range_meters":24000,"station_id":"ce4bgj12rcd13ifvqbc0","pricing_plan_id":"free"},{"bike_id":"491f9403-67fa-4874-9340-c9a6d711f55f","system_id":"levelo_inurba_marseille","lat":43.309589,"lon":5.390258,"is_reserved":false,"is_disabled":false,"rental_uris":{"android":"levelo://app?vid=491f9403-67fa-4874-9340-c9a6d711f55f","ios":"levelo://app?vid=491f9403-67fa-4874-9340-c9a6d711f55f"},"vehicle_type_id":"4","last_reported":1702285703,"current_range_meters":24000,"station_id":"ce4bgup2rcd13ifvqco0","pricing_plan_id":"free"},{"bike_id":"604212be-2970-47d6-a054-c1a00a410881","system_id":"levelo_inurba_marseille","lat":43.309589,"lon":5.390258,"is_reserved":false,"is_disabled":false,"rental_uris":{"android":"levelo://app?vid=604212be-2970-47d6-a054-c1a00a410881","ios":"levelo://app?vid=604212be-2970-47d6-a054-c1a00a410881"},"vehicle_type_id":"4","last_reported":1702285703,"current_range_meters":6800,"station_id":"ce4bgup2rcd13ifvqco0","pricing_plan_id":"free"},{"bike_id":"6726c777-031d-45c1-ba6d-a5fa02ff3955","system_id":"levelo_inurba_marseille","lat":43.309589,"lon":5.390258,"is_reserved":false,"is_disabled":false,"rental_uris":{"android":"levelo://app?vid=6726c777-031d-45c1-ba6d-a5fa02ff3955","ios":"levelo://app?vid=6726c777-031d-45c1-ba6d-a5fa02ff3955"},"vehicle_type_id":"4","last_reported":1702285703,"current_range_meters":22400,"station_id":"ce4bgup2rcd13ifvqco0","pricing_plan_id":"free"},{"bike_id":"10c3a2e6-a6e9-4ec5-8f85-dcde5f52ca9a","system_id":"levelo_inurba_marseille","lat":43.298037,"lon":5.381066,"is_reserved":false,"is_disabled":false,"rental_uris":{"android":"levelo://app?vid=10c3a2e6-a6e9-4ec5-8f85-dcde5f52ca9a","ios":"levelo://app?vid=10c3a2e6-a6e9-4ec5-8f85-dcde5f52ca9a"},"vehicle_type_id":"4","last_reported":1702285703,"current_range_meters":27200,"station_id":"ce4bgip2rcd13ifvqbb0","pricing_plan_id":"free"},{"bike_id":"74002ada-770b-4cd2-813b-7a014cab89cd","system_id":"levelo_inurba_marseille","lat":43.298037,"lon":5.381066,"is_reserved":false,"is_disabled":false,"rental_uris":{"android":"levelo://app?vid=74002ada-770b-4cd2-813b-7a014cab89cd","ios":"levelo://app?vid=74002ada-770b-4cd2-813b-7a014cab89cd"},"vehicle_type_id":"4","last_reported":1702285703,"current_range_meters":18000,"station_id":"ce4bgip2rcd13ifvqbb0","pricing_plan_id":"free"},{"bike_id":"02420765-3270-4b17-99f9-dd980c5d4e20","system_id":"levelo_inurba_marseille","lat":43.304274,"lon":5.388873,"is_reserved":false,"is_disabled":false,"rental_uris":{"android":"levelo://app?vid=02420765-3270-4b17-99f9-dd980c5d4e20","ios":"levelo://app?vid=02420765-3270-4b17-99f9-dd980c5d4e20"},"vehicle_type_id":"4","last_reported":1702285703,"current_range_meters":26000,"station_id":"ce4bgk12rcd13ifvqbi0","pricing_plan_id":"free"},{"bike_id":"03ed1f4d-3497-4ab7-9dba-3fbd625ea8bd","system_id":"levelo_inurba_marseille","lat":43.296263,"lon":5.377094,"is_reserved":false,"is_disabled":false,"rental_uris":{"android":"levelo://app?vid=03ed1f4d-3497-4ab7-9dba-3fbd625ea8bd","ios":"levelo://app?vid=03ed1f4d-3497-4ab7-9dba-3fbd625ea8bd"},"vehicle_type_id":"4","last_reported":1702285703,"current_range_meters":12000,"station_id":"ce4bgi92rcd13ifvqb90","pricing_plan_id":"free"},{"bike_id":"56eba13a-af68-4271-b671-0cc672bc861a","system_id":"levelo_inurba_marseille","lat":43.296263,"lon":5.377094,"is_reserved":false,"is_disabled":false,"rental_uris":{"android":"levelo://app?vid=56eba13a-af68-4271-b671-0cc672bc861a","ios":"levelo://app?vid=56eba13a-af68-4271-b671-0cc672bc861a"},"vehicle_type_id":"4","last_reported":1702285703,"current_range_meters":10000,"station_id":"ce4bgi92rcd13ifvqb90","pricing_plan_id":"free"},{"bike_id":"c3bee5d4-f66a-4bb4-9b32-51cf3b7de9a4","system_id":"levelo_inurba_marseille","lat":43.299707,"lon":5.384859,"is_reserved":false,"is_disabled":false,"rental_uris":{"android":"levelo://app?vid=c3bee5d4-f66a-4bb4-9b32-51cf3b7de9a4","ios":"levelo://app?vid=c3bee5d4-f66a-4bb4-9b32-51cf3b7de9a4"},"vehicle_type_id":"4","last_reported":1702285703,"current_range_meters":9200,"station_id":"ce4bgj92rcd13ifvqbd0","pricing_plan_id":"free"},{"bike_id":"55b8c768-6f1e-4acb-81d2-37788cf931e5","system_id":"levelo_inurba_marseille","lat":43.32367,"lon":5.38882,"is_reserved":false,"is_disabled":false,"rental_uris":{"android":"levelo://app?vid=55b8c768-6f1e-4acb-81d2-37788cf931e5","ios":"levelo://app?vid=55b8c768-6f1e-4acb-81d2-37788cf931e5"},"vehicle_type_id":"4","last_reported":1702285703,"current_range_meters":30800,"station_id":"ce4bhqp2rcd13ifvqhog","pricing_plan_id":"free"},{"bike_id":"77a6c46d-d898-4e4f-8846-efa91689c7f0","system_id":"levelo_inurba_marseille","lat":43.295476,"lon":5.379222,"is_reserved":false,"is_disabled":false,"rental_uris":{"android":"levelo://app?vid=77a6c46d-d898-4e4f-8846-efa91689c7f0","ios":"levelo://app?vid=77a6c46d-d898-4e4f-8846-efa91689c7f0"},"vehicle_type_id":"4","last_reported":1702285703,"current_range_meters":0,"station_id":"","pricing_plan_id":"free"},{"bike_id":"4f77c2d8-dd44-42f2-b076-21d9759e8170","system_id":"levelo_inurba_marseille","lat":43.293259,"lon":5.371586,"is_reserved":false,"is_disabled":false,"rental_uris":{"android":"levelo://app?vid=4f77c2d8-dd44-42f2-b076-21d9759e8170","ios":"levelo://app?vid=4f77c2d8-dd44-42f2-b076-21d9759e8170"},"vehicle_type_id":"4","last_reported":1702285703,"current_range_meters":21600,"station_id":"ce4bgh92rcd13ifvqb40","pricing_plan_id":"free"},{"bike_id":"02134584-f539-4889-b039-bc13ef54af42","system_id":"levelo_inurba_marseille","lat":43.2936,"lon":5.37835,"is_reserved":false,"is_disabled":false,"rental_uris":{"android":"levelo://app?vid=02134584-f539-4889-b039-bc13ef54af42","ios":"levelo://app?vid=02134584-f539-4889-b039-bc13ef54af42"},"vehicle_type_id":"4","last_reported":1702285703,"current_range_meters":15600,"station_id":"ce4bgjh2rcd13ifvqbf0","pricing_plan_id":"free"},{"bike_id":"54098de2-2d08-4cf9-97f6-ce9c03a1e9fc","system_id":"levelo_inurba_marseille","lat":43.309047,"lon":5.396551,"is_reserved":false,"is_disabled":false,"rental_uris":{"android":"levelo://app?vid=54098de2-2d08-4cf9-97f6-ce9c03a1e9fc","ios":"levelo://app?vid=54098de2-2d08-4cf9-97f6-ce9c03a1e9fc"},"vehicle_type_id":"4","last_reported":1702285703,"current_range_meters":24400,"station_id":"ce4bh012rcd13ifvqcv0","pricing_plan_id":"free"},{"bike_id":"7c59e720-43bc-47b7-9390-a83e26794fdc","system_id":"levelo_inurba_marseille","lat":43.313291,"lon":5.396838,"is_reserved":false,"is_disabled":false,"rental_uris":{"android":"levelo://app?vid=7c59e720-43bc-47b7-9390-a83e26794fdc","ios":"levelo://app?vid=7c59e720-43bc-47b7-9390-a83e26794fdc"},"vehicle_type_id":"4","last_reported":1702285703,"current_range_meters":11600,"station_id":"ce4bgvp2rcd13ifvqcu0","pricing_plan_id":"free"},{"bike_id":"9667803f-71c3-4836-b891-19c44217c27a","system_id":"levelo_inurba_marseille","lat":43.309038,"lon":5.396546,"is_reserved":false,"is_disabled":false,"rental_uris":{"android":"levelo://app?vid=9667803f-71c3-4836-b891-19c44217c27a","ios":"levelo://app?vid=9667803f-71c3-4836-b891-19c44217c27a"},"vehicle_type_id":"4","last_reported":1702285703,"current_range_meters":24800,"station_id":"ce4bh012rcd13ifvqcv0","pricing_plan_id":"free"},{"bike_id":"603f4a78-a03f-4b87-8396-a7e886d3f2a2","system_id":"levelo_inurba_marseille","lat":43.29529,"lon":5.385581,"is_reserved":false,"is_disabled":false,"rental_uris":{"android":"levelo://app?vid=603f4a78-a03f-4b87-8396-a7e886d3f2a2","ios":"levelo://app?vid=603f4a78-a03f-4b87-8396-a7e886d3f2a2"},"vehicle_type_id":"4","last_reported":1702285703,"current_range_meters":4400,"station_id":"ce4bgih2rcd13ifvqba0","pricing_plan_id":"free"},{"bike_id":"6e010bf9-ae8f-45e1-8ed4-af30dae08be6","system_id":"levelo_inurba_marseille","lat":43.29529,"lon":5.385581,"is_reserved":false,"is_disabled":false,"rental_uris":{"android":"levelo://app?vid=6e010bf9-ae8f-45e1-8ed4-af30dae08be6","ios":"levelo://app?vid=6e010bf9-ae8f-45e1-8ed4-af30dae08be6"},"vehicle_type_id":"4","last_reported":1702285703,"current_range_meters":13600,"station_id":"ce4bgih2rcd13ifvqba0","pricing_plan_id":"free"},{"bike_id":"878b0457-8aa2-4a15-89b9-af34f8da5ba0","system_id":"levelo_inurba_marseille","lat":43.29526,"lon":5.385355,"is_reserved":false,"is_disabled":false,"rental_uris":{"android":"levelo://app?vid=878b0457-8aa2-4a15-89b9-af34f8da5ba0","ios":"levelo://app?vid=878b0457-8aa2-4a15-89b9-af34f8da5ba0"},"vehicle_type_id":"4","last_reported":1702285703,"current_range_meters":20000,"station_id":"","pricing_plan_id":"free"},{"bike_id":"1301be43-cefa-4f13-ad20-5fa8f15bf9a8","system_id":"levelo_inurba_marseille","lat":43.290161,"lon":5.375651,"is_reserved":false,"is_disabled":false,"rental_uris":{"android":"levelo://app?vid=1301be43-cefa-4f13-ad20-5fa8f15bf9a8","ios":"levelo://app?vid=1301be43-cefa-4f13-ad20-5fa8f15bf9a8"},"vehicle_type_id":"4","last_reported":1702285703,"current_range_meters":6400,"station_id":"","pricing_plan_id":"free"},{"bike_id":"a02a1b20-1fb1-4951-988a-77389649024d","system_id":"levelo_inurba_marseille","lat":43.289259,"lon":5.366364,"is_reserved":false,"is_disabled":false,"rental_uris":{"android":"levelo://app?vid=a02a1b20-1fb1-4951-988a-77389649024d","ios":"levelo://app?vid=a02a1b20-1fb1-4951-988a-77389649024d"},"vehicle_type_id":"4","last_reported":1702285703,"current_range_meters":5200,"station_id":"","pricing_plan_id":"free"},{"bike_id":"5c89a9b6-209a-481d-982f-1475e2e19307","system_id":"levelo_inurba_marseille","lat":43.292644,"lon":5.384257,"is_reserved":false,"is_disabled":false,"rental_uris":{"android":"levelo://app?vid=5c89a9b6-209a-481d-982f-1475e2e19307","ios":"levelo://app?vid=5c89a9b6-209a-481d-982f-1475e2e19307"},"vehicle_type_id":"4","last_reported":1702285703,"current_range_meters":22400,"station_id":"ce4bh692rcd13ifvqea0","pricing_plan_id":"free"},{"bike_id":"2c7e2722-e2b0-420d-9385-9a5e188db8e2","system_id":"levelo_inurba_marseille","lat":43.297815,"lon":5.393548,"is_reserved":false,"is_disabled":false,"rental_uris":{"android":"levelo://app?vid=2c7e2722-e2b0-420d-9385-9a5e188db8e2","ios":"levelo://app?vid=2c7e2722-e2b0-420d-9385-9a5e188db8e2"},"vehicle_type_id":"4","last_reported":1702285703,"current_range_meters":15200,"station_id":"chh1huq6cuj3fo74tm60","pricing_plan_id":"free"},{"bike_id":"02090c82-0712-417d-b1ab-eb30a5472199","system_id":"levelo_inurba_marseille","lat":43.29781,"lon":5.39344,"is_reserved":false,"is_disabled":false,"rental_uris":{"android":"levelo://app?vid=02090c82-0712-417d-b1ab-eb30a5472199","ios":"levelo://app?vid=02090c82-0712-417d-b1ab-eb30a5472199"},"vehicle_type_id":"4","last_reported":1702285703,"current_range_meters":28000,"station_id":"chh1huq6cuj3fo74tm60","pricing_plan_id":"free"},{"bike_id":"16a4eb9d-de1f-46e2-b8bf-31e37944ec8e","system_id":"levelo_inurba_marseille","lat":43.295194,"lon":5.39397,"is_reserved":false,"is_disabled":false,"rental_uris":{"android":"levelo://app?vid=16a4eb9d-de1f-46e2-b8bf-31e37944ec8e","ios":"levelo://app?vid=16a4eb9d-de1f-46e2-b8bf-31e37944ec8e"},"vehicle_type_id":"4","last_reported":1702285703,"current_range_meters":0,"station_id":"ce4bh292rcd13ifvqdf0","pricing_plan_id":"free"},{"bike_id":"df261ef2-0c6a-4023-b067-8ab80fffd255","system_id":"levelo_inurba_marseille","lat":43.337168,"lon":5.391825,"is_reserved":false,"is_disabled":false,"rental_uris":{"android":"levelo://app?vid=df261ef2-0c6a-4023-b067-8ab80fffd255","ios":"levelo://app?vid=df261ef2-0c6a-4023-b067-8ab80fffd255"},"vehicle_type_id":"4","last_reported":1702285703,"current_range_meters":30000,"station_id":"ce4bhr92rcd13ifvqhsg","pricing_plan_id":"free"},{"bike_id":"6b5d3455-83ff-4a44-8cf9-e1ec8a63f7d1","system_id":"levelo_inurba_marseille","lat":43.283498,"lon":5.380948,"is_reserved":false,"is_disabled":false,"rental_uris":{"android":"levelo://app?vid=6b5d3455-83ff-4a44-8cf9-e1ec8a63f7d1","ios":"levelo://app?vid=6b5d3455-83ff-4a44-8cf9-e1ec8a63f7d1"},"vehicle_type_id":"4","last_reported":1702285703,"current_range_meters":30400,"station_id":"ce4bh412rcd13ifvqdr0","pricing_plan_id":"free"},{"bike_id":"f1d7704d-ed43-4e3c-aef4-6eeafdbed99c","system_id":"levelo_inurba_marseille","lat":43.282744,"lon":5.350533,"is_reserved":false,"is_disabled":false,"rental_uris":{"android":"levelo://app?vid=f1d7704d-ed43-4e3c-aef4-6eeafdbed99c","ios":"levelo://app?vid=f1d7704d-ed43-4e3c-aef4-6eeafdbed99c"},"vehicle_type_id":"4","last_reported":1702285703,"current_range_meters":9600,"station_id":"ce4bhbp2rcd13ifvqerg","pricing_plan_id":"free"},{"bike_id":"d4186755-e323-47b7-8be8-26a9433d18c4","system_id":"levelo_inurba_marseille","lat":43.29026,"lon":5.399703,"is_reserved":false,"is_disabled":false,"rental_uris":{"android":"levelo://app?vid=d4186755-e323-47b7-8be8-26a9433d18c4","ios":"levelo://app?vid=d4186755-e323-47b7-8be8-26a9433d18c4"},"vehicle_type_id":"4","last_reported":1702285703,"current_range_meters":26000,"station_id":"ce4bh392rcd13ifvqdm0","pricing_plan_id":"free"},{"bike_id":"63f842b2-5c34-4031-a2b3-db4c583c41c2","system_id":"levelo_inurba_marseille","lat":43.27974,"lon":5.38743,"is_reserved":false,"is_disabled":false,"rental_uris":{"android":"levelo://app?vid=63f842b2-5c34-4031-a2b3-db4c583c41c2","ios":"levelo://app?vid=63f842b2-5c34-4031-a2b3-db4c583c41c2"},"vehicle_type_id":"4","last_reported":1702285703,"current_range_meters":25200,"station_id":"ce4bhg12rcd13ifvqf80","pricing_plan_id":"free"},{"bike_id":"30f63a07-f257-4411-8177-a5c608c48cd1","system_id":"levelo_inurba_marseille","lat":43.325233,"lon":5.414318,"is_reserved":false,"is_disabled":false,"rental_uris":{"android":"levelo://app?vid=30f63a07-f257-4411-8177-a5c608c48cd1","ios":"levelo://app?vid=30f63a07-f257-4411-8177-a5c608c48cd1"},"vehicle_type_id":"4","last_reported":1702285703,"current_range_meters":9600,"station_id":"ce4bhq12rcd13ifvqhhg","pricing_plan_id":"free"},{"bike_id":"7c55ad79-787a-44c5-8b75-f663cafd3b59","system_id":"levelo_inurba_marseille","lat":43.325243,"lon":5.414326,"is_reserved":false,"is_disabled":false,"rental_uris":{"android":"levelo://app?vid=7c55ad79-787a-44c5-8b75-f663cafd3b59","ios":"levelo://app?vid=7c55ad79-787a-44c5-8b75-f663cafd3b59"},"vehicle_type_id":"4","last_reported":1702285703,"current_range_meters":25600,"station_id":"ce4bhq12rcd13ifvqhhg","pricing_plan_id":"free"},{"bike_id":"090ad51e-0df4-4bcd-9a1d-84e5a006fd0b","system_id":"levelo_inurba_marseille","lat":43.325233,"lon":5.414318,"is_reserved":false,"is_disabled":false,"rental_uris":{"android":"levelo://app?vid=090ad51e-0df4-4bcd-9a1d-84e5a006fd0b","ios":"levelo://app?vid=090ad51e-0df4-4bcd-9a1d-84e5a006fd0b"},"vehicle_type_id":"4","last_reported":1702285703,"current_range_meters":27200,"station_id":"ce4bhq12rcd13ifvqhhg","pricing_plan_id":"free"},{"bike_id":"34c8f290-e444-432b-92ad-e54877e5a127","system_id":"levelo_inurba_marseille","lat":43.325243,"lon":5.414326,"is_reserved":false,"is_disabled":false,"rental_uris":{"android":"levelo://app?vid=34c8f290-e444-432b-92ad-e54877e5a127","ios":"levelo://app?vid=34c8f290-e444-432b-92ad-e54877e5a127"},"vehicle_type_id":"4","last_reported":1702285703,"current_range_meters":22800,"station_id":"ce4bhq12rcd13ifvqhhg","pricing_plan_id":"free"},{"bike_id":"c3c9af5b-4671-4064-8067-d2cdd8271060","system_id":"levelo_inurba_marseille","lat":43.27621,"lon":5.36099,"is_reserved":false,"is_disabled":false,"rental_uris":{"android":"levelo://app?vid=c3c9af5b-4671-4064-8067-d2cdd8271060","ios":"levelo://app?vid=c3c9af5b-4671-4064-8067-d2cdd8271060"},"vehicle_type_id":"4","last_reported":1702285703,"current_range_meters":26800,"station_id":"","pricing_plan_id":"free"},{"bike_id":"20f997ed-6738-4b4b-92c8-af1d150e8337","system_id":"levelo_inurba_marseille","lat":43.303837,"lon":5.418724,"is_reserved":false,"is_disabled":false,"rental_uris":{"android":"levelo://app?vid=20f997ed-6738-4b4b-92c8-af1d150e8337","ios":"levelo://app?vid=20f997ed-6738-4b4b-92c8-af1d150e8337"},"vehicle_type_id":"4","last_reported":1702285703,"current_range_meters":30000,"station_id":"ce4bhop2rcd13ifvqh7g","pricing_plan_id":"free"},{"bike_id":"3c02ac1d-513a-4816-9b08-9c1b4099cd9a","system_id":"levelo_inurba_marseille","lat":43.303837,"lon":5.418724,"is_reserved":false,"is_disabled":false,"rental_uris":{"android":"levelo://app?vid=3c02ac1d-513a-4816-9b08-9c1b4099cd9a","ios":"levelo://app?vid=3c02ac1d-513a-4816-9b08-9c1b4099cd9a"},"vehicle_type_id":"4","last_reported":1702285703,"current_range_meters":27600,"station_id":"ce4bhop2rcd13ifvqh7g","pricing_plan_id":"free"},{"bike_id":"8745b81b-1642-4296-8559-3906cde992e2","system_id":"levelo_inurba_marseille","lat":43.276769,"lon":5.388787,"is_reserved":false,"is_disabled":false,"rental_uris":{"android":"levelo://app?vid=8745b81b-1642-4296-8559-3906cde992e2","ios":"levelo://app?vid=8745b81b-1642-4296-8559-3906cde992e2"},"vehicle_type_id":"4","last_reported":1702285703,"current_range_meters":23200,"station_id":"ce4bhi12rcd13ifvqfo0","pricing_plan_id":"free"},{"bike_id":"cf406b82-e282-4f1a-9a9b-45aba2fcad2a","system_id":"levelo_inurba_marseille","lat":43.276771,"lon":5.388799,"is_reserved":false,"is_disabled":false,"rental_uris":{"android":"levelo://app?vid=cf406b82-e282-4f1a-9a9b-45aba2fcad2a","ios":"levelo://app?vid=cf406b82-e282-4f1a-9a9b-45aba2fcad2a"},"vehicle_type_id":"4","last_reported":1702285703,"current_range_meters":25200,"station_id":"ce4bhi12rcd13ifvqfo0","pricing_plan_id":"free"},{"bike_id":"b49195d1-5252-4b63-9ddd-c39017071e00","system_id":"levelo_inurba_marseille","lat":43.27639,"lon":5.39485,"is_reserved":false,"is_disabled":false,"rental_uris":{"android":"levelo://app?vid=b49195d1-5252-4b63-9ddd-c39017071e00","ios":"levelo://app?vid=b49195d1-5252-4b63-9ddd-c39017071e00"},"vehicle_type_id":"4","last_reported":1702285703,"current_range_meters":14000,"station_id":"","pricing_plan_id":"free"},{"bike_id":"ad235382-e941-4cb1-91eb-24c4c771637d","system_id":"levelo_inurba_marseille","lat":43.310785,"lon":5.424305,"is_reserved":false,"is_disabled":false,"rental_uris":{"android":"levelo://app?vid=ad235382-e941-4cb1-91eb-24c4c771637d","ios":"levelo://app?vid=ad235382-e941-4cb1-91eb-24c4c771637d"},"vehicle_type_id":"4","last_reported":1702285703,"current_range_meters":27200,"station_id":"ce4bhp92rcd13ifvqhag","pricing_plan_id":"free"},{"bike_id":"91342207-93b5-4854-8160-d128f56d1c12","system_id":"levelo_inurba_marseille","lat":43.310785,"lon":5.424305,"is_reserved":false,"is_disabled":false,"rental_uris":{"android":"levelo://app?vid=91342207-93b5-4854-8160-d128f56d1c12","ios":"levelo://app?vid=91342207-93b5-4854-8160-d128f56d1c12"},"vehicle_type_id":"4","last_reported":1702285703,"current_range_meters":29600,"station_id":"ce4bhp92rcd13ifvqhag","pricing_plan_id":"free"},{"bike_id":"ebe88bc4-4dfe-4631-b98a-840334e7fcdb","system_id":"levelo_inurba_marseille","lat":43.31723,"lon":5.42405,"is_reserved":false,"is_disabled":false,"rental_uris":{"android":"levelo://app?vid=ebe88bc4-4dfe-4631-b98a-840334e7fcdb","ios":"levelo://app?vid=ebe88bc4-4dfe-4631-b98a-840334e7fcdb"},"vehicle_type_id":"4","last_reported":1702285703,"current_range_meters":10000,"station_id":"ce4bhp92rcd13ifvqhbg","pricing_plan_id":"free"},{"bike_id":"b95f1926-9f0f-4e05-89cb-b6d32e9439c4","system_id":"levelo_inurba_marseille","lat":43.340804,"lon":5.410219,"is_reserved":false,"is_disabled":false,"rental_uris":{"android":"levelo://app?vid=b95f1926-9f0f-4e05-89cb-b6d32e9439c4","ios":"levelo://app?vid=b95f1926-9f0f-4e05-89cb-b6d32e9439c4"},"vehicle_type_id":"4","last_reported":1702285703,"current_range_meters":31200,"station_id":"ce4bhqh2rcd13ifvqhlg","pricing_plan_id":"free"},{"bike_id":"61fa4ff1-36b0-4302-9440-1c54a3907bae","system_id":"levelo_inurba_marseille","lat":43.274103,"lon":5.394016,"is_reserved":false,"is_disabled":false,"rental_uris":{"android":"levelo://app?vid=61fa4ff1-36b0-4302-9440-1c54a3907bae","ios":"levelo://app?vid=61fa4ff1-36b0-4302-9440-1c54a3907bae"},"vehicle_type_id":"4","last_reported":1702285703,"current_range_meters":2000,"station_id":"ce4bhdp2rcd13ifvqf20","pricing_plan_id":"free"},{"bike_id":"474b8cec-a86e-4cd9-8073-90a653baa0bb","system_id":"levelo_inurba_marseille","lat":43.278128,"lon":5.407195,"is_reserved":false,"is_disabled":false,"rental_uris":{"android":"levelo://app?vid=474b8cec-a86e-4cd9-8073-90a653baa0bb","ios":"levelo://app?vid=474b8cec-a86e-4cd9-8073-90a653baa0bb"},"vehicle_type_id":"4","last_reported":1702285703,"current_range_meters":26400,"station_id":"ce4bhnh2rcd13ifvqgtg","pricing_plan_id":"free"},{"bike_id":"31b1be08-7dfb-4d1c-add4-b73f898015db","system_id":"levelo_inurba_marseille","lat":43.269517,"lon":5.38627,"is_reserved":false,"is_disabled":false,"rental_uris":{"android":"levelo://app?vid=31b1be08-7dfb-4d1c-add4-b73f898015db","ios":"levelo://app?vid=31b1be08-7dfb-4d1c-add4-b73f898015db"},"vehicle_type_id":"4","last_reported":1702285703,"current_range_meters":20400,"station_id":"ce4bhh92rcd13ifvqfh0","pricing_plan_id":"free"},{"bike_id":"d09ed7a0-50e3-4a5e-b84e-f5143bf61917","system_id":"levelo_inurba_marseille","lat":43.269467,"lon":5.386439,"is_reserved":false,"is_disabled":false,"rental_uris":{"android":"levelo://app?vid=d09ed7a0-50e3-4a5e-b84e-f5143bf61917","ios":"levelo://app?vid=d09ed7a0-50e3-4a5e-b84e-f5143bf61917"},"vehicle_type_id":"4","last_reported":1702285703,"current_range_meters":18800,"station_id":"ce4bhh92rcd13ifvqfh0","pricing_plan_id":"free"},{"bike_id":"c639dfa5-99a2-4ae5-bf54-1b1c96687262","system_id":"levelo_inurba_marseille","lat":43.32538,"lon":5.42956,"is_reserved":false,"is_disabled":false,"rental_uris":{"android":"levelo://app?vid=c639dfa5-99a2-4ae5-bf54-1b1c96687262","ios":"levelo://app?vid=c639dfa5-99a2-4ae5-bf54-1b1c96687262"},"vehicle_type_id":"4","last_reported":1702285703,"current_range_meters":2800,"station_id":"","pricing_plan_id":"free"},{"bike_id":"eaf5936c-ab18-4a7a-9d1f-0736eb9cbe78","system_id":"levelo_inurba_marseille","lat":43.26681,"lon":5.382694,"is_reserved":false,"is_disabled":false,"rental_uris":{"android":"levelo://app?vid=eaf5936c-ab18-4a7a-9d1f-0736eb9cbe78","ios":"levelo://app?vid=eaf5936c-ab18-4a7a-9d1f-0736eb9cbe78"},"vehicle_type_id":"4","last_reported":1702285703,"current_range_meters":14800,"station_id":"ce4bhg92rcd13ifvqf90","pricing_plan_id":"free"},{"bike_id":"326187b7-c618-447b-a1f4-93941f43eae5","system_id":"levelo_inurba_marseille","lat":43.26681,"lon":5.382694,"is_reserved":false,"is_disabled":false,"rental_uris":{"android":"levelo://app?vid=326187b7-c618-447b-a1f4-93941f43eae5","ios":"levelo://app?vid=326187b7-c618-447b-a1f4-93941f43eae5"},"vehicle_type_id":"4","last_reported":1702285703,"current_range_meters":28400,"station_id":"ce4bhg92rcd13ifvqf90","pricing_plan_id":"free"},{"bike_id":"6c9a7769-40d4-42dc-9b48-47769de74c91","system_id":"levelo_inurba_marseille","lat":43.2633,"lon":5.37675,"is_reserved":false,"is_disabled":false,"rental_uris":{"android":"levelo://app?vid=6c9a7769-40d4-42dc-9b48-47769de74c91","ios":"levelo://app?vid=6c9a7769-40d4-42dc-9b48-47769de74c91"},"vehicle_type_id":"4","last_reported":1702285703,"current_range_meters":14000,"station_id":"","pricing_plan_id":"free"},{"bike_id":"89ef1c57-fd5b-4fbe-bff7-f779267c7cf2","system_id":"levelo_inurba_marseille","lat":43.3171,"lon":5.43712,"is_reserved":false,"is_disabled":false,"rental_uris":{"android":"levelo://app?vid=89ef1c57-fd5b-4fbe-bff7-f779267c7cf2","ios":"levelo://app?vid=89ef1c57-fd5b-4fbe-bff7-f779267c7cf2"},"vehicle_type_id":"4","last_reported":1702285703,"current_range_meters":15200,"station_id":"ce4bhp92rcd13ifvqhcg","pricing_plan_id":"free"},{"bike_id":"287e9254-f263-4a4d-afd9-500f2b256a68","system_id":"levelo_inurba_marseille","lat":43.2616,"lon":5.37414,"is_reserved":false,"is_disabled":false,"rental_uris":{"android":"levelo://app?vid=287e9254-f263-4a4d-afd9-500f2b256a68","ios":"levelo://app?vid=287e9254-f263-4a4d-afd9-500f2b256a68"},"vehicle_type_id":"4","last_reported":1702285703,"current_range_meters":24000,"station_id":"ce4bhgp2rcd13ifvqfc0","pricing_plan_id":"free"},{"bike_id":"ef61d91f-bc01-4900-904b-302853f61387","system_id":"levelo_inurba_marseille","lat":43.2607,"lon":5.393983,"is_reserved":false,"is_disabled":false,"rental_uris":{"android":"levelo://app?vid=ef61d91f-bc01-4900-904b-302853f61387","ios":"levelo://app?vid=ef61d91f-bc01-4900-904b-302853f61387"},"vehicle_type_id":"4","last_reported":1702285703,"current_range_meters":28000,"station_id":"ce4bhh92rcd13ifvqfj0","pricing_plan_id":"free"},{"bike_id":"b37d935b-f1f0-4279-8c0a-2ee13ef10f3d","system_id":"levelo_inurba_marseille","lat":43.2607,"lon":5.393983,"is_reserved":false,"is_disabled":false,"rental_uris":{"android":"levelo://app?vid=b37d935b-f1f0-4279-8c0a-2ee13ef10f3d","ios":"levelo://app?vid=b37d935b-f1f0-4279-8c0a-2ee13ef10f3d"},"vehicle_type_id":"4","last_reported":1702285703,"current_range_meters":17200,"station_id":"ce4bhh92rcd13ifvqfj0","pricing_plan_id":"free"},{"bike_id":"fe655108-02f0-4138-9abf-33a3ee587e47","system_id":"levelo_inurba_marseille","lat":43.2607,"lon":5.393983,"is_reserved":false,"is_disabled":false,"rental_uris":{"android":"levelo://app?vid=fe655108-02f0-4138-9abf-33a3ee587e47","ios":"levelo://app?vid=fe655108-02f0-4138-9abf-33a3ee587e47"},"vehicle_type_id":"4","last_reported":1702285703,"current_range_meters":17600,"station_id":"ce4bhh92rcd13ifvqfj0","pricing_plan_id":"free"},{"bike_id":"3cc623f6-3385-4909-99f7-0630ef4d20ac","system_id":"levelo_inurba_marseille","lat":43.275028,"lon":5.424534,"is_reserved":false,"is_disabled":false,"rental_uris":{"android":"levelo://app?vid=3cc623f6-3385-4909-99f7-0630ef4d20ac","ios":"levelo://app?vid=3cc623f6-3385-4909-99f7-0630ef4d20ac"},"vehicle_type_id":"4","last_reported":1702285703,"current_range_meters":31200,"station_id":"ce4bhn92rcd13ifvqgrg","pricing_plan_id":"free"},{"bike_id":"6197b058-6735-429d-871e-0742eddb4a48","system_id":"levelo_inurba_marseille","lat":43.275028,"lon":5.424534,"is_reserved":false,"is_disabled":false,"rental_uris":{"android":"levelo://app?vid=6197b058-6735-429d-871e-0742eddb4a48","ios":"levelo://app?vid=6197b058-6735-429d-871e-0742eddb4a48"},"vehicle_type_id":"4","last_reported":1702285703,"current_range_meters":24000,"station_id":"ce4bhn92rcd13ifvqgrg","pricing_plan_id":"free"},{"bike_id":"ebde47f5-8adc-4ba0-989a-ac400eed876b","system_id":"levelo_inurba_marseille","lat":43.275028,"lon":5.424534,"is_reserved":false,"is_disabled":false,"rental_uris":{"android":"levelo://app?vid=ebde47f5-8adc-4ba0-989a-ac400eed876b","ios":"levelo://app?vid=ebde47f5-8adc-4ba0-989a-ac400eed876b"},"vehicle_type_id":"4","last_reported":1702285703,"current_range_meters":30400,"station_id":"ce4bhn92rcd13ifvqgrg","pricing_plan_id":"free"},{"bike_id":"f2194bfa-545d-4c36-9d1e-60af3e83191d","system_id":"levelo_inurba_marseille","lat":43.275028,"lon":5.424534,"is_reserved":false,"is_disabled":false,"rental_uris":{"android":"levelo://app?vid=f2194bfa-545d-4c36-9d1e-60af3e83191d","ios":"levelo://app?vid=f2194bfa-545d-4c36-9d1e-60af3e83191d"},"vehicle_type_id":"4","last_reported":1702285703,"current_range_meters":19200,"station_id":"ce4bhn92rcd13ifvqgrg","pricing_plan_id":"free"},{"bike_id":"5e84d8c7-d441-4dbe-a2d3-fe9e4da066ed","system_id":"levelo_inurba_marseille","lat":43.231562,"lon":5.436933,"is_reserved":false,"is_disabled":false,"rental_uris":{"android":"levelo://app?vid=5e84d8c7-d441-4dbe-a2d3-fe9e4da066ed","ios":"levelo://app?vid=5e84d8c7-d441-4dbe-a2d3-fe9e4da066ed"},"vehicle_type_id":"4","last_reported":1702285703,"current_range_meters":11200,"station_id":"ce4bhmp2rcd13ifvqgog","pricing_plan_id":"free"},{"bike_id":"be6b3807-e297-40d6-a1d7-c81c1105b896","system_id":"levelo_inurba_marseille","lat":43.255756,"lon":5.382303,"is_reserved":false,"is_disabled":false,"rental_uris":{"android":"levelo://app?vid=be6b3807-e297-40d6-a1d7-c81c1105b896","ios":"levelo://app?vid=be6b3807-e297-40d6-a1d7-c81c1105b896"},"vehicle_type_id":"4","last_reported":1702285703,"current_range_meters":25600,"station_id":"ce4bhih2rcd13ifvqfs0","pricing_plan_id":"free"},{"bike_id":"f7672adf-00e8-4cd4-84da-bb3563ee8344","system_id":"levelo_inurba_marseille","lat":43.258224,"lon":5.394369,"is_reserved":false,"is_disabled":false,"rental_uris":{"android":"levelo://app?vid=f7672adf-00e8-4cd4-84da-bb3563ee8344","ios":"levelo://app?vid=f7672adf-00e8-4cd4-84da-bb3563ee8344"},"vehicle_type_id":"4","last_reported":1702285703,"current_range_meters":24400,"station_id":"ce4bhip2rcd13ifvqft0","pricing_plan_id":"free"},{"bike_id":"fb852c99-3dc2-4225-9168-d0df35f37256","system_id":"levelo_inurba_marseille","lat":43.259013,"lon":5.409301,"is_reserved":false,"is_disabled":false,"rental_uris":{"android":"levelo://app?vid=fb852c99-3dc2-4225-9168-d0df35f37256","ios":"levelo://app?vid=fb852c99-3dc2-4225-9168-d0df35f37256"},"vehicle_type_id":"4","last_reported":1702285703,"current_range_meters":20400,"station_id":"ce4bhm92rcd13ifvqglg","pricing_plan_id":"free"},{"bike_id":"d30e68c4-80e5-4190-b49e-6652180bc6fd","system_id":"levelo_inurba_marseille","lat":43.25934,"lon":5.40909,"is_reserved":false,"is_disabled":false,"rental_uris":{"android":"levelo://app?vid=d30e68c4-80e5-4190-b49e-6652180bc6fd","ios":"levelo://app?vid=d30e68c4-80e5-4190-b49e-6652180bc6fd"},"vehicle_type_id":"4","last_reported":1702285703,"current_range_meters":25600,"station_id":"ce4bhm92rcd13ifvqglg","pricing_plan_id":"free"},{"bike_id":"1b9ac663-062b-42c1-9068-08738207cdfb","system_id":"levelo_inurba_marseille","lat":43.25934,"lon":5.40911,"is_reserved":false,"is_disabled":false,"rental_uris":{"android":"levelo://app?vid=1b9ac663-062b-42c1-9068-08738207cdfb","ios":"levelo://app?vid=1b9ac663-062b-42c1-9068-08738207cdfb"},"vehicle_type_id":"4","last_reported":1702285703,"current_range_meters":20000,"station_id":"ce4bhm92rcd13ifvqglg","pricing_plan_id":"free"},{"bike_id":"b0bda5a5-15e7-4b51-8b6f-62cbd99b2ec2","system_id":"levelo_inurba_marseille","lat":43.259013,"lon":5.409301,"is_reserved":false,"is_disabled":false,"rental_uris":{"android":"levelo://app?vid=b0bda5a5-15e7-4b51-8b6f-62cbd99b2ec2","ios":"levelo://app?vid=b0bda5a5-15e7-4b51-8b6f-62cbd99b2ec2"},"vehicle_type_id":"4","last_reported":1702285703,"current_range_meters":5200,"station_id":"ce4bhm92rcd13ifvqglg","pricing_plan_id":"free"},{"bike_id":"741cbace-340a-4c4b-9a81-47976ee1ab69","system_id":"levelo_inurba_marseille","lat":43.25932,"lon":5.4091,"is_reserved":false,"is_disabled":false,"rental_uris":{"android":"levelo://app?vid=741cbace-340a-4c4b-9a81-47976ee1ab69","ios":"levelo://app?vid=741cbace-340a-4c4b-9a81-47976ee1ab69"},"vehicle_type_id":"4","last_reported":1702285703,"current_range_meters":22400,"station_id":"ce4bhm92rcd13ifvqglg","pricing_plan_id":"free"},{"bike_id":"623ed31e-56d3-4da2-8e01-c48b88c3a071","system_id":"levelo_inurba_marseille","lat":43.25931,"lon":5.4091,"is_reserved":false,"is_disabled":false,"rental_uris":{"android":"levelo://app?vid=623ed31e-56d3-4da2-8e01-c48b88c3a071","ios":"levelo://app?vid=623ed31e-56d3-4da2-8e01-c48b88c3a071"},"vehicle_type_id":"4","last_reported":1702285703,"current_range_meters":1200,"station_id":"ce4bhm92rcd13ifvqglg","pricing_plan_id":"free"},{"bike_id":"bba5fce4-3dbe-4b83-ba69-18cb502c496d","system_id":"levelo_inurba_marseille","lat":43.25102,"lon":5.403214,"is_reserved":false,"is_disabled":false,"rental_uris":{"android":"levelo://app?vid=bba5fce4-3dbe-4b83-ba69-18cb502c496d","ios":"levelo://app?vid=bba5fce4-3dbe-4b83-ba69-18cb502c496d"},"vehicle_type_id":"4","last_reported":1702285703,"current_range_meters":19600,"station_id":"ce4bhlh2rcd13ifvqgig","pricing_plan_id":"free"},{"bike_id":"ff2d5667-6e78-4c98-9c7e-7ead20322077","system_id":"levelo_inurba_marseille","lat":43.25102,"lon":5.403214,"is_reserved":false,"is_disabled":false,"rental_uris":{"android":"levelo://app?vid=ff2d5667-6e78-4c98-9c7e-7ead20322077","ios":"levelo://app?vid=ff2d5667-6e78-4c98-9c7e-7ead20322077"},"vehicle_type_id":"4","last_reported":1702285703,"current_range_meters":800,"station_id":"ce4bhlh2rcd13ifvqgig","pricing_plan_id":"free"},{"bike_id":"85660c55-db11-439f-997e-630394c4bffa","system_id":"levelo_inurba_marseille","lat":43.25102,"lon":5.403214,"is_reserved":false,"is_disabled":false,"rental_uris":{"android":"levelo://app?vid=85660c55-db11-439f-997e-630394c4bffa","ios":"levelo://app?vid=85660c55-db11-439f-997e-630394c4bffa"},"vehicle_type_id":"4","last_reported":1702285703,"current_range_meters":20000,"station_id":"ce4bhlh2rcd13ifvqgig","pricing_plan_id":"free"},{"bike_id":"400cda8c-22b3-4bdd-a2d2-ffc063ed1d21","system_id":"levelo_inurba_marseille","lat":43.240623,"lon":5.377642,"is_reserved":false,"is_disabled":false,"rental_uris":{"android":"levelo://app?vid=400cda8c-22b3-4bdd-a2d2-ffc063ed1d21","ios":"levelo://app?vid=400cda8c-22b3-4bdd-a2d2-ffc063ed1d21"},"vehicle_type_id":"4","last_reported":1702285703,"current_range_meters":21200,"station_id":"ce4bhnp2rcd13ifvqgvg","pricing_plan_id":"free"},{"bike_id":"78298a83-3d39-4fca-9dc4-16a5a8333c97","system_id":"levelo_inurba_marseille","lat":43.240618,"lon":5.377636,"is_reserved":false,"is_disabled":false,"rental_uris":{"android":"levelo://app?vid=78298a83-3d39-4fca-9dc4-16a5a8333c97","ios":"levelo://app?vid=78298a83-3d39-4fca-9dc4-16a5a8333c97"},"vehicle_type_id":"4","last_reported":1702285703,"current_range_meters":4000,"station_id":"ce4bhnp2rcd13ifvqgvg","pricing_plan_id":"free"},{"bike_id":"f1dff5f9-8dbf-42f0-bbdb-a0f5e2b30a6c","system_id":"levelo_inurba_marseille","lat":43.240623,"lon":5.377642,"is_reserved":false,"is_disabled":false,"rental_uris":{"android":"levelo://app?vid=f1dff5f9-8dbf-42f0-bbdb-a0f5e2b30a6c","ios":"levelo://app?vid=f1dff5f9-8dbf-42f0-bbdb-a0f5e2b30a6c"},"vehicle_type_id":"4","last_reported":1702285703,"current_range_meters":20400,"station_id":"ce4bhnp2rcd13ifvqgvg","pricing_plan_id":"free"},{"bike_id":"c8bd7ccd-8660-4ade-b0c3-e77965e3a22e","system_id":"levelo_inurba_marseille","lat":43.240623,"lon":5.377642,"is_reserved":false,"is_disabled":false,"rental_uris":{"android":"levelo://app?vid=c8bd7ccd-8660-4ade-b0c3-e77965e3a22e","ios":"levelo://app?vid=c8bd7ccd-8660-4ade-b0c3-e77965e3a22e"},"vehicle_type_id":"4","last_reported":1702285703,"current_range_meters":28000,"station_id":"ce4bhnp2rcd13ifvqgvg","pricing_plan_id":"free"},{"bike_id":"0b4b8cf0-f43f-45bf-ade1-0f2b6d0d5b18","system_id":"levelo_inurba_marseille","lat":43.240623,"lon":5.377642,"is_reserved":false,"is_disabled":false,"rental_uris":{"android":"levelo://app?vid=0b4b8cf0-f43f-45bf-ade1-0f2b6d0d5b18","ios":"levelo://app?vid=0b4b8cf0-f43f-45bf-ade1-0f2b6d0d5b18"},"vehicle_type_id":"4","last_reported":1702285703,"current_range_meters":18000,"station_id":"ce4bhnp2rcd13ifvqgvg","pricing_plan_id":"free"},{"bike_id":"8d657dd6-8309-4c6a-abae-7a6927bc3336","system_id":"levelo_inurba_marseille","lat":43.240623,"lon":5.377642,"is_reserved":false,"is_disabled":false,"rental_uris":{"android":"levelo://app?vid=8d657dd6-8309-4c6a-abae-7a6927bc3336","ios":"levelo://app?vid=8d657dd6-8309-4c6a-abae-7a6927bc3336"},"vehicle_type_id":"4","last_reported":1702285703,"current_range_meters":32000,"station_id":"ce4bhnp2rcd13ifvqgvg","pricing_plan_id":"free"},{"bike_id":"84fc6b95-fc09-41f6-bda1-463f279b86d3","system_id":"levelo_inurba_marseille","lat":43.240623,"lon":5.377642,"is_reserved":false,"is_disabled":false,"rental_uris":{"android":"levelo://app?vid=84fc6b95-fc09-41f6-bda1-463f279b86d3","ios":"levelo://app?vid=84fc6b95-fc09-41f6-bda1-463f279b86d3"},"vehicle_type_id":"4","last_reported":1702285703,"current_range_meters":13600,"station_id":"ce4bhnp2rcd13ifvqgvg","pricing_plan_id":"free"},{"bike_id":"26632c8e-b701-488b-94fc-8e84cdad5404","system_id":"levelo_inurba_marseille","lat":43.240623,"lon":5.377642,"is_reserved":false,"is_disabled":false,"rental_uris":{"android":"levelo://app?vid=26632c8e-b701-488b-94fc-8e84cdad5404","ios":"levelo://app?vid=26632c8e-b701-488b-94fc-8e84cdad5404"},"vehicle_type_id":"4","last_reported":1702285703,"current_range_meters":19200,"station_id":"ce4bhnp2rcd13ifvqgvg","pricing_plan_id":"free"},{"bike_id":"94cd4a8a-7ad6-45ba-9953-b10109c45bf3","system_id":"levelo_inurba_marseille","lat":43.240618,"lon":5.377636,"is_reserved":false,"is_disabled":false,"rental_uris":{"android":"levelo://app?vid=94cd4a8a-7ad6-45ba-9953-b10109c45bf3","ios":"levelo://app?vid=94cd4a8a-7ad6-45ba-9953-b10109c45bf3"},"vehicle_type_id":"4","last_reported":1702285703,"current_range_meters":23600,"station_id":"ce4bhnp2rcd13ifvqgvg","pricing_plan_id":"free"},{"bike_id":"ba6bc2cd-6e13-4124-aeed-921fb4e8ccc2","system_id":"levelo_inurba_marseille","lat":43.239588,"lon":5.366238,"is_reserved":false,"is_disabled":false,"rental_uris":{"android":"levelo://app?vid=ba6bc2cd-6e13-4124-aeed-921fb4e8ccc2","ios":"levelo://app?vid=ba6bc2cd-6e13-4124-aeed-921fb4e8ccc2"},"vehicle_type_id":"4","last_reported":1702285703,"current_range_meters":26800,"station_id":"ce4bhi12rcd13ifvqfp0","pricing_plan_id":"free"},{"bike_id":"67b0f262-388b-4af5-a289-d71ce9d85545","system_id":"levelo_inurba_marseille","lat":43.239588,"lon":5.366238,"is_reserved":false,"is_disabled":false,"rental_uris":{"android":"levelo://app?vid=67b0f262-388b-4af5-a289-d71ce9d85545","ios":"levelo://app?vid=67b0f262-388b-4af5-a289-d71ce9d85545"},"vehicle_type_id":"4","last_reported":1702285703,"current_range_meters":21200,"station_id":"ce4bhi12rcd13ifvqfp0","pricing_plan_id":"free"},{"bike_id":"15f9280b-004b-4471-9dc4-253a38fa010a","system_id":"levelo_inurba_marseille","lat":43.241818,"lon":5.397183,"is_reserved":false,"is_disabled":false,"rental_uris":{"android":"levelo://app?vid=15f9280b-004b-4471-9dc4-253a38fa010a","ios":"levelo://app?vid=15f9280b-004b-4471-9dc4-253a38fa010a"},"vehicle_type_id":"4","last_reported":1702285703,"current_range_meters":0,"station_id":"ce4bhn12rcd13ifvqgpg","pricing_plan_id":"free"},{"bike_id":"ff3311be-0e5d-4347-bfab-118723a2b76e","system_id":"levelo_inurba_marseille","lat":43.231919,"lon":5.355532,"is_reserved":false,"is_disabled":false,"rental_uris":{"android":"levelo://app?vid=ff3311be-0e5d-4347-bfab-118723a2b76e","ios":"levelo://app?vid=ff3311be-0e5d-4347-bfab-118723a2b76e"},"vehicle_type_id":"4","last_reported":1702285703,"current_range_meters":28800,"station_id":"ce4bhu92rcd13ifvqi70","pricing_plan_id":"free"},{"bike_id":"ee81ef4e-a1bb-4d6a-b3d1-997cc1fadc87","system_id":"levelo_inurba_marseille","lat":43.231919,"lon":5.355532,"is_reserved":false,"is_disabled":false,"rental_uris":{"android":"levelo://app?vid=ee81ef4e-a1bb-4d6a-b3d1-997cc1fadc87","ios":"levelo://app?vid=ee81ef4e-a1bb-4d6a-b3d1-997cc1fadc87"},"vehicle_type_id":"4","last_reported":1702285703,"current_range_meters":8800,"station_id":"ce4bhu92rcd13ifvqi70","pricing_plan_id":"free"},{"bike_id":"71b37a10-a18e-44e8-a420-3f276770a79c","system_id":"levelo_inurba_marseille","lat":43.231794,"lon":5.400052,"is_reserved":false,"is_disabled":false,"rental_uris":{"android":"levelo://app?vid=71b37a10-a18e-44e8-a420-3f276770a79c","ios":"levelo://app?vid=71b37a10-a18e-44e8-a420-3f276770a79c"},"vehicle_type_id":"4","last_reported":1702285703,"current_range_meters":0,"station_id":"ce4bhn12rcd13ifvqgqg","pricing_plan_id":"free"},{"bike_id":"952c250c-bda4-4d17-96dc-ecba0e8c6df2","system_id":"levelo_inurba_marseille","lat":43.231562,"lon":5.436933,"is_reserved":false,"is_disabled":false,"rental_uris":{"android":"levelo://app?vid=952c250c-bda4-4d17-96dc-ecba0e8c6df2","ios":"levelo://app?vid=952c250c-bda4-4d17-96dc-ecba0e8c6df2"},"vehicle_type_id":"4","last_reported":1702285703,"current_range_meters":20000,"station_id":"ce4bhmp2rcd13ifvqgog","pricing_plan_id":"free"},{"bike_id":"04309115-d373-402b-ba36-b1c5f3db9ad3","system_id":"levelo_inurba_marseille","lat":43.231562,"lon":5.436933,"is_reserved":false,"is_disabled":false,"rental_uris":{"android":"levelo://app?vid=04309115-d373-402b-ba36-b1c5f3db9ad3","ios":"levelo://app?vid=04309115-d373-402b-ba36-b1c5f3db9ad3"},"vehicle_type_id":"4","last_reported":1702285703,"current_range_meters":15600,"station_id":"ce4bhmp2rcd13ifvqgog","pricing_plan_id":"free"},{"bike_id":"340a95d1-c6b8-4dc8-9947-b292ee8445e8","system_id":"levelo_inurba_marseille","lat":43.231562,"lon":5.436933,"is_reserved":false,"is_disabled":false,"rental_uris":{"android":"levelo://app?vid=340a95d1-c6b8-4dc8-9947-b292ee8445e8","ios":"levelo://app?vid=340a95d1-c6b8-4dc8-9947-b292ee8445e8"},"vehicle_type_id":"4","last_reported":1702285703,"current_range_meters":12400,"station_id":"ce4bhmp2rcd13ifvqgog","pricing_plan_id":"free"},{"bike_id":"d1f54e0d-396f-4b1c-bc0b-a3840a06e020","system_id":"levelo_inurba_marseille","lat":43.231562,"lon":5.436933,"is_reserved":false,"is_disabled":false,"rental_uris":{"android":"levelo://app?vid=d1f54e0d-396f-4b1c-bc0b-a3840a06e020","ios":"levelo://app?vid=d1f54e0d-396f-4b1c-bc0b-a3840a06e020"},"vehicle_type_id":"4","last_reported":1702285703,"current_range_meters":24400,"station_id":"ce4bhmp2rcd13ifvqgog","pricing_plan_id":"free"},{"bike_id":"e867c508-1925-4372-8551-8e22a3a5630e","system_id":"levelo_inurba_marseille","lat":43.231562,"lon":5.436933,"is_reserved":false,"is_disabled":false,"rental_uris":{"android":"levelo://app?vid=e867c508-1925-4372-8551-8e22a3a5630e","ios":"levelo://app?vid=e867c508-1925-4372-8551-8e22a3a5630e"},"vehicle_type_id":"4","last_reported":1702285703,"current_range_meters":6800,"station_id":"ce4bhmp2rcd13ifvqgog","pricing_plan_id":"free"},{"bike_id":"8441462f-9c88-4997-b31a-3a13dda9b0f8","system_id":"levelo_inurba_marseille","lat":43.231562,"lon":5.436933,"is_reserved":false,"is_disabled":false,"rental_uris":{"android":"levelo://app?vid=8441462f-9c88-4997-b31a-3a13dda9b0f8","ios":"levelo://app?vid=8441462f-9c88-4997-b31a-3a13dda9b0f8"},"vehicle_type_id":"4","last_reported":1702285703,"current_range_meters":16000,"station_id":"ce4bhmp2rcd13ifvqgog","pricing_plan_id":"free"},{"bike_id":"4874fa51-4821-4167-a0d9-b9fbe4f6f8f1","system_id":"levelo_inurba_marseille","lat":43.231562,"lon":5.436933,"is_reserved":false,"is_disabled":false,"rental_uris":{"android":"levelo://app?vid=4874fa51-4821-4167-a0d9-b9fbe4f6f8f1","ios":"levelo://app?vid=4874fa51-4821-4167-a0d9-b9fbe4f6f8f1"},"vehicle_type_id":"4","last_reported":1702285703,"current_range_meters":5600,"station_id":"ce4bhmp2rcd13ifvqgog","pricing_plan_id":"free"},{"bike_id":"de82e080-3e0c-4f8c-a923-98085ea5dc5f","system_id":"levelo_inurba_marseille","lat":43.231562,"lon":5.436933,"is_reserved":false,"is_disabled":false,"rental_uris":{"android":"levelo://app?vid=de82e080-3e0c-4f8c-a923-98085ea5dc5f","ios":"levelo://app?vid=de82e080-3e0c-4f8c-a923-98085ea5dc5f"},"vehicle_type_id":"4","last_reported":1702285703,"current_range_meters":7200,"station_id":"ce4bhmp2rcd13ifvqgog","pricing_plan_id":"free"},{"bike_id":"1aae6cdc-e4e2-4912-a240-f90a945937f8","system_id":"levelo_inurba_marseille","lat":43.231562,"lon":5.436933,"is_reserved":false,"is_disabled":false,"rental_uris":{"android":"levelo://app?vid=1aae6cdc-e4e2-4912-a240-f90a945937f8","ios":"levelo://app?vid=1aae6cdc-e4e2-4912-a240-f90a945937f8"},"vehicle_type_id":"4","last_reported":1702285703,"current_range_meters":32000,"station_id":"ce4bhmp2rcd13ifvqgog","pricing_plan_id":"free"}]}}