{"last_updated":1741857042,"ttl":60,"version":"2.2","data":{"bikes":[{"bike_id":"448bd231-ed06-4dfe-b39d-98d7cf453c43","system_id":"levelo_inurba_marseille","lat":43.33609,"lon":5.41047,"is_reserved":false,"is_disabled":false,"rental_uris":{"android":"levelo://app?vid=448bd231-ed06-4dfe-b39d-98d7cf453c43","ios":"levelo://app?vid=448bd231-ed06-4dfe-b39d-98d7cf453c43"},"vehicle_type_id":"4","last_reported":1741857042,"current_range_meters":2800,"station_id":"ce4bhqh2rcd13ifvqhmg","pricing_plan_id":"cebpf4jnsgd1na2vs0mg"},{"bike_id":"e711d118-fe8f-4513-b116-a55c5b5e95a8","system_id":"levelo_inurba_marseille","lat":43.33598,"lon":5.41037,"is_reserved":false,"is_disabled":false,"rental_uris":{"android":"levelo://app?vid=e711d118-fe8f-4513-b116-a55c5b5e95a8","ios":"levelo://app?vid=e711d118-fe8f-4513-b116-a55c5b5e95a8"},"vehicle_type_id":"4","last_reported":1741857042,"current_range_meters":2800,"station_id":"ce4bhqh2rcd13ifvqhmg","pricing_plan_id":"cebpf4jnsgd1na2vs0mg"},{"bike_id":"f43a547a-a63f-466e-891d-16f53f2a7257","system_id":"levelo_inurba_marseille","lat":43.28038,"lon":5.36925,"is_reserved":false,"is_disabled":false,"rental_uris":{"android":"levelo://app?vid=f43a547a-a63f-466e-891d-16f53f2a7257","ios":"levelo://app?vid=f43a547a-a63f-466e-891d-16f53f2a7257"},"vehicle_type_id":"4","last_reported":1741857042,"current_range_meters":2800,"station_id":"ce4bha12rcd13ifvqef0","pricing_plan_id":"cebpf4jnsgd1na2vs0mg"},{"bike_id":"6ce0e605-1e94-4680-96d8-93c1b5f891e4","system_id":"levelo_inurba_marseille","lat":43.28748,"lon":5.40006,"is_reserved":false,"is_disabled":true,"rental_uris":{"android":"levelo://app?vid=6ce0e605-1e94-4680-96d8-93c1b5f891e4","ios":"levelo://app?vid=6ce0e605-1e94-4680-96d8-93c1b5f891e4"},"vehicle_type_id":"4","last_reported":1741857042,"current_range_meters":3200,"station_id":"ce4bho92rcd13ifvqh3g","pricing_plan_id":"cebpf4jnsgd1na2vs0mg"},{"bike_id":"26e1e8a1-a134-4ab3-9ae3-2d5ed182b3cd","system_id":"levelo_inurba_marseille","lat":43.26545,"lon":5.3902,"is_reserved":false,"is_disabled":false,"rental_uris":{"android":"levelo://app?vid=26e1e8a1-a134-4ab3-9ae3-2d5ed182b3cd","ios":"levelo://app?vid=26e1e8a1-a134-4ab3-9ae3-2d5ed182b3cd"},"vehicle_type_id":"4","last_reported":1741857042,"current_range_meters":3200,"station_id":"ce4bhe12rcd13ifvqf30","pricing_plan_id":"cebpf4jnsgd1na2vs0mg"},{"bike_id":"241d79a7-8164-4ee5-8d3f-2565e2e0b3e8","system_id":"levelo_inurba_marseille","lat":43.31347,"lon":5.37938,"is_reserved":false,"is_disabled":false,"rental_uris":{"android":"levelo://app?vid=241d79a7-8164-4ee5-8d3f-2565e2e0b3e8","ios":"levelo://app?vid=241d79a7-8164-4ee5-8d3f-2565e2e0b3e8"},"vehicle_type_id":"4","last_reported":1741857042,"current_range_meters":3200,"station_id":"","pricing_plan_id":"cebpf4jnsgd1na2vs0mg"},{"bike_id":"56a8d5c0-cc16-4725-9674-91a7590488b7","system_id":"levelo_inurba_marseille","lat":43.27209,"lon":5.39186,"is_reserved":false,"is_disabled":false,"rental_uris":{"android":"levelo://app?vid=56a8d5c0-cc16-4725-9674-91a7590488b7","ios":"levelo://app?vid=56a8d5c0-cc16-4725-9674-91a7590488b7"},"vehicle_type_id":"4","last_reported":1741857042,"current_range_meters":3200,"station_id":"ce4bhhp2rcd13ifvqfm0","pricing_plan_id":"cebpf4jnsgd1na2vs0mg"},{"bike_id":"f18fd52b-7baf-4a15-ae49-bd6ea5543de8","system_id":"levelo_inurba_marseille","lat":43.29043,"lon":5.39981,"is_reserved":false,"is_disabled":false,"rental_uris":{"android":"levelo://app?vid=f18fd52b-7baf-4a15-ae49-bd6ea5543de8","ios":"levelo://app?vid=f18fd52b-7baf-4a15-ae49-bd6ea5543de8"},"vehicle_type_id":"4","last_reported":1741857042,"current_range_meters":4000,"station_id":"ce4bh392rcd13ifvqdm0","pricing_plan_id":"cebpf4jnsgd1na2vs0mg"},{"bike_id":"f640465e-8c9e-425a-8e36-08d8d5201bf6","system_id":"levelo_inurba_marseille","lat":43.232,"lon":5.35554,"is_reserved":false,"is_disabled":false,"rental_uris":{"android":"levelo://app?vid=f640465e-8c9e-425a-8e36-08d8d5201bf6","ios":"levelo://app?vid=f640465e-8c9e-425a-8e36-08d8d5201bf6"},"vehicle_type_id":"4","last_reported":1741857042,"current_range_meters":3200,"station_id":"ce4bhu92rcd13ifvqi70","pricing_plan_id":"cebpf4jnsgd1na2vs0mg"},{"bike_id":"74be95a0-aad8-4ba2-860a-e720c831dcaa","system_id":"levelo_inurba_marseille","lat":43.30463,"lon":5.3792,"is_reserved":false,"is_disabled":false,"rental_uris":{"android":"levelo://app?vid=74be95a0-aad8-4ba2-860a-e720c831dcaa","ios":"levelo://app?vid=74be95a0-aad8-4ba2-860a-e720c831dcaa"},"vehicle_type_id":"4","last_reported":1741857042,"current_range_meters":3600,"station_id":"ce4bgup2rcd13ifvqcn0","pricing_plan_id":"cebpf4jnsgd1na2vs0mg"},{"bike_id":"7800fc23-fd1f-49c5-8509-6ffc3df70459","system_id":"levelo_inurba_marseille","lat":43.26785,"lon":5.39418,"is_reserved":false,"is_disabled":false,"rental_uris":{"android":"levelo://app?vid=7800fc23-fd1f-49c5-8509-6ffc3df70459","ios":"levelo://app?vid=7800fc23-fd1f-49c5-8509-6ffc3df70459"},"vehicle_type_id":"4","last_reported":1741857042,"current_range_meters":3600,"station_id":"ce4bhh12rcd13ifvqfg0","pricing_plan_id":"cebpf4jnsgd1na2vs0mg"},{"bike_id":"ca152084-e7e3-4a10-bfa8-e608ff871fd5","system_id":"levelo_inurba_marseille","lat":43.29024,"lon":5.38655,"is_reserved":false,"is_disabled":false,"rental_uris":{"android":"levelo://app?vid=ca152084-e7e3-4a10-bfa8-e608ff871fd5","ios":"levelo://app?vid=ca152084-e7e3-4a10-bfa8-e608ff871fd5"},"vehicle_type_id":"4","last_reported":1741857042,"current_range_meters":3600,"station_id":"ce4bh4p2rcd13ifvqe0g","pricing_plan_id":"cebpf4jnsgd1na2vs0mg"},{"bike_id":"24eb750f-1f86-4737-9904-2e8ccb55c442","system_id":"levelo_inurba_marseille","lat":43.26713,"lon":5.38288,"is_reserved":false,"is_disabled":false,"rental_uris":{"android":"levelo://app?vid=24eb750f-1f86-4737-9904-2e8ccb55c442","ios":"levelo://app?vid=24eb750f-1f86-4737-9904-2e8ccb55c442"},"vehicle_type_id":"4","last_reported":1741857042,"current_range_meters":3600,"station_id":"ce4bhg92rcd13ifvqf90","pricing_plan_id":"cebpf4jnsgd1na2vs0mg"},{"bike_id":"e649e2d0-af54-4ce5-b5f7-1fd68a3b0a85","system_id":"levelo_inurba_marseille","lat":43.28157,"lon":5.42662,"is_reserved":false,"is_disabled":false,"rental_uris":{"android":"levelo://app?vid=e649e2d0-af54-4ce5-b5f7-1fd68a3b0a85","ios":"levelo://app?vid=e649e2d0-af54-4ce5-b5f7-1fd68a3b0a85"},"vehicle_type_id":"4","last_reported":1741857042,"current_range_meters":3600,"station_id":"ce4bhnh2rcd13ifvqgug","pricing_plan_id":"cebpf4jnsgd1na2vs0mg"},{"bike_id":"388ea826-f5fa-4632-a530-45d13cc0a769","system_id":"levelo_inurba_marseille","lat":43.23208,"lon":5.39994,"is_reserved":false,"is_disabled":false,"rental_uris":{"android":"levelo://app?vid=388ea826-f5fa-4632-a530-45d13cc0a769","ios":"levelo://app?vid=388ea826-f5fa-4632-a530-45d13cc0a769"},"vehicle_type_id":"4","last_reported":1741857042,"current_range_meters":3600,"station_id":"ce4bhn12rcd13ifvqgqg","pricing_plan_id":"cebpf4jnsgd1na2vs0mg"},{"bike_id":"f37febe4-54f3-457e-af52-4e55fc0ceba2","system_id":"levelo_inurba_marseille","lat":43.24085,"lon":5.37754,"is_reserved":false,"is_disabled":false,"rental_uris":{"android":"levelo://app?vid=f37febe4-54f3-457e-af52-4e55fc0ceba2","ios":"levelo://app?vid=f37febe4-54f3-457e-af52-4e55fc0ceba2"},"vehicle_type_id":"4","last_reported":1741857042,"current_range_meters":4000,"station_id":"ce4bhnp2rcd13ifvqgvg","pricing_plan_id":"cebpf4jnsgd1na2vs0mg"},{"bike_id":"0cb9d178-7a6f-4412-8cc2-0d2542239e5a","system_id":"levelo_inurba_marseille","lat":43.31366,"lon":5.36731,"is_reserved":false,"is_disabled":false,"rental_uris":{"android":"levelo://app?vid=0cb9d178-7a6f-4412-8cc2-0d2542239e5a","ios":"levelo://app?vid=0cb9d178-7a6f-4412-8cc2-0d2542239e5a"},"vehicle_type_id":"4","last_reported":1741857042,"current_range_meters":4000,"station_id":"ce4bgr92rcd13ifvqc6g","pricing_plan_id":"cebpf4jnsgd1na2vs0mg"},{"bike_id":"c59013c2-8078-4b8a-a8ea-3f53e5b8f8eb","system_id":"levelo_inurba_marseille","lat":43.29922,"lon":5.36555,"is_reserved":false,"is_disabled":false,"rental_uris":{"android":"levelo://app?vid=c59013c2-8078-4b8a-a8ea-3f53e5b8f8eb","ios":"levelo://app?vid=c59013c2-8078-4b8a-a8ea-3f53e5b8f8eb"},"vehicle_type_id":"4","last_reported":1741857042,"current_range_meters":4000,"station_id":"ce4bgm92rcd13ifvqbr0","pricing_plan_id":"cebpf4jnsgd1na2vs0mg"},{"bike_id":"2627b050-563e-4691-a911-03c820231134","system_id":"levelo_inurba_marseille","lat":43.24085,"lon":5.37752,"is_reserved":false,"is_disabled":false,"rental_uris":{"android":"levelo://app?vid=2627b050-563e-4691-a911-03c820231134","ios":"levelo://app?vid=2627b050-563e-4691-a911-03c820231134"},"vehicle_type_id":"4","last_reported":1741857042,"current_range_meters":4000,"station_id":"ce4bhnp2rcd13ifvqgvg","pricing_plan_id":"cebpf4jnsgd1na2vs0mg"},{"bike_id":"9782f7b3-b971-453a-8513-edbd92d8d4f8","system_id":"levelo_inurba_marseille","lat":43.26804,"lon":5.40277,"is_reserved":false,"is_disabled":false,"rental_uris":{"android":"levelo://app?vid=9782f7b3-b971-453a-8513-edbd92d8d4f8","ios":"levelo://app?vid=9782f7b3-b971-453a-8513-edbd92d8d4f8"},"vehicle_type_id":"4","last_reported":1741857042,"current_range_meters":4000,"station_id":"ce501612rcd8frsf0b60","pricing_plan_id":"cebpf4jnsgd1na2vs0mg"},{"bike_id":"bb03d495-b7d1-4cb0-88b9-28f373187469","system_id":"levelo_inurba_marseille","lat":43.2721,"lon":5.39176,"is_reserved":false,"is_disabled":false,"rental_uris":{"android":"levelo://app?vid=bb03d495-b7d1-4cb0-88b9-28f373187469","ios":"levelo://app?vid=bb03d495-b7d1-4cb0-88b9-28f373187469"},"vehicle_type_id":"4","last_reported":1741857042,"current_range_meters":4000,"station_id":"ce4bhhp2rcd13ifvqfm0","pricing_plan_id":"cebpf4jnsgd1na2vs0mg"},{"bike_id":"9ae9d456-8778-484a-afed-e98e16da56d0","system_id":"levelo_inurba_marseille","lat":43.3176,"lon":5.39042,"is_reserved":false,"is_disabled":false,"rental_uris":{"android":"levelo://app?vid=9ae9d456-8778-484a-afed-e98e16da56d0","ios":"levelo://app?vid=9ae9d456-8778-484a-afed-e98e16da56d0"},"vehicle_type_id":"4","last_reported":1741857042,"current_range_meters":4000,"station_id":"ce4bhqp2rcd13ifvqhng","pricing_plan_id":"cebpf4jnsgd1na2vs0mg"},{"bike_id":"e12be538-6dde-4604-98c7-f66a323a5270","system_id":"levelo_inurba_marseille","lat":43.23063,"lon":5.35505,"is_reserved":false,"is_disabled":false,"rental_uris":{"android":"levelo://app?vid=e12be538-6dde-4604-98c7-f66a323a5270","ios":"levelo://app?vid=e12be538-6dde-4604-98c7-f66a323a5270"},"vehicle_type_id":"4","last_reported":1741857042,"current_range_meters":4000,"station_id":"cpo3342slgdg3j2ifvpg","pricing_plan_id":"cebpf4jnsgd1na2vs0mg"},{"bike_id":"1121edc8-ff9a-4818-a75c-ab8edc29ec00","system_id":"levelo_inurba_marseille","lat":43.24078,"lon":5.37757,"is_reserved":false,"is_disabled":false,"rental_uris":{"android":"levelo://app?vid=1121edc8-ff9a-4818-a75c-ab8edc29ec00","ios":"levelo://app?vid=1121edc8-ff9a-4818-a75c-ab8edc29ec00"},"vehicle_type_id":"4","last_reported":1741857042,"current_range_meters":4400,"station_id":"ce4bhnp2rcd13ifvqgvg","pricing_plan_id":"cebpf4jnsgd1na2vs0mg"},{"bike_id":"60addeb5-8b0b-4949-b3a6-5f197b8d4abb","system_id":"levelo_inurba_marseille","lat":43.333556,"lon":5.396388,"is_reserved":false,"is_disabled":false,"rental_uris":{"android":"levelo://app?vid=60addeb5-8b0b-4949-b3a6-5f197b8d4abb","ios":"levelo://app?vid=60addeb5-8b0b-4949-b3a6-5f197b8d4abb"},"vehicle_type_id":"4","last_reported":1741857042,"current_range_meters":4400,"station_id":"","pricing_plan_id":"cebpf4jnsgd1na2vs0mg"},{"bike_id":"0250762c-f15e-4c52-9700-20efd148ffa6","system_id":"levelo_inurba_marseille","lat":43.259257,"lon":5.409059,"is_reserved":false,"is_disabled":false,"rental_uris":{"android":"levelo://app?vid=0250762c-f15e-4c52-9700-20efd148ffa6","ios":"levelo://app?vid=0250762c-f15e-4c52-9700-20efd148ffa6"},"vehicle_type_id":"4","last_reported":1741857042,"current_range_meters":4400,"station_id":"ce4bhm92rcd13ifvqglg","pricing_plan_id":"cebpf4jnsgd1na2vs0mg"},{"bike_id":"c8424a2d-efd9-4ccf-9fc2-6fdb41afc986","system_id":"levelo_inurba_marseille","lat":43.28156,"lon":5.42658,"is_reserved":false,"is_disabled":false,"rental_uris":{"android":"levelo://app?vid=c8424a2d-efd9-4ccf-9fc2-6fdb41afc986","ios":"levelo://app?vid=c8424a2d-efd9-4ccf-9fc2-6fdb41afc986"},"vehicle_type_id":"4","last_reported":1741857042,"current_range_meters":4400,"station_id":"ce4bhnh2rcd13ifvqgug","pricing_plan_id":"cebpf4jnsgd1na2vs0mg"},{"bike_id":"0b4042b7-d7b4-45a1-a4a9-6bfda467f117","system_id":"levelo_inurba_marseille","lat":43.30147,"lon":5.38076,"is_reserved":false,"is_disabled":false,"rental_uris":{"android":"levelo://app?vid=0b4042b7-d7b4-45a1-a4a9-6bfda467f117","ios":"levelo://app?vid=0b4042b7-d7b4-45a1-a4a9-6bfda467f117"},"vehicle_type_id":"4","last_reported":1741857042,"current_range_meters":4400,"station_id":"ce4bgjp2rcd13ifvqbh0","pricing_plan_id":"cebpf4jnsgd1na2vs0mg"},{"bike_id":"4943ef63-802c-493f-8736-a31b299b11db","system_id":"levelo_inurba_marseille","lat":43.29939,"lon":5.36555,"is_reserved":false,"is_disabled":false,"rental_uris":{"android":"levelo://app?vid=4943ef63-802c-493f-8736-a31b299b11db","ios":"levelo://app?vid=4943ef63-802c-493f-8736-a31b299b11db"},"vehicle_type_id":"4","last_reported":1741857042,"current_range_meters":4400,"station_id":"ce4bgm92rcd13ifvqbr0","pricing_plan_id":"cebpf4jnsgd1na2vs0mg"},{"bike_id":"167e970b-edfa-4654-8d70-f1e7eb9ca6d1","system_id":"levelo_inurba_marseille","lat":43.287233,"lon":5.379333,"is_reserved":false,"is_disabled":false,"rental_uris":{"android":"levelo://app?vid=167e970b-edfa-4654-8d70-f1e7eb9ca6d1","ios":"levelo://app?vid=167e970b-edfa-4654-8d70-f1e7eb9ca6d1"},"vehicle_type_id":"4","last_reported":1741857042,"current_range_meters":4400,"station_id":"ce4bh9p2rcd13ifvqec0","pricing_plan_id":"cebpf4jnsgd1na2vs0mg"},{"bike_id":"76a8db1a-c303-45c7-bbd0-22503810a76d","system_id":"levelo_inurba_marseille","lat":43.3047,"lon":5.37899,"is_reserved":false,"is_disabled":false,"rental_uris":{"android":"levelo://app?vid=76a8db1a-c303-45c7-bbd0-22503810a76d","ios":"levelo://app?vid=76a8db1a-c303-45c7-bbd0-22503810a76d"},"vehicle_type_id":"4","last_reported":1741857042,"current_range_meters":4400,"station_id":"ce4bgup2rcd13ifvqcn0","pricing_plan_id":"cebpf4jnsgd1na2vs0mg"},{"bike_id":"feb4b9df-ca5a-441d-8892-405597e7da99","system_id":"levelo_inurba_marseille","lat":43.23065,"lon":5.35508,"is_reserved":false,"is_disabled":false,"rental_uris":{"android":"levelo://app?vid=feb4b9df-ca5a-441d-8892-405597e7da99","ios":"levelo://app?vid=feb4b9df-ca5a-441d-8892-405597e7da99"},"vehicle_type_id":"4","last_reported":1741857042,"current_range_meters":4400,"station_id":"cpo3342slgdg3j2ifvpg","pricing_plan_id":"cebpf4jnsgd1na2vs0mg"},{"bike_id":"415e7a31-245d-4ead-9f33-dad092a04302","system_id":"levelo_inurba_marseille","lat":43.23078,"lon":5.35516,"is_reserved":false,"is_disabled":false,"rental_uris":{"android":"levelo://app?vid=415e7a31-245d-4ead-9f33-dad092a04302","ios":"levelo://app?vid=415e7a31-245d-4ead-9f33-dad092a04302"},"vehicle_type_id":"4","last_reported":1741857042,"current_range_meters":4800,"station_id":"cpo3342slgdg3j2ifvpg","pricing_plan_id":"cebpf4jnsgd1na2vs0mg"},{"bike_id":"9ef63287-5b1b-443b-afc8-2fcd4c7a15eb","system_id":"levelo_inurba_marseille","lat":43.29309,"lon":5.37174,"is_reserved":false,"is_disabled":false,"rental_uris":{"android":"levelo://app?vid=9ef63287-5b1b-443b-afc8-2fcd4c7a15eb","ios":"levelo://app?vid=9ef63287-5b1b-443b-afc8-2fcd4c7a15eb"},"vehicle_type_id":"4","last_reported":1741857042,"current_range_meters":4800,"station_id":"ce4bgs12rcd13ifvqcag","pricing_plan_id":"cebpf4jnsgd1na2vs0mg"},{"bike_id":"0504f23f-2945-4cf0-90fa-f9579b05ebfe","system_id":"levelo_inurba_marseille","lat":43.2861,"lon":5.35109,"is_reserved":false,"is_disabled":false,"rental_uris":{"android":"levelo://app?vid=0504f23f-2945-4cf0-90fa-f9579b05ebfe","ios":"levelo://app?vid=0504f23f-2945-4cf0-90fa-f9579b05ebfe"},"vehicle_type_id":"4","last_reported":1741857042,"current_range_meters":4800,"station_id":"ce4bgi92rcd13ifvqb90","pricing_plan_id":"cebpf4jnsgd1na2vs0mg"},{"bike_id":"f310e1a5-0a24-483c-883e-355e88479a1d","system_id":"levelo_inurba_marseille","lat":43.30129,"lon":5.37413,"is_reserved":false,"is_disabled":false,"rental_uris":{"android":"levelo://app?vid=f310e1a5-0a24-483c-883e-355e88479a1d","ios":"levelo://app?vid=f310e1a5-0a24-483c-883e-355e88479a1d"},"vehicle_type_id":"4","last_reported":1741857042,"current_range_meters":4800,"station_id":"ce4bgs92rcd13ifvqcc0","pricing_plan_id":"cebpf4jnsgd1na2vs0mg"},{"bike_id":"a4198c61-a46b-4d29-96d9-daa51909dd9c","system_id":"levelo_inurba_marseille","lat":43.24663,"lon":5.38171,"is_reserved":false,"is_disabled":false,"rental_uris":{"android":"levelo://app?vid=a4198c61-a46b-4d29-96d9-daa51909dd9c","ios":"levelo://app?vid=a4198c61-a46b-4d29-96d9-daa51909dd9c"},"vehicle_type_id":"4","last_reported":1741857042,"current_range_meters":4400,"station_id":"ce4bhih2rcd13ifvqfr0","pricing_plan_id":"cebpf4jnsgd1na2vs0mg"},{"bike_id":"46c37505-959b-4060-9ae4-3a6c84002a47","system_id":"levelo_inurba_marseille","lat":43.29035,"lon":5.37564,"is_reserved":false,"is_disabled":false,"rental_uris":{"android":"levelo://app?vid=46c37505-959b-4060-9ae4-3a6c84002a47","ios":"levelo://app?vid=46c37505-959b-4060-9ae4-3a6c84002a47"},"vehicle_type_id":"4","last_reported":1741857042,"current_range_meters":4800,"station_id":"ce4bh692rcd13ifvqe90","pricing_plan_id":"cebpf4jnsgd1na2vs0mg"},{"bike_id":"766155f0-863a-4daa-9968-9cf68442c310","system_id":"levelo_inurba_marseille","lat":43.2929,"lon":5.37457,"is_reserved":false,"is_disabled":false,"rental_uris":{"android":"levelo://app?vid=766155f0-863a-4daa-9968-9cf68442c310","ios":"levelo://app?vid=766155f0-863a-4daa-9968-9cf68442c310"},"vehicle_type_id":"4","last_reported":1741857042,"current_range_meters":4800,"station_id":"ce4bgi12rcd13ifvqb70","pricing_plan_id":"cebpf4jnsgd1na2vs0mg"},{"bike_id":"9997e013-4ad9-4555-a534-b03bc83c4f67","system_id":"levelo_inurba_marseille","lat":43.29306,"lon":5.37462,"is_reserved":false,"is_disabled":false,"rental_uris":{"android":"levelo://app?vid=9997e013-4ad9-4555-a534-b03bc83c4f67","ios":"levelo://app?vid=9997e013-4ad9-4555-a534-b03bc83c4f67"},"vehicle_type_id":"4","last_reported":1741857042,"current_range_meters":5600,"station_id":"ce4bgi12rcd13ifvqb70","pricing_plan_id":"cebpf4jnsgd1na2vs0mg"},{"bike_id":"22fbb181-e2f3-4b65-a93d-ea678c43f3d2","system_id":"levelo_inurba_marseille","lat":43.2454,"lon":5.39528,"is_reserved":false,"is_disabled":false,"rental_uris":{"android":"levelo://app?vid=22fbb181-e2f3-4b65-a93d-ea678c43f3d2","ios":"levelo://app?vid=22fbb181-e2f3-4b65-a93d-ea678c43f3d2"},"vehicle_type_id":"4","last_reported":1741857042,"current_range_meters":5600,"station_id":"ce4bhlp2rcd13ifvqgjg","pricing_plan_id":"cebpf4jnsgd1na2vs0mg"},{"bike_id":"72de4c85-7223-490f-9219-5d9d46436df5","system_id":"levelo_inurba_marseille","lat":43.331711,"lon":5.394567,"is_reserved":false,"is_disabled":false,"rental_uris":{"android":"levelo://app?vid=72de4c85-7223-490f-9219-5d9d46436df5","ios":"levelo://app?vid=72de4c85-7223-490f-9219-5d9d46436df5"},"vehicle_type_id":"4","last_reported":1741857042,"current_range_meters":5600,"station_id":"","pricing_plan_id":"cebpf4jnsgd1na2vs0mg"},{"bike_id":"d20a848b-dbda-449f-9b98-3a524ab79101","system_id":"levelo_inurba_marseille","lat":43.313525,"lon":5.367255,"is_reserved":false,"is_disabled":false,"rental_uris":{"android":"levelo://app?vid=d20a848b-dbda-449f-9b98-3a524ab79101","ios":"levelo://app?vid=d20a848b-dbda-449f-9b98-3a524ab79101"},"vehicle_type_id":"4","last_reported":1741857042,"current_range_meters":5600,"station_id":"ce4bgr92rcd13ifvqc6g","pricing_plan_id":"cebpf4jnsgd1na2vs0mg"},{"bike_id":"5d388b73-c3f0-4b88-946a-59e2a98ccd2d","system_id":"levelo_inurba_marseille","lat":43.32505,"lon":5.36578,"is_reserved":false,"is_disabled":false,"rental_uris":{"android":"levelo://app?vid=5d388b73-c3f0-4b88-946a-59e2a98ccd2d","ios":"levelo://app?vid=5d388b73-c3f0-4b88-946a-59e2a98ccd2d"},"vehicle_type_id":"4","last_reported":1741857042,"current_range_meters":5600,"station_id":"ce4bhs12rcd13ifvqhvg","pricing_plan_id":"cebpf4jnsgd1na2vs0mg"},{"bike_id":"2e86a074-ed0e-468b-a688-2d4bc242b4e8","system_id":"levelo_inurba_marseille","lat":43.30146,"lon":5.37425,"is_reserved":false,"is_disabled":false,"rental_uris":{"android":"levelo://app?vid=2e86a074-ed0e-468b-a688-2d4bc242b4e8","ios":"levelo://app?vid=2e86a074-ed0e-468b-a688-2d4bc242b4e8"},"vehicle_type_id":"4","last_reported":1741857042,"current_range_meters":5600,"station_id":"ce4bgs92rcd13ifvqcc0","pricing_plan_id":"cebpf4jnsgd1na2vs0mg"},{"bike_id":"8188b88b-4c6f-4367-87f4-4eb702bd284a","system_id":"levelo_inurba_marseille","lat":43.23194,"lon":5.35559,"is_reserved":false,"is_disabled":false,"rental_uris":{"android":"levelo://app?vid=8188b88b-4c6f-4367-87f4-4eb702bd284a","ios":"levelo://app?vid=8188b88b-4c6f-4367-87f4-4eb702bd284a"},"vehicle_type_id":"4","last_reported":1741857042,"current_range_meters":5600,"station_id":"ce4bhu92rcd13ifvqi70","pricing_plan_id":"cebpf4jnsgd1na2vs0mg"},{"bike_id":"5e1f03c5-029c-4103-9d6b-cd334f1e9ead","system_id":"levelo_inurba_marseille","lat":43.31074,"lon":5.38359,"is_reserved":false,"is_disabled":false,"rental_uris":{"android":"levelo://app?vid=5e1f03c5-029c-4103-9d6b-cd334f1e9ead","ios":"levelo://app?vid=5e1f03c5-029c-4103-9d6b-cd334f1e9ead"},"vehicle_type_id":"4","last_reported":1741857042,"current_range_meters":5600,"station_id":"ce4bgv92rcd13ifvqcr0","pricing_plan_id":"cebpf4jnsgd1na2vs0mg"},{"bike_id":"3ad9a2b2-6cfa-4fa2-9ada-5298d301c40e","system_id":"levelo_inurba_marseille","lat":43.24806,"lon":5.37462,"is_reserved":false,"is_disabled":false,"rental_uris":{"android":"levelo://app?vid=3ad9a2b2-6cfa-4fa2-9ada-5298d301c40e","ios":"levelo://app?vid=3ad9a2b2-6cfa-4fa2-9ada-5298d301c40e"},"vehicle_type_id":"4","last_reported":1741857042,"current_range_meters":4800,"station_id":"ce4bhgh2rcd13ifvqfb0","pricing_plan_id":"cebpf4jnsgd1na2vs0mg"},{"bike_id":"a3d0bb8b-f055-4eca-a65e-f10219d07e75","system_id":"levelo_inurba_marseille","lat":43.26493,"lon":5.39545,"is_reserved":false,"is_disabled":false,"rental_uris":{"android":"levelo://app?vid=a3d0bb8b-f055-4eca-a65e-f10219d07e75","ios":"levelo://app?vid=a3d0bb8b-f055-4eca-a65e-f10219d07e75"},"vehicle_type_id":"4","last_reported":1741857042,"current_range_meters":6000,"station_id":"ce4bhi12rcd13ifvqfq0","pricing_plan_id":"cebpf4jnsgd1na2vs0mg"},{"bike_id":"4bd1d516-27fc-4a7a-a82b-0dd452c88ab3","system_id":"levelo_inurba_marseille","lat":43.27494,"lon":5.42492,"is_reserved":false,"is_disabled":false,"rental_uris":{"android":"levelo://app?vid=4bd1d516-27fc-4a7a-a82b-0dd452c88ab3","ios":"levelo://app?vid=4bd1d516-27fc-4a7a-a82b-0dd452c88ab3"},"vehicle_type_id":"4","last_reported":1741857042,"current_range_meters":6000,"station_id":"ce4bhn92rcd13ifvqgrg","pricing_plan_id":"cebpf4jnsgd1na2vs0mg"},{"bike_id":"4abe0b72-3e42-40da-aa7c-65e81840531b","system_id":"levelo_inurba_marseille","lat":43.24647,"lon":5.39594,"is_reserved":false,"is_disabled":true,"rental_uris":{"android":"levelo://app?vid=4abe0b72-3e42-40da-aa7c-65e81840531b","ios":"levelo://app?vid=4abe0b72-3e42-40da-aa7c-65e81840531b"},"vehicle_type_id":"4","last_reported":1741857042,"current_range_meters":6000,"station_id":"","pricing_plan_id":"cebpf4jnsgd1na2vs0mg"},{"bike_id":"2edaf15a-381a-4481-8e7b-99a94ae8c608","system_id":"levelo_inurba_marseille","lat":43.27401,"lon":5.42398,"is_reserved":false,"is_disabled":false,"rental_uris":{"android":"levelo://app?vid=2edaf15a-381a-4481-8e7b-99a94ae8c608","ios":"levelo://app?vid=2edaf15a-381a-4481-8e7b-99a94ae8c608"},"vehicle_type_id":"4","last_reported":1741857042,"current_range_meters":6400,"station_id":"","pricing_plan_id":"cebpf4jnsgd1na2vs0mg"},{"bike_id":"39997eb9-a372-4db0-a51e-68e043d38c64","system_id":"levelo_inurba_marseille","lat":43.26229,"lon":5.4047,"is_reserved":false,"is_disabled":false,"rental_uris":{"android":"levelo://app?vid=39997eb9-a372-4db0-a51e-68e043d38c64","ios":"levelo://app?vid=39997eb9-a372-4db0-a51e-68e043d38c64"},"vehicle_type_id":"4","last_reported":1741857042,"current_range_meters":6400,"station_id":"ce4bhmh2rcd13ifvqgmg","pricing_plan_id":"cebpf4jnsgd1na2vs0mg"},{"bike_id":"b443e6c1-7c4c-422f-82d5-f77f5eeb1efa","system_id":"levelo_inurba_marseille","lat":43.31212,"lon":5.36871,"is_reserved":false,"is_disabled":false,"rental_uris":{"android":"levelo://app?vid=b443e6c1-7c4c-422f-82d5-f77f5eeb1efa","ios":"levelo://app?vid=b443e6c1-7c4c-422f-82d5-f77f5eeb1efa"},"vehicle_type_id":"4","last_reported":1741857042,"current_range_meters":6400,"station_id":"ce4bgl92rcd13ifvqbq0","pricing_plan_id":"cebpf4jnsgd1na2vs0mg"},{"bike_id":"74a09ddc-bc8f-4e23-87dc-78234d17223f","system_id":"levelo_inurba_marseille","lat":43.30144,"lon":5.38088,"is_reserved":false,"is_disabled":false,"rental_uris":{"android":"levelo://app?vid=74a09ddc-bc8f-4e23-87dc-78234d17223f","ios":"levelo://app?vid=74a09ddc-bc8f-4e23-87dc-78234d17223f"},"vehicle_type_id":"4","last_reported":1741857042,"current_range_meters":6400,"station_id":"ce4bgjp2rcd13ifvqbh0","pricing_plan_id":"cebpf4jnsgd1na2vs0mg"},{"bike_id":"7cc3e432-a791-4698-a2f6-3b30c5e58288","system_id":"levelo_inurba_marseille","lat":43.23196,"lon":5.35552,"is_reserved":false,"is_disabled":false,"rental_uris":{"android":"levelo://app?vid=7cc3e432-a791-4698-a2f6-3b30c5e58288","ios":"levelo://app?vid=7cc3e432-a791-4698-a2f6-3b30c5e58288"},"vehicle_type_id":"4","last_reported":1741857042,"current_range_meters":6000,"station_id":"ce4bhu92rcd13ifvqi70","pricing_plan_id":"cebpf4jnsgd1na2vs0mg"},{"bike_id":"ffb16f73-f4ff-4f18-8d45-e35c1e863a0c","system_id":"levelo_inurba_marseille","lat":43.291122,"lon":5.382302,"is_reserved":false,"is_disabled":false,"rental_uris":{"android":"levelo://app?vid=ffb16f73-f4ff-4f18-8d45-e35c1e863a0c","ios":"levelo://app?vid=ffb16f73-f4ff-4f18-8d45-e35c1e863a0c"},"vehicle_type_id":"4","last_reported":1741857042,"current_range_meters":6400,"station_id":"ce4bh292rcd13ifvqdf0","pricing_plan_id":"cebpf4jnsgd1na2vs0mg"},{"bike_id":"873e67c4-d854-4ea4-be73-0fd591992e20","system_id":"levelo_inurba_marseille","lat":43.24082,"lon":5.37755,"is_reserved":false,"is_disabled":false,"rental_uris":{"android":"levelo://app?vid=873e67c4-d854-4ea4-be73-0fd591992e20","ios":"levelo://app?vid=873e67c4-d854-4ea4-be73-0fd591992e20"},"vehicle_type_id":"4","last_reported":1741857042,"current_range_meters":6400,"station_id":"ce4bhnp2rcd13ifvqgvg","pricing_plan_id":"cebpf4jnsgd1na2vs0mg"},{"bike_id":"79d5a690-12af-4cba-bb9e-1a2524d9c2be","system_id":"levelo_inurba_marseille","lat":43.29039,"lon":5.39976,"is_reserved":false,"is_disabled":false,"rental_uris":{"android":"levelo://app?vid=79d5a690-12af-4cba-bb9e-1a2524d9c2be","ios":"levelo://app?vid=79d5a690-12af-4cba-bb9e-1a2524d9c2be"},"vehicle_type_id":"4","last_reported":1741857042,"current_range_meters":6400,"station_id":"ce4bh392rcd13ifvqdm0","pricing_plan_id":"cebpf4jnsgd1na2vs0mg"},{"bike_id":"a4024768-86bf-4442-9280-be67a79a2989","system_id":"levelo_inurba_marseille","lat":43.25938,"lon":5.4088,"is_reserved":false,"is_disabled":false,"rental_uris":{"android":"levelo://app?vid=a4024768-86bf-4442-9280-be67a79a2989","ios":"levelo://app?vid=a4024768-86bf-4442-9280-be67a79a2989"},"vehicle_type_id":"4","last_reported":1741857042,"current_range_meters":6400,"station_id":"ce4bhm92rcd13ifvqglg","pricing_plan_id":"cebpf4jnsgd1na2vs0mg"},{"bike_id":"5e996e12-b6e7-4ed0-b0ad-30338b4da5e4","system_id":"levelo_inurba_marseille","lat":43.28095,"lon":5.3785,"is_reserved":false,"is_disabled":false,"rental_uris":{"android":"levelo://app?vid=5e996e12-b6e7-4ed0-b0ad-30338b4da5e4","ios":"levelo://app?vid=5e996e12-b6e7-4ed0-b0ad-30338b4da5e4"},"vehicle_type_id":"4","last_reported":1741857042,"current_range_meters":6000,"station_id":"ce4bha12rcd13ifvqee0","pricing_plan_id":"cebpf4jnsgd1na2vs0mg"},{"bike_id":"dbe9dccd-4c9d-4570-b1f3-8c7ed5af557b","system_id":"levelo_inurba_marseille","lat":43.31479,"lon":5.37314,"is_reserved":false,"is_disabled":false,"rental_uris":{"android":"levelo://app?vid=dbe9dccd-4c9d-4570-b1f3-8c7ed5af557b","ios":"levelo://app?vid=dbe9dccd-4c9d-4570-b1f3-8c7ed5af557b"},"vehicle_type_id":"4","last_reported":1741857042,"current_range_meters":6400,"station_id":"ce4bgt12rcd13ifvqcd0","pricing_plan_id":"cebpf4jnsgd1na2vs0mg"},{"bike_id":"03fcef79-f017-4d15-a10d-891c5cd96db2","system_id":"levelo_inurba_marseille","lat":43.23058,"lon":5.354925,"is_reserved":false,"is_disabled":false,"rental_uris":{"android":"levelo://app?vid=03fcef79-f017-4d15-a10d-891c5cd96db2","ios":"levelo://app?vid=03fcef79-f017-4d15-a10d-891c5cd96db2"},"vehicle_type_id":"4","last_reported":1741857042,"current_range_meters":6400,"station_id":"cpo3342slgdg3j2ifvpg","pricing_plan_id":"cebpf4jnsgd1na2vs0mg"},{"bike_id":"f829a819-671e-4b71-9c22-56c5f8047725","system_id":"levelo_inurba_marseille","lat":43.32366,"lon":5.3678,"is_reserved":false,"is_disabled":false,"rental_uris":{"android":"levelo://app?vid=f829a819-671e-4b71-9c22-56c5f8047725","ios":"levelo://app?vid=f829a819-671e-4b71-9c22-56c5f8047725"},"vehicle_type_id":"4","last_reported":1741857042,"current_range_meters":6400,"station_id":"ce4bhsh2rcd13ifvqi2g","pricing_plan_id":"cebpf4jnsgd1na2vs0mg"},{"bike_id":"21202178-9a74-4bc8-9d9e-6fb631a00822","system_id":"levelo_inurba_marseille","lat":43.29823,"lon":5.37366,"is_reserved":false,"is_disabled":false,"rental_uris":{"android":"levelo://app?vid=21202178-9a74-4bc8-9d9e-6fb631a00822","ios":"levelo://app?vid=21202178-9a74-4bc8-9d9e-6fb631a00822"},"vehicle_type_id":"4","last_reported":1741857042,"current_range_meters":6800,"station_id":"","pricing_plan_id":"cebpf4jnsgd1na2vs0mg"},{"bike_id":"472a02ae-36ca-4538-bd27-225364dfe50f","system_id":"levelo_inurba_marseille","lat":43.24517,"lon":5.37359,"is_reserved":false,"is_disabled":false,"rental_uris":{"android":"levelo://app?vid=472a02ae-36ca-4538-bd27-225364dfe50f","ios":"levelo://app?vid=472a02ae-36ca-4538-bd27-225364dfe50f"},"vehicle_type_id":"4","last_reported":1741857042,"current_range_meters":6800,"station_id":"","pricing_plan_id":"cebpf4jnsgd1na2vs0mg"},{"bike_id":"2931d81f-abb3-45b8-9224-dc3fce2fae31","system_id":"levelo_inurba_marseille","lat":43.32363,"lon":5.36755,"is_reserved":false,"is_disabled":false,"rental_uris":{"android":"levelo://app?vid=2931d81f-abb3-45b8-9224-dc3fce2fae31","ios":"levelo://app?vid=2931d81f-abb3-45b8-9224-dc3fce2fae31"},"vehicle_type_id":"4","last_reported":1741857042,"current_range_meters":6800,"station_id":"ce4bhsh2rcd13ifvqi2g","pricing_plan_id":"cebpf4jnsgd1na2vs0mg"},{"bike_id":"5b638169-8ffd-4eef-8ee0-8a1c4db37193","system_id":"levelo_inurba_marseille","lat":43.25005,"lon":5.38916,"is_reserved":false,"is_disabled":false,"rental_uris":{"android":"levelo://app?vid=5b638169-8ffd-4eef-8ee0-8a1c4db37193","ios":"levelo://app?vid=5b638169-8ffd-4eef-8ee0-8a1c4db37193"},"vehicle_type_id":"4","last_reported":1741857042,"current_range_meters":6800,"station_id":"ce4bhgp2rcd13ifvqfd0","pricing_plan_id":"cebpf4jnsgd1na2vs0mg"},{"bike_id":"5c0be3c0-190a-43f3-becc-02f064bfef44","system_id":"levelo_inurba_marseille","lat":43.3343,"lon":5.40052,"is_reserved":false,"is_disabled":false,"rental_uris":{"android":"levelo://app?vid=5c0be3c0-190a-43f3-becc-02f064bfef44","ios":"levelo://app?vid=5c0be3c0-190a-43f3-becc-02f064bfef44"},"vehicle_type_id":"4","last_reported":1741857042,"current_range_meters":6800,"station_id":"","pricing_plan_id":"cebpf4jnsgd1na2vs0mg"},{"bike_id":"6981c999-8cb8-4079-a451-462d4c7f936b","system_id":"levelo_inurba_marseille","lat":43.27168,"lon":5.40999,"is_reserved":false,"is_disabled":false,"rental_uris":{"android":"levelo://app?vid=6981c999-8cb8-4079-a451-462d4c7f936b","ios":"levelo://app?vid=6981c999-8cb8-4079-a451-462d4c7f936b"},"vehicle_type_id":"4","last_reported":1741857042,"current_range_meters":6800,"station_id":"ce4bhl12rcd13ifvqgf0","pricing_plan_id":"cebpf4jnsgd1na2vs0mg"},{"bike_id":"9104b748-eaa8-471a-8e0e-fa841547ccf7","system_id":"levelo_inurba_marseille","lat":43.30884,"lon":5.37202,"is_reserved":false,"is_disabled":false,"rental_uris":{"android":"levelo://app?vid=9104b748-eaa8-471a-8e0e-fa841547ccf7","ios":"levelo://app?vid=9104b748-eaa8-471a-8e0e-fa841547ccf7"},"vehicle_type_id":"4","last_reported":1741857042,"current_range_meters":7200,"station_id":"ce4bguh2rcd13ifvqckg","pricing_plan_id":"cebpf4jnsgd1na2vs0mg"},{"bike_id":"8f8d7957-acea-4492-a8d0-f5376063bbcc","system_id":"levelo_inurba_marseille","lat":43.29033,"lon":5.39976,"is_reserved":false,"is_disabled":false,"rental_uris":{"android":"levelo://app?vid=8f8d7957-acea-4492-a8d0-f5376063bbcc","ios":"levelo://app?vid=8f8d7957-acea-4492-a8d0-f5376063bbcc"},"vehicle_type_id":"4","last_reported":1741857042,"current_range_meters":7200,"station_id":"ce4bh392rcd13ifvqdm0","pricing_plan_id":"cebpf4jnsgd1na2vs0mg"},{"bike_id":"aa928ddd-6b3f-48d4-8a20-7c404512c318","system_id":"levelo_inurba_marseille","lat":43.24072,"lon":5.37765,"is_reserved":false,"is_disabled":false,"rental_uris":{"android":"levelo://app?vid=aa928ddd-6b3f-48d4-8a20-7c404512c318","ios":"levelo://app?vid=aa928ddd-6b3f-48d4-8a20-7c404512c318"},"vehicle_type_id":"4","last_reported":1741857042,"current_range_meters":7200,"station_id":"ce4bhnp2rcd13ifvqgvg","pricing_plan_id":"cebpf4jnsgd1na2vs0mg"},{"bike_id":"bd0689b5-5981-4834-a6d3-9a18cb2e0eca","system_id":"levelo_inurba_marseille","lat":43.25939,"lon":5.40887,"is_reserved":false,"is_disabled":false,"rental_uris":{"android":"levelo://app?vid=bd0689b5-5981-4834-a6d3-9a18cb2e0eca","ios":"levelo://app?vid=bd0689b5-5981-4834-a6d3-9a18cb2e0eca"},"vehicle_type_id":"4","last_reported":1741857042,"current_range_meters":7200,"station_id":"ce4bhm92rcd13ifvqglg","pricing_plan_id":"cebpf4jnsgd1na2vs0mg"},{"bike_id":"b793ee5e-718f-4de5-bf88-e05f59d1ee44","system_id":"levelo_inurba_marseille","lat":43.26059,"lon":5.39403,"is_reserved":false,"is_disabled":false,"rental_uris":{"android":"levelo://app?vid=b793ee5e-718f-4de5-bf88-e05f59d1ee44","ios":"levelo://app?vid=b793ee5e-718f-4de5-bf88-e05f59d1ee44"},"vehicle_type_id":"4","last_reported":1741857042,"current_range_meters":6800,"station_id":"ce4bhh92rcd13ifvqfj0","pricing_plan_id":"cebpf4jnsgd1na2vs0mg"},{"bike_id":"bc6c9268-6450-4d95-971e-62517c50c6c1","system_id":"levelo_inurba_marseille","lat":43.31476,"lon":5.37281,"is_reserved":false,"is_disabled":false,"rental_uris":{"android":"levelo://app?vid=bc6c9268-6450-4d95-971e-62517c50c6c1","ios":"levelo://app?vid=bc6c9268-6450-4d95-971e-62517c50c6c1"},"vehicle_type_id":"4","last_reported":1741857042,"current_range_meters":7200,"station_id":"ce4bgt12rcd13ifvqcd0","pricing_plan_id":"cebpf4jnsgd1na2vs0mg"},{"bike_id":"cab54c81-02a9-4249-a654-a799841b0878","system_id":"levelo_inurba_marseille","lat":43.26226,"lon":5.40464,"is_reserved":false,"is_disabled":false,"rental_uris":{"android":"levelo://app?vid=cab54c81-02a9-4249-a654-a799841b0878","ios":"levelo://app?vid=cab54c81-02a9-4249-a654-a799841b0878"},"vehicle_type_id":"4","last_reported":1741857042,"current_range_meters":7200,"station_id":"ce4bhmh2rcd13ifvqgmg","pricing_plan_id":"cebpf4jnsgd1na2vs0mg"},{"bike_id":"96b68334-5aca-43bb-99d6-07e7361f7430","system_id":"levelo_inurba_marseille","lat":43.23162,"lon":5.43711,"is_reserved":false,"is_disabled":false,"rental_uris":{"android":"levelo://app?vid=96b68334-5aca-43bb-99d6-07e7361f7430","ios":"levelo://app?vid=96b68334-5aca-43bb-99d6-07e7361f7430"},"vehicle_type_id":"4","last_reported":1741857042,"current_range_meters":8000,"station_id":"ce4bhmp2rcd13ifvqgog","pricing_plan_id":"cebpf4jnsgd1na2vs0mg"},{"bike_id":"600a8b1d-91ce-4fc9-92cd-846d63d5cb51","system_id":"levelo_inurba_marseille","lat":43.24996,"lon":5.38935,"is_reserved":false,"is_disabled":false,"rental_uris":{"android":"levelo://app?vid=600a8b1d-91ce-4fc9-92cd-846d63d5cb51","ios":"levelo://app?vid=600a8b1d-91ce-4fc9-92cd-846d63d5cb51"},"vehicle_type_id":"4","last_reported":1741857042,"current_range_meters":8000,"station_id":"ce4bhgp2rcd13ifvqfd0","pricing_plan_id":"cebpf4jnsgd1na2vs0mg"},{"bike_id":"485f1510-a973-46b6-8b2d-6d22ffc60cae","system_id":"levelo_inurba_marseille","lat":43.241732,"lon":5.364011,"is_reserved":false,"is_disabled":false,"rental_uris":{"android":"levelo://app?vid=485f1510-a973-46b6-8b2d-6d22ffc60cae","ios":"levelo://app?vid=485f1510-a973-46b6-8b2d-6d22ffc60cae"},"vehicle_type_id":"4","last_reported":1741857042,"current_range_meters":8000,"station_id":"cpo36qri1sfpv3e86is0","pricing_plan_id":"cebpf4jnsgd1na2vs0mg"},{"bike_id":"0c0af710-b4b5-44f2-b3dd-8a6e2bd42388","system_id":"levelo_inurba_marseille","lat":43.274941,"lon":5.42453,"is_reserved":false,"is_disabled":false,"rental_uris":{"android":"levelo://app?vid=0c0af710-b4b5-44f2-b3dd-8a6e2bd42388","ios":"levelo://app?vid=0c0af710-b4b5-44f2-b3dd-8a6e2bd42388"},"vehicle_type_id":"4","last_reported":1741857042,"current_range_meters":8000,"station_id":"ce4bhn92rcd13ifvqgrg","pricing_plan_id":"cebpf4jnsgd1na2vs0mg"},{"bike_id":"707f97a7-32db-422b-bfa8-ef8d193a1bb4","system_id":"levelo_inurba_marseille","lat":43.22943,"lon":5.35377,"is_reserved":false,"is_disabled":false,"rental_uris":{"android":"levelo://app?vid=707f97a7-32db-422b-bfa8-ef8d193a1bb4","ios":"levelo://app?vid=707f97a7-32db-422b-bfa8-ef8d193a1bb4"},"vehicle_type_id":"4","last_reported":1741857042,"current_range_meters":8000,"station_id":"cpo3532slgdg3j2ikp40","pricing_plan_id":"cebpf4jnsgd1na2vs0mg"},{"bike_id":"9145a6f3-ce1c-4996-a4db-990e32a5c052","system_id":"levelo_inurba_marseille","lat":43.23956,"lon":5.36645,"is_reserved":false,"is_disabled":false,"rental_uris":{"android":"levelo://app?vid=9145a6f3-ce1c-4996-a4db-990e32a5c052","ios":"levelo://app?vid=9145a6f3-ce1c-4996-a4db-990e32a5c052"},"vehicle_type_id":"4","last_reported":1741857042,"current_range_meters":8000,"station_id":"ce4bhi12rcd13ifvqfp0","pricing_plan_id":"cebpf4jnsgd1na2vs0mg"},{"bike_id":"42a216d5-9139-4477-8287-fa7fc7fbb24a","system_id":"levelo_inurba_marseille","lat":43.26564,"lon":5.39029,"is_reserved":false,"is_disabled":false,"rental_uris":{"android":"levelo://app?vid=42a216d5-9139-4477-8287-fa7fc7fbb24a","ios":"levelo://app?vid=42a216d5-9139-4477-8287-fa7fc7fbb24a"},"vehicle_type_id":"4","last_reported":1741857042,"current_range_meters":8000,"station_id":"ce4bhe12rcd13ifvqf30","pricing_plan_id":"cebpf4jnsgd1na2vs0mg"},{"bike_id":"37913a50-23e6-42cf-a8a6-e72eb3fa450f","system_id":"levelo_inurba_marseille","lat":43.29602,"lon":5.38098,"is_reserved":false,"is_disabled":true,"rental_uris":{"android":"levelo://app?vid=37913a50-23e6-42cf-a8a6-e72eb3fa450f","ios":"levelo://app?vid=37913a50-23e6-42cf-a8a6-e72eb3fa450f"},"vehicle_type_id":"4","last_reported":1741857042,"current_range_meters":8000,"station_id":"ce4bgl12rcd13ifvqbo0","pricing_plan_id":"cebpf4jnsgd1na2vs0mg"},{"bike_id":"ec5d08ce-934d-49b5-9a73-c20b44942d11","system_id":"levelo_inurba_marseille","lat":43.31563,"lon":5.38235,"is_reserved":false,"is_disabled":false,"rental_uris":{"android":"levelo://app?vid=ec5d08ce-934d-49b5-9a73-c20b44942d11","ios":"levelo://app?vid=ec5d08ce-934d-49b5-9a73-c20b44942d11"},"vehicle_type_id":"4","last_reported":1741857042,"current_range_meters":8000,"station_id":"","pricing_plan_id":"cebpf4jnsgd1na2vs0mg"},{"bike_id":"6484135d-cc7f-43fa-96dc-9d860579fe11","system_id":"levelo_inurba_marseille","lat":43.24113,"lon":5.37748,"is_reserved":false,"is_disabled":false,"rental_uris":{"android":"levelo://app?vid=6484135d-cc7f-43fa-96dc-9d860579fe11","ios":"levelo://app?vid=6484135d-cc7f-43fa-96dc-9d860579fe11"},"vehicle_type_id":"4","last_reported":1741857042,"current_range_meters":8000,"station_id":"ce4bhnp2rcd13ifvqgvg","pricing_plan_id":"cebpf4jnsgd1na2vs0mg"},{"bike_id":"f4f6951d-a3fd-42a9-86a0-c61cdb750c82","system_id":"levelo_inurba_marseille","lat":43.25092,"lon":5.39516,"is_reserved":false,"is_disabled":false,"rental_uris":{"android":"levelo://app?vid=f4f6951d-a3fd-42a9-86a0-c61cdb750c82","ios":"levelo://app?vid=f4f6951d-a3fd-42a9-86a0-c61cdb750c82"},"vehicle_type_id":"4","last_reported":1741857042,"current_range_meters":8000,"station_id":"ce4bhm12rcd13ifvqgkg","pricing_plan_id":"cebpf4jnsgd1na2vs0mg"},{"bike_id":"3c4e3eac-1eb3-42e9-9712-1ef887e50e19","system_id":"levelo_inurba_marseille","lat":43.24661,"lon":5.3817,"is_reserved":false,"is_disabled":false,"rental_uris":{"android":"levelo://app?vid=3c4e3eac-1eb3-42e9-9712-1ef887e50e19","ios":"levelo://app?vid=3c4e3eac-1eb3-42e9-9712-1ef887e50e19"},"vehicle_type_id":"4","last_reported":1741857042,"current_range_meters":7200,"station_id":"ce4bhih2rcd13ifvqfr0","pricing_plan_id":"cebpf4jnsgd1na2vs0mg"},{"bike_id":"ccc60824-c79b-431c-a6af-0ceb79e3288a","system_id":"levelo_inurba_marseille","lat":43.28468,"lon":5.359,"is_reserved":false,"is_disabled":true,"rental_uris":{"android":"levelo://app?vid=ccc60824-c79b-431c-a6af-0ceb79e3288a","ios":"levelo://app?vid=ccc60824-c79b-431c-a6af-0ceb79e3288a"},"vehicle_type_id":"4","last_reported":1741857042,"current_range_meters":8000,"station_id":"ce4bhah2rcd13ifvqei0","pricing_plan_id":"cebpf4jnsgd1na2vs0mg"},{"bike_id":"0a995a9a-6122-4f4b-b298-a8b06cbca7e2","system_id":"levelo_inurba_marseille","lat":43.25011,"lon":5.38924,"is_reserved":false,"is_disabled":false,"rental_uris":{"android":"levelo://app?vid=0a995a9a-6122-4f4b-b298-a8b06cbca7e2","ios":"levelo://app?vid=0a995a9a-6122-4f4b-b298-a8b06cbca7e2"},"vehicle_type_id":"4","last_reported":1741857042,"current_range_meters":8400,"station_id":"ce4bhgp2rcd13ifvqfd0","pricing_plan_id":"cebpf4jnsgd1na2vs0mg"},{"bike_id":"dea35085-4b50-414e-b2b5-c4028e1ea0a6","system_id":"levelo_inurba_marseille","lat":43.3137,"lon":5.36725,"is_reserved":false,"is_disabled":false,"rental_uris":{"android":"levelo://app?vid=dea35085-4b50-414e-b2b5-c4028e1ea0a6","ios":"levelo://app?vid=dea35085-4b50-414e-b2b5-c4028e1ea0a6"},"vehicle_type_id":"4","last_reported":1741857042,"current_range_meters":8400,"station_id":"ce4bgr92rcd13ifvqc6g","pricing_plan_id":"cebpf4jnsgd1na2vs0mg"},{"bike_id":"f83b1590-73f8-4900-a667-6c005eb9b249","system_id":"levelo_inurba_marseille","lat":43.295659,"lon":5.399797,"is_reserved":false,"is_disabled":true,"rental_uris":{"android":"levelo://app?vid=f83b1590-73f8-4900-a667-6c005eb9b249","ios":"levelo://app?vid=f83b1590-73f8-4900-a667-6c005eb9b249"},"vehicle_type_id":"4","last_reported":1741857042,"current_range_meters":8400,"station_id":"ce4bh312rcd13ifvqdj0","pricing_plan_id":"cebpf4jnsgd1na2vs0mg"},{"bike_id":"55fe5d5a-17ad-4e56-ad62-6cc28a264c81","system_id":"levelo_inurba_marseille","lat":43.25024,"lon":5.3894,"is_reserved":false,"is_disabled":false,"rental_uris":{"android":"levelo://app?vid=55fe5d5a-17ad-4e56-ad62-6cc28a264c81","ios":"levelo://app?vid=55fe5d5a-17ad-4e56-ad62-6cc28a264c81"},"vehicle_type_id":"4","last_reported":1741857042,"current_range_meters":8400,"station_id":"ce4bhgp2rcd13ifvqfd0","pricing_plan_id":"cebpf4jnsgd1na2vs0mg"},{"bike_id":"87e35206-da4a-4765-b77b-43baad767a49","system_id":"levelo_inurba_marseille","lat":43.30948,"lon":5.39041,"is_reserved":false,"is_disabled":false,"rental_uris":{"android":"levelo://app?vid=87e35206-da4a-4765-b77b-43baad767a49","ios":"levelo://app?vid=87e35206-da4a-4765-b77b-43baad767a49"},"vehicle_type_id":"4","last_reported":1741857042,"current_range_meters":8400,"station_id":"ce4bgup2rcd13ifvqco0","pricing_plan_id":"cebpf4jnsgd1na2vs0mg"},{"bike_id":"23c9cbe9-557f-4354-b6c8-4d33721082fa","system_id":"levelo_inurba_marseille","lat":43.29922,"lon":5.36526,"is_reserved":false,"is_disabled":false,"rental_uris":{"android":"levelo://app?vid=23c9cbe9-557f-4354-b6c8-4d33721082fa","ios":"levelo://app?vid=23c9cbe9-557f-4354-b6c8-4d33721082fa"},"vehicle_type_id":"4","last_reported":1741857042,"current_range_meters":8400,"station_id":"ce4bgm92rcd13ifvqbr0","pricing_plan_id":"cebpf4jnsgd1na2vs0mg"},{"bike_id":"fe2204e9-6ef4-43c7-a1b0-0421ad0839ef","system_id":"levelo_inurba_marseille","lat":43.30468,"lon":5.37902,"is_reserved":false,"is_disabled":false,"rental_uris":{"android":"levelo://app?vid=fe2204e9-6ef4-43c7-a1b0-0421ad0839ef","ios":"levelo://app?vid=fe2204e9-6ef4-43c7-a1b0-0421ad0839ef"},"vehicle_type_id":"4","last_reported":1741857042,"current_range_meters":8400,"station_id":"ce4bgup2rcd13ifvqcn0","pricing_plan_id":"cebpf4jnsgd1na2vs0mg"},{"bike_id":"1fe2789f-ada3-4d8a-9fd6-a00d198d3b11","system_id":"levelo_inurba_marseille","lat":43.30898,"lon":5.3684,"is_reserved":false,"is_disabled":false,"rental_uris":{"android":"levelo://app?vid=1fe2789f-ada3-4d8a-9fd6-a00d198d3b11","ios":"levelo://app?vid=1fe2789f-ada3-4d8a-9fd6-a00d198d3b11"},"vehicle_type_id":"4","last_reported":1741857042,"current_range_meters":8400,"station_id":"ce4bgn92rcd13ifvqbvg","pricing_plan_id":"cebpf4jnsgd1na2vs0mg"},{"bike_id":"38396903-da53-4b7e-b8d3-e8fdf876b79f","system_id":"levelo_inurba_marseille","lat":43.29269,"lon":5.37629,"is_reserved":false,"is_disabled":false,"rental_uris":{"android":"levelo://app?vid=38396903-da53-4b7e-b8d3-e8fdf876b79f","ios":"levelo://app?vid=38396903-da53-4b7e-b8d3-e8fdf876b79f"},"vehicle_type_id":"4","last_reported":1741857042,"current_range_meters":8400,"station_id":"ce4bgi12rcd13ifvqb80","pricing_plan_id":"cebpf4jnsgd1na2vs0mg"},{"bike_id":"a91ad3e1-1b6c-4d4d-8e80-225ea763f1bf","system_id":"levelo_inurba_marseille","lat":43.30152,"lon":5.37413,"is_reserved":false,"is_disabled":false,"rental_uris":{"android":"levelo://app?vid=a91ad3e1-1b6c-4d4d-8e80-225ea763f1bf","ios":"levelo://app?vid=a91ad3e1-1b6c-4d4d-8e80-225ea763f1bf"},"vehicle_type_id":"4","last_reported":1741857042,"current_range_meters":8400,"station_id":"ce4bgs92rcd13ifvqcc0","pricing_plan_id":"cebpf4jnsgd1na2vs0mg"},{"bike_id":"234f837a-7327-4b92-8f17-adec428df1b9","system_id":"levelo_inurba_marseille","lat":43.25926,"lon":5.40909,"is_reserved":false,"is_disabled":false,"rental_uris":{"android":"levelo://app?vid=234f837a-7327-4b92-8f17-adec428df1b9","ios":"levelo://app?vid=234f837a-7327-4b92-8f17-adec428df1b9"},"vehicle_type_id":"4","last_reported":1741857042,"current_range_meters":8400,"station_id":"ce4bhm92rcd13ifvqglg","pricing_plan_id":"cebpf4jnsgd1na2vs0mg"},{"bike_id":"30a44157-3601-482a-8ada-381842a5ba5c","system_id":"levelo_inurba_marseille","lat":43.31753,"lon":5.39023,"is_reserved":false,"is_disabled":false,"rental_uris":{"android":"levelo://app?vid=30a44157-3601-482a-8ada-381842a5ba5c","ios":"levelo://app?vid=30a44157-3601-482a-8ada-381842a5ba5c"},"vehicle_type_id":"4","last_reported":1741857042,"current_range_meters":8400,"station_id":"ce4bhqp2rcd13ifvqhng","pricing_plan_id":"cebpf4jnsgd1na2vs0mg"},{"bike_id":"7d4aedfe-c4d1-46e1-9530-386849f612f8","system_id":"levelo_inurba_marseille","lat":43.303751,"lon":5.424902,"is_reserved":false,"is_disabled":false,"rental_uris":{"android":"levelo://app?vid=7d4aedfe-c4d1-46e1-9530-386849f612f8","ios":"levelo://app?vid=7d4aedfe-c4d1-46e1-9530-386849f612f8"},"vehicle_type_id":"4","last_reported":1741857042,"current_range_meters":8400,"station_id":"ce4bghh2rcd13ifvqb60","pricing_plan_id":"cebpf4jnsgd1na2vs0mg"},{"bike_id":"c8f5a7aa-328f-49c1-a785-9624fa888d07","system_id":"levelo_inurba_marseille","lat":43.25017,"lon":5.38926,"is_reserved":false,"is_disabled":false,"rental_uris":{"android":"levelo://app?vid=c8f5a7aa-328f-49c1-a785-9624fa888d07","ios":"levelo://app?vid=c8f5a7aa-328f-49c1-a785-9624fa888d07"},"vehicle_type_id":"4","last_reported":1741857042,"current_range_meters":8400,"station_id":"ce4bhgp2rcd13ifvqfd0","pricing_plan_id":"cebpf4jnsgd1na2vs0mg"},{"bike_id":"2d16443d-ed2e-4c48-af94-4deffe2479f1","system_id":"levelo_inurba_marseille","lat":43.24969,"lon":5.38901,"is_reserved":false,"is_disabled":false,"rental_uris":{"android":"levelo://app?vid=2d16443d-ed2e-4c48-af94-4deffe2479f1","ios":"levelo://app?vid=2d16443d-ed2e-4c48-af94-4deffe2479f1"},"vehicle_type_id":"4","last_reported":1741857042,"current_range_meters":8400,"station_id":"ce4bhgp2rcd13ifvqfd0","pricing_plan_id":"cebpf4jnsgd1na2vs0mg"},{"bike_id":"3bf3cd53-43f0-4f63-84c1-bbc0e5dcd03c","system_id":"levelo_inurba_marseille","lat":43.2466,"lon":5.38174,"is_reserved":false,"is_disabled":false,"rental_uris":{"android":"levelo://app?vid=3bf3cd53-43f0-4f63-84c1-bbc0e5dcd03c","ios":"levelo://app?vid=3bf3cd53-43f0-4f63-84c1-bbc0e5dcd03c"},"vehicle_type_id":"4","last_reported":1741857042,"current_range_meters":8400,"station_id":"ce4bhih2rcd13ifvqfr0","pricing_plan_id":"cebpf4jnsgd1na2vs0mg"},{"bike_id":"9f25a6ad-433a-45b0-a0d0-4a619d769e26","system_id":"levelo_inurba_marseille","lat":43.23187,"lon":5.35571,"is_reserved":false,"is_disabled":false,"rental_uris":{"android":"levelo://app?vid=9f25a6ad-433a-45b0-a0d0-4a619d769e26","ios":"levelo://app?vid=9f25a6ad-433a-45b0-a0d0-4a619d769e26"},"vehicle_type_id":"4","last_reported":1741857042,"current_range_meters":8800,"station_id":"ce4bhu92rcd13ifvqi70","pricing_plan_id":"cebpf4jnsgd1na2vs0mg"},{"bike_id":"27978618-6a05-41e9-b500-4c9c04aec95f","system_id":"levelo_inurba_marseille","lat":43.28157,"lon":5.42648,"is_reserved":false,"is_disabled":false,"rental_uris":{"android":"levelo://app?vid=27978618-6a05-41e9-b500-4c9c04aec95f","ios":"levelo://app?vid=27978618-6a05-41e9-b500-4c9c04aec95f"},"vehicle_type_id":"4","last_reported":1741857042,"current_range_meters":8800,"station_id":"ce4bhnh2rcd13ifvqgug","pricing_plan_id":"cebpf4jnsgd1na2vs0mg"},{"bike_id":"ea3cc9a6-ae16-4517-aa9f-5a1866e7f280","system_id":"levelo_inurba_marseille","lat":43.29272,"lon":5.40123,"is_reserved":false,"is_disabled":false,"rental_uris":{"android":"levelo://app?vid=ea3cc9a6-ae16-4517-aa9f-5a1866e7f280","ios":"levelo://app?vid=ea3cc9a6-ae16-4517-aa9f-5a1866e7f280"},"vehicle_type_id":"4","last_reported":1741857042,"current_range_meters":8800,"station_id":"ce4bh312rcd13ifvqdk0","pricing_plan_id":"cebpf4jnsgd1na2vs0mg"},{"bike_id":"6dbc9b4a-c5a1-4dbf-a00f-5bb7462d2694","system_id":"levelo_inurba_marseille","lat":43.28102,"lon":5.39852,"is_reserved":false,"is_disabled":false,"rental_uris":{"android":"levelo://app?vid=6dbc9b4a-c5a1-4dbf-a00f-5bb7462d2694","ios":"levelo://app?vid=6dbc9b4a-c5a1-4dbf-a00f-5bb7462d2694"},"vehicle_type_id":"4","last_reported":1741857042,"current_range_meters":8800,"station_id":"","pricing_plan_id":"cebpf4jnsgd1na2vs0mg"},{"bike_id":"723341b2-7d56-423d-b5a0-07902d196742","system_id":"levelo_inurba_marseille","lat":43.30212,"lon":5.39469,"is_reserved":false,"is_disabled":false,"rental_uris":{"android":"levelo://app?vid=723341b2-7d56-423d-b5a0-07902d196742","ios":"levelo://app?vid=723341b2-7d56-423d-b5a0-07902d196742"},"vehicle_type_id":"4","last_reported":1741857042,"current_range_meters":8800,"station_id":"ce4bh0p2rcd13ifvqd70","pricing_plan_id":"cebpf4jnsgd1na2vs0mg"},{"bike_id":"f89b9f3b-9595-4d0e-acf5-ac5f650bb50c","system_id":"levelo_inurba_marseille","lat":43.30374,"lon":5.42492,"is_reserved":false,"is_disabled":false,"rental_uris":{"android":"levelo://app?vid=f89b9f3b-9595-4d0e-acf5-ac5f650bb50c","ios":"levelo://app?vid=f89b9f3b-9595-4d0e-acf5-ac5f650bb50c"},"vehicle_type_id":"4","last_reported":1741857042,"current_range_meters":8800,"station_id":"ce4bghh2rcd13ifvqb60","pricing_plan_id":"cebpf4jnsgd1na2vs0mg"},{"bike_id":"4301399b-f674-44db-93d7-a53fcc92849d","system_id":"levelo_inurba_marseille","lat":43.27509,"lon":5.42448,"is_reserved":false,"is_disabled":false,"rental_uris":{"android":"levelo://app?vid=4301399b-f674-44db-93d7-a53fcc92849d","ios":"levelo://app?vid=4301399b-f674-44db-93d7-a53fcc92849d"},"vehicle_type_id":"4","last_reported":1741857042,"current_range_meters":8800,"station_id":"ce4bhn92rcd13ifvqgrg","pricing_plan_id":"cebpf4jnsgd1na2vs0mg"},{"bike_id":"7e942269-db25-4dca-9417-0d6b038d7a9b","system_id":"levelo_inurba_marseille","lat":43.30955,"lon":5.39044,"is_reserved":false,"is_disabled":false,"rental_uris":{"android":"levelo://app?vid=7e942269-db25-4dca-9417-0d6b038d7a9b","ios":"levelo://app?vid=7e942269-db25-4dca-9417-0d6b038d7a9b"},"vehicle_type_id":"4","last_reported":1741857042,"current_range_meters":8800,"station_id":"ce4bgup2rcd13ifvqco0","pricing_plan_id":"cebpf4jnsgd1na2vs0mg"},{"bike_id":"3fd84816-9092-43f8-a38a-6e332e63433d","system_id":"levelo_inurba_marseille","lat":43.25927,"lon":5.40903,"is_reserved":false,"is_disabled":false,"rental_uris":{"android":"levelo://app?vid=3fd84816-9092-43f8-a38a-6e332e63433d","ios":"levelo://app?vid=3fd84816-9092-43f8-a38a-6e332e63433d"},"vehicle_type_id":"4","last_reported":1741857042,"current_range_meters":8800,"station_id":"ce4bhm92rcd13ifvqglg","pricing_plan_id":"cebpf4jnsgd1na2vs0mg"},{"bike_id":"9bf27536-36e1-468f-b8e2-c221d57df0af","system_id":"levelo_inurba_marseille","lat":43.24072,"lon":5.3776,"is_reserved":false,"is_disabled":false,"rental_uris":{"android":"levelo://app?vid=9bf27536-36e1-468f-b8e2-c221d57df0af","ios":"levelo://app?vid=9bf27536-36e1-468f-b8e2-c221d57df0af"},"vehicle_type_id":"4","last_reported":1741857042,"current_range_meters":8800,"station_id":"ce4bhnp2rcd13ifvqgvg","pricing_plan_id":"cebpf4jnsgd1na2vs0mg"},{"bike_id":"6c9764ca-59e6-4698-bd9d-759cdc52c8fb","system_id":"levelo_inurba_marseille","lat":43.27209,"lon":5.39184,"is_reserved":false,"is_disabled":false,"rental_uris":{"android":"levelo://app?vid=6c9764ca-59e6-4698-bd9d-759cdc52c8fb","ios":"levelo://app?vid=6c9764ca-59e6-4698-bd9d-759cdc52c8fb"},"vehicle_type_id":"4","last_reported":1741857042,"current_range_meters":8800,"station_id":"ce4bhhp2rcd13ifvqfm0","pricing_plan_id":"cebpf4jnsgd1na2vs0mg"},{"bike_id":"631e91f7-5608-4e33-8bef-abd7e8d4c72e","system_id":"levelo_inurba_marseille","lat":43.31227,"lon":5.36864,"is_reserved":false,"is_disabled":false,"rental_uris":{"android":"levelo://app?vid=631e91f7-5608-4e33-8bef-abd7e8d4c72e","ios":"levelo://app?vid=631e91f7-5608-4e33-8bef-abd7e8d4c72e"},"vehicle_type_id":"4","last_reported":1741857042,"current_range_meters":9200,"station_id":"ce4bgl92rcd13ifvqbq0","pricing_plan_id":"cebpf4jnsgd1na2vs0mg"},{"bike_id":"d133cb77-d865-4e6f-9b96-ac7aaa9e3cd0","system_id":"levelo_inurba_marseille","lat":43.30541,"lon":5.36536,"is_reserved":false,"is_disabled":false,"rental_uris":{"android":"levelo://app?vid=d133cb77-d865-4e6f-9b96-ac7aaa9e3cd0","ios":"levelo://app?vid=d133cb77-d865-4e6f-9b96-ac7aaa9e3cd0"},"vehicle_type_id":"4","last_reported":1741857042,"current_range_meters":9200,"station_id":"ce4bgs12rcd13ifvqcag","pricing_plan_id":"cebpf4jnsgd1na2vs0mg"},{"bike_id":"138fc5ae-dd42-4748-bd4f-b5b79644c8df","system_id":"levelo_inurba_marseille","lat":43.30444,"lon":5.38891,"is_reserved":false,"is_disabled":false,"rental_uris":{"android":"levelo://app?vid=138fc5ae-dd42-4748-bd4f-b5b79644c8df","ios":"levelo://app?vid=138fc5ae-dd42-4748-bd4f-b5b79644c8df"},"vehicle_type_id":"4","last_reported":1741857042,"current_range_meters":9200,"station_id":"ce4bgk12rcd13ifvqbi0","pricing_plan_id":"cebpf4jnsgd1na2vs0mg"},{"bike_id":"a87ce96e-ac43-41b3-b52e-e2a9da1d1473","system_id":"levelo_inurba_marseille","lat":43.29277,"lon":5.40125,"is_reserved":false,"is_disabled":false,"rental_uris":{"android":"levelo://app?vid=a87ce96e-ac43-41b3-b52e-e2a9da1d1473","ios":"levelo://app?vid=a87ce96e-ac43-41b3-b52e-e2a9da1d1473"},"vehicle_type_id":"4","last_reported":1741857042,"current_range_meters":8000,"station_id":"ce4bh312rcd13ifvqdk0","pricing_plan_id":"cebpf4jnsgd1na2vs0mg"},{"bike_id":"0234a9c0-0d92-4771-9dd1-5abbd3156dde","system_id":"levelo_inurba_marseille","lat":43.24087,"lon":5.37764,"is_reserved":false,"is_disabled":false,"rental_uris":{"android":"levelo://app?vid=0234a9c0-0d92-4771-9dd1-5abbd3156dde","ios":"levelo://app?vid=0234a9c0-0d92-4771-9dd1-5abbd3156dde"},"vehicle_type_id":"4","last_reported":1741857042,"current_range_meters":9200,"station_id":"ce4bhnp2rcd13ifvqgvg","pricing_plan_id":"cebpf4jnsgd1na2vs0mg"},{"bike_id":"58479d0b-7b3c-441f-9db3-5c3f74e9d4d0","system_id":"levelo_inurba_marseille","lat":43.25938,"lon":5.4091,"is_reserved":false,"is_disabled":false,"rental_uris":{"android":"levelo://app?vid=58479d0b-7b3c-441f-9db3-5c3f74e9d4d0","ios":"levelo://app?vid=58479d0b-7b3c-441f-9db3-5c3f74e9d4d0"},"vehicle_type_id":"4","last_reported":1741857042,"current_range_meters":9200,"station_id":"ce4bhm92rcd13ifvqglg","pricing_plan_id":"cebpf4jnsgd1na2vs0mg"},{"bike_id":"dfc5b2ed-f893-4c50-bdd5-4d5f241177cf","system_id":"levelo_inurba_marseille","lat":43.27507,"lon":5.42452,"is_reserved":false,"is_disabled":false,"rental_uris":{"android":"levelo://app?vid=dfc5b2ed-f893-4c50-bdd5-4d5f241177cf","ios":"levelo://app?vid=dfc5b2ed-f893-4c50-bdd5-4d5f241177cf"},"vehicle_type_id":"4","last_reported":1741857042,"current_range_meters":9200,"station_id":"ce4bhn92rcd13ifvqgrg","pricing_plan_id":"cebpf4jnsgd1na2vs0mg"},{"bike_id":"602761df-849c-4f8a-bbfc-47d3fb0d744a","system_id":"levelo_inurba_marseille","lat":43.24081,"lon":5.37748,"is_reserved":false,"is_disabled":false,"rental_uris":{"android":"levelo://app?vid=602761df-849c-4f8a-bbfc-47d3fb0d744a","ios":"levelo://app?vid=602761df-849c-4f8a-bbfc-47d3fb0d744a"},"vehicle_type_id":"4","last_reported":1741857042,"current_range_meters":9600,"station_id":"ce4bhnp2rcd13ifvqgvg","pricing_plan_id":"cebpf4jnsgd1na2vs0mg"},{"bike_id":"a92dd544-068c-4e7c-a8fb-b08279d281e3","system_id":"levelo_inurba_marseille","lat":43.2893,"lon":5.36646,"is_reserved":false,"is_disabled":false,"rental_uris":{"android":"levelo://app?vid=a92dd544-068c-4e7c-a8fb-b08279d281e3","ios":"levelo://app?vid=a92dd544-068c-4e7c-a8fb-b08279d281e3"},"vehicle_type_id":"4","last_reported":1741857042,"current_range_meters":9200,"station_id":"ce4bhap2rcd13ifvqek0","pricing_plan_id":"cebpf4jnsgd1na2vs0mg"},{"bike_id":"4c607265-c996-4d9b-81fd-daa80dd99e32","system_id":"levelo_inurba_marseille","lat":43.28764,"lon":5.38415,"is_reserved":false,"is_disabled":false,"rental_uris":{"android":"levelo://app?vid=4c607265-c996-4d9b-81fd-daa80dd99e32","ios":"levelo://app?vid=4c607265-c996-4d9b-81fd-daa80dd99e32"},"vehicle_type_id":"4","last_reported":1741857042,"current_range_meters":9600,"station_id":"","pricing_plan_id":"cebpf4jnsgd1na2vs0mg"},{"bike_id":"79e732be-e7d8-4dc9-8c8f-89d56717d799","system_id":"levelo_inurba_marseille","lat":43.29027,"lon":5.37561,"is_reserved":false,"is_disabled":true,"rental_uris":{"android":"levelo://app?vid=79e732be-e7d8-4dc9-8c8f-89d56717d799","ios":"levelo://app?vid=79e732be-e7d8-4dc9-8c8f-89d56717d799"},"vehicle_type_id":"4","last_reported":1741857042,"current_range_meters":9600,"station_id":"ce4bh692rcd13ifvqe90","pricing_plan_id":"cebpf4jnsgd1na2vs0mg"},{"bike_id":"15b50c6c-151c-47a0-9049-e253e0368f3a","system_id":"levelo_inurba_marseille","lat":43.30163,"lon":5.38096,"is_reserved":false,"is_disabled":false,"rental_uris":{"android":"levelo://app?vid=15b50c6c-151c-47a0-9049-e253e0368f3a","ios":"levelo://app?vid=15b50c6c-151c-47a0-9049-e253e0368f3a"},"vehicle_type_id":"4","last_reported":1741857042,"current_range_meters":10000,"station_id":"ce4bgjp2rcd13ifvqbh0","pricing_plan_id":"cebpf4jnsgd1na2vs0mg"},{"bike_id":"79397302-4916-493d-9bc0-e5035ae3c476","system_id":"levelo_inurba_marseille","lat":43.22937,"lon":5.3539,"is_reserved":false,"is_disabled":false,"rental_uris":{"android":"levelo://app?vid=79397302-4916-493d-9bc0-e5035ae3c476","ios":"levelo://app?vid=79397302-4916-493d-9bc0-e5035ae3c476"},"vehicle_type_id":"4","last_reported":1741857042,"current_range_meters":9600,"station_id":"cpo3532slgdg3j2ikp40","pricing_plan_id":"cebpf4jnsgd1na2vs0mg"},{"bike_id":"5412c073-a21a-4f09-b8b3-6e8cd885fd55","system_id":"levelo_inurba_marseille","lat":43.31067,"lon":5.38343,"is_reserved":false,"is_disabled":true,"rental_uris":{"android":"levelo://app?vid=5412c073-a21a-4f09-b8b3-6e8cd885fd55","ios":"levelo://app?vid=5412c073-a21a-4f09-b8b3-6e8cd885fd55"},"vehicle_type_id":"4","last_reported":1741857042,"current_range_meters":9600,"station_id":"ce4bgv92rcd13ifvqcr0","pricing_plan_id":"cebpf4jnsgd1na2vs0mg"},{"bike_id":"443a3fb1-e6f8-4551-9dcb-92b2072390e6","system_id":"levelo_inurba_marseille","lat":43.30145,"lon":5.37686,"is_reserved":false,"is_disabled":false,"rental_uris":{"android":"levelo://app?vid=443a3fb1-e6f8-4551-9dcb-92b2072390e6","ios":"levelo://app?vid=443a3fb1-e6f8-4551-9dcb-92b2072390e6"},"vehicle_type_id":"4","last_reported":1741857042,"current_range_meters":9600,"station_id":"","pricing_plan_id":"cebpf4jnsgd1na2vs0mg"},{"bike_id":"4b71f5a9-0b65-417f-bb82-1ec69a6a8263","system_id":"levelo_inurba_marseille","lat":43.29279,"lon":5.40116,"is_reserved":false,"is_disabled":false,"rental_uris":{"android":"levelo://app?vid=4b71f5a9-0b65-417f-bb82-1ec69a6a8263","ios":"levelo://app?vid=4b71f5a9-0b65-417f-bb82-1ec69a6a8263"},"vehicle_type_id":"4","last_reported":1741857042,"current_range_meters":10000,"station_id":"ce4bh312rcd13ifvqdk0","pricing_plan_id":"cebpf4jnsgd1na2vs0mg"},{"bike_id":"0e6230f3-c33d-4dac-a9ea-890d67b9573b","system_id":"levelo_inurba_marseille","lat":43.26782,"lon":5.3942,"is_reserved":false,"is_disabled":false,"rental_uris":{"android":"levelo://app?vid=0e6230f3-c33d-4dac-a9ea-890d67b9573b","ios":"levelo://app?vid=0e6230f3-c33d-4dac-a9ea-890d67b9573b"},"vehicle_type_id":"4","last_reported":1741857042,"current_range_meters":10000,"station_id":"ce4bhh12rcd13ifvqfg0","pricing_plan_id":"cebpf4jnsgd1na2vs0mg"},{"bike_id":"f306f7be-e04f-4968-9a2f-ec70b66a96d2","system_id":"levelo_inurba_marseille","lat":43.30148,"lon":5.37421,"is_reserved":false,"is_disabled":false,"rental_uris":{"android":"levelo://app?vid=f306f7be-e04f-4968-9a2f-ec70b66a96d2","ios":"levelo://app?vid=f306f7be-e04f-4968-9a2f-ec70b66a96d2"},"vehicle_type_id":"4","last_reported":1741857042,"current_range_meters":10000,"station_id":"ce4bgs92rcd13ifvqcc0","pricing_plan_id":"cebpf4jnsgd1na2vs0mg"},{"bike_id":"0fd54929-fda1-4124-8332-4d4edc632c97","system_id":"levelo_inurba_marseille","lat":43.301488,"lon":5.380934,"is_reserved":false,"is_disabled":false,"rental_uris":{"android":"levelo://app?vid=0fd54929-fda1-4124-8332-4d4edc632c97","ios":"levelo://app?vid=0fd54929-fda1-4124-8332-4d4edc632c97"},"vehicle_type_id":"4","last_reported":1741857042,"current_range_meters":10000,"station_id":"ce4bgjp2rcd13ifvqbh0","pricing_plan_id":"cebpf4jnsgd1na2vs0mg"},{"bike_id":"81aa8f23-b821-4abf-aa25-ce8dd50e2f74","system_id":"levelo_inurba_marseille","lat":43.24069,"lon":5.37749,"is_reserved":false,"is_disabled":false,"rental_uris":{"android":"levelo://app?vid=81aa8f23-b821-4abf-aa25-ce8dd50e2f74","ios":"levelo://app?vid=81aa8f23-b821-4abf-aa25-ce8dd50e2f74"},"vehicle_type_id":"4","last_reported":1741857042,"current_range_meters":10000,"station_id":"ce4bhnp2rcd13ifvqgvg","pricing_plan_id":"cebpf4jnsgd1na2vs0mg"},{"bike_id":"23db1b43-c277-4aec-9400-efb91ffe9b30","system_id":"levelo_inurba_marseille","lat":43.29031,"lon":5.35925,"is_reserved":false,"is_disabled":false,"rental_uris":{"android":"levelo://app?vid=23db1b43-c277-4aec-9400-efb91ffe9b30","ios":"levelo://app?vid=23db1b43-c277-4aec-9400-efb91ffe9b30"},"vehicle_type_id":"4","last_reported":1741857042,"current_range_meters":10000,"station_id":"ce4bha92rcd13ifvqeg0","pricing_plan_id":"cebpf4jnsgd1na2vs0mg"},{"bike_id":"52727d89-d5a1-43eb-9b49-dbd459fb4c88","system_id":"levelo_inurba_marseille","lat":43.2649,"lon":5.39546,"is_reserved":false,"is_disabled":false,"rental_uris":{"android":"levelo://app?vid=52727d89-d5a1-43eb-9b49-dbd459fb4c88","ios":"levelo://app?vid=52727d89-d5a1-43eb-9b49-dbd459fb4c88"},"vehicle_type_id":"4","last_reported":1741857042,"current_range_meters":10000,"station_id":"ce4bhi12rcd13ifvqfq0","pricing_plan_id":"cebpf4jnsgd1na2vs0mg"},{"bike_id":"b17833c2-8a29-40aa-84a7-a1940a968f79","system_id":"levelo_inurba_marseille","lat":43.30173,"lon":5.38088,"is_reserved":false,"is_disabled":false,"rental_uris":{"android":"levelo://app?vid=b17833c2-8a29-40aa-84a7-a1940a968f79","ios":"levelo://app?vid=b17833c2-8a29-40aa-84a7-a1940a968f79"},"vehicle_type_id":"4","last_reported":1741857042,"current_range_meters":10000,"station_id":"ce4bgjp2rcd13ifvqbh0","pricing_plan_id":"cebpf4jnsgd1na2vs0mg"},{"bike_id":"9c298458-9168-485c-a6fd-bc9aa475b8d1","system_id":"levelo_inurba_marseille","lat":43.282419,"lon":5.386503,"is_reserved":false,"is_disabled":false,"rental_uris":{"android":"levelo://app?vid=9c298458-9168-485c-a6fd-bc9aa475b8d1","ios":"levelo://app?vid=9c298458-9168-485c-a6fd-bc9aa475b8d1"},"vehicle_type_id":"4","last_reported":1741857042,"current_range_meters":10000,"station_id":"ce4bht12rcd13ifvqi60","pricing_plan_id":"cebpf4jnsgd1na2vs0mg"},{"bike_id":"d1749825-a00e-4ab4-a952-4ff33e012918","system_id":"levelo_inurba_marseille","lat":43.30533,"lon":5.36722,"is_reserved":false,"is_disabled":false,"rental_uris":{"android":"levelo://app?vid=d1749825-a00e-4ab4-a952-4ff33e012918","ios":"levelo://app?vid=d1749825-a00e-4ab4-a952-4ff33e012918"},"vehicle_type_id":"4","last_reported":1741857042,"current_range_meters":10000,"station_id":"ce4bgrp2rcd13ifvqc9g","pricing_plan_id":"cebpf4jnsgd1na2vs0mg"},{"bike_id":"04b6b0f6-d318-40e6-a023-347d481d621c","system_id":"levelo_inurba_marseille","lat":43.29191,"lon":5.37572,"is_reserved":false,"is_disabled":false,"rental_uris":{"android":"levelo://app?vid=04b6b0f6-d318-40e6-a023-347d481d621c","ios":"levelo://app?vid=04b6b0f6-d318-40e6-a023-347d481d621c"},"vehicle_type_id":"4","last_reported":1741857042,"current_range_meters":10800,"station_id":"","pricing_plan_id":"cebpf4jnsgd1na2vs0mg"},{"bike_id":"9cce9208-7cee-4c1b-a29a-1b23c4eeb22f","system_id":"levelo_inurba_marseille","lat":43.26687,"lon":5.38277,"is_reserved":false,"is_disabled":false,"rental_uris":{"android":"levelo://app?vid=9cce9208-7cee-4c1b-a29a-1b23c4eeb22f","ios":"levelo://app?vid=9cce9208-7cee-4c1b-a29a-1b23c4eeb22f"},"vehicle_type_id":"4","last_reported":1741857042,"current_range_meters":10800,"station_id":"ce4bhg92rcd13ifvqf90","pricing_plan_id":"cebpf4jnsgd1na2vs0mg"},{"bike_id":"c27a00bb-8805-455d-a9b3-fb84df9b586e","system_id":"levelo_inurba_marseille","lat":43.2749,"lon":5.42457,"is_reserved":false,"is_disabled":false,"rental_uris":{"android":"levelo://app?vid=c27a00bb-8805-455d-a9b3-fb84df9b586e","ios":"levelo://app?vid=c27a00bb-8805-455d-a9b3-fb84df9b586e"},"vehicle_type_id":"4","last_reported":1741857042,"current_range_meters":10800,"station_id":"ce4bhn92rcd13ifvqgrg","pricing_plan_id":"cebpf4jnsgd1na2vs0mg"},{"bike_id":"b592acb7-cacd-4757-a870-24e12e49b5fe","system_id":"levelo_inurba_marseille","lat":43.30164,"lon":5.38076,"is_reserved":false,"is_disabled":false,"rental_uris":{"android":"levelo://app?vid=b592acb7-cacd-4757-a870-24e12e49b5fe","ios":"levelo://app?vid=b592acb7-cacd-4757-a870-24e12e49b5fe"},"vehicle_type_id":"4","last_reported":1741857042,"current_range_meters":10800,"station_id":"ce4bgjp2rcd13ifvqbh0","pricing_plan_id":"cebpf4jnsgd1na2vs0mg"},{"bike_id":"5fb8ada9-5a56-423d-8722-f16a8274b1cc","system_id":"levelo_inurba_marseille","lat":43.30898,"lon":5.36855,"is_reserved":false,"is_disabled":false,"rental_uris":{"android":"levelo://app?vid=5fb8ada9-5a56-423d-8722-f16a8274b1cc","ios":"levelo://app?vid=5fb8ada9-5a56-423d-8722-f16a8274b1cc"},"vehicle_type_id":"4","last_reported":1741857042,"current_range_meters":10800,"station_id":"ce4bgn92rcd13ifvqbvg","pricing_plan_id":"cebpf4jnsgd1na2vs0mg"},{"bike_id":"370e354a-8bbe-4efe-a156-3f171809e8dd","system_id":"levelo_inurba_marseille","lat":43.24075,"lon":5.37763,"is_reserved":false,"is_disabled":false,"rental_uris":{"android":"levelo://app?vid=370e354a-8bbe-4efe-a156-3f171809e8dd","ios":"levelo://app?vid=370e354a-8bbe-4efe-a156-3f171809e8dd"},"vehicle_type_id":"4","last_reported":1741857042,"current_range_meters":10800,"station_id":"ce4bhnp2rcd13ifvqgvg","pricing_plan_id":"cebpf4jnsgd1na2vs0mg"},{"bike_id":"e8fd26ef-6903-4e20-ab4a-abfea64ee9ab","system_id":"levelo_inurba_marseille","lat":43.250128,"lon":5.389313,"is_reserved":false,"is_disabled":false,"rental_uris":{"android":"levelo://app?vid=e8fd26ef-6903-4e20-ab4a-abfea64ee9ab","ios":"levelo://app?vid=e8fd26ef-6903-4e20-ab4a-abfea64ee9ab"},"vehicle_type_id":"4","last_reported":1741857042,"current_range_meters":10800,"station_id":"ce4bhgp2rcd13ifvqfd0","pricing_plan_id":"cebpf4jnsgd1na2vs0mg"},{"bike_id":"0f09a34b-743f-460f-866a-def7681beb24","system_id":"levelo_inurba_marseille","lat":43.2666,"lon":5.38276,"is_reserved":false,"is_disabled":false,"rental_uris":{"android":"levelo://app?vid=0f09a34b-743f-460f-866a-def7681beb24","ios":"levelo://app?vid=0f09a34b-743f-460f-866a-def7681beb24"},"vehicle_type_id":"4","last_reported":1741857042,"current_range_meters":10800,"station_id":"ce4bhg92rcd13ifvqf90","pricing_plan_id":"cebpf4jnsgd1na2vs0mg"},{"bike_id":"6291feed-1dee-4192-bb76-319c63a3627d","system_id":"levelo_inurba_marseille","lat":43.28608,"lon":5.37065,"is_reserved":false,"is_disabled":false,"rental_uris":{"android":"levelo://app?vid=6291feed-1dee-4192-bb76-319c63a3627d","ios":"levelo://app?vid=6291feed-1dee-4192-bb76-319c63a3627d"},"vehicle_type_id":"4","last_reported":1741857042,"current_range_meters":10800,"station_id":"ce4bht12rcd13ifvqi60","pricing_plan_id":"cebpf4jnsgd1na2vs0mg"},{"bike_id":"43210ee2-7bae-42bd-8e6d-b2d5802f48a9","system_id":"levelo_inurba_marseille","lat":43.29031,"lon":5.40001,"is_reserved":false,"is_disabled":false,"rental_uris":{"android":"levelo://app?vid=43210ee2-7bae-42bd-8e6d-b2d5802f48a9","ios":"levelo://app?vid=43210ee2-7bae-42bd-8e6d-b2d5802f48a9"},"vehicle_type_id":"4","last_reported":1741857042,"current_range_meters":10800,"station_id":"ce4bh392rcd13ifvqdm0","pricing_plan_id":"cebpf4jnsgd1na2vs0mg"},{"bike_id":"def48294-1af4-47d0-9f7b-4ebb1b302cec","system_id":"levelo_inurba_marseille","lat":43.30945,"lon":5.39036,"is_reserved":false,"is_disabled":false,"rental_uris":{"android":"levelo://app?vid=def48294-1af4-47d0-9f7b-4ebb1b302cec","ios":"levelo://app?vid=def48294-1af4-47d0-9f7b-4ebb1b302cec"},"vehicle_type_id":"4","last_reported":1741857042,"current_range_meters":10800,"station_id":"ce4bgup2rcd13ifvqco0","pricing_plan_id":"cebpf4jnsgd1na2vs0mg"},{"bike_id":"e3d6a6b9-cc18-4321-8a36-574dc6db5ef8","system_id":"levelo_inurba_marseille","lat":43.26678,"lon":5.3827,"is_reserved":false,"is_disabled":false,"rental_uris":{"android":"levelo://app?vid=e3d6a6b9-cc18-4321-8a36-574dc6db5ef8","ios":"levelo://app?vid=e3d6a6b9-cc18-4321-8a36-574dc6db5ef8"},"vehicle_type_id":"4","last_reported":1741857042,"current_range_meters":10800,"station_id":"ce4bhg92rcd13ifvqf90","pricing_plan_id":"cebpf4jnsgd1na2vs0mg"},{"bike_id":"7376b309-731d-4ac9-99c2-a5aa8972cf35","system_id":"levelo_inurba_marseille","lat":43.24661,"lon":5.38173,"is_reserved":false,"is_disabled":false,"rental_uris":{"android":"levelo://app?vid=7376b309-731d-4ac9-99c2-a5aa8972cf35","ios":"levelo://app?vid=7376b309-731d-4ac9-99c2-a5aa8972cf35"},"vehicle_type_id":"4","last_reported":1741857042,"current_range_meters":10800,"station_id":"ce4bhih2rcd13ifvqfr0","pricing_plan_id":"cebpf4jnsgd1na2vs0mg"},{"bike_id":"9203865e-ca45-4cac-a4a2-49b3bfa1d4f8","system_id":"levelo_inurba_marseille","lat":43.29839,"lon":5.36266,"is_reserved":false,"is_disabled":false,"rental_uris":{"android":"levelo://app?vid=9203865e-ca45-4cac-a4a2-49b3bfa1d4f8","ios":"levelo://app?vid=9203865e-ca45-4cac-a4a2-49b3bfa1d4f8"},"vehicle_type_id":"4","last_reported":1741857042,"current_range_meters":11200,"station_id":"ce4bgpp2rcd13ifvqc3g","pricing_plan_id":"cebpf4jnsgd1na2vs0mg"},{"bike_id":"0118782e-a9be-4c57-a3c6-f989e8d3b9bf","system_id":"levelo_inurba_marseille","lat":43.24173,"lon":5.39716,"is_reserved":false,"is_disabled":false,"rental_uris":{"android":"levelo://app?vid=0118782e-a9be-4c57-a3c6-f989e8d3b9bf","ios":"levelo://app?vid=0118782e-a9be-4c57-a3c6-f989e8d3b9bf"},"vehicle_type_id":"4","last_reported":1741857042,"current_range_meters":11200,"station_id":"ce4bhn12rcd13ifvqgpg","pricing_plan_id":"cebpf4jnsgd1na2vs0mg"},{"bike_id":"ef7ca9a6-3467-44cc-bad4-14e9163fcc71","system_id":"levelo_inurba_marseille","lat":43.24178,"lon":5.3973,"is_reserved":false,"is_disabled":false,"rental_uris":{"android":"levelo://app?vid=ef7ca9a6-3467-44cc-bad4-14e9163fcc71","ios":"levelo://app?vid=ef7ca9a6-3467-44cc-bad4-14e9163fcc71"},"vehicle_type_id":"4","last_reported":1741857042,"current_range_meters":11200,"station_id":"ce4bhn12rcd13ifvqgpg","pricing_plan_id":"cebpf4jnsgd1na2vs0mg"},{"bike_id":"ac4ccca9-3a91-4d40-bcdf-3578b349c0f6","system_id":"levelo_inurba_marseille","lat":43.27202,"lon":5.39191,"is_reserved":false,"is_disabled":false,"rental_uris":{"android":"levelo://app?vid=ac4ccca9-3a91-4d40-bcdf-3578b349c0f6","ios":"levelo://app?vid=ac4ccca9-3a91-4d40-bcdf-3578b349c0f6"},"vehicle_type_id":"4","last_reported":1741857042,"current_range_meters":11200,"station_id":"ce4bhhp2rcd13ifvqfm0","pricing_plan_id":"cebpf4jnsgd1na2vs0mg"},{"bike_id":"6a7ef2df-bee0-45b4-ba9f-5aa28bc98bf8","system_id":"levelo_inurba_marseille","lat":43.3014,"lon":5.37413,"is_reserved":false,"is_disabled":false,"rental_uris":{"android":"levelo://app?vid=6a7ef2df-bee0-45b4-ba9f-5aa28bc98bf8","ios":"levelo://app?vid=6a7ef2df-bee0-45b4-ba9f-5aa28bc98bf8"},"vehicle_type_id":"4","last_reported":1741857042,"current_range_meters":11200,"station_id":"ce4bgs92rcd13ifvqcc0","pricing_plan_id":"cebpf4jnsgd1na2vs0mg"},{"bike_id":"45029be8-6bfc-48c2-b107-ea1c2c8a77a9","system_id":"levelo_inurba_marseille","lat":43.29976,"lon":5.37173,"is_reserved":false,"is_disabled":false,"rental_uris":{"android":"levelo://app?vid=45029be8-6bfc-48c2-b107-ea1c2c8a77a9","ios":"levelo://app?vid=45029be8-6bfc-48c2-b107-ea1c2c8a77a9"},"vehicle_type_id":"4","last_reported":1741857042,"current_range_meters":11200,"station_id":"ce4bgr92rcd13ifvqc7g","pricing_plan_id":"cebpf4jnsgd1na2vs0mg"},{"bike_id":"6ade9452-7719-4e92-a697-4b57c32c0ea5","system_id":"levelo_inurba_marseille","lat":43.27048,"lon":5.40267,"is_reserved":false,"is_disabled":false,"rental_uris":{"android":"levelo://app?vid=6ade9452-7719-4e92-a697-4b57c32c0ea5","ios":"levelo://app?vid=6ade9452-7719-4e92-a697-4b57c32c0ea5"},"vehicle_type_id":"4","last_reported":1741857042,"current_range_meters":11200,"station_id":"ce4bhk92rcd13ifvqgc0","pricing_plan_id":"cebpf4jnsgd1na2vs0mg"},{"bike_id":"a823fe98-0845-44f0-af70-a3e75e70ed04","system_id":"levelo_inurba_marseille","lat":43.25,"lon":5.38929,"is_reserved":false,"is_disabled":false,"rental_uris":{"android":"levelo://app?vid=a823fe98-0845-44f0-af70-a3e75e70ed04","ios":"levelo://app?vid=a823fe98-0845-44f0-af70-a3e75e70ed04"},"vehicle_type_id":"4","last_reported":1741857042,"current_range_meters":11600,"station_id":"ce4bhgp2rcd13ifvqfd0","pricing_plan_id":"cebpf4jnsgd1na2vs0mg"},{"bike_id":"7f0ce0ec-8eea-41e3-8a06-ee27854a7b0b","system_id":"levelo_inurba_marseille","lat":43.31225,"lon":5.36854,"is_reserved":false,"is_disabled":false,"rental_uris":{"android":"levelo://app?vid=7f0ce0ec-8eea-41e3-8a06-ee27854a7b0b","ios":"levelo://app?vid=7f0ce0ec-8eea-41e3-8a06-ee27854a7b0b"},"vehicle_type_id":"4","last_reported":1741857042,"current_range_meters":11600,"station_id":"ce4bgl92rcd13ifvqbq0","pricing_plan_id":"cebpf4jnsgd1na2vs0mg"},{"bike_id":"fd440347-0404-4c36-8fbe-7ebffd7a9e8f","system_id":"levelo_inurba_marseille","lat":43.333426,"lon":5.396133,"is_reserved":false,"is_disabled":false,"rental_uris":{"android":"levelo://app?vid=fd440347-0404-4c36-8fbe-7ebffd7a9e8f","ios":"levelo://app?vid=fd440347-0404-4c36-8fbe-7ebffd7a9e8f"},"vehicle_type_id":"4","last_reported":1741857042,"current_range_meters":11600,"station_id":"","pricing_plan_id":"cebpf4jnsgd1na2vs0mg"},{"bike_id":"894adb72-eba3-4c31-be33-a34cdb918fbd","system_id":"levelo_inurba_marseille","lat":43.25723,"lon":5.41111,"is_reserved":false,"is_disabled":false,"rental_uris":{"android":"levelo://app?vid=894adb72-eba3-4c31-be33-a34cdb918fbd","ios":"levelo://app?vid=894adb72-eba3-4c31-be33-a34cdb918fbd"},"vehicle_type_id":"4","last_reported":1741857042,"current_range_meters":11600,"station_id":"ce4bhkp2rcd13ifvqgd0","pricing_plan_id":"cebpf4jnsgd1na2vs0mg"},{"bike_id":"d1235ce3-1007-4d2d-9e28-ea39398a63a8","system_id":"levelo_inurba_marseille","lat":43.23195,"lon":5.35557,"is_reserved":false,"is_disabled":false,"rental_uris":{"android":"levelo://app?vid=d1235ce3-1007-4d2d-9e28-ea39398a63a8","ios":"levelo://app?vid=d1235ce3-1007-4d2d-9e28-ea39398a63a8"},"vehicle_type_id":"4","last_reported":1741857042,"current_range_meters":11600,"station_id":"ce4bhu92rcd13ifvqi70","pricing_plan_id":"cebpf4jnsgd1na2vs0mg"},{"bike_id":"cfacb6ce-03b7-4545-87ac-7ab9550643b3","system_id":"levelo_inurba_marseille","lat":43.33111,"lon":5.38223,"is_reserved":false,"is_disabled":false,"rental_uris":{"android":"levelo://app?vid=cfacb6ce-03b7-4545-87ac-7ab9550643b3","ios":"levelo://app?vid=cfacb6ce-03b7-4545-87ac-7ab9550643b3"},"vehicle_type_id":"4","last_reported":1741857042,"current_range_meters":11600,"station_id":"","pricing_plan_id":"cebpf4jnsgd1na2vs0mg"},{"bike_id":"413345be-a7c3-494b-b557-ce6834641f15","system_id":"levelo_inurba_marseille","lat":43.32281,"lon":5.38279,"is_reserved":false,"is_disabled":false,"rental_uris":{"android":"levelo://app?vid=413345be-a7c3-494b-b557-ce6834641f15","ios":"levelo://app?vid=413345be-a7c3-494b-b557-ce6834641f15"},"vehicle_type_id":"4","last_reported":1741857042,"current_range_meters":11600,"station_id":"ce4bhr12rcd13ifvqhqg","pricing_plan_id":"cebpf4jnsgd1na2vs0mg"},{"bike_id":"f550acae-a478-493d-8418-eb4ab17dc323","system_id":"levelo_inurba_marseille","lat":43.25006,"lon":5.38914,"is_reserved":false,"is_disabled":false,"rental_uris":{"android":"levelo://app?vid=f550acae-a478-493d-8418-eb4ab17dc323","ios":"levelo://app?vid=f550acae-a478-493d-8418-eb4ab17dc323"},"vehicle_type_id":"4","last_reported":1741857042,"current_range_meters":11600,"station_id":"ce4bhgp2rcd13ifvqfd0","pricing_plan_id":"cebpf4jnsgd1na2vs0mg"},{"bike_id":"9f260f59-22bd-46b1-85d9-b6b4b5fd2f82","system_id":"levelo_inurba_marseille","lat":43.25933,"lon":5.40901,"is_reserved":false,"is_disabled":false,"rental_uris":{"android":"levelo://app?vid=9f260f59-22bd-46b1-85d9-b6b4b5fd2f82","ios":"levelo://app?vid=9f260f59-22bd-46b1-85d9-b6b4b5fd2f82"},"vehicle_type_id":"4","last_reported":1741857042,"current_range_meters":11600,"station_id":"ce4bhm92rcd13ifvqglg","pricing_plan_id":"cebpf4jnsgd1na2vs0mg"},{"bike_id":"d1806d7e-7978-4890-b7f6-ffb20c0bc947","system_id":"levelo_inurba_marseille","lat":43.30467,"lon":5.37906,"is_reserved":false,"is_disabled":false,"rental_uris":{"android":"levelo://app?vid=d1806d7e-7978-4890-b7f6-ffb20c0bc947","ios":"levelo://app?vid=d1806d7e-7978-4890-b7f6-ffb20c0bc947"},"vehicle_type_id":"4","last_reported":1741857042,"current_range_meters":12000,"station_id":"ce4bgup2rcd13ifvqcn0","pricing_plan_id":"cebpf4jnsgd1na2vs0mg"},{"bike_id":"ed6048ca-a40e-470c-a5d8-9f3eec2736ca","system_id":"levelo_inurba_marseille","lat":43.25868,"lon":5.39902,"is_reserved":false,"is_disabled":false,"rental_uris":{"android":"levelo://app?vid=ed6048ca-a40e-470c-a5d8-9f3eec2736ca","ios":"levelo://app?vid=ed6048ca-a40e-470c-a5d8-9f3eec2736ca"},"vehicle_type_id":"4","last_reported":1741857042,"current_range_meters":11600,"station_id":"ce4bhl92rcd13ifvqghg","pricing_plan_id":"cebpf4jnsgd1na2vs0mg"},{"bike_id":"a11a42ac-f6dd-4030-b0d6-bcc58438f1fd","system_id":"levelo_inurba_marseille","lat":43.2695,"lon":5.38634,"is_reserved":false,"is_disabled":false,"rental_uris":{"android":"levelo://app?vid=a11a42ac-f6dd-4030-b0d6-bcc58438f1fd","ios":"levelo://app?vid=a11a42ac-f6dd-4030-b0d6-bcc58438f1fd"},"vehicle_type_id":"4","last_reported":1741857042,"current_range_meters":12000,"station_id":"ce4bhh92rcd13ifvqfh0","pricing_plan_id":"cebpf4jnsgd1na2vs0mg"},{"bike_id":"90f8c03f-d684-43c1-847d-5fc1275e68f3","system_id":"levelo_inurba_marseille","lat":43.29932,"lon":5.3656,"is_reserved":false,"is_disabled":false,"rental_uris":{"android":"levelo://app?vid=90f8c03f-d684-43c1-847d-5fc1275e68f3","ios":"levelo://app?vid=90f8c03f-d684-43c1-847d-5fc1275e68f3"},"vehicle_type_id":"4","last_reported":1741857042,"current_range_meters":12000,"station_id":"ce4bgm92rcd13ifvqbr0","pricing_plan_id":"cebpf4jnsgd1na2vs0mg"},{"bike_id":"1db658b5-01e5-4f9a-bba2-d278e3bc4f09","system_id":"levelo_inurba_marseille","lat":43.29303,"lon":5.37461,"is_reserved":false,"is_disabled":false,"rental_uris":{"android":"levelo://app?vid=1db658b5-01e5-4f9a-bba2-d278e3bc4f09","ios":"levelo://app?vid=1db658b5-01e5-4f9a-bba2-d278e3bc4f09"},"vehicle_type_id":"4","last_reported":1741857042,"current_range_meters":12000,"station_id":"ce4bgi12rcd13ifvqb70","pricing_plan_id":"cebpf4jnsgd1na2vs0mg"},{"bike_id":"1556b126-85c1-4ab2-921f-ba0a1f41fa34","system_id":"levelo_inurba_marseille","lat":43.26681,"lon":5.38277,"is_reserved":false,"is_disabled":false,"rental_uris":{"android":"levelo://app?vid=1556b126-85c1-4ab2-921f-ba0a1f41fa34","ios":"levelo://app?vid=1556b126-85c1-4ab2-921f-ba0a1f41fa34"},"vehicle_type_id":"4","last_reported":1741857042,"current_range_meters":12000,"station_id":"ce4bhg92rcd13ifvqf90","pricing_plan_id":"cebpf4jnsgd1na2vs0mg"},{"bike_id":"16e3afe0-cf85-410c-88a0-8e337726a46a","system_id":"levelo_inurba_marseille","lat":43.26653,"lon":5.38618,"is_reserved":false,"is_disabled":false,"rental_uris":{"android":"levelo://app?vid=16e3afe0-cf85-410c-88a0-8e337726a46a","ios":"levelo://app?vid=16e3afe0-cf85-410c-88a0-8e337726a46a"},"vehicle_type_id":"4","last_reported":1741857042,"current_range_meters":12000,"station_id":"","pricing_plan_id":"cebpf4jnsgd1na2vs0mg"},{"bike_id":"ca7073b3-7a61-4ba6-99ba-bb754b837a13","system_id":"levelo_inurba_marseille","lat":43.24177,"lon":5.39737,"is_reserved":false,"is_disabled":false,"rental_uris":{"android":"levelo://app?vid=ca7073b3-7a61-4ba6-99ba-bb754b837a13","ios":"levelo://app?vid=ca7073b3-7a61-4ba6-99ba-bb754b837a13"},"vehicle_type_id":"4","last_reported":1741857042,"current_range_meters":12400,"station_id":"ce4bhn12rcd13ifvqgpg","pricing_plan_id":"cebpf4jnsgd1na2vs0mg"},{"bike_id":"6e709a37-d120-41cd-899c-df06670f22de","system_id":"levelo_inurba_marseille","lat":43.31411,"lon":5.36619,"is_reserved":false,"is_disabled":false,"rental_uris":{"android":"levelo://app?vid=6e709a37-d120-41cd-899c-df06670f22de","ios":"levelo://app?vid=6e709a37-d120-41cd-899c-df06670f22de"},"vehicle_type_id":"4","last_reported":1741857042,"current_range_meters":12400,"station_id":"ce4bgr92rcd13ifvqc6g","pricing_plan_id":"cebpf4jnsgd1na2vs0mg"},{"bike_id":"6c7f2aca-3105-4335-96dc-9630ec0f70bd","system_id":"levelo_inurba_marseille","lat":43.31375,"lon":5.38496,"is_reserved":false,"is_disabled":false,"rental_uris":{"android":"levelo://app?vid=6c7f2aca-3105-4335-96dc-9630ec0f70bd","ios":"levelo://app?vid=6c7f2aca-3105-4335-96dc-9630ec0f70bd"},"vehicle_type_id":"4","last_reported":1741857042,"current_range_meters":12000,"station_id":"ce4bgt92rcd13ifvqcf0","pricing_plan_id":"cebpf4jnsgd1na2vs0mg"},{"bike_id":"6a01bcd6-d597-43ea-9f33-f612ae30f0a5","system_id":"levelo_inurba_marseille","lat":43.315,"lon":5.373,"is_reserved":false,"is_disabled":false,"rental_uris":{"android":"levelo://app?vid=6a01bcd6-d597-43ea-9f33-f612ae30f0a5","ios":"levelo://app?vid=6a01bcd6-d597-43ea-9f33-f612ae30f0a5"},"vehicle_type_id":"4","last_reported":1741857042,"current_range_meters":12400,"station_id":"ce4bgt12rcd13ifvqcd0","pricing_plan_id":"cebpf4jnsgd1na2vs0mg"},{"bike_id":"af085ef6-df6d-43b4-ba72-0b2edc4686a0","system_id":"levelo_inurba_marseille","lat":43.31057,"lon":5.38349,"is_reserved":false,"is_disabled":false,"rental_uris":{"android":"levelo://app?vid=af085ef6-df6d-43b4-ba72-0b2edc4686a0","ios":"levelo://app?vid=af085ef6-df6d-43b4-ba72-0b2edc4686a0"},"vehicle_type_id":"4","last_reported":1741857042,"current_range_meters":12400,"station_id":"ce4bgv92rcd13ifvqcr0","pricing_plan_id":"cebpf4jnsgd1na2vs0mg"},{"bike_id":"6179275b-dcde-4ff8-8ce2-7da3157f12c2","system_id":"levelo_inurba_marseille","lat":43.31173,"lon":5.38725,"is_reserved":false,"is_disabled":false,"rental_uris":{"android":"levelo://app?vid=6179275b-dcde-4ff8-8ce2-7da3157f12c2","ios":"levelo://app?vid=6179275b-dcde-4ff8-8ce2-7da3157f12c2"},"vehicle_type_id":"4","last_reported":1741857042,"current_range_meters":12000,"station_id":"ce4bgv12rcd13ifvqcp0","pricing_plan_id":"cebpf4jnsgd1na2vs0mg"},{"bike_id":"1789fff5-1f9f-41e4-876c-54bb6ef81f84","system_id":"levelo_inurba_marseille","lat":43.29487,"lon":5.38665,"is_reserved":false,"is_disabled":false,"rental_uris":{"android":"levelo://app?vid=1789fff5-1f9f-41e4-876c-54bb6ef81f84","ios":"levelo://app?vid=1789fff5-1f9f-41e4-876c-54bb6ef81f84"},"vehicle_type_id":"4","last_reported":1741857042,"current_range_meters":12400,"station_id":"","pricing_plan_id":"cebpf4jnsgd1na2vs0mg"},{"bike_id":"79986910-449a-4bc2-8bc4-559210853861","system_id":"levelo_inurba_marseille","lat":43.2512,"lon":5.40317,"is_reserved":false,"is_disabled":false,"rental_uris":{"android":"levelo://app?vid=79986910-449a-4bc2-8bc4-559210853861","ios":"levelo://app?vid=79986910-449a-4bc2-8bc4-559210853861"},"vehicle_type_id":"4","last_reported":1741857042,"current_range_meters":12400,"station_id":"ce4bhih2rcd13ifvqfs0","pricing_plan_id":"cebpf4jnsgd1na2vs0mg"},{"bike_id":"e403288d-b468-4ea8-b33d-644efb4c82c2","system_id":"levelo_inurba_marseille","lat":43.27835,"lon":5.40729,"is_reserved":false,"is_disabled":false,"rental_uris":{"android":"levelo://app?vid=e403288d-b468-4ea8-b33d-644efb4c82c2","ios":"levelo://app?vid=e403288d-b468-4ea8-b33d-644efb4c82c2"},"vehicle_type_id":"4","last_reported":1741857042,"current_range_meters":12800,"station_id":"ce4bhnh2rcd13ifvqgtg","pricing_plan_id":"cebpf4jnsgd1na2vs0mg"},{"bike_id":"478c6b7e-c9f5-4336-b301-c63c8b41ef49","system_id":"levelo_inurba_marseille","lat":43.31153,"lon":5.40207,"is_reserved":false,"is_disabled":false,"rental_uris":{"android":"levelo://app?vid=478c6b7e-c9f5-4336-b301-c63c8b41ef49","ios":"levelo://app?vid=478c6b7e-c9f5-4336-b301-c63c8b41ef49"},"vehicle_type_id":"4","last_reported":1741857042,"current_range_meters":12800,"station_id":"","pricing_plan_id":"cebpf4jnsgd1na2vs0mg"},{"bike_id":"cecedfc4-0296-4a79-b649-589328e39bd3","system_id":"levelo_inurba_marseille","lat":43.24163,"lon":5.39746,"is_reserved":false,"is_disabled":false,"rental_uris":{"android":"levelo://app?vid=cecedfc4-0296-4a79-b649-589328e39bd3","ios":"levelo://app?vid=cecedfc4-0296-4a79-b649-589328e39bd3"},"vehicle_type_id":"4","last_reported":1741857042,"current_range_meters":12800,"station_id":"ce4bhn12rcd13ifvqgpg","pricing_plan_id":"cebpf4jnsgd1na2vs0mg"},{"bike_id":"b82ce96a-e071-4177-80d3-afcff4e82b19","system_id":"levelo_inurba_marseille","lat":43.25911,"lon":5.40897,"is_reserved":false,"is_disabled":false,"rental_uris":{"android":"levelo://app?vid=b82ce96a-e071-4177-80d3-afcff4e82b19","ios":"levelo://app?vid=b82ce96a-e071-4177-80d3-afcff4e82b19"},"vehicle_type_id":"4","last_reported":1741857042,"current_range_meters":13600,"station_id":"ce4bhm92rcd13ifvqglg","pricing_plan_id":"cebpf4jnsgd1na2vs0mg"},{"bike_id":"6e024c7a-6dc1-4e37-b5df-f5e1ab85e55b","system_id":"levelo_inurba_marseille","lat":43.29251,"lon":5.38422,"is_reserved":false,"is_disabled":false,"rental_uris":{"android":"levelo://app?vid=6e024c7a-6dc1-4e37-b5df-f5e1ab85e55b","ios":"levelo://app?vid=6e024c7a-6dc1-4e37-b5df-f5e1ab85e55b"},"vehicle_type_id":"4","last_reported":1741857042,"current_range_meters":13600,"station_id":"ce4bh692rcd13ifvqea0","pricing_plan_id":"cebpf4jnsgd1na2vs0mg"},{"bike_id":"5dd9c21c-8540-4daa-994f-2f97c4cf383d","system_id":"levelo_inurba_marseille","lat":43.27496,"lon":5.42455,"is_reserved":false,"is_disabled":false,"rental_uris":{"android":"levelo://app?vid=5dd9c21c-8540-4daa-994f-2f97c4cf383d","ios":"levelo://app?vid=5dd9c21c-8540-4daa-994f-2f97c4cf383d"},"vehicle_type_id":"4","last_reported":1741857042,"current_range_meters":13600,"station_id":"ce4bhn92rcd13ifvqgrg","pricing_plan_id":"cebpf4jnsgd1na2vs0mg"},{"bike_id":"137f4a90-ab71-49d3-80a4-5009ae8dd792","system_id":"levelo_inurba_marseille","lat":43.30134,"lon":5.37429,"is_reserved":false,"is_disabled":false,"rental_uris":{"android":"levelo://app?vid=137f4a90-ab71-49d3-80a4-5009ae8dd792","ios":"levelo://app?vid=137f4a90-ab71-49d3-80a4-5009ae8dd792"},"vehicle_type_id":"4","last_reported":1741857042,"current_range_meters":13600,"station_id":"ce4bgs92rcd13ifvqcc0","pricing_plan_id":"cebpf4jnsgd1na2vs0mg"},{"bike_id":"da440fc7-ae9a-4b21-83c8-a8e662a14c16","system_id":"levelo_inurba_marseille","lat":43.25496,"lon":5.3765,"is_reserved":false,"is_disabled":false,"rental_uris":{"android":"levelo://app?vid=da440fc7-ae9a-4b21-83c8-a8e662a14c16","ios":"levelo://app?vid=da440fc7-ae9a-4b21-83c8-a8e662a14c16"},"vehicle_type_id":"4","last_reported":1741857042,"current_range_meters":13600,"station_id":"ce4bhh12rcd13ifvqff0","pricing_plan_id":"cebpf4jnsgd1na2vs0mg"},{"bike_id":"be482ce3-68b8-478b-9edc-8a5b72aa6c1c","system_id":"levelo_inurba_marseille","lat":43.30213,"lon":5.39482,"is_reserved":false,"is_disabled":false,"rental_uris":{"android":"levelo://app?vid=be482ce3-68b8-478b-9edc-8a5b72aa6c1c","ios":"levelo://app?vid=be482ce3-68b8-478b-9edc-8a5b72aa6c1c"},"vehicle_type_id":"4","last_reported":1741857042,"current_range_meters":13600,"station_id":"ce4bh0p2rcd13ifvqd70","pricing_plan_id":"cebpf4jnsgd1na2vs0mg"},{"bike_id":"70a53264-8bbe-452e-8c7e-ee5964d8270a","system_id":"levelo_inurba_marseille","lat":43.240798,"lon":5.377441,"is_reserved":false,"is_disabled":false,"rental_uris":{"android":"levelo://app?vid=70a53264-8bbe-452e-8c7e-ee5964d8270a","ios":"levelo://app?vid=70a53264-8bbe-452e-8c7e-ee5964d8270a"},"vehicle_type_id":"4","last_reported":1741857042,"current_range_meters":13600,"station_id":"ce4bhnp2rcd13ifvqgvg","pricing_plan_id":"cebpf4jnsgd1na2vs0mg"},{"bike_id":"a1b2a85a-4578-4607-a24a-7c4987c5260c","system_id":"levelo_inurba_marseille","lat":43.24077,"lon":5.37751,"is_reserved":false,"is_disabled":false,"rental_uris":{"android":"levelo://app?vid=a1b2a85a-4578-4607-a24a-7c4987c5260c","ios":"levelo://app?vid=a1b2a85a-4578-4607-a24a-7c4987c5260c"},"vehicle_type_id":"4","last_reported":1741857042,"current_range_meters":13600,"station_id":"ce4bhnp2rcd13ifvqgvg","pricing_plan_id":"cebpf4jnsgd1na2vs0mg"},{"bike_id":"d499aa7d-37fe-4efe-8d86-7fc011ad17ad","system_id":"levelo_inurba_marseille","lat":43.2304,"lon":5.35496,"is_reserved":false,"is_disabled":false,"rental_uris":{"android":"levelo://app?vid=d499aa7d-37fe-4efe-8d86-7fc011ad17ad","ios":"levelo://app?vid=d499aa7d-37fe-4efe-8d86-7fc011ad17ad"},"vehicle_type_id":"4","last_reported":1741857042,"current_range_meters":13600,"station_id":"cpo3342slgdg3j2ifvpg","pricing_plan_id":"cebpf4jnsgd1na2vs0mg"},{"bike_id":"909e037c-5e8b-42ea-b90c-fd33ecc7d0b5","system_id":"levelo_inurba_marseille","lat":43.28315,"lon":5.38622,"is_reserved":false,"is_disabled":false,"rental_uris":{"android":"levelo://app?vid=909e037c-5e8b-42ea-b90c-fd33ecc7d0b5","ios":"levelo://app?vid=909e037c-5e8b-42ea-b90c-fd33ecc7d0b5"},"vehicle_type_id":"4","last_reported":1741857042,"current_range_meters":13600,"station_id":"ce4bht12rcd13ifvqi60","pricing_plan_id":"cebpf4jnsgd1na2vs0mg"},{"bike_id":"e9adcf98-e581-4bd0-b43a-a27f79afb3af","system_id":"levelo_inurba_marseille","lat":43.31719,"lon":5.37768,"is_reserved":false,"is_disabled":false,"rental_uris":{"android":"levelo://app?vid=e9adcf98-e581-4bd0-b43a-a27f79afb3af","ios":"levelo://app?vid=e9adcf98-e581-4bd0-b43a-a27f79afb3af"},"vehicle_type_id":"4","last_reported":1741857042,"current_range_meters":14000,"station_id":"ce4bgth2rcd13ifvqch0","pricing_plan_id":"cebpf4jnsgd1na2vs0mg"},{"bike_id":"586c2964-3296-4342-9df0-54c3b80ed8f5","system_id":"levelo_inurba_marseille","lat":43.27063,"lon":5.42272,"is_reserved":false,"is_disabled":false,"rental_uris":{"android":"levelo://app?vid=586c2964-3296-4342-9df0-54c3b80ed8f5","ios":"levelo://app?vid=586c2964-3296-4342-9df0-54c3b80ed8f5"},"vehicle_type_id":"4","last_reported":1741857042,"current_range_meters":14000,"station_id":"ce4bhk92rcd13ifvqgb0","pricing_plan_id":"cebpf4jnsgd1na2vs0mg"},{"bike_id":"7310843e-a1ca-4e8e-8341-0a49e9bf09ea","system_id":"levelo_inurba_marseille","lat":43.29022,"lon":5.39996,"is_reserved":false,"is_disabled":false,"rental_uris":{"android":"levelo://app?vid=7310843e-a1ca-4e8e-8341-0a49e9bf09ea","ios":"levelo://app?vid=7310843e-a1ca-4e8e-8341-0a49e9bf09ea"},"vehicle_type_id":"4","last_reported":1741857042,"current_range_meters":14000,"station_id":"ce4bh392rcd13ifvqdm0","pricing_plan_id":"cebpf4jnsgd1na2vs0mg"},{"bike_id":"77335d10-3d27-49f6-a753-37a97a64e4c9","system_id":"levelo_inurba_marseille","lat":43.30886,"lon":5.37198,"is_reserved":false,"is_disabled":false,"rental_uris":{"android":"levelo://app?vid=77335d10-3d27-49f6-a753-37a97a64e4c9","ios":"levelo://app?vid=77335d10-3d27-49f6-a753-37a97a64e4c9"},"vehicle_type_id":"4","last_reported":1741857042,"current_range_meters":14000,"station_id":"ce4bguh2rcd13ifvqckg","pricing_plan_id":"cebpf4jnsgd1na2vs0mg"},{"bike_id":"3f8a8689-820e-4b3d-8a10-fb027499a083","system_id":"levelo_inurba_marseille","lat":43.28359,"lon":5.38104,"is_reserved":false,"is_disabled":false,"rental_uris":{"android":"levelo://app?vid=3f8a8689-820e-4b3d-8a10-fb027499a083","ios":"levelo://app?vid=3f8a8689-820e-4b3d-8a10-fb027499a083"},"vehicle_type_id":"4","last_reported":1741857042,"current_range_meters":13600,"station_id":"ce4bh412rcd13ifvqdr0","pricing_plan_id":"cebpf4jnsgd1na2vs0mg"},{"bike_id":"1c4c8cdb-6ff0-4f0a-a0dd-f179b888caaa","system_id":"levelo_inurba_marseille","lat":43.23152,"lon":5.43722,"is_reserved":false,"is_disabled":false,"rental_uris":{"android":"levelo://app?vid=1c4c8cdb-6ff0-4f0a-a0dd-f179b888caaa","ios":"levelo://app?vid=1c4c8cdb-6ff0-4f0a-a0dd-f179b888caaa"},"vehicle_type_id":"4","last_reported":1741857042,"current_range_meters":14000,"station_id":"ce4bhmp2rcd13ifvqgog","pricing_plan_id":"cebpf4jnsgd1na2vs0mg"},{"bike_id":"e11eeda0-4f03-4bbf-8c00-3175e33e69c3","system_id":"levelo_inurba_marseille","lat":43.30952,"lon":5.39051,"is_reserved":false,"is_disabled":false,"rental_uris":{"android":"levelo://app?vid=e11eeda0-4f03-4bbf-8c00-3175e33e69c3","ios":"levelo://app?vid=e11eeda0-4f03-4bbf-8c00-3175e33e69c3"},"vehicle_type_id":"4","last_reported":1741857042,"current_range_meters":14000,"station_id":"ce4bgup2rcd13ifvqco0","pricing_plan_id":"cebpf4jnsgd1na2vs0mg"},{"bike_id":"0d12cac5-ac93-4e98-ab85-ebb154e602cc","system_id":"levelo_inurba_marseille","lat":43.24976,"lon":5.38925,"is_reserved":false,"is_disabled":false,"rental_uris":{"android":"levelo://app?vid=0d12cac5-ac93-4e98-ab85-ebb154e602cc","ios":"levelo://app?vid=0d12cac5-ac93-4e98-ab85-ebb154e602cc"},"vehicle_type_id":"4","last_reported":1741857042,"current_range_meters":14000,"station_id":"ce4bhgp2rcd13ifvqfd0","pricing_plan_id":"cebpf4jnsgd1na2vs0mg"},{"bike_id":"44589c34-8c32-4ea0-a7e2-cc6ddbabde86","system_id":"levelo_inurba_marseille","lat":43.298543,"lon":5.362897,"is_reserved":false,"is_disabled":false,"rental_uris":{"android":"levelo://app?vid=44589c34-8c32-4ea0-a7e2-cc6ddbabde86","ios":"levelo://app?vid=44589c34-8c32-4ea0-a7e2-cc6ddbabde86"},"vehicle_type_id":"4","last_reported":1741857042,"current_range_meters":14000,"station_id":"ce4bgpp2rcd13ifvqc3g","pricing_plan_id":"cebpf4jnsgd1na2vs0mg"},{"bike_id":"7d2050ec-b295-4c87-99df-cd9cba63916d","system_id":"levelo_inurba_marseille","lat":43.25861,"lon":5.39905,"is_reserved":false,"is_disabled":false,"rental_uris":{"android":"levelo://app?vid=7d2050ec-b295-4c87-99df-cd9cba63916d","ios":"levelo://app?vid=7d2050ec-b295-4c87-99df-cd9cba63916d"},"vehicle_type_id":"4","last_reported":1741857042,"current_range_meters":14000,"station_id":"ce4bhl92rcd13ifvqghg","pricing_plan_id":"cebpf4jnsgd1na2vs0mg"},{"bike_id":"e3565dcf-4d34-49d7-919b-1234920ea466","system_id":"levelo_inurba_marseille","lat":43.33746,"lon":5.3745,"is_reserved":false,"is_disabled":false,"rental_uris":{"android":"levelo://app?vid=e3565dcf-4d34-49d7-919b-1234920ea466","ios":"levelo://app?vid=e3565dcf-4d34-49d7-919b-1234920ea466"},"vehicle_type_id":"4","last_reported":1741857042,"current_range_meters":14000,"station_id":"","pricing_plan_id":"cebpf4jnsgd1na2vs0mg"},{"bike_id":"1b153c82-9e8e-44c3-8232-893184321d45","system_id":"levelo_inurba_marseille","lat":43.29526,"lon":5.38541,"is_reserved":false,"is_disabled":false,"rental_uris":{"android":"levelo://app?vid=1b153c82-9e8e-44c3-8232-893184321d45","ios":"levelo://app?vid=1b153c82-9e8e-44c3-8232-893184321d45"},"vehicle_type_id":"4","last_reported":1741857042,"current_range_meters":14400,"station_id":"ce4bgih2rcd13ifvqba0","pricing_plan_id":"cebpf4jnsgd1na2vs0mg"},{"bike_id":"e7d9823d-900a-4c17-b02f-a50236e6a928","system_id":"levelo_inurba_marseille","lat":43.24084,"lon":5.37758,"is_reserved":false,"is_disabled":false,"rental_uris":{"android":"levelo://app?vid=e7d9823d-900a-4c17-b02f-a50236e6a928","ios":"levelo://app?vid=e7d9823d-900a-4c17-b02f-a50236e6a928"},"vehicle_type_id":"4","last_reported":1741857042,"current_range_meters":14400,"station_id":"ce4bhnp2rcd13ifvqgvg","pricing_plan_id":"cebpf4jnsgd1na2vs0mg"},{"bike_id":"25b758c5-73c8-42c3-86d3-dad2d21fa96d","system_id":"levelo_inurba_marseille","lat":43.30903,"lon":5.36853,"is_reserved":false,"is_disabled":false,"rental_uris":{"android":"levelo://app?vid=25b758c5-73c8-42c3-86d3-dad2d21fa96d","ios":"levelo://app?vid=25b758c5-73c8-42c3-86d3-dad2d21fa96d"},"vehicle_type_id":"4","last_reported":1741857042,"current_range_meters":14800,"station_id":"ce4bgn92rcd13ifvqbvg","pricing_plan_id":"cebpf4jnsgd1na2vs0mg"},{"bike_id":"ef3795b7-4cf8-45c2-aad4-bdec14eb51a9","system_id":"levelo_inurba_marseille","lat":43.30556,"lon":5.366987,"is_reserved":false,"is_disabled":false,"rental_uris":{"android":"levelo://app?vid=ef3795b7-4cf8-45c2-aad4-bdec14eb51a9","ios":"levelo://app?vid=ef3795b7-4cf8-45c2-aad4-bdec14eb51a9"},"vehicle_type_id":"4","last_reported":1741857042,"current_range_meters":14800,"station_id":"ce4bgrp2rcd13ifvqc9g","pricing_plan_id":"cebpf4jnsgd1na2vs0mg"},{"bike_id":"265bf9cc-62d8-4c33-be43-8b71b0f99584","system_id":"levelo_inurba_marseille","lat":43.28974,"lon":5.37839,"is_reserved":false,"is_disabled":false,"rental_uris":{"android":"levelo://app?vid=265bf9cc-62d8-4c33-be43-8b71b0f99584","ios":"levelo://app?vid=265bf9cc-62d8-4c33-be43-8b71b0f99584"},"vehicle_type_id":"4","last_reported":1741857042,"current_range_meters":14800,"station_id":"ce4bh9p2rcd13ifvqed0","pricing_plan_id":"cebpf4jnsgd1na2vs0mg"},{"bike_id":"8f81d07b-74f3-4217-9d5b-4bfebf018a20","system_id":"levelo_inurba_marseille","lat":43.24067,"lon":5.37732,"is_reserved":false,"is_disabled":false,"rental_uris":{"android":"levelo://app?vid=8f81d07b-74f3-4217-9d5b-4bfebf018a20","ios":"levelo://app?vid=8f81d07b-74f3-4217-9d5b-4bfebf018a20"},"vehicle_type_id":"4","last_reported":1741857042,"current_range_meters":14800,"station_id":"ce4bhnp2rcd13ifvqgvg","pricing_plan_id":"cebpf4jnsgd1na2vs0mg"},{"bike_id":"bd619a36-f1d3-4aef-bc4e-de195403abb2","system_id":"levelo_inurba_marseille","lat":43.29964,"lon":5.41327,"is_reserved":false,"is_disabled":false,"rental_uris":{"android":"levelo://app?vid=bd619a36-f1d3-4aef-bc4e-de195403abb2","ios":"levelo://app?vid=bd619a36-f1d3-4aef-bc4e-de195403abb2"},"vehicle_type_id":"4","last_reported":1741857042,"current_range_meters":14800,"station_id":"ce4bhp12rcd13ifvqh9g","pricing_plan_id":"cebpf4jnsgd1na2vs0mg"},{"bike_id":"baff65ea-d9ea-40a6-bc8d-69417959834f","system_id":"levelo_inurba_marseille","lat":43.290304,"lon":5.399682,"is_reserved":false,"is_disabled":false,"rental_uris":{"android":"levelo://app?vid=baff65ea-d9ea-40a6-bc8d-69417959834f","ios":"levelo://app?vid=baff65ea-d9ea-40a6-bc8d-69417959834f"},"vehicle_type_id":"4","last_reported":1741857042,"current_range_meters":14800,"station_id":"ce4bh392rcd13ifvqdm0","pricing_plan_id":"cebpf4jnsgd1na2vs0mg"},{"bike_id":"3c996050-715a-4f70-a22d-2cd340a7e47a","system_id":"levelo_inurba_marseille","lat":43.30956,"lon":5.39033,"is_reserved":false,"is_disabled":false,"rental_uris":{"android":"levelo://app?vid=3c996050-715a-4f70-a22d-2cd340a7e47a","ios":"levelo://app?vid=3c996050-715a-4f70-a22d-2cd340a7e47a"},"vehicle_type_id":"4","last_reported":1741857042,"current_range_meters":14800,"station_id":"ce4bgup2rcd13ifvqco0","pricing_plan_id":"cebpf4jnsgd1na2vs0mg"},{"bike_id":"f3270881-6269-49ee-ab34-f91d841ff0a7","system_id":"levelo_inurba_marseille","lat":43.24864,"lon":5.406555,"is_reserved":false,"is_disabled":false,"rental_uris":{"android":"levelo://app?vid=f3270881-6269-49ee-ab34-f91d841ff0a7","ios":"levelo://app?vid=f3270881-6269-49ee-ab34-f91d841ff0a7"},