{"last_updated":1724703027,"ttl":30,"version":"2.2","data":{"bikes":[{"bike_id":"4fa22c30-74b8-4a41-8957-625b24ff6f6c","system_id":"levelo_inurba_marseille","lat":43.312239,"lon":5.368562,"is_reserved":false,"is_disabled":false,"rental_uris":{"android":"levelo://app?vid=4fa22c30-74b8-4a41-8957-625b24ff6f6c","ios":"levelo://app?vid=4fa22c30-74b8-4a41-8957-625b24ff6f6c"},"vehicle_type_id":"4","last_reported":1724703027,"current_range_meters":24000,"station_id":"ce4bgl92rcd13ifvqbq0","pricing_plan_id":"cebpf4jnsgd1na2vs0mg"},{"bike_id":"9c2edc37-7ad9-4eaf-80fa-80fa02fa86c3","system_id":"levelo_inurba_marseille","lat":43.309039,"lon":5.371797,"is_reserved":false,"is_disabled":false,"rental_uris":{"android":"levelo://app?vid=9c2edc37-7ad9-4eaf-80fa-80fa02fa86c3","ios":"levelo://app?vid=9c2edc37-7ad9-4eaf-80fa-80fa02fa86c3"},"vehicle_type_id":"4","last_reported":1724703027,"current_range_meters":8000,"station_id":"ce4bguh2rcd13ifvqckg","pricing_plan_id":"cebpf4jnsgd1na2vs0mg"},{"bike_id":"a98c3525-5a1a-4e1f-a2a3-4dd3bea00407","system_id":"levelo_inurba_marseille","lat":43.309039,"lon":5.371797,"is_reserved":false,"is_disabled":false,"rental_uris":{"android":"levelo://app?vid=a98c3525-5a1a-4e1f-a2a3-4dd3bea00407","ios":"levelo://app?vid=a98c3525-5a1a-4e1f-a2a3-4dd3bea00407"},"vehicle_type_id":"4","last_reported":1724703027,"current_range_meters":17600,"station_id":"ce4bguh2rcd13ifvqckg","pricing_plan_id":"cebpf4jnsgd1na2vs0mg"},{"bike_id":"81869118-4d3a-41bb-9360-3d2ad3372472","system_id":"levelo_inurba_marseille","lat":43.30883,"lon":5.37201,"is_reserved":false,"is_disabled":false,"rental_uris":{"android":"levelo://app?vid=81869118-4d3a-41bb-9360-3d2ad3372472","ios":"levelo://app?vid=81869118-4d3a-41bb-9360-3d2ad3372472"},"vehicle_type_id":"4","last_reported":1724703027,"current_range_meters":0,"station_id":"ce4bguh2rcd13ifvqckg","pricing_plan_id":"cebpf4jnsgd1na2vs0mg"},{"bike_id":"49f641fc-c981-4600-8f81-6e13a4879b13","system_id":"levelo_inurba_marseille","lat":43.309039,"lon":5.371797,"is_reserved":false,"is_disabled":false,"rental_uris":{"android":"levelo://app?vid=49f641fc-c981-4600-8f81-6e13a4879b13","ios":"levelo://app?vid=49f641fc-c981-4600-8f81-6e13a4879b13"},"vehicle_type_id":"4","last_reported":1724703027,"current_range_meters":16400,"station_id":"ce4bguh2rcd13ifvqckg","pricing_plan_id":"cebpf4jnsgd1na2vs0mg"},{"bike_id":"2a490b4b-75a2-45d6-baea-9503a2f09398","system_id":"levelo_inurba_marseille","lat":43.317557,"lon":5.390173,"is_reserved":false,"is_disabled":false,"rental_uris":{"android":"levelo://app?vid=2a490b4b-75a2-45d6-baea-9503a2f09398","ios":"levelo://app?vid=2a490b4b-75a2-45d6-baea-9503a2f09398"},"vehicle_type_id":"4","last_reported":1724703027,"current_range_meters":16400,"station_id":"ce4bhqp2rcd13ifvqhng","pricing_plan_id":"cebpf4jnsgd1na2vs0mg"},{"bike_id":"bb493553-6ee4-40be-8562-5503eca70d20","system_id":"levelo_inurba_marseille","lat":43.30905,"lon":5.37497,"is_reserved":false,"is_disabled":false,"rental_uris":{"android":"levelo://app?vid=bb493553-6ee4-40be-8562-5503eca70d20","ios":"levelo://app?vid=bb493553-6ee4-40be-8562-5503eca70d20"},"vehicle_type_id":"4","last_reported":1724703027,"current_range_meters":2800,"station_id":"","pricing_plan_id":"cebpf4jnsgd1na2vs0mg"},{"bike_id":"7bf6c7dc-fc4f-4aee-8827-25931b78d565","system_id":"levelo_inurba_marseille","lat":43.30537,"lon":5.367345,"is_reserved":false,"is_disabled":false,"rental_uris":{"android":"levelo://app?vid=7bf6c7dc-fc4f-4aee-8827-25931b78d565","ios":"levelo://app?vid=7bf6c7dc-fc4f-4aee-8827-25931b78d565"},"vehicle_type_id":"4","last_reported":1724703027,"current_range_meters":18800,"station_id":"ce4bgrp2rcd13ifvqc9g","pricing_plan_id":"cebpf4jnsgd1na2vs0mg"},{"bike_id":"af230a2a-fe92-42ec-b97f-f241be11b07b","system_id":"levelo_inurba_marseille","lat":43.30537,"lon":5.367345,"is_reserved":false,"is_disabled":false,"rental_uris":{"android":"levelo://app?vid=af230a2a-fe92-42ec-b97f-f241be11b07b","ios":"levelo://app?vid=af230a2a-fe92-42ec-b97f-f241be11b07b"},"vehicle_type_id":"4","last_reported":1724703027,"current_range_meters":16800,"station_id":"ce4bgrp2rcd13ifvqc9g","pricing_plan_id":"cebpf4jnsgd1na2vs0mg"},{"bike_id":"b440f5f8-990c-4127-888e-ba6ab64dcc17","system_id":"levelo_inurba_marseille","lat":43.305714,"lon":5.365633,"is_reserved":false,"is_disabled":false,"rental_uris":{"android":"levelo://app?vid=b440f5f8-990c-4127-888e-ba6ab64dcc17","ios":"levelo://app?vid=b440f5f8-990c-4127-888e-ba6ab64dcc17"},"vehicle_type_id":"4","last_reported":1724703027,"current_range_meters":8000,"station_id":"ce4bgs12rcd13ifvqcag","pricing_plan_id":"cebpf4jnsgd1na2vs0mg"},{"bike_id":"e92cbc87-0ee8-473d-95bb-286f226f778a","system_id":"levelo_inurba_marseille","lat":43.30531,"lon":5.36706,"is_reserved":false,"is_disabled":false,"rental_uris":{"android":"levelo://app?vid=e92cbc87-0ee8-473d-95bb-286f226f778a","ios":"levelo://app?vid=e92cbc87-0ee8-473d-95bb-286f226f778a"},"vehicle_type_id":"4","last_reported":1724703027,"current_range_meters":0,"station_id":"ce4bgrp2rcd13ifvqc9g","pricing_plan_id":"cebpf4jnsgd1na2vs0mg"},{"bike_id":"37b2e51f-acd5-4ea2-b265-13249478cc8c","system_id":"levelo_inurba_marseille","lat":43.305368,"lon":5.367343,"is_reserved":false,"is_disabled":false,"rental_uris":{"android":"levelo://app?vid=37b2e51f-acd5-4ea2-b265-13249478cc8c","ios":"levelo://app?vid=37b2e51f-acd5-4ea2-b265-13249478cc8c"},"vehicle_type_id":"4","last_reported":1724703027,"current_range_meters":0,"station_id":"ce4bgrp2rcd13ifvqc9g","pricing_plan_id":"cebpf4jnsgd1na2vs0mg"},{"bike_id":"f105bbce-67f1-4a1c-b8d2-94998f7250da","system_id":"levelo_inurba_marseille","lat":43.305706,"lon":5.365654,"is_reserved":false,"is_disabled":false,"rental_uris":{"android":"levelo://app?vid=f105bbce-67f1-4a1c-b8d2-94998f7250da","ios":"levelo://app?vid=f105bbce-67f1-4a1c-b8d2-94998f7250da"},"vehicle_type_id":"4","last_reported":1724703027,"current_range_meters":2800,"station_id":"ce4bgs12rcd13ifvqcag","pricing_plan_id":"cebpf4jnsgd1na2vs0mg"},{"bike_id":"5d917b20-a5de-48e5-b6c7-e8cf8a4083ec","system_id":"levelo_inurba_marseille","lat":43.305989,"lon":5.37225,"is_reserved":false,"is_disabled":false,"rental_uris":{"android":"levelo://app?vid=5d917b20-a5de-48e5-b6c7-e8cf8a4083ec","ios":"levelo://app?vid=5d917b20-a5de-48e5-b6c7-e8cf8a4083ec"},"vehicle_type_id":"4","last_reported":1724703027,"current_range_meters":30400,"station_id":"ce4bgqh2rcd13ifvqc4g","pricing_plan_id":"cebpf4jnsgd1na2vs0mg"},{"bike_id":"bbba2cff-0798-47f4-b796-e75f307165bc","system_id":"levelo_inurba_marseille","lat":43.3059,"lon":5.37217,"is_reserved":false,"is_disabled":false,"rental_uris":{"android":"levelo://app?vid=bbba2cff-0798-47f4-b796-e75f307165bc","ios":"levelo://app?vid=bbba2cff-0798-47f4-b796-e75f307165bc"},"vehicle_type_id":"4","last_reported":1724703027,"current_range_meters":7200,"station_id":"ce4bgqh2rcd13ifvqc4g","pricing_plan_id":"cebpf4jnsgd1na2vs0mg"},{"bike_id":"110c09e7-c89d-4087-98f7-4a548bb9d801","system_id":"levelo_inurba_marseille","lat":43.30601,"lon":5.37246,"is_reserved":false,"is_disabled":false,"rental_uris":{"android":"levelo://app?vid=110c09e7-c89d-4087-98f7-4a548bb9d801","ios":"levelo://app?vid=110c09e7-c89d-4087-98f7-4a548bb9d801"},"vehicle_type_id":"4","last_reported":1724703027,"current_range_meters":26400,"station_id":"ce4bgqh2rcd13ifvqc4g","pricing_plan_id":"cebpf4jnsgd1na2vs0mg"},{"bike_id":"d63a232b-ad34-40f7-9ba8-87a2520d894b","system_id":"levelo_inurba_marseille","lat":43.30592,"lon":5.37236,"is_reserved":false,"is_disabled":false,"rental_uris":{"android":"levelo://app?vid=d63a232b-ad34-40f7-9ba8-87a2520d894b","ios":"levelo://app?vid=d63a232b-ad34-40f7-9ba8-87a2520d894b"},"vehicle_type_id":"4","last_reported":1724703027,"current_range_meters":14400,"station_id":"ce4bgqh2rcd13ifvqc4g","pricing_plan_id":"cebpf4jnsgd1na2vs0mg"},{"bike_id":"f57b9e26-f802-4869-9b8f-7243e30f2bb3","system_id":"levelo_inurba_marseille","lat":43.305989,"lon":5.37225,"is_reserved":false,"is_disabled":false,"rental_uris":{"android":"levelo://app?vid=f57b9e26-f802-4869-9b8f-7243e30f2bb3","ios":"levelo://app?vid=f57b9e26-f802-4869-9b8f-7243e30f2bb3"},"vehicle_type_id":"4","last_reported":1724703027,"current_range_meters":10800,"station_id":"ce4bgqh2rcd13ifvqc4g","pricing_plan_id":"cebpf4jnsgd1na2vs0mg"},{"bike_id":"5f98d60c-fba1-4752-a0ac-a5121cba2496","system_id":"levelo_inurba_marseille","lat":43.31114,"lon":5.37765,"is_reserved":false,"is_disabled":false,"rental_uris":{"android":"levelo://app?vid=5f98d60c-fba1-4752-a0ac-a5121cba2496","ios":"levelo://app?vid=5f98d60c-fba1-4752-a0ac-a5121cba2496"},"vehicle_type_id":"4","last_reported":1724703027,"current_range_meters":0,"station_id":"ce4bgt92rcd13ifvqcg0","pricing_plan_id":"cebpf4jnsgd1na2vs0mg"},{"bike_id":"6d5f31fb-f9e6-47f9-b79a-e400a03d0667","system_id":"levelo_inurba_marseille","lat":43.311131,"lon":5.377651,"is_reserved":false,"is_disabled":false,"rental_uris":{"android":"levelo://app?vid=6d5f31fb-f9e6-47f9-b79a-e400a03d0667","ios":"levelo://app?vid=6d5f31fb-f9e6-47f9-b79a-e400a03d0667"},"vehicle_type_id":"4","last_reported":1724703027,"current_range_meters":0,"station_id":"ce4bgt92rcd13ifvqcg0","pricing_plan_id":"cebpf4jnsgd1na2vs0mg"},{"bike_id":"8b413e63-bc97-474b-a7d4-039c29e52aa2","system_id":"levelo_inurba_marseille","lat":43.311131,"lon":5.377651,"is_reserved":false,"is_disabled":false,"rental_uris":{"android":"levelo://app?vid=8b413e63-bc97-474b-a7d4-039c29e52aa2","ios":"levelo://app?vid=8b413e63-bc97-474b-a7d4-039c29e52aa2"},"vehicle_type_id":"4","last_reported":1724703027,"current_range_meters":17200,"station_id":"ce4bgt92rcd13ifvqcg0","pricing_plan_id":"cebpf4jnsgd1na2vs0mg"},{"bike_id":"f3a34e05-144d-4829-824d-10ee952fde50","system_id":"levelo_inurba_marseille","lat":43.311118,"lon":5.3778,"is_reserved":false,"is_disabled":false,"rental_uris":{"android":"levelo://app?vid=f3a34e05-144d-4829-824d-10ee952fde50","ios":"levelo://app?vid=f3a34e05-144d-4829-824d-10ee952fde50"},"vehicle_type_id":"4","last_reported":1724703027,"current_range_meters":0,"station_id":"ce4bgt92rcd13ifvqcg0","pricing_plan_id":"cebpf4jnsgd1na2vs0mg"},{"bike_id":"f6a4518b-c7d0-4709-b662-0abc996a2339","system_id":"levelo_inurba_marseille","lat":43.307883,"lon":5.376583,"is_reserved":false,"is_disabled":false,"rental_uris":{"android":"levelo://app?vid=f6a4518b-c7d0-4709-b662-0abc996a2339","ios":"levelo://app?vid=f6a4518b-c7d0-4709-b662-0abc996a2339"},"vehicle_type_id":"4","last_reported":1724703027,"current_range_meters":0,"station_id":"ce4bgv92rcd13ifvqcq0","pricing_plan_id":"cebpf4jnsgd1na2vs0mg"},{"bike_id":"802ea2d5-186b-4ad2-8e46-d85b7e7d4965","system_id":"levelo_inurba_marseille","lat":43.307945,"lon":5.376487,"is_reserved":false,"is_disabled":false,"rental_uris":{"android":"levelo://app?vid=802ea2d5-186b-4ad2-8e46-d85b7e7d4965","ios":"levelo://app?vid=802ea2d5-186b-4ad2-8e46-d85b7e7d4965"},"vehicle_type_id":"4","last_reported":1724703027,"current_range_meters":6800,"station_id":"ce4bgv92rcd13ifvqcq0","pricing_plan_id":"cebpf4jnsgd1na2vs0mg"},{"bike_id":"af1ea57c-f4ca-4ae4-bae8-ce6091bc3a99","system_id":"levelo_inurba_marseille","lat":43.317075,"lon":5.377367,"is_reserved":false,"is_disabled":false,"rental_uris":{"android":"levelo://app?vid=af1ea57c-f4ca-4ae4-bae8-ce6091bc3a99","ios":"levelo://app?vid=af1ea57c-f4ca-4ae4-bae8-ce6091bc3a99"},"vehicle_type_id":"4","last_reported":1724703027,"current_range_meters":28800,"station_id":"ce4bgth2rcd13ifvqch0","pricing_plan_id":"cebpf4jnsgd1na2vs0mg"},{"bike_id":"a317ce07-bd13-4a13-ae26-07e690c65a2c","system_id":"levelo_inurba_marseille","lat":43.31181,"lon":5.378847,"is_reserved":false,"is_disabled":false,"rental_uris":{"android":"levelo://app?vid=a317ce07-bd13-4a13-ae26-07e690c65a2c","ios":"levelo://app?vid=a317ce07-bd13-4a13-ae26-07e690c65a2c"},"vehicle_type_id":"4","last_reported":1724703027,"current_range_meters":400,"station_id":"","pricing_plan_id":"cebpf4jnsgd1na2vs0mg"},{"bike_id":"60c3ce07-6192-4c73-9978-79cf6a671293","system_id":"levelo_inurba_marseille","lat":43.3171,"lon":5.37735,"is_reserved":false,"is_disabled":false,"rental_uris":{"android":"levelo://app?vid=60c3ce07-6192-4c73-9978-79cf6a671293","ios":"levelo://app?vid=60c3ce07-6192-4c73-9978-79cf6a671293"},"vehicle_type_id":"4","last_reported":1724703027,"current_range_meters":0,"station_id":"ce4bgth2rcd13ifvqch0","pricing_plan_id":"cebpf4jnsgd1na2vs0mg"},{"bike_id":"96d4f294-416c-4af6-bbec-d417057e7ba3","system_id":"levelo_inurba_marseille","lat":43.317075,"lon":5.377367,"is_reserved":false,"is_disabled":false,"rental_uris":{"android":"levelo://app?vid=96d4f294-416c-4af6-bbec-d417057e7ba3","ios":"levelo://app?vid=96d4f294-416c-4af6-bbec-d417057e7ba3"},"vehicle_type_id":"4","last_reported":1724703027,"current_range_meters":11200,"station_id":"ce4bgth2rcd13ifvqch0","pricing_plan_id":"cebpf4jnsgd1na2vs0mg"},{"bike_id":"06f99f78-cae0-402f-b903-62c86f306b63","system_id":"levelo_inurba_marseille","lat":43.30864,"lon":5.37777,"is_reserved":false,"is_disabled":false,"rental_uris":{"android":"levelo://app?vid=06f99f78-cae0-402f-b903-62c86f306b63","ios":"levelo://app?vid=06f99f78-cae0-402f-b903-62c86f306b63"},"vehicle_type_id":"4","last_reported":1724703027,"current_range_meters":6400,"station_id":"","pricing_plan_id":"cebpf4jnsgd1na2vs0mg"},{"bike_id":"76396786-201d-4f53-9bb5-aab4100bf121","system_id":"levelo_inurba_marseille","lat":43.279742,"lon":5.38744,"is_reserved":false,"is_disabled":false,"rental_uris":{"android":"levelo://app?vid=76396786-201d-4f53-9bb5-aab4100bf121","ios":"levelo://app?vid=76396786-201d-4f53-9bb5-aab4100bf121"},"vehicle_type_id":"4","last_reported":1724703027,"current_range_meters":18400,"station_id":"ce4bhg12rcd13ifvqf80","pricing_plan_id":"cebpf4jnsgd1na2vs0mg"},{"bike_id":"945a77e9-cc19-47bc-a935-f65c5c03ebda","system_id":"levelo_inurba_marseille","lat":43.303046,"lon":5.368981,"is_reserved":false,"is_disabled":false,"rental_uris":{"android":"levelo://app?vid=945a77e9-cc19-47bc-a935-f65c5c03ebda","ios":"levelo://app?vid=945a77e9-cc19-47bc-a935-f65c5c03ebda"},"vehicle_type_id":"4","last_reported":1724703027,"current_range_meters":4800,"station_id":"ce4bgqh2rcd13ifvqc5g","pricing_plan_id":"cebpf4jnsgd1na2vs0mg"},{"bike_id":"526b9db8-e42a-4b66-911b-ed780c5bf586","system_id":"levelo_inurba_marseille","lat":43.315289,"lon":5.380349,"is_reserved":false,"is_disabled":false,"rental_uris":{"android":"levelo://app?vid=526b9db8-e42a-4b66-911b-ed780c5bf586","ios":"levelo://app?vid=526b9db8-e42a-4b66-911b-ed780c5bf586"},"vehicle_type_id":"4","last_reported":1724703027,"current_range_meters":400,"station_id":"ce4bhsp2rcd13ifvqi50","pricing_plan_id":"cebpf4jnsgd1na2vs0mg"},{"bike_id":"1bea7064-d86c-40e8-a428-fcb358c6e3fd","system_id":"levelo_inurba_marseille","lat":43.31022,"lon":5.380667,"is_reserved":false,"is_disabled":false,"rental_uris":{"android":"levelo://app?vid=1bea7064-d86c-40e8-a428-fcb358c6e3fd","ios":"levelo://app?vid=1bea7064-d86c-40e8-a428-fcb358c6e3fd"},"vehicle_type_id":"4","last_reported":1724703027,"current_range_meters":19600,"station_id":"","pricing_plan_id":"cebpf4jnsgd1na2vs0mg"},{"bike_id":"1a8c8c1b-c4e3-496e-a48c-0f59bbf17191","system_id":"levelo_inurba_marseille","lat":43.30194,"lon":5.36629,"is_reserved":false,"is_disabled":false,"rental_uris":{"android":"levelo://app?vid=1a8c8c1b-c4e3-496e-a48c-0f59bbf17191","ios":"levelo://app?vid=1a8c8c1b-c4e3-496e-a48c-0f59bbf17191"},"vehicle_type_id":"4","last_reported":1724703027,"current_range_meters":4000,"station_id":"ce4bgrh2rcd13ifvqc8g","pricing_plan_id":"cebpf4jnsgd1na2vs0mg"},{"bike_id":"00981a4a-d604-4cf3-aadb-c332f303f719","system_id":"levelo_inurba_marseille","lat":43.30187,"lon":5.36612,"is_reserved":false,"is_disabled":false,"rental_uris":{"android":"levelo://app?vid=00981a4a-d604-4cf3-aadb-c332f303f719","ios":"levelo://app?vid=00981a4a-d604-4cf3-aadb-c332f303f719"},"vehicle_type_id":"4","last_reported":1724703027,"current_range_meters":25200,"station_id":"ce4bgrh2rcd13ifvqc8g","pricing_plan_id":"cebpf4jnsgd1na2vs0mg"},{"bike_id":"3912ee9c-ccda-4243-81d3-48c4158a9b7d","system_id":"levelo_inurba_marseille","lat":43.301939,"lon":5.366286,"is_reserved":false,"is_disabled":false,"rental_uris":{"android":"levelo://app?vid=3912ee9c-ccda-4243-81d3-48c4158a9b7d","ios":"levelo://app?vid=3912ee9c-ccda-4243-81d3-48c4158a9b7d"},"vehicle_type_id":"4","last_reported":1724703027,"current_range_meters":11200,"station_id":"ce4bgrh2rcd13ifvqc8g","pricing_plan_id":"cebpf4jnsgd1na2vs0mg"},{"bike_id":"b80d6b80-3058-4958-ba31-dd38303b59d5","system_id":"levelo_inurba_marseille","lat":43.308037,"lon":5.381507,"is_reserved":false,"is_disabled":false,"rental_uris":{"android":"levelo://app?vid=b80d6b80-3058-4958-ba31-dd38303b59d5","ios":"levelo://app?vid=b80d6b80-3058-4958-ba31-dd38303b59d5"},"vehicle_type_id":"4","last_reported":1724703027,"current_range_meters":0,"station_id":"ce4bgt12rcd13ifvqce0","pricing_plan_id":"cebpf4jnsgd1na2vs0mg"},{"bike_id":"c00412ae-9197-420b-a209-1df3a24ece46","system_id":"levelo_inurba_marseille","lat":43.30466,"lon":5.37906,"is_reserved":false,"is_disabled":false,"rental_uris":{"android":"levelo://app?vid=c00412ae-9197-420b-a209-1df3a24ece46","ios":"levelo://app?vid=c00412ae-9197-420b-a209-1df3a24ece46"},"vehicle_type_id":"4","last_reported":1724703027,"current_range_meters":0,"station_id":"ce4bgup2rcd13ifvqcn0","pricing_plan_id":"cebpf4jnsgd1na2vs0mg"},{"bike_id":"75864807-15c6-4147-a770-af630139e6b1","system_id":"levelo_inurba_marseille","lat":43.324771,"lon":5.36557,"is_reserved":false,"is_disabled":false,"rental_uris":{"android":"levelo://app?vid=75864807-15c6-4147-a770-af630139e6b1","ios":"levelo://app?vid=75864807-15c6-4147-a770-af630139e6b1"},"vehicle_type_id":"4","last_reported":1724703027,"current_range_meters":19200,"station_id":"ce4bhs12rcd13ifvqhvg","pricing_plan_id":"cebpf4jnsgd1na2vs0mg"},{"bike_id":"00aaa01b-3e40-4e8a-b9a9-b5e9709c183b","system_id":"levelo_inurba_marseille","lat":43.32476,"lon":5.36568,"is_reserved":false,"is_disabled":false,"rental_uris":{"android":"levelo://app?vid=00aaa01b-3e40-4e8a-b9a9-b5e9709c183b","ios":"levelo://app?vid=00aaa01b-3e40-4e8a-b9a9-b5e9709c183b"},"vehicle_type_id":"4","last_reported":1724703027,"current_range_meters":0,"station_id":"ce4bhs12rcd13ifvqhvg","pricing_plan_id":"cebpf4jnsgd1na2vs0mg"},{"bike_id":"cc1657b1-d0e7-4e5d-a2c0-c296a4eec89d","system_id":"levelo_inurba_marseille","lat":43.324771,"lon":5.36557,"is_reserved":false,"is_disabled":false,"rental_uris":{"android":"levelo://app?vid=cc1657b1-d0e7-4e5d-a2c0-c296a4eec89d","ios":"levelo://app?vid=cc1657b1-d0e7-4e5d-a2c0-c296a4eec89d"},"vehicle_type_id":"4","last_reported":1724703027,"current_range_meters":22800,"station_id":"ce4bhs12rcd13ifvqhvg","pricing_plan_id":"cebpf4jnsgd1na2vs0mg"},{"bike_id":"e1996417-ec59-44f4-b4b6-9f39ce83d9c4","system_id":"levelo_inurba_marseille","lat":43.310804,"lon":5.38359,"is_reserved":false,"is_disabled":false,"rental_uris":{"android":"levelo://app?vid=e1996417-ec59-44f4-b4b6-9f39ce83d9c4","ios":"levelo://app?vid=e1996417-ec59-44f4-b4b6-9f39ce83d9c4"},"vehicle_type_id":"4","last_reported":1724703027,"current_range_meters":4800,"station_id":"ce4bgv92rcd13ifvqcr0","pricing_plan_id":"cebpf4jnsgd1na2vs0mg"},{"bike_id":"2771f6e0-50d9-49cf-8100-8d3d8ac4d5dc","system_id":"levelo_inurba_marseille","lat":43.301429,"lon":5.37413,"is_reserved":false,"is_disabled":false,"rental_uris":{"android":"levelo://app?vid=2771f6e0-50d9-49cf-8100-8d3d8ac4d5dc","ios":"levelo://app?vid=2771f6e0-50d9-49cf-8100-8d3d8ac4d5dc"},"vehicle_type_id":"4","last_reported":1724703027,"current_range_meters":31200,"station_id":"ce4bgs92rcd13ifvqcc0","pricing_plan_id":"cebpf4jnsgd1na2vs0mg"},{"bike_id":"e9b39c04-e7a5-4501-bc86-6fe55b9006b4","system_id":"levelo_inurba_marseille","lat":43.30143,"lon":5.37413,"is_reserved":false,"is_disabled":false,"rental_uris":{"android":"levelo://app?vid=e9b39c04-e7a5-4501-bc86-6fe55b9006b4","ios":"levelo://app?vid=e9b39c04-e7a5-4501-bc86-6fe55b9006b4"},"vehicle_type_id":"4","last_reported":1724703027,"current_range_meters":4000,"station_id":"ce4bgs92rcd13ifvqcc0","pricing_plan_id":"cebpf4jnsgd1na2vs0mg"},{"bike_id":"ff2e2f17-e53a-4360-9800-37c28492171b","system_id":"levelo_inurba_marseille","lat":43.31966,"lon":5.381474,"is_reserved":false,"is_disabled":false,"rental_uris":{"android":"levelo://app?vid=ff2e2f17-e53a-4360-9800-37c28492171b","ios":"levelo://app?vid=ff2e2f17-e53a-4360-9800-37c28492171b"},"vehicle_type_id":"4","last_reported":1724703027,"current_range_meters":5600,"station_id":"ce4bhr12rcd13ifvqhpg","pricing_plan_id":"cebpf4jnsgd1na2vs0mg"},{"bike_id":"117cda6a-1261-45f1-aa8c-f5aabee24375","system_id":"levelo_inurba_marseille","lat":43.3253,"lon":5.36408,"is_reserved":false,"is_disabled":false,"rental_uris":{"android":"levelo://app?vid=117cda6a-1261-45f1-aa8c-f5aabee24375","ios":"levelo://app?vid=117cda6a-1261-45f1-aa8c-f5aabee24375"},"vehicle_type_id":"4","last_reported":1724703027,"current_range_meters":10000,"station_id":"","pricing_plan_id":"cebpf4jnsgd1na2vs0mg"},{"bike_id":"34292e85-80fe-400e-a4a8-afcc00dc56ad","system_id":"levelo_inurba_marseille","lat":43.313571,"lon":5.384829,"is_reserved":false,"is_disabled":false,"rental_uris":{"android":"levelo://app?vid=34292e85-80fe-400e-a4a8-afcc00dc56ad","ios":"levelo://app?vid=34292e85-80fe-400e-a4a8-afcc00dc56ad"},"vehicle_type_id":"4","last_reported":1724703027,"current_range_meters":25200,"station_id":"ce4bgt92rcd13ifvqcf0","pricing_plan_id":"cebpf4jnsgd1na2vs0mg"},{"bike_id":"1330072a-0f11-46be-b2da-d0f06c0f15ad","system_id":"levelo_inurba_marseille","lat":43.299724,"lon":5.371829,"is_reserved":false,"is_disabled":false,"rental_uris":{"android":"levelo://app?vid=1330072a-0f11-46be-b2da-d0f06c0f15ad","ios":"levelo://app?vid=1330072a-0f11-46be-b2da-d0f06c0f15ad"},"vehicle_type_id":"4","last_reported":1724703027,"current_range_meters":24400,"station_id":"ce4bgr92rcd13ifvqc7g","pricing_plan_id":"cebpf4jnsgd1na2vs0mg"},{"bike_id":"d384c0e6-a4ea-404e-a4fb-693230effd49","system_id":"levelo_inurba_marseille","lat":43.299724,"lon":5.371829,"is_reserved":false,"is_disabled":false,"rental_uris":{"android":"levelo://app?vid=d384c0e6-a4ea-404e-a4fb-693230effd49","ios":"levelo://app?vid=d384c0e6-a4ea-404e-a4fb-693230effd49"},"vehicle_type_id":"4","last_reported":1724703027,"current_range_meters":15200,"station_id":"ce4bgr92rcd13ifvqc7g","pricing_plan_id":"cebpf4jnsgd1na2vs0mg"},{"bike_id":"e7567acc-1065-41c0-b988-1119e0b446aa","system_id":"levelo_inurba_marseille","lat":43.299222,"lon":5.365554,"is_reserved":false,"is_disabled":false,"rental_uris":{"android":"levelo://app?vid=e7567acc-1065-41c0-b988-1119e0b446aa","ios":"levelo://app?vid=e7567acc-1065-41c0-b988-1119e0b446aa"},"vehicle_type_id":"4","last_reported":1724703027,"current_range_meters":27200,"station_id":"ce4bgm92rcd13ifvqbr0","pricing_plan_id":"cebpf4jnsgd1na2vs0mg"},{"bike_id":"507babf3-25ed-482d-9748-56ce378590ee","system_id":"levelo_inurba_marseille","lat":43.299724,"lon":5.371829,"is_reserved":false,"is_disabled":false,"rental_uris":{"android":"levelo://app?vid=507babf3-25ed-482d-9748-56ce378590ee","ios":"levelo://app?vid=507babf3-25ed-482d-9748-56ce378590ee"},"vehicle_type_id":"4","last_reported":1724703027,"current_range_meters":8400,"station_id":"ce4bgr92rcd13ifvqc7g","pricing_plan_id":"cebpf4jnsgd1na2vs0mg"},{"bike_id":"fa08da4f-8099-4bf4-a72c-0451d62568d9","system_id":"levelo_inurba_marseille","lat":43.29972,"lon":5.37174,"is_reserved":false,"is_disabled":false,"rental_uris":{"android":"levelo://app?vid=fa08da4f-8099-4bf4-a72c-0451d62568d9","ios":"levelo://app?vid=fa08da4f-8099-4bf4-a72c-0451d62568d9"},"vehicle_type_id":"4","last_reported":1724703027,"current_range_meters":2000,"station_id":"ce4bgr92rcd13ifvqc7g","pricing_plan_id":"cebpf4jnsgd1na2vs0mg"},{"bike_id":"bac05021-748b-455b-9acd-3e33ee909e27","system_id":"levelo_inurba_marseille","lat":43.299724,"lon":5.371829,"is_reserved":false,"is_disabled":false,"rental_uris":{"android":"levelo://app?vid=bac05021-748b-455b-9acd-3e33ee909e27","ios":"levelo://app?vid=bac05021-748b-455b-9acd-3e33ee909e27"},"vehicle_type_id":"4","last_reported":1724703027,"current_range_meters":29600,"station_id":"ce4bgr92rcd13ifvqc7g","pricing_plan_id":"cebpf4jnsgd1na2vs0mg"},{"bike_id":"e9e5309b-77a4-4f65-bdee-79f415cde996","system_id":"levelo_inurba_marseille","lat":43.299724,"lon":5.371829,"is_reserved":false,"is_disabled":false,"rental_uris":{"android":"levelo://app?vid=e9e5309b-77a4-4f65-bdee-79f415cde996","ios":"levelo://app?vid=e9e5309b-77a4-4f65-bdee-79f415cde996"},"vehicle_type_id":"4","last_reported":1724703027,"current_range_meters":4000,"station_id":"ce4bgr92rcd13ifvqc7g","pricing_plan_id":"cebpf4jnsgd1na2vs0mg"},{"bike_id":"f7968b64-d0fe-49d5-931f-08d8523df590","system_id":"levelo_inurba_marseille","lat":43.322872,"lon":5.382756,"is_reserved":false,"is_disabled":false,"rental_uris":{"android":"levelo://app?vid=f7968b64-d0fe-49d5-931f-08d8523df590","ios":"levelo://app?vid=f7968b64-d0fe-49d5-931f-08d8523df590"},"vehicle_type_id":"4","last_reported":1724703027,"current_range_meters":0,"station_id":"ce4bhr12rcd13ifvqhqg","pricing_plan_id":"cebpf4jnsgd1na2vs0mg"},{"bike_id":"74624132-3c17-41f9-b7e9-3a0b62d17412","system_id":"levelo_inurba_marseille","lat":43.299243,"lon":5.37481,"is_reserved":false,"is_disabled":false,"rental_uris":{"android":"levelo://app?vid=74624132-3c17-41f9-b7e9-3a0b62d17412","ios":"levelo://app?vid=74624132-3c17-41f9-b7e9-3a0b62d17412"},"vehicle_type_id":"4","last_reported":1724703027,"current_range_meters":28400,"station_id":"ce4bgjh2rcd13ifvqbg0","pricing_plan_id":"cebpf4jnsgd1na2vs0mg"},{"bike_id":"260a6942-5beb-459a-848d-fde885f3abc2","system_id":"levelo_inurba_marseille","lat":43.311722,"lon":5.387247,"is_reserved":false,"is_disabled":false,"rental_uris":{"android":"levelo://app?vid=260a6942-5beb-459a-848d-fde885f3abc2","ios":"levelo://app?vid=260a6942-5beb-459a-848d-fde885f3abc2"},"vehicle_type_id":"4","last_reported":1724703027,"current_range_meters":4400,"station_id":"ce4bgv12rcd13ifvqcp0","pricing_plan_id":"cebpf4jnsgd1na2vs0mg"},{"bike_id":"f1100baa-997f-49b8-a69f-316cff4dac2e","system_id":"levelo_inurba_marseille","lat":43.311722,"lon":5.387247,"is_reserved":false,"is_disabled":false,"rental_uris":{"android":"levelo://app?vid=f1100baa-997f-49b8-a69f-316cff4dac2e","ios":"levelo://app?vid=f1100baa-997f-49b8-a69f-316cff4dac2e"},"vehicle_type_id":"4","last_reported":1724703027,"current_range_meters":400,"station_id":"ce4bgv12rcd13ifvqcp0","pricing_plan_id":"cebpf4jnsgd1na2vs0mg"},{"bike_id":"5c255f1f-b94b-4a1e-bc46-84321dcfdce2","system_id":"levelo_inurba_marseille","lat":43.311722,"lon":5.387247,"is_reserved":false,"is_disabled":false,"rental_uris":{"android":"levelo://app?vid=5c255f1f-b94b-4a1e-bc46-84321dcfdce2","ios":"levelo://app?vid=5c255f1f-b94b-4a1e-bc46-84321dcfdce2"},"vehicle_type_id":"4","last_reported":1724703027,"current_range_meters":4000,"station_id":"ce4bgv12rcd13ifvqcp0","pricing_plan_id":"cebpf4jnsgd1na2vs0mg"},{"bike_id":"f01dac76-f3d8-4561-8d9a-c27c3e05c474","system_id":"levelo_inurba_marseille","lat":43.311722,"lon":5.387247,"is_reserved":false,"is_disabled":false,"rental_uris":{"android":"levelo://app?vid=f01dac76-f3d8-4561-8d9a-c27c3e05c474","ios":"levelo://app?vid=f01dac76-f3d8-4561-8d9a-c27c3e05c474"},"vehicle_type_id":"4","last_reported":1724703027,"current_range_meters":14000,"station_id":"ce4bgv12rcd13ifvqcp0","pricing_plan_id":"cebpf4jnsgd1na2vs0mg"},{"bike_id":"760ffa52-9d1e-44fb-bb0f-bbb9d1602ec1","system_id":"levelo_inurba_marseille","lat":43.31172,"lon":5.38727,"is_reserved":false,"is_disabled":false,"rental_uris":{"android":"levelo://app?vid=760ffa52-9d1e-44fb-bb0f-bbb9d1602ec1","ios":"levelo://app?vid=760ffa52-9d1e-44fb-bb0f-bbb9d1602ec1"},"vehicle_type_id":"4","last_reported":1724703027,"current_range_meters":28400,"station_id":"","pricing_plan_id":"cebpf4jnsgd1na2vs0mg"},{"bike_id":"6620c18c-e539-494a-b633-92cac3f2bd47","system_id":"levelo_inurba_marseille","lat":43.32292,"lon":5.38249,"is_reserved":false,"is_disabled":false,"rental_uris":{"android":"levelo://app?vid=6620c18c-e539-494a-b633-92cac3f2bd47","ios":"levelo://app?vid=6620c18c-e539-494a-b633-92cac3f2bd47"},"vehicle_type_id":"4","last_reported":1724703027,"current_range_meters":19600,"station_id":"ce4bhr12rcd13ifvqhqg","pricing_plan_id":"cebpf4jnsgd1na2vs0mg"},{"bike_id":"90d37695-c612-4384-92d0-977df80ac5dd","system_id":"levelo_inurba_marseille","lat":43.32288,"lon":5.38267,"is_reserved":false,"is_disabled":false,"rental_uris":{"android":"levelo://app?vid=90d37695-c612-4384-92d0-977df80ac5dd","ios":"levelo://app?vid=90d37695-c612-4384-92d0-977df80ac5dd"},"vehicle_type_id":"4","last_reported":1724703027,"current_range_meters":12800,"station_id":"ce4bhr12rcd13ifvqhqg","pricing_plan_id":"cebpf4jnsgd1na2vs0mg"},{"bike_id":"314640de-ec62-4ae2-b3e0-46495e456313","system_id":"levelo_inurba_marseille","lat":43.322872,"lon":5.382756,"is_reserved":false,"is_disabled":false,"rental_uris":{"android":"levelo://app?vid=314640de-ec62-4ae2-b3e0-46495e456313","ios":"levelo://app?vid=314640de-ec62-4ae2-b3e0-46495e456313"},"vehicle_type_id":"4","last_reported":1724703027,"current_range_meters":11200,"station_id":"ce4bhr12rcd13ifvqhqg","pricing_plan_id":"cebpf4jnsgd1na2vs0mg"},{"bike_id":"b6714d97-e281-49f7-a7b5-d0365cdf8a77","system_id":"levelo_inurba_marseille","lat":43.297163,"lon":5.365866,"is_reserved":false,"is_disabled":false,"rental_uris":{"android":"levelo://app?vid=b6714d97-e281-49f7-a7b5-d0365cdf8a77","ios":"levelo://app?vid=b6714d97-e281-49f7-a7b5-d0365cdf8a77"},"vehicle_type_id":"4","last_reported":1724703027,"current_range_meters":31200,"station_id":"ce4bgn12rcd13ifvqbt0","pricing_plan_id":"cebpf4jnsgd1na2vs0mg"},{"bike_id":"29b9b9c1-8890-4417-acc7-33e69a232a18","system_id":"levelo_inurba_marseille","lat":43.297163,"lon":5.365866,"is_reserved":false,"is_disabled":false,"rental_uris":{"android":"levelo://app?vid=29b9b9c1-8890-4417-acc7-33e69a232a18","ios":"levelo://app?vid=29b9b9c1-8890-4417-acc7-33e69a232a18"},"vehicle_type_id":"4","last_reported":1724703027,"current_range_meters":2800,"station_id":"ce4bgn12rcd13ifvqbt0","pricing_plan_id":"cebpf4jnsgd1na2vs0mg"},{"bike_id":"0efe19ca-1108-474d-b05f-c433bf453dbb","system_id":"levelo_inurba_marseille","lat":43.2962,"lon":5.37155,"is_reserved":false,"is_disabled":false,"rental_uris":{"android":"levelo://app?vid=0efe19ca-1108-474d-b05f-c433bf453dbb","ios":"levelo://app?vid=0efe19ca-1108-474d-b05f-c433bf453dbb"},"vehicle_type_id":"4","last_reported":1724703027,"current_range_meters":8800,"station_id":"ce4bgnh2rcd13ifvqc0g","pricing_plan_id":"cebpf4jnsgd1na2vs0mg"},{"bike_id":"f0d49290-053a-4e1a-ba0b-2712385b68f5","system_id":"levelo_inurba_marseille","lat":43.29573,"lon":5.367355,"is_reserved":false,"is_disabled":false,"rental_uris":{"android":"levelo://app?vid=f0d49290-053a-4e1a-ba0b-2712385b68f5","ios":"levelo://app?vid=f0d49290-053a-4e1a-ba0b-2712385b68f5"},"vehicle_type_id":"4","last_reported":1724703027,"current_range_meters":3600,"station_id":"ce4bgph2rcd13ifvqc2g","pricing_plan_id":"cebpf4jnsgd1na2vs0mg"},{"bike_id":"920fdf94-de23-4eff-bd36-9f73e4139c30","system_id":"levelo_inurba_marseille","lat":43.296921,"lon":5.376579,"is_reserved":false,"is_disabled":false,"rental_uris":{"android":"levelo://app?vid=920fdf94-de23-4eff-bd36-9f73e4139c30","ios":"levelo://app?vid=920fdf94-de23-4eff-bd36-9f73e4139c30"},"vehicle_type_id":"4","last_reported":1724703027,"current_range_meters":25600,"station_id":"ce4bgkh2rcd13ifvqbl0","pricing_plan_id":"cebpf4jnsgd1na2vs0mg"},{"bike_id":"c75ccc24-b4af-43d0-bfdf-df9bfbb74594","system_id":"levelo_inurba_marseille","lat":43.29721,"lon":5.37723,"is_reserved":false,"is_disabled":false,"rental_uris":{"android":"levelo://app?vid=c75ccc24-b4af-43d0-bfdf-df9bfbb74594","ios":"levelo://app?vid=c75ccc24-b4af-43d0-bfdf-df9bfbb74594"},"vehicle_type_id":"4","last_reported":1724703027,"current_range_meters":30000,"station_id":"","pricing_plan_id":"cebpf4jnsgd1na2vs0mg"},{"bike_id":"02d92a04-4401-44c9-8cd2-52ad60b40761","system_id":"levelo_inurba_marseille","lat":43.309589,"lon":5.390258,"is_reserved":false,"is_disabled":false,"rental_uris":{"android":"levelo://app?vid=02d92a04-4401-44c9-8cd2-52ad60b40761","ios":"levelo://app?vid=02d92a04-4401-44c9-8cd2-52ad60b40761"},"vehicle_type_id":"4","last_reported":1724703027,"current_range_meters":4400,"station_id":"ce4bgup2rcd13ifvqco0","pricing_plan_id":"cebpf4jnsgd1na2vs0mg"},{"bike_id":"70dac197-ed72-44eb-94b6-467d6f1969ad","system_id":"levelo_inurba_marseille","lat":43.309589,"lon":5.390258,"is_reserved":false,"is_disabled":false,"rental_uris":{"android":"levelo://app?vid=70dac197-ed72-44eb-94b6-467d6f1969ad","ios":"levelo://app?vid=70dac197-ed72-44eb-94b6-467d6f1969ad"},"vehicle_type_id":"4","last_reported":1724703027,"current_range_meters":7200,"station_id":"ce4bgup2rcd13ifvqco0","pricing_plan_id":"cebpf4jnsgd1na2vs0mg"},{"bike_id":"1259d1c5-1a1b-4edb-8e24-2936343b9ad8","system_id":"levelo_inurba_marseille","lat":43.309589,"lon":5.390258,"is_reserved":false,"is_disabled":false,"rental_uris":{"android":"levelo://app?vid=1259d1c5-1a1b-4edb-8e24-2936343b9ad8","ios":"levelo://app?vid=1259d1c5-1a1b-4edb-8e24-2936343b9ad8"},"vehicle_type_id":"4","last_reported":1724703027,"current_range_meters":16800,"station_id":"ce4bgup2rcd13ifvqco0","pricing_plan_id":"cebpf4jnsgd1na2vs0mg"},{"bike_id":"ca4a1a7b-88a1-459e-9b43-b744edc7ce8d","system_id":"levelo_inurba_marseille","lat":43.309589,"lon":5.390258,"is_reserved":false,"is_disabled":false,"rental_uris":{"android":"levelo://app?vid=ca4a1a7b-88a1-459e-9b43-b744edc7ce8d","ios":"levelo://app?vid=ca4a1a7b-88a1-459e-9b43-b744edc7ce8d"},"vehicle_type_id":"4","last_reported":1724703027,"current_range_meters":22800,"station_id":"ce4bgup2rcd13ifvqco0","pricing_plan_id":"cebpf4jnsgd1na2vs0mg"},{"bike_id":"9e5aa10d-8797-4471-9df2-7050ff47925e","system_id":"levelo_inurba_marseille","lat":43.317557,"lon":5.390173,"is_reserved":false,"is_disabled":false,"rental_uris":{"android":"levelo://app?vid=9e5aa10d-8797-4471-9df2-7050ff47925e","ios":"levelo://app?vid=9e5aa10d-8797-4471-9df2-7050ff47925e"},"vehicle_type_id":"4","last_reported":1724703027,"current_range_meters":8000,"station_id":"ce4bhqp2rcd13ifvqhng","pricing_plan_id":"cebpf4jnsgd1na2vs0mg"},{"bike_id":"407a4b83-4185-42ea-8b14-e0f03efbdd98","system_id":"levelo_inurba_marseille","lat":43.317557,"lon":5.390173,"is_reserved":false,"is_disabled":false,"rental_uris":{"android":"levelo://app?vid=407a4b83-4185-42ea-8b14-e0f03efbdd98","ios":"levelo://app?vid=407a4b83-4185-42ea-8b14-e0f03efbdd98"},"vehicle_type_id":"4","last_reported":1724703027,"current_range_meters":0,"station_id":"ce4bhqp2rcd13ifvqhng","pricing_plan_id":"cebpf4jnsgd1na2vs0mg"},{"bike_id":"de44b69e-fc97-47dc-8b90-0c224c917c80","system_id":"levelo_inurba_marseille","lat":43.31756,"lon":5.3902,"is_reserved":false,"is_disabled":false,"rental_uris":{"android":"levelo://app?vid=de44b69e-fc97-47dc-8b90-0c224c917c80","ios":"levelo://app?vid=de44b69e-fc97-47dc-8b90-0c224c917c80"},"vehicle_type_id":"4","last_reported":1724703027,"current_range_meters":0,"station_id":"ce4bhqp2rcd13ifvqhng","pricing_plan_id":"cebpf4jnsgd1na2vs0mg"},{"bike_id":"99af8703-a510-4361-83bb-88f0fd907950","system_id":"levelo_inurba_marseille","lat":43.317557,"lon":5.390173,"is_reserved":false,"is_disabled":false,"rental_uris":{"android":"levelo://app?vid=99af8703-a510-4361-83bb-88f0fd907950","ios":"levelo://app?vid=99af8703-a510-4361-83bb-88f0fd907950"},"vehicle_type_id":"4","last_reported":1724703027,"current_range_meters":21200,"station_id":"ce4bhqp2rcd13ifvqhng","pricing_plan_id":"cebpf4jnsgd1na2vs0mg"},{"bike_id":"f903819c-6c8c-470c-a82c-f4e6aa68443c","system_id":"levelo_inurba_marseille","lat":43.29706,"lon":5.3789,"is_reserved":false,"is_disabled":false,"rental_uris":{"android":"levelo://app?vid=f903819c-6c8c-470c-a82c-f4e6aa68443c","ios":"levelo://app?vid=f903819c-6c8c-470c-a82c-f4e6aa68443c"},"vehicle_type_id":"4","last_reported":1724703027,"current_range_meters":17600,"station_id":"","pricing_plan_id":"cebpf4jnsgd1na2vs0mg"},{"bike_id":"46930be7-e5d6-4cc6-9baf-dd7324b337f5","system_id":"levelo_inurba_marseille","lat":43.295777,"lon":5.375133,"is_reserved":false,"is_disabled":false,"rental_uris":{"android":"levelo://app?vid=46930be7-e5d6-4cc6-9baf-dd7324b337f5","ios":"levelo://app?vid=46930be7-e5d6-4cc6-9baf-dd7324b337f5"},"vehicle_type_id":"4","last_reported":1724703027,"current_range_meters":31200,"station_id":"ce4bgh92rcd13ifvqb50","pricing_plan_id":"cebpf4jnsgd1na2vs0mg"},{"bike_id":"dee72918-1894-414b-9a07-04ac80d4a66a","system_id":"levelo_inurba_marseille","lat":43.295748,"lon":5.37522,"is_reserved":false,"is_disabled":false,"rental_uris":{"android":"levelo://app?vid=dee72918-1894-414b-9a07-04ac80d4a66a","ios":"levelo://app?vid=dee72918-1894-414b-9a07-04ac80d4a66a"},"vehicle_type_id":"4","last_reported":1724703027,"current_range_meters":2000,"station_id":"ce4bgh92rcd13ifvqb50","pricing_plan_id":"cebpf4jnsgd1na2vs0mg"},{"bike_id":"0129b78d-d01c-4881-9c8e-7d7b903f8460","system_id":"levelo_inurba_marseille","lat":43.29789,"lon":5.38102,"is_reserved":false,"is_disabled":false,"rental_uris":{"android":"levelo://app?vid=0129b78d-d01c-4881-9c8e-7d7b903f8460","ios":"levelo://app?vid=0129b78d-d01c-4881-9c8e-7d7b903f8460"},"vehicle_type_id":"4","last_reported":1724703027,"current_range_meters":14800,"station_id":"ce4bgip2rcd13ifvqbb0","pricing_plan_id":"cebpf4jnsgd1na2vs0mg"},{"bike_id":"092f9de0-93e3-4792-bea2-fc0f34a9aaee","system_id":"levelo_inurba_marseille","lat":43.304274,"lon":5.388873,"is_reserved":false,"is_disabled":false,"rental_uris":{"android":"levelo://app?vid=092f9de0-93e3-4792-bea2-fc0f34a9aaee","ios":"levelo://app?vid=092f9de0-93e3-4792-bea2-fc0f34a9aaee"},"vehicle_type_id":"4","last_reported":1724703027,"current_range_meters":16400,"station_id":"ce4bgk12rcd13ifvqbi0","pricing_plan_id":"cebpf4jnsgd1na2vs0mg"},{"bike_id":"93b48089-bcf3-48ae-9894-2209ddb00c69","system_id":"levelo_inurba_marseille","lat":43.304278,"lon":5.388868,"is_reserved":false,"is_disabled":false,"rental_uris":{"android":"levelo://app?vid=93b48089-bcf3-48ae-9894-2209ddb00c69","ios":"levelo://app?vid=93b48089-bcf3-48ae-9894-2209ddb00c69"},"vehicle_type_id":"4","last_reported":1724703027,"current_range_meters":18000,"station_id":"ce4bgk12rcd13ifvqbi0","pricing_plan_id":"cebpf4jnsgd1na2vs0mg"},{"bike_id":"a65ad4f9-c309-47c3-a043-8eda6c062aa4","system_id":"levelo_inurba_marseille","lat":43.304278,"lon":5.388868,"is_reserved":false,"is_disabled":false,"rental_uris":{"android":"levelo://app?vid=a65ad4f9-c309-47c3-a043-8eda6c062aa4","ios":"levelo://app?vid=a65ad4f9-c309-47c3-a043-8eda6c062aa4"},"vehicle_type_id":"4","last_reported":1724703027,"current_range_meters":19600,"station_id":"ce4bgk12rcd13ifvqbi0","pricing_plan_id":"cebpf4jnsgd1na2vs0mg"},{"bike_id":"252d8e26-70ef-4cca-896b-887d891b6b3a","system_id":"levelo_inurba_marseille","lat":43.304278,"lon":5.388868,"is_reserved":false,"is_disabled":false,"rental_uris":{"android":"levelo://app?vid=252d8e26-70ef-4cca-896b-887d891b6b3a","ios":"levelo://app?vid=252d8e26-70ef-4cca-896b-887d891b6b3a"},"vehicle_type_id":"4","last_reported":1724703027,"current_range_meters":26800,"station_id":"ce4bgk12rcd13ifvqbi0","pricing_plan_id":"cebpf4jnsgd1na2vs0mg"},{"bike_id":"67cb83e0-604e-4f03-8ca1-2cfaf4423d55","system_id":"levelo_inurba_marseille","lat":43.304278,"lon":5.388868,"is_reserved":false,"is_disabled":false,"rental_uris":{"android":"levelo://app?vid=67cb83e0-604e-4f03-8ca1-2cfaf4423d55","ios":"levelo://app?vid=67cb83e0-604e-4f03-8ca1-2cfaf4423d55"},"vehicle_type_id":"4","last_reported":1724703027,"current_range_meters":6000,"station_id":"ce4bgk12rcd13ifvqbi0","pricing_plan_id":"cebpf4jnsgd1na2vs0mg"},{"bike_id":"db1240dd-866f-4dc4-a79e-a4078e0d5fa6","system_id":"levelo_inurba_marseille","lat":43.29563,"lon":5.37511,"is_reserved":false,"is_disabled":false,"rental_uris":{"android":"levelo://app?vid=db1240dd-866f-4dc4-a79e-a4078e0d5fa6","ios":"levelo://app?vid=db1240dd-866f-4dc4-a79e-a4078e0d5fa6"},"vehicle_type_id":"4","last_reported":1724703027,"current_range_meters":31200,"station_id":"ce4bgh92rcd13ifvqb50","pricing_plan_id":"cebpf4jnsgd1na2vs0mg"},{"bike_id":"12b4b387-8083-4edf-9f4a-370d33bb1f37","system_id":"levelo_inurba_marseille","lat":43.304278,"lon":5.388868,"is_reserved":false,"is_disabled":false,"rental_uris":{"android":"levelo://app?vid=12b4b387-8083-4edf-9f4a-370d33bb1f37","ios":"levelo://app?vid=12b4b387-8083-4edf-9f4a-370d33bb1f37"},"vehicle_type_id":"4","last_reported":1724703027,"current_range_meters":15200,"station_id":"ce4bgk12rcd13ifvqbi0","pricing_plan_id":"cebpf4jnsgd1na2vs0mg"},{"bike_id":"8955739f-c1aa-4eeb-b302-a1832f881b0e","system_id":"levelo_inurba_marseille","lat":43.299707,"lon":5.384859,"is_reserved":false,"is_disabled":false,"rental_uris":{"android":"levelo://app?vid=8955739f-c1aa-4eeb-b302-a1832f881b0e","ios":"levelo://app?vid=8955739f-c1aa-4eeb-b302-a1832f881b0e"},"vehicle_type_id":"4","last_reported":1724703027,"current_range_meters":2400,"station_id":"ce4bgj92rcd13ifvqbd0","pricing_plan_id":"cebpf4jnsgd1na2vs0mg"},{"bike_id":"5a907788-5e45-4162-8dde-d27f69c925f9","system_id":"levelo_inurba_marseille","lat":43.299717,"lon":5.384845,"is_reserved":false,"is_disabled":false,"rental_uris":{"android":"levelo://app?vid=5a907788-5e45-4162-8dde-d27f69c925f9","ios":"levelo://app?vid=5a907788-5e45-4162-8dde-d27f69c925f9"},"vehicle_type_id":"4","last_reported":1724703027,"current_range_meters":14000,"station_id":"ce4bgj92rcd13ifvqbd0","pricing_plan_id":"cebpf4jnsgd1na2vs0mg"},{"bike_id":"e0c85a4d-9ef9-418e-beaa-b977b981c128","system_id":"levelo_inurba_marseille","lat":43.29523,"lon":5.37508,"is_reserved":false,"is_disabled":false,"rental_uris":{"android":"levelo://app?vid=e0c85a4d-9ef9-418e-beaa-b977b981c128","ios":"levelo://app?vid=e0c85a4d-9ef9-418e-beaa-b977b981c128"},"vehicle_type_id":"4","last_reported":1724703027,"current_range_meters":12800,"station_id":"ce4bgkp2rcd13ifvqbmg","pricing_plan_id":"cebpf4jnsgd1na2vs0mg"},{"bike_id":"791f43ad-a08a-4d47-8cbd-a2ff74205923","system_id":"levelo_inurba_marseille","lat":43.29965,"lon":5.38501,"is_reserved":false,"is_disabled":false,"rental_uris":{"android":"levelo://app?vid=791f43ad-a08a-4d47-8cbd-a2ff74205923","ios":"levelo://app?vid=791f43ad-a08a-4d47-8cbd-a2ff74205923"},"vehicle_type_id":"4","last_reported":1724703027,"current_range_meters":0,"station_id":"ce4bgj92rcd13ifvqbd0","pricing_plan_id":"cebpf4jnsgd1na2vs0mg"},{"bike_id":"0d57bc30-07e6-442d-8115-0e78ca0e9ca8","system_id":"levelo_inurba_marseille","lat":43.300852,"lon":5.390859,"is_reserved":false,"is_disabled":false,"rental_uris":{"android":"levelo://app?vid=0d57bc30-07e6-442d-8115-0e78ca0e9ca8","ios":"levelo://app?vid=0d57bc30-07e6-442d-8115-0e78ca0e9ca8"},"vehicle_type_id":"4","last_reported":1724703027,"current_range_meters":2800,"station_id":"ce4bh192rcd13ifvqdb0","pricing_plan_id":"cebpf4jnsgd1na2vs0mg"},{"bike_id":"4446029a-d78e-42fa-bd63-1fd32620502b","system_id":"levelo_inurba_marseille","lat":43.3014,"lon":5.38784,"is_reserved":false,"is_disabled":false,"rental_uris":{"android":"levelo://app?vid=4446029a-d78e-42fa-bd63-1fd32620502b","ios":"levelo://app?vid=4446029a-d78e-42fa-bd63-1fd32620502b"},"vehicle_type_id":"4","last_reported":1724703027,"current_range_meters":0,"station_id":"ce4bghh2rcd13ifvqb60","pricing_plan_id":"cebpf4jnsgd1na2vs0mg"},{"bike_id":"f1742a77-09e0-42e0-abf1-95a21b4e3be6","system_id":"levelo_inurba_marseille","lat":43.326605,"lon":5.409903,"is_reserved":false,"is_disabled":false,"rental_uris":{"android":"levelo://app?vid=f1742a77-09e0-42e0-abf1-95a21b4e3be6","ios":"levelo://app?vid=f1742a77-09e0-42e0-abf1-95a21b4e3be6"},"vehicle_type_id":"4","last_reported":1724703027,"current_range_meters":3200,"station_id":"ce4bhpp2rcd13ifvqhgg","pricing_plan_id":"cebpf4jnsgd1na2vs0mg"},{"bike_id":"f34e9ff8-5944-40ad-ade0-f55b513d3797","system_id":"levelo_inurba_marseille","lat":43.32366,"lon":5.38886,"is_reserved":false,"is_disabled":false,"rental_uris":{"android":"levelo://app?vid=f34e9ff8-5944-40ad-ade0-f55b513d3797","ios":"levelo://app?vid=f34e9ff8-5944-40ad-ade0-f55b513d3797"},"vehicle_type_id":"4","last_reported":1724703027,"current_range_meters":800,"station_id":"ce4bhqp2rcd13ifvqhog","pricing_plan_id":"cebpf4jnsgd1na2vs0mg"},{"bike_id":"b60f3181-43da-48ce-b737-0460b525c1d1","system_id":"levelo_inurba_marseille","lat":43.32367,"lon":5.388836,"is_reserved":false,"is_disabled":false,"rental_uris":{"android":"levelo://app?vid=b60f3181-43da-48ce-b737-0460b525c1d1","ios":"levelo://app?vid=b60f3181-43da-48ce-b737-0460b525c1d1"},"vehicle_type_id":"4","last_reported":1724703027,"current_range_meters":28400,"station_id":"ce4bhqp2rcd13ifvqhog","pricing_plan_id":"cebpf4jnsgd1na2vs0mg"},{"bike_id":"dadfa63b-8904-460f-9886-8886e079a1c8","system_id":"levelo_inurba_marseille","lat":43.32367,"lon":5.388836,"is_reserved":false,"is_disabled":false,"rental_uris":{"android":"levelo://app?vid=dadfa63b-8904-460f-9886-8886e079a1c8","ios":"levelo://app?vid=dadfa63b-8904-460f-9886-8886e079a1c8"},"vehicle_type_id":"4","last_reported":1724703027,"current_range_meters":5600,"station_id":"ce4bhqp2rcd13ifvqhog","pricing_plan_id":"cebpf4jnsgd1na2vs0mg"},{"bike_id":"715b2c65-6ec4-450f-9a06-fe2ceb99c002","system_id":"levelo_inurba_marseille","lat":43.32367,"lon":5.388836,"is_reserved":false,"is_disabled":false,"rental_uris":{"android":"levelo://app?vid=715b2c65-6ec4-450f-9a06-fe2ceb99c002","ios":"levelo://app?vid=715b2c65-6ec4-450f-9a06-fe2ceb99c002"},"vehicle_type_id":"4","last_reported":1724703027,"current_range_meters":12800,"station_id":"ce4bhqp2rcd13ifvqhog","pricing_plan_id":"cebpf4jnsgd1na2vs0mg"},{"bike_id":"d545ce2c-9eb9-4b44-89d5-46ed36e81c85","system_id":"levelo_inurba_marseille","lat":43.32367,"lon":5.388836,"is_reserved":false,"is_disabled":false,"rental_uris":{"android":"levelo://app?vid=d545ce2c-9eb9-4b44-89d5-46ed36e81c85","ios":"levelo://app?vid=d545ce2c-9eb9-4b44-89d5-46ed36e81c85"},"vehicle_type_id":"4","last_reported":1724703027,"current_range_meters":1600,"station_id":"ce4bhqp2rcd13ifvqhog","pricing_plan_id":"cebpf4jnsgd1na2vs0mg"},{"bike_id":"0ebef8b6-7384-42a3-a644-836f41e116fd","system_id":"levelo_inurba_marseille","lat":43.30159,"lon":5.38886,"is_reserved":false,"is_disabled":false,"rental_uris":{"android":"levelo://app?vid=0ebef8b6-7384-42a3-a644-836f41e116fd","ios":"levelo://app?vid=0ebef8b6-7384-42a3-a644-836f41e116fd"},"vehicle_type_id":"4","last_reported":1724703027,"current_range_meters":0,"station_id":"","pricing_plan_id":"cebpf4jnsgd1na2vs0mg"},{"bike_id":"4ba3dfc0-db55-4892-911c-f7f4d3e61114","system_id":"levelo_inurba_marseille","lat":43.29623,"lon":5.38119,"is_reserved":false,"is_disabled":false,"rental_uris":{"android":"levelo://app?vid=4ba3dfc0-db55-4892-911c-f7f4d3e61114","ios":"levelo://app?vid=4ba3dfc0-db55-4892-911c-f7f4d3e61114"},"vehicle_type_id":"4","last_reported":1724703027,"current_range_meters":13600,"station_id":"ce4bgl12rcd13ifvqbo0","pricing_plan_id":"cebpf4jnsgd1na2vs0mg"},{"bike_id":"703cfa1c-641d-4ce1-8bbb-d6c3063bc19b","system_id":"levelo_inurba_marseille","lat":43.29602,"lon":5.381084,"is_reserved":false,"is_disabled":false,"rental_uris":{"android":"levelo://app?vid=703cfa1c-641d-4ce1-8bbb-d6c3063bc19b","ios":"levelo://app?vid=703cfa1c-641d-4ce1-8bbb-d6c3063bc19b"},"vehicle_type_id":"4","last_reported":1724703027,"current_range_meters":31200,"station_id":"ce4bgl12rcd13ifvqbo0","pricing_plan_id":"cebpf4jnsgd1na2vs0mg"},{"bike_id":"a1aaf22a-5041-4a85-848a-337bf5f033a2","system_id":"levelo_inurba_marseille","lat":43.295907,"lon":5.381048,"is_reserved":false,"is_disabled":false,"rental_uris":{"android":"levelo://app?vid=a1aaf22a-5041-4a85-848a-337bf5f033a2","ios":"levelo://app?vid=a1aaf22a-5041-4a85-848a-337bf5f033a2"},"vehicle_type_id":"4","last_reported":1724703027,"current_range_meters":10400,"station_id":"ce4bgl12rcd13ifvqbo0","pricing_plan_id":"cebpf4jnsgd1na2vs0mg"},{"bike_id":"e9d40dcf-d5d4-4918-976a-02d772d8042b","system_id":"levelo_inurba_marseille","lat":43.293003,"lon":5.370036,"is_reserved":false,"is_disabled":false,"rental_uris":{"android":"levelo://app?vid=e9d40dcf-d5d4-4918-976a-02d772d8042b","ios":"levelo://app?vid=e9d40dcf-d5d4-4918-976a-02d772d8042b"},"vehicle_type_id":"4","last_reported":1724703027,"current_range_meters":2000,"station_id":"","pricing_plan_id":"cebpf4jnsgd1na2vs0mg"},{"bike_id":"8d85bbc8-ef7d-4ad9-b8e8-82cfaa2c0f38","system_id":"levelo_inurba_marseille","lat":43.29305,"lon":5.37165,"is_reserved":false,"is_disabled":false,"rental_uris":{"android":"levelo://app?vid=8d85bbc8-ef7d-4ad9-b8e8-82cfaa2c0f38","ios":"levelo://app?vid=8d85bbc8-ef7d-4ad9-b8e8-82cfaa2c0f38"},"vehicle_type_id":"4","last_reported":1724703027,"current_range_meters":0,"station_id":"ce4bgh92rcd13ifvqb40","pricing_plan_id":"cebpf4jnsgd1na2vs0mg"},{"bike_id":"28667a38-3694-4a9a-9ab8-72f78dc10691","system_id":"levelo_inurba_marseille","lat":43.293259,"lon":5.371586,"is_reserved":false,"is_disabled":false,"rental_uris":{"android":"levelo://app?vid=28667a38-3694-4a9a-9ab8-72f78dc10691","ios":"levelo://app?vid=28667a38-3694-4a9a-9ab8-72f78dc10691"},"vehicle_type_id":"4","last_reported":1724703027,"current_range_meters":22800,"station_id":"ce4bgh92rcd13ifvqb40","pricing_plan_id":"cebpf4jnsgd1na2vs0mg"},{"bike_id":"fa5b9408-f2d0-469b-ad5d-3d7de30d8fbc","system_id":"levelo_inurba_marseille","lat":43.29274,"lon":5.36851,"is_reserved":false,"is_disabled":false,"rental_uris":{"android":"levelo://app?vid=fa5b9408-f2d0-469b-ad5d-3d7de30d8fbc","ios":"levelo://app?vid=fa5b9408-f2d0-469b-ad5d-3d7de30d8fbc"},"vehicle_type_id":"4","last_reported":1724703027,"current_range_meters":30000,"station_id":"ce4bhbp2rcd13ifvqesg","pricing_plan_id":"cebpf4jnsgd1na2vs0mg"},{"bike_id":"493f4d0d-b0e7-43b4-819f-257fd234c8b6","system_id":"levelo_inurba_marseille","lat":43.29273,"lon":5.36835,"is_reserved":false,"is_disabled":false,"rental_uris":{"android":"levelo://app?vid=493f4d0d-b0e7-43b4-819f-257fd234c8b6","ios":"levelo://app?vid=493f4d0d-b0e7-43b4-819f-257fd234c8b6"},"vehicle_type_id":"4","last_reported":1724703027,"current_range_meters":29200,"station_id":"ce4bhbp2rcd13ifvqesg","pricing_plan_id":"cebpf4jnsgd1na2vs0mg"},{"bike_id":"f2a73c56-44f5-4fea-8ebc-4085f588610a","system_id":"levelo_inurba_marseille","lat":43.29272,"lon":5.36847,"is_reserved":false,"is_disabled":false,"rental_uris":{"android":"levelo://app?vid=f2a73c56-44f5-4fea-8ebc-4085f588610a","ios":"levelo://app?vid=f2a73c56-44f5-4fea-8ebc-4085f588610a"},"vehicle_type_id":"4","last_reported":1724703027,"current_range_meters":31200,"station_id":"ce4bhbp2rcd13ifvqesg","pricing_plan_id":"cebpf4jnsgd1na2vs0mg"},{"bike_id":"a360c6ee-d726-4aa1-a223-633e237a1dc5","system_id":"levelo_inurba_marseille","lat":43.292749,"lon":5.368402,"is_reserved":false,"is_disabled":false,"rental_uris":{"android":"levelo://app?vid=a360c6ee-d726-4aa1-a223-633e237a1dc5","ios":"levelo://app?vid=a360c6ee-d726-4aa1-a223-633e237a1dc5"},"vehicle_type_id":"4","last_reported":1724703027,"current_range_meters":26400,"station_id":"ce4bhbp2rcd13ifvqesg","pricing_plan_id":"cebpf4jnsgd1na2vs0mg"},{"bike_id":"1187bdf7-4bcf-42f5-b6e9-e4c859fafbd4","system_id":"levelo_inurba_marseille","lat":43.292749,"lon":5.368402,"is_reserved":false,"is_disabled":false,"rental_uris":{"android":"levelo://app?vid=1187bdf7-4bcf-42f5-b6e9-e4c859fafbd4","ios":"levelo://app?vid=1187bdf7-4bcf-42f5-b6e9-e4c859fafbd4"},"vehicle_type_id":"4","last_reported":1724703027,"current_range_meters":31200,"station_id":"ce4bhbp2rcd13ifvqesg","pricing_plan_id":"cebpf4jnsgd1na2vs0mg"},{"bike_id":"0f255941-d560-452d-816a-7c33eb84d9ee","system_id":"levelo_inurba_marseille","lat":43.305994,"lon":5.393687,"is_reserved":false,"is_disabled":false,"rental_uris":{"android":"levelo://app?vid=0f255941-d560-452d-816a-7c33eb84d9ee","ios":"levelo://app?vid=0f255941-d560-452d-816a-7c33eb84d9ee"},"vehicle_type_id":"4","last_reported":1724703027,"current_range_meters":16000,"station_id":"ce4bh0p2rcd13ifvqd80","pricing_plan_id":"cebpf4jnsgd1na2vs0mg"},{"bike_id":"be4b47f5-0535-499b-bb1e-76ec1591adf8","system_id":"levelo_inurba_marseille","lat":43.305994,"lon":5.393687,"is_reserved":false,"is_disabled":false,"rental_uris":{"android":"levelo://app?vid=be4b47f5-0535-499b-bb1e-76ec1591adf8","ios":"levelo://app?vid=be4b47f5-0535-499b-bb1e-76ec1591adf8"},"vehicle_type_id":"4","last_reported":1724703027,"current_range_meters":7600,"station_id":"ce4bh0p2rcd13ifvqd80","pricing_plan_id":"cebpf4jnsgd1na2vs0mg"},{"bike_id":"59802b9b-ef32-4ad2-bdbb-41854fbe2cdc","system_id":"levelo_inurba_marseille","lat":43.303002,"lon":5.392142,"is_reserved":false,"is_disabled":false,"rental_uris":{"android":"levelo://app?vid=59802b9b-ef32-4ad2-bdbb-41854fbe2cdc","ios":"levelo://app?vid=59802b9b-ef32-4ad2-bdbb-41854fbe2cdc"},"vehicle_type_id":"4","last_reported":1724703027,"current_range_meters":25600,"station_id":"ce4bgkh2rcd13ifvqbk0","pricing_plan_id":"cebpf4jnsgd1na2vs0mg"},{"bike_id":"52264be6-87a7-4012-90c9-bddb61905a27","system_id":"levelo_inurba_marseille","lat":43.2936,"lon":5.37835,"is_reserved":false,"is_disabled":false,"rental_uris":{"android":"levelo://app?vid=52264be6-87a7-4012-90c9-bddb61905a27","ios":"levelo://app?vid=52264be6-87a7-4012-90c9-bddb61905a27"},"vehicle_type_id":"4","last_reported":1724703027,"current_range_meters":9600,"station_id":"ce4bgjh2rcd13ifvqbf0","pricing_plan_id":"cebpf4jnsgd1na2vs0mg"},{"bike_id":"e647025e-6133-4183-a14f-1c64b9df7de4","system_id":"levelo_inurba_marseille","lat":43.30085,"lon":5.390856,"is_reserved":false,"is_disabled":false,"rental_uris":{"android":"levelo://app?vid=e647025e-6133-4183-a14f-1c64b9df7de4","ios":"levelo://app?vid=e647025e-6133-4183-a14f-1c64b9df7de4"},"vehicle_type_id":"4","last_reported":1724703027,"current_range_meters":19600,"station_id":"ce4bh192rcd13ifvqdb0","pricing_plan_id":"cebpf4jnsgd1na2vs0mg"},{"bike_id":"e79ffb59-980b-4fcd-8032-25077700bb7c","system_id":"levelo_inurba_marseille","lat":43.30085,"lon":5.390856,"is_reserved":false,"is_disabled":false,"rental_uris":{"android":"levelo://app?vid=e79ffb59-980b-4fcd-8032-25077700bb7c","ios":"levelo://app?vid=e79ffb59-980b-4fcd-8032-25077700bb7c"},"vehicle_type_id":"4","last_reported":1724703027,"current_range_meters":21200,"station_id":"ce4bh192rcd13ifvqdb0","pricing_plan_id":"cebpf4jnsgd1na2vs0mg"},{"bike_id":"e805fa55-5a4b-4b3f-94e1-8d4b3722a21f","system_id":"levelo_inurba_marseille","lat":43.292311,"lon":5.360731,"is_reserved":false,"is_disabled":false,"rental_uris":{"android":"levelo://app?vid=e805fa55-5a4b-4b3f-94e1-8d4b3722a21f","ios":"levelo://app?vid=e805fa55-5a4b-4b3f-94e1-8d4b3722a21f"},"vehicle_type_id":"4","last_reported":1724703027,"current_range_meters":0,"station_id":"ce4bhbh2rcd13ifvqeqg","pricing_plan_id":"cebpf4jnsgd1na2vs0mg"},{"bike_id":"161aea13-ce5e-4a27-9577-90f006c2758a","system_id":"levelo_inurba_marseille","lat":43.30085,"lon":5.390856,"is_reserved":false,"is_disabled":false,"rental_uris":{"android":"levelo://app?vid=161aea13-ce5e-4a27-9577-90f006c2758a","ios":"levelo://app?vid=161aea13-ce5e-4a27-9577-90f006c2758a"},"vehicle_type_id":"4","last_reported":1724703027,"current_range_meters":13600,"station_id":"ce4bh192rcd13ifvqdb0","pricing_plan_id":"cebpf4jnsgd1na2vs0mg"},{"bike_id":"eca63771-ee1a-4577-b1ba-9c1d64acdc6e","system_id":"levelo_inurba_marseille","lat":43.29218,"lon":5.36047,"is_reserved":false,"is_disabled":false,"rental_uris":{"android":"levelo://app?vid=eca63771-ee1a-4577-b1ba-9c1d64acdc6e","ios":"levelo://app?vid=eca63771-ee1a-4577-b1ba-9c1d64acdc6e"},"vehicle_type_id":"4","last_reported":1724703027,"current_range_meters":30000,"station_id":"ce4bhbh2rcd13ifvqeqg","pricing_plan_id":"cebpf4jnsgd1na2vs0mg"},{"bike_id":"1f1d2f96-c4c2-493d-a6d0-7d92032b4846","system_id":"levelo_inurba_marseille","lat":43.300852,"lon":5.390859,"is_reserved":false,"is_disabled":false,"rental_uris":{"android":"levelo://app?vid=1f1d2f96-c4c2-493d-a6d0-7d92032b4846","ios":"levelo://app?vid=1f1d2f96-c4c2-493d-a6d0-7d92032b4846"},"vehicle_type_id":"4","last_reported":1724703027,"current_range_meters":23600,"station_id":"ce4bh192rcd13ifvqdb0","pricing_plan_id":"cebpf4jnsgd1na2vs0mg"},{"bike_id":"09467a39-62c9-4ada-9d42-a4fb13f06f83","system_id":"levelo_inurba_marseille","lat":43.298764,"lon":5.388973,"is_reserved":false,"is_disabled":false,"rental_uris":{"android":"levelo://app?vid=09467a39-62c9-4ada-9d42-a4fb13f06f83","ios":"levelo://app?vid=09467a39-62c9-4ada-9d42-a4fb13f06f83"},"vehicle_type_id":"4","last_reported":1724703027,"current_range_meters":16400,"station_id":"ce4bh392rcd13ifvqdl0","pricing_plan_id":"cebpf4jnsgd1na2vs0mg"},{"bike_id":"7c3840b6-e598-406f-8559-c7d09d245d17","system_id":"levelo_inurba_marseille","lat":43.291674,"lon":5.371396,"is_reserved":false,"is_disabled":false,"rental_uris":{"android":"levelo://app?vid=7c3840b6-e598-406f-8559-c7d09d245d17","ios":"levelo://app?vid=7c3840b6-e598-406f-8559-c7d09d245d17"},"vehicle_type_id":"4","last_reported":1724703027,"current_range_meters":0,"station_id":"ce4bha92rcd13ifvqeh0","pricing_plan_id":"cebpf4jnsgd1na2vs0mg"},{"bike_id":"2b4f3b9c-ac7b-45f6-93f8-261f3c78cbf8","system_id":"levelo_inurba_marseille","lat":43.291671,"lon":5.371575,"is_reserved":false,"is_disabled":false,"rental_uris":{"android":"levelo://app?vid=2b4f3b9c-ac7b-45f6-93f8-261f3c78cbf8","ios":"levelo://app?vid=2b4f3b9c-ac7b-45f6-93f8-261f3c78cbf8"},"vehicle_type_id":"4","last_reported":1724703027,"current_range_meters":26000,"station_id":"ce4bha92rcd13ifvqeh0","pricing_plan_id":"cebpf4jnsgd1na2vs0mg"},{"bike_id":"fc81d494-b43e-4f41-a7b4-f81ae4b707e8","system_id":"levelo_inurba_marseille","lat":43.29874,"lon":5.38908,"is_reserved":false,"is_disabled":false,"rental_uris":{"android":"levelo://app?vid=fc81d494-b43e-4f41-a7b4-f81ae4b707e8","ios":"levelo://app?vid=fc81d494-b43e-4f41-a7b4-f81ae4b707e8"},"vehicle_type_id":"4","last_reported":1724703027,"current_range_meters":9600,"station_id":"ce4bh392rcd13ifvqdl0","pricing_plan_id":"cebpf4jnsgd1na2vs0mg"},{"bike_id":"f7dcd358-e50f-4819-91aa-393f0951145c","system_id":"levelo_inurba_marseille","lat":43.298764,"lon":5.388973,"is_reserved":false,"is_disabled":false,"rental_uris":{"android":"levelo://app?vid=f7dcd358-e50f-4819-91aa-393f0951145c","ios":"levelo://app?vid=f7dcd358-e50f-4819-91aa-393f0951145c"},"vehicle_type_id":"4","last_reported":1724703027,"current_range_meters":29600,"station_id":"ce4bh392rcd13ifvqdl0","pricing_plan_id":"cebpf4jnsgd1na2vs0mg"},{"bike_id":"30f05fea-ab99-494a-b33d-60a52de77e69","system_id":"levelo_inurba_marseille","lat":43.2918,"lon":5.37518,"is_reserved":false,"is_disabled":false,"rental_uris":{"android":"levelo://app?vid=30f05fea-ab99-494a-b33d-60a52de77e69","ios":"levelo://app?vid=30f05fea-ab99-494a-b33d-60a52de77e69"},"vehicle_type_id":"4","last_reported":1724703027,"current_range_meters":0,"station_id":"","pricing_plan_id":"cebpf4jnsgd1na2vs0mg"},{"bike_id":"4f6043cb-fb74-4a3b-aaba-921ba564d9bf","system_id":"levelo_inurba_marseille","lat":43.31328,"lon":5.39691,"is_reserved":false,"is_disabled":false,"rental_uris":{"android":"levelo://app?vid=4f6043cb-fb74-4a3b-aaba-921ba564d9bf","ios":"levelo://app?vid=4f6043cb-fb74-4a3b-aaba-921ba564d9bf"},"vehicle_type_id":"4","last_reported":1724703027,"current_range_meters":21200,"station_id":"ce4bgvp2rcd13ifvqcu0","pricing_plan_id":"cebpf4jnsgd1na2vs0mg"},{"bike_id":"20c2841e-8e22-4fff-a5cd-aa64374c33bd","system_id":"levelo_inurba_marseille","lat":43.31328,"lon":5.39692,"is_reserved":false,"is_disabled":false,"rental_uris":{"android":"levelo://app?vid=20c2841e-8e22-4fff-a5cd-aa64374c33bd","ios":"levelo://app?vid=20c2841e-8e22-4fff-a5cd-aa64374c33bd"},"vehicle_type_id":"4","last_reported":1724703027,"current_range_meters":6000,"station_id":"ce4bgvp2rcd13ifvqcu0","pricing_plan_id":"cebpf4jnsgd1na2vs0mg"},{"bike_id":"c774416e-1652-4046-aea4-97373322ab9d","system_id":"levelo_inurba_marseille","lat":43.309038,"lon":5.396546,"is_reserved":false,"is_disabled":false,"rental_uris":{"android":"levelo://app?vid=c774416e-1652-4046-aea4-97373322ab9d","ios":"levelo://app?vid=c774416e-1652-4046-aea4-97373322ab9d"},"vehicle_type_id":"4","last_reported":1724703027,"current_range_meters":10000,"station_id":"ce4bh012rcd13ifvqcv0","pricing_plan_id":"cebpf4jnsgd1na2vs0mg"},{"bike_id":"4894e2ae-a768-454c-b74b-ef9cd4372181","system_id":"levelo_inurba_marseille","lat":43.31332,"lon":5.39693,"is_reserved":false,"is_disabled":false,"rental_uris":{"android":"levelo://app?vid=4894e2ae-a768-454c-b74b-ef9cd4372181","ios":"levelo://app?vid=4894e2ae-a768-454c-b74b-ef9cd4372181"},"vehicle_type_id":"4","last_reported":1724703027,"current_range_meters":22400,"station_id":"ce4bgvp2rcd13ifvqcu0","pricing_plan_id":"cebpf4jnsgd1na2vs0mg"},{"bike_id":"cdd7c0a4-00af-45ca-8fc3-42114c4b66f9","system_id":"levelo_inurba_marseille","lat":43.31327,"lon":5.39694,"is_reserved":false,"is_disabled":false,"rental_uris":{"android":"levelo://app?vid=cdd7c0a4-00af-45ca-8fc3-42114c4b66f9","ios":"levelo://app?vid=cdd7c0a4-00af-45ca-8fc3-42114c4b66f9"},"vehicle_type_id":"4","last_reported":1724703027,"current_range_meters":28800,"station_id":"ce4bgvp2rcd13ifvqcu0","pricing_plan_id":"cebpf4jnsgd1na2vs0mg"},{"bike_id":"45d008a7-7fed-4df9-a1ff-1331e35cbf4e","system_id":"levelo_inurba_marseille","lat":43.31327,"lon":5.39694,"is_reserved":false,"is_disabled":false,"rental_uris":{"android":"levelo://app?vid=45d008a7-7fed-4df9-a1ff-1331e35cbf4e","ios":"levelo://app?vid=45d008a7-7fed-4df9-a1ff-1331e35cbf4e"},"vehicle_type_id":"4","last_reported":1724703027,"current_range_meters":6800,"station_id":"ce4bgvp2rcd13ifvqcu0","pricing_plan_id":"cebpf4jnsgd1na2vs0mg"},{"bike_id":"1f35ed94-c8d6-43d3-9c9e-35b3a3ccf80d","system_id":"levelo_inurba_marseille","lat":43.309038,"lon":5.396546,"is_reserved":false,"is_disabled":false,"rental_uris":{"android":"levelo://app?vid=1f35ed94-c8d6-43d3-9c9e-35b3a3ccf80d","ios":"levelo://app?vid=1f35ed94-c8d6-43d3-9c9e-35b3a3ccf80d"},"vehicle_type_id":"4","last_reported":1724703027,"current_range_meters":2800,"station_id":"ce4bh012rcd13ifvqcv0","pricing_plan_id":"cebpf4jnsgd1na2vs0mg"},{"bike_id":"e3032a7b-665e-4ee3-8bd4-46a2b77236a4","system_id":"levelo_inurba_marseille","lat":43.31325,"lon":5.39695,"is_reserved":false,"is_disabled":false,"rental_uris":{"android":"levelo://app?vid=e3032a7b-665e-4ee3-8bd4-46a2b77236a4","ios":"levelo://app?vid=e3032a7b-665e-4ee3-8bd4-46a2b77236a4"},"vehicle_type_id":"4","last_reported":1724703027,"current_range_meters":2000,"station_id":"ce4bgvp2rcd13ifvqcu0","pricing_plan_id":"cebpf4jnsgd1na2vs0mg"},{"bike_id":"6c2ec593-4a92-49e3-94bd-8726b35624fd","system_id":"levelo_inurba_marseille","lat":43.31325,"lon":5.39695,"is_reserved":false,"is_disabled":false,"rental_uris":{"android":"levelo://app?vid=6c2ec593-4a92-49e3-94bd-8726b35624fd","ios":"levelo://app?vid=6c2ec593-4a92-49e3-94bd-8726b35624fd"},"vehicle_type_id":"4","last_reported":1724703027,"current_range_meters":16000,"station_id":"ce4bgvp2rcd13ifvqcu0","pricing_plan_id":"cebpf4jnsgd1na2vs0mg"},{"bike_id":"215ce1b2-2d13-42c6-85e0-409e5b065015","system_id":"levelo_inurba_marseille","lat":43.31327,"lon":5.39695,"is_reserved":false,"is_disabled":false,"rental_uris":{"android":"levelo://app?vid=215ce1b2-2d13-42c6-85e0-409e5b065015","ios":"levelo://app?vid=215ce1b2-2d13-42c6-85e0-409e5b065015"},"vehicle_type_id":"4","last_reported":1724703027,"current_range_meters":28800,"station_id":"ce4bgvp2rcd13ifvqcu0","pricing_plan_id":"cebpf4jnsgd1na2vs0mg"},{"bike_id":"fcfbb498-2f14-407d-9682-59accc45d3d2","system_id":"levelo_inurba_marseille","lat":43.31327,"lon":5.39696,"is_reserved":false,"is_disabled":false,"rental_uris":{"android":"levelo://app?vid=fcfbb498-2f14-407d-9682-59accc45d3d2","ios":"levelo://app?vid=fcfbb498-2f14-407d-9682-59accc45d3d2"},"vehicle_type_id":"4","last_reported":1724703027,"current_range_meters":4400,"station_id":"ce4bgvp2rcd13ifvqcu0","pricing_plan_id":"cebpf4jnsgd1na2vs0mg"},{"bike_id":"3033046b-4248-457e-b780-a17c5bfbe443","system_id":"levelo_inurba_marseille","lat":43.313291,"lon":5.396838,"is_reserved":false,"is_disabled":false,"rental_uris":{"android":"levelo://app?vid=3033046b-4248-457e-b780-a17c5bfbe443","ios":"levelo://app?vid=3033046b-4248-457e-b780-a17c5bfbe443"},"vehicle_type_id":"4","last_reported":1724703027,"current_range_meters":8400,"station_id":"ce4bgvp2rcd13ifvqcu0","pricing_plan_id":"cebpf4jnsgd1na2vs0mg"},{"bike_id":"4306603d-85c7-4d56-bbe6-ed708971c39d","system_id":"levelo_inurba_marseille","lat":43.309047,"lon":5.396551,"is_reserved":false,"is_disabled":false,"rental_uris":{"android":"levelo://app?vid=4306603d-85c7-4d56-bbe6-ed708971c39d","ios":"levelo://app?vid=4306603d-85c7-4d56-bbe6-ed708971c39d"},"vehicle_type_id":"4","last_reported":1724703027,"current_range_meters":12000,"station_id":"ce4bh012rcd13ifvqcv0","pricing_plan_id":"cebpf4jnsgd1na2vs0mg"},{"bike_id":"0eb2e848-9373-46b7-9e80-f81f864ea1b3","system_id":"levelo_inurba_marseille","lat":43.313291,"lon":5.396838,"is_reserved":false,"is_disabled":false,"rental_uris":{"android":"levelo://app?vid=0eb2e848-9373-46b7-9e80-f81f864ea1b3","ios":"levelo://app?vid=0eb2e848-9373-46b7-9e80-f81f864ea1b3"},"vehicle_type_id":"4","last_reported":1724703027,"current_range_meters":3200,"station_id":"ce4bgvp2rcd13ifvqcu0","pricing_plan_id":"cebpf4jnsgd1na2vs0mg"},{"bike_id":"f50f0348-1997-4f98-af34-8536a1f167e3","system_id":"levelo_inurba_marseille","lat":43.334253,"lon":5.361353,"is_reserved":false,"is_disabled":false,"rental_uris":{"android":"levelo://app?vid=f50f0348-1997-4f98-af34-8536a1f167e3","ios":"levelo://app?vid=f50f0348-1997-4f98-af34-8536a1f167e3"},"vehicle_type_id":"4","last_reported":1724703027,"current_range_meters":9600,"station_id":"","pricing_plan_id":"cebpf4jnsgd1na2vs0mg"},{"bike_id":"8e9a6088-7636-47e7-a425-e5d52525130d","system_id":"levelo_inurba_marseille","lat":43.29529,"lon":5.385581,"is_reserved":false,"is_disabled":false,"rental_uris":{"android":"levelo://app?vid=8e9a6088-7636-47e7-a425-e5d52525130d","ios":"levelo://app?vid=8e9a6088-7636-47e7-a425-e5d52525130d"},"vehicle_type_id":"4","last_reported":1724703027,"current_range_meters":11600,"station_id":"ce4bgih2rcd13ifvqba0","pricing_plan_id":"cebpf4jnsgd1na2vs0mg"},{"bike_id":"eb0e81d1-a5ba-491f-9342-2b452d14e177","system_id":"levelo_inurba_marseille","lat":43.309038,"lon":5.396546,"is_reserved":false,"is_disabled":false,"rental_uris":{"android":"levelo://app?vid=eb0e81d1-a5ba-491f-9342-2b452d14e177","ios":"levelo://app?vid=eb0e81d1-a5ba-491f-9342-2b452d14e177"},"vehicle_type_id":"4","last_reported":1724703027,"current_range_meters":25600,"station_id":"ce4bh012rcd13ifvqcv0","pricing_plan_id":"cebpf4jnsgd1na2vs0mg"},{"bike_id":"1fde5e06-3e81-442e-b016-104fd1f57725","system_id":"levelo_inurba_marseille","lat":43.29535,"lon":5.38543,"is_reserved":false,"is_disabled":false,"rental_uris":{"android":"levelo://app?vid=1fde5e06-3e81-442e-b016-104fd1f57725","ios":"levelo://app?vid=1fde5e06-3e81-442e-b016-104fd1f57725"},"vehicle_type_id":"4","last_reported":1724703027,"current_range_meters":14000,"station_id":"ce4bgih2rcd13ifvqba0","pricing_plan_id":"cebpf4jnsgd1na2vs0mg"},{"bike_id":"43fd7eb6-e19f-41b4-94fc-992eb70eed98","system_id":"levelo_inurba_marseille","lat":43.2953,"lon":5.38535,"is_reserved":false,"is_disabled":false,"rental_uris":{"android":"levelo://app?vid=43fd7eb6-e19f-41b4-94fc-992eb70eed98","ios":"levelo://app?vid=43fd7eb6-e19f-41b4-94fc-992eb70eed98"},"vehicle_type_id":"4","last_reported":1724703027,"current_range_meters":29600,"station_id":"ce4bgih2rcd13ifvqba0","pricing_plan_id":"cebpf4jnsgd1na2vs0mg"},{"bike_id":"d6ad1ba4-4d94-4939-9211-0b1830030236","system_id":"levelo_inurba_marseille","lat":43.29535,"lon":5.38547,"is_reserved":false,"is_disabled":false,"rental_uris":{"android":"levelo://app?vid=d6ad1ba4-4d94-4939-9211-0b1830030236","ios":"levelo://app?vid=d6ad1ba4-4d94-4939-9211-0b1830030236"},"vehicle_type_id":"4","last_reported":1724703027,"current_range_meters":8800,"station_id":"ce4bgih2rcd13ifvqba0","pricing_plan_id":"cebpf4jnsgd1na2vs0mg"},{"bike_id":"e4198c19-b3d3-42e9-8f3d-a225262da04c","system_id":"levelo_inurba_marseille","lat":43.29534,"lon":5.38548,"is_reserved":false,"is_disabled":false,"rental_uris":{"android":"levelo://app?vid=e4198c19-b3d3-42e9-8f3d-a225262da04c","ios":"levelo://app?vid=e4198c19-b3d3-42e9-8f3d-a225262da04c"},"vehicle_type_id":"4","last_reported":1724703027,"current_range_meters":20800,"station_id":"ce4bgih2rcd13ifvqba0","pricing_plan_id":"cebpf4jnsgd1na2vs0mg"},{"bike_id":"a3208f48-e9f0-47e6-8014-2f8bc506a99c","system_id":"levelo_inurba_marseille","lat":43.295293,"lon":5.385403,"is_reserved":false,"is_disabled":false,"rental_uris":{"android":"levelo://app?vid=a3208f48-e9f0-47e6-8014-2f8bc506a99c","ios":"levelo://app?vid=a3208f48-e9f0-47e6-8014-2f8bc506a99c"},"vehicle_type_id":"4","last_reported":1724703027,"current_range_meters":0,"station_id":"ce4bgih2rcd13ifvqba0","pricing_plan_id":"cebpf4jnsgd1na2vs0mg"},{"bike_id":"dc38236d-b7ea-4fe4-b977-63a037a40536","system_id":"levelo_inurba_marseille","lat":43.29529,"lon":5.385581,"is_reserved":false,"is_disabled":false,"rental_uris":{"android":"levelo://app?vid=dc38236d-b7ea-4fe4-b977-63a037a40536","ios":"levelo://app?vid=dc38236d-b7ea-4fe4-b977-63a037a40536"},"vehicle_type_id":"4","last_reported":1724703027,"current_range_meters":16400,"station_id":"ce4bgih2rcd13ifvqba0","pricing_plan_id":"cebpf4jnsgd1na2vs0mg"},{"bike_id":"45f483a8-0882-417b-b3ff-677ed1dd2c48","system_id":"levelo_inurba_marseille","lat":43.29529,"lon":5.385581,"is_reserved":false,"is_disabled":false,"rental_uris":{"android":"levelo://app?vid=45f483a8-0882-417b-b3ff-677ed1dd2c48","ios":"levelo://app?vid=45f483a8-0882-417b-b3ff-677ed1dd2c48"},"vehicle_type_id":"4","last_reported":1724703027,"current_range_meters":22000,"station_id":"ce4bgih2rcd13ifvqba0","pricing_plan_id":"cebpf4jnsgd1na2vs0mg"},{"bike_id":"c36ef198-cdcc-451e-9bf7-b13ffe079795","system_id":"levelo_inurba_marseille","lat":43.29524,"lon":5.38537,"is_reserved":false,"is_disabled":false,"rental_uris":{"android":"levelo://app?vid=c36ef198-cdcc-451e-9bf7-b13ffe079795","ios":"levelo://app?vid=c36ef198-cdcc-451e-9bf7-b13ffe079795"},"vehicle_type_id":"4","last_reported":1724703027,"current_range_meters":0,"station_id":"ce4bgih2rcd13ifvqba0","pricing_plan_id":"cebpf4jnsgd1na2vs0mg"},{"bike_id":"a6c73350-4b39-4bf1-a0e0-e3be7f90995d","system_id":"levelo_inurba_marseille","lat":43.29528,"lon":5.38547,"is_reserved":false,"is_disabled":false,"rental_uris":{"android":"levelo://app?vid=a6c73350-4b39-4bf1-a0e0-e3be7f90995d","ios":"levelo://app?vid=a6c73350-4b39-4bf1-a0e0-e3be7f90995d"},"vehicle_type_id":"4","last_reported":1724703027,"current_range_meters":23600,"station_id":"ce4bgih2rcd13ifvqba0","pricing_plan_id":"cebpf4jnsgd1na2vs0mg"},{"bike_id":"2b6d46b4-eae2-4fbc-a11d-92b89308e6d7","system_id":"levelo_inurba_marseille","lat":43.29527,"lon":5.38548,"is_reserved":false,"is_disabled":false,"rental_uris":{"android":"levelo://app?vid=2b6d46b4-eae2-4fbc-a11d-92b89308e6d7","ios":"levelo://app?vid=2b6d46b4-eae2-4fbc-a11d-92b89308e6d7"},"vehicle_type_id":"4","last_reported":1724703027,"current_range_meters":4800,"station_id":"ce4bgih2rcd13ifvqba0","pricing_plan_id":"cebpf4jnsgd1na2vs0mg"},{"bike_id":"54df19f7-8e22-4bb9-936e-1b689671e905","system_id":"levelo_inurba_marseille","lat":43.29529,"lon":5.385581,"is_reserved":false,"is_disabled":false,"rental_uris":{"android":"levelo://app?vid=54df19f7-8e22-4bb9-936e-1b689671e905","ios":"levelo://app?vid=54df19f7-8e22-4bb9-936e-1b689671e905"},"vehicle_type_id":"4","last_reported":1724703027,"current_range_meters":12000,"station_id":"ce4bgih2rcd13ifvqba0","pricing_plan_id":"cebpf4jnsgd1na2vs0mg"},{"bike_id":"67a837f4-e1d1-449c-8549-0e60f4f6132e","system_id":"levelo_inurba_marseille","lat":43.29529,"lon":5.385581,"is_reserved":false,"is_disabled":false,"rental_uris":{"android":"levelo://app?vid=67a837f4-e1d1-449c-8549-0e60f4f6132e","ios":"levelo://app?vid=67a837f4-e1d1-449c-8549-0e60f4f6132e"},"vehicle_type_id":"4","last_reported":1724703027,"current_range_meters":14000,"station_id":"ce4bgih2rcd13ifvqba0","pricing_plan_id":"cebpf4jnsgd1na2vs0mg"},{"bike_id":"537ddf1d-9374-4d72-bf96-2d355a7e0957","system_id":"levelo_inurba_marseille","lat":43.29522,"lon":5.38546,"is_reserved":false,"is_disabled":false,"rental_uris":{"android":"levelo://app?vid=537ddf1d-9374-4d72-bf96-2d355a7e0957","ios":"levelo://app?vid=537ddf1d-9374-4d72-bf96-2d355a7e0957"},"vehicle_type_id":"4","last_reported":1724703027,"current_range_meters":0,"station_id":"ce4bgih2rcd13ifvqba0","pricing_plan_id":"cebpf4jnsgd1na2vs0mg"},{"bike_id":"a8c3975b-5578-4474-89f4-e698ea3003df","system_id":"levelo_inurba_marseille","lat":43.290779,"lon":5.371482,"is_reserved":false,"is_disabled":false,"rental_uris":{"android":"levelo://app?vid=a8c3975b-5578-4474-89f4-e698ea3003df","ios":"levelo://app?vid=a8c3975b-5578-4474-89f4-e698ea3003df"},"vehicle_type_id":"4","last_reported":1724703027,"current_range_meters":29200,"station_id":"ce4bh5p2rcd13ifvqe4g","pricing_plan_id":"cebpf4jnsgd1na2vs0mg"},{"bike_id":"81787792-e640-4177-a363-0be87a9355a5","system_id":"levelo_inurba_marseille","lat":43.29064,"lon":5.371608,"is_reserved":false,"is_disabled":false,"rental_uris":{"android":"levelo://app?vid=81787792-e640-4177-a363-0be87a9355a5","ios":"levelo://app?vid=81787792-e640-4177-a363-0be87a9355a5"},"vehicle_type_id":"4","last_reported":1724703027,"current_range_meters":31200,"station_id":"ce4bh5p2rcd13ifvqe4g","pricing_plan_id":"cebpf4jnsgd1na2vs0mg"},{"bike_id":"bb3d52e5-57e2-4662-ad8d-faedaa073fd5","system_id":"levelo_inurba_marseille","lat":43.29064,"lon":5.37162,"is_reserved":false,"is_disabled":false,"rental_uris":{"android":"levelo://app?vid=bb3d52e5-57e2-4662-ad8d-faedaa073fd5","ios":"levelo://app?vid=bb3d52e5-57e2-4662-ad8d-faedaa073fd5"},"vehicle_type_id":"4","last_reported":1724703027,"current_range_meters":0,"station_id":"ce4bh5p2rcd13ifvqe4g","pricing_plan_id":"cebpf4jnsgd1na2vs0mg"},{"bike_id":"3e0b5e10-53bc-425d-b0be-37c4d1a94565","system_id":"levelo_inurba_marseille","lat":43.32459,"lon":5.39403,"is_reserved":false,"is_disabled":false,"rental_uris":{"android":"levelo://app?vid=3e0b5e10-53bc-425d-b0be-37c4d1a94565","ios":"levelo://app?vid=3e0b5e10-53bc-425d-b0be-37c4d1a94565"},"vehicle_type_id":"4","last_reported":1724703027,"current_range_meters":5600,"station_id":"","pricing_plan_id":"cebpf4jnsgd1na2vs0mg"},{"bike_id":"d28a7750-f375-4cce-b116-0ee6c18f0b0c","system_id":"levelo_inurba_marseille","lat":43.28951,"lon":5.36629,"is_reserved":false,"is_disabled":false,"rental_uris":{"android":"levelo://app?vid=d28a7750-f375-4cce-b116-0ee6c18f0b0c","ios":"levelo://app?vid=d28a7750-f375-4cce-b116-0ee6c18f0b0c"},"vehicle_type_id":"4","last_reported":1724703027,"current_range_meters":31200,"station_id":"ce4bhap2rcd13ifvqek0","pricing_plan_id":"cebpf4jnsgd1na2vs0mg"},{"bike_id":"44c3659d-ad66-4da7-987f-6865b1fd452b","system_id":"levelo_inurba_marseille","lat":43.29419,"lon":5.3862,"is_reserved":false,"is_disabled":false,"rental_uris":{"android":"levelo://app?vid=44c3659d-ad66-4da7-987f-6865b1fd452b","ios":"levelo://app?vid=44c3659d-ad66-4da7-987f-6865b1fd452b"},"vehicle_type_id":"4","last_reported":1724703027,"current_range_meters":0,"station_id":"ce4bh2h2rcd13ifvqdh0","pricing_plan_id":"cebpf4jnsgd1na2vs0mg"},{"bike_id":"19203f37-b3b0-49a8-b3d9-cee05669ae47","system_id":"levelo_inurba_marseille","lat":43.294162,"lon":5.386292,"is_reserved":false,"is_disabled":false,"rental_uris":{"android":"levelo://app?vid=19203f37-b3b0-49a8-b3d9-cee05669ae47","ios":"levelo://app?vid=19203f37-b3b0-49a8-b3d9-cee05669ae47"},"vehicle_type_id":"4","last_reported":1724703027,"current_range_meters":4400,"station_id":"ce4bh2h2rcd13ifvqdh0","pricing_plan_id":"cebpf4jnsgd1na2vs0mg"},{"bike_id":"b86993fa-468e-4d85-a16c-ab27bea38d58","system_id":"levelo_inurba_marseille","lat":43.294153,"lon":5.386305,"is_reserved":false,"is_disabled":false,"rental_uris":{"android":"levelo://app?vid=b86993fa-468e-4d85-a16c-ab27bea38d58","ios":"levelo://app?vid=b86993fa-468e-4d85-a16c-ab27bea38d58"},"vehicle_type_id":"4","last_reported":1724703027,"current_range_meters":0,"station_id":"ce4bh2h2rcd13ifvqdh0","pricing_plan_id":"cebpf4jnsgd1na2vs0mg"},{"bike_id":"b4f8a958-007d-4bfe-b0e6-e25f0a4bb820","system_id":"levelo_inurba_marseille","lat":43.29418,"lon":5.38624,"is_reserved":false,"is_disabled":false,"rental_uris":{"android":"levelo://app?vid=b4f8a958-007d-4bfe-b0e6-e25f0a4bb820","ios":"levelo://app?vid=b4f8a958-007d-4bfe-b0e6-e25f0a4bb820"},"vehicle_type_id":"4","last_reported":1724703027,"current_range_meters":15600,"station_id":"ce4bh2h2rcd13ifvqdh0","pricing_plan_id":"cebpf4jnsgd1na2vs0mg"},{"bike_id":"7c8609ba-f14e-4846-9f0b-66cdfa4d4ea0","system_id":"levelo_inurba_marseille","lat":43.29417,"lon":5.38623,"is_reserved":false,"is_disabled":false,"rental_uris":{"android":"levelo://app?vid=7c8609ba-f14e-4846-9f0b-66cdfa4d4ea0","ios":"levelo://app?vid=7c8609ba-f14e-4846-9f0b-66cdfa4d4ea0"},"vehicle_type_id":"4","last_reported":1724703027,"current_range_meters":0,"station_id":"ce4bh2h2rcd13ifvqdh0","pricing_plan_id":"cebpf4jnsgd1na2vs0mg"},{"bike_id":"48ac7d20-3d1b-44e4-95c1-57fe157f1180","system_id":"levelo_inurba_marseille","lat":43.29423,"lon":5.38634,"is_reserved":false,"is_disabled":false,"rental_uris":{"android":"levelo://app?vid=48ac7d20-3d1b-44e4-95c1-57fe157f1180","ios":"levelo://app?vid=48ac7d20-3d1b-44e4-95c1-57fe157f1180"},"vehicle_type_id":"4","last_reported":1724703027,"current_range_meters":0,"station_id":"ce4bh2h2rcd13ifvqdh0","pricing_plan_id":"cebpf4jnsgd1na2vs0mg"},{"bike_id":"755b4bf4-4308-453e-b7ff-fde9fde62db2","system_id":"levelo_inurba_marseille","lat":43.294162,"lon":5.386292,"is_reserved":false,"is_disabled":false,"rental_uris":{"android":"levelo://app?vid=755b4bf4-4308-453e-b7ff-fde9fde62db2","ios":"levelo://app?vid=755b4bf4-4308-453e-b7ff-fde9fde62db2"},"vehicle_type_id":"4","last_reported":1724703027,"current_range_meters":28000,"station_id":"ce4bh2h2rcd13ifvqdh0","pricing_plan_id":"cebpf4jnsgd1na2vs0mg"},{"bike_id":"3dbb0347-f37a-4976-a43d-1c4c7a2090c7","system_id":"levelo_inurba_marseille","lat":43.29418,"lon":5.38627,"is_reserved":false,"is_disabled":false,"rental_uris":{"android":"levelo://app?vid=3dbb0347-f37a-4976-a43d-1c4c7a2090c7","ios":"levelo://app?vid=3dbb0347-f37a-4976-a43d-1c4c7a2090c7"},"vehicle_type_id":"4","last_reported":1724703027,"current_range_meters":0,"station_id":"ce4bh2h2rcd13ifvqdh0","pricing_plan_id":"cebpf4jnsgd1na2vs0mg"},{"bike_id":"38d6b304-3893-4377-9c47-317952b4819f","system_id":"levelo_inurba_marseille","lat":43.29417,"lon":5.38627,"is_reserved":false,"is_disabled":false,"rental_uris":{"android":"levelo://app?vid=38d6b304-3893-4377-9c47-317952b4819f","ios":"levelo://app?vid=38d6b304-3893-4377-9c47-317952b4819f"},"vehicle_type_id":"4","last_reported":1724703027,"current_range_meters":15200,"station_id":"ce4bh2h2rcd13ifvqdh0","pricing_plan_id":"cebpf4jnsgd1na2vs0mg"},{"bike_id":"f215c349-8bcd-467d-abbe-1b1c7be5cddb","system_id":"levelo_inurba_marseille","lat":43.29418,"lon":5.38629,"is_reserved":false,"is_disabled":false,"rental_uris":{"android":"levelo://app?vid=f215c349-8bcd-467d-abbe-1b1c7be5cddb","ios":"levelo://app?vid=f215c349-8bcd-467d-abbe-1b1c7be5cddb"},"vehicle_type_id":"4","last_reported":1724703027,"current_range_meters":0,"station_id":"ce4bh2h2rcd13ifvqdh0","pricing_plan_id":"cebpf4jnsgd1na2vs0mg"},{"bike_id":"054e1396-d2c0-49a3-9ce0-cf85bd61df06","system_id":"levelo_inurba_marseille","lat":43.28944,"lon":5.36637,"is_reserved":false,"is_disabled":false,"rental_uris":{"android":"levelo://app?vid=054e1396-d2c0-49a3-9ce0-cf85bd61df06","ios":"levelo://app?vid=054e1396-d2c0-49a3-9ce0-cf85bd61df06"},"vehicle_type_id":"4","last_reported":1724703027,"current_range_meters":13200,"station_id":"ce4bhap2rcd13ifvqek0","pricing_plan_id":"cebpf4jnsgd1na2vs0mg"},{"bike_id":"196f8ed7-c3ff-4503-b74c-637b21d20f1c","system_id":"levelo_inurba_marseille","lat":43.294162,"lon":5.386292,"is_reserved":false,"is_disabled":false,"rental_uris":{"android":"levelo://app?vid=196f8ed7-c3ff-4503-b74c-637b21d20f1c","ios":"levelo://app?vid=196f8ed7-c3ff-4503-b74c-637b21d20f1c"},"vehicle_type_id":"4","last_reported":1724703027,"current_range_meters":20000,"station_id":"ce4bh2h2rcd13ifvqdh0","pricing_plan_id":"cebpf4jnsgd1na2vs0mg"},{"bike_id":"4aa6605a-b514-49a7-9ce6-cb8df17d91a7","system_id":"levelo_inurba_marseille","lat":43.29415,"lon":5.3863,"is_reserved":false,"is_disabled":false,"rental_uris":{"android":"levelo://app?vid=4aa6605a-b514-49a7-9ce6-cb8df17d91a7","ios":"levelo://app?vid=4aa6605a-b514-49a7-9ce6-cb8df17d91a7"},"vehicle_type_id":"4","last_reported":1724703027,"current_range_meters":0,"station_id":"ce4bh2h2rcd13ifvqdh0","pricing_plan_id":"cebpf4jnsgd1na2vs0mg"},{"bike_id":"ba9bdb78-c6aa-4a4c-925f-c72fa663d711","system_id":"levelo_inurba_marseille","lat":43.28941,"lon":5.36637,"is_reserved":false,"is_disabled":false,"rental_uris":{"android":"levelo://app?vid=ba9bdb78-c6aa-4a4c-925f-c72fa663d711","ios":"levelo://app?vid=ba9bdb78-c6aa-4a4c-925f-c72fa663d711"},"vehicle_type_id":"4","last_reported":1724703027,"current_range_meters":2400,"station_id":"ce4bhap2rcd13ifvqek0","pricing_plan_id":"cebpf4jnsgd1na2vs0mg"},{"bike_id":"1ad0a2c8-0282-402e-a68e-bf908851c671","system_id":"levelo_inurba_marseille","lat":43.294162,"lon":5.386292,"is_reserved":false,"is_disabled":false,"rental_uris":{"android":"levelo://app?vid=1ad0a2c8-0282-402e-a68e-bf908851c671","ios":"levelo://app?vid=1ad0a2c8-0282-402e-a68e-bf908851c671"},"vehicle_type_id":"4","last_reported":1724703027,"current_range_meters":7200,"station_id":"ce4bh2h2rcd13ifvqdh0","pricing_plan_id":"cebpf4jnsgd1na2vs0mg"},{"bike_id":"5cbec1cb-839d-4553-84e6-faa0cc42c40b","system_id":"levelo_inurba_marseille","lat":43.294162,"lon":5.386292,"is_reserved":false,"is_disabled":false,"rental_uris":{"android":"levelo://app?vid=5cbec1cb-839d-4553-84e6-faa0cc42c40b","ios":"levelo://app?vid=5cbec1cb-839d-4553-84e6-faa0cc42c40b"},"vehicle_type_id":"4","last_reported":1724703027,"current_range_meters":17200,"station_id":"ce4bh2h2rcd13ifvqdh0","pricing_plan_id":"cebpf4jnsgd1na2vs0mg"},{"bike_id":"0ac003fa-dd05-40b9-b555-b92543656abc","system_id":"levelo_inurba_marseille","lat":43.294162,"lon":5.386292,"is_reserved":false,"is_disabled":false,"rental_uris":{"android":"levelo://app?vid=0ac003fa-dd05-40b9-b555-b92543656abc","ios":"levelo://app?vid=0ac003fa-dd05-40b9-b555-b92543656abc"},"vehicle_type_id":"4","last_reported":1724703027,"current_range_meters":24000,"station_id":"ce4bh2h2rcd13ifvqdh0","pricing_plan_id":"cebpf4jnsgd1na2vs0mg"},{"bike_id":"bcc84b75-d20d-4c12-bd21-b44e3be03240","system_id":"levelo_inurba_marseille","lat":43.29414,"lon":5.38634,"is_reserved":false,"is_disabled":false,"rental_uris":{"android":"levelo://app?vid=bcc84b75-d20d-4c12-bd21-b44e3be03240","ios":"levelo://app?vid=bcc84b75-d20d-4c12-bd21-b44e3be03240"},"vehicle_type_id":"4","last_reported":1724703027,"current_range_meters":12000,"station_id":"ce4bh2h2rcd13ifvqdh0","pricing_plan_id":"cebpf4jnsgd1na2vs0mg"},{"bike_id":"81b2ed6a-0a63-4540-8c6a-e514e12dc940","system_id":"levelo_inurba_marseille","lat":43.294153,"lon":5.386305,"is_reserved":false,"is_disabled":false,"rental_uris":{"android":"levelo://app?vid=81b2ed6a-0a63-4540-8c6a-e514e12dc940","ios":"levelo://app?vid=81b2ed6a-0a63-4540-8c6a-e514e12dc940"},"vehicle_type_id":"4","last_reported":1724703027,"current_range_meters":17200,"station_id":"ce4bh2h2rcd13ifvqdh0","pricing_plan_id":"cebpf4jnsgd1na2vs0mg"},{"bike_id":"2ad660a3-1b8e-479f-96ea-08632c050289","system_id":"levelo_inurba_marseille","lat":43.28936,"lon":5.36638,"is_reserved":false,"is_disabled":false,"rental_uris":{"android":"levelo://app?vid=2ad660a3-1b8e-479f-96ea-08632c050289","ios":"levelo://app?vid=2ad660a3-1b8e-479f-96ea-08632c050289"},"vehicle_type_id":"4","last_reported":1724703027,"current_range_meters":0,"station_id":"ce4bhap2rcd13ifvqek0","pricing_plan_id":"cebpf4jnsgd1na2vs0mg"},{"bike_id":"0fc742d0-3796-4ed3-8190-2f8efdd3d888","system_id":"levelo_inurba_marseille","lat":43.289355,"lon":5.36636,"is_reserved":false,"is_disabled":false,"rental_uris":{"android":"levelo://app?vid=0fc742d0-3796-4ed3-8190-2f8efdd3d888","ios":"levelo://app?vid=0fc742d0-3796-4ed3-8190-2f8efdd3d888"},"vehicle_type_id":"4","last_reported":1724703027,"current_range_meters":31200,"station_id":"ce4bhap2rcd13ifvqek0","pricing_plan_id":"cebpf4jnsgd1na2vs0mg"},{"bike_id":"ee57f0e8-bff2-4316-9a01-93250effc6f2","system_id":"levelo_inurba_marseille","lat":43.289184,"lon":5.366408,"is_reserved":false,"is_disabled":false,"rental_uris":{"android":"levelo://app?vid=ee57f0e8-bff2-4316-9a01-93250effc6f2","ios":"levelo://app?vid=ee57f0e8-bff2-4316-9a01-93250effc6f2"},"vehicle_type_id":"4","last_reported":1724703027,"current_range_meters":0,"station_id":"ce4bhap2rcd13ifvqek0","pricing_plan_id":"cebpf4jnsgd1na2vs0mg"},{"bike_id":"0c597a14-9b25-4760-b546-31724ff18c06","system_id":"levelo_inurba_marseille","lat":43.289372,"lon":5.363866,"is_reserved":false,"is_disabled":false,"rental_uris":{"android":"levelo://app?vid=0c597a14-9b25-4760-b546-31724ff18c06","ios":"levelo://app?vid=0c597a14-9b25-4760-b546-31724ff18c06"},"vehicle_type_id":"4","last_reported":1724703027,"current_range_meters":0,"station_id":"ce4bhc92rcd13ifvqetg","pricing_plan_id":"cebpf4jnsgd1na2vs0mg"},{"bike_id":"653d2731-b89f-4319-926c-7e57bd4329f8","system_id":"levelo_inurba_marseille","lat":43.289305,"lon":5.363863,"is_reserved":false,"is_disabled":false,"rental_uris":{"android":"levelo://app?vid=653d2731-b89f-4319-926c-7e57bd4329f8","ios":"levelo://app?vid=653d2731-b89f-4319-926c-7e57bd4329f8"},"vehicle_type_id":"4","last_reported":1724703027,"current_range_meters":0,"station_id":"ce4bhc92rcd13ifvqetg","pricing_plan_id":"cebpf4jnsgd1na2vs0mg"},{"bike_id":"b3535125-53c7-426d-a921-92d14d90ae53","system_id":"levelo_inurba_marseille","lat":43.304274,"lon":5.397513,"is_reserved":false,"is_disabled":false,"rental_uris":{"android":"levelo://app?vid=b3535125-53c7-426d-a921-92d14d90ae53","ios":"levelo://app?vid=b3535125-53c7-426d-a921-92d14d90ae53"},"vehicle_type_id":"4","last_reported":1724703027,"current_range_meters":800,"station_id":"ce4bh092rcd13ifvqd20","pricing_plan_id":"cebpf4jnsgd1na2vs0mg"},{"bike_id":"2cac0536-8218-43fd-a74d-5d5e61923538","system_id":"levelo_inurba_marseille","lat":43.29267,"lon":5.38445,"is_reserved":false,"is_disabled":false,"rental_uris":{"android":"levelo://app?vid=2cac0536-8218-43fd-a74d-5d5e61923538","ios":"levelo://app?vid=2cac0536-8218-43fd-a74d-5d5e61923538"},"vehicle_type_id":"4","last_reported":1724703027,"current_range_meters":4400,"station_id":"ce4bh692rcd13ifvqea0","pricing_plan_id":"cebpf4jnsgd1na2vs0mg"},{"bike_id":"829e076c-3ad7-462c-b4e6-37edc6eb7296","system_id":"levelo_inurba_marseille","lat":43.29267,"lon":5.38446,"is_reserved":false,"is_disabled":false,"rental_uris":{"android":"levelo://app?vid=829e076c-3ad7-462c-b4e6-37edc6eb7296","ios":"levelo://app?vid=829e076c-3ad7-462c-b4e6-37edc6eb7296"},"vehicle_type_id":"4","last_reported":1724703027,"current_range_meters":16400,"station_id":"ce4bh692rcd13ifvqea0","pricing_plan_id":"cebpf4jnsgd1na2vs0mg"},{"bike_id":"9b994865-6346-4bbf-884a-dff8f134134e","system_id":"levelo_inurba_marseille","lat":43.29264,"lon":5.38442,"is_reserved":false,"is_disabled":false,"rental_uris":{"android":"levelo://app?vid=9b994865-6346-4bbf-884a-dff8f134134e","ios":"levelo://app?vid=9b994865-6346-4bbf-884a-dff8f134134e"},"vehicle_type_id":"4","last_reported":1724703027,"current_range_meters":0,"station_id":"ce4bh692rcd13ifvqea0","pricing_plan_id":"cebpf4jnsgd1na2vs0mg"},{"bike_id":"49b488e8-e844-46b8-a02d-7d23752ebbff","system_id":"levelo_inurba_marseille","lat":43.29262,"lon":5.38442,"is_reserved":false,"is_disabled":false,"rental_uris":{"android":"levelo://app?vid=49b488e8-e844-46b8-a02d-7d23752ebbff","ios":"levelo://app?vid=49b488e8-e844-46b8-a02d-7d23752ebbff"},"vehicle_type_id":"4","last_reported":1724703027,"current_range_meters":0,"station_id":"ce4bh692rcd13ifvqea0","pricing_plan_id":"cebpf4jnsgd1na2vs0mg"},{"bike_id":"19463402-82ae-44e0-8467-e9a4812563cf","system_id":"levelo_inurba_marseille","lat":43.29259,"lon":5.38439,"is_reserved":false,"is_disabled":false,"rental_uris":{"android":"levelo://app?vid=19463402-82ae-44e0-8467-e9a4812563cf","ios":"levelo://app?vid=19463402-82ae-44e0-8467-e9a4812563cf"},"vehicle_type_id":"4","last_reported":1724703027,"current_range_meters":16800,"station_id":"ce4bh692rcd13ifvqea0","pricing_plan_id":"cebpf4jnsgd1na2vs0mg"},{"bike_id":"6731c1b6-1cef-4888-9cd3-fcb1f14bcbfd","system_id":"levelo_inurba_marseille","lat":43.29263,"lon":5.38451,"is_reserved":false,"is_disabled":false,"rental_uris":{"android":"levelo://app?vid=6731c1b6-1cef-4888-9cd3-fcb1f14bcbfd","ios":"levelo://app?vid=6731c1b6-1cef-4888-9cd3-fcb1f14bcbfd"},"vehicle_type_id":"4","last_reported":1724703027,"current_range_meters":30800,"station_id":"ce4bh692rcd13ifvqea0","pricing_plan_id":"cebpf4jnsgd1na2vs0mg"},{"bike_id":"4e64957c-b156-4dd2-92fc-5d52b009a87c","system_id":"levelo_inurba_marseille","lat":43.29257,"lon":5.38439,"is_reserved":false,"is_disabled":false,"rental_uris":{"android":"levelo://app?vid=4e64957c-b156-4dd2-92fc-5d52b009a87c","ios":"levelo://app?vid=4e64957c-b156-4dd2-92fc-5d52b009a87c"},"vehicle_type_id":"4","last_reported":1724703027,"current_range_meters":0,"station_id":"ce4bh692rcd13ifvqea0","pricing_plan_id":"cebpf4jnsgd1na2vs0mg"},{"bike_id":"a6b3cffc-5c54-4c47-ba19-a23c03a58f1c","system_id":"levelo_inurba_marseille","lat":43.292593,"lon":5.384448,"is_reserved":false,"is_disabled":false,"rental_uris":{"android":"levelo://app?vid=a6b3cffc-5c54-4c47-ba19-a23c03a58f1c","ios":"levelo://app?vid=a6b3cffc-5c54-4c47-ba19-a23c03a58f1c"},"vehicle_type_id":"4","last_reported":1724703027,"current_range_meters":10000,"station_id":"ce4bh692rcd13ifvqea0","pricing_plan_id":"cebpf4jnsgd1na2vs0mg"},{"bike_id":"46f58120-6148-4bb0-9c91-8563e037e1a5","system_id":"levelo_inurba_marseille","lat":43.29319,"lon":5.38569,"is_reserved":false,"is_disabled":false,"rental_uris":{"android":"levelo://app?vid=46f58120-6148-4bb0-9c91-8563e037e1a5","ios":"levelo://app?vid=46f58120-6148-4bb0-9c91-8563e037e1a5"},"vehicle_type_id":"4","last_reported":1724703027,"current_range_meters":23200,"station_id":"ce4bh2h2rcd13ifvqdh0","pricing_plan_id":"cebpf4jnsgd1na2vs0mg"},{"bike_id":"adf8aa61-9c80-4d4f-8a3c-4b3c7d6677af","system_id":"levelo_inurba_marseille","lat":43.290104,"lon":5.356111,"is_reserved":false,"is_disabled":false,"rental_uris":{"android":"levelo://app?vid=adf8aa61-9c80-4d4f-8a3c-4b3c7d6677af","ios":"levelo://app?vid=adf8aa61-9c80-4d4f-8a3c-4b3c7d6677af"},"vehicle_type_id":"4","last_reported":1724703027,"current_range_meters":31200,"station_id":"ce4bhb92rcd13ifvqen0","pricing_plan_id":"cebpf4jnsgd1na2vs0mg"},{"bike_id":"3d8a1d8c-7325-4d8b-b96a-28d88b2a153a","system_id":"levelo_inurba_marseille","lat":43.290995,"lon":5.381361,"is_reserved":false,"is_disabled":false,"rental_uris":{"android":"levelo://app?vid=3d8a1d8c-7325-4d8b-b96a-28d88b2a153a","ios":"levelo://app?vid=3d8a1d8c-7325-4d8b-b96a-28d88b2a153a"},"vehicle_type_id":"4","last_reported":1724703027,"current_range_meters":17600,"station_id":"ce4bh512rcd13ifvqe2g","pricing_plan_id":"cebpf4jnsgd1na2vs0mg"},{"bike_id":"d601fd64-4cb0-4c99-938d-e474c68c881b","system_id":"levelo_inurba_marseille","lat":43.290995,"lon":5.381361,"is_reserved":false,"is_disabled":false,"rental_uris":{"android":"levelo://app?vid=d601fd64-4cb0-4c99-938d-e474c68c881b","ios":"levelo://app?vid=d601fd64-4cb0-4c99-938d-e474c68c881b"},"vehicle_type_id":"4","last_reported":1724703027,"current_range_meters":14000,"station_id":"ce4bh512rcd13ifvqe2g","pricing_plan_id":"cebpf4jnsgd1na2vs0mg"},{"bike_id":"381134d8-dc12-4c64-9d6b-73a78dc5f02c","system_id":"levelo_inurba_marseille","lat":43.290995,"lon":5.381361,"is_reserved":false,"is_disabled":false,"rental_uris":{"android":"levelo://app?vid=381134d8-dc12-4c64-9d6b-73a78dc5f02c","ios":"levelo://app?vid=381134d8-dc12-4c64-9d6b-73a78dc5f02c"},"vehicle_type_id":"4","last_reported":1724703027,"current_range_meters":28400,"station_id":"ce4bh512rcd13ifvqe2g","pricing_plan_id":"cebpf4jnsgd1na2vs0mg"},{"bike_id":"9781f719-0cc6-4704-90dc-f651db755123","system_id":"levelo_inurba_marseille","lat":43.295169,"lon":5.390426,"is_reserved":false,"is_disabled":false,"rental_uris":{"android":"levelo://app?vid=9781f719-0cc6-4704-90dc-f651db755123","ios":"levelo://app?vid=9781f719-0cc6-4704-90dc-f651db755123"},"vehicle_type_id":"4","last_reported":1724703027,"current_range_meters":25200,"station_id":"ce4bh3p2rcd13ifvqdp0","pricing_plan_id":"cebpf4jnsgd1na2vs0mg"},{"bike_id":"38c206ed-96b1-4f0c-9c6c-8bd3565c61ce","system_id":"levelo_inurba_marseille","lat":43.297807,"lon":5.393533,"is_reserved":false,"is_disabled":false,"rental_uris":{"android":"levelo://app?vid=38c206ed-96b1-4f0c-9c6c-8bd3565c61ce","ios":"levelo://app?vid=38c206ed-96b1-4f0c-9c6c-8bd3565c61ce"},"vehicle_type_id":"4","last_reported":1724703027,"current_range_meters":27600,"station_id":"chh1huq6cuj3fo74tm60","pricing_plan_id":"cebpf4jnsgd1na2vs0mg"},{"bike_id":"d5d44028-bc36-42d6-af8d-2a554650ed9c","system_id":"levelo_inurba_marseille","lat":43.297807,"lon":5.393533,"is_reserved":false,"is_disabled":false,"rental_uris":{"android":"levelo://app?vid=d5d44028-bc36-42d6-af8d-2a554650ed9c","ios":"levelo://app?vid=d5d44028-bc36-42d6-af8d-2a554650ed9c"},"vehicle_type_id":"4","last_reported":1724703027,"current_range_meters":14000,"station_id":"chh1huq6cuj3fo74tm60","pricing_plan_id":"cebpf4jnsgd1na2vs0mg"},{"bike_id":"f910abe4-7065-4731-881e-a483d71f02f3","system_id":"levelo_inurba_marseille","lat":43.297807,"lon":5.393533,"is_reserved":false,"is_disabled":false,"rental_uris":{"android":"levelo://app?vid=f910abe4-7065-4731-881e-a483d71f02f3","ios":"levelo://app?vid=f910abe4-7065-4731-881e-a483d71f02f3"},"vehicle_type_id":"4","last_reported":1724703027,"current_range_meters":30800,"station_id":"chh1huq6cuj3fo74tm60","pricing_plan_id":"cebpf4jnsgd1na2vs0mg"},{"bike_id":"b4b571b1-62de-4de9-bd83-fe76bdc9bde9","system_id":"levelo_inurba_marseille","lat":43.295169,"lon":5.390426,"is_reserved":false,"is_disabled":false,"rental_uris":{"android":"levelo://app?vid=b4b571b1-62de-4de9-bd83-fe76bdc9bde9","ios":"levelo://app?vid=b4b571b1-62de-4de9-bd83-fe76bdc9bde9"},"vehicle_type_id":"4","last_reported":1724703027,"current_range_meters":31200,"station_id":"ce4bh3p2rcd13ifvqdp0","pricing_plan_id":"cebpf4jnsgd1na2vs0mg"},{"bike_id":"9f841fb9-f06a-4f4c-acb4-cfd9cc7d2af2","system_id":"levelo_inurba_marseille","lat":43.297815,"lon":5.393548,"is_reserved":false,"is_disabled":false,"rental_uris":{"android":"levelo://app?vid=9f841fb9-f06a-4f4c-acb4-cfd9cc7d2af2","ios":"levelo://app?vid=9f841fb9-f06a-4f4c-acb4-cfd9cc7d2af2"},"vehicle_type_id":"4","last_reported":1724703027,"current_range_meters":22400,"station_id":"chh1huq6cuj3fo74tm60","pricing_plan_id":"cebpf4jnsgd1na2vs0mg"},{"bike_id":"c37c02ef-e1fd-48c8-8e10-72292796e4ee","system_id":"levelo_inurba_marseille","lat":43.297815,"lon":5.393548,"is_reserved":false,"is_disabled":false,"rental_uris":{"android":"levelo://app?vid=c37c02ef-e1fd-48c8-8e10-72292796e4ee","ios":"levelo://app?vid=c37c02ef-e1fd-48c8-8e10-72292796e4ee"},"vehicle_type_id":"4","last_reported":1724703027,"current_range_meters":7600,"station_id":"chh1huq6cuj3fo74tm60","pricing_plan_id":"cebpf4jnsgd1na2vs0mg"},{"bike_id":"0070ee8a-9b49-4e65-8035-66a51343a8fc","system_id":"levelo_inurba_marseille","lat":43.289741,"lon":5.378306,"is_reserved":false,"is_disabled":false,"rental_uris":{"android":"levelo://app?vid=0070ee8a-9b49-4e65-8035-66a51343a8fc","ios":"levelo://app?vid=0070ee8a-9b49-4e65-8035-66a51343a8fc"},"vehicle_type_id":"4","last_reported":1724703027,"current_range_meters":9200,"station_id":"ce4bh9p2rcd13ifvqed0","pricing_plan_id":"cebpf4jnsgd1na2vs0mg"},{"bike_id":"b7c16e28-ad0a-4330-8b39-35eb32608667","system_id":"levelo_inurba_marseille","lat":43.295169,"lon":5.390426,"is_reserved":false,"is_disabled":false,"rental_uris":{"android":"levelo://app?vid=b7c16e28-ad0a-4330-8b39-35eb32608667","ios":"levelo://app?vid=b7c16e28-ad0a-4330-8b39-35eb32608667"},"vehicle_type_id":"4","last_reported":1724703027,"current_range_meters":23600,"station_id":"ce4bh3p2rcd13ifvqdp0","pricing_plan_id":"cebpf4jnsgd1na2vs0mg"},{"bike_id":"ff5a67e8-7448-47ea-969a-7ee519525fa1","system_id":"levelo_inurba_marseille","lat":43.33024,"lon":5.39035,"is_reserved":false,"is_disabled":false,"rental_uris":{"android":"levelo://app?vid=ff5a67e8-7448-47ea-969a-7ee519525fa1","ios":"levelo://app?vid=ff5a67e8-7448-47ea-969a-7ee519525fa1"},"vehicle_type_id":"4","last_reported":1724703027,"current_range_meters":5200,"station_id":"ce4bhr92rcd13ifvqhrg","pricing_plan_id":"cebpf4jnsgd1na2vs0mg"},{"bike_id":"0c6aa4c4-aa64-4f7c-bc59-9a58750f8af4","system_id":"levelo_inurba_marseille","lat":43.330442,"lon":5.389148,"is_reserved":false,"is_disabled":false,"rental_uris":{"android":"levelo://app?vid=0c6aa4c4-aa64-4f7c-bc59-9a58750f8af4","ios":"levelo://app?vid=0c6aa4c4-aa64-4f7c-bc59-9a58750f8af4"},"vehicle_type_id":"4","last_reported":1724703027,"current_range_meters":26800,"station_id":"ce4bhr92rcd13ifvqhrg","pricing_plan_id":"cebpf4jnsgd1na2vs0mg"},{"bike_id":"d74f8e03-6953-4ea3-bafd-ccae5b05d505","system_id":"levelo_inurba_marseille","lat":43.33026,"lon":5.39033,"is_reserved":false,"is_disabled":false,"rental_uris":{"android":"levelo://app?vid=d74f8e03-6953-4ea3-bafd-ccae5b05d505","ios":"levelo://app?vid=d74f8e03-6953-4ea3-bafd-ccae5b05d505"},"vehicle_type_id":"4","last_reported":1724703027,"current_range_meters":0,"station_id":"ce4bhr92rcd13ifvqhrg","pricing_plan_id":"cebpf4jnsgd1na2vs0mg"},{"bike_id":"d0983350-b54b-45b4-9b64-77d38941eeab","system_id":"levelo_inurba_marseille","lat":43.33025,"lon":5.39035,"is_reserved":false,"is_disabled":false,"rental_uris":{"android":"levelo://app?vid=d0983350-b54b-45b4-9b64-77d38941eeab","ios":"levelo://app?vid=d0983350-b54b-45b4-9b64-77d38941eeab"},"vehicle_type_id":"4","last_reported":1724703027,"current_range_meters":5200,"station_id":"ce4bhr92rcd13ifvqhrg","pricing_plan_id":"cebpf4jnsgd1na2vs0mg"},{"bike_id":"a6c629cf-4703-4e79-ad47-53eed6b30de6","system_id":"levelo_inurba_marseille","lat":43.330442,"lon":5.389148,"is_reserved":false,"is_disabled":false,"rental_uris":{"android":"levelo://app?vid=a6c629cf-4703-4e79-ad47-53eed6b30de6","ios":"levelo://app?vid=a6c629cf-4703-4e79-ad47-53eed6b30de6"},"vehicle_type_id":"4","last_reported":1724703027,"current_range_meters":4800,"station_id":"ce4bhr92rcd13ifvqhrg","pricing_plan_id":"cebpf4jnsgd1na2vs0mg"},{"bike_id":"a4ee48a2-250f-43b2-b711-cf0b65704851","system_id":"levelo_inurba_marseille","lat":43.330442,"lon":5.389148,"is_reserved":false,"is_disabled":false,"rental_uris":{"android":"levelo://app?vid=a4ee48a2-250f-43b2-b711-cf0b65704851","ios":"levelo://app?vid=a4ee48a2-250f-43b2-b711-cf0b65704851"},"vehicle_type_id":"4","last_reported":1724703027,"current_range_meters":24400,"station_id":"ce4bhr92rcd13ifvqhrg","pricing_plan_id":"cebpf4jnsgd1na2vs0mg"},{"bike_id":"7961e13e-2fff-4d3b-bc59-51d94f695760","system_id":"levelo_inurba_marseille","lat":43.330442,"lon":5.389148,"is_reserved":false,"is_disabled":false,"rental_uris":{"android":"levelo://app?vid=7961e13e-2fff-4d3b-bc59-51d94f695760","ios":"levelo://app?vid=7961e13e-2fff-4d3b-bc59-51d94f695760"},"vehicle_type_id":"4","last_reported":1724703027,"current_range_meters":12800,"station_id":"ce4bhr92rcd13ifvqhrg","pricing_plan_id":"cebpf4jnsgd1na2vs0mg"},{"bike_id":"df82d867-d35e-45fb-a81e-c355f8e68cdc","system_id":"levelo_inurba_marseille","lat":43.330442,"lon":5.389148,"is_reserved":false,"is_disabled":false,"rental_uris":{"android":"levelo://app?vid=df82d867-d35e-45fb-a81e-c355f8e68cdc","ios":"levelo://app?vid=df82d867-d35e-45fb-a81e-c355f8e68cdc"},"vehicle_type_id":"4","last_reported":1724703027,"current_range_meters":11600,"station_id":"ce4bhr92rcd13ifvqhrg","pricing_plan_id":"cebpf4jnsgd1na2vs0mg"},