{"last_updated":1768842965,"ttl":60,"version":"2.2","data":{"bikes":[{"bike_id":"fe7924b7-318d-4cef-8531-798fce27b8d9","system_id":"levelo_inurba_marseille","lat":43.286129,"lon":5.398682,"is_reserved":false,"is_disabled":false,"rental_uris":{"android":"levelo://app?vid=fe7924b7-318d-4cef-8531-798fce27b8d9","ios":"levelo://app?vid=fe7924b7-318d-4cef-8531-798fce27b8d9"},"vehicle_type_id":"4","last_reported":1768842965,"current_range_meters":2800,"station_id":"st_d4a7ka997mjs738ck50g","pricing_plan_id":"cebpf4jnsgd1na2vs0mg"},{"bike_id":"0217887a-8c5b-44bd-a806-474e51ffaf08","system_id":"levelo_inurba_marseille","lat":43.2799,"lon":5.41647,"is_reserved":false,"is_disabled":false,"rental_uris":{"android":"levelo://app?vid=0217887a-8c5b-44bd-a806-474e51ffaf08","ios":"levelo://app?vid=0217887a-8c5b-44bd-a806-474e51ffaf08"},"vehicle_type_id":"4","last_reported":1768842965,"current_range_meters":2800,"station_id":"ce4bho12rcd13ifvqh1g","pricing_plan_id":"cebpf4jnsgd1na2vs0mg"},{"bike_id":"7a3d6bfa-2a17-45dc-9bc6-21ef2b67d4a5","system_id":"levelo_inurba_marseille","lat":43.31383,"lon":5.37514,"is_reserved":false,"is_disabled":false,"rental_uris":{"android":"levelo://app?vid=7a3d6bfa-2a17-45dc-9bc6-21ef2b67d4a5","ios":"levelo://app?vid=7a3d6bfa-2a17-45dc-9bc6-21ef2b67d4a5"},"vehicle_type_id":"4","last_reported":1768842965,"current_range_meters":2800,"station_id":"ce4bgt12rcd13ifvqcd0","pricing_plan_id":"cebpf4jnsgd1na2vs0mg"},{"bike_id":"79f3f122-9f89-4f99-9887-dff31882f49b","system_id":"levelo_inurba_marseille","lat":43.31072,"lon":5.38357,"is_reserved":false,"is_disabled":false,"rental_uris":{"android":"levelo://app?vid=79f3f122-9f89-4f99-9887-dff31882f49b","ios":"levelo://app?vid=79f3f122-9f89-4f99-9887-dff31882f49b"},"vehicle_type_id":"4","last_reported":1768842965,"current_range_meters":2800,"station_id":"ce4bgv92rcd13ifvqcr0","pricing_plan_id":"cebpf4jnsgd1na2vs0mg"},{"bike_id":"295b7637-50fc-408f-933b-54632a076cab","system_id":"levelo_inurba_marseille","lat":43.284725,"lon":5.384184,"is_reserved":false,"is_disabled":false,"rental_uris":{"android":"levelo://app?vid=295b7637-50fc-408f-933b-54632a076cab","ios":"levelo://app?vid=295b7637-50fc-408f-933b-54632a076cab"},"vehicle_type_id":"4","last_reported":1768842965,"current_range_meters":2800,"station_id":"","pricing_plan_id":"cebpf4jnsgd1na2vs0mg"},{"bike_id":"4074827b-9367-49e4-97dc-cc69d5d31612","system_id":"levelo_inurba_marseille","lat":43.25362,"lon":5.42177,"is_reserved":false,"is_disabled":false,"rental_uris":{"android":"levelo://app?vid=4074827b-9367-49e4-97dc-cc69d5d31612","ios":"levelo://app?vid=4074827b-9367-49e4-97dc-cc69d5d31612"},"vehicle_type_id":"4","last_reported":1768842965,"current_range_meters":2800,"station_id":"st_d2m65c5bi1j21697t3ng","pricing_plan_id":"cebpf4jnsgd1na2vs0mg"},{"bike_id":"eb530094-7d39-4890-85ff-5b0790a5172f","system_id":"levelo_inurba_marseille","lat":43.25539,"lon":5.43232,"is_reserved":false,"is_disabled":false,"rental_uris":{"android":"levelo://app?vid=eb530094-7d39-4890-85ff-5b0790a5172f","ios":"levelo://app?vid=eb530094-7d39-4890-85ff-5b0790a5172f"},"vehicle_type_id":"4","last_reported":1768842965,"current_range_meters":2800,"station_id":"","pricing_plan_id":"cebpf4jnsgd1na2vs0mg"},{"bike_id":"ee5a5513-9417-4366-ad57-ae7f24569952","system_id":"levelo_inurba_marseille","lat":43.24792,"lon":5.3748,"is_reserved":false,"is_disabled":false,"rental_uris":{"android":"levelo://app?vid=ee5a5513-9417-4366-ad57-ae7f24569952","ios":"levelo://app?vid=ee5a5513-9417-4366-ad57-ae7f24569952"},"vehicle_type_id":"4","last_reported":1768842965,"current_range_meters":2800,"station_id":"ce4bhgh2rcd13ifvqfb0","pricing_plan_id":"cebpf4jnsgd1na2vs0mg"},{"bike_id":"4faa1e6c-4a91-44dd-8370-e7a7848122c8","system_id":"levelo_inurba_marseille","lat":43.24467,"lon":5.4253,"is_reserved":false,"is_disabled":false,"rental_uris":{"android":"levelo://app?vid=4faa1e6c-4a91-44dd-8370-e7a7848122c8","ios":"levelo://app?vid=4faa1e6c-4a91-44dd-8370-e7a7848122c8"},"vehicle_type_id":"4","last_reported":1768842965,"current_range_meters":2800,"station_id":"st_d4a3vfp97mjs738cd8kg","pricing_plan_id":"cebpf4jnsgd1na2vs0mg"},{"bike_id":"4d57c879-6d5d-4c97-ab51-f9c4883e5bb2","system_id":"levelo_inurba_marseille","lat":43.24395,"lon":5.37075,"is_reserved":false,"is_disabled":false,"rental_uris":{"android":"levelo://app?vid=4d57c879-6d5d-4c97-ab51-f9c4883e5bb2","ios":"levelo://app?vid=4d57c879-6d5d-4c97-ab51-f9c4883e5bb2"},"vehicle_type_id":"4","last_reported":1768842965,"current_range_meters":2800,"station_id":"ce4bhhh2rcd13ifvqfk0","pricing_plan_id":"cebpf4jnsgd1na2vs0mg"},{"bike_id":"c51ed99d-dfd4-4f0c-8724-bbb4302e8fe8","system_id":"levelo_inurba_marseille","lat":43.30416,"lon":5.41293,"is_reserved":false,"is_disabled":false,"rental_uris":{"android":"levelo://app?vid=c51ed99d-dfd4-4f0c-8724-bbb4302e8fe8","ios":"levelo://app?vid=c51ed99d-dfd4-4f0c-8724-bbb4302e8fe8"},"vehicle_type_id":"4","last_reported":1768842965,"current_range_meters":2800,"station_id":"ce4bhop2rcd13ifvqh8g","pricing_plan_id":"cebpf4jnsgd1na2vs0mg"},{"bike_id":"fac5b6df-9a47-4e46-be53-c56df5ec2b27","system_id":"levelo_inurba_marseille","lat":43.225563,"lon":5.416261,"is_reserved":false,"is_disabled":true,"rental_uris":{"android":"levelo://app?vid=fac5b6df-9a47-4e46-be53-c56df5ec2b27","ios":"levelo://app?vid=fac5b6df-9a47-4e46-be53-c56df5ec2b27"},"vehicle_type_id":"4","last_reported":1768842965,"current_range_meters":2800,"station_id":"st_d2o4gvlbi1j2169b742g","pricing_plan_id":"cebpf4jnsgd1na2vs0mg"},{"bike_id":"4bffa755-c138-4f09-ac9b-6c7e05ba395b","system_id":"levelo_inurba_marseille","lat":43.26366,"lon":5.41081,"is_reserved":false,"is_disabled":false,"rental_uris":{"android":"levelo://app?vid=4bffa755-c138-4f09-ac9b-6c7e05ba395b","ios":"levelo://app?vid=4bffa755-c138-4f09-ac9b-6c7e05ba395b"},"vehicle_type_id":"4","last_reported":1768842965,"current_range_meters":2800,"station_id":"st_d4e5ca6na9uc73bfl5fg","pricing_plan_id":"cebpf4jnsgd1na2vs0mg"},{"bike_id":"307f341d-30b5-4800-abdf-39cf794c4f6d","system_id":"levelo_inurba_marseille","lat":43.28411,"lon":5.37515,"is_reserved":false,"is_disabled":false,"rental_uris":{"android":"levelo://app?vid=307f341d-30b5-4800-abdf-39cf794c4f6d","ios":"levelo://app?vid=307f341d-30b5-4800-abdf-39cf794c4f6d"},"vehicle_type_id":"4","last_reported":1768842965,"current_range_meters":2800,"station_id":"ce4bh412rcd13ifvqds0","pricing_plan_id":"cebpf4jnsgd1na2vs0mg"},{"bike_id":"ee62fa88-28de-4feb-bc77-f3ae352cf223","system_id":"levelo_inurba_marseille","lat":43.23182,"lon":5.39991,"is_reserved":false,"is_disabled":false,"rental_uris":{"android":"levelo://app?vid=ee62fa88-28de-4feb-bc77-f3ae352cf223","ios":"levelo://app?vid=ee62fa88-28de-4feb-bc77-f3ae352cf223"},"vehicle_type_id":"4","last_reported":1768842965,"current_range_meters":2800,"station_id":"ce4bhn12rcd13ifvqgqg","pricing_plan_id":"cebpf4jnsgd1na2vs0mg"},{"bike_id":"7cffb6cf-7125-4e55-b1f6-bc5ec0744a16","system_id":"levelo_inurba_marseille","lat":43.26682,"lon":5.38264,"is_reserved":false,"is_disabled":false,"rental_uris":{"android":"levelo://app?vid=7cffb6cf-7125-4e55-b1f6-bc5ec0744a16","ios":"levelo://app?vid=7cffb6cf-7125-4e55-b1f6-bc5ec0744a16"},"vehicle_type_id":"4","last_reported":1768842965,"current_range_meters":2800,"station_id":"ce4bhg92rcd13ifvqf90","pricing_plan_id":"cebpf4jnsgd1na2vs0mg"},{"bike_id":"852749f6-9faa-4e21-b213-6bca43d90bfc","system_id":"levelo_inurba_marseille","lat":43.27962,"lon":5.38746,"is_reserved":false,"is_disabled":false,"rental_uris":{"android":"levelo://app?vid=852749f6-9faa-4e21-b213-6bca43d90bfc","ios":"levelo://app?vid=852749f6-9faa-4e21-b213-6bca43d90bfc"},"vehicle_type_id":"4","last_reported":1768842965,"current_range_meters":3200,"station_id":"ce4bhg12rcd13ifvqf80","pricing_plan_id":"cebpf4jnsgd1na2vs0mg"},{"bike_id":"4adc3fa4-2077-447e-b0ea-2249d03c6de8","system_id":"levelo_inurba_marseille","lat":43.2415,"lon":5.39722,"is_reserved":false,"is_disabled":false,"rental_uris":{"android":"levelo://app?vid=4adc3fa4-2077-447e-b0ea-2249d03c6de8","ios":"levelo://app?vid=4adc3fa4-2077-447e-b0ea-2249d03c6de8"},"vehicle_type_id":"4","last_reported":1768842965,"current_range_meters":3200,"station_id":"ce4bhn12rcd13ifvqgpg","pricing_plan_id":"cebpf4jnsgd1na2vs0mg"},{"bike_id":"986a75c0-9796-4e24-8a70-d6875d9b1e95","system_id":"levelo_inurba_marseille","lat":43.29243,"lon":5.38456,"is_reserved":false,"is_disabled":false,"rental_uris":{"android":"levelo://app?vid=986a75c0-9796-4e24-8a70-d6875d9b1e95","ios":"levelo://app?vid=986a75c0-9796-4e24-8a70-d6875d9b1e95"},"vehicle_type_id":"4","last_reported":1768842965,"current_range_meters":3200,"station_id":"ce4bh692rcd13ifvqea0","pricing_plan_id":"cebpf4jnsgd1na2vs0mg"},{"bike_id":"06a384e0-7018-4164-87fb-2b7a1e859e51","system_id":"levelo_inurba_marseille","lat":43.29198,"lon":5.35809,"is_reserved":false,"is_disabled":false,"rental_uris":{"android":"levelo://app?vid=06a384e0-7018-4164-87fb-2b7a1e859e51","ios":"levelo://app?vid=06a384e0-7018-4164-87fb-2b7a1e859e51"},"vehicle_type_id":"4","last_reported":1768842965,"current_range_meters":3200,"station_id":"ce4bhb12rcd13ifvqel0","pricing_plan_id":"cebpf4jnsgd1na2vs0mg"},{"bike_id":"2a06f277-c8b0-4463-9940-49e29ff66745","system_id":"levelo_inurba_marseille","lat":43.24642,"lon":5.38905,"is_reserved":false,"is_disabled":false,"rental_uris":{"android":"levelo://app?vid=2a06f277-c8b0-4463-9940-49e29ff66745","ios":"levelo://app?vid=2a06f277-c8b0-4463-9940-49e29ff66745"},"vehicle_type_id":"4","last_reported":1768842965,"current_range_meters":3200,"station_id":"ce4bhg12rcd13ifvqf60","pricing_plan_id":"cebpf4jnsgd1na2vs0mg"},{"bike_id":"555919a1-07c3-49d2-8497-769c02d7081b","system_id":"levelo_inurba_marseille","lat":43.31059,"lon":5.37144,"is_reserved":false,"is_disabled":false,"rental_uris":{"android":"levelo://app?vid=555919a1-07c3-49d2-8497-769c02d7081b","ios":"levelo://app?vid=555919a1-07c3-49d2-8497-769c02d7081b"},"vehicle_type_id":"4","last_reported":1768842965,"current_range_meters":3200,"station_id":"st_d4kl2rp97mjs73e7tdfg","pricing_plan_id":"cebpf4jnsgd1na2vs0mg"},{"bike_id":"cb9b796d-e7a3-4a46-b5b0-0ffb7b4e4160","system_id":"levelo_inurba_marseille","lat":43.30327,"lon":5.40427,"is_reserved":false,"is_disabled":false,"rental_uris":{"android":"levelo://app?vid=cb9b796d-e7a3-4a46-b5b0-0ffb7b4e4160","ios":"levelo://app?vid=cb9b796d-e7a3-4a46-b5b0-0ffb7b4e4160"},"vehicle_type_id":"4","last_reported":1768842965,"current_range_meters":3200,"station_id":"ce4bh012rcd13ifvqd10","pricing_plan_id":"cebpf4jnsgd1na2vs0mg"},{"bike_id":"7f86382b-bcf3-46f7-ae4e-48be8d3a77f3","system_id":"levelo_inurba_marseille","lat":43.24804,"lon":5.37448,"is_reserved":false,"is_disabled":false,"rental_uris":{"android":"levelo://app?vid=7f86382b-bcf3-46f7-ae4e-48be8d3a77f3","ios":"levelo://app?vid=7f86382b-bcf3-46f7-ae4e-48be8d3a77f3"},"vehicle_type_id":"4","last_reported":1768842965,"current_range_meters":3200,"station_id":"ce4bhgh2rcd13ifvqfb0","pricing_plan_id":"cebpf4jnsgd1na2vs0mg"},{"bike_id":"511e3e98-4317-4e73-9318-6615d484b41c","system_id":"levelo_inurba_marseille","lat":43.274202,"lon":5.394153,"is_reserved":false,"is_disabled":false,"rental_uris":{"android":"levelo://app?vid=511e3e98-4317-4e73-9318-6615d484b41c","ios":"levelo://app?vid=511e3e98-4317-4e73-9318-6615d484b41c"},"vehicle_type_id":"4","last_reported":1768842965,"current_range_meters":3200,"station_id":"ce4bhdp2rcd13ifvqf20","pricing_plan_id":"cebpf4jnsgd1na2vs0mg"},{"bike_id":"36d81f7e-b1c3-4fe6-b5aa-7b5a18031396","system_id":"levelo_inurba_marseille","lat":43.26219,"lon":5.37416,"is_reserved":false,"is_disabled":false,"rental_uris":{"android":"levelo://app?vid=36d81f7e-b1c3-4fe6-b5aa-7b5a18031396","ios":"levelo://app?vid=36d81f7e-b1c3-4fe6-b5aa-7b5a18031396"},"vehicle_type_id":"4","last_reported":1768842965,"current_range_meters":3600,"station_id":"","pricing_plan_id":"cebpf4jnsgd1na2vs0mg"},{"bike_id":"ceac69a1-c70e-483e-8597-2b27851c5fdf","system_id":"levelo_inurba_marseille","lat":43.25578,"lon":5.38238,"is_reserved":false,"is_disabled":false,"rental_uris":{"android":"levelo://app?vid=ceac69a1-c70e-483e-8597-2b27851c5fdf","ios":"levelo://app?vid=ceac69a1-c70e-483e-8597-2b27851c5fdf"},"vehicle_type_id":"4","last_reported":1768842965,"current_range_meters":3600,"station_id":"ce4bhih2rcd13ifvqfs0","pricing_plan_id":"cebpf4jnsgd1na2vs0mg"},{"bike_id":"829ca6ba-509c-451a-a278-6c150b28f569","system_id":"levelo_inurba_marseille","lat":43.31212,"lon":5.36881,"is_reserved":false,"is_disabled":false,"rental_uris":{"android":"levelo://app?vid=829ca6ba-509c-451a-a278-6c150b28f569","ios":"levelo://app?vid=829ca6ba-509c-451a-a278-6c150b28f569"},"vehicle_type_id":"4","last_reported":1768842965,"current_range_meters":3600,"station_id":"ce4bgl92rcd13ifvqbq0","pricing_plan_id":"cebpf4jnsgd1na2vs0mg"},{"bike_id":"40ecb84e-d2ac-4a6c-ad1d-6416db8fb424","system_id":"levelo_inurba_marseille","lat":43.24166,"lon":5.39767,"is_reserved":false,"is_disabled":false,"rental_uris":{"android":"levelo://app?vid=40ecb84e-d2ac-4a6c-ad1d-6416db8fb424","ios":"levelo://app?vid=40ecb84e-d2ac-4a6c-ad1d-6416db8fb424"},"vehicle_type_id":"4","last_reported":1768842965,"current_range_meters":3600,"station_id":"ce4bhn12rcd13ifvqgpg","pricing_plan_id":"cebpf4jnsgd1na2vs0mg"},{"bike_id":"b8a52be7-8740-45d9-966a-1ddcbac12d10","system_id":"levelo_inurba_marseille","lat":43.28478,"lon":5.48387,"is_reserved":false,"is_disabled":false,"rental_uris":{"android":"levelo://app?vid=b8a52be7-8740-45d9-966a-1ddcbac12d10","ios":"levelo://app?vid=b8a52be7-8740-45d9-966a-1ddcbac12d10"},"vehicle_type_id":"4","last_reported":1768842965,"current_range_meters":3600,"station_id":"","pricing_plan_id":"cebpf4jnsgd1na2vs0mg"},{"bike_id":"08687571-eb7c-4fd0-8af9-2d6ded496cec","system_id":"levelo_inurba_marseille","lat":43.27561,"lon":5.38423,"is_reserved":false,"is_disabled":false,"rental_uris":{"android":"levelo://app?vid=08687571-eb7c-4fd0-8af9-2d6ded496cec","ios":"levelo://app?vid=08687571-eb7c-4fd0-8af9-2d6ded496cec"},"vehicle_type_id":"4","last_reported":1768842965,"current_range_meters":3600,"station_id":"ce4bhh92rcd13ifvqfi0","pricing_plan_id":"cebpf4jnsgd1na2vs0mg"},{"bike_id":"ce57df57-2a76-4557-9819-dd7308e47bc4","system_id":"levelo_inurba_marseille","lat":43.24815,"lon":5.37469,"is_reserved":false,"is_disabled":false,"rental_uris":{"android":"levelo://app?vid=ce57df57-2a76-4557-9819-dd7308e47bc4","ios":"levelo://app?vid=ce57df57-2a76-4557-9819-dd7308e47bc4"},"vehicle_type_id":"4","last_reported":1768842965,"current_range_meters":3600,"station_id":"ce4bhgh2rcd13ifvqfb0","pricing_plan_id":"cebpf4jnsgd1na2vs0mg"},{"bike_id":"d9886c1a-279f-43dd-8640-9d720eba9676","system_id":"levelo_inurba_marseille","lat":43.255733,"lon":5.382364,"is_reserved":false,"is_disabled":false,"rental_uris":{"android":"levelo://app?vid=d9886c1a-279f-43dd-8640-9d720eba9676","ios":"levelo://app?vid=d9886c1a-279f-43dd-8640-9d720eba9676"},"vehicle_type_id":"4","last_reported":1768842965,"current_range_meters":3600,"station_id":"ce4bhih2rcd13ifvqfs0","pricing_plan_id":"cebpf4jnsgd1na2vs0mg"},{"bike_id":"45be07eb-7b8b-4438-87f5-34a08f87a459","system_id":"levelo_inurba_marseille","lat":43.30276,"lon":5.37661,"is_reserved":false,"is_disabled":false,"rental_uris":{"android":"levelo://app?vid=45be07eb-7b8b-4438-87f5-34a08f87a459","ios":"levelo://app?vid=45be07eb-7b8b-4438-87f5-34a08f87a459"},"vehicle_type_id":"4","last_reported":1768842965,"current_range_meters":3600,"station_id":"ce4bguh2rcd13ifvqcj0","pricing_plan_id":"cebpf4jnsgd1na2vs0mg"},{"bike_id":"98062161-434b-4af1-aa2c-ea47adf28646","system_id":"levelo_inurba_marseille","lat":43.295135,"lon":5.394039,"is_reserved":false,"is_disabled":false,"rental_uris":{"android":"levelo://app?vid=98062161-434b-4af1-aa2c-ea47adf28646","ios":"levelo://app?vid=98062161-434b-4af1-aa2c-ea47adf28646"},"vehicle_type_id":"4","last_reported":1768842965,"current_range_meters":3600,"station_id":"ce4bh292rcd13ifvqdf0","pricing_plan_id":"cebpf4jnsgd1na2vs0mg"},{"bike_id":"951af3c2-e410-4181-856d-ac0bf777f0ea","system_id":"levelo_inurba_marseille","lat":43.304,"lon":5.40984,"is_reserved":false,"is_disabled":false,"rental_uris":{"android":"levelo://app?vid=951af3c2-e410-4181-856d-ac0bf777f0ea","ios":"levelo://app?vid=951af3c2-e410-4181-856d-ac0bf777f0ea"},"vehicle_type_id":"4","last_reported":1768842965,"current_range_meters":3600,"station_id":"","pricing_plan_id":"cebpf4jnsgd1na2vs0mg"},{"bike_id":"c0a454a8-d7a0-44af-8849-f193d4347c94","system_id":"levelo_inurba_marseille","lat":43.31329,"lon":5.39686,"is_reserved":false,"is_disabled":false,"rental_uris":{"android":"levelo://app?vid=c0a454a8-d7a0-44af-8849-f193d4347c94","ios":"levelo://app?vid=c0a454a8-d7a0-44af-8849-f193d4347c94"},"vehicle_type_id":"4","last_reported":1768842965,"current_range_meters":3600,"station_id":"ce4bgvp2rcd13ifvqcu0","pricing_plan_id":"cebpf4jnsgd1na2vs0mg"},{"bike_id":"f5a7fe50-3f88-4424-9093-9d69e6cd583d","system_id":"levelo_inurba_marseille","lat":43.22568,"lon":5.41613,"is_reserved":false,"is_disabled":false,"rental_uris":{"android":"levelo://app?vid=f5a7fe50-3f88-4424-9093-9d69e6cd583d","ios":"levelo://app?vid=f5a7fe50-3f88-4424-9093-9d69e6cd583d"},"vehicle_type_id":"4","last_reported":1768842965,"current_range_meters":4000,"station_id":"st_d2o4gvlbi1j2169b742g","pricing_plan_id":"cebpf4jnsgd1na2vs0mg"},{"bike_id":"0a83b422-cb8b-412f-81d1-4be4cb6cd5fb","system_id":"levelo_inurba_marseille","lat":43.28404,"lon":5.37518,"is_reserved":false,"is_disabled":false,"rental_uris":{"android":"levelo://app?vid=0a83b422-cb8b-412f-81d1-4be4cb6cd5fb","ios":"levelo://app?vid=0a83b422-cb8b-412f-81d1-4be4cb6cd5fb"},"vehicle_type_id":"4","last_reported":1768842965,"current_range_meters":4000,"station_id":"ce4bh412rcd13ifvqds0","pricing_plan_id":"cebpf4jnsgd1na2vs0mg"},{"bike_id":"a10eca83-916b-44fa-b2b4-c1bfebd8bd35","system_id":"levelo_inurba_marseille","lat":43.22938,"lon":5.3537,"is_reserved":false,"is_disabled":false,"rental_uris":{"android":"levelo://app?vid=a10eca83-916b-44fa-b2b4-c1bfebd8bd35","ios":"levelo://app?vid=a10eca83-916b-44fa-b2b4-c1bfebd8bd35"},"vehicle_type_id":"4","last_reported":1768842965,"current_range_meters":4000,"station_id":"cpo3532slgdg3j2ikp40","pricing_plan_id":"cebpf4jnsgd1na2vs0mg"},{"bike_id":"9cf066cd-b3a6-4dcf-81e1-3a1cd5ef49ac","system_id":"levelo_inurba_marseille","lat":43.25868,"lon":5.39911,"is_reserved":false,"is_disabled":false,"rental_uris":{"android":"levelo://app?vid=9cf066cd-b3a6-4dcf-81e1-3a1cd5ef49ac","ios":"levelo://app?vid=9cf066cd-b3a6-4dcf-81e1-3a1cd5ef49ac"},"vehicle_type_id":"4","last_reported":1768842965,"current_range_meters":4000,"station_id":"ce4bhl92rcd13ifvqghg","pricing_plan_id":"cebpf4jnsgd1na2vs0mg"},{"bike_id":"6473bd0f-8511-4a8a-89c5-9091f9cdad57","system_id":"levelo_inurba_marseille","lat":43.25582,"lon":5.38231,"is_reserved":false,"is_disabled":false,"rental_uris":{"android":"levelo://app?vid=6473bd0f-8511-4a8a-89c5-9091f9cdad57","ios":"levelo://app?vid=6473bd0f-8511-4a8a-89c5-9091f9cdad57"},"vehicle_type_id":"4","last_reported":1768842965,"current_range_meters":4000,"station_id":"ce4bhih2rcd13ifvqfs0","pricing_plan_id":"cebpf4jnsgd1na2vs0mg"},{"bike_id":"8ebb2247-586f-48b1-a963-c98a0d338c56","system_id":"levelo_inurba_marseille","lat":43.23786,"lon":5.36643,"is_reserved":false,"is_disabled":false,"rental_uris":{"android":"levelo://app?vid=8ebb2247-586f-48b1-a963-c98a0d338c56","ios":"levelo://app?vid=8ebb2247-586f-48b1-a963-c98a0d338c56"},"vehicle_type_id":"4","last_reported":1768842965,"current_range_meters":4000,"station_id":"st_d3nk18o9ro0c73en2l3g","pricing_plan_id":"cebpf4jnsgd1na2vs0mg"},{"bike_id":"a2bcc2f3-5330-4459-a169-8bbed5b8c2ad","system_id":"levelo_inurba_marseille","lat":43.29036,"lon":5.39969,"is_reserved":false,"is_disabled":false,"rental_uris":{"android":"levelo://app?vid=a2bcc2f3-5330-4459-a169-8bbed5b8c2ad","ios":"levelo://app?vid=a2bcc2f3-5330-4459-a169-8bbed5b8c2ad"},"vehicle_type_id":"4","last_reported":1768842965,"current_range_meters":4000,"station_id":"ce4bh392rcd13ifvqdm0","pricing_plan_id":"cebpf4jnsgd1na2vs0mg"},{"bike_id":"f7662739-d69c-4274-a8c7-8f29a69d71e7","system_id":"levelo_inurba_marseille","lat":43.2175,"lon":5.34587,"is_reserved":false,"is_disabled":false,"rental_uris":{"android":"levelo://app?vid=f7662739-d69c-4274-a8c7-8f29a69d71e7","ios":"levelo://app?vid=f7662739-d69c-4274-a8c7-8f29a69d71e7"},"vehicle_type_id":"4","last_reported":1768842965,"current_range_meters":4000,"station_id":"st_cvj6r9ubvosntc0bgbag","pricing_plan_id":"cebpf4jnsgd1na2vs0mg"},{"bike_id":"99c37233-aaaa-48f0-ae5a-504a5063d85e","system_id":"levelo_inurba_marseille","lat":43.28409,"lon":5.37514,"is_reserved":false,"is_disabled":false,"rental_uris":{"android":"levelo://app?vid=99c37233-aaaa-48f0-ae5a-504a5063d85e","ios":"levelo://app?vid=99c37233-aaaa-48f0-ae5a-504a5063d85e"},"vehicle_type_id":"4","last_reported":1768842965,"current_range_meters":4000,"station_id":"ce4bh412rcd13ifvqds0","pricing_plan_id":"cebpf4jnsgd1na2vs0mg"},{"bike_id":"9ae53b78-c214-4b59-bdf7-9a5152c2fa2f","system_id":"levelo_inurba_marseille","lat":43.28872,"lon":5.42512,"is_reserved":false,"is_disabled":false,"rental_uris":{"android":"levelo://app?vid=9ae53b78-c214-4b59-bdf7-9a5152c2fa2f","ios":"levelo://app?vid=9ae53b78-c214-4b59-bdf7-9a5152c2fa2f"},"vehicle_type_id":"4","last_reported":1768842965,"current_range_meters":4400,"station_id":"st_d3b462108ojc7389ooeg","pricing_plan_id":"cebpf4jnsgd1na2vs0mg"},{"bike_id":"ed2d0f68-3db3-4ee7-9893-81b0a6836ba0","system_id":"levelo_inurba_marseille","lat":43.24174,"lon":5.39703,"is_reserved":false,"is_disabled":false,"rental_uris":{"android":"levelo://app?vid=ed2d0f68-3db3-4ee7-9893-81b0a6836ba0","ios":"levelo://app?vid=ed2d0f68-3db3-4ee7-9893-81b0a6836ba0"},"vehicle_type_id":"4","last_reported":1768842965,"current_range_meters":4400,"station_id":"ce4bhn12rcd13ifvqgpg","pricing_plan_id":"cebpf4jnsgd1na2vs0mg"},{"bike_id":"b83c301d-6a09-4142-a82b-3802a6a2089f","system_id":"levelo_inurba_marseille","lat":43.284819,"lon":5.483864,"is_reserved":false,"is_disabled":false,"rental_uris":{"android":"levelo://app?vid=b83c301d-6a09-4142-a82b-3802a6a2089f","ios":"levelo://app?vid=b83c301d-6a09-4142-a82b-3802a6a2089f"},"vehicle_type_id":"4","last_reported":1768842965,"current_range_meters":4400,"station_id":"st_d3svhcjqgbts73a3dn0g","pricing_plan_id":"cebpf4jnsgd1na2vs0mg"},{"bike_id":"117903ef-5bd6-4546-bff1-baffee665714","system_id":"levelo_inurba_marseille","lat":43.28483,"lon":5.48404,"is_reserved":false,"is_disabled":false,"rental_uris":{"android":"levelo://app?vid=117903ef-5bd6-4546-bff1-baffee665714","ios":"levelo://app?vid=117903ef-5bd6-4546-bff1-baffee665714"},"vehicle_type_id":"4","last_reported":1768842965,"current_range_meters":4400,"station_id":"st_d3svhcjqgbts73a3dn0g","pricing_plan_id":"cebpf4jnsgd1na2vs0mg"},{"bike_id":"0cdcc37a-5923-4b11-8616-c27ac4f5aaff","system_id":"levelo_inurba_marseille","lat":43.29632,"lon":5.40602,"is_reserved":false,"is_disabled":false,"rental_uris":{"android":"levelo://app?vid=0cdcc37a-5923-4b11-8616-c27ac4f5aaff","ios":"levelo://app?vid=0cdcc37a-5923-4b11-8616-c27ac4f5aaff"},"vehicle_type_id":"4","last_reported":1768842965,"current_range_meters":4400,"station_id":"ce4bh0h2rcd13ifvqd60","pricing_plan_id":"cebpf4jnsgd1na2vs0mg"},{"bike_id":"7c429d88-caa9-46ca-87e9-a9f1305ab716","system_id":"levelo_inurba_marseille","lat":43.260563,"lon":5.393891,"is_reserved":false,"is_disabled":false,"rental_uris":{"android":"levelo://app?vid=7c429d88-caa9-46ca-87e9-a9f1305ab716","ios":"levelo://app?vid=7c429d88-caa9-46ca-87e9-a9f1305ab716"},"vehicle_type_id":"4","last_reported":1768842965,"current_range_meters":4400,"station_id":"ce4bhh92rcd13ifvqfj0","pricing_plan_id":"cebpf4jnsgd1na2vs0mg"},{"bike_id":"28788f5f-07a6-4ce9-a4ea-58cf99f7efe7","system_id":"levelo_inurba_marseille","lat":43.28153,"lon":5.42652,"is_reserved":false,"is_disabled":false,"rental_uris":{"android":"levelo://app?vid=28788f5f-07a6-4ce9-a4ea-58cf99f7efe7","ios":"levelo://app?vid=28788f5f-07a6-4ce9-a4ea-58cf99f7efe7"},"vehicle_type_id":"4","last_reported":1768842965,"current_range_meters":4400,"station_id":"ce4bhnh2rcd13ifvqgug","pricing_plan_id":"cebpf4jnsgd1na2vs0mg"},{"bike_id":"bbe76d6d-dca3-4763-bcad-edc1f4802bb6","system_id":"levelo_inurba_marseille","lat":43.27972,"lon":5.38525,"is_reserved":false,"is_disabled":false,"rental_uris":{"android":"levelo://app?vid=bbe76d6d-dca3-4763-bcad-edc1f4802bb6","ios":"levelo://app?vid=bbe76d6d-dca3-4763-bcad-edc1f4802bb6"},"vehicle_type_id":"4","last_reported":1768842965,"current_range_meters":4800,"station_id":"","pricing_plan_id":"cebpf4jnsgd1na2vs0mg"},{"bike_id":"566c16cb-af13-4ec7-91df-08d6c3c5e69d","system_id":"levelo_inurba_marseille","lat":43.27385,"lon":5.362456,"is_reserved":false,"is_disabled":false,"rental_uris":{"android":"levelo://app?vid=566c16cb-af13-4ec7-91df-08d6c3c5e69d","ios":"levelo://app?vid=566c16cb-af13-4ec7-91df-08d6c3c5e69d"},"vehicle_type_id":"4","last_reported":1768842965,"current_range_meters":4800,"station_id":"ce4bhbh2rcd13ifvqeo0","pricing_plan_id":"cebpf4jnsgd1na2vs0mg"},{"bike_id":"18f7ef13-b6cd-4f0d-b776-b4d71a83d34e","system_id":"levelo_inurba_marseille","lat":43.27811,"lon":5.40722,"is_reserved":false,"is_disabled":false,"rental_uris":{"android":"levelo://app?vid=18f7ef13-b6cd-4f0d-b776-b4d71a83d34e","ios":"levelo://app?vid=18f7ef13-b6cd-4f0d-b776-b4d71a83d34e"},"vehicle_type_id":"4","last_reported":1768842965,"current_range_meters":4800,"station_id":"ce4bhnh2rcd13ifvqgtg","pricing_plan_id":"cebpf4jnsgd1na2vs0mg"},{"bike_id":"ccd74f8a-2d31-4e3e-90cd-d53db1b81c64","system_id":"levelo_inurba_marseille","lat":43.26054,"lon":5.38646,"is_reserved":false,"is_disabled":false,"rental_uris":{"android":"levelo://app?vid=ccd74f8a-2d31-4e3e-90cd-d53db1b81c64","ios":"levelo://app?vid=ccd74f8a-2d31-4e3e-90cd-d53db1b81c64"},"vehicle_type_id":"4","last_reported":1768842965,"current_range_meters":4800,"station_id":"","pricing_plan_id":"cebpf4jnsgd1na2vs0mg"},{"bike_id":"02716a77-f5e1-4458-9825-dd28d9bb4577","system_id":"levelo_inurba_marseille","lat":43.24811,"lon":5.37459,"is_reserved":false,"is_disabled":false,"rental_uris":{"android":"levelo://app?vid=02716a77-f5e1-4458-9825-dd28d9bb4577","ios":"levelo://app?vid=02716a77-f5e1-4458-9825-dd28d9bb4577"},"vehicle_type_id":"4","last_reported":1768842965,"current_range_meters":4800,"station_id":"ce4bhgh2rcd13ifvqfb0","pricing_plan_id":"cebpf4jnsgd1na2vs0mg"},{"bike_id":"08d1fe74-a299-4390-9e7c-fc9ff42c1abb","system_id":"levelo_inurba_marseille","lat":43.28157,"lon":5.42647,"is_reserved":false,"is_disabled":false,"rental_uris":{"android":"levelo://app?vid=08d1fe74-a299-4390-9e7c-fc9ff42c1abb","ios":"levelo://app?vid=08d1fe74-a299-4390-9e7c-fc9ff42c1abb"},"vehicle_type_id":"4","last_reported":1768842965,"current_range_meters":4800,"station_id":"ce4bhnh2rcd13ifvqgug","pricing_plan_id":"cebpf4jnsgd1na2vs0mg"},{"bike_id":"ccbc7cc7-8082-4767-b087-b8c8e3e07b84","system_id":"levelo_inurba_marseille","lat":43.23195,"lon":5.35543,"is_reserved":false,"is_disabled":false,"rental_uris":{"android":"levelo://app?vid=ccbc7cc7-8082-4767-b087-b8c8e3e07b84","ios":"levelo://app?vid=ccbc7cc7-8082-4767-b087-b8c8e3e07b84"},"vehicle_type_id":"4","last_reported":1768842965,"current_range_meters":4800,"station_id":"ce4bhu92rcd13ifvqi70","pricing_plan_id":"cebpf4jnsgd1na2vs0mg"},{"bike_id":"cce7be02-80bd-4769-b012-dc06457e18d6","system_id":"levelo_inurba_marseille","lat":43.24178,"lon":5.397251,"is_reserved":false,"is_disabled":false,"rental_uris":{"android":"levelo://app?vid=cce7be02-80bd-4769-b012-dc06457e18d6","ios":"levelo://app?vid=cce7be02-80bd-4769-b012-dc06457e18d6"},"vehicle_type_id":"4","last_reported":1768842965,"current_range_meters":4800,"station_id":"ce4bhn12rcd13ifvqgpg","pricing_plan_id":"cebpf4jnsgd1na2vs0mg"},{"bike_id":"a7b9cdf7-d3ba-444b-a212-5edc361237f4","system_id":"levelo_inurba_marseille","lat":43.28472,"lon":5.48423,"is_reserved":false,"is_disabled":false,"rental_uris":{"android":"levelo://app?vid=a7b9cdf7-d3ba-444b-a212-5edc361237f4","ios":"levelo://app?vid=a7b9cdf7-d3ba-444b-a212-5edc361237f4"},"vehicle_type_id":"4","last_reported":1768842965,"current_range_meters":4800,"station_id":"","pricing_plan_id":"cebpf4jnsgd1na2vs0mg"},{"bike_id":"89738f7c-685b-44d7-93f1-60b67cb64c01","system_id":"levelo_inurba_marseille","lat":43.31042,"lon":5.37156,"is_reserved":false,"is_disabled":false,"rental_uris":{"android":"levelo://app?vid=89738f7c-685b-44d7-93f1-60b67cb64c01","ios":"levelo://app?vid=89738f7c-685b-44d7-93f1-60b67cb64c01"},"vehicle_type_id":"4","last_reported":1768842965,"current_range_meters":4800,"station_id":"st_d4kl2rp97mjs73e7tdfg","pricing_plan_id":"cebpf4jnsgd1na2vs0mg"},{"bike_id":"d1c4fe09-fa24-4d3c-a769-65f7cfe74b3a","system_id":"levelo_inurba_marseille","lat":43.24065,"lon":5.37764,"is_reserved":false,"is_disabled":false,"rental_uris":{"android":"levelo://app?vid=d1c4fe09-fa24-4d3c-a769-65f7cfe74b3a","ios":"levelo://app?vid=d1c4fe09-fa24-4d3c-a769-65f7cfe74b3a"},"vehicle_type_id":"4","last_reported":1768842965,"current_range_meters":4800,"station_id":"ce4bhnp2rcd13ifvqgvg","pricing_plan_id":"cebpf4jnsgd1na2vs0mg"},{"bike_id":"0b096718-3ffd-421c-8619-83caf0a97a32","system_id":"levelo_inurba_marseille","lat":43.28572,"lon":5.39502,"is_reserved":false,"is_disabled":false,"rental_uris":{"android":"levelo://app?vid=0b096718-3ffd-421c-8619-83caf0a97a32","ios":"levelo://app?vid=0b096718-3ffd-421c-8619-83caf0a97a32"},"vehicle_type_id":"4","last_reported":1768842965,"current_range_meters":4800,"station_id":"ce4bh292rcd13ifvqdg0","pricing_plan_id":"cebpf4jnsgd1na2vs0mg"},{"bike_id":"e7af2657-a587-46e3-8dc6-4e52e6d79446","system_id":"levelo_inurba_marseille","lat":43.29973,"lon":5.37179,"is_reserved":false,"is_disabled":false,"rental_uris":{"android":"levelo://app?vid=e7af2657-a587-46e3-8dc6-4e52e6d79446","ios":"levelo://app?vid=e7af2657-a587-46e3-8dc6-4e52e6d79446"},"vehicle_type_id":"4","last_reported":1768842965,"current_range_meters":4800,"station_id":"ce4bgr92rcd13ifvqc7g","pricing_plan_id":"cebpf4jnsgd1na2vs0mg"},{"bike_id":"74aff274-ab61-44a1-ae03-c9a6d20e7f3a","system_id":"levelo_inurba_marseille","lat":43.27046,"lon":5.38308,"is_reserved":false,"is_disabled":false,"rental_uris":{"android":"levelo://app?vid=74aff274-ab61-44a1-ae03-c9a6d20e7f3a","ios":"levelo://app?vid=74aff274-ab61-44a1-ae03-c9a6d20e7f3a"},"vehicle_type_id":"4","last_reported":1768842965,"current_range_meters":4800,"station_id":"st_d3n2fo6cfp8s73cte1j0","pricing_plan_id":"cebpf4jnsgd1na2vs0mg"},{"bike_id":"10e13a60-ba7e-426b-843a-c557785aafcf","system_id":"levelo_inurba_marseille","lat":43.2794,"lon":5.41048,"is_reserved":false,"is_disabled":false,"rental_uris":{"android":"levelo://app?vid=10e13a60-ba7e-426b-843a-c557785aafcf","ios":"levelo://app?vid=10e13a60-ba7e-426b-843a-c557785aafcf"},"vehicle_type_id":"4","last_reported":1768842965,"current_range_meters":4800,"station_id":"ce4bhnp2rcd13ifvqh0g","pricing_plan_id":"cebpf4jnsgd1na2vs0mg"},{"bike_id":"910cfe43-a618-4ee9-a7b1-5d5b63afa86d","system_id":"levelo_inurba_marseille","lat":43.2587,"lon":5.39907,"is_reserved":false,"is_disabled":false,"rental_uris":{"android":"levelo://app?vid=910cfe43-a618-4ee9-a7b1-5d5b63afa86d","ios":"levelo://app?vid=910cfe43-a618-4ee9-a7b1-5d5b63afa86d"},"vehicle_type_id":"4","last_reported":1768842965,"current_range_meters":5600,"station_id":"ce4bhl92rcd13ifvqghg","pricing_plan_id":"cebpf4jnsgd1na2vs0mg"},{"bike_id":"519b1b23-ee6a-48f5-b3d6-7b553c904b51","system_id":"levelo_inurba_marseille","lat":43.22949,"lon":5.3542,"is_reserved":false,"is_disabled":false,"rental_uris":{"android":"levelo://app?vid=519b1b23-ee6a-48f5-b3d6-7b553c904b51","ios":"levelo://app?vid=519b1b23-ee6a-48f5-b3d6-7b553c904b51"},"vehicle_type_id":"4","last_reported":1768842965,"current_range_meters":5600,"station_id":"cpo3532slgdg3j2ikp40","pricing_plan_id":"cebpf4jnsgd1na2vs0mg"},{"bike_id":"adfdcb17-e56a-40ea-abeb-5e7a10692630","system_id":"levelo_inurba_marseille","lat":43.27927,"lon":5.41012,"is_reserved":false,"is_disabled":false,"rental_uris":{"android":"levelo://app?vid=adfdcb17-e56a-40ea-abeb-5e7a10692630","ios":"levelo://app?vid=adfdcb17-e56a-40ea-abeb-5e7a10692630"},"vehicle_type_id":"4","last_reported":1768842965,"current_range_meters":5600,"station_id":"ce4bhnp2rcd13ifvqh0g","pricing_plan_id":"cebpf4jnsgd1na2vs0mg"},{"bike_id":"1e064ac5-997e-4102-a700-a96ce59a5367","system_id":"levelo_inurba_marseille","lat":43.285295,"lon":5.441037,"is_reserved":false,"is_disabled":false,"rental_uris":{"android":"levelo://app?vid=1e064ac5-997e-4102-a700-a96ce59a5367","ios":"levelo://app?vid=1e064ac5-997e-4102-a700-a96ce59a5367"},"vehicle_type_id":"4","last_reported":1768842965,"current_range_meters":5600,"station_id":"st_d3j3df2ikq2c7380ej80","pricing_plan_id":"cebpf4jnsgd1na2vs0mg"},{"bike_id":"e9f199d7-160b-4a78-86a7-a5556593b826","system_id":"levelo_inurba_marseille","lat":43.29847,"lon":5.36285,"is_reserved":false,"is_disabled":false,"rental_uris":{"android":"levelo://app?vid=e9f199d7-160b-4a78-86a7-a5556593b826","ios":"levelo://app?vid=e9f199d7-160b-4a78-86a7-a5556593b826"},"vehicle_type_id":"4","last_reported":1768842965,"current_range_meters":5600,"station_id":"","pricing_plan_id":"cebpf4jnsgd1na2vs0mg"},{"bike_id":"b9b4f431-82fc-4bbf-9af4-1dfdef347107","system_id":"levelo_inurba_marseille","lat":43.28485,"lon":5.38536,"is_reserved":false,"is_disabled":false,"rental_uris":{"android":"levelo://app?vid=b9b4f431-82fc-4bbf-9af4-1dfdef347107","ios":"levelo://app?vid=b9b4f431-82fc-4bbf-9af4-1dfdef347107"},"vehicle_type_id":"4","last_reported":1768842965,"current_range_meters":5600,"station_id":"ce4bh8p2rcd13ifvqeb0","pricing_plan_id":"cebpf4jnsgd1na2vs0mg"},{"bike_id":"fc942adf-c771-4678-8183-43f879332b45","system_id":"levelo_inurba_marseille","lat":43.31886,"lon":5.40742,"is_reserved":false,"is_disabled":false,"rental_uris":{"android":"levelo://app?vid=fc942adf-c771-4678-8183-43f879332b45","ios":"levelo://app?vid=fc942adf-c771-4678-8183-43f879332b45"},"vehicle_type_id":"4","last_reported":1768842965,"current_range_meters":5600,"station_id":"ce4bhq12rcd13ifvqhig","pricing_plan_id":"cebpf4jnsgd1na2vs0mg"},{"bike_id":"b2163139-abab-427e-8e7a-fe339d81b393","system_id":"levelo_inurba_marseille","lat":43.23965,"lon":5.36619,"is_reserved":false,"is_disabled":false,"rental_uris":{"android":"levelo://app?vid=b2163139-abab-427e-8e7a-fe339d81b393","ios":"levelo://app?vid=b2163139-abab-427e-8e7a-fe339d81b393"},"vehicle_type_id":"4","last_reported":1768842965,"current_range_meters":5600,"station_id":"ce4bhi12rcd13ifvqfp0","pricing_plan_id":"cebpf4jnsgd1na2vs0mg"},{"bike_id":"21a92475-35f2-4fc1-b868-c36b87d2e9e1","system_id":"levelo_inurba_marseille","lat":43.26566,"lon":5.39013,"is_reserved":false,"is_disabled":false,"rental_uris":{"android":"levelo://app?vid=21a92475-35f2-4fc1-b868-c36b87d2e9e1","ios":"levelo://app?vid=21a92475-35f2-4fc1-b868-c36b87d2e9e1"},"vehicle_type_id":"4","last_reported":1768842965,"current_range_meters":5600,"station_id":"ce4bhe12rcd13ifvqf30","pricing_plan_id":"cebpf4jnsgd1na2vs0mg"},{"bike_id":"cb1c9d87-1d50-4b0f-95fb-f0bf443d4c3e","system_id":"levelo_inurba_marseille","lat":43.30807,"lon":5.3816,"is_reserved":false,"is_disabled":false,"rental_uris":{"android":"levelo://app?vid=cb1c9d87-1d50-4b0f-95fb-f0bf443d4c3e","ios":"levelo://app?vid=cb1c9d87-1d50-4b0f-95fb-f0bf443d4c3e"},"vehicle_type_id":"4","last_reported":1768842965,"current_range_meters":5600,"station_id":"","pricing_plan_id":"cebpf4jnsgd1na2vs0mg"},{"bike_id":"0431c530-a435-4150-a944-1b40bee617f3","system_id":"levelo_inurba_marseille","lat":43.26225,"lon":5.40447,"is_reserved":false,"is_disabled":false,"rental_uris":{"android":"levelo://app?vid=0431c530-a435-4150-a944-1b40bee617f3","ios":"levelo://app?vid=0431c530-a435-4150-a944-1b40bee617f3"},"vehicle_type_id":"4","last_reported":1768842965,"current_range_meters":5600,"station_id":"ce4bhmh2rcd13ifvqgmg","pricing_plan_id":"cebpf4jnsgd1na2vs0mg"},{"bike_id":"6104390f-9ebf-4d63-8dcf-78496735eedd","system_id":"levelo_inurba_marseille","lat":43.30324,"lon":5.40426,"is_reserved":false,"is_disabled":false,"rental_uris":{"android":"levelo://app?vid=6104390f-9ebf-4d63-8dcf-78496735eedd","ios":"levelo://app?vid=6104390f-9ebf-4d63-8dcf-78496735eedd"},"vehicle_type_id":"4","last_reported":1768842965,"current_range_meters":5600,"station_id":"ce4bh012rcd13ifvqd10","pricing_plan_id":"cebpf4jnsgd1na2vs0mg"},{"bike_id":"fc81b9d6-c23c-4a2c-a207-e8e651dd406e","system_id":"levelo_inurba_marseille","lat":43.27996,"lon":5.416648,"is_reserved":false,"is_disabled":false,"rental_uris":{"android":"levelo://app?vid=fc81b9d6-c23c-4a2c-a207-e8e651dd406e","ios":"levelo://app?vid=fc81b9d6-c23c-4a2c-a207-e8e651dd406e"},"vehicle_type_id":"4","last_reported":1768842965,"current_range_meters":6000,"station_id":"ce4bho12rcd13ifvqh1g","pricing_plan_id":"cebpf4jnsgd1na2vs0mg"},{"bike_id":"8fc40975-6cc9-4b56-9cfb-b7a269b5783c","system_id":"levelo_inurba_marseille","lat":43.26062,"lon":5.39384,"is_reserved":false,"is_disabled":false,"rental_uris":{"android":"levelo://app?vid=8fc40975-6cc9-4b56-9cfb-b7a269b5783c","ios":"levelo://app?vid=8fc40975-6cc9-4b56-9cfb-b7a269b5783c"},"vehicle_type_id":"4","last_reported":1768842965,"current_range_meters":6000,"station_id":"ce4bhh92rcd13ifvqfj0","pricing_plan_id":"cebpf4jnsgd1na2vs0mg"},{"bike_id":"8c675252-f995-4cab-bc9d-6050b2977bf7","system_id":"levelo_inurba_marseille","lat":43.2534,"lon":5.42156,"is_reserved":false,"is_disabled":false,"rental_uris":{"android":"levelo://app?vid=8c675252-f995-4cab-bc9d-6050b2977bf7","ios":"levelo://app?vid=8c675252-f995-4cab-bc9d-6050b2977bf7"},"vehicle_type_id":"4","last_reported":1768842965,"current_range_meters":6000,"station_id":"st_d2m65c5bi1j21697t3ng","pricing_plan_id":"cebpf4jnsgd1na2vs0mg"},{"bike_id":"2a387084-a6cc-4af4-b63f-1443441fc658","system_id":"levelo_inurba_marseille","lat":43.27608,"lon":5.36102,"is_reserved":false,"is_disabled":false,"rental_uris":{"android":"levelo://app?vid=2a387084-a6cc-4af4-b63f-1443441fc658","ios":"levelo://app?vid=2a387084-a6cc-4af4-b63f-1443441fc658"},"vehicle_type_id":"4","last_reported":1768842965,"current_range_meters":6000,"station_id":"ce4bgj92rcd13ifvqbe0","pricing_plan_id":"cebpf4jnsgd1na2vs0mg"},{"bike_id":"a4a6af33-604e-4b5a-a662-fd199e256423","system_id":"levelo_inurba_marseille","lat":43.317537,"lon":5.390127,"is_reserved":false,"is_disabled":false,"rental_uris":{"android":"levelo://app?vid=a4a6af33-604e-4b5a-a662-fd199e256423","ios":"levelo://app?vid=a4a6af33-604e-4b5a-a662-fd199e256423"},"vehicle_type_id":"4","last_reported":1768842965,"current_range_meters":6000,"station_id":"ce4bhqp2rcd13ifvqhng","pricing_plan_id":"cebpf4jnsgd1na2vs0mg"},{"bike_id":"20ff67e5-d319-4566-8b20-7f51d229e5de","system_id":"levelo_inurba_marseille","lat":43.238088,"lon":5.366129,"is_reserved":false,"is_disabled":false,"rental_uris":{"android":"levelo://app?vid=20ff67e5-d319-4566-8b20-7f51d229e5de","ios":"levelo://app?vid=20ff67e5-d319-4566-8b20-7f51d229e5de"},"vehicle_type_id":"4","last_reported":1768842965,"current_range_meters":6000,"station_id":"st_d3nk18o9ro0c73en2l3g","pricing_plan_id":"cebpf4jnsgd1na2vs0mg"},{"bike_id":"06aa1e22-882b-4a8c-bb89-f22e976a2f36","system_id":"levelo_inurba_marseille","lat":43.24175,"lon":5.397031,"is_reserved":false,"is_disabled":false,"rental_uris":{"android":"levelo://app?vid=06aa1e22-882b-4a8c-bb89-f22e976a2f36","ios":"levelo://app?vid=06aa1e22-882b-4a8c-bb89-f22e976a2f36"},"vehicle_type_id":"4","last_reported":1768842965,"current_range_meters":6000,"station_id":"ce4bhn12rcd13ifvqgpg","pricing_plan_id":"cebpf4jnsgd1na2vs0mg"},{"bike_id":"f2aab13c-9911-4962-908b-fff1df02f6b9","system_id":"levelo_inurba_marseille","lat":43.25114,"lon":5.40325,"is_reserved":false,"is_disabled":false,"rental_uris":{"android":"levelo://app?vid=f2aab13c-9911-4962-908b-fff1df02f6b9","ios":"levelo://app?vid=f2aab13c-9911-4962-908b-fff1df02f6b9"},"vehicle_type_id":"4","last_reported":1768842965,"current_range_meters":6000,"station_id":"ce4bhlh2rcd13ifvqgig","pricing_plan_id":"cebpf4jnsgd1na2vs0mg"},{"bike_id":"dc9b8f42-6fb6-4a92-81b5-3ba3201183a1","system_id":"levelo_inurba_marseille","lat":43.29982,"lon":5.38494,"is_reserved":false,"is_disabled":true,"rental_uris":{"android":"levelo://app?vid=dc9b8f42-6fb6-4a92-81b5-3ba3201183a1","ios":"levelo://app?vid=dc9b8f42-6fb6-4a92-81b5-3ba3201183a1"},"vehicle_type_id":"4","last_reported":1768842965,"current_range_meters":6000,"station_id":"ce4bgj92rcd13ifvqbd0","pricing_plan_id":"cebpf4jnsgd1na2vs0mg"},{"bike_id":"d3812b38-2182-4903-b326-c4852403c5ce","system_id":"levelo_inurba_marseille","lat":43.287439,"lon":5.371705,"is_reserved":false,"is_disabled":false,"rental_uris":{"android":"levelo://app?vid=d3812b38-2182-4903-b326-c4852403c5ce","ios":"levelo://app?vid=d3812b38-2182-4903-b326-c4852403c5ce"},"vehicle_type_id":"4","last_reported":1768842965,"current_range_meters":6000,"station_id":"","pricing_plan_id":"cebpf4jnsgd1na2vs0mg"},{"bike_id":"58713724-2b25-4434-ac95-768a9f7f218a","system_id":"levelo_inurba_marseille","lat":43.25221,"lon":5.38037,"is_reserved":false,"is_disabled":false,"rental_uris":{"android":"levelo://app?vid=58713724-2b25-4434-ac95-768a9f7f218a","ios":"levelo://app?vid=58713724-2b25-4434-ac95-768a9f7f218a"},"vehicle_type_id":"4","last_reported":1768842965,"current_range_meters":6000,"station_id":"","pricing_plan_id":"cebpf4jnsgd1na2vs0mg"},{"bike_id":"51f05534-ddaa-4dd4-a0a5-d65cf93c09e6","system_id":"levelo_inurba_marseille","lat":43.2707,"lon":5.42279,"is_reserved":false,"is_disabled":false,"rental_uris":{"android":"levelo://app?vid=51f05534-ddaa-4dd4-a0a5-d65cf93c09e6","ios":"levelo://app?vid=51f05534-ddaa-4dd4-a0a5-d65cf93c09e6"},"vehicle_type_id":"4","last_reported":1768842965,"current_range_meters":6000,"station_id":"ce4bhk92rcd13ifvqgb0","pricing_plan_id":"cebpf4jnsgd1na2vs0mg"},{"bike_id":"fc67e3f2-2883-4821-838b-cbd3c636615f","system_id":"levelo_inurba_marseille","lat":43.24178,"lon":5.39726,"is_reserved":false,"is_disabled":false,"rental_uris":{"android":"levelo://app?vid=fc67e3f2-2883-4821-838b-cbd3c636615f","ios":"levelo://app?vid=fc67e3f2-2883-4821-838b-cbd3c636615f"},"vehicle_type_id":"4","last_reported":1768842965,"current_range_meters":6000,"station_id":"ce4bhn12rcd13ifvqgpg","pricing_plan_id":"cebpf4jnsgd1na2vs0mg"},{"bike_id":"e057ae2d-4eea-4583-8acf-116960ce087b","system_id":"levelo_inurba_marseille","lat":43.27813,"lon":5.40724,"is_reserved":false,"is_disabled":false,"rental_uris":{"android":"levelo://app?vid=e057ae2d-4eea-4583-8acf-116960ce087b","ios":"levelo://app?vid=e057ae2d-4eea-4583-8acf-116960ce087b"},"vehicle_type_id":"4","last_reported":1768842965,"current_range_meters":6000,"station_id":"ce4bhnh2rcd13ifvqgtg","pricing_plan_id":"cebpf4jnsgd1na2vs0mg"},{"bike_id":"74936c71-37c2-4317-ac96-b6773140ff2e","system_id":"levelo_inurba_marseille","lat":43.2586,"lon":5.39896,"is_reserved":false,"is_disabled":false,"rental_uris":{"android":"levelo://app?vid=74936c71-37c2-4317-ac96-b6773140ff2e","ios":"levelo://app?vid=74936c71-37c2-4317-ac96-b6773140ff2e"},"vehicle_type_id":"4","last_reported":1768842965,"current_range_meters":6000,"station_id":"ce4bhl92rcd13ifvqghg","pricing_plan_id":"cebpf4jnsgd1na2vs0mg"},{"bike_id":"ddc9e117-7fb8-4cb9-87ea-9a0bb1767c17","system_id":"levelo_inurba_marseille","lat":43.213824,"lon":5.350399,"is_reserved":false,"is_disabled":false,"rental_uris":{"android":"levelo://app?vid=ddc9e117-7fb8-4cb9-87ea-9a0bb1767c17","ios":"levelo://app?vid=ddc9e117-7fb8-4cb9-87ea-9a0bb1767c17"},"vehicle_type_id":"4","last_reported":1768842965,"current_range_meters":6000,"station_id":"","pricing_plan_id":"cebpf4jnsgd1na2vs0mg"},{"bike_id":"bcb4f111-2e1c-432b-a51f-6efeb1df1fa1","system_id":"levelo_inurba_marseille","lat":43.30207,"lon":5.39467,"is_reserved":false,"is_disabled":false,"rental_uris":{"android":"levelo://app?vid=bcb4f111-2e1c-432b-a51f-6efeb1df1fa1","ios":"levelo://app?vid=bcb4f111-2e1c-432b-a51f-6efeb1df1fa1"},"vehicle_type_id":"4","last_reported":1768842965,"current_range_meters":6000,"station_id":"ce4bh0p2rcd13ifvqd70","pricing_plan_id":"cebpf4jnsgd1na2vs0mg"},{"bike_id":"9e9a94e3-7bbd-41a4-b8da-ef406612944c","system_id":"levelo_inurba_marseille","lat":43.29002,"lon":5.35606,"is_reserved":false,"is_disabled":false,"rental_uris":{"android":"levelo://app?vid=9e9a94e3-7bbd-41a4-b8da-ef406612944c","ios":"levelo://app?vid=9e9a94e3-7bbd-41a4-b8da-ef406612944c"},"vehicle_type_id":"4","last_reported":1768842965,"current_range_meters":6400,"station_id":"ce4bhb92rcd13ifvqen0","pricing_plan_id":"cebpf4jnsgd1na2vs0mg"},{"bike_id":"5e913fdb-26fe-4c7f-9b49-21481a7c6dd0","system_id":"levelo_inurba_marseille","lat":43.25516,"lon":5.37652,"is_reserved":false,"is_disabled":false,"rental_uris":{"android":"levelo://app?vid=5e913fdb-26fe-4c7f-9b49-21481a7c6dd0","ios":"levelo://app?vid=5e913fdb-26fe-4c7f-9b49-21481a7c6dd0"},"vehicle_type_id":"4","last_reported":1768842965,"current_range_meters":6400,"station_id":"ce4bhh12rcd13ifvqff0","pricing_plan_id":"cebpf4jnsgd1na2vs0mg"},{"bike_id":"57d29cba-b269-4d3a-9f6a-9e2e25fad12b","system_id":"levelo_inurba_marseille","lat":43.24797,"lon":5.37446,"is_reserved":false,"is_disabled":false,"rental_uris":{"android":"levelo://app?vid=57d29cba-b269-4d3a-9f6a-9e2e25fad12b","ios":"levelo://app?vid=57d29cba-b269-4d3a-9f6a-9e2e25fad12b"},"vehicle_type_id":"4","last_reported":1768842965,"current_range_meters":6400,"station_id":"ce4bhgh2rcd13ifvqfb0","pricing_plan_id":"cebpf4jnsgd1na2vs0mg"},{"bike_id":"3317078b-11e7-4680-9be0-175f4cabc19a","system_id":"levelo_inurba_marseille","lat":43.28172,"lon":5.4262,"is_reserved":false,"is_disabled":false,"rental_uris":{"android":"levelo://app?vid=3317078b-11e7-4680-9be0-175f4cabc19a","ios":"levelo://app?vid=3317078b-11e7-4680-9be0-175f4cabc19a"},"vehicle_type_id":"4","last_reported":1768842965,"current_range_meters":6400,"station_id":"ce4bhnh2rcd13ifvqgug","pricing_plan_id":"cebpf4jnsgd1na2vs0mg"},{"bike_id":"1dd59fdd-775c-4c2f-a5a5-3355fae7a44c","system_id":"levelo_inurba_marseille","lat":43.27815,"lon":5.40713,"is_reserved":false,"is_disabled":false,"rental_uris":{"android":"levelo://app?vid=1dd59fdd-775c-4c2f-a5a5-3355fae7a44c","ios":"levelo://app?vid=1dd59fdd-775c-4c2f-a5a5-3355fae7a44c"},"vehicle_type_id":"4","last_reported":1768842965,"current_range_meters":6400,"station_id":"ce4bhnh2rcd13ifvqgtg","pricing_plan_id":"cebpf4jnsgd1na2vs0mg"},{"bike_id":"5704e9bd-5b46-470f-b72c-dc5633415471","system_id":"levelo_inurba_marseille","lat":43.231447,"lon":5.437159,"is_reserved":false,"is_disabled":true,"rental_uris":{"android":"levelo://app?vid=5704e9bd-5b46-470f-b72c-dc5633415471","ios":"levelo://app?vid=5704e9bd-5b46-470f-b72c-dc5633415471"},"vehicle_type_id":"4","last_reported":1768842965,"current_range_meters":6400,"station_id":"ce4bhmp2rcd13ifvqgog","pricing_plan_id":"cebpf4jnsgd1na2vs0mg"},{"bike_id":"6826bd01-63c6-48aa-910b-a79cc9be5130","system_id":"levelo_inurba_marseille","lat":43.30802,"lon":5.38163,"is_reserved":false,"is_disabled":false,"rental_uris":{"android":"levelo://app?vid=6826bd01-63c6-48aa-910b-a79cc9be5130","ios":"levelo://app?vid=6826bd01-63c6-48aa-910b-a79cc9be5130"},"vehicle_type_id":"4","last_reported":1768842965,"current_range_meters":6400,"station_id":"ce4bgt12rcd13ifvqce0","pricing_plan_id":"cebpf4jnsgd1na2vs0mg"},{"bike_id":"5bdbac83-4ca9-4acc-953c-d7ce0bac2fc0","system_id":"levelo_inurba_marseille","lat":43.33753,"lon":5.37462,"is_reserved":false,"is_disabled":false,"rental_uris":{"android":"levelo://app?vid=5bdbac83-4ca9-4acc-953c-d7ce0bac2fc0","ios":"levelo://app?vid=5bdbac83-4ca9-4acc-953c-d7ce0bac2fc0"},"vehicle_type_id":"4","last_reported":1768842965,"current_range_meters":6400,"station_id":"","pricing_plan_id":"cebpf4jnsgd1na2vs0mg"},{"bike_id":"306ae422-344d-4e31-b790-440e968153a0","system_id":"levelo_inurba_marseille","lat":43.253174,"lon":5.380134,"is_reserved":false,"is_disabled":false,"rental_uris":{"android":"levelo://app?vid=306ae422-344d-4e31-b790-440e968153a0","ios":"levelo://app?vid=306ae422-344d-4e31-b790-440e968153a0"},"vehicle_type_id":"4","last_reported":1768842965,"current_range_meters":6400,"station_id":"","pricing_plan_id":"cebpf4jnsgd1na2vs0mg"},{"bike_id":"8cdf8895-c87f-4009-981a-69e705d24b45","system_id":"levelo_inurba_marseille","lat":43.253465,"lon":5.421697,"is_reserved":false,"is_disabled":false,"rental_uris":{"android":"levelo://app?vid=8cdf8895-c87f-4009-981a-69e705d24b45","ios":"levelo://app?vid=8cdf8895-c87f-4009-981a-69e705d24b45"},"vehicle_type_id":"4","last_reported":1768842965,"current_range_meters":6400,"station_id":"st_d2m65c5bi1j21697t3ng","pricing_plan_id":"cebpf4jnsgd1na2vs0mg"},{"bike_id":"5ae88bbd-8cbd-41bb-a736-0a14706247a2","system_id":"levelo_inurba_marseille","lat":43.26564,"lon":5.40325,"is_reserved":false,"is_disabled":false,"rental_uris":{"android":"levelo://app?vid=5ae88bbd-8cbd-41bb-a736-0a14706247a2","ios":"levelo://app?vid=5ae88bbd-8cbd-41bb-a736-0a14706247a2"},"vehicle_type_id":"4","last_reported":1768842965,"current_range_meters":6400,"station_id":"ce4bhmp2rcd13ifvqgng","pricing_plan_id":"cebpf4jnsgd1na2vs0mg"},{"bike_id":"8f8e260c-38fd-4641-a80f-706f3d6d18ed","system_id":"levelo_inurba_marseille","lat":43.298931,"lon":5.43675,"is_reserved":false,"is_disabled":false,"rental_uris":{"android":"levelo://app?vid=8f8e260c-38fd-4641-a80f-706f3d6d18ed","ios":"levelo://app?vid=8f8e260c-38fd-4641-a80f-706f3d6d18ed"},"vehicle_type_id":"4","last_reported":1768842965,"current_range_meters":6400,"station_id":"ce4bhpp2rcd13ifvqhfg","pricing_plan_id":"cebpf4jnsgd1na2vs0mg"},{"bike_id":"ec057e15-ce48-4046-983f-b6d1e6e78d2b","system_id":"levelo_inurba_marseille","lat":43.3021,"lon":5.39461,"is_reserved":false,"is_disabled":false,"rental_uris":{"android":"levelo://app?vid=ec057e15-ce48-4046-983f-b6d1e6e78d2b","ios":"levelo://app?vid=ec057e15-ce48-4046-983f-b6d1e6e78d2b"},"vehicle_type_id":"4","last_reported":1768842965,"current_range_meters":6400,"station_id":"ce4bh0p2rcd13ifvqd70","pricing_plan_id":"cebpf4jnsgd1na2vs0mg"},{"bike_id":"6f837731-cf54-4967-8659-d0cccc748050","system_id":"levelo_inurba_marseille","lat":43.26403,"lon":5.40935,"is_reserved":false,"is_disabled":false,"rental_uris":{"android":"levelo://app?vid=6f837731-cf54-4967-8659-d0cccc748050","ios":"levelo://app?vid=6f837731-cf54-4967-8659-d0cccc748050"},"vehicle_type_id":"4","last_reported":1768842965,"current_range_meters":6400,"station_id":"st_d4e5ca6na9uc73bfl5fg","pricing_plan_id":"cebpf4jnsgd1na2vs0mg"},{"bike_id":"5c25bd2e-b42a-4f91-bc7b-df87c24477e2","system_id":"levelo_inurba_marseille","lat":43.26503,"lon":5.39529,"is_reserved":false,"is_disabled":false,"rental_uris":{"android":"levelo://app?vid=5c25bd2e-b42a-4f91-bc7b-df87c24477e2","ios":"levelo://app?vid=5c25bd2e-b42a-4f91-bc7b-df87c24477e2"},"vehicle_type_id":"4","last_reported":1768842965,"current_range_meters":6400,"station_id":"ce4bhi12rcd13ifvqfq0","pricing_plan_id":"cebpf4jnsgd1na2vs0mg"},{"bike_id":"8ebc361f-23b0-4d5b-a591-0256a70eb6b0","system_id":"levelo_inurba_marseille","lat":43.25329,"lon":5.42174,"is_reserved":false,"is_disabled":false,"rental_uris":{"android":"levelo://app?vid=8ebc361f-23b0-4d5b-a591-0256a70eb6b0","ios":"levelo://app?vid=8ebc361f-23b0-4d5b-a591-0256a70eb6b0"},"vehicle_type_id":"4","last_reported":1768842965,"current_range_meters":6400,"station_id":"st_d2m65c5bi1j21697t3ng","pricing_plan_id":"cebpf4jnsgd1na2vs0mg"},{"bike_id":"20df884b-a2b2-44f7-a1cf-24de25e06883","system_id":"levelo_inurba_marseille","lat":43.27209,"lon":5.39183,"is_reserved":false,"is_disabled":false,"rental_uris":{"android":"levelo://app?vid=20df884b-a2b2-44f7-a1cf-24de25e06883","ios":"levelo://app?vid=20df884b-a2b2-44f7-a1cf-24de25e06883"},"vehicle_type_id":"4","last_reported":1768842965,"current_range_meters":6800,"station_id":"ce4bhhp2rcd13ifvqfm0","pricing_plan_id":"cebpf4jnsgd1na2vs0mg"},{"bike_id":"51cc78b3-56e5-468f-95db-127ca277f928","system_id":"levelo_inurba_marseille","lat":43.25023,"lon":5.38943,"is_reserved":false,"is_disabled":false,"rental_uris":{"android":"levelo://app?vid=51cc78b3-56e5-468f-95db-127ca277f928","ios":"levelo://app?vid=51cc78b3-56e5-468f-95db-127ca277f928"},"vehicle_type_id":"4","last_reported":1768842965,"current_range_meters":6800,"station_id":"ce4bhgp2rcd13ifvqfd0","pricing_plan_id":"cebpf4jnsgd1na2vs0mg"},{"bike_id":"2cc52db2-92c1-41f5-9aa5-9791cf5ed79e","system_id":"levelo_inurba_marseille","lat":43.24811,"lon":5.37458,"is_reserved":false,"is_disabled":false,"rental_uris":{"android":"levelo://app?vid=2cc52db2-92c1-41f5-9aa5-9791cf5ed79e","ios":"levelo://app?vid=2cc52db2-92c1-41f5-9aa5-9791cf5ed79e"},"vehicle_type_id":"4","last_reported":1768842965,"current_range_meters":6800,"station_id":"ce4bhgh2rcd13ifvqfb0","pricing_plan_id":"cebpf4jnsgd1na2vs0mg"},{"bike_id":"467b3266-2838-4d80-99cd-af8f2352e50e","system_id":"levelo_inurba_marseille","lat":43.29582,"lon":5.36738,"is_reserved":false,"is_disabled":false,"rental_uris":{"android":"levelo://app?vid=467b3266-2838-4d80-99cd-af8f2352e50e","ios":"levelo://app?vid=467b3266-2838-4d80-99cd-af8f2352e50e"},"vehicle_type_id":"4","last_reported":1768842965,"current_range_meters":6800,"station_id":"ce4bgph2rcd13ifvqc2g","pricing_plan_id":"cebpf4jnsgd1na2vs0mg"},{"bike_id":"13da125f-4521-4fe2-a137-a13bd6fc1b34","system_id":"levelo_inurba_marseille","lat":43.25337,"lon":5.42169,"is_reserved":false,"is_disabled":false,"rental_uris":{"android":"levelo://app?vid=13da125f-4521-4fe2-a137-a13bd6fc1b34","ios":"levelo://app?vid=13da125f-4521-4fe2-a137-a13bd6fc1b34"},"vehicle_type_id":"4","last_reported":1768842965,"current_range_meters":6800,"station_id":"st_d2m65c5bi1j21697t3ng","pricing_plan_id":"cebpf4jnsgd1na2vs0mg"},{"bike_id":"b3a5dde9-21f1-4ba6-a203-7f34d4a478bb","system_id":"levelo_inurba_marseille","lat":43.287,"lon":5.37391,"is_reserved":false,"is_disabled":false,"rental_uris":{"android":"levelo://app?vid=b3a5dde9-21f1-4ba6-a203-7f34d4a478bb","ios":"levelo://app?vid=b3a5dde9-21f1-4ba6-a203-7f34d4a478bb"},"vehicle_type_id":"4","last_reported":1768842965,"current_range_meters":6800,"station_id":"ce4bh3p2rcd13ifvqdq0","pricing_plan_id":"cebpf4jnsgd1na2vs0mg"},{"bike_id":"a83679e3-65d3-49c0-aa96-4844e203de21","system_id":"levelo_inurba_marseille","lat":43.33758,"lon":5.37493,"is_reserved":false,"is_disabled":false,"rental_uris":{"android":"levelo://app?vid=a83679e3-65d3-49c0-aa96-4844e203de21","ios":"levelo://app?vid=a83679e3-65d3-49c0-aa96-4844e203de21"},"vehicle_type_id":"4","last_reported":1768842965,"current_range_meters":6800,"station_id":"","pricing_plan_id":"cebpf4jnsgd1na2vs0mg"},{"bike_id":"acaa8ffd-d6bb-453e-8ba1-c98b6c468cd3","system_id":"levelo_inurba_marseille","lat":43.22928,"lon":5.35381,"is_reserved":false,"is_disabled":false,"rental_uris":{"android":"levelo://app?vid=acaa8ffd-d6bb-453e-8ba1-c98b6c468cd3","ios":"levelo://app?vid=acaa8ffd-d6bb-453e-8ba1-c98b6c468cd3"},"vehicle_type_id":"4","last_reported":1768842965,"current_range_meters":6800,"station_id":"cpo3532slgdg3j2ikp40","pricing_plan_id":"cebpf4jnsgd1na2vs0mg"},{"bike_id":"2f41e160-ae0e-4981-a182-e0ec9c9778a7","system_id":"levelo_inurba_marseille","lat":43.264946,"lon":5.395401,"is_reserved":false,"is_disabled":false,"rental_uris":{"android":"levelo://app?vid=2f41e160-ae0e-4981-a182-e0ec9c9778a7","ios":"levelo://app?vid=2f41e160-ae0e-4981-a182-e0ec9c9778a7"},"vehicle_type_id":"4","last_reported":1768842965,"current_range_meters":6800,"station_id":"ce4bhi12rcd13ifvqfq0","pricing_plan_id":"cebpf4jnsgd1na2vs0mg"},{"bike_id":"39e2303f-e343-43e5-8d9f-8cf1dfd04495","system_id":"levelo_inurba_marseille","lat":43.2558,"lon":5.38231,"is_reserved":false,"is_disabled":false,"rental_uris":{"android":"levelo://app?vid=39e2303f-e343-43e5-8d9f-8cf1dfd04495","ios":"levelo://app?vid=39e2303f-e343-43e5-8d9f-8cf1dfd04495"},"vehicle_type_id":"4","last_reported":1768842965,"current_range_meters":6800,"station_id":"ce4bhih2rcd13ifvqfs0","pricing_plan_id":"cebpf4jnsgd1na2vs0mg"},{"bike_id":"c627df74-3bee-40f9-af28-91d6dfc2b23d","system_id":"levelo_inurba_marseille","lat":43.26209,"lon":5.37441,"is_reserved":false,"is_disabled":false,"rental_uris":{"android":"levelo://app?vid=c627df74-3bee-40f9-af28-91d6dfc2b23d","ios":"levelo://app?vid=c627df74-3bee-40f9-af28-91d6dfc2b23d"},"vehicle_type_id":"4","last_reported":1768842965,"current_range_meters":6800,"station_id":"ce4bhgp2rcd13ifvqfc0","pricing_plan_id":"cebpf4jnsgd1na2vs0mg"},{"bike_id":"ccc4ff47-1441-4ab4-a8dc-dc13c4eaa1c1","system_id":"levelo_inurba_marseille","lat":43.2256,"lon":5.41646,"is_reserved":false,"is_disabled":false,"rental_uris":{"android":"levelo://app?vid=ccc4ff47-1441-4ab4-a8dc-dc13c4eaa1c1","ios":"levelo://app?vid=ccc4ff47-1441-4ab4-a8dc-dc13c4eaa1c1"},"vehicle_type_id":"4","last_reported":1768842965,"current_range_meters":6800,"station_id":"st_d2o4gvlbi1j2169b742g","pricing_plan_id":"cebpf4jnsgd1na2vs0mg"},{"bike_id":"3bff1722-2d94-4fad-b0de-e97e95277ca6","system_id":"levelo_inurba_marseille","lat":43.25194,"lon":5.40071,"is_reserved":false,"is_disabled":false,"rental_uris":{"android":"levelo://app?vid=3bff1722-2d94-4fad-b0de-e97e95277ca6","ios":"levelo://app?vid=3bff1722-2d94-4fad-b0de-e97e95277ca6"},"vehicle_type_id":"4","last_reported":1768842965,"current_range_meters":6800,"station_id":"","pricing_plan_id":"cebpf4jnsgd1na2vs0mg"},{"bike_id":"f0befa4e-2514-4cfc-9d8e-5e61727dd335","system_id":"levelo_inurba_marseille","lat":43.28993,"lon":5.35602,"is_reserved":false,"is_disabled":false,"rental_uris":{"android":"levelo://app?vid=f0befa4e-2514-4cfc-9d8e-5e61727dd335","ios":"levelo://app?vid=f0befa4e-2514-4cfc-9d8e-5e61727dd335"},"vehicle_type_id":"4","last_reported":1768842965,"current_range_meters":6800,"station_id":"ce4bhb92rcd13ifvqen0","pricing_plan_id":"cebpf4jnsgd1na2vs0mg"},{"bike_id":"021245d1-2447-411c-ae8b-dc86f3fa4f87","system_id":"levelo_inurba_marseille","lat":43.26492,"lon":5.39531,"is_reserved":false,"is_disabled":false,"rental_uris":{"android":"levelo://app?vid=021245d1-2447-411c-ae8b-dc86f3fa4f87","ios":"levelo://app?vid=021245d1-2447-411c-ae8b-dc86f3fa4f87"},"vehicle_type_id":"4","last_reported":1768842965,"current_range_meters":6800,"station_id":"ce4bhi12rcd13ifvqfq0","pricing_plan_id":"cebpf4jnsgd1na2vs0mg"},{"bike_id":"f3f5b74d-0bcb-4cda-b9f7-63bd4c7d4b10","system_id":"levelo_inurba_marseille","lat":43.31113,"lon":5.37771,"is_reserved":false,"is_disabled":false,"rental_uris":{"android":"levelo://app?vid=f3f5b74d-0bcb-4cda-b9f7-63bd4c7d4b10","ios":"levelo://app?vid=f3f5b74d-0bcb-4cda-b9f7-63bd4c7d4b10"},"vehicle_type_id":"4","last_reported":1768842965,"current_range_meters":6800,"station_id":"ce4bgt92rcd13ifvqcg0","pricing_plan_id":"cebpf4jnsgd1na2vs0mg"},{"bike_id":"43565008-54b6-415c-9faf-fa9e6acb1f2c","system_id":"levelo_inurba_marseille","lat":43.279939,"lon":5.399814,"is_reserved":false,"is_disabled":false,"rental_uris":{"android":"levelo://app?vid=43565008-54b6-415c-9faf-fa9e6acb1f2c","ios":"levelo://app?vid=43565008-54b6-415c-9faf-fa9e6acb1f2c"},"vehicle_type_id":"4","last_reported":1768842965,"current_range_meters":6800,"station_id":"ce4bho92rcd13ifvqh4g","pricing_plan_id":"cebpf4jnsgd1na2vs0mg"},{"bike_id":"0ff432a7-28b1-4191-8542-2688c5f92a6a","system_id":"levelo_inurba_marseille","lat":43.28606,"lon":5.39873,"is_reserved":false,"is_disabled":false,"rental_uris":{"android":"levelo://app?vid=0ff432a7-28b1-4191-8542-2688c5f92a6a","ios":"levelo://app?vid=0ff432a7-28b1-4191-8542-2688c5f92a6a"},"vehicle_type_id":"4","last_reported":1768842965,"current_range_meters":6800,"station_id":"st_d4a7ka997mjs738ck50g","pricing_plan_id":"cebpf4jnsgd1na2vs0mg"},{"bike_id":"c4c5445e-0361-445e-a9fe-b9e83ea33c5f","system_id":"levelo_inurba_marseille","lat":43.28676,"lon":5.38664,"is_reserved":false,"is_disabled":false,"rental_uris":{"android":"levelo://app?vid=c4c5445e-0361-445e-a9fe-b9e83ea33c5f","ios":"levelo://app?vid=c4c5445e-0361-445e-a9fe-b9e83ea33c5f"},"vehicle_type_id":"4","last_reported":1768842965,"current_range_meters":6800,"station_id":"ce4bh492rcd13ifvqdug","pricing_plan_id":"cebpf4jnsgd1na2vs0mg"},{"bike_id":"94aeae8a-9fb2-4f81-b6ec-023bd3b5cfed","system_id":"levelo_inurba_marseille","lat":43.29776,"lon":5.39351,"is_reserved":false,"is_disabled":false,"rental_uris":{"android":"levelo://app?vid=94aeae8a-9fb2-4f81-b6ec-023bd3b5cfed","ios":"levelo://app?vid=94aeae8a-9fb2-4f81-b6ec-023bd3b5cfed"},"vehicle_type_id":"4","last_reported":1768842965,"current_range_meters":6800,"station_id":"chh1huq6cuj3fo74tm60","pricing_plan_id":"cebpf4jnsgd1na2vs0mg"},{"bike_id":"b9191914-44a7-40fa-86b6-e12b060320ad","system_id":"levelo_inurba_marseille","lat":43.295227,"lon":5.390226,"is_reserved":false,"is_disabled":false,"rental_uris":{"android":"levelo://app?vid=b9191914-44a7-40fa-86b6-e12b060320ad","ios":"levelo://app?vid=b9191914-44a7-40fa-86b6-e12b060320ad"},"vehicle_type_id":"4","last_reported":1768842965,"current_range_meters":6800,"station_id":"ce4bh0p2rcd13ifvqd70","pricing_plan_id":"cebpf4jnsgd1na2vs0mg"},{"bike_id":"6e9b6b97-5d70-4240-9be3-e1c7733e258a","system_id":"levelo_inurba_marseille","lat":43.28693,"lon":5.37416,"is_reserved":false,"is_disabled":false,"rental_uris":{"android":"levelo://app?vid=6e9b6b97-5d70-4240-9be3-e1c7733e258a","ios":"levelo://app?vid=6e9b6b97-5d70-4240-9be3-e1c7733e258a"},"vehicle_type_id":"4","last_reported":1768842965,"current_range_meters":6800,"station_id":"ce4bh3p2rcd13ifvqdq0","pricing_plan_id":"cebpf4jnsgd1na2vs0mg"},{"bike_id":"cf109d21-f6b6-498d-812b-e31f082dfa0f","system_id":"levelo_inurba_marseille","lat":43.24463,"lon":5.42539,"is_reserved":false,"is_disabled":false,"rental_uris":{"android":"levelo://app?vid=cf109d21-f6b6-498d-812b-e31f082dfa0f","ios":"levelo://app?vid=cf109d21-f6b6-498d-812b-e31f082dfa0f"},"vehicle_type_id":"4","last_reported":1768842965,"current_range_meters":7200,"station_id":"st_d4a3vfp97mjs738cd8kg","pricing_plan_id":"cebpf4jnsgd1na2vs0mg"},{"bike_id":"aa3643ff-356f-46c2-b40b-dc28ae448ae1","system_id":"levelo_inurba_marseille","lat":43.31206,"lon":5.3685,"is_reserved":false,"is_disabled":false,"rental_uris":{"android":"levelo://app?vid=aa3643ff-356f-46c2-b40b-dc28ae448ae1","ios":"levelo://app?vid=aa3643ff-356f-46c2-b40b-dc28ae448ae1"},"vehicle_type_id":"4","last_reported":1768842965,"current_range_meters":7200,"station_id":"ce4bgl92rcd13ifvqbq0","pricing_plan_id":"cebpf4jnsgd1na2vs0mg"},{"bike_id":"46d6d074-0010-4db5-a3ab-441825cc65bb","system_id":"levelo_inurba_marseille","lat":43.30185,"lon":5.37972,"is_reserved":false,"is_disabled":false,"rental_uris":{"android":"levelo://app?vid=46d6d074-0010-4db5-a3ab-441825cc65bb","ios":"levelo://app?vid=46d6d074-0010-4db5-a3ab-441825cc65bb"},"vehicle_type_id":"4","last_reported":1768842965,"current_range_meters":7200,"station_id":"","pricing_plan_id":"cebpf4jnsgd1na2vs0mg"},{"bike_id":"fbfb5801-eba1-478b-a00b-a94da627fa86","system_id":"levelo_inurba_marseille","lat":43.282712,"lon":5.350538,"is_reserved":false,"is_disabled":false,"rental_uris":{"android":"levelo://app?vid=fbfb5801-eba1-478b-a00b-a94da627fa86","ios":"levelo://app?vid=fbfb5801-eba1-478b-a00b-a94da627fa86"},"vehicle_type_id":"4","last_reported":1768842965,"current_range_meters":7200,"station_id":"ce4bhbp2rcd13ifvqerg","pricing_plan_id":"cebpf4jnsgd1na2vs0mg"},{"bike_id":"f336c3d1-92f0-437c-8a24-0fd4f7906c2d","system_id":"levelo_inurba_marseille","lat":43.265,"lon":5.39543,"is_reserved":false,"is_disabled":false,"rental_uris":{"android":"levelo://app?vid=f336c3d1-92f0-437c-8a24-0fd4f7906c2d","ios":"levelo://app?vid=f336c3d1-92f0-437c-8a24-0fd4f7906c2d"},"vehicle_type_id":"4","last_reported":1768842965,"current_range_meters":7200,"station_id":"","pricing_plan_id":"cebpf4jnsgd1na2vs0mg"},{"bike_id":"c88e3f2f-7746-468c-84af-4c94fedc143c","system_id":"levelo_inurba_marseille","lat":43.3137,"lon":5.366969,"is_reserved":false,"is_disabled":false,"rental_uris":{"android":"levelo://app?vid=c88e3f2f-7746-468c-84af-4c94fedc143c","ios":"levelo://app?vid=c88e3f2f-7746-468c-84af-4c94fedc143c"},"vehicle_type_id":"4","last_reported":1768842965,"current_range_meters":7200,"station_id":"ce4bgr92rcd13ifvqc6g","pricing_plan_id":"cebpf4jnsgd1na2vs0mg"},{"bike_id":"d6daaaa9-f946-4eab-92b9-574cc16557f1","system_id":"levelo_inurba_marseille","lat":43.27808,"lon":5.40709,"is_reserved":false,"is_disabled":false,"rental_uris":{"android":"levelo://app?vid=d6daaaa9-f946-4eab-92b9-574cc16557f1","ios":"levelo://app?vid=d6daaaa9-f946-4eab-92b9-574cc16557f1"},"vehicle_type_id":"4","last_reported":1768842965,"current_range_meters":7200,"station_id":"ce4bhnh2rcd13ifvqgtg","pricing_plan_id":"cebpf4jnsgd1na2vs0mg"},{"bike_id":"0328d966-1bb8-4104-bc8c-65287b271812","system_id":"levelo_inurba_marseille","lat":43.22935,"lon":5.35365,"is_reserved":false,"is_disabled":false,"rental_uris":{"android":"levelo://app?vid=0328d966-1bb8-4104-bc8c-65287b271812","ios":"levelo://app?vid=0328d966-1bb8-4104-bc8c-65287b271812"},"vehicle_type_id":"4","last_reported":1768842965,"current_range_meters":7200,"station_id":"cpo3532slgdg3j2ikp40","pricing_plan_id":"cebpf4jnsgd1na2vs0mg"},{"bike_id":"5f195323-5623-4e6c-81ad-6a125f1ac01b","system_id":"levelo_inurba_marseille","lat":43.27312,"lon":5.39094,"is_reserved":false,"is_disabled":false,"rental_uris":{"android":"levelo://app?vid=5f195323-5623-4e6c-81ad-6a125f1ac01b","ios":"levelo://app?vid=5f195323-5623-4e6c-81ad-6a125f1ac01b"},"vehicle_type_id":"4","last_reported":1768842965,"current_range_meters":7200,"station_id":"ce4bhgp2rcd13ifvqfe0","pricing_plan_id":"cebpf4jnsgd1na2vs0mg"},{"bike_id":"0789ce08-cfc4-477a-b0ad-2263f7185618","system_id":"levelo_inurba_marseille","lat":43.30571,"lon":5.36719,"is_reserved":false,"is_disabled":false,"rental_uris":{"android":"levelo://app?vid=0789ce08-cfc4-477a-b0ad-2263f7185618","ios":"levelo://app?vid=0789ce08-cfc4-477a-b0ad-2263f7185618"},"vehicle_type_id":"4","last_reported":1768842965,"current_range_meters":7200,"station_id":"ce4bgrp2rcd13ifvqc9g","pricing_plan_id":"cebpf4jnsgd1na2vs0mg"},{"bike_id":"52a54695-2fa8-4dbc-af4e-de36e0c11ef7","system_id":"levelo_inurba_marseille","lat":43.24951,"lon":5.40489,"is_reserved":false,"is_disabled":true,"rental_uris":{"android":"levelo://app?vid=52a54695-2fa8-4dbc-af4e-de36e0c11ef7","ios":"levelo://app?vid=52a54695-2fa8-4dbc-af4e-de36e0c11ef7"},"vehicle_type_id":"4","last_reported":1768842965,"current_range_meters":7200,"station_id":"st_d2ngiaodas8pm72gd1h0","pricing_plan_id":"cebpf4jnsgd1na2vs0mg"},{"bike_id":"d69c03d2-d23e-4cfe-8efc-4e7308a27e66","system_id":"levelo_inurba_marseille","lat":43.24953,"lon":5.40493,"is_reserved":false,"is_disabled":false,"rental_uris":{"android":"levelo://app?vid=d69c03d2-d23e-4cfe-8efc-4e7308a27e66","ios":"levelo://app?vid=d69c03d2-d23e-4cfe-8efc-4e7308a27e66"},"vehicle_type_id":"4","last_reported":1768842965,"current_range_meters":7200,"station_id":"st_d2ngiaodas8pm72gd1h0","pricing_plan_id":"cebpf4jnsgd1na2vs0mg"},{"bike_id":"57be3e91-b810-4f66-9bd9-c6a2219dc40e","system_id":"levelo_inurba_marseille","lat":43.31144,"lon":5.37972,"is_reserved":false,"is_disabled":false,"rental_uris":{"android":"levelo://app?vid=57be3e91-b810-4f66-9bd9-c6a2219dc40e","ios":"levelo://app?vid=57be3e91-b810-4f66-9bd9-c6a2219dc40e"},"vehicle_type_id":"4","last_reported":1768842965,"current_range_meters":7200,"station_id":"","pricing_plan_id":"cebpf4jnsgd1na2vs0mg"},{"bike_id":"1b7f204d-bf18-4931-a951-82a32badca9f","system_id":"levelo_inurba_marseille","lat":43.232,"lon":5.40004,"is_reserved":false,"is_disabled":false,"rental_uris":{"android":"levelo://app?vid=1b7f204d-bf18-4931-a951-82a32badca9f","ios":"levelo://app?vid=1b7f204d-bf18-4931-a951-82a32badca9f"},"vehicle_type_id":"4","last_reported":1768842965,"current_range_meters":7200,"station_id":"ce4bhn12rcd13ifvqgqg","pricing_plan_id":"cebpf4jnsgd1na2vs0mg"},{"bike_id":"1c9c535a-0e0c-4d30-b79f-90067fffd249","system_id":"levelo_inurba_marseille","lat":43.25336,"lon":5.42167,"is_reserved":false,"is_disabled":false,"rental_uris":{"android":"levelo://app?vid=1c9c535a-0e0c-4d30-b79f-90067fffd249","ios":"levelo://app?vid=1c9c535a-0e0c-4d30-b79f-90067fffd249"},"vehicle_type_id":"4","last_reported":1768842965,"current_range_meters":7200,"station_id":"st_d2m65c5bi1j21697t3ng","pricing_plan_id":"cebpf4jnsgd1na2vs0mg"},{"bike_id":"6323d876-7ccd-4c78-a867-219c210b49e9","system_id":"levelo_inurba_marseille","lat":43.301234,"lon":5.431107,"is_reserved":false,"is_disabled":false,"rental_uris":{"android":"levelo://app?vid=6323d876-7ccd-4c78-a867-219c210b49e9","ios":"levelo://app?vid=6323d876-7ccd-4c78-a867-219c210b49e9"},"vehicle_type_id":"4","last_reported":1768842965,"current_range_meters":8000,"station_id":"st_d3js3co5814s73ftftug","pricing_plan_id":"cebpf4jnsgd1na2vs0mg"},{"bike_id":"f4e48943-7c61-4e64-a2bb-8ed9a5946f73","system_id":"levelo_inurba_marseille","lat":43.28001,"lon":5.39996,"is_reserved":false,"is_disabled":false,"rental_uris":{"android":"levelo://app?vid=f4e48943-7c61-4e64-a2bb-8ed9a5946f73","ios":"levelo://app?vid=f4e48943-7c61-4e64-a2bb-8ed9a5946f73"},"vehicle_type_id":"4","last_reported":1768842965,"current_range_meters":8000,"station_id":"ce4bho92rcd13ifvqh4g","pricing_plan_id":"cebpf4jnsgd1na2vs0mg"},{"bike_id":"780cff24-2f0b-4214-a9d2-0d7056d089ce","system_id":"levelo_inurba_marseille","lat":43.26369,"lon":5.41081,"is_reserved":false,"is_disabled":false,"rental_uris":{"android":"levelo://app?vid=780cff24-2f0b-4214-a9d2-0d7056d089ce","ios":"levelo://app?vid=780cff24-2f0b-4214-a9d2-0d7056d089ce"},"vehicle_type_id":"4","last_reported":1768842965,"current_range_meters":8000,"station_id":"st_d4e5ca6na9uc73bfl5fg","pricing_plan_id":"cebpf4jnsgd1na2vs0mg"},{"bike_id":"afef40a4-d60a-4b10-8526-4ff9f145813a","system_id":"levelo_inurba_marseille","lat":43.31346,"lon":5.36698,"is_reserved":false,"is_disabled":false,"rental_uris":{"android":"levelo://app?vid=afef40a4-d60a-4b10-8526-4ff9f145813a","ios":"levelo://app?vid=afef40a4-d60a-4b10-8526-4ff9f145813a"},"vehicle_type_id":"4","last_reported":1768842965,"current_range_meters":8000,"station_id":"ce4bgr92rcd13ifvqc6g","pricing_plan_id":"cebpf4jnsgd1na2vs0mg"},{"bike_id":"8e22e51f-b20a-4bfc-80db-ddb3854cac14","system_id":"levelo_inurba_marseille","lat":43.28338,"lon":5.38109,"is_reserved":false,"is_disabled":false,"rental_uris":{"android":"levelo://app?vid=8e22e51f-b20a-4bfc-80db-ddb3854cac14","ios":"levelo://app?vid=8e22e51f-b20a-4bfc-80db-ddb3854cac14"},"vehicle_type_id":"4","last_reported":1768842965,"current_range_meters":8000,"station_id":"ce4bh412rcd13ifvqdr0","pricing_plan_id":"cebpf4jnsgd1na2vs0mg"},{"bike_id":"c06b80f3-99a1-4389-ab6b-57d7c0879532","system_id":"levelo_inurba_marseille","lat":43.31714,"lon":5.40456,"is_reserved":false,"is_disabled":false,"rental_uris":{"android":"levelo://app?vid=c06b80f3-99a1-4389-ab6b-57d7c0879532","ios":"levelo://app?vid=c06b80f3-99a1-4389-ab6b-57d7c0879532"},"vehicle_type_id":"4","last_reported":1768842965,"current_range_meters":8000,"station_id":"ce4bh012rcd13ifvqd00","pricing_plan_id":"cebpf4jnsgd1na2vs0mg"},{"bike_id":"c6722e87-d768-4b12-be63-f0f500f862ef","system_id":"levelo_inurba_marseille","lat":43.30131,"lon":5.38788,"is_reserved":false,"is_disabled":true,"rental_uris":{"android":"levelo://app?vid=c6722e87-d768-4b12-be63-f0f500f862ef","ios":"levelo://app?vid=c6722e87-d768-4b12-be63-f0f500f862ef"},"vehicle_type_id":"4","last_reported":1768842965,"current_range_meters":8000,"station_id":"ce4bghh2rcd13ifvqb60","pricing_plan_id":"cebpf4jnsgd1na2vs0mg"},{"bike_id":"05cd7e5a-b4bd-4b6f-b3d6-497cfd8d5643","system_id":"levelo_inurba_marseille","lat":43.25818,"lon":5.39442,"is_reserved":false,"is_disabled":false,"rental_uris":{"android":"levelo://app?vid=05cd7e5a-b4bd-4b6f-b3d6-497cfd8d5643","ios":"levelo://app?vid=05cd7e5a-b4bd-4b6f-b3d6-497cfd8d5643"},"vehicle_type_id":"4","last_reported":1768842965,"current_range_meters":8000,"station_id":"ce4bhip2rcd13ifvqft0","pricing_plan_id":"cebpf4jnsgd1na2vs0mg"},{"bike_id":"da0ad026-b199-4969-84a3-287aa818d529","system_id":"levelo_inurba_marseille","lat":43.28168,"lon":5.4264,"is_reserved":false,"is_disabled":false,"rental_uris":{"android":"levelo://app?vid=da0ad026-b199-4969-84a3-287aa818d529","ios":"levelo://app?vid=da0ad026-b199-4969-84a3-287aa818d529"},"vehicle_type_id":"4","last_reported":1768842965,"current_range_meters":8000,"station_id":"ce4bhnh2rcd13ifvqgug","pricing_plan_id":"cebpf4jnsgd1na2vs0mg"},{"bike_id":"4754b381-ed0a-4074-a1f1-a72a1d20517f","system_id":"levelo_inurba_marseille","lat":43.24471,"lon":5.42576,"is_reserved":false,"is_disabled":false,"rental_uris":{"android":"levelo://app?vid=4754b381-ed0a-4074-a1f1-a72a1d20517f","ios":"levelo://app?vid=4754b381-ed0a-4074-a1f1-a72a1d20517f"},"vehicle_type_id":"4","last_reported":1768842965,"current_range_meters":8000,"station_id":"st_d4a3vfp97mjs738cd8kg","pricing_plan_id":"cebpf4jnsgd1na2vs0mg"},{"bike_id":"307d0b8c-c0ca-405e-9cdd-5e9ec8105ff2","system_id":"levelo_inurba_marseille","lat":43.279952,"lon":5.416724,"is_reserved":false,"is_disabled":false,"rental_uris":{"android":"levelo://app?vid=307d0b8c-c0ca-405e-9cdd-5e9ec8105ff2","ios":"levelo://app?vid=307d0b8c-c0ca-405e-9cdd-5e9ec8105ff2"},"vehicle_type_id":"4","last_reported":1768842965,"current_range_meters":8000,"station_id":"ce4bho12rcd13ifvqh1g","pricing_plan_id":"cebpf4jnsgd1na2vs0mg"},{"bike_id":"6b69fba9-79f1-4149-b974-3eb802cc0fd8","system_id":"levelo_inurba_marseille","lat":43.317124,"lon":5.436972,"is_reserved":false,"is_disabled":false,"rental_uris":{"android":"levelo://app?vid=6b69fba9-79f1-4149-b974-3eb802cc0fd8","ios":"levelo://app?vid=6b69fba9-79f1-4149-b974-3eb802cc0fd8"},"vehicle_type_id":"4","last_reported":1768842965,"current_range_meters":8000,"station_id":"ce4bhp92rcd13ifvqhcg","pricing_plan_id":"cebpf4jnsgd1na2vs0mg"},{"bike_id":"577bc121-cb16-4831-9d98-1ec1907af138","system_id":"levelo_inurba_marseille","lat":43.24165,"lon":5.36398,"is_reserved":false,"is_disabled":false,"rental_uris":{"android":"levelo://app?vid=577bc121-cb16-4831-9d98-1ec1907af138","ios":"levelo://app?vid=577bc121-cb16-4831-9d98-1ec1907af138"},"vehicle_type_id":"4","last_reported":1768842965,"current_range_meters":8400,"station_id":"cpo36qri1sfpv3e86is0","pricing_plan_id":"cebpf4jnsgd1na2vs0mg"},{"bike_id":"7dd13941-101d-45cd-b1ba-9319f32c063f","system_id":"levelo_inurba_marseille","lat":43.323496,"lon":5.367318,"is_reserved":false,"is_disabled":false,"rental_uris":{"android":"levelo://app?vid=7dd13941-101d-45cd-b1ba-9319f32c063f","ios":"levelo://app?vid=7dd13941-101d-45cd-b1ba-9319f32c063f"},"vehicle_type_id":"4","last_reported":1768842965,"current_range_meters":8400,"station_id":"ce4bhsh2rcd13ifvqi2g","pricing_plan_id":"cebpf4jnsgd1na2vs0mg"},{"bike_id":"4650f407-bc82-4c79-8bf1-e1e423078e7c","system_id":"levelo_inurba_marseille","lat":43.27996,"lon":5.4001,"is_reserved":false,"is_disabled":false,"rental_uris":{"android":"levelo://app?vid=4650f407-bc82-4c79-8bf1-e1e423078e7c","ios":"levelo://app?vid=4650f407-bc82-4c79-8bf1-e1e423078e7c"},"vehicle_type_id":"4","last_reported":1768842965,"current_range_meters":8400,"station_id":"ce4bho92rcd13ifvqh4g","pricing_plan_id":"cebpf4jnsgd1na2vs0mg"},{"bike_id":"86265432-a1f8-4465-89b4-518a4facc392","system_id":"levelo_inurba_marseille","lat":43.24167,"lon":5.39718,"is_reserved":false,"is_disabled":false,"rental_uris":{"android":"levelo://app?vid=86265432-a1f8-4465-89b4-518a4facc392","ios":"levelo://app?vid=86265432-a1f8-4465-89b4-518a4facc392"},"vehicle_type_id":"4","last_reported":1768842965,"current_range_meters":8400,"station_id":"ce4bhn12rcd13ifvqgpg","pricing_plan_id":"cebpf4jnsgd1na2vs0mg"},{"bike_id":"12b74617-9d23-477b-808a-4d98d0a13eaa","system_id":"levelo_inurba_marseille","lat":43.311326,"lon":5.377889,"is_reserved":false,"is_disabled":false,"rental_uris":{"android":"levelo://app?vid=12b74617-9d23-477b-808a-4d98d0a13eaa","ios":"levelo://app?vid=12b74617-9d23-477b-808a-4d98d0a13eaa"},"vehicle_type_id":"4","last_reported":1768842965,"current_range_meters":8400,"station_id":"ce4bgt92rcd13ifvqcg0","pricing_plan_id":"cebpf4jnsgd1na2vs0mg"},{"bike_id":"22be5455-e1a2-46cc-b056-28b35c975fe3","system_id":"levelo_inurba_marseille","lat":43.30243,"lon":5.40061,"is_reserved":false,"is_disabled":false,"rental_uris":{"android":"levelo://app?vid=22be5455-e1a2-46cc-b056-28b35c975fe3","ios":"levelo://app?vid=22be5455-e1a2-46cc-b056-28b35c975fe3"},"vehicle_type_id":"4","last_reported":1768842965,"current_range_meters":8400,"station_id":"ce4bgvh2rcd13ifvqcs0","pricing_plan_id":"cebpf4jnsgd1na2vs0mg"},{"bike_id":"ee34708d-e54b-4cc7-b872-ca21d5b54b29","system_id":"levelo_inurba_marseille","lat":43.28943,"lon":5.36638,"is_reserved":false,"is_disabled":false,"rental_uris":{"android":"levelo://app?vid=ee34708d-e54b-4cc7-b872-ca21d5b54b29","ios":"levelo://app?vid=ee34708d-e54b-4cc7-b872-ca21d5b54b29"},"vehicle_type_id":"4","last_reported":1768842965,"current_range_meters":8400,"station_id":"ce4bhap2rcd13ifvqek0","pricing_plan_id":"cebpf4jnsgd1na2vs0mg"},{"bike_id":"7d5056bc-d995-40a2-b862-14a61c203225","system_id":"levelo_inurba_marseille","lat":43.27816,"lon":5.40671,"is_reserved":false,"is_disabled":false,"rental_uris":{"android":"levelo://app?vid=7d5056bc-d995-40a2-b862-14a61c203225","ios":"levelo://app?vid=7d5056bc-d995-40a2-b862-14a61c203225"},"vehicle_type_id":"4","last_reported":1768842965,"current_range_meters":8400,"station_id":"ce4bhnh2rcd13ifvqgtg","pricing_plan_id":"cebpf4jnsgd1na2vs0mg"},{"bike_id":"9f8c9ead-92c8-44dd-b506-fbc3b0df6f61","system_id":"levelo_inurba_marseille","lat":43.25003,"lon":5.38921,"is_reserved":false,"is_disabled":false,"rental_uris":{"android":"levelo://app?vid=9f8c9ead-92c8-44dd-b506-fbc3b0df6f61","ios":"levelo://app?vid=9f8c9ead-92c8-44dd-b506-fbc3b0df6f61"},"vehicle_type_id":"4","last_reported":1768842965,"current_range_meters":8400,"station_id":"ce4bhgp2rcd13ifvqfd0","pricing_plan_id":"cebpf4jnsgd1na2vs0mg"},{"bike_id":"87a0bd82-0485-42a9-8ea8-2c44da12ad98","system_id":"levelo_inurba_marseille","lat":43.30129,"lon":5.43104,"is_reserved":false,"is_disabled":false,"rental_uris":{"android":"levelo://app?vid=87a0bd82-0485-42a9-8ea8-2c44da12ad98","ios":"levelo://app?vid=87a0bd82-0485-42a9-8ea8-2c44da12ad98"},"vehicle_type_id":"4","last_reported":1768842965,"current_range_meters":8400,"station_id":"st_d3js3co5814s73ftftug","pricing_plan_id":"cebpf4jnsgd1na2vs0mg"},{"bike_id":"a354e8f1-0376-4a9c-a066-f6ef75bdf134","system_id":"levelo_inurba_marseille","lat":43.26867,"lon":5.39561,"is_reserved":false,"is_disabled":false,"rental_uris":{"android":"levelo://app?vid=a354e8f1-0376-4a9c-a066-f6ef75bdf134","ios":"levelo://app?vid=a354e8f1-0376-4a9c-a066-f6ef75bdf134"},"vehicle_type_id":"4","last_reported":1768842965,"current_range_meters":8400,"station_id":"","pricing_plan_id":"cebpf4jnsgd1na2vs0mg"},{"bike_id":"cb7e4f52-fe9d-435f-b634-66b93641b89a","system_id":"levelo_inurba_marseille","lat":43.311697,"lon":5.387113,"is_reserved":false,"is_disabled":false,"rental_uris":{"android":"levelo://app?vid=cb7e4f52-fe9d-435f-b634-66b93641b89a","ios":"levelo://app?vid=cb7e4f52-fe9d-435f-b634-66b93641b89a"},"vehicle_type_id":"4","last_reported":1768842965,"current_range_meters":8400,"station_id":"ce4bgv12rcd13ifvqcp0","pricing_plan_id":"cebpf4jnsgd1na2vs0mg"},{"bike_id":"67474189-6162-4e89-84e6-5cbe7fd4268f","system_id":"levelo_inurba_marseille","lat":43.29354,"lon":5.37832,"is_reserved":false,"is_disabled":false,"rental_uris":{"android":"levelo://app?vid=67474189-6162-4e89-84e6-5cbe7fd4268f","ios":"levelo://app?vid=67474189-6162-4e89-84e6-5cbe7fd4268f"},"vehicle_type_id":"4","last_reported":1768842965,"current_range_meters":8400,"station_id":"ce4bgjh2rcd13ifvqbf0","pricing_plan_id":"cebpf4jnsgd1na2vs0mg"},{"bike_id":"fe691611-82ba-4f61-981f-88c3cc8482ae","system_id":"levelo_inurba_marseille","lat":43.27948,"lon":5.41051,"is_reserved":false,"is_disabled":false,"rental_uris":{"android":"levelo://app?vid=fe691611-82ba-4f61-981f-88c3cc8482ae","ios":"levelo://app?vid=fe691611-82ba-4f61-981f-88c3cc8482ae"},"vehicle_type_id":"4","last_reported":1768842965,"current_range_meters":8400,"station_id":"ce4bhnp2rcd13ifvqh0g","pricing_plan_id":"cebpf4jnsgd1na2vs0mg"},{"bike_id":"dee3036f-cbf7-4343-81a5-9bf751a7bca9","system_id":"levelo_inurba_marseille","lat":43.24183,"lon":5.39728,"is_reserved":false,"is_disabled":false,"rental_uris":{"android":"levelo://app?vid=dee3036f-cbf7-4343-81a5-9bf751a7bca9","ios":"levelo://app?vid=dee3036f-cbf7-4343-81a5-9bf751a7bca9"},"vehicle_type_id":"4","last_reported":1768842965,"current_range_meters":8400,"station_id":"ce4bhn12rcd13ifvqgpg","pricing_plan_id":"cebpf4jnsgd1na2vs0mg"},{"bike_id":"c8df4b98-1cdd-4d91-a5ac-a7f9348f51a6","system_id":"levelo_inurba_marseille","lat":43.26018,"lon":5.41738,"is_reserved":false,"is_disabled":false,"rental_uris":{"android":"levelo://app?vid=c8df4b98-1cdd-4d91-a5ac-a7f9348f51a6","ios":"levelo://app?vid=c8df4b98-1cdd-4d91-a5ac-a7f9348f51a6"},"vehicle_type_id":"4","last_reported":1768842965,"current_range_meters":8400,"station_id":"","pricing_plan_id":"cebpf4jnsgd1na2vs0mg"},{"bike_id":"805126df-50da-4bf0-8b6c-48e638bfb2fa","system_id":"levelo_inurba_marseille","lat":43.31762,"lon":5.39016,"is_reserved":false,"is_disabled":false,"rental_uris":{"android":"levelo://app?vid=805126df-50da-4bf0-8b6c-48e638bfb2fa","ios":"levelo://app?vid=805126df-50da-4bf0-8b6c-48e638bfb2fa"},"vehicle_type_id":"4","last_reported":1768842965,"current_range_meters":8400,"station_id":"ce4bhqp2rcd13ifvqhng","pricing_plan_id":"cebpf4jnsgd1na2vs0mg"},{"bike_id":"45f6d4ac-5181-4355-ba56-f8b29b34911e","system_id":"levelo_inurba_marseille","lat":43.23778,"lon":5.36628,"is_reserved":false,"is_disabled":false,"rental_uris":{"android":"levelo://app?vid=45f6d4ac-5181-4355-ba56-f8b29b34911e","ios":"levelo://app?vid=45f6d4ac-5181-4355-ba56-f8b29b34911e"},"vehicle_type_id":"4","last_reported":1768842965,"current_range_meters":8400,"station_id":"st_d3nk18o9ro0c73en2l3g","pricing_plan_id":"cebpf4jnsgd1na2vs0mg"},{"bike_id":"c03cee17-aa65-48eb-a23d-a23354e902d5","system_id":"levelo_inurba_marseille","lat":43.25821,"lon":5.39443,"is_reserved":false,"is_disabled":false,"rental_uris":{"android":"levelo://app?vid=c03cee17-aa65-48eb-a23d-a23354e902d5","ios":"levelo://app?vid=c03cee17-aa65-48eb-a23d-a23354e902d5"},"vehicle_type_id":"4","last_reported":1768842965,"current_range_meters":8400,"station_id":"ce4bhip2rcd13ifvqft0","pricing_plan_id":"cebpf4jnsgd1na2vs0mg"},{"bike_id":"382c9223-1907-4f62-8ea0-1e0facd33910","system_id":"levelo_inurba_marseille","lat":43.29933,"lon":5.36527,"is_reserved":false,"is_disabled":false,"rental_uris":{"android":"levelo://app?vid=382c9223-1907-4f62-8ea0-1e0facd33910","ios":"levelo://app?vid=382c9223-1907-4f62-8ea0-1e0facd33910"},"vehicle_type_id":"4","last_reported":1768842965,"current_range_meters":8400,"station_id":"ce4bgm92rcd13ifvqbr0","pricing_plan_id":"cebpf4jnsgd1na2vs0mg"},{"bike_id":"a60da877-50c0-44ec-94f6-6278c7a9f9bb","system_id":"levelo_inurba_marseille","lat":43.23968,"lon":5.36631,"is_reserved":false,"is_disabled":false,"rental_uris":{"android":"levelo://app?vid=a60da877-50c0-44ec-94f6-6278c7a9f9bb","ios":"levelo://app?vid=a60da877-50c0-44ec-94f6-6278c7a9f9bb"},"vehicle_type_id":"4","last_reported":1768842965,"current_range_meters":8400,"station_id":"ce4bhi12rcd13ifvqfp0","pricing_plan_id":"cebpf4jnsgd1na2vs0mg"},{"bike_id":"2723bfbb-fe38-4d7f-b03c-9c11f9b02499","system_id":"levelo_inurba_marseille","lat":43.288753,"lon":5.425041,"is_reserved":false,"is_disabled":false,"rental_uris":{"android":"levelo://app?vid=2723bfbb-fe38-4d7f-b03c-9c11f9b02499","ios":"levelo://app?vid=2723bfbb-fe38-4d7f-b03c-9c11f9b02499"},"vehicle_type_id":"4","last_reported":1768842965,"current_range_meters":8400,"station_id":"st_d3b462108ojc7389ooeg","pricing_plan_id":"cebpf4jnsgd1na2vs0mg"},{"bike_id":"9fe52e35-3bde-4421-8032-399095dd8962","system_id":"levelo_inurba_marseille","lat":43.28685,"lon":5.3869,"is_reserved":false,"is_disabled":false,"rental_uris":{"android":"levelo://app?vid=9fe52e35-3bde-4421-8032-399095dd8962","ios":"levelo://app?vid=9fe52e35-3bde-4421-8032-399095dd8962"},"vehicle_type_id":"4","last_reported":1768842965,"current_range_meters":8400,"station_id":"ce4bh492rcd13ifvqdug","pricing_plan_id":"cebpf4jnsgd1na2vs0mg"},{"bike_id":"bcddf850-3b2f-4444-aa5f-b022b7614ec1","system_id":"levelo_inurba_marseille","lat":43.29763,"lon":5.42767,"is_reserved":false,"is_disabled":false,"rental_uris":{"android":"levelo://app?vid=bcddf850-3b2f-4444-aa5f-b022b7614ec1","ios":"levelo://app?vid=bcddf850-3b2f-4444-aa5f-b022b7614ec1"},"vehicle_type_id":"4","last_reported":1768842965,"current_range_meters":8400,"station_id":"st_d3md5207bmas73dh9klg","pricing_plan_id":"cebpf4jnsgd1na2vs0mg"},{"bike_id":"6656b804-573d-4bd7-beec-255d1319f693","system_id":"levelo_inurba_marseille","lat":43.28002,"lon":5.40007,"is_reserved":false,"is_disabled":false,"rental_uris":{"android":"levelo://app?vid=6656b804-573d-4bd7-beec-255d1319f693","ios":"levelo://app?vid=6656b804-573d-4bd7-beec-255d1319f693"},"vehicle_type_id":"4","last_reported":1768842965,"current_range_meters":8800,"station_id":"ce4bho92rcd13ifvqh4g","pricing_plan_id":"cebpf4jnsgd1na2vs0mg"},{"bike_id":"8ee5ace6-b688-4278-b782-21f802133a0f","system_id":"levelo_inurba_marseille","lat":43.24625,"lon":5.43128,"is_reserved":false,"is_disabled":false,"rental_uris":{"android":"levelo://app?vid=8ee5ace6-b688-4278-b782-21f802133a0f","ios":"levelo://app?vid=8ee5ace6-b688-4278-b782-21f802133a0f"},"vehicle_type_id":"4","last_reported":1768842965,"current_range_meters":8800,"station_id":"st_d2m6c4gdas8pm72e190g","pricing_plan_id":"cebpf4jnsgd1na2vs0mg"},{"bike_id":"593b643a-c803-4d19-a281-cacea4f9d88e","system_id":"levelo_inurba_marseille","lat":43.27944,"lon":5.41051,"is_reserved":false,"is_disabled":false,"rental_uris":{"android":"levelo://app?vid=593b643a-c803-4d19-a281-cacea4f9d88e","ios":"levelo://app?vid=593b643a-c803-4d19-a281-cacea4f9d88e"},"vehicle_type_id":"4","last_reported":1768842965,"current_range_meters":8800,"station_id":"ce4bhnp2rcd13ifvqh0g","pricing_plan_id":"cebpf4jnsgd1na2vs0mg"},{"bike_id":"a6eb309a-af83-4cbb-8a37-5d6d4de190ee","system_id":"levelo_inurba_marseille","lat":43.265193,"lon":5.395354,"is_reserved":false,"is_disabled":false,"rental_uris":{"android":"levelo://app?vid=a6eb309a-af83-4cbb-8a37-5d6d4de190ee","ios":"levelo://app?vid=a6eb309a-af83-4cbb-8a37-5d6d4de190ee"},"vehicle_type_id":"4","last_reported":1768842965,"current_range_meters":8800,"station_id":"ce4bhi12rcd13ifvqfq0","pricing_plan_id":"cebpf4jnsgd1na2vs0mg"},{"bike_id":"3ba0d64d-9f7f-4707-9a7e-d2bb874e31bf","system_id":"levelo_inurba_marseille","lat":43.2447,"lon":5.42535,"is_reserved":false,"is_disabled":false,"rental_uris":{"android":"levelo://app?vid=3ba0d64d-9f7f-4707-9a7e-d2bb874e31bf","ios":"levelo://app?vid=3ba0d64d-9f7f-4707-9a7e-d2bb874e31bf"},"vehicle_type_id":"4","last_reported":1768842965,"current_range_meters":8800,"station_id":"st_d4a3vfp97mjs738cd8kg","pricing_plan_id":"cebpf4jnsgd1na2vs0mg"},{"bike_id":"d439a0cf-43b2-46df-96b0-2127ed6b63a0","system_id":"levelo_inurba_marseille","lat":43.2447,"lon":5.42542,"is_reserved":false,"is_disabled":false,"rental_uris":{"android":"levelo://app?vid=d439a0cf-43b2-46df-96b0-2127ed6b63a0","ios":"levelo://app?vid=d439a0cf-43b2-46df-96b0-2127ed6b63a0"},"vehicle_type_id":"4","last_reported":1768842965,"current_range_meters":8800,"station_id":"st_d4a3vfp97mjs738cd8kg","pricing_plan_id":"cebpf4jnsgd1na2vs0mg"},{"bike_id":"ff8745c4-faf1-4826-a408-20955957778b","system_id":"levelo_inurba_marseille","lat":43.29752,"lon":5.42764,"is_reserved":false,"is_disabled":false,"rental_uris":{"android":"levelo://app?vid=ff8745c4-faf1-4826-a408-20955957778b","ios":"levelo://app?vid=ff8745c4-faf1-4826-a408-20955957778b"},"vehicle_type_id":"4","last_reported":1768842965,"current_range_meters":8800,"station_id":"st_d3md5207bmas73dh9klg","pricing_plan_id":"cebpf4jnsgd1na2vs0mg"},{"bike_id":"031ceb54-6f26-4623-bb87-6fe6a644af73","system_id":"levelo_inurba_marseille","lat":43.2416,"lon":5.364,"is_reserved":false,"is_disabled":false,"rental_uris":{"android":"levelo://app?vid=031ceb54-6f26-4623-bb87-6fe6a644af73","ios":"levelo://app?vid=031ceb54-6f26-4623-bb87-6fe6a644af73"},"vehicle_type_id":"4","last_reported":1768842965,"current_range_meters":8800,"station_id":"cpo36qri1sfpv3e86is0","pricing_plan_id":"cebpf4jnsgd1na2vs0mg"},{"bike_id":"d938f418-a6a7-4fd7-bdf0-363eac71fa5b","system_id":"levelo_inurba_marseille","lat":43.24171,"lon":5.39729,"is_reserved":false,"is_disabled":false,"rental_uris":{"android":"levelo://app?vid=d938f418-a6a7-4fd7-bdf0-363eac71fa5b","ios":"levelo://app?vid=d938f418-a6a7-4fd7-bdf0-363eac71fa5b"},"vehicle_type_id":"4","last_reported":1768842965,"current_range_meters":8800,"station_id":"ce4bhn12rcd13ifvqgpg","pricing_plan_id":"cebpf4jnsgd1na2vs0mg"},{"bike_id":"3756036c-033e-4c36-a714-1af542a63298","system_id":"levelo_inurba_marseille","lat":43.26562,"lon":5.37292,"is_reserved":false,"is_disabled":false,"rental_uris":{"android":"levelo://app?vid=3756036c-033e-4c36-a714-1af542a63298","ios":"levelo://app?vid=3756036c-033e-4c36-a714-1af542a63298"},"vehicle_type_id":"4","last_reported":1768842965,"current_range_meters":8800,"station_id":"ce4bhg12rcd13ifvqf70","pricing_plan_id":"cebpf4jnsgd1na2vs0mg"},{"bike_id":"60252f81-4612-4f0f-b1f8-33dbf352ebfb","system_id":"levelo_inurba_marseille","lat":43.29745,"lon":5.37314,"is_reserved":false,"is_disabled":false,"rental_uris":{"android":"levelo://app?vid=60252f81-4612-4f0f-b1f8-33dbf352ebfb","ios":"levelo://app?vid=60252f81-4612-4f0f-b1f8-33dbf352ebfb"},"vehicle_type_id":"4","last_reported":1768842965,"current_range_meters":8800,"station_id":"","pricing_plan_id":"cebpf4jnsgd1na2vs0mg"},{"bike_id":"4632152f-a8df-490e-ac09-407a881c6ecf","system_id":"levelo_inurba_marseille","lat":43.30133,"lon":5.37416,"is_reserved":false,"is_disabled":false,"rental_uris":{"android":"levelo://app?vid=4632152f-a8df-490e-ac09-407a881c6ecf","ios":"levelo://app?vid=4632152f-a8df-490e-ac09-407a881c6ecf"},"vehicle_type_id":"4","last_reported":1768842965,"current_range_meters":8800,"station_id":"ce4bgs92rcd13ifvqcc0","pricing_plan_id":"cebpf4jnsgd1na2vs0mg"},{"bike_id":"160068fb-85f0-4670-999b-6e5179c968a8","system_id":"levelo_inurba_marseille","lat":43.312117,"lon":5.368489,"is_reserved":false,"is_disabled":false,"rental_uris":{"android":"levelo://app?vid=160068fb-85f0-4670-999b-6e5179c968a8","ios":"levelo://app?vid=160068fb-85f0-4670-999b-6e5179c968a8"},"vehicle_type_id":"4","last_reported":1768842965,"current_range_meters":8800,"station_id":"ce4bgl92rcd13ifvqbq0","pricing_plan_id":"cebpf4jnsgd1na2vs0mg"},{"bike_id":"665701a0-6efe-497c-bf79-3458aceb27ce","system_id":"levelo_inurba_marseille","lat":43.27918,"lon":5.39583,"is_reserved":false,"is_disabled":false,"rental_uris":{"android":"levelo://app?vid=665701a0-6efe-497c-bf79-3458aceb27ce","ios":"levelo://app?vid=665701a0-6efe-497c-bf79-3458aceb27ce"},"vehicle_type_id":"4","last_reported":1768842965,"current_range_meters":8800,"station_id":"ce4bhf92rcd13ifvqf40","pricing_plan_id":"cebpf4jnsgd1na2vs0mg"},{"bike_id":"c6c667dd-1607-4011-a5d0-eb93ce022441","system_id":"levelo_inurba_marseille","lat":43.24654,"lon":5.38874,"is_reserved":false,"is_disabled":false,"rental_uris":{"android":"levelo://app?vid=c6c667dd-1607-4011-a5d0-eb93ce022441","ios":"levelo://app?vid=c6c667dd-1607-4011-a5d0-eb93ce022441"},"vehicle_type_id":"4","last_reported":1768842965,"current_range_meters":8800,"station_id":"ce4bhg12rcd13ifvqf60","pricing_plan_id":"cebpf4jnsgd1na2vs0mg"},{"bike_id":"eb40b9ae-40f2-450b-a3d3-a215b2c06bfd","system_id":"levelo_inurba_marseille","lat":43.315466,"lon":5.380149,"is_reserved":false,"is_disabled":false,"rental_uris":{"android":"levelo://app?vid=eb40b9ae-40f2-450b-a3d3-a215b2c06bfd","ios":"levelo://app?vid=eb40b9ae-40f2-450b-a3d3-a215b2c06bfd"},"vehicle_type_id":"4","last_reported":1768842965,"current_range_meters":8800,"station_id":"ce4bhsp2rcd13ifvqi50","pricing_plan_id":"cebpf4jnsgd1na2vs0mg"},{"bike_id":"fe68a958-4a9c-4ea3-9ddd-83d39c0a05ce","system_id":"levelo_inurba_marseille","lat":43.28845,"lon":5.39312,"is_reserved":false,"is_disabled":false,"rental_uris":{"android":"levelo://app?vid=fe68a958-4a9c-4ea3-9ddd-83d39c0a05ce","ios":"levelo://app?vid=fe68a958-4a9c-4ea3-9ddd-83d39c0a05ce"},"vehicle_type_id":"4","last_reported":1768842965,"current_range_meters":8800,"station_id":"ce4bh2p2rcd13ifvqdi0","pricing_plan_id":"cebpf4jnsgd1na2vs0mg"},{"bike_id":"5fc52565-6f50-4d9d-9a50-78581b9e2c33","system_id":"levelo_inurba_marseille","lat":43.22558,"lon":5.41622,"is_reserved":false,"is_disabled":false,"rental_uris":{"android":"levelo://app?vid=5fc52565-6f50-4d9d-9a50-78581b9e2c33","ios":"levelo://app?vid=5fc52565-6f50-4d9d-9a50-78581b9e2c33"},"vehicle_type_id":"4","last_reported":1768842965,"current_range_meters":8800,"station_id":"st_d2o4gvlbi1j2169b742g","pricing_plan_id":"cebpf4jnsgd1na2vs0mg"},{"bike_id":"621700b8-adcb-434f-b845-527a3344d365","system_id":"levelo_inurba_marseille","lat":43.295207,"lon":5.390369,"is_reserved":false,"is_disabled":false,"rental_uris":{"android":"levelo://app?vid=621700b8-adcb-434f-b845-527a3344d365","ios":"levelo://app?vid=621700b8-adcb-434f-b845-527a3344d365"},"vehicle_type_id":"4","last_reported":1768842965,"current_range_meters":8800,"station_id":"ce4bh3p2rcd13ifvqdp0","pricing_plan_id":"cebpf4jnsgd1na2vs0mg"},{"bike_id":"f08b790e-5e13-4c41-a020-4032ff52ef1c","system_id":"levelo_inurba_marseille","lat":43.284,"lon":5.37522,"is_reserved":false,"is_disabled":false,"rental_uris":{"android":"levelo://app?vid=f08b790e-5e13-4c41-a020-4032ff52ef1c","ios":"levelo://app?vid=f08b790e-5e13-4c41-a020-4032ff52ef1c"},"vehicle_type_id":"4","last_reported":1768842965,"current_range_meters":8800,"station_id":"ce4bh412rcd13ifvqds0","pricing_plan_id":"cebpf4jnsgd1na2vs0mg"},{"bike_id":"f62b459f-1a86-4618-bcb4-2c01f05d64f1","system_id":"levelo_inurba_marseille","lat":43.28147,"lon":5.43146,"is_reserved":false,"is_disabled":false,"rental_uris":{"android":"levelo://app?vid=f62b459f-1a86-4618-bcb4-2c01f05d64f1","ios":"levelo://app?vid=f62b459f-1a86-4618-bcb4-2c01f05d64f1"},"vehicle_type_id":"4","last_reported":1768842965,"current_range_meters":8800,"station_id":"","pricing_plan_id":"cebpf4jnsgd1na2vs0mg"},{"bike_id":"8fa03f6f-7479-4f3b-bc6c-b07f68afc961","system_id":"levelo_inurba_marseille","lat":43.26567,"lon":5.39011,"is_reserved":false,"is_disabled":false,"rental_uris":{"android":"levelo://app?vid=8fa03f6f-7479-4f3b-bc6c-b07f68afc961","ios":"levelo://app?vid=8fa03f6f-7479-4f3b-bc6c-b07f68afc961"},"vehicle_type_id":"4","last_reported":1768842965,"current_range_meters":8800,"station_id":"ce4bhe12rcd13ifvqf30","pricing_plan_id":"cebpf4jnsgd1na2vs0mg"},{"bike_id":"ee58f5c7-1bd9-409a-a251-b885638ad20c","system_id":"levelo_inurba_marseille","lat":43.29708,"lon":5.36596,"is_reserved":false,"is_disabled":false,"rental_uris":{"android":"levelo://app?vid=ee58f5c7-1bd9-409a-a251-b885638ad20c","ios":"levelo://app?vid=ee58f5c7-1bd9-409a-a251-b885638ad20c"},"vehicle_type_id":"4","last_reported":1768842965,"current_range_meters":8800,"station_id":"ce4bgn12rcd13ifvqbt0","pricing_plan_id":"cebpf4jnsgd1na2vs0mg"},{"bike_id":"eb243468-bdf5-4b02-8303-fec3406f4620","system_id":"levelo_inurba_marseille","lat":43.2892,"lon":5.38381,"is_reserved":false,"is_disabled":true,"rental_uris":{"android":"levelo://app?vid=eb243468-bdf5-4b02-8303-fec3406f4620","ios":"levelo://app?vid=eb243468-bdf5-4b02-8303-fec3406f4620"},"vehicle_type_id":"4","last_reported":1768842965,"current_range_meters":8800,"station_id":"ce4bh612rcd13ifvqe6g","pricing_plan_id":"cebpf4jnsgd1na2vs0mg"},{"bike_id":"b7c580e6-6952-48df-a12d-631c94c85558","system_id":"levelo_inurba_marseille","lat":43.28903,"lon":5.42958,"is_reserved":false,"is_disabled":false,"rental_uris":{"android":"levelo://app?vid=b7c580e6-6952-48df-a12d-631c94c85558","ios":"levelo://app?vid=b7c580e6-6952-48df-a12d-631c94c85558"},"vehicle_type_id":"4","last_reported":1768842965,"current_range_meters":8800,"station_id":"","pricing_plan_id":"cebpf4jnsgd1na2vs0mg"},{"bike_id":"58678a6b-8c25-491f-b34f-8a857bbf6f9c","system_id":"levelo_inurba_marseille","lat":43.28111,"lon":5.37842,"is_reserved":false,"is_disabled":false,"rental_uris":{"android":"levelo://app?vid=58678a6b-8c25-491f-b34f-8a857bbf6f9c","ios":"levelo://app?vid=58678a6b-8c25-491f-b34f-8a857bbf6f9c"},"vehicle_type_id":"4","last_reported":1768842965,"current_range_meters":9200,"station_id":"ce4bha12rcd13ifvqee0","pricing_plan_id":"cebpf4jnsgd1na2vs0mg"},{"bike_id":"19fc8313-96a6-4f02-b7b3-b60278dadf03","system_id":"levelo_inurba_marseille","lat":43.27944,"lon":5.41045,"is_reserved":false,"is_disabled":false,"rental_uris":{"android":"levelo://app?vid=19fc8313-96a6-4f02-b7b3-b60278dadf03","ios":"levelo://app?vid=19fc8313-96a6-4f02-b7b3-b60278dadf03"},"vehicle_type_id":"4","last_reported":1768842965,"current_range_meters":9200,"station_id":"","pricing_plan_id":"cebpf4jnsgd1na2vs0mg"},{"bike_id":"460c38b8-de49-4a2a-a083-dbdc1bb1e2ea","system_id":"levelo_inurba_marseille","lat":43.27991,"lon":5.41652,"is_reserved":false,"is_disabled":false,"rental_uris":{"android":"levelo://app?vid=460c38b8-de49-4a2a-a083-dbdc1bb1e2ea","ios":"levelo://app?vid=460c38b8-de49-4a2a-a083-dbdc1bb1e2ea"},"vehicle_type_id":"4","last_reported":1768842965,"current_range_meters":9200,"station_id":"ce4bho12rcd13ifvqh1g","pricing_plan_id":"cebpf4jnsgd1na2vs0mg"},{"bike_id":"bc6ef339-77f0-43c0-9a51-d222e054e209","system_id":"levelo_inurba_marseille","lat":43.26066,"lon":5.39385,"is_reserved":false,"is_disabled":false,"rental_uris":{"android":"levelo://app?vid=bc6ef339-77f0-43c0-9a51-d222e054e209","ios":"levelo://app?vid=bc6ef339-77f0-43c0-9a51-d222e054e209"},"vehicle_type_id":"4","last_reported":1768842965,"current_range_meters":9200,"station_id":"ce4bhh92rcd13ifvqfj0","pricing_plan_id":"cebpf4jnsgd1na2vs0mg"},{"bike_id":"26e3a85f-ffb5-4828-97af-3a2ce907364e","system_id":"levelo_inurba_marseille","lat":43.26558,"lon":5.40322,"is_reserved":false,"is_disabled":false,"rental_uris":{"android":"levelo://app?vid=26e3a85f-ffb5-4828-97af-3a2ce907364e","ios":"levelo://app?vid=26e3a85f-ffb5-4828-97af-3a2ce907364e"},"vehicle_type_id":"4","last_reported":1768842965,"current_range_meters":9200,"station_id":"ce4bhmp2rcd13ifvqgng","pricing_plan_id":"cebpf4jnsgd1na2vs0mg"},{"bike_id":"6f8b575c-ec29-419c-982d-883da8eaf4ae","system_id":"levelo_inurba_marseille","lat":43.33158,"lon":5.37704,"is_reserved":false,"is_disabled":false,"rental_uris":{"android":"levelo://app?vid=6f8b575c-ec29-419c-982d-883da8eaf4ae","ios":"levelo://app?vid=6f8b575c-ec29-419c-982d-883da8eaf4ae"},"vehicle_type_id":"4","last_reported":1768842965,"current_range_meters":9200,"station_id":"st_d46cu089ee8s73dldbu0","pricing_plan_id":"cebpf4jnsgd1na2vs0mg"},{"bike_id":"597fd967-89d0-4f00-a092-ffecad62bc9a","system_id":"levelo_inurba_marseille","lat":43.291093,"lon":5.389134,"is_reserved":false,"is_disabled":false,"rental_uris":{"android":"levelo://app?vid=597fd967-89d0-4f00-a092-ffecad62bc9a","ios":"levelo://app?vid=597fd967-89d0-4f00-a092-ffecad62bc9a"},"vehicle_type_id":"4","last_reported":1768842965,"current_range_meters":9200,"station_id":"","pricing_plan_id":"cebpf4jnsgd1na2vs0mg"},{"bike_id":"bcd356d2-e481-40ce-9575-c122d8805aa1","system_id":"levelo_inurba_marseille","lat":43.26057,"lon":5.39387,"is_reserved":false,"is_disabled":false,"rental_uris":{"android":"levelo://app?vid=bcd356d2-e481-40ce-9575-c122d8805aa1","ios":"levelo://app?vid=bcd356d2-e481-40ce-9575-c122d8805aa1"},"vehicle_type_id":"4","last_reported":1768842965,"current_range_meters":9200,"station_id":"ce4bhh92rcd13ifvqfj0","pricing_plan_id":"cebpf4jnsgd1na2vs0mg"},{"bike_id":"bc8ae365-5f94-4121-b4e5-05c05b849c07","system_id":"levelo_inurba_marseille","lat":43.28605,"lon":5.3989,"is_reserved":false,"is_disabled":true,"rental_uris":{"android":"levelo://app?vid=bc8ae365-5f94-4121-b4e5-05c05b849c07","ios":"levelo://app?vid=bc8ae365-5f94-4121-b4e5-05c05b849c07"},"vehicle_type_id":"4","last_reported":1768842965,"current_range_meters":9200,"station_id":"ce4bho92rcd13ifvqh3g","pricing_plan_id":"cebpf4jnsgd1na2vs0mg"},