{"last_updated":1685779687,"ttl":30,"version":"2.2","data":{"bikes":[{"bike_id":"d8f0431d-5b9e-4d6d-83c9-47a096a3c0cb","system_id":"levelo_inurba_marseille","lat":43.314811,"lon":5.373104,"is_reserved":false,"is_disabled":false,"rental_uris":{"android":"levelo://app?vid=d8f0431d-5b9e-4d6d-83c9-47a096a3c0cb","ios":"levelo://app?vid=d8f0431d-5b9e-4d6d-83c9-47a096a3c0cb"},"vehicle_type_id":"4","last_reported":1685779687,"current_range_meters":28000,"station_id":"ce4bgt12rcd13ifvqcd0","pricing_plan_id":"free"},{"bike_id":"a8fe5357-1578-42e7-94d2-89f27a9179e3","system_id":"levelo_inurba_marseille","lat":43.314811,"lon":5.373104,"is_reserved":false,"is_disabled":false,"rental_uris":{"android":"levelo://app?vid=a8fe5357-1578-42e7-94d2-89f27a9179e3","ios":"levelo://app?vid=a8fe5357-1578-42e7-94d2-89f27a9179e3"},"vehicle_type_id":"4","last_reported":1685779687,"current_range_meters":29600,"station_id":"ce4bgt12rcd13ifvqcd0","pricing_plan_id":"free"},{"bike_id":"26a10fca-4d46-460a-bdfc-05868268cbf8","system_id":"levelo_inurba_marseille","lat":43.314811,"lon":5.373104,"is_reserved":false,"is_disabled":false,"rental_uris":{"android":"levelo://app?vid=26a10fca-4d46-460a-bdfc-05868268cbf8","ios":"levelo://app?vid=26a10fca-4d46-460a-bdfc-05868268cbf8"},"vehicle_type_id":"4","last_reported":1685779687,"current_range_meters":14400,"station_id":"ce4bgt12rcd13ifvqcd0","pricing_plan_id":"free"},{"bike_id":"706b4d4c-7eb3-46a9-a8ef-073dc2828ab0","system_id":"levelo_inurba_marseille","lat":43.30886,"lon":5.37182,"is_reserved":false,"is_disabled":false,"rental_uris":{"android":"levelo://app?vid=706b4d4c-7eb3-46a9-a8ef-073dc2828ab0","ios":"levelo://app?vid=706b4d4c-7eb3-46a9-a8ef-073dc2828ab0"},"vehicle_type_id":"4","last_reported":1685779687,"current_range_meters":6800,"station_id":"","pricing_plan_id":"free"},{"bike_id":"2f7beb0d-4918-4cb8-92c7-b781880ea95a","system_id":"levelo_inurba_marseille","lat":43.30885,"lon":5.37196,"is_reserved":false,"is_disabled":false,"rental_uris":{"android":"levelo://app?vid=2f7beb0d-4918-4cb8-92c7-b781880ea95a","ios":"levelo://app?vid=2f7beb0d-4918-4cb8-92c7-b781880ea95a"},"vehicle_type_id":"4","last_reported":1685779687,"current_range_meters":7600,"station_id":"","pricing_plan_id":"free"},{"bike_id":"e5e7ebe9-ccb8-4d4c-80d3-0ccfde231f64","system_id":"levelo_inurba_marseille","lat":43.31566,"lon":5.3734,"is_reserved":false,"is_disabled":false,"rental_uris":{"android":"levelo://app?vid=e5e7ebe9-ccb8-4d4c-80d3-0ccfde231f64","ios":"levelo://app?vid=e5e7ebe9-ccb8-4d4c-80d3-0ccfde231f64"},"vehicle_type_id":"4","last_reported":1685779687,"current_range_meters":22400,"station_id":"","pricing_plan_id":"free"},{"bike_id":"25a8dcab-ece4-42b7-a12a-a0dd7d71635f","system_id":"levelo_inurba_marseille","lat":43.30911,"lon":5.37274,"is_reserved":false,"is_disabled":false,"rental_uris":{"android":"levelo://app?vid=25a8dcab-ece4-42b7-a12a-a0dd7d71635f","ios":"levelo://app?vid=25a8dcab-ece4-42b7-a12a-a0dd7d71635f"},"vehicle_type_id":"4","last_reported":1685779687,"current_range_meters":10800,"station_id":"","pricing_plan_id":"free"},{"bike_id":"890e93ac-4bac-484a-baff-b468d73fa7c8","system_id":"levelo_inurba_marseille","lat":43.31363,"lon":5.37662,"is_reserved":false,"is_disabled":false,"rental_uris":{"android":"levelo://app?vid=890e93ac-4bac-484a-baff-b468d73fa7c8","ios":"levelo://app?vid=890e93ac-4bac-484a-baff-b468d73fa7c8"},"vehicle_type_id":"4","last_reported":1685779687,"current_range_meters":12000,"station_id":"","pricing_plan_id":"free"},{"bike_id":"4d43e892-ec90-4fce-8475-f727fed3851f","system_id":"levelo_inurba_marseille","lat":43.31981,"lon":5.36583,"is_reserved":false,"is_disabled":false,"rental_uris":{"android":"levelo://app?vid=4d43e892-ec90-4fce-8475-f727fed3851f","ios":"levelo://app?vid=4d43e892-ec90-4fce-8475-f727fed3851f"},"vehicle_type_id":"4","last_reported":1685779687,"current_range_meters":6000,"station_id":"","pricing_plan_id":"free"},{"bike_id":"8a574687-bf70-4cba-82c1-1eefc1d2de74","system_id":"levelo_inurba_marseille","lat":43.305368,"lon":5.367343,"is_reserved":false,"is_disabled":false,"rental_uris":{"android":"levelo://app?vid=8a574687-bf70-4cba-82c1-1eefc1d2de74","ios":"levelo://app?vid=8a574687-bf70-4cba-82c1-1eefc1d2de74"},"vehicle_type_id":"4","last_reported":1685779687,"current_range_meters":22000,"station_id":"ce4bgrp2rcd13ifvqc9g","pricing_plan_id":"free"},{"bike_id":"0464a432-1ff8-41b4-8d66-fedf2f3f5011","system_id":"levelo_inurba_marseille","lat":43.305368,"lon":5.367343,"is_reserved":false,"is_disabled":false,"rental_uris":{"android":"levelo://app?vid=0464a432-1ff8-41b4-8d66-fedf2f3f5011","ios":"levelo://app?vid=0464a432-1ff8-41b4-8d66-fedf2f3f5011"},"vehicle_type_id":"4","last_reported":1685779687,"current_range_meters":22000,"station_id":"ce4bgrp2rcd13ifvqc9g","pricing_plan_id":"free"},{"bike_id":"fa14814c-ad42-43a3-9646-21551adb0a8c","system_id":"levelo_inurba_marseille","lat":43.305706,"lon":5.365654,"is_reserved":false,"is_disabled":false,"rental_uris":{"android":"levelo://app?vid=fa14814c-ad42-43a3-9646-21551adb0a8c","ios":"levelo://app?vid=fa14814c-ad42-43a3-9646-21551adb0a8c"},"vehicle_type_id":"4","last_reported":1685779687,"current_range_meters":27600,"station_id":"ce4bgs12rcd13ifvqcag","pricing_plan_id":"free"},{"bike_id":"65554d33-b508-436a-aac9-544974e5f617","system_id":"levelo_inurba_marseille","lat":43.311175,"lon":5.377713,"is_reserved":false,"is_disabled":false,"rental_uris":{"android":"levelo://app?vid=65554d33-b508-436a-aac9-544974e5f617","ios":"levelo://app?vid=65554d33-b508-436a-aac9-544974e5f617"},"vehicle_type_id":"4","last_reported":1685779687,"current_range_meters":22000,"station_id":"","pricing_plan_id":"free"},{"bike_id":"e677b7dd-3e36-4a90-a812-c2f136d6340b","system_id":"levelo_inurba_marseille","lat":43.303046,"lon":5.368981,"is_reserved":false,"is_disabled":false,"rental_uris":{"android":"levelo://app?vid=e677b7dd-3e36-4a90-a812-c2f136d6340b","ios":"levelo://app?vid=e677b7dd-3e36-4a90-a812-c2f136d6340b"},"vehicle_type_id":"4","last_reported":1685779687,"current_range_meters":30800,"station_id":"ce4bgqh2rcd13ifvqc5g","pricing_plan_id":"free"},{"bike_id":"275b9781-71e8-4428-a75a-6359edbe9eb0","system_id":"levelo_inurba_marseille","lat":43.303046,"lon":5.368981,"is_reserved":false,"is_disabled":false,"rental_uris":{"android":"levelo://app?vid=275b9781-71e8-4428-a75a-6359edbe9eb0","ios":"levelo://app?vid=275b9781-71e8-4428-a75a-6359edbe9eb0"},"vehicle_type_id":"4","last_reported":1685779687,"current_range_meters":25600,"station_id":"ce4bgqh2rcd13ifvqc5g","pricing_plan_id":"free"},{"bike_id":"d83278fb-a48a-46d5-8c08-39469acc6760","system_id":"levelo_inurba_marseille","lat":43.303046,"lon":5.368981,"is_reserved":false,"is_disabled":false,"rental_uris":{"android":"levelo://app?vid=d83278fb-a48a-46d5-8c08-39469acc6760","ios":"levelo://app?vid=d83278fb-a48a-46d5-8c08-39469acc6760"},"vehicle_type_id":"4","last_reported":1685779687,"current_range_meters":26800,"station_id":"ce4bgqh2rcd13ifvqc5g","pricing_plan_id":"free"},{"bike_id":"2720c82b-8f58-4e14-b6c7-3659ed4d53b3","system_id":"levelo_inurba_marseille","lat":43.30308,"lon":5.36917,"is_reserved":false,"is_disabled":false,"rental_uris":{"android":"levelo://app?vid=2720c82b-8f58-4e14-b6c7-3659ed4d53b3","ios":"levelo://app?vid=2720c82b-8f58-4e14-b6c7-3659ed4d53b3"},"vehicle_type_id":"4","last_reported":1685779687,"current_range_meters":0,"station_id":"ce4bgqh2rcd13ifvqc5g","pricing_plan_id":"free"},{"bike_id":"b6af2cee-22c0-4696-a3cc-c5ab5878f58f","system_id":"levelo_inurba_marseille","lat":43.319935,"lon":5.381699,"is_reserved":false,"is_disabled":false,"rental_uris":{"android":"levelo://app?vid=b6af2cee-22c0-4696-a3cc-c5ab5878f58f","ios":"levelo://app?vid=b6af2cee-22c0-4696-a3cc-c5ab5878f58f"},"vehicle_type_id":"4","last_reported":1685779687,"current_range_meters":28400,"station_id":"ce4bhr12rcd13ifvqhpg","pricing_plan_id":"free"},{"bike_id":"8c3cbb59-cd72-4768-8a58-eb62ab11aad1","system_id":"levelo_inurba_marseille","lat":43.319935,"lon":5.381699,"is_reserved":false,"is_disabled":false,"rental_uris":{"android":"levelo://app?vid=8c3cbb59-cd72-4768-8a58-eb62ab11aad1","ios":"levelo://app?vid=8c3cbb59-cd72-4768-8a58-eb62ab11aad1"},"vehicle_type_id":"4","last_reported":1685779687,"current_range_meters":30000,"station_id":"ce4bhr12rcd13ifvqhpg","pricing_plan_id":"free"},{"bike_id":"05e1af9b-f1ee-43fb-8b93-6d882c6be5fe","system_id":"levelo_inurba_marseille","lat":43.313571,"lon":5.384829,"is_reserved":false,"is_disabled":false,"rental_uris":{"android":"levelo://app?vid=05e1af9b-f1ee-43fb-8b93-6d882c6be5fe","ios":"levelo://app?vid=05e1af9b-f1ee-43fb-8b93-6d882c6be5fe"},"vehicle_type_id":"4","last_reported":1685779687,"current_range_meters":31200,"station_id":"ce4bgt92rcd13ifvqcf0","pricing_plan_id":"free"},{"bike_id":"8378b03b-6ed0-41b1-8fb0-aadd3fc16f96","system_id":"levelo_inurba_marseille","lat":43.313571,"lon":5.384829,"is_reserved":false,"is_disabled":false,"rental_uris":{"android":"levelo://app?vid=8378b03b-6ed0-41b1-8fb0-aadd3fc16f96","ios":"levelo://app?vid=8378b03b-6ed0-41b1-8fb0-aadd3fc16f96"},"vehicle_type_id":"4","last_reported":1685779687,"current_range_meters":31200,"station_id":"ce4bgt92rcd13ifvqcf0","pricing_plan_id":"free"},{"bike_id":"548c349e-be6a-4430-b129-e3909ffabcea","system_id":"levelo_inurba_marseille","lat":43.313571,"lon":5.384829,"is_reserved":false,"is_disabled":false,"rental_uris":{"android":"levelo://app?vid=548c349e-be6a-4430-b129-e3909ffabcea","ios":"levelo://app?vid=548c349e-be6a-4430-b129-e3909ffabcea"},"vehicle_type_id":"4","last_reported":1685779687,"current_range_meters":29200,"station_id":"ce4bgt92rcd13ifvqcf0","pricing_plan_id":"free"},{"bike_id":"42e71d03-66bf-4303-87bc-d6e20f3751e2","system_id":"levelo_inurba_marseille","lat":43.29966,"lon":5.37156,"is_reserved":false,"is_disabled":false,"rental_uris":{"android":"levelo://app?vid=42e71d03-66bf-4303-87bc-d6e20f3751e2","ios":"levelo://app?vid=42e71d03-66bf-4303-87bc-d6e20f3751e2"},"vehicle_type_id":"4","last_reported":1685779687,"current_range_meters":6000,"station_id":"","pricing_plan_id":"free"},{"bike_id":"932f29d2-e9ed-4cf6-aa15-e7133c0aa201","system_id":"levelo_inurba_marseille","lat":43.298433,"lon":5.362774,"is_reserved":false,"is_disabled":false,"rental_uris":{"android":"levelo://app?vid=932f29d2-e9ed-4cf6-aa15-e7133c0aa201","ios":"levelo://app?vid=932f29d2-e9ed-4cf6-aa15-e7133c0aa201"},"vehicle_type_id":"4","last_reported":1685779687,"current_range_meters":19600,"station_id":"ce4bgpp2rcd13ifvqc3g","pricing_plan_id":"free"},{"bike_id":"f75015e2-623a-40dd-b7f3-834983f50917","system_id":"levelo_inurba_marseille","lat":43.29849,"lon":5.36289,"is_reserved":false,"is_disabled":false,"rental_uris":{"android":"levelo://app?vid=f75015e2-623a-40dd-b7f3-834983f50917","ios":"levelo://app?vid=f75015e2-623a-40dd-b7f3-834983f50917"},"vehicle_type_id":"4","last_reported":1685779687,"current_range_meters":24000,"station_id":"ce4bgpp2rcd13ifvqc3g","pricing_plan_id":"free"},{"bike_id":"c2cfb580-9c22-4fac-abdf-17ed60e5d711","system_id":"levelo_inurba_marseille","lat":43.298433,"lon":5.362774,"is_reserved":false,"is_disabled":false,"rental_uris":{"android":"levelo://app?vid=c2cfb580-9c22-4fac-abdf-17ed60e5d711","ios":"levelo://app?vid=c2cfb580-9c22-4fac-abdf-17ed60e5d711"},"vehicle_type_id":"4","last_reported":1685779687,"current_range_meters":29600,"station_id":"ce4bgpp2rcd13ifvqc3g","pricing_plan_id":"free"},{"bike_id":"1c8b7ac3-7b20-4c26-bed1-25223cfadcb4","system_id":"levelo_inurba_marseille","lat":43.311722,"lon":5.387247,"is_reserved":false,"is_disabled":false,"rental_uris":{"android":"levelo://app?vid=1c8b7ac3-7b20-4c26-bed1-25223cfadcb4","ios":"levelo://app?vid=1c8b7ac3-7b20-4c26-bed1-25223cfadcb4"},"vehicle_type_id":"4","last_reported":1685779687,"current_range_meters":13200,"station_id":"ce4bgv12rcd13ifvqcp0","pricing_plan_id":"free"},{"bike_id":"476049a8-2555-425d-9e06-f606c8b78a63","system_id":"levelo_inurba_marseille","lat":43.297774,"lon":5.370875,"is_reserved":false,"is_disabled":false,"rental_uris":{"android":"levelo://app?vid=476049a8-2555-425d-9e06-f606c8b78a63","ios":"levelo://app?vid=476049a8-2555-425d-9e06-f606c8b78a63"},"vehicle_type_id":"4","last_reported":1685779687,"current_range_meters":20400,"station_id":"ce4bgop2rcd13ifvqc1g","pricing_plan_id":"free"},{"bike_id":"e7b88331-d377-4ae0-87d5-cda731a35544","system_id":"levelo_inurba_marseille","lat":43.328371,"lon":5.366909,"is_reserved":false,"is_disabled":false,"rental_uris":{"android":"levelo://app?vid=e7b88331-d377-4ae0-87d5-cda731a35544","ios":"levelo://app?vid=e7b88331-d377-4ae0-87d5-cda731a35544"},"vehicle_type_id":"4","last_reported":1685779687,"current_range_meters":21600,"station_id":"ce4bhs92rcd13ifvqi0g","pricing_plan_id":"free"},{"bike_id":"73358a4c-93c0-4eda-a88d-776a673cd973","system_id":"levelo_inurba_marseille","lat":43.328371,"lon":5.366909,"is_reserved":false,"is_disabled":false,"rental_uris":{"android":"levelo://app?vid=73358a4c-93c0-4eda-a88d-776a673cd973","ios":"levelo://app?vid=73358a4c-93c0-4eda-a88d-776a673cd973"},"vehicle_type_id":"4","last_reported":1685779687,"current_range_meters":28800,"station_id":"ce4bhs92rcd13ifvqi0g","pricing_plan_id":"free"},{"bike_id":"6dab6eca-b352-49ea-add2-026ea7782376","system_id":"levelo_inurba_marseille","lat":43.328371,"lon":5.366909,"is_reserved":false,"is_disabled":false,"rental_uris":{"android":"levelo://app?vid=6dab6eca-b352-49ea-add2-026ea7782376","ios":"levelo://app?vid=6dab6eca-b352-49ea-add2-026ea7782376"},"vehicle_type_id":"4","last_reported":1685779687,"current_range_meters":30400,"station_id":"ce4bhs92rcd13ifvqi0g","pricing_plan_id":"free"},{"bike_id":"3df85bc5-dfcb-4777-95e4-83da0b168eb3","system_id":"levelo_inurba_marseille","lat":43.328371,"lon":5.366909,"is_reserved":false,"is_disabled":false,"rental_uris":{"android":"levelo://app?vid=3df85bc5-dfcb-4777-95e4-83da0b168eb3","ios":"levelo://app?vid=3df85bc5-dfcb-4777-95e4-83da0b168eb3"},"vehicle_type_id":"4","last_reported":1685779687,"current_range_meters":28000,"station_id":"ce4bhs92rcd13ifvqi0g","pricing_plan_id":"free"},{"bike_id":"048d6a5e-97c9-4f67-bf89-16ecba2081b0","system_id":"levelo_inurba_marseille","lat":43.328371,"lon":5.366909,"is_reserved":false,"is_disabled":false,"rental_uris":{"android":"levelo://app?vid=048d6a5e-97c9-4f67-bf89-16ecba2081b0","ios":"levelo://app?vid=048d6a5e-97c9-4f67-bf89-16ecba2081b0"},"vehicle_type_id":"4","last_reported":1685779687,"current_range_meters":20000,"station_id":"ce4bhs92rcd13ifvqi0g","pricing_plan_id":"free"},{"bike_id":"44461937-e383-441a-8ed9-77517a1c8c2f","system_id":"levelo_inurba_marseille","lat":43.328371,"lon":5.366909,"is_reserved":false,"is_disabled":false,"rental_uris":{"android":"levelo://app?vid=44461937-e383-441a-8ed9-77517a1c8c2f","ios":"levelo://app?vid=44461937-e383-441a-8ed9-77517a1c8c2f"},"vehicle_type_id":"4","last_reported":1685779687,"current_range_meters":18400,"station_id":"ce4bhs92rcd13ifvqi0g","pricing_plan_id":"free"},{"bike_id":"68967537-d7e4-4360-bad4-6be552939096","system_id":"levelo_inurba_marseille","lat":43.29716,"lon":5.36615,"is_reserved":false,"is_disabled":false,"rental_uris":{"android":"levelo://app?vid=68967537-d7e4-4360-bad4-6be552939096","ios":"levelo://app?vid=68967537-d7e4-4360-bad4-6be552939096"},"vehicle_type_id":"4","last_reported":1685779687,"current_range_meters":20000,"station_id":"","pricing_plan_id":"free"},{"bike_id":"107e5e32-53a1-4f76-a566-545d00911b3c","system_id":"levelo_inurba_marseille","lat":43.29716,"lon":5.36604,"is_reserved":false,"is_disabled":false,"rental_uris":{"android":"levelo://app?vid=107e5e32-53a1-4f76-a566-545d00911b3c","ios":"levelo://app?vid=107e5e32-53a1-4f76-a566-545d00911b3c"},"vehicle_type_id":"4","last_reported":1685779687,"current_range_meters":14800,"station_id":"","pricing_plan_id":"free"},{"bike_id":"8e93f569-d264-40e2-8d70-9e202e76560a","system_id":"levelo_inurba_marseille","lat":43.296906,"lon":5.365879,"is_reserved":false,"is_disabled":false,"rental_uris":{"android":"levelo://app?vid=8e93f569-d264-40e2-8d70-9e202e76560a","ios":"levelo://app?vid=8e93f569-d264-40e2-8d70-9e202e76560a"},"vehicle_type_id":"4","last_reported":1685779687,"current_range_meters":30400,"station_id":"ce4bgn92rcd13ifvqbvg","pricing_plan_id":"free"},{"bike_id":"e422eadf-7bdc-4306-8120-b258c497d661","system_id":"levelo_inurba_marseille","lat":43.296131,"lon":5.370773,"is_reserved":false,"is_disabled":false,"rental_uris":{"android":"levelo://app?vid=e422eadf-7bdc-4306-8120-b258c497d661","ios":"levelo://app?vid=e422eadf-7bdc-4306-8120-b258c497d661"},"vehicle_type_id":"4","last_reported":1685779687,"current_range_meters":29600,"station_id":"ce4bgnh2rcd13ifvqc0g","pricing_plan_id":"free"},{"bike_id":"265ea56c-c0e2-4894-a559-28680c6f69ff","system_id":"levelo_inurba_marseille","lat":43.296131,"lon":5.370791,"is_reserved":false,"is_disabled":false,"rental_uris":{"android":"levelo://app?vid=265ea56c-c0e2-4894-a559-28680c6f69ff","ios":"levelo://app?vid=265ea56c-c0e2-4894-a559-28680c6f69ff"},"vehicle_type_id":"4","last_reported":1685779687,"current_range_meters":7200,"station_id":"ce4bgnh2rcd13ifvqc0g","pricing_plan_id":"free"},{"bike_id":"512d8180-3ee6-460c-9371-6fb22e8926ce","system_id":"levelo_inurba_marseille","lat":43.29616,"lon":5.37162,"is_reserved":false,"is_disabled":false,"rental_uris":{"android":"levelo://app?vid=512d8180-3ee6-460c-9371-6fb22e8926ce","ios":"levelo://app?vid=512d8180-3ee6-460c-9371-6fb22e8926ce"},"vehicle_type_id":"4","last_reported":1685779687,"current_range_meters":19600,"station_id":"","pricing_plan_id":"free"},{"bike_id":"9bbd4ada-6014-46fc-ae70-545e12d3e8a1","system_id":"levelo_inurba_marseille","lat":43.29573,"lon":5.367355,"is_reserved":false,"is_disabled":false,"rental_uris":{"android":"levelo://app?vid=9bbd4ada-6014-46fc-ae70-545e12d3e8a1","ios":"levelo://app?vid=9bbd4ada-6014-46fc-ae70-545e12d3e8a1"},"vehicle_type_id":"4","last_reported":1685779687,"current_range_meters":30800,"station_id":"ce4bgph2rcd13ifvqc2g","pricing_plan_id":"free"},{"bike_id":"ffd45222-285f-4347-9c66-8351a0b9aaa7","system_id":"levelo_inurba_marseille","lat":43.29573,"lon":5.367355,"is_reserved":false,"is_disabled":false,"rental_uris":{"android":"levelo://app?vid=ffd45222-285f-4347-9c66-8351a0b9aaa7","ios":"levelo://app?vid=ffd45222-285f-4347-9c66-8351a0b9aaa7"},"vehicle_type_id":"4","last_reported":1685779687,"current_range_meters":23600,"station_id":"ce4bgph2rcd13ifvqc2g","pricing_plan_id":"free"},{"bike_id":"d6705116-cf70-4b23-81fd-9ebd26e58a9a","system_id":"levelo_inurba_marseille","lat":43.29573,"lon":5.367355,"is_reserved":false,"is_disabled":false,"rental_uris":{"android":"levelo://app?vid=d6705116-cf70-4b23-81fd-9ebd26e58a9a","ios":"levelo://app?vid=d6705116-cf70-4b23-81fd-9ebd26e58a9a"},"vehicle_type_id":"4","last_reported":1685779687,"current_range_meters":28800,"station_id":"ce4bgph2rcd13ifvqc2g","pricing_plan_id":"free"},{"bike_id":"7f1b9639-2bc6-473b-8dd1-4cb0a3ecf761","system_id":"levelo_inurba_marseille","lat":43.29573,"lon":5.367355,"is_reserved":false,"is_disabled":false,"rental_uris":{"android":"levelo://app?vid=7f1b9639-2bc6-473b-8dd1-4cb0a3ecf761","ios":"levelo://app?vid=7f1b9639-2bc6-473b-8dd1-4cb0a3ecf761"},"vehicle_type_id":"4","last_reported":1685779687,"current_range_meters":20800,"station_id":"ce4bgph2rcd13ifvqc2g","pricing_plan_id":"free"},{"bike_id":"6fd5e16d-62b5-44a7-8ac4-137ba8323ecf","system_id":"levelo_inurba_marseille","lat":43.29573,"lon":5.367355,"is_reserved":false,"is_disabled":false,"rental_uris":{"android":"levelo://app?vid=6fd5e16d-62b5-44a7-8ac4-137ba8323ecf","ios":"levelo://app?vid=6fd5e16d-62b5-44a7-8ac4-137ba8323ecf"},"vehicle_type_id":"4","last_reported":1685779687,"current_range_meters":26000,"station_id":"ce4bgph2rcd13ifvqc2g","pricing_plan_id":"free"},{"bike_id":"8142fb10-e6f0-4cbd-a950-3089a659608f","system_id":"levelo_inurba_marseille","lat":43.31758,"lon":5.3901,"is_reserved":false,"is_disabled":false,"rental_uris":{"android":"levelo://app?vid=8142fb10-e6f0-4cbd-a950-3089a659608f","ios":"levelo://app?vid=8142fb10-e6f0-4cbd-a950-3089a659608f"},"vehicle_type_id":"4","last_reported":1685779687,"current_range_meters":17600,"station_id":"ce4bhqp2rcd13ifvqhng","pricing_plan_id":"free"},{"bike_id":"1d532ab5-38fb-49ef-97e2-04eb3e3d3a7d","system_id":"levelo_inurba_marseille","lat":43.317557,"lon":5.390173,"is_reserved":false,"is_disabled":false,"rental_uris":{"android":"levelo://app?vid=1d532ab5-38fb-49ef-97e2-04eb3e3d3a7d","ios":"levelo://app?vid=1d532ab5-38fb-49ef-97e2-04eb3e3d3a7d"},"vehicle_type_id":"4","last_reported":1685779687,"current_range_meters":30000,"station_id":"ce4bhqp2rcd13ifvqhng","pricing_plan_id":"free"},{"bike_id":"07974fb4-088f-4350-8966-67a25abd9cf2","system_id":"levelo_inurba_marseille","lat":43.31751,"lon":5.39019,"is_reserved":false,"is_disabled":false,"rental_uris":{"android":"levelo://app?vid=07974fb4-088f-4350-8966-67a25abd9cf2","ios":"levelo://app?vid=07974fb4-088f-4350-8966-67a25abd9cf2"},"vehicle_type_id":"4","last_reported":1685779687,"current_range_meters":0,"station_id":"ce4bhqp2rcd13ifvqhng","pricing_plan_id":"free"},{"bike_id":"014f1d4c-0729-45fc-9f9d-944f6107e24b","system_id":"levelo_inurba_marseille","lat":43.29797,"lon":5.38086,"is_reserved":false,"is_disabled":false,"rental_uris":{"android":"levelo://app?vid=014f1d4c-0729-45fc-9f9d-944f6107e24b","ios":"levelo://app?vid=014f1d4c-0729-45fc-9f9d-944f6107e24b"},"vehicle_type_id":"4","last_reported":1685779687,"current_range_meters":30000,"station_id":"ce4bgip2rcd13ifvqbb0","pricing_plan_id":"free"},{"bike_id":"c4d4ed42-4a92-4db9-b9a9-5bcc9b5e3c74","system_id":"levelo_inurba_marseille","lat":43.298037,"lon":5.381066,"is_reserved":false,"is_disabled":false,"rental_uris":{"android":"levelo://app?vid=c4d4ed42-4a92-4db9-b9a9-5bcc9b5e3c74","ios":"levelo://app?vid=c4d4ed42-4a92-4db9-b9a9-5bcc9b5e3c74"},"vehicle_type_id":"4","last_reported":1685779687,"current_range_meters":27200,"station_id":"ce4bgip2rcd13ifvqbb0","pricing_plan_id":"free"},{"bike_id":"67a4fa49-0676-4611-ba8f-e0a9dfa6bffd","system_id":"levelo_inurba_marseille","lat":43.30421,"lon":5.38878,"is_reserved":false,"is_disabled":false,"rental_uris":{"android":"levelo://app?vid=67a4fa49-0676-4611-ba8f-e0a9dfa6bffd","ios":"levelo://app?vid=67a4fa49-0676-4611-ba8f-e0a9dfa6bffd"},"vehicle_type_id":"4","last_reported":1685779687,"current_range_meters":30400,"station_id":"ce4bgk12rcd13ifvqbi0","pricing_plan_id":"free"},{"bike_id":"bce6c2ea-968d-4d63-8eeb-56b0611d876c","system_id":"levelo_inurba_marseille","lat":43.295748,"lon":5.37522,"is_reserved":false,"is_disabled":false,"rental_uris":{"android":"levelo://app?vid=bce6c2ea-968d-4d63-8eeb-56b0611d876c","ios":"levelo://app?vid=bce6c2ea-968d-4d63-8eeb-56b0611d876c"},"vehicle_type_id":"4","last_reported":1685779687,"current_range_meters":28400,"station_id":"ce4bgh92rcd13ifvqb50","pricing_plan_id":"free"},{"bike_id":"b51d25af-599b-41d7-bdc4-9442ff75cdfb","system_id":"levelo_inurba_marseille","lat":43.30423,"lon":5.38882,"is_reserved":false,"is_disabled":false,"rental_uris":{"android":"levelo://app?vid=b51d25af-599b-41d7-bdc4-9442ff75cdfb","ios":"levelo://app?vid=b51d25af-599b-41d7-bdc4-9442ff75cdfb"},"vehicle_type_id":"4","last_reported":1685779687,"current_range_meters":4000,"station_id":"ce4bgk12rcd13ifvqbi0","pricing_plan_id":"free"},{"bike_id":"17cfd7d9-df47-4e69-b6e8-6c2644bd41aa","system_id":"levelo_inurba_marseille","lat":43.298037,"lon":5.381066,"is_reserved":false,"is_disabled":false,"rental_uris":{"android":"levelo://app?vid=17cfd7d9-df47-4e69-b6e8-6c2644bd41aa","ios":"levelo://app?vid=17cfd7d9-df47-4e69-b6e8-6c2644bd41aa"},"vehicle_type_id":"4","last_reported":1685779687,"current_range_meters":30000,"station_id":"ce4bgip2rcd13ifvqbb0","pricing_plan_id":"free"},{"bike_id":"d83a4043-8f64-4e64-9581-5aae12b231bc","system_id":"levelo_inurba_marseille","lat":43.299724,"lon":5.384848,"is_reserved":false,"is_disabled":false,"rental_uris":{"android":"levelo://app?vid=d83a4043-8f64-4e64-9581-5aae12b231bc","ios":"levelo://app?vid=d83a4043-8f64-4e64-9581-5aae12b231bc"},"vehicle_type_id":"4","last_reported":1685779687,"current_range_meters":23600,"station_id":"ce4bgj92rcd13ifvqbd0","pricing_plan_id":"free"},{"bike_id":"8a0f2f33-bbe5-42cf-b3cd-7995314b479a","system_id":"levelo_inurba_marseille","lat":43.295279,"lon":5.375048,"is_reserved":false,"is_disabled":false,"rental_uris":{"android":"levelo://app?vid=8a0f2f33-bbe5-42cf-b3cd-7995314b479a","ios":"levelo://app?vid=8a0f2f33-bbe5-42cf-b3cd-7995314b479a"},"vehicle_type_id":"4","last_reported":1685779687,"current_range_meters":26000,"station_id":"ce4bgkp2rcd13ifvqbmg","pricing_plan_id":"free"},{"bike_id":"05a559c0-3703-48c3-9d77-b92708a296da","system_id":"levelo_inurba_marseille","lat":43.295279,"lon":5.375048,"is_reserved":false,"is_disabled":false,"rental_uris":{"android":"levelo://app?vid=05a559c0-3703-48c3-9d77-b92708a296da","ios":"levelo://app?vid=05a559c0-3703-48c3-9d77-b92708a296da"},"vehicle_type_id":"4","last_reported":1685779687,"current_range_meters":10800,"station_id":"ce4bgkp2rcd13ifvqbmg","pricing_plan_id":"free"},{"bike_id":"d321ec47-f166-4381-afa6-7bf9afc7eee8","system_id":"levelo_inurba_marseille","lat":43.32367,"lon":5.388836,"is_reserved":false,"is_disabled":false,"rental_uris":{"android":"levelo://app?vid=d321ec47-f166-4381-afa6-7bf9afc7eee8","ios":"levelo://app?vid=d321ec47-f166-4381-afa6-7bf9afc7eee8"},"vehicle_type_id":"4","last_reported":1685779687,"current_range_meters":26000,"station_id":"ce4bhqp2rcd13ifvqhog","pricing_plan_id":"free"},{"bike_id":"d9b3487e-4661-4b3b-a198-2212de300ca1","system_id":"levelo_inurba_marseille","lat":43.32363,"lon":5.38882,"is_reserved":false,"is_disabled":false,"rental_uris":{"android":"levelo://app?vid=d9b3487e-4661-4b3b-a198-2212de300ca1","ios":"levelo://app?vid=d9b3487e-4661-4b3b-a198-2212de300ca1"},"vehicle_type_id":"4","last_reported":1685779687,"current_range_meters":29600,"station_id":"ce4bhqp2rcd13ifvqhog","pricing_plan_id":"free"},{"bike_id":"2bf9f571-8ae5-431e-aedf-1c815125cefd","system_id":"levelo_inurba_marseille","lat":43.32367,"lon":5.388836,"is_reserved":false,"is_disabled":false,"rental_uris":{"android":"levelo://app?vid=2bf9f571-8ae5-431e-aedf-1c815125cefd","ios":"levelo://app?vid=2bf9f571-8ae5-431e-aedf-1c815125cefd"},"vehicle_type_id":"4","last_reported":1685779687,"current_range_meters":22800,"station_id":"ce4bhqp2rcd13ifvqhog","pricing_plan_id":"free"},{"bike_id":"0c7ce3fd-9fe0-458e-9687-20b832dfee04","system_id":"levelo_inurba_marseille","lat":43.32367,"lon":5.388836,"is_reserved":false,"is_disabled":false,"rental_uris":{"android":"levelo://app?vid=0c7ce3fd-9fe0-458e-9687-20b832dfee04","ios":"levelo://app?vid=0c7ce3fd-9fe0-458e-9687-20b832dfee04"},"vehicle_type_id":"4","last_reported":1685779687,"current_range_meters":31200,"station_id":"ce4bhqp2rcd13ifvqhog","pricing_plan_id":"free"},{"bike_id":"eb500a68-299c-4bfe-996b-c50aa893b955","system_id":"levelo_inurba_marseille","lat":43.32367,"lon":5.388836,"is_reserved":false,"is_disabled":false,"rental_uris":{"android":"levelo://app?vid=eb500a68-299c-4bfe-996b-c50aa893b955","ios":"levelo://app?vid=eb500a68-299c-4bfe-996b-c50aa893b955"},"vehicle_type_id":"4","last_reported":1685779687,"current_range_meters":31200,"station_id":"ce4bhqp2rcd13ifvqhog","pricing_plan_id":"free"},{"bike_id":"c07fe0f2-772a-435f-9629-10108908cbeb","system_id":"levelo_inurba_marseille","lat":43.32367,"lon":5.388836,"is_reserved":false,"is_disabled":false,"rental_uris":{"android":"levelo://app?vid=c07fe0f2-772a-435f-9629-10108908cbeb","ios":"levelo://app?vid=c07fe0f2-772a-435f-9629-10108908cbeb"},"vehicle_type_id":"4","last_reported":1685779687,"current_range_meters":28800,"station_id":"ce4bhqp2rcd13ifvqhog","pricing_plan_id":"free"},{"bike_id":"90bbfd03-d00c-4933-b38d-99b5da852988","system_id":"levelo_inurba_marseille","lat":43.32367,"lon":5.388836,"is_reserved":false,"is_disabled":false,"rental_uris":{"android":"levelo://app?vid=90bbfd03-d00c-4933-b38d-99b5da852988","ios":"levelo://app?vid=90bbfd03-d00c-4933-b38d-99b5da852988"},"vehicle_type_id":"4","last_reported":1685779687,"current_range_meters":30800,"station_id":"ce4bhqp2rcd13ifvqhog","pricing_plan_id":"free"},{"bike_id":"89de6b20-c43a-4dd8-89d0-68075829fe85","system_id":"levelo_inurba_marseille","lat":43.32364,"lon":5.38895,"is_reserved":false,"is_disabled":false,"rental_uris":{"android":"levelo://app?vid=89de6b20-c43a-4dd8-89d0-68075829fe85","ios":"levelo://app?vid=89de6b20-c43a-4dd8-89d0-68075829fe85"},"vehicle_type_id":"4","last_reported":1685779687,"current_range_meters":31200,"station_id":"ce4bhqp2rcd13ifvqhog","pricing_plan_id":"free"},{"bike_id":"d0fced42-ee06-466d-8581-a73cd594d426","system_id":"levelo_inurba_marseille","lat":43.29602,"lon":5.381084,"is_reserved":false,"is_disabled":false,"rental_uris":{"android":"levelo://app?vid=d0fced42-ee06-466d-8581-a73cd594d426","ios":"levelo://app?vid=d0fced42-ee06-466d-8581-a73cd594d426"},"vehicle_type_id":"4","last_reported":1685779687,"current_range_meters":27600,"station_id":"ce4bgl12rcd13ifvqbo0","pricing_plan_id":"free"},{"bike_id":"17ce8a85-04dc-4ec6-b80d-25fc0f696ccd","system_id":"levelo_inurba_marseille","lat":43.29601,"lon":5.381084,"is_reserved":false,"is_disabled":false,"rental_uris":{"android":"levelo://app?vid=17ce8a85-04dc-4ec6-b80d-25fc0f696ccd","ios":"levelo://app?vid=17ce8a85-04dc-4ec6-b80d-25fc0f696ccd"},"vehicle_type_id":"4","last_reported":1685779687,"current_range_meters":27600,"station_id":"ce4bgl12rcd13ifvqbo0","pricing_plan_id":"free"},{"bike_id":"9f789f78-d2d2-4568-8ab1-a3764b6bcca0","system_id":"levelo_inurba_marseille","lat":43.292749,"lon":5.368398,"is_reserved":false,"is_disabled":false,"rental_uris":{"android":"levelo://app?vid=9f789f78-d2d2-4568-8ab1-a3764b6bcca0","ios":"levelo://app?vid=9f789f78-d2d2-4568-8ab1-a3764b6bcca0"},"vehicle_type_id":"4","last_reported":1685779687,"current_range_meters":28800,"station_id":"ce4bhbp2rcd13ifvqesg","pricing_plan_id":"free"},{"bike_id":"143ba757-3d0f-4011-b834-dedba721bfdd","system_id":"levelo_inurba_marseille","lat":43.29298,"lon":5.37429,"is_reserved":false,"is_disabled":false,"rental_uris":{"android":"levelo://app?vid=143ba757-3d0f-4011-b834-dedba721bfdd","ios":"levelo://app?vid=143ba757-3d0f-4011-b834-dedba721bfdd"},"vehicle_type_id":"4","last_reported":1685779687,"current_range_meters":0,"station_id":"ce4bgi12rcd13ifvqb70","pricing_plan_id":"free"},{"bike_id":"f544a3c3-99a5-44f9-9dae-50eb1538a2e5","system_id":"levelo_inurba_marseille","lat":43.2936,"lon":5.37835,"is_reserved":false,"is_disabled":false,"rental_uris":{"android":"levelo://app?vid=f544a3c3-99a5-44f9-9dae-50eb1538a2e5","ios":"levelo://app?vid=f544a3c3-99a5-44f9-9dae-50eb1538a2e5"},"vehicle_type_id":"4","last_reported":1685779687,"current_range_meters":27200,"station_id":"ce4bgjh2rcd13ifvqbf0","pricing_plan_id":"free"},{"bike_id":"aafbfa7f-2f57-4616-b9e0-1436015e90f6","system_id":"levelo_inurba_marseille","lat":43.29498,"lon":5.38184,"is_reserved":false,"is_disabled":false,"rental_uris":{"android":"levelo://app?vid=aafbfa7f-2f57-4616-b9e0-1436015e90f6","ios":"levelo://app?vid=aafbfa7f-2f57-4616-b9e0-1436015e90f6"},"vehicle_type_id":"4","last_reported":1685779687,"current_range_meters":0,"station_id":"","pricing_plan_id":"free"},{"bike_id":"dabb99bd-1224-4b2d-ad2a-ac78aaa41074","system_id":"levelo_inurba_marseille","lat":43.2936,"lon":5.37835,"is_reserved":false,"is_disabled":false,"rental_uris":{"android":"levelo://app?vid=dabb99bd-1224-4b2d-ad2a-ac78aaa41074","ios":"levelo://app?vid=dabb99bd-1224-4b2d-ad2a-ac78aaa41074"},"vehicle_type_id":"4","last_reported":1685779687,"current_range_meters":28400,"station_id":"ce4bgjh2rcd13ifvqbf0","pricing_plan_id":"free"},{"bike_id":"2b0b9a2d-7618-414a-a3de-f06150286bac","system_id":"levelo_inurba_marseille","lat":43.292311,"lon":5.360731,"is_reserved":false,"is_disabled":false,"rental_uris":{"android":"levelo://app?vid=2b0b9a2d-7618-414a-a3de-f06150286bac","ios":"levelo://app?vid=2b0b9a2d-7618-414a-a3de-f06150286bac"},"vehicle_type_id":"4","last_reported":1685779687,"current_range_meters":13600,"station_id":"ce4bhbh2rcd13ifvqeqg","pricing_plan_id":"free"},{"bike_id":"a47c530f-e34a-4416-976e-befee4c4c25e","system_id":"levelo_inurba_marseille","lat":43.292311,"lon":5.360731,"is_reserved":false,"is_disabled":false,"rental_uris":{"android":"levelo://app?vid=a47c530f-e34a-4416-976e-befee4c4c25e","ios":"levelo://app?vid=a47c530f-e34a-4416-976e-befee4c4c25e"},"vehicle_type_id":"4","last_reported":1685779687,"current_range_meters":27600,"station_id":"ce4bhbh2rcd13ifvqeqg","pricing_plan_id":"free"},{"bike_id":"21e45557-e114-42e6-9093-b9ba94a8ad98","system_id":"levelo_inurba_marseille","lat":43.292311,"lon":5.360731,"is_reserved":false,"is_disabled":false,"rental_uris":{"android":"levelo://app?vid=21e45557-e114-42e6-9093-b9ba94a8ad98","ios":"levelo://app?vid=21e45557-e114-42e6-9093-b9ba94a8ad98"},"vehicle_type_id":"4","last_reported":1685779687,"current_range_meters":20800,"station_id":"ce4bhbh2rcd13ifvqeqg","pricing_plan_id":"free"},{"bike_id":"4358e34b-5910-4761-bd1e-0ec8ea81613c","system_id":"levelo_inurba_marseille","lat":43.313291,"lon":5.396838,"is_reserved":false,"is_disabled":false,"rental_uris":{"android":"levelo://app?vid=4358e34b-5910-4761-bd1e-0ec8ea81613c","ios":"levelo://app?vid=4358e34b-5910-4761-bd1e-0ec8ea81613c"},"vehicle_type_id":"4","last_reported":1685779687,"current_range_meters":31200,"station_id":"ce4bgvp2rcd13ifvqcu0","pricing_plan_id":"free"},{"bike_id":"32f9a4a8-e94c-477d-9f4d-1587098b798e","system_id":"levelo_inurba_marseille","lat":43.313291,"lon":5.396838,"is_reserved":false,"is_disabled":false,"rental_uris":{"android":"levelo://app?vid=32f9a4a8-e94c-477d-9f4d-1587098b798e","ios":"levelo://app?vid=32f9a4a8-e94c-477d-9f4d-1587098b798e"},"vehicle_type_id":"4","last_reported":1685779687,"current_range_meters":1200,"station_id":"ce4bgvp2rcd13ifvqcu0","pricing_plan_id":"free"},{"bike_id":"e79598f5-7a3d-4734-8fa1-aa447d4c1019","system_id":"levelo_inurba_marseille","lat":43.313291,"lon":5.396838,"is_reserved":false,"is_disabled":false,"rental_uris":{"android":"levelo://app?vid=e79598f5-7a3d-4734-8fa1-aa447d4c1019","ios":"levelo://app?vid=e79598f5-7a3d-4734-8fa1-aa447d4c1019"},"vehicle_type_id":"4","last_reported":1685779687,"current_range_meters":1600,"station_id":"ce4bgvp2rcd13ifvqcu0","pricing_plan_id":"free"},{"bike_id":"ccd939e3-45bd-4ad5-a686-9ff2d0cc3893","system_id":"levelo_inurba_marseille","lat":43.30887,"lon":5.3965,"is_reserved":false,"is_disabled":false,"rental_uris":{"android":"levelo://app?vid=ccd939e3-45bd-4ad5-a686-9ff2d0cc3893","ios":"levelo://app?vid=ccd939e3-45bd-4ad5-a686-9ff2d0cc3893"},"vehicle_type_id":"4","last_reported":1685779687,"current_range_meters":31200,"station_id":"ce4bh012rcd13ifvqcv0","pricing_plan_id":"free"},{"bike_id":"654c442b-68a1-40ec-b4f0-237a22b84156","system_id":"levelo_inurba_marseille","lat":43.31335,"lon":5.39697,"is_reserved":false,"is_disabled":false,"rental_uris":{"android":"levelo://app?vid=654c442b-68a1-40ec-b4f0-237a22b84156","ios":"levelo://app?vid=654c442b-68a1-40ec-b4f0-237a22b84156"},"vehicle_type_id":"4","last_reported":1685779687,"current_range_meters":27600,"station_id":"ce4bgvp2rcd13ifvqcu0","pricing_plan_id":"free"},{"bike_id":"a1d588f9-8125-4a8f-9f59-c1cf1bdc5430","system_id":"levelo_inurba_marseille","lat":43.32821,"lon":5.38895,"is_reserved":false,"is_disabled":false,"rental_uris":{"android":"levelo://app?vid=a1d588f9-8125-4a8f-9f59-c1cf1bdc5430","ios":"levelo://app?vid=a1d588f9-8125-4a8f-9f59-c1cf1bdc5430"},"vehicle_type_id":"4","last_reported":1685779687,"current_range_meters":18000,"station_id":"","pricing_plan_id":"free"},{"bike_id":"5f3d80f6-936c-4bb5-b110-ae1d7f3b20d4","system_id":"levelo_inurba_marseille","lat":43.29063,"lon":5.37158,"is_reserved":false,"is_disabled":false,"rental_uris":{"android":"levelo://app?vid=5f3d80f6-936c-4bb5-b110-ae1d7f3b20d4","ios":"levelo://app?vid=5f3d80f6-936c-4bb5-b110-ae1d7f3b20d4"},"vehicle_type_id":"4","last_reported":1685779687,"current_range_meters":31200,"station_id":"ce4bh5p2rcd13ifvqe4g","pricing_plan_id":"free"},{"bike_id":"13b7446f-eb36-4ac1-a61d-ac40c5be4696","system_id":"levelo_inurba_marseille","lat":43.290779,"lon":5.371482,"is_reserved":false,"is_disabled":false,"rental_uris":{"android":"levelo://app?vid=13b7446f-eb36-4ac1-a61d-ac40c5be4696","ios":"levelo://app?vid=13b7446f-eb36-4ac1-a61d-ac40c5be4696"},"vehicle_type_id":"4","last_reported":1685779687,"current_range_meters":27600,"station_id":"ce4bh5p2rcd13ifvqe4g","pricing_plan_id":"free"},{"bike_id":"a8e4bb2c-ecdc-4d0d-8b56-1f8b1c9d907f","system_id":"levelo_inurba_marseille","lat":43.302008,"lon":5.394694,"is_reserved":false,"is_disabled":false,"rental_uris":{"android":"levelo://app?vid=a8e4bb2c-ecdc-4d0d-8b56-1f8b1c9d907f","ios":"levelo://app?vid=a8e4bb2c-ecdc-4d0d-8b56-1f8b1c9d907f"},"vehicle_type_id":"4","last_reported":1685779687,"current_range_meters":31200,"station_id":"ce4bh0p2rcd13ifvqd70","pricing_plan_id":"free"},{"bike_id":"14b06fec-0565-4e2e-b267-a11f1d1a7d86","system_id":"levelo_inurba_marseille","lat":43.29033,"lon":5.35918,"is_reserved":false,"is_disabled":false,"rental_uris":{"android":"levelo://app?vid=14b06fec-0565-4e2e-b267-a11f1d1a7d86","ios":"levelo://app?vid=14b06fec-0565-4e2e-b267-a11f1d1a7d86"},"vehicle_type_id":"4","last_reported":1685779687,"current_range_meters":0,"station_id":"ce4bha92rcd13ifvqeg0","pricing_plan_id":"free"},{"bike_id":"0e1e7373-1c7c-4da4-b6da-af974ebee562","system_id":"levelo_inurba_marseille","lat":43.29028,"lon":5.35909,"is_reserved":false,"is_disabled":false,"rental_uris":{"android":"levelo://app?vid=0e1e7373-1c7c-4da4-b6da-af974ebee562","ios":"levelo://app?vid=0e1e7373-1c7c-4da4-b6da-af974ebee562"},"vehicle_type_id":"4","last_reported":1685779687,"current_range_meters":0,"station_id":"ce4bha92rcd13ifvqeg0","pricing_plan_id":"free"},{"bike_id":"e5711166-de56-4cc5-bc69-dfa72137566f","system_id":"levelo_inurba_marseille","lat":43.289184,"lon":5.366408,"is_reserved":false,"is_disabled":false,"rental_uris":{"android":"levelo://app?vid=e5711166-de56-4cc5-bc69-dfa72137566f","ios":"levelo://app?vid=e5711166-de56-4cc5-bc69-dfa72137566f"},"vehicle_type_id":"4","last_reported":1685779687,"current_range_meters":12800,"station_id":"ce4bhap2rcd13ifvqek0","pricing_plan_id":"free"},{"bike_id":"b1e3c3d4-5871-4233-95ad-2225dc348e76","system_id":"levelo_inurba_marseille","lat":43.292732,"lon":5.384388,"is_reserved":false,"is_disabled":false,"rental_uris":{"android":"levelo://app?vid=b1e3c3d4-5871-4233-95ad-2225dc348e76","ios":"levelo://app?vid=b1e3c3d4-5871-4233-95ad-2225dc348e76"},"vehicle_type_id":"4","last_reported":1685779687,"current_range_meters":400,"station_id":"","pricing_plan_id":"free"},{"bike_id":"05f1a2c7-d830-495c-86b8-292585194459","system_id":"levelo_inurba_marseille","lat":43.3304,"lon":5.38919,"is_reserved":false,"is_disabled":false,"rental_uris":{"android":"levelo://app?vid=05f1a2c7-d830-495c-86b8-292585194459","ios":"levelo://app?vid=05f1a2c7-d830-495c-86b8-292585194459"},"vehicle_type_id":"4","last_reported":1685779687,"current_range_meters":23600,"station_id":"ce4bhr92rcd13ifvqhrg","pricing_plan_id":"free"},{"bike_id":"2364282a-cb9d-46e5-8a93-f3855a133753","system_id":"levelo_inurba_marseille","lat":43.330427,"lon":5.38921,"is_reserved":false,"is_disabled":false,"rental_uris":{"android":"levelo://app?vid=2364282a-cb9d-46e5-8a93-f3855a133753","ios":"levelo://app?vid=2364282a-cb9d-46e5-8a93-f3855a133753"},"vehicle_type_id":"4","last_reported":1685779687,"current_range_meters":21200,"station_id":"ce4bhr92rcd13ifvqhrg","pricing_plan_id":"free"},{"bike_id":"722f864e-c199-4879-bd09-05a01f636846","system_id":"levelo_inurba_marseille","lat":43.290104,"lon":5.356111,"is_reserved":false,"is_disabled":false,"rental_uris":{"android":"levelo://app?vid=722f864e-c199-4879-bd09-05a01f636846","ios":"levelo://app?vid=722f864e-c199-4879-bd09-05a01f636846"},"vehicle_type_id":"4","last_reported":1685779687,"current_range_meters":28800,"station_id":"ce4bhb92rcd13ifvqen0","pricing_plan_id":"free"},{"bike_id":"4c2e2923-c9d8-4219-b9a5-8407b8649573","system_id":"levelo_inurba_marseille","lat":43.290104,"lon":5.356111,"is_reserved":false,"is_disabled":false,"rental_uris":{"android":"levelo://app?vid=4c2e2923-c9d8-4219-b9a5-8407b8649573","ios":"levelo://app?vid=4c2e2923-c9d8-4219-b9a5-8407b8649573"},"vehicle_type_id":"4","last_reported":1685779687,"current_range_meters":27600,"station_id":"ce4bhb92rcd13ifvqen0","pricing_plan_id":"free"},{"bike_id":"1baa8134-3fc3-4080-8d1b-1757d3a98ce1","system_id":"levelo_inurba_marseille","lat":43.290995,"lon":5.381361,"is_reserved":false,"is_disabled":false,"rental_uris":{"android":"levelo://app?vid=1baa8134-3fc3-4080-8d1b-1757d3a98ce1","ios":"levelo://app?vid=1baa8134-3fc3-4080-8d1b-1757d3a98ce1"},"vehicle_type_id":"4","last_reported":1685779687,"current_range_meters":28000,"station_id":"ce4bh512rcd13ifvqe2g","pricing_plan_id":"free"},{"bike_id":"20f2c037-0382-4894-ba48-6ae84a510193","system_id":"levelo_inurba_marseille","lat":43.2901,"lon":5.381269,"is_reserved":false,"is_disabled":false,"rental_uris":{"android":"levelo://app?vid=20f2c037-0382-4894-ba48-6ae84a510193","ios":"levelo://app?vid=20f2c037-0382-4894-ba48-6ae84a510193"},"vehicle_type_id":"4","last_reported":1685779687,"current_range_meters":18800,"station_id":"ce4bh4p2rcd13ifvqe1g","pricing_plan_id":"free"},{"bike_id":"199610ee-a82c-4237-80a4-4b1f754a86f8","system_id":"levelo_inurba_marseille","lat":43.2901,"lon":5.381269,"is_reserved":false,"is_disabled":false,"rental_uris":{"android":"levelo://app?vid=199610ee-a82c-4237-80a4-4b1f754a86f8","ios":"levelo://app?vid=199610ee-a82c-4237-80a4-4b1f754a86f8"},"vehicle_type_id":"4","last_reported":1685779687,"current_range_meters":18000,"station_id":"ce4bh4p2rcd13ifvqe1g","pricing_plan_id":"free"},{"bike_id":"7dc2c9ec-fea7-42a2-91a7-7baec4fe3062","system_id":"levelo_inurba_marseille","lat":43.2901,"lon":5.381269,"is_reserved":false,"is_disabled":false,"rental_uris":{"android":"levelo://app?vid=7dc2c9ec-fea7-42a2-91a7-7baec4fe3062","ios":"levelo://app?vid=7dc2c9ec-fea7-42a2-91a7-7baec4fe3062"},"vehicle_type_id":"4","last_reported":1685779687,"current_range_meters":31200,"station_id":"ce4bh4p2rcd13ifvqe1g","pricing_plan_id":"free"},{"bike_id":"d2d22ada-ab7a-43df-8c6e-c627b2b9b36e","system_id":"levelo_inurba_marseille","lat":43.30929,"lon":5.40139,"is_reserved":false,"is_disabled":false,"rental_uris":{"android":"levelo://app?vid=d2d22ada-ab7a-43df-8c6e-c627b2b9b36e","ios":"levelo://app?vid=d2d22ada-ab7a-43df-8c6e-c627b2b9b36e"},"vehicle_type_id":"4","last_reported":1685779687,"current_range_meters":29200,"station_id":"","pricing_plan_id":"free"},{"bike_id":"1dcaa270-78fa-460e-81ea-78c9a76c8a12","system_id":"levelo_inurba_marseille","lat":43.30927,"lon":5.40139,"is_reserved":false,"is_disabled":false,"rental_uris":{"android":"levelo://app?vid=1dcaa270-78fa-460e-81ea-78c9a76c8a12","ios":"levelo://app?vid=1dcaa270-78fa-460e-81ea-78c9a76c8a12"},"vehicle_type_id":"4","last_reported":1685779687,"current_range_meters":4400,"station_id":"","pricing_plan_id":"free"},{"bike_id":"78a25bca-0906-494e-9ccb-79295b000480","system_id":"levelo_inurba_marseille","lat":43.33748,"lon":5.37451,"is_reserved":false,"is_disabled":false,"rental_uris":{"android":"levelo://app?vid=78a25bca-0906-494e-9ccb-79295b000480","ios":"levelo://app?vid=78a25bca-0906-494e-9ccb-79295b000480"},"vehicle_type_id":"4","last_reported":1685779687,"current_range_meters":10000,"station_id":"","pricing_plan_id":"free"},{"bike_id":"09044982-2e58-4a53-993c-2701ccdb63d8","system_id":"levelo_inurba_marseille","lat":43.33749,"lon":5.37457,"is_reserved":false,"is_disabled":false,"rental_uris":{"android":"levelo://app?vid=09044982-2e58-4a53-993c-2701ccdb63d8","ios":"levelo://app?vid=09044982-2e58-4a53-993c-2701ccdb63d8"},"vehicle_type_id":"4","last_reported":1685779687,"current_range_meters":16800,"station_id":"","pricing_plan_id":"free"},{"bike_id":"f8f6ecd5-b0a5-4c5f-8a52-999906778af2","system_id":"levelo_inurba_marseille","lat":43.30642,"lon":5.401031,"is_reserved":false,"is_disabled":false,"rental_uris":{"android":"levelo://app?vid=f8f6ecd5-b0a5-4c5f-8a52-999906778af2","ios":"levelo://app?vid=f8f6ecd5-b0a5-4c5f-8a52-999906778af2"},"vehicle_type_id":"4","last_reported":1685779687,"current_range_meters":31200,"station_id":"ce4bh112rcd13ifvqda0","pricing_plan_id":"free"},{"bike_id":"0113e38e-96e8-443e-8ffa-9a4f8c786a1e","system_id":"levelo_inurba_marseille","lat":43.33766,"lon":5.3743,"is_reserved":false,"is_disabled":false,"rental_uris":{"android":"levelo://app?vid=0113e38e-96e8-443e-8ffa-9a4f8c786a1e","ios":"levelo://app?vid=0113e38e-96e8-443e-8ffa-9a4f8c786a1e"},"vehicle_type_id":"4","last_reported":1685779687,"current_range_meters":22000,"station_id":"","pricing_plan_id":"free"},{"bike_id":"078b0493-3cdb-4be0-9172-7ed80122f3ae","system_id":"levelo_inurba_marseille","lat":43.30632,"lon":5.40084,"is_reserved":false,"is_disabled":false,"rental_uris":{"android":"levelo://app?vid=078b0493-3cdb-4be0-9172-7ed80122f3ae","ios":"levelo://app?vid=078b0493-3cdb-4be0-9172-7ed80122f3ae"},"vehicle_type_id":"4","last_reported":1685779687,"current_range_meters":14800,"station_id":"ce4bh112rcd13ifvqda0","pricing_plan_id":"free"},{"bike_id":"2a7cef6e-3e2c-43aa-9bb1-e7602822fc07","system_id":"levelo_inurba_marseille","lat":43.30645,"lon":5.40094,"is_reserved":false,"is_disabled":false,"rental_uris":{"android":"levelo://app?vid=2a7cef6e-3e2c-43aa-9bb1-e7602822fc07","ios":"levelo://app?vid=2a7cef6e-3e2c-43aa-9bb1-e7602822fc07"},"vehicle_type_id":"4","last_reported":1685779687,"current_range_meters":27200,"station_id":"ce4bh112rcd13ifvqda0","pricing_plan_id":"free"},{"bike_id":"9d1dcca5-8c40-4357-a3d8-707dd9f3c91e","system_id":"levelo_inurba_marseille","lat":43.30654,"lon":5.40099,"is_reserved":false,"is_disabled":false,"rental_uris":{"android":"levelo://app?vid=9d1dcca5-8c40-4357-a3d8-707dd9f3c91e","ios":"levelo://app?vid=9d1dcca5-8c40-4357-a3d8-707dd9f3c91e"},"vehicle_type_id":"4","last_reported":1685779687,"current_range_meters":16400,"station_id":"ce4bh112rcd13ifvqda0","pricing_plan_id":"free"},{"bike_id":"cf0caa37-cec8-408b-98f7-37211a80813c","system_id":"levelo_inurba_marseille","lat":43.33775,"lon":5.37444,"is_reserved":false,"is_disabled":false,"rental_uris":{"android":"levelo://app?vid=cf0caa37-cec8-408b-98f7-37211a80813c","ios":"levelo://app?vid=cf0caa37-cec8-408b-98f7-37211a80813c"},"vehicle_type_id":"4","last_reported":1685779687,"current_range_meters":26000,"station_id":"","pricing_plan_id":"free"},{"bike_id":"c27ee4a9-68dd-44fe-92e5-36b3f3ee19bb","system_id":"levelo_inurba_marseille","lat":43.301117,"lon":5.398795,"is_reserved":false,"is_disabled":false,"rental_uris":{"android":"levelo://app?vid=c27ee4a9-68dd-44fe-92e5-36b3f3ee19bb","ios":"levelo://app?vid=c27ee4a9-68dd-44fe-92e5-36b3f3ee19bb"},"vehicle_type_id":"4","last_reported":1685779687,"current_range_meters":25200,"station_id":"ce4bh0h2rcd13ifvqd40","pricing_plan_id":"free"},{"bike_id":"abf93277-edc6-442a-9cfc-4241497f8dad","system_id":"levelo_inurba_marseille","lat":43.298681,"lon":5.397225,"is_reserved":false,"is_disabled":false,"rental_uris":{"android":"levelo://app?vid=abf93277-edc6-442a-9cfc-4241497f8dad","ios":"levelo://app?vid=abf93277-edc6-442a-9cfc-4241497f8dad"},"vehicle_type_id":"4","last_reported":1685779687,"current_range_meters":31200,"station_id":"ce4bh0h2rcd13ifvqd50","pricing_plan_id":"free"},{"bike_id":"e9b182a5-6dc5-451f-bbe2-bafd5911279e","system_id":"levelo_inurba_marseille","lat":43.298681,"lon":5.397225,"is_reserved":false,"is_disabled":false,"rental_uris":{"android":"levelo://app?vid=e9b182a5-6dc5-451f-bbe2-bafd5911279e","ios":"levelo://app?vid=e9b182a5-6dc5-451f-bbe2-bafd5911279e"},"vehicle_type_id":"4","last_reported":1685779687,"current_range_meters":30800,"station_id":"ce4bh0h2rcd13ifvqd50","pricing_plan_id":"free"},{"bike_id":"b5e877e1-f0ac-4119-a8cd-4aecd8eb514f","system_id":"levelo_inurba_marseille","lat":43.298681,"lon":5.397225,"is_reserved":false,"is_disabled":false,"rental_uris":{"android":"levelo://app?vid=b5e877e1-f0ac-4119-a8cd-4aecd8eb514f","ios":"levelo://app?vid=b5e877e1-f0ac-4119-a8cd-4aecd8eb514f"},"vehicle_type_id":"4","last_reported":1685779687,"current_range_meters":30800,"station_id":"ce4bh0h2rcd13ifvqd50","pricing_plan_id":"free"},{"bike_id":"1676eeb1-bb4d-4110-a61c-1f6d87f81c1a","system_id":"levelo_inurba_marseille","lat":43.298681,"lon":5.397225,"is_reserved":false,"is_disabled":false,"rental_uris":{"android":"levelo://app?vid=1676eeb1-bb4d-4110-a61c-1f6d87f81c1a","ios":"levelo://app?vid=1676eeb1-bb4d-4110-a61c-1f6d87f81c1a"},"vehicle_type_id":"4","last_reported":1685779687,"current_range_meters":28400,"station_id":"ce4bh0h2rcd13ifvqd50","pricing_plan_id":"free"},{"bike_id":"b8b1cbb6-6c1d-426d-bb27-f01c29d2b62b","system_id":"levelo_inurba_marseille","lat":43.295196,"lon":5.39397,"is_reserved":false,"is_disabled":false,"rental_uris":{"android":"levelo://app?vid=b8b1cbb6-6c1d-426d-bb27-f01c29d2b62b","ios":"levelo://app?vid=b8b1cbb6-6c1d-426d-bb27-f01c29d2b62b"},"vehicle_type_id":"4","last_reported":1685779687,"current_range_meters":29600,"station_id":"ce4bh292rcd13ifvqdf0","pricing_plan_id":"free"},{"bike_id":"73a46448-0260-49b0-a18b-c8aca0b3d05a","system_id":"levelo_inurba_marseille","lat":43.295213,"lon":5.393962,"is_reserved":false,"is_disabled":false,"rental_uris":{"android":"levelo://app?vid=73a46448-0260-49b0-a18b-c8aca0b3d05a","ios":"levelo://app?vid=73a46448-0260-49b0-a18b-c8aca0b3d05a"},"vehicle_type_id":"4","last_reported":1685779687,"current_range_meters":0,"station_id":"ce4bh292rcd13ifvqdf0","pricing_plan_id":"free"},{"bike_id":"f80ca417-3dde-41a7-b0d3-16195594e658","system_id":"levelo_inurba_marseille","lat":43.316517,"lon":5.404375,"is_reserved":false,"is_disabled":false,"rental_uris":{"android":"levelo://app?vid=f80ca417-3dde-41a7-b0d3-16195594e658","ios":"levelo://app?vid=f80ca417-3dde-41a7-b0d3-16195594e658"},"vehicle_type_id":"4","last_reported":1685779687,"current_range_meters":16800,"station_id":"ce4bh012rcd13ifvqd00","pricing_plan_id":"free"},{"bike_id":"e27f3712-b36e-415d-aa81-b9b3075f35ee","system_id":"levelo_inurba_marseille","lat":43.284534,"lon":5.358662,"is_reserved":false,"is_disabled":false,"rental_uris":{"android":"levelo://app?vid=e27f3712-b36e-415d-aa81-b9b3075f35ee","ios":"levelo://app?vid=e27f3712-b36e-415d-aa81-b9b3075f35ee"},"vehicle_type_id":"4","last_reported":1685779687,"current_range_meters":24800,"station_id":"ce4bhah2rcd13ifvqei0","pricing_plan_id":"free"},{"bike_id":"f71c369a-4463-4bc8-ac6d-634b48afe1e0","system_id":"levelo_inurba_marseille","lat":43.28453,"lon":5.35889,"is_reserved":false,"is_disabled":false,"rental_uris":{"android":"levelo://app?vid=f71c369a-4463-4bc8-ac6d-634b48afe1e0","ios":"levelo://app?vid=f71c369a-4463-4bc8-ac6d-634b48afe1e0"},"vehicle_type_id":"4","last_reported":1685779687,"current_range_meters":21600,"station_id":"ce4bhah2rcd13ifvqei0","pricing_plan_id":"free"},{"bike_id":"f942940d-2614-45f1-862e-cfe811cc5fdd","system_id":"levelo_inurba_marseille","lat":43.285848,"lon":5.350787,"is_reserved":false,"is_disabled":false,"rental_uris":{"android":"levelo://app?vid=f942940d-2614-45f1-862e-cfe811cc5fdd","ios":"levelo://app?vid=f942940d-2614-45f1-862e-cfe811cc5fdd"},"vehicle_type_id":"4","last_reported":1685779687,"current_range_meters":31200,"station_id":"ce4bhch2rcd13ifvqeug","pricing_plan_id":"free"},{"bike_id":"fea3f320-bf0e-4eb9-a41c-05fca5a72d5b","system_id":"levelo_inurba_marseille","lat":43.285848,"lon":5.350787,"is_reserved":false,"is_disabled":false,"rental_uris":{"android":"levelo://app?vid=fea3f320-bf0e-4eb9-a41c-05fca5a72d5b","ios":"levelo://app?vid=fea3f320-bf0e-4eb9-a41c-05fca5a72d5b"},"vehicle_type_id":"4","last_reported":1685779687,"current_range_meters":30000,"station_id":"ce4bhch2rcd13ifvqeug","pricing_plan_id":"free"},{"bike_id":"a715d8cf-1d26-4e55-9680-444cbbd689bb","system_id":"levelo_inurba_marseille","lat":43.285856,"lon":5.350771,"is_reserved":false,"is_disabled":false,"rental_uris":{"android":"levelo://app?vid=a715d8cf-1d26-4e55-9680-444cbbd689bb","ios":"levelo://app?vid=a715d8cf-1d26-4e55-9680-444cbbd689bb"},"vehicle_type_id":"4","last_reported":1685779687,"current_range_meters":24800,"station_id":"ce4bhch2rcd13ifvqeug","pricing_plan_id":"free"},{"bike_id":"ad624e12-e913-4400-8b1c-d8be591294f7","system_id":"levelo_inurba_marseille","lat":43.285848,"lon":5.350787,"is_reserved":false,"is_disabled":false,"rental_uris":{"android":"levelo://app?vid=ad624e12-e913-4400-8b1c-d8be591294f7","ios":"levelo://app?vid=ad624e12-e913-4400-8b1c-d8be591294f7"},"vehicle_type_id":"4","last_reported":1685779687,"current_range_meters":30400,"station_id":"ce4bhch2rcd13ifvqeug","pricing_plan_id":"free"},{"bike_id":"d0f4f0d5-d67f-4b16-bbf2-159f98297b1d","system_id":"levelo_inurba_marseille","lat":43.286151,"lon":5.350985,"is_reserved":false,"is_disabled":false,"rental_uris":{"android":"levelo://app?vid=d0f4f0d5-d67f-4b16-bbf2-159f98297b1d","ios":"levelo://app?vid=d0f4f0d5-d67f-4b16-bbf2-159f98297b1d"},"vehicle_type_id":"4","last_reported":1685779687,"current_range_meters":26800,"station_id":"","pricing_plan_id":"free"},{"bike_id":"6198105f-050a-4633-bc14-6cdc88da98ca","system_id":"levelo_inurba_marseille","lat":43.285848,"lon":5.350787,"is_reserved":false,"is_disabled":false,"rental_uris":{"android":"levelo://app?vid=6198105f-050a-4633-bc14-6cdc88da98ca","ios":"levelo://app?vid=6198105f-050a-4633-bc14-6cdc88da98ca"},"vehicle_type_id":"4","last_reported":1685779687,"current_range_meters":25600,"station_id":"ce4bhch2rcd13ifvqeug","pricing_plan_id":"free"},{"bike_id":"5bcb57a8-71f5-4b84-aa40-b494b0636b79","system_id":"levelo_inurba_marseille","lat":43.285848,"lon":5.350787,"is_reserved":false,"is_disabled":false,"rental_uris":{"android":"levelo://app?vid=5bcb57a8-71f5-4b84-aa40-b494b0636b79","ios":"levelo://app?vid=5bcb57a8-71f5-4b84-aa40-b494b0636b79"},"vehicle_type_id":"4","last_reported":1685779687,"current_range_meters":31200,"station_id":"ce4bhch2rcd13ifvqeug","pricing_plan_id":"free"},{"bike_id":"0a8aba60-b51b-427d-be66-8709066b23d1","system_id":"levelo_inurba_marseille","lat":43.33155,"lon":5.39807,"is_reserved":false,"is_disabled":false,"rental_uris":{"android":"levelo://app?vid=0a8aba60-b51b-427d-be66-8709066b23d1","ios":"levelo://app?vid=0a8aba60-b51b-427d-be66-8709066b23d1"},"vehicle_type_id":"4","last_reported":1685779687,"current_range_meters":30000,"station_id":"","pricing_plan_id":"free"},{"bike_id":"b205e703-9cc6-479d-b47b-dcec15459f4d","system_id":"levelo_inurba_marseille","lat":43.32699,"lon":5.40374,"is_reserved":false,"is_disabled":false,"rental_uris":{"android":"levelo://app?vid=b205e703-9cc6-479d-b47b-dcec15459f4d","ios":"levelo://app?vid=b205e703-9cc6-479d-b47b-dcec15459f4d"},"vehicle_type_id":"4","last_reported":1685779687,"current_range_meters":18000,"station_id":"","pricing_plan_id":"free"},{"bike_id":"c6efa6ac-d327-4735-a284-170628c19eab","system_id":"levelo_inurba_marseille","lat":43.323464,"lon":5.406297,"is_reserved":false,"is_disabled":false,"rental_uris":{"android":"levelo://app?vid=c6efa6ac-d327-4735-a284-170628c19eab","ios":"levelo://app?vid=c6efa6ac-d327-4735-a284-170628c19eab"},"vehicle_type_id":"4","last_reported":1685779687,"current_range_meters":30000,"station_id":"ce4bhq92rcd13ifvqhjg","pricing_plan_id":"free"},{"bike_id":"0a1605d6-87c9-472d-8606-00b4cb8bcbb4","system_id":"levelo_inurba_marseille","lat":43.323464,"lon":5.406297,"is_reserved":false,"is_disabled":false,"rental_uris":{"android":"levelo://app?vid=0a1605d6-87c9-472d-8606-00b4cb8bcbb4","ios":"levelo://app?vid=0a1605d6-87c9-472d-8606-00b4cb8bcbb4"},"vehicle_type_id":"4","last_reported":1685779687,"current_range_meters":16000,"station_id":"ce4bhq92rcd13ifvqhjg","pricing_plan_id":"free"},{"bike_id":"d7f3818d-412d-43e2-871a-4d55a6dfd6cb","system_id":"levelo_inurba_marseille","lat":43.30966,"lon":5.40861,"is_reserved":false,"is_disabled":false,"rental_uris":{"android":"levelo://app?vid=d7f3818d-412d-43e2-871a-4d55a6dfd6cb","ios":"levelo://app?vid=d7f3818d-412d-43e2-871a-4d55a6dfd6cb"},"vehicle_type_id":"4","last_reported":1685779687,"current_range_meters":7600,"station_id":"","pricing_plan_id":"free"},{"bike_id":"d4e05066-8366-4ba4-8c8a-6f7a122e44a3","system_id":"levelo_inurba_marseille","lat":43.284787,"lon":5.384116,"is_reserved":false,"is_disabled":false,"rental_uris":{"android":"levelo://app?vid=d4e05066-8366-4ba4-8c8a-6f7a122e44a3","ios":"levelo://app?vid=d4e05066-8366-4ba4-8c8a-6f7a122e44a3"},"vehicle_type_id":"4","last_reported":1685779687,"current_range_meters":24000,"station_id":"ce4bh512rcd13ifvqe3g","pricing_plan_id":"free"},{"bike_id":"116371d7-297f-4354-b067-2b57f496b55b","system_id":"levelo_inurba_marseille","lat":43.284217,"lon":5.349697,"is_reserved":false,"is_disabled":false,"rental_uris":{"android":"levelo://app?vid=116371d7-297f-4354-b067-2b57f496b55b","ios":"levelo://app?vid=116371d7-297f-4354-b067-2b57f496b55b"},"vehicle_type_id":"4","last_reported":1685779687,"current_range_meters":30000,"station_id":"ce4bhbh2rcd13ifvqepg","pricing_plan_id":"free"},{"bike_id":"bfa5803a-60c1-4d27-8744-bcab9b20e932","system_id":"levelo_inurba_marseille","lat":43.28425,"lon":5.34986,"is_reserved":false,"is_disabled":false,"rental_uris":{"android":"levelo://app?vid=bfa5803a-60c1-4d27-8744-bcab9b20e932","ios":"levelo://app?vid=bfa5803a-60c1-4d27-8744-bcab9b20e932"},"vehicle_type_id":"4","last_reported":1685779687,"current_range_meters":29200,"station_id":"ce4bhbh2rcd13ifvqepg","pricing_plan_id":"free"},{"bike_id":"289ad4d2-234a-4e6e-a28b-e186271f648c","system_id":"levelo_inurba_marseille","lat":43.28424,"lon":5.34981,"is_reserved":false,"is_disabled":false,"rental_uris":{"android":"levelo://app?vid=289ad4d2-234a-4e6e-a28b-e186271f648c","ios":"levelo://app?vid=289ad4d2-234a-4e6e-a28b-e186271f648c"},"vehicle_type_id":"4","last_reported":1685779687,"current_range_meters":27600,"station_id":"ce4bhbh2rcd13ifvqepg","pricing_plan_id":"free"},{"bike_id":"6b26d359-6b37-4b3d-8503-3149bec908dc","system_id":"levelo_inurba_marseille","lat":43.284217,"lon":5.349697,"is_reserved":false,"is_disabled":false,"rental_uris":{"android":"levelo://app?vid=6b26d359-6b37-4b3d-8503-3149bec908dc","ios":"levelo://app?vid=6b26d359-6b37-4b3d-8503-3149bec908dc"},"vehicle_type_id":"4","last_reported":1685779687,"current_range_meters":31200,"station_id":"ce4bhbh2rcd13ifvqepg","pricing_plan_id":"free"},{"bike_id":"25b3692d-8fb6-4da1-93b7-368e3d9c766a","system_id":"levelo_inurba_marseille","lat":43.28417,"lon":5.3499,"is_reserved":false,"is_disabled":false,"rental_uris":{"android":"levelo://app?vid=25b3692d-8fb6-4da1-93b7-368e3d9c766a","ios":"levelo://app?vid=25b3692d-8fb6-4da1-93b7-368e3d9c766a"},"vehicle_type_id":"4","last_reported":1685779687,"current_range_meters":21600,"station_id":"ce4bhbh2rcd13ifvqepg","pricing_plan_id":"free"},{"bike_id":"ad1d5e82-6800-4527-b5fc-d74942c85715","system_id":"levelo_inurba_marseille","lat":43.28422,"lon":5.34972,"is_reserved":false,"is_disabled":false,"rental_uris":{"android":"levelo://app?vid=ad1d5e82-6800-4527-b5fc-d74942c85715","ios":"levelo://app?vid=ad1d5e82-6800-4527-b5fc-d74942c85715"},"vehicle_type_id":"4","last_reported":1685779687,"current_range_meters":30000,"station_id":"ce4bhbh2rcd13ifvqepg","pricing_plan_id":"free"},{"bike_id":"13aa3667-a778-4e64-9805-3153f92202ff","system_id":"levelo_inurba_marseille","lat":43.28423,"lon":5.34964,"is_reserved":false,"is_disabled":false,"rental_uris":{"android":"levelo://app?vid=13aa3667-a778-4e64-9805-3153f92202ff","ios":"levelo://app?vid=13aa3667-a778-4e64-9805-3153f92202ff"},"vehicle_type_id":"4","last_reported":1685779687,"current_range_meters":0,"station_id":"ce4bhbh2rcd13ifvqepg","pricing_plan_id":"free"},{"bike_id":"fee7ee8b-9689-499f-bb2f-50348ebe565b","system_id":"levelo_inurba_marseille","lat":43.284187,"lon":5.34971,"is_reserved":false,"is_disabled":false,"rental_uris":{"android":"levelo://app?vid=fee7ee8b-9689-499f-bb2f-50348ebe565b","ios":"levelo://app?vid=fee7ee8b-9689-499f-bb2f-50348ebe565b"},"vehicle_type_id":"4","last_reported":1685779687,"current_range_meters":18000,"station_id":"ce4bhbh2rcd13ifvqepg","pricing_plan_id":"free"},{"bike_id":"3130445e-039d-47cf-845a-53b49cb21d6b","system_id":"levelo_inurba_marseille","lat":43.282754,"lon":5.350519,"is_reserved":false,"is_disabled":false,"rental_uris":{"android":"levelo://app?vid=3130445e-039d-47cf-845a-53b49cb21d6b","ios":"levelo://app?vid=3130445e-039d-47cf-845a-53b49cb21d6b"},"vehicle_type_id":"4","last_reported":1685779687,"current_range_meters":31200,"station_id":"ce4bhbp2rcd13ifvqerg","pricing_plan_id":"free"},{"bike_id":"1b563f93-ce44-435a-b09d-c58c7e4935c9","system_id":"levelo_inurba_marseille","lat":43.282754,"lon":5.350519,"is_reserved":false,"is_disabled":false,"rental_uris":{"android":"levelo://app?vid=1b563f93-ce44-435a-b09d-c58c7e4935c9","ios":"levelo://app?vid=1b563f93-ce44-435a-b09d-c58c7e4935c9"},"vehicle_type_id":"4","last_reported":1685779687,"current_range_meters":29200,"station_id":"ce4bhbp2rcd13ifvqerg","pricing_plan_id":"free"},{"bike_id":"b0614665-1951-4610-8baf-f19e24054eeb","system_id":"levelo_inurba_marseille","lat":43.282754,"lon":5.350519,"is_reserved":false,"is_disabled":false,"rental_uris":{"android":"levelo://app?vid=b0614665-1951-4610-8baf-f19e24054eeb","ios":"levelo://app?vid=b0614665-1951-4610-8baf-f19e24054eeb"},"vehicle_type_id":"4","last_reported":1685779687,"current_range_meters":28800,"station_id":"ce4bhbp2rcd13ifvqerg","pricing_plan_id":"free"},{"bike_id":"a0ca22df-316c-4b64-a37c-593055867110","system_id":"levelo_inurba_marseille","lat":43.28039,"lon":5.369297,"is_reserved":false,"is_disabled":false,"rental_uris":{"android":"levelo://app?vid=a0ca22df-316c-4b64-a37c-593055867110","ios":"levelo://app?vid=a0ca22df-316c-4b64-a37c-593055867110"},"vehicle_type_id":"4","last_reported":1685779687,"current_range_meters":2000,"station_id":"ce4bha12rcd13ifvqef0","pricing_plan_id":"free"},{"bike_id":"470e9e06-2933-4da1-8294-f00f279d5310","system_id":"levelo_inurba_marseille","lat":43.281044,"lon":5.378308,"is_reserved":false,"is_disabled":false,"rental_uris":{"android":"levelo://app?vid=470e9e06-2933-4da1-8294-f00f279d5310","ios":"levelo://app?vid=470e9e06-2933-4da1-8294-f00f279d5310"},"vehicle_type_id":"4","last_reported":1685779687,"current_range_meters":12000,"station_id":"ce4bha12rcd13ifvqee0","pricing_plan_id":"free"},{"bike_id":"4e5a2f24-6cff-4b00-b622-2cd1c67427c7","system_id":"levelo_inurba_marseille","lat":43.304188,"lon":5.412904,"is_reserved":false,"is_disabled":false,"rental_uris":{"android":"levelo://app?vid=4e5a2f24-6cff-4b00-b622-2cd1c67427c7","ios":"levelo://app?vid=4e5a2f24-6cff-4b00-b622-2cd1c67427c7"},"vehicle_type_id":"4","last_reported":1685779687,"current_range_meters":800,"station_id":"ce4bhop2rcd13ifvqh8g","pricing_plan_id":"free"},{"bike_id":"4e0ac645-a893-4045-a69f-f7488007fe7a","system_id":"levelo_inurba_marseille","lat":43.304188,"lon":5.412904,"is_reserved":false,"is_disabled":false,"rental_uris":{"android":"levelo://app?vid=4e0ac645-a893-4045-a69f-f7488007fe7a","ios":"levelo://app?vid=4e0ac645-a893-4045-a69f-f7488007fe7a"},"vehicle_type_id":"4","last_reported":1685779687,"current_range_meters":30800,"station_id":"ce4bhop2rcd13ifvqh8g","pricing_plan_id":"free"},{"bike_id":"64276e10-ce58-4087-bf84-bf27b35a1165","system_id":"levelo_inurba_marseille","lat":43.304188,"lon":5.412904,"is_reserved":false,"is_disabled":false,"rental_uris":{"android":"levelo://app?vid=64276e10-ce58-4087-bf84-bf27b35a1165","ios":"levelo://app?vid=64276e10-ce58-4087-bf84-bf27b35a1165"},"vehicle_type_id":"4","last_reported":1685779687,"current_range_meters":14400,"station_id":"ce4bhop2rcd13ifvqh8g","pricing_plan_id":"free"},{"bike_id":"920361a6-6bc4-42a4-9387-85360de89cc5","system_id":"levelo_inurba_marseille","lat":43.304127,"lon":5.413062,"is_reserved":false,"is_disabled":false,"rental_uris":{"android":"levelo://app?vid=920361a6-6bc4-42a4-9387-85360de89cc5","ios":"levelo://app?vid=920361a6-6bc4-42a4-9387-85360de89cc5"},"vehicle_type_id":"4","last_reported":1685779687,"current_range_meters":3600,"station_id":"ce4bhop2rcd13ifvqh8g","pricing_plan_id":"free"},{"bike_id":"ecc99947-5ed1-4bd2-84ee-04505db5300d","system_id":"levelo_inurba_marseille","lat":43.27895,"lon":5.37998,"is_reserved":false,"is_disabled":false,"rental_uris":{"android":"levelo://app?vid=ecc99947-5ed1-4bd2-84ee-04505db5300d","ios":"levelo://app?vid=ecc99947-5ed1-4bd2-84ee-04505db5300d"},"vehicle_type_id":"4","last_reported":1685779687,"current_range_meters":2000,"station_id":"","pricing_plan_id":"free"},{"bike_id":"fe3ee519-3685-4bd0-9d91-2a1bb2674a11","system_id":"levelo_inurba_marseille","lat":43.320045,"lon":5.415046,"is_reserved":false,"is_disabled":false,"rental_uris":{"android":"levelo://app?vid=fe3ee519-3685-4bd0-9d91-2a1bb2674a11","ios":"levelo://app?vid=fe3ee519-3685-4bd0-9d91-2a1bb2674a11"},"vehicle_type_id":"4","last_reported":1685779687,"current_range_meters":23600,"station_id":"ce4bhq92rcd13ifvqhkg","pricing_plan_id":"free"},{"bike_id":"c6e6968b-7a52-4ad8-b761-6986a9601c1e","system_id":"levelo_inurba_marseille","lat":43.299579,"lon":5.413255,"is_reserved":false,"is_disabled":false,"rental_uris":{"android":"levelo://app?vid=c6e6968b-7a52-4ad8-b761-6986a9601c1e","ios":"levelo://app?vid=c6e6968b-7a52-4ad8-b761-6986a9601c1e"},"vehicle_type_id":"4","last_reported":1685779687,"current_range_meters":29200,"station_id":"ce4bhp12rcd13ifvqh9g","pricing_plan_id":"free"},{"bike_id":"dc312966-cc12-4dd8-84bd-c3af261f9921","system_id":"levelo_inurba_marseille","lat":43.279742,"lon":5.38744,"is_reserved":false,"is_disabled":false,"rental_uris":{"android":"levelo://app?vid=dc312966-cc12-4dd8-84bd-c3af261f9921","ios":"levelo://app?vid=dc312966-cc12-4dd8-84bd-c3af261f9921"},"vehicle_type_id":"4","last_reported":1685779687,"current_range_meters":18800,"station_id":"ce4bhg12rcd13ifvqf80","pricing_plan_id":"free"},{"bike_id":"3e4b0161-6deb-4f2f-9446-bd5731c1ed2e","system_id":"levelo_inurba_marseille","lat":43.325233,"lon":5.414318,"is_reserved":false,"is_disabled":false,"rental_uris":{"android":"levelo://app?vid=3e4b0161-6deb-4f2f-9446-bd5731c1ed2e","ios":"levelo://app?vid=3e4b0161-6deb-4f2f-9446-bd5731c1ed2e"},"vehicle_type_id":"4","last_reported":1685779687,"current_range_meters":16000,"station_id":"ce4bhq12rcd13ifvqhhg","pricing_plan_id":"free"},{"bike_id":"939b13ef-4d8a-443b-b549-350b994625d8","system_id":"levelo_inurba_marseille","lat":43.292569,"lon":5.409107,"is_reserved":false,"is_disabled":false,"rental_uris":{"android":"levelo://app?vid=939b13ef-4d8a-443b-b549-350b994625d8","ios":"levelo://app?vid=939b13ef-4d8a-443b-b549-350b994625d8"},"vehicle_type_id":"4","last_reported":1685779687,"current_range_meters":23600,"station_id":"ce4bh192rcd13ifvqdc0","pricing_plan_id":"free"},{"bike_id":"7b2f32b9-2657-46b7-9a75-9219026cd646","system_id":"levelo_inurba_marseille","lat":43.27618,"lon":5.361009,"is_reserved":false,"is_disabled":false,"rental_uris":{"android":"levelo://app?vid=7b2f32b9-2657-46b7-9a75-9219026cd646","ios":"levelo://app?vid=7b2f32b9-2657-46b7-9a75-9219026cd646"},"vehicle_type_id":"4","last_reported":1685779687,"current_range_meters":31200,"station_id":"ce4bgj92rcd13ifvqbe0","pricing_plan_id":"free"},{"bike_id":"4604a8e2-a798-400e-9cfe-93a8133d2b47","system_id":"levelo_inurba_marseille","lat":43.276179,"lon":5.361009,"is_reserved":false,"is_disabled":false,"rental_uris":{"android":"levelo://app?vid=4604a8e2-a798-400e-9cfe-93a8133d2b47","ios":"levelo://app?vid=4604a8e2-a798-400e-9cfe-93a8133d2b47"},"vehicle_type_id":"4","last_reported":1685779687,"current_range_meters":20000,"station_id":"ce4bgj92rcd13ifvqbe0","pricing_plan_id":"free"},{"bike_id":"5fccf78e-1b26-4af2-9d5d-f14aa0074ff6","system_id":"levelo_inurba_marseille","lat":43.27618,"lon":5.361009,"is_reserved":false,"is_disabled":false,"rental_uris":{"android":"levelo://app?vid=5fccf78e-1b26-4af2-9d5d-f14aa0074ff6","ios":"levelo://app?vid=5fccf78e-1b26-4af2-9d5d-f14aa0074ff6"},"vehicle_type_id":"4","last_reported":1685779687,"current_range_meters":12000,"station_id":"ce4bgj92rcd13ifvqbe0","pricing_plan_id":"free"},{"bike_id":"9e702849-8d9b-4edf-8f9b-274639fd1e93","system_id":"levelo_inurba_marseille","lat":43.276179,"lon":5.361009,"is_reserved":false,"is_disabled":false,"rental_uris":{"android":"levelo://app?vid=9e702849-8d9b-4edf-8f9b-274639fd1e93","ios":"levelo://app?vid=9e702849-8d9b-4edf-8f9b-274639fd1e93"},"vehicle_type_id":"4","last_reported":1685779687,"current_range_meters":17200,"station_id":"ce4bgj92rcd13ifvqbe0","pricing_plan_id":"free"},{"bike_id":"864fd1e5-5a0b-46df-a0ce-3148b9668500","system_id":"levelo_inurba_marseille","lat":43.28073,"lon":5.39636,"is_reserved":false,"is_disabled":false,"rental_uris":{"android":"levelo://app?vid=864fd1e5-5a0b-46df-a0ce-3148b9668500","ios":"levelo://app?vid=864fd1e5-5a0b-46df-a0ce-3148b9668500"},"vehicle_type_id":"4","last_reported":1685779687,"current_range_meters":31200,"station_id":"ce4bho12rcd13ifvqh2g","pricing_plan_id":"free"},{"bike_id":"f1defb53-3eb7-48f4-9d14-f3fb39b06ee8","system_id":"levelo_inurba_marseille","lat":43.280784,"lon":5.396622,"is_reserved":false,"is_disabled":false,"rental_uris":{"android":"levelo://app?vid=f1defb53-3eb7-48f4-9d14-f3fb39b06ee8","ios":"levelo://app?vid=f1defb53-3eb7-48f4-9d14-f3fb39b06ee8"},"vehicle_type_id":"4","last_reported":1685779687,"current_range_meters":16000,"station_id":"ce4bho12rcd13ifvqh2g","pricing_plan_id":"free"},{"bike_id":"d6f84783-590f-4e08-8fae-ebd16dd193dd","system_id":"levelo_inurba_marseille","lat":43.280742,"lon":5.396652,"is_reserved":false,"is_disabled":false,"rental_uris":{"android":"levelo://app?vid=d6f84783-590f-4e08-8fae-ebd16dd193dd","ios":"levelo://app?vid=d6f84783-590f-4e08-8fae-ebd16dd193dd"},"vehicle_type_id":"4","last_reported":1685779687,"current_range_meters":30000,"station_id":"","pricing_plan_id":"free"},{"bike_id":"eae25d34-e0df-41bf-bb8f-8f87f9310151","system_id":"levelo_inurba_marseille","lat":43.280784,"lon":5.396622,"is_reserved":false,"is_disabled":false,"rental_uris":{"android":"levelo://app?vid=eae25d34-e0df-41bf-bb8f-8f87f9310151","ios":"levelo://app?vid=eae25d34-e0df-41bf-bb8f-8f87f9310151"},"vehicle_type_id":"4","last_reported":1685779687,"current_range_meters":22800,"station_id":"ce4bho12rcd13ifvqh2g","pricing_plan_id":"free"},{"bike_id":"58e206d3-dff7-4eb6-99c0-9d27a0184883","system_id":"levelo_inurba_marseille","lat":43.33612,"lon":5.410321,"is_reserved":false,"is_disabled":false,"rental_uris":{"android":"levelo://app?vid=58e206d3-dff7-4eb6-99c0-9d27a0184883","ios":"levelo://app?vid=58e206d3-dff7-4eb6-99c0-9d27a0184883"},"vehicle_type_id":"4","last_reported":1685779687,"current_range_meters":31200,"station_id":"ce4bhqh2rcd13ifvqhmg","pricing_plan_id":"free"},{"bike_id":"9db9545d-f63d-42be-a674-9c25625f916b","system_id":"levelo_inurba_marseille","lat":43.29391,"lon":5.41933,"is_reserved":false,"is_disabled":false,"rental_uris":{"android":"levelo://app?vid=9db9545d-f63d-42be-a674-9c25625f916b","ios":"levelo://app?vid=9db9545d-f63d-42be-a674-9c25625f916b"},"vehicle_type_id":"4","last_reported":1685779687,"current_range_meters":13200,"station_id":"","pricing_plan_id":"free"},{"bike_id":"6fa4c3f8-5165-44e1-a959-fb880a3ee57c","system_id":"levelo_inurba_marseille","lat":43.295523,"lon":5.422926,"is_reserved":false,"is_disabled":false,"rental_uris":{"android":"levelo://app?vid=6fa4c3f8-5165-44e1-a959-fb880a3ee57c","ios":"levelo://app?vid=6fa4c3f8-5165-44e1-a959-fb880a3ee57c"},"vehicle_type_id":"4","last_reported":1685779687,"current_range_meters":26000,"station_id":"ce4bhph2rcd13ifvqhdg","pricing_plan_id":"free"},{"bike_id":"c0b7aded-1759-4f4e-a8a8-923efa202762","system_id":"levelo_inurba_marseille","lat":43.295523,"lon":5.422926,"is_reserved":false,"is_disabled":false,"rental_uris":{"android":"levelo://app?vid=c0b7aded-1759-4f4e-a8a8-923efa202762","ios":"levelo://app?vid=c0b7aded-1759-4f4e-a8a8-923efa202762"},"vehicle_type_id":"4","last_reported":1685779687,"current_range_meters":22400,"station_id":"ce4bhph2rcd13ifvqhdg","pricing_plan_id":"free"},{"bike_id":"cb7578c6-4658-47db-ac5a-7ec286b410e7","system_id":"levelo_inurba_marseille","lat":43.29544,"lon":5.42285,"is_reserved":false,"is_disabled":false,"rental_uris":{"android":"levelo://app?vid=cb7578c6-4658-47db-ac5a-7ec286b410e7","ios":"levelo://app?vid=cb7578c6-4658-47db-ac5a-7ec286b410e7"},"vehicle_type_id":"4","last_reported":1685779687,"current_range_meters":16000,"station_id":"ce4bhph2rcd13ifvqhdg","pricing_plan_id":"free"},{"bike_id":"28e28263-1e4a-4307-9d03-c0b5eaba4031","system_id":"levelo_inurba_marseille","lat":43.29503,"lon":5.42269,"is_reserved":false,"is_disabled":false,"rental_uris":{"android":"levelo://app?vid=28e28263-1e4a-4307-9d03-c0b5eaba4031","ios":"levelo://app?vid=28e28263-1e4a-4307-9d03-c0b5eaba4031"},"vehicle_type_id":"4","last_reported":1685779687,"current_range_meters":24000,"station_id":"","pricing_plan_id":"free"},{"bike_id":"3cd91a94-9776-4daa-b4ef-b92346a0239e","system_id":"levelo_inurba_marseille","lat":43.272124,"lon":5.391768,"is_reserved":false,"is_disabled":false,"rental_uris":{"android":"levelo://app?vid=3cd91a94-9776-4daa-b4ef-b92346a0239e","ios":"levelo://app?vid=3cd91a94-9776-4daa-b4ef-b92346a0239e"},"vehicle_type_id":"4","last_reported":1685779687,"current_range_meters":26400,"station_id":"ce4bhhp2rcd13ifvqfm0","pricing_plan_id":"free"},{"bike_id":"5615080c-f6af-4792-b3a1-8688318b795f","system_id":"levelo_inurba_marseille","lat":43.272116,"lon":5.391747,"is_reserved":false,"is_disabled":false,"rental_uris":{"android":"levelo://app?vid=5615080c-f6af-4792-b3a1-8688318b795f","ios":"levelo://app?vid=5615080c-f6af-4792-b3a1-8688318b795f"},"vehicle_type_id":"4","last_reported":1685779687,"current_range_meters":30400,"station_id":"ce4bhhp2rcd13ifvqfm0","pricing_plan_id":"free"},{"bike_id":"09b68d07-a547-4fe3-a0ff-4e1b83017dfd","system_id":"levelo_inurba_marseille","lat":43.272118,"lon":5.391758,"is_reserved":false,"is_disabled":false,"rental_uris":{"android":"levelo://app?vid=09b68d07-a547-4fe3-a0ff-4e1b83017dfd","ios":"levelo://app?vid=09b68d07-a547-4fe3-a0ff-4e1b83017dfd"},"vehicle_type_id":"4","last_reported":1685779687,"current_range_meters":19600,"station_id":"ce4bhhp2rcd13ifvqfm0","pricing_plan_id":"free"},{"bike_id":"61df5c52-8df9-43df-b05f-e4969283384a","system_id":"levelo_inurba_marseille","lat":43.278517,"lon":5.406154,"is_reserved":false,"is_disabled":false,"rental_uris":{"android":"levelo://app?vid=61df5c52-8df9-43df-b05f-e4969283384a","ios":"levelo://app?vid=61df5c52-8df9-43df-b05f-e4969283384a"},"vehicle_type_id":"4","last_reported":1685779687,"current_range_meters":24400,"station_id":"ce4bhnh2rcd13ifvqgtg","pricing_plan_id":"free"},{"bike_id":"b0f50fc9-ad14-4bcf-8da9-3e5b45eadcbf","system_id":"levelo_inurba_marseille","lat":43.269467,"lon":5.386439,"is_reserved":false,"is_disabled":false,"rental_uris":{"android":"levelo://app?vid=b0f50fc9-ad14-4bcf-8da9-3e5b45eadcbf","ios":"levelo://app?vid=b0f50fc9-ad14-4bcf-8da9-3e5b45eadcbf"},"vehicle_type_id":"4","last_reported":1685779687,"current_range_meters":3600,"station_id":"ce4bhh92rcd13ifvqfh0","pricing_plan_id":"free"},{"bike_id":"b460ad98-9bcf-463b-92ce-00eab86ce897","system_id":"levelo_inurba_marseille","lat":43.265714,"lon":5.372891,"is_reserved":false,"is_disabled":false,"rental_uris":{"android":"levelo://app?vid=b460ad98-9bcf-463b-92ce-00eab86ce897","ios":"levelo://app?vid=b460ad98-9bcf-463b-92ce-00eab86ce897"},"vehicle_type_id":"4","last_reported":1685779687,"current_range_meters":28000,"station_id":"ce4bhg12rcd13ifvqf70","pricing_plan_id":"free"},{"bike_id":"06538980-c887-4f73-a2df-b6985c28bed8","system_id":"levelo_inurba_marseille","lat":43.265714,"lon":5.372891,"is_reserved":false,"is_disabled":false,"rental_uris":{"android":"levelo://app?vid=06538980-c887-4f73-a2df-b6985c28bed8","ios":"levelo://app?vid=06538980-c887-4f73-a2df-b6985c28bed8"},"vehicle_type_id":"4","last_reported":1685779687,"current_range_meters":20400,"station_id":"ce4bhg12rcd13ifvqf70","pricing_plan_id":"free"},{"bike_id":"395441e5-bbd6-48be-b20b-579ceedf6772","system_id":"levelo_inurba_marseille","lat":43.26681,"lon":5.382694,"is_reserved":false,"is_disabled":false,"rental_uris":{"android":"levelo://app?vid=395441e5-bbd6-48be-b20b-579ceedf6772","ios":"levelo://app?vid=395441e5-bbd6-48be-b20b-579ceedf6772"},"vehicle_type_id":"4","last_reported":1685779687,"current_range_meters":22400,"station_id":"ce4bhg92rcd13ifvqf90","pricing_plan_id":"free"},{"bike_id":"aa65ffa8-39de-49fb-9968-335dd7261f08","system_id":"levelo_inurba_marseille","lat":43.265714,"lon":5.372891,"is_reserved":false,"is_disabled":false,"rental_uris":{"android":"levelo://app?vid=aa65ffa8-39de-49fb-9968-335dd7261f08","ios":"levelo://app?vid=aa65ffa8-39de-49fb-9968-335dd7261f08"},"vehicle_type_id":"4","last_reported":1685779687,"current_range_meters":30000,"station_id":"ce4bhg12rcd13ifvqf70","pricing_plan_id":"free"},{"bike_id":"4830acd4-f7c2-464b-9e2d-adad2a7fe8c5","system_id":"levelo_inurba_marseille","lat":43.265714,"lon":5.372891,"is_reserved":false,"is_disabled":false,"rental_uris":{"android":"levelo://app?vid=4830acd4-f7c2-464b-9e2d-adad2a7fe8c5","ios":"levelo://app?vid=4830acd4-f7c2-464b-9e2d-adad2a7fe8c5"},"vehicle_type_id":"4","last_reported":1685779687,"current_range_meters":26000,"station_id":"ce4bhg12rcd13ifvqf70","pricing_plan_id":"free"},{"bike_id":"13c5750c-ab02-4b84-aaaf-438240a826ea","system_id":"levelo_inurba_marseille","lat":43.265714,"lon":5.372891,"is_reserved":false,"is_disabled":false,"rental_uris":{"android":"levelo://app?vid=13c5750c-ab02-4b84-aaaf-438240a826ea","ios":"levelo://app?vid=13c5750c-ab02-4b84-aaaf-438240a826ea"},"vehicle_type_id":"4","last_reported":1685779687,"current_range_meters":28800,"station_id":"ce4bhg12rcd13ifvqf70","pricing_plan_id":"free"},{"bike_id":"b45db256-61f8-4069-a946-cf6f7d5d166d","system_id":"levelo_inurba_marseille","lat":43.265714,"lon":5.372891,"is_reserved":false,"is_disabled":false,"rental_uris":{"android":"levelo://app?vid=b45db256-61f8-4069-a946-cf6f7d5d166d","ios":"levelo://app?vid=b45db256-61f8-4069-a946-cf6f7d5d166d"},"vehicle_type_id":"4","last_reported":1685779687,"current_range_meters":19600,"station_id":"ce4bhg12rcd13ifvqf70","pricing_plan_id":"free"},{"bike_id":"8fed6ad7-2b91-4890-b081-fafc7c17798f","system_id":"levelo_inurba_marseille","lat":43.26554,"lon":5.37285,"is_reserved":false,"is_disabled":false,"rental_uris":{"android":"levelo://app?vid=8fed6ad7-2b91-4890-b081-fafc7c17798f","ios":"levelo://app?vid=8fed6ad7-2b91-4890-b081-fafc7c17798f"},"vehicle_type_id":"4","last_reported":1685779687,"current_range_meters":29200,"station_id":"ce4bhg12rcd13ifvqf70","pricing_plan_id":"free"},{"bike_id":"9323c84c-cb13-4530-8044-6c6eb35e8ee9","system_id":"levelo_inurba_marseille","lat":43.265714,"lon":5.372891,"is_reserved":false,"is_disabled":false,"rental_uris":{"android":"levelo://app?vid=9323c84c-cb13-4530-8044-6c6eb35e8ee9","ios":"levelo://app?vid=9323c84c-cb13-4530-8044-6c6eb35e8ee9"},"vehicle_type_id":"4","last_reported":1685779687,"current_range_meters":27600,"station_id":"ce4bhg12rcd13ifvqf70","pricing_plan_id":"free"},{"bike_id":"c6cb5599-e718-4af4-8c4b-4d1deb710381","system_id":"levelo_inurba_marseille","lat":43.26551,"lon":5.37285,"is_reserved":false,"is_disabled":false,"rental_uris":{"android":"levelo://app?vid=c6cb5599-e718-4af4-8c4b-4d1deb710381","ios":"levelo://app?vid=c6cb5599-e718-4af4-8c4b-4d1deb710381"},"vehicle_type_id":"4","last_reported":1685779687,"current_range_meters":30800,"station_id":"ce4bhg12rcd13ifvqf70","pricing_plan_id":"free"},{"bike_id":"abd7f710-02b9-4fa9-bd0c-c815f0c0fc17","system_id":"levelo_inurba_marseille","lat":43.26547,"lon":5.37273,"is_reserved":false,"is_disabled":false,"rental_uris":{"android":"levelo://app?vid=abd7f710-02b9-4fa9-bd0c-c815f0c0fc17","ios":"levelo://app?vid=abd7f710-02b9-4fa9-bd0c-c815f0c0fc17"},"vehicle_type_id":"4","last_reported":1685779687,"current_range_meters":27600,"station_id":"","pricing_plan_id":"free"},{"bike_id":"477c9b24-a1bd-4af2-9e3a-7a10b9af13d1","system_id":"levelo_inurba_marseille","lat":43.3171,"lon":5.43317,"is_reserved":false,"is_disabled":false,"rental_uris":{"android":"levelo://app?vid=477c9b24-a1bd-4af2-9e3a-7a10b9af13d1","ios":"levelo://app?vid=477c9b24-a1bd-4af2-9e3a-7a10b9af13d1"},"vehicle_type_id":"4","last_reported":1685779687,"current_range_meters":0,"station_id":"","pricing_plan_id":"free"},{"bike_id":"13d2b631-42e8-471d-bd10-78f10c8555a9","system_id":"levelo_inurba_marseille","lat":43.27996,"lon":5.416624,"is_reserved":false,"is_disabled":false,"rental_uris":{"android":"levelo://app?vid=13d2b631-42e8-471d-bd10-78f10c8555a9","ios":"levelo://app?vid=13d2b631-42e8-471d-bd10-78f10c8555a9"},"vehicle_type_id":"4","last_reported":1685779687,"current_range_meters":22800,"station_id":"ce4bho12rcd13ifvqh1g","pricing_plan_id":"free"},{"bike_id":"1d0d511f-c782-4696-a46d-da0ac58e0f0f","system_id":"levelo_inurba_marseille","lat":43.27996,"lon":5.416624,"is_reserved":false,"is_disabled":false,"rental_uris":{"android":"levelo://app?vid=1d0d511f-c782-4696-a46d-da0ac58e0f0f","ios":"levelo://app?vid=1d0d511f-c782-4696-a46d-da0ac58e0f0f"},"vehicle_type_id":"4","last_reported":1685779687,"current_range_meters":22400,"station_id":"ce4bho12rcd13ifvqh1g","pricing_plan_id":"free"},{"bike_id":"df18bcba-8c12-452b-961a-aea12c9e49ad","system_id":"levelo_inurba_marseille","lat":43.30801,"lon":5.43523,"is_reserved":false,"is_disabled":false,"rental_uris":{"android":"levelo://app?vid=df18bcba-8c12-452b-961a-aea12c9e49ad","ios":"levelo://app?vid=df18bcba-8c12-452b-961a-aea12c9e49ad"},"vehicle_type_id":"4","last_reported":1685779687,"current_range_meters":24800,"station_id":"","pricing_plan_id":"free"},{"bike_id":"26e1ac57-a65a-48de-b4e4-bcfc0b364a7a","system_id":"levelo_inurba_marseille","lat":43.30796,"lon":5.43527,"is_reserved":false,"is_disabled":false,"rental_uris":{"android":"levelo://app?vid=26e1ac57-a65a-48de-b4e4-bcfc0b364a7a","ios":"levelo://app?vid=26e1ac57-a65a-48de-b4e4-bcfc0b364a7a"},"vehicle_type_id":"4","last_reported":1685779687,"current_range_meters":4000,"station_id":"","pricing_plan_id":"free"},{"bike_id":"2af74695-3cf0-4e60-9eac-f6f72c49d5d6","system_id":"levelo_inurba_marseille","lat":43.261782,"lon":5.374515,"is_reserved":false,"is_disabled":false,"rental_uris":{"android":"levelo://app?vid=2af74695-3cf0-4e60-9eac-f6f72c49d5d6","ios":"levelo://app?vid=2af74695-3cf0-4e60-9eac-f6f72c49d5d6"},"vehicle_type_id":"4","last_reported":1685779687,"current_range_meters":31200,"station_id":"ce4bhgp2rcd13ifvqfc0","pricing_plan_id":"free"},{"bike_id":"8d00262b-f322-47de-b6aa-36ae0a8649f0","system_id":"levelo_inurba_marseille","lat":43.261782,"lon":5.374515,"is_reserved":false,"is_disabled":false,"rental_uris":{"android":"levelo://app?vid=8d00262b-f322-47de-b6aa-36ae0a8649f0","ios":"levelo://app?vid=8d00262b-f322-47de-b6aa-36ae0a8649f0"},"vehicle_type_id":"4","last_reported":1685779687,"current_range_meters":31200,"station_id":"ce4bhgp2rcd13ifvqfc0","pricing_plan_id":"free"},{"bike_id":"7d0da3e2-abbd-454d-85ac-076dd3685020","system_id":"levelo_inurba_marseille","lat":43.261782,"lon":5.374515,"is_reserved":false,"is_disabled":false,"rental_uris":{"android":"levelo://app?vid=7d0da3e2-abbd-454d-85ac-076dd3685020","ios":"levelo://app?vid=7d0da3e2-abbd-454d-85ac-076dd3685020"},"vehicle_type_id":"4","last_reported":1685779687,"current_range_meters":25200,"station_id":"ce4bhgp2rcd13ifvqfc0","pricing_plan_id":"free"},{"bike_id":"17975e74-45d5-4a43-9708-19e540c40f99","system_id":"levelo_inurba_marseille","lat":43.261782,"lon":5.374515,"is_reserved":false,"is_disabled":false,"rental_uris":{"android":"levelo://app?vid=17975e74-45d5-4a43-9708-19e540c40f99","ios":"levelo://app?vid=17975e74-45d5-4a43-9708-19e540c40f99"},"vehicle_type_id":"4","last_reported":1685779687,"current_range_meters":31200,"station_id":"ce4bhgp2rcd13ifvqfc0","pricing_plan_id":"free"},{"bike_id":"eccae3b2-bdf7-4c97-b786-93ee7e43adeb","system_id":"levelo_inurba_marseille","lat":43.261782,"lon":5.374515,"is_reserved":false,"is_disabled":false,"rental_uris":{"android":"levelo://app?vid=eccae3b2-bdf7-4c97-b786-93ee7e43adeb","ios":"levelo://app?vid=eccae3b2-bdf7-4c97-b786-93ee7e43adeb"},"vehicle_type_id":"4","last_reported":1685779687,"current_range_meters":31200,"station_id":"ce4bhgp2rcd13ifvqfc0","pricing_plan_id":"free"},{"bike_id":"9a892dc5-74f8-432d-92f2-8936e6bc77dc","system_id":"levelo_inurba_marseille","lat":43.261782,"lon":5.374515,"is_reserved":false,"is_disabled":false,"rental_uris":{"android":"levelo://app?vid=9a892dc5-74f8-432d-92f2-8936e6bc77dc","ios":"levelo://app?vid=9a892dc5-74f8-432d-92f2-8936e6bc77dc"},"vehicle_type_id":"4","last_reported":1685779687,"current_range_meters":26000,"station_id":"ce4bhgp2rcd13ifvqfc0","pricing_plan_id":"free"},{"bike_id":"9d909046-8e53-4393-a34c-8c4bb1951a98","system_id":"levelo_inurba_marseille","lat":43.261782,"lon":5.374515,"is_reserved":false,"is_disabled":false,"rental_uris":{"android":"levelo://app?vid=9d909046-8e53-4393-a34c-8c4bb1951a98","ios":"levelo://app?vid=9d909046-8e53-4393-a34c-8c4bb1951a98"},"vehicle_type_id":"4","last_reported":1685779687,"current_range_meters":31200,"station_id":"ce4bhgp2rcd13ifvqfc0","pricing_plan_id":"free"},{"bike_id":"1390f3ce-5bc7-468f-9588-d941d2532ddc","system_id":"levelo_inurba_marseille","lat":43.261782,"lon":5.374515,"is_reserved":false,"is_disabled":false,"rental_uris":{"android":"levelo://app?vid=1390f3ce-5bc7-468f-9588-d941d2532ddc","ios":"levelo://app?vid=1390f3ce-5bc7-468f-9588-d941d2532ddc"},"vehicle_type_id":"4","last_reported":1685779687,"current_range_meters":31200,"station_id":"ce4bhgp2rcd13ifvqfc0","pricing_plan_id":"free"},{"bike_id":"7c146720-0470-42ab-8b91-10c219c21a59","system_id":"levelo_inurba_marseille","lat":43.261782,"lon":5.374515,"is_reserved":false,"is_disabled":false,"rental_uris":{"android":"levelo://app?vid=7c146720-0470-42ab-8b91-10c219c21a59","ios":"levelo://app?vid=7c146720-0470-42ab-8b91-10c219c21a59"},"vehicle_type_id":"4","last_reported":1685779687,"current_range_meters":31200,"station_id":"ce4bhgp2rcd13ifvqfc0","pricing_plan_id":"free"},{"bike_id":"6e53fece-0322-4917-a4e1-7266b6bcfa03","system_id":"levelo_inurba_marseille","lat":43.261782,"lon":5.374515,"is_reserved":false,"is_disabled":false,"rental_uris":{"android":"levelo://app?vid=6e53fece-0322-4917-a4e1-7266b6bcfa03","ios":"levelo://app?vid=6e53fece-0322-4917-a4e1-7266b6bcfa03"},"vehicle_type_id":"4","last_reported":1685779687,"current_range_meters":29200,"station_id":"ce4bhgp2rcd13ifvqfc0","pricing_plan_id":"free"},{"bike_id":"945a03ca-e4eb-4a59-93b7-2e44eff798dc","system_id":"levelo_inurba_marseille","lat":43.31708,"lon":5.43708,"is_reserved":false,"is_disabled":false,"rental_uris":{"android":"levelo://app?vid=945a03ca-e4eb-4a59-93b7-2e44eff798dc","ios":"levelo://app?vid=945a03ca-e4eb-4a59-93b7-2e44eff798dc"},"vehicle_type_id":"4","last_reported":1685779687,"current_range_meters":22400,"station_id":"ce4bhp92rcd13ifvqhcg","pricing_plan_id":"free"},{"bike_id":"50bbc329-04b3-439c-8d05-df61cf76b274","system_id":"levelo_inurba_marseille","lat":43.262017,"lon":5.379369,"is_reserved":false,"is_disabled":false,"rental_uris":{"android":"levelo://app?vid=50bbc329-04b3-439c-8d05-df61cf76b274","ios":"levelo://app?vid=50bbc329-04b3-439c-8d05-df61cf76b274"},"vehicle_type_id":"4","last_reported":1685779687,"current_range_meters":30800,"station_id":"","pricing_plan_id":"free"},{"bike_id":"e341eb75-ae2b-4caf-a45a-a186937f821e","system_id":"levelo_inurba_marseille","lat":43.262012,"lon":5.379307,"is_reserved":false,"is_disabled":false,"rental_uris":{"android":"levelo://app?vid=e341eb75-ae2b-4caf-a45a-a186937f821e","ios":"levelo://app?vid=e341eb75-ae2b-4caf-a45a-a186937f821e"},"vehicle_type_id":"4","last_reported":1685779687,"current_range_meters":28000,"station_id":"ce4bhjp2rcd13ifvqg90","pricing_plan_id":"free"},{"bike_id":"b5727203-5352-4e9b-a189-6e709b764b99","system_id":"levelo_inurba_marseille","lat":43.262012,"lon":5.379307,"is_reserved":false,"is_disabled":false,"rental_uris":{"android":"levelo://app?vid=b5727203-5352-4e9b-a189-6e709b764b99","ios":"levelo://app?vid=b5727203-5352-4e9b-a189-6e709b764b99"},"vehicle_type_id":"4","last_reported":1685779687,"current_range_meters":31200,"station_id":"ce4bhjp2rcd13ifvqg90","pricing_plan_id":"free"},{"bike_id":"9bd50cf0-7cd2-4055-b58f-769452283533","system_id":"levelo_inurba_marseille","lat":43.262012,"lon":5.379307,"is_reserved":false,"is_disabled":false,"rental_uris":{"android":"levelo://app?vid=9bd50cf0-7cd2-4055-b58f-769452283533","ios":"levelo://app?vid=9bd50cf0-7cd2-4055-b58f-769452283533"},"vehicle_type_id":"4","last_reported":1685779687,"current_range_meters":28000,"station_id":"ce4bhjp2rcd13ifvqg90","pricing_plan_id":"free"},{"bike_id":"a017bfd0-2849-4e5c-8e7f-a158cda80a99","system_id":"levelo_inurba_marseille","lat":43.271368,"lon":5.40928,"is_reserved":false,"is_disabled":false,"rental_uris":{"android":"levelo://app?vid=a017bfd0-2849-4e5c-8e7f-a158cda80a99","ios":"levelo://app?vid=a017bfd0-2849-4e5c-8e7f-a158cda80a99"},"vehicle_type_id":"4","last_reported":1685779687,"current_range_meters":30000,"station_id":"ce4bhl12rcd13ifvqgf0","pricing_plan_id":"free"},{"bike_id":"a63916e6-8335-4b25-9de7-f48ab4c7e668","system_id":"levelo_inurba_marseille","lat":43.262012,"lon":5.379307,"is_reserved":false,"is_disabled":false,"rental_uris":{"android":"levelo://app?vid=a63916e6-8335-4b25-9de7-f48ab4c7e668","ios":"levelo://app?vid=a63916e6-8335-4b25-9de7-f48ab4c7e668"},"vehicle_type_id":"4","last_reported":1685779687,"current_range_meters":30000,"station_id":"ce4bhjp2rcd13ifvqg90","pricing_plan_id":"free"},{"bike_id":"ac0c0bc3-b399-4c3f-950f-5eaba987d79e","system_id":"levelo_inurba_marseille","lat":43.267959,"lon":5.402687,"is_reserved":false,"is_disabled":false,"rental_uris":{"android":"levelo://app?vid=ac0c0bc3-b399-4c3f-950f-5eaba987d79e","ios":"levelo://app?vid=ac0c0bc3-b399-4c3f-950f-5eaba987d79e"},"vehicle_type_id":"4","last_reported":1685779687,"current_range_meters":31200,"station_id":"ce501612rcd8frsf0b60","pricing_plan_id":"free"},{"bike_id":"dc073487-2674-4054-9fa3-2b71dc97c7d8","system_id":"levelo_inurba_marseille","lat":43.26036,"lon":5.37548,"is_reserved":false,"is_disabled":false,"rental_uris":{"android":"levelo://app?vid=dc073487-2674-4054-9fa3-2b71dc97c7d8","ios":"levelo://app?vid=dc073487-2674-4054-9fa3-2b71dc97c7d8"},"vehicle_type_id":"4","last_reported":1685779687,"current_range_meters":25600,"station_id":"ce4bhgh2rcd13ifvqfa0","pricing_plan_id":"free"},{"bike_id":"b9710c12-60bf-462e-8706-4284f6e1d9b1","system_id":"levelo_inurba_marseille","lat":43.260219,"lon":5.37546,"is_reserved":false,"is_disabled":false,"rental_uris":{"android":"levelo://app?vid=b9710c12-60bf-462e-8706-4284f6e1d9b1","ios":"levelo://app?vid=b9710c12-60bf-462e-8706-4284f6e1d9b1"},"vehicle_type_id":"4","last_reported":1685779687,"current_range_meters":24800,"station_id":"ce4bhgh2rcd13ifvqfa0","pricing_plan_id":"free"},{"bike_id":"b7dfbe55-9256-43cb-9671-9796b989511b","system_id":"levelo_inurba_marseille","lat":43.2607,"lon":5.393983,"is_reserved":false,"is_disabled":false,"rental_uris":{"android":"levelo://app?vid=b7dfbe55-9256-43cb-9671-9796b989511b","ios":"levelo://app?vid=b7dfbe55-9256-43cb-9671-9796b989511b"},"vehicle_type_id":"4","last_reported":1685779687,"current_range_meters":28400,"station_id":"ce4bhh92rcd13ifvqfj0","pricing_plan_id":"free"},{"bike_id":"56b5f7c7-589d-4e63-8ed0-41c176526dbd","system_id":"levelo_inurba_marseille","lat":43.2607,"lon":5.393983,"is_reserved":false,"is_disabled":false,"rental_uris":{"android":"levelo://app?vid=56b5f7c7-589d-4e63-8ed0-41c176526dbd","ios":"levelo://app?vid=56b5f7c7-589d-4e63-8ed0-41c176526dbd"},"vehicle_type_id":"4","last_reported":1685779687,"current_range_meters":22400,"station_id":"ce4bhh92rcd13ifvqfj0","pricing_plan_id":"free"},{"bike_id":"0c0e674e-2569-41cd-9218-64ec731b5be5","system_id":"levelo_inurba_marseille","lat":43.2609,"lon":5.39764,"is_reserved":false,"is_disabled":false,"rental_uris":{"android":"levelo://app?vid=0c0e674e-2569-41cd-9218-64ec731b5be5","ios":"levelo://app?vid=0c0e674e-2569-41cd-9218-64ec731b5be5"},"vehicle_type_id":"4","last_reported":1685779687,"current_range_meters":30800,"station_id":"ce4bhi12rcd13ifvqfq0","pricing_plan_id":"free"},{"bike_id":"0874ffaa-7f75-43bd-9086-ddff5f3c55be","system_id":"levelo_inurba_marseille","lat":43.26082,"lon":5.3977,"is_reserved":false,"is_disabled":false,"rental_uris":{"android":"levelo://app?vid=0874ffaa-7f75-43bd-9086-ddff5f3c55be","ios":"levelo://app?vid=0874ffaa-7f75-43bd-9086-ddff5f3c55be"},"vehicle_type_id":"4","last_reported":1685779687,"current_range_meters":31200,"station_id":"ce4bhi12rcd13ifvqfq0","pricing_plan_id":"free"},{"bike_id":"7d0db5e0-f19e-449e-a76b-99f25c68c38b","system_id":"levelo_inurba_marseille","lat":43.26079,"lon":5.39764,"is_reserved":false,"is_disabled":false,"rental_uris":{"android":"levelo://app?vid=7d0db5e0-f19e-449e-a76b-99f25c68c38b","ios":"levelo://app?vid=7d0db5e0-f19e-449e-a76b-99f25c68c38b"},"vehicle_type_id":"4","last_reported":1685779687,"current_range_meters":23600,"station_id":"ce4bhi12rcd13ifvqfq0","pricing_plan_id":"free"},{"bike_id":"41c2590e-164d-41e9-b96b-588d43dd2f8b","system_id":"levelo_inurba_marseille","lat":43.29039,"lon":5.43914,"is_reserved":false,"is_disabled":false,"rental_uris":{"android":"levelo://app?vid=41c2590e-164d-41e9-b96b-588d43dd2f8b","ios":"levelo://app?vid=41c2590e-164d-41e9-b96b-588d43dd2f8b"},"vehicle_type_id":"4","last_reported":1685779687,"current_range_meters":9200,"station_id":"","pricing_plan_id":"free"},{"bike_id":"e119df41-d48e-43f7-a008-b23c2664b8d9","system_id":"levelo_inurba_marseille","lat":43.255756,"lon":5.382303,"is_reserved":false,"is_disabled":false,"rental_uris":{"android":"levelo://app?vid=e119df41-d48e-43f7-a008-b23c2664b8d9","ios":"levelo://app?vid=e119df41-d48e-43f7-a008-b23c2664b8d9"},"vehicle_type_id":"4","last_reported":1685779687,"current_range_meters":30400,"station_id":"ce4bhih2rcd13ifvqfs0","pricing_plan_id":"free"},{"bike_id":"1e036898-c9f1-4845-a355-0f25e5154a04","system_id":"levelo_inurba_marseille","lat":43.254947,"lon":5.376454,"is_reserved":false,"is_disabled":false,"rental_uris":{"android":"levelo://app?vid=1e036898-c9f1-4845-a355-0f25e5154a04","ios":"levelo://app?vid=1e036898-c9f1-4845-a355-0f25e5154a04"},"vehicle_type_id":"4","last_reported":1685779687,"current_range_meters":26800,"station_id":"ce4bhh12rcd13ifvqff0","pricing_plan_id":"free"},{"bike_id":"ccb659ca-d258-46c7-a80c-e030d7d10f16","system_id":"levelo_inurba_marseille","lat":43.254947,"lon":5.376454,"is_reserved":false,"is_disabled":false,"rental_uris":{"android":"levelo://app?vid=ccb659ca-d258-46c7-a80c-e030d7d10f16","ios":"levelo://app?vid=ccb659ca-d258-46c7-a80c-e030d7d10f16"},"vehicle_type_id":"4","last_reported":1685779687,"current_range_meters":24400,"station_id":"ce4bhh12rcd13ifvqff0","pricing_plan_id":"free"},{"bike_id":"aceaab0b-3f02-4b8e-bf5a-50a73974bac9","system_id":"levelo_inurba_marseille","lat":43.254945,"lon":5.376454,"is_reserved":false,"is_disabled":false,"rental_uris":{"android":"levelo://app?vid=aceaab0b-3f02-4b8e-bf5a-50a73974bac9","ios":"levelo://app?vid=aceaab0b-3f02-4b8e-bf5a-50a73974bac9"},"vehicle_type_id":"4","last_reported":1685779687,"current_range_meters":31200,"station_id":"ce4bhh12rcd13ifvqff0","pricing_plan_id":"free"},{"bike_id":"dad2bcfc-eb50-4588-a1dd-ae9990604018","system_id":"levelo_inurba_marseille","lat":43.254945,"lon":5.376454,"is_reserved":false,"is_disabled":false,"rental_uris":{"android":"levelo://app?vid=dad2bcfc-eb50-4588-a1dd-ae9990604018","ios":"levelo://app?vid=dad2bcfc-eb50-4588-a1dd-ae9990604018"},"vehicle_type_id":"4","last_reported":1685779687,"current_range_meters":31200,"station_id":"ce4bhh12rcd13ifvqff0","pricing_plan_id":"free"},{"bike_id":"b30a7229-64e4-470f-b389-d55e13a267dd","system_id":"levelo_inurba_marseille","lat":43.254945,"lon":5.376454,"is_reserved":false,"is_disabled":false,"rental_uris":{"android":"levelo://app?vid=b30a7229-64e4-470f-b389-d55e13a267dd","ios":"levelo://app?vid=b30a7229-64e4-470f-b389-d55e13a267dd"},"vehicle_type_id":"4","last_reported":1685779687,"current_range_meters":12800,"station_id":"ce4bhh12rcd13ifvqff0","pricing_plan_id":"free"},{"bike_id":"5d413320-2d93-47df-9016-dd82954c80b5","system_id":"levelo_inurba_marseille","lat":43.25494,"lon":5.37649,"is_reserved":false,"is_disabled":false,"rental_uris":{"android":"levelo://app?vid=5d413320-2d93-47df-9016-dd82954c80b5","ios":"levelo://app?vid=5d413320-2d93-47df-9016-dd82954c80b5"},"vehicle_type_id":"4","last_reported":1685779687,"current_range_meters":29200,"station_id":"ce4bhh12rcd13ifvqff0","pricing_plan_id":"free"},{"bike_id":"b4620f87-16f3-438d-85d7-2232498b527b","system_id":"levelo_inurba_marseille","lat":43.254945,"lon":5.376454,"is_reserved":false,"is_disabled":false,"rental_uris":{"android":"levelo://app?vid=b4620f87-16f3-438d-85d7-2232498b527b","ios":"levelo://app?vid=b4620f87-16f3-438d-85d7-2232498b527b"},"vehicle_type_id":"4","last_reported":1685779687,"current_range_meters":2400,"station_id":"ce4bhh12rcd13ifvqff0","pricing_plan_id":"free"},{"bike_id":"f397ccce-b9ca-4ff1-a62c-b86c74ac9e11","system_id":"levelo_inurba_marseille","lat":43.25492,"lon":5.37649,"is_reserved":false,"is_disabled":false,"rental_uris":{"android":"levelo://app?vid=f397ccce-b9ca-4ff1-a62c-b86c74ac9e11","ios":"levelo://app?vid=f397ccce-b9ca-4ff1-a62c-b86c74ac9e11"},"vehicle_type_id":"4","last_reported":1685779687,"current_range_meters":31200,"station_id":"ce4bhh12rcd13ifvqff0","pricing_plan_id":"free"},{"bike_id":"4618373f-df43-4137-8f8d-a29bd3fe06f9","system_id":"levelo_inurba_marseille","lat":43.25491,"lon":5.37646,"is_reserved":false,"is_disabled":false,"rental_uris":{"android":"levelo://app?vid=4618373f-df43-4137-8f8d-a29bd3fe06f9","ios":"levelo://app?vid=4618373f-df43-4137-8f8d-a29bd3fe06f9"},"vehicle_type_id":"4","last_reported":1685779687,"current_range_meters":27200,"station_id":"ce4bhh12rcd13ifvqff0","pricing_plan_id":"free"},{"bike_id":"582d3037-a1c2-4f66-900b-1e0a5b3b6b21","system_id":"levelo_inurba_marseille","lat":43.270721,"lon":5.422764,"is_reserved":false,"is_disabled":false,"rental_uris":{"android":"levelo://app?vid=582d3037-a1c2-4f66-900b-1e0a5b3b6b21","ios":"levelo://app?vid=582d3037-a1c2-4f66-900b-1e0a5b3b6b21"},"vehicle_type_id":"4","last_reported":1685779687,"current_range_meters":30400,"station_id":"ce4bhk92rcd13ifvqgb0","pricing_plan_id":"free"},{"bike_id":"f464892a-7246-4a6a-8d82-e42da334c140","system_id":"levelo_inurba_marseille","lat":43.270721,"lon":5.422764,"is_reserved":false,"is_disabled":false,"rental_uris":{"android":"levelo://app?vid=f464892a-7246-4a6a-8d82-e42da334c140","ios":"levelo://app?vid=f464892a-7246-4a6a-8d82-e42da334c140"},"vehicle_type_id":"4","last_reported":1685779687,"current_range_meters":31200,"station_id":"ce4bhk92rcd13ifvqgb0","pricing_plan_id":"free"},{"bike_id":"3daebfb9-9290-4c5b-9e93-e6cd98c8f1d7","system_id":"levelo_inurba_marseille","lat":43.270721,"lon":5.422764,"is_reserved":false,"is_disabled":false,"rental_uris":{"android":"levelo://app?vid=3daebfb9-9290-4c5b-9e93-e6cd98c8f1d7","ios":"levelo://app?vid=3daebfb9-9290-4c5b-9e93-e6cd98c8f1d7"},"vehicle_type_id":"4","last_reported":1685779687,"current_range_meters":28400,"station_id":"ce4bhk92rcd13ifvqgb0","pricing_plan_id":"free"},{"bike_id":"4343b1e7-d1f3-40f5-b409-9c225479a53e","system_id":"levelo_inurba_marseille","lat":43.270721,"lon":5.422764,"is_reserved":false,"is_disabled":false,"rental_uris":{"android":"levelo://app?vid=4343b1e7-d1f3-40f5-b409-9c225479a53e","ios":"levelo://app?vid=4343b1e7-d1f3-40f5-b409-9c225479a53e"},"vehicle_type_id":"4","last_reported":1685779687,"current_range_meters":28000,"station_id":"ce4bhk92rcd13ifvqgb0","pricing_plan_id":"free"},