{"last_updated":1733425628,"ttl":60,"version":"2.2","data":{"bikes":[{"bike_id":"fb7347bd-d1e5-4da7-b9a2-2fedada4a1ba","system_id":"levelo_inurba_marseille","lat":43.2963,"lon":5.40598,"is_reserved":false,"is_disabled":false,"rental_uris":{"android":"levelo://app?vid=fb7347bd-d1e5-4da7-b9a2-2fedada4a1ba","ios":"levelo://app?vid=fb7347bd-d1e5-4da7-b9a2-2fedada4a1ba"},"vehicle_type_id":"4","last_reported":1733425628,"current_range_meters":38800,"station_id":"ce4bh0h2rcd13ifvqd60","pricing_plan_id":"cebpf4jnsgd1na2vs0mg"},{"bike_id":"0b41a6d6-c494-4679-bc43-0d3b21a53f75","system_id":"levelo_inurba_marseille","lat":43.2716,"lon":5.40976,"is_reserved":false,"is_disabled":false,"rental_uris":{"android":"levelo://app?vid=0b41a6d6-c494-4679-bc43-0d3b21a53f75","ios":"levelo://app?vid=0b41a6d6-c494-4679-bc43-0d3b21a53f75"},"vehicle_type_id":"4","last_reported":1733425628,"current_range_meters":38800,"station_id":"ce4bhl12rcd13ifvqgf0","pricing_plan_id":"cebpf4jnsgd1na2vs0mg"},{"bike_id":"056ec1aa-99e6-484a-b06a-615f236b43aa","system_id":"levelo_inurba_marseille","lat":43.31363,"lon":5.38493,"is_reserved":false,"is_disabled":false,"rental_uris":{"android":"levelo://app?vid=056ec1aa-99e6-484a-b06a-615f236b43aa","ios":"levelo://app?vid=056ec1aa-99e6-484a-b06a-615f236b43aa"},"vehicle_type_id":"4","last_reported":1733425628,"current_range_meters":14800,"station_id":"ce4bgt92rcd13ifvqcf0","pricing_plan_id":"cebpf4jnsgd1na2vs0mg"},{"bike_id":"df479c2c-35ac-44ad-b9d6-81c89ed769ce","system_id":"levelo_inurba_marseille","lat":43.29699,"lon":5.37054,"is_reserved":false,"is_disabled":true,"rental_uris":{"android":"levelo://app?vid=df479c2c-35ac-44ad-b9d6-81c89ed769ce","ios":"levelo://app?vid=df479c2c-35ac-44ad-b9d6-81c89ed769ce"},"vehicle_type_id":"4","last_reported":1733425628,"current_range_meters":0,"station_id":"","pricing_plan_id":"cebpf4jnsgd1na2vs0mg"},{"bike_id":"8e029eaf-e104-4c5d-858d-6cd39de73d09","system_id":"levelo_inurba_marseille","lat":43.2417,"lon":5.36394,"is_reserved":false,"is_disabled":false,"rental_uris":{"android":"levelo://app?vid=8e029eaf-e104-4c5d-858d-6cd39de73d09","ios":"levelo://app?vid=8e029eaf-e104-4c5d-858d-6cd39de73d09"},"vehicle_type_id":"4","last_reported":1733425628,"current_range_meters":5600,"station_id":"cpo36qri1sfpv3e86is0","pricing_plan_id":"cebpf4jnsgd1na2vs0mg"},{"bike_id":"bc6d1df1-c307-4d6f-9ccf-49fb0c32794a","system_id":"levelo_inurba_marseille","lat":43.25858,"lon":5.39904,"is_reserved":false,"is_disabled":false,"rental_uris":{"android":"levelo://app?vid=bc6d1df1-c307-4d6f-9ccf-49fb0c32794a","ios":"levelo://app?vid=bc6d1df1-c307-4d6f-9ccf-49fb0c32794a"},"vehicle_type_id":"4","last_reported":1733425628,"current_range_meters":38800,"station_id":"ce4bhl92rcd13ifvqghg","pricing_plan_id":"cebpf4jnsgd1na2vs0mg"},{"bike_id":"9e08f281-c0e3-4a9d-ba4a-3c95e0797110","system_id":"levelo_inurba_marseille","lat":43.28074,"lon":5.39624,"is_reserved":false,"is_disabled":false,"rental_uris":{"android":"levelo://app?vid=9e08f281-c0e3-4a9d-ba4a-3c95e0797110","ios":"levelo://app?vid=9e08f281-c0e3-4a9d-ba4a-3c95e0797110"},"vehicle_type_id":"4","last_reported":1733425628,"current_range_meters":39200,"station_id":"ce4bho12rcd13ifvqh2g","pricing_plan_id":"cebpf4jnsgd1na2vs0mg"},{"bike_id":"385713fa-f8fc-48ae-847d-7a572bf9e411","system_id":"levelo_inurba_marseille","lat":43.28152,"lon":5.4264,"is_reserved":false,"is_disabled":false,"rental_uris":{"android":"levelo://app?vid=385713fa-f8fc-48ae-847d-7a572bf9e411","ios":"levelo://app?vid=385713fa-f8fc-48ae-847d-7a572bf9e411"},"vehicle_type_id":"4","last_reported":1733425628,"current_range_meters":38800,"station_id":"ce4bhnh2rcd13ifvqgug","pricing_plan_id":"cebpf4jnsgd1na2vs0mg"},{"bike_id":"be407bbe-d1ce-48de-8db2-09114af9efd7","system_id":"levelo_inurba_marseille","lat":43.3236,"lon":5.36754,"is_reserved":false,"is_disabled":false,"rental_uris":{"android":"levelo://app?vid=be407bbe-d1ce-48de-8db2-09114af9efd7","ios":"levelo://app?vid=be407bbe-d1ce-48de-8db2-09114af9efd7"},"vehicle_type_id":"4","last_reported":1733425628,"current_range_meters":28000,"station_id":"ce4bhsh2rcd13ifvqi2g","pricing_plan_id":"cebpf4jnsgd1na2vs0mg"},{"bike_id":"8c0b0fc8-734e-4ca6-b676-eb93f9346fac","system_id":"levelo_inurba_marseille","lat":43.27814,"lon":5.40714,"is_reserved":false,"is_disabled":false,"rental_uris":{"android":"levelo://app?vid=8c0b0fc8-734e-4ca6-b676-eb93f9346fac","ios":"levelo://app?vid=8c0b0fc8-734e-4ca6-b676-eb93f9346fac"},"vehicle_type_id":"4","last_reported":1733425628,"current_range_meters":10000,"station_id":"ce4bhnh2rcd13ifvqgtg","pricing_plan_id":"cebpf4jnsgd1na2vs0mg"},{"bike_id":"c0869f77-f41f-49a0-b689-2ea4c84570f8","system_id":"levelo_inurba_marseille","lat":43.29259,"lon":5.40909,"is_reserved":false,"is_disabled":false,"rental_uris":{"android":"levelo://app?vid=c0869f77-f41f-49a0-b689-2ea4c84570f8","ios":"levelo://app?vid=c0869f77-f41f-49a0-b689-2ea4c84570f8"},"vehicle_type_id":"4","last_reported":1733425628,"current_range_meters":26800,"station_id":"ce4bh192rcd13ifvqdc0","pricing_plan_id":"cebpf4jnsgd1na2vs0mg"},{"bike_id":"ca2a556f-9af6-4af4-8014-51a47bb9c9b7","system_id":"levelo_inurba_marseille","lat":43.33021,"lon":5.39039,"is_reserved":false,"is_disabled":true,"rental_uris":{"android":"levelo://app?vid=ca2a556f-9af6-4af4-8014-51a47bb9c9b7","ios":"levelo://app?vid=ca2a556f-9af6-4af4-8014-51a47bb9c9b7"},"vehicle_type_id":"4","last_reported":1733425628,"current_range_meters":0,"station_id":"ce4bhr92rcd13ifvqhrg","pricing_plan_id":"cebpf4jnsgd1na2vs0mg"},{"bike_id":"8bd642b2-0279-44c7-9ee2-fc3b57332c83","system_id":"levelo_inurba_marseille","lat":43.27455,"lon":5.40073,"is_reserved":false,"is_disabled":true,"rental_uris":{"android":"levelo://app?vid=8bd642b2-0279-44c7-9ee2-fc3b57332c83","ios":"levelo://app?vid=8bd642b2-0279-44c7-9ee2-fc3b57332c83"},"vehicle_type_id":"4","last_reported":1733425628,"current_range_meters":0,"station_id":"","pricing_plan_id":"cebpf4jnsgd1na2vs0mg"},{"bike_id":"5b667cd8-1ed1-4b03-8bee-ef4c0498560e","system_id":"levelo_inurba_marseille","lat":43.25,"lon":5.38929,"is_reserved":false,"is_disabled":false,"rental_uris":{"android":"levelo://app?vid=5b667cd8-1ed1-4b03-8bee-ef4c0498560e","ios":"levelo://app?vid=5b667cd8-1ed1-4b03-8bee-ef4c0498560e"},"vehicle_type_id":"4","last_reported":1733425628,"current_range_meters":16800,"station_id":"ce4bhgp2rcd13ifvqfd0","pricing_plan_id":"cebpf4jnsgd1na2vs0mg"},{"bike_id":"ae1bc45c-75c2-4f5d-baf2-e244aeb5875e","system_id":"levelo_inurba_marseille","lat":43.29601,"lon":5.38103,"is_reserved":false,"is_disabled":false,"rental_uris":{"android":"levelo://app?vid=ae1bc45c-75c2-4f5d-baf2-e244aeb5875e","ios":"levelo://app?vid=ae1bc45c-75c2-4f5d-baf2-e244aeb5875e"},"vehicle_type_id":"4","last_reported":1733425628,"current_range_meters":12800,"station_id":"ce4bgl12rcd13ifvqbo0","pricing_plan_id":"cebpf4jnsgd1na2vs0mg"},{"bike_id":"f08ed983-2fb9-4097-bca6-eb6cce0aac5d","system_id":"levelo_inurba_marseille","lat":43.24806,"lon":5.37454,"is_reserved":false,"is_disabled":false,"rental_uris":{"android":"levelo://app?vid=f08ed983-2fb9-4097-bca6-eb6cce0aac5d","ios":"levelo://app?vid=f08ed983-2fb9-4097-bca6-eb6cce0aac5d"},"vehicle_type_id":"4","last_reported":1733425628,"current_range_meters":38800,"station_id":"ce4bhgh2rcd13ifvqfb0","pricing_plan_id":"cebpf4jnsgd1na2vs0mg"},{"bike_id":"0de10c80-f40f-4efc-b915-f06b5d9f017c","system_id":"levelo_inurba_marseille","lat":43.29251,"lon":5.40906,"is_reserved":false,"is_disabled":false,"rental_uris":{"android":"levelo://app?vid=0de10c80-f40f-4efc-b915-f06b5d9f017c","ios":"levelo://app?vid=0de10c80-f40f-4efc-b915-f06b5d9f017c"},"vehicle_type_id":"4","last_reported":1733425628,"current_range_meters":5600,"station_id":"ce4bh192rcd13ifvqdc0","pricing_plan_id":"cebpf4jnsgd1na2vs0mg"},{"bike_id":"946e45e3-84f9-43f2-a073-ff7796e0545d","system_id":"levelo_inurba_marseille","lat":43.27935,"lon":5.41055,"is_reserved":false,"is_disabled":false,"rental_uris":{"android":"levelo://app?vid=946e45e3-84f9-43f2-a073-ff7796e0545d","ios":"levelo://app?vid=946e45e3-84f9-43f2-a073-ff7796e0545d"},"vehicle_type_id":"4","last_reported":1733425628,"current_range_meters":30800,"station_id":"ce4bhnp2rcd13ifvqh0g","pricing_plan_id":"cebpf4jnsgd1na2vs0mg"},{"bike_id":"f67dfab3-abcc-4688-bfd7-4284bf8c7187","system_id":"levelo_inurba_marseille","lat":43.33021,"lon":5.39044,"is_reserved":false,"is_disabled":false,"rental_uris":{"android":"levelo://app?vid=f67dfab3-abcc-4688-bfd7-4284bf8c7187","ios":"levelo://app?vid=f67dfab3-abcc-4688-bfd7-4284bf8c7187"},"vehicle_type_id":"4","last_reported":1733425628,"current_range_meters":9200,"station_id":"ce4bhr92rcd13ifvqhrg","pricing_plan_id":"cebpf4jnsgd1na2vs0mg"},{"bike_id":"2d108636-ee51-419b-a587-b024937fb90d","system_id":"levelo_inurba_marseille","lat":43.27837,"lon":5.39204,"is_reserved":false,"is_disabled":true,"rental_uris":{"android":"levelo://app?vid=2d108636-ee51-419b-a587-b024937fb90d","ios":"levelo://app?vid=2d108636-ee51-419b-a587-b024937fb90d"},"vehicle_type_id":"4","last_reported":1733425628,"current_range_meters":0,"station_id":"ce4bhjp2rcd13ifvqga0","pricing_plan_id":"cebpf4jnsgd1na2vs0mg"},{"bike_id":"1235e9a6-d25e-4868-9ff4-6f488485e252","system_id":"levelo_inurba_marseille","lat":43.27963,"lon":5.38716,"is_reserved":false,"is_disabled":true,"rental_uris":{"android":"levelo://app?vid=1235e9a6-d25e-4868-9ff4-6f488485e252","ios":"levelo://app?vid=1235e9a6-d25e-4868-9ff4-6f488485e252"},"vehicle_type_id":"4","last_reported":1733425628,"current_range_meters":400,"station_id":"ce4bhg12rcd13ifvqf80","pricing_plan_id":"cebpf4jnsgd1na2vs0mg"},{"bike_id":"28b52837-d828-49e4-b4be-cfbac010c328","system_id":"levelo_inurba_marseille","lat":43.33725,"lon":5.39184,"is_reserved":false,"is_disabled":false,"rental_uris":{"android":"levelo://app?vid=28b52837-d828-49e4-b4be-cfbac010c328","ios":"levelo://app?vid=28b52837-d828-49e4-b4be-cfbac010c328"},"vehicle_type_id":"4","last_reported":1733425628,"current_range_meters":28400,"station_id":"ce4bhr92rcd13ifvqhsg","pricing_plan_id":"cebpf4jnsgd1na2vs0mg"},{"bike_id":"b3f478ac-3b05-4edf-bdbf-76399090f8e9","system_id":"levelo_inurba_marseille","lat":43.29994,"lon":5.37639,"is_reserved":false,"is_disabled":true,"rental_uris":{"android":"levelo://app?vid=b3f478ac-3b05-4edf-bdbf-76399090f8e9","ios":"levelo://app?vid=b3f478ac-3b05-4edf-bdbf-76399090f8e9"},"vehicle_type_id":"4","last_reported":1733425628,"current_range_meters":0,"station_id":"","pricing_plan_id":"cebpf4jnsgd1na2vs0mg"},{"bike_id":"e4dd8afb-a6a4-4094-acb6-18ba1c5e5118","system_id":"levelo_inurba_marseille","lat":43.29566,"lon":5.39973,"is_reserved":false,"is_disabled":true,"rental_uris":{"android":"levelo://app?vid=e4dd8afb-a6a4-4094-acb6-18ba1c5e5118","ios":"levelo://app?vid=e4dd8afb-a6a4-4094-acb6-18ba1c5e5118"},"vehicle_type_id":"4","last_reported":1733425628,"current_range_meters":0,"station_id":"ce4bh312rcd13ifvqdj0","pricing_plan_id":"cebpf4jnsgd1na2vs0mg"},{"bike_id":"6a41e9d8-035a-4bf8-8d68-41af3a48766c","system_id":"levelo_inurba_marseille","lat":43.28424,"lon":5.34997,"is_reserved":false,"is_disabled":false,"rental_uris":{"android":"levelo://app?vid=6a41e9d8-035a-4bf8-8d68-41af3a48766c","ios":"levelo://app?vid=6a41e9d8-035a-4bf8-8d68-41af3a48766c"},"vehicle_type_id":"4","last_reported":1733425628,"current_range_meters":28800,"station_id":"ce4bhbh2rcd13ifvqepg","pricing_plan_id":"cebpf4jnsgd1na2vs0mg"},{"bike_id":"2cee3b4c-967a-49cc-bb86-5a9746a8fcd7","system_id":"levelo_inurba_marseille","lat":43.31755,"lon":5.39014,"is_reserved":false,"is_disabled":false,"rental_uris":{"android":"levelo://app?vid=2cee3b4c-967a-49cc-bb86-5a9746a8fcd7","ios":"levelo://app?vid=2cee3b4c-967a-49cc-bb86-5a9746a8fcd7"},"vehicle_type_id":"4","last_reported":1733425628,"current_range_meters":35600,"station_id":"ce4bhqp2rcd13ifvqhng","pricing_plan_id":"cebpf4jnsgd1na2vs0mg"},{"bike_id":"5390a7cd-d778-4522-82bd-4adcecc9ff6e","system_id":"levelo_inurba_marseille","lat":43.29518,"lon":5.39396,"is_reserved":false,"is_disabled":false,"rental_uris":{"android":"levelo://app?vid=5390a7cd-d778-4522-82bd-4adcecc9ff6e","ios":"levelo://app?vid=5390a7cd-d778-4522-82bd-4adcecc9ff6e"},"vehicle_type_id":"4","last_reported":1733425628,"current_range_meters":25200,"station_id":"ce4bh292rcd13ifvqdf0","pricing_plan_id":"cebpf4jnsgd1na2vs0mg"},{"bike_id":"2109f1a8-c8ca-46a6-8215-f34a4061b76a","system_id":"levelo_inurba_marseille","lat":43.32282,"lon":5.38267,"is_reserved":false,"is_disabled":false,"rental_uris":{"android":"levelo://app?vid=2109f1a8-c8ca-46a6-8215-f34a4061b76a","ios":"levelo://app?vid=2109f1a8-c8ca-46a6-8215-f34a4061b76a"},"vehicle_type_id":"4","last_reported":1733425628,"current_range_meters":20400,"station_id":"ce4bhr12rcd13ifvqhqg","pricing_plan_id":"cebpf4jnsgd1na2vs0mg"},{"bike_id":"2db20901-1868-494a-83e3-fa9315287be6","system_id":"levelo_inurba_marseille","lat":43.28933,"lon":5.39635,"is_reserved":false,"is_disabled":false,"rental_uris":{"android":"levelo://app?vid=2db20901-1868-494a-83e3-fa9315287be6","ios":"levelo://app?vid=2db20901-1868-494a-83e3-fa9315287be6"},"vehicle_type_id":"4","last_reported":1733425628,"current_range_meters":32000,"station_id":"ce4bh3h2rcd13ifvqdn0","pricing_plan_id":"cebpf4jnsgd1na2vs0mg"},{"bike_id":"92f5f770-7b88-4fc4-bac7-eb91e3fdb9a2","system_id":"levelo_inurba_marseille","lat":43.31329,"lon":5.39683,"is_reserved":false,"is_disabled":false,"rental_uris":{"android":"levelo://app?vid=92f5f770-7b88-4fc4-bac7-eb91e3fdb9a2","ios":"levelo://app?vid=92f5f770-7b88-4fc4-bac7-eb91e3fdb9a2"},"vehicle_type_id":"4","last_reported":1733425628,"current_range_meters":24800,"station_id":"ce4bgvp2rcd13ifvqcu0","pricing_plan_id":"cebpf4jnsgd1na2vs0mg"},{"bike_id":"1931079a-b91f-4b14-88d3-3cb6d99895b6","system_id":"levelo_inurba_marseille","lat":43.24388,"lon":5.37065,"is_reserved":false,"is_disabled":false,"rental_uris":{"android":"levelo://app?vid=1931079a-b91f-4b14-88d3-3cb6d99895b6","ios":"levelo://app?vid=1931079a-b91f-4b14-88d3-3cb6d99895b6"},"vehicle_type_id":"4","last_reported":1733425628,"current_range_meters":26000,"station_id":"ce4bhhh2rcd13ifvqfk0","pricing_plan_id":"cebpf4jnsgd1na2vs0mg"},{"bike_id":"fe309134-6e2e-4550-992d-af694745a2a8","system_id":"levelo_inurba_marseille","lat":43.3116,"lon":5.38724,"is_reserved":false,"is_disabled":true,"rental_uris":{"android":"levelo://app?vid=fe309134-6e2e-4550-992d-af694745a2a8","ios":"levelo://app?vid=fe309134-6e2e-4550-992d-af694745a2a8"},"vehicle_type_id":"4","last_reported":1733425628,"current_range_meters":1600,"station_id":"ce4bgv12rcd13ifvqcp0","pricing_plan_id":"cebpf4jnsgd1na2vs0mg"},{"bike_id":"042a13ad-150b-48e9-9dd9-ba7a39880c39","system_id":"levelo_inurba_marseille","lat":43.27837,"lon":5.39201,"is_reserved":false,"is_disabled":false,"rental_uris":{"android":"levelo://app?vid=042a13ad-150b-48e9-9dd9-ba7a39880c39","ios":"levelo://app?vid=042a13ad-150b-48e9-9dd9-ba7a39880c39"},"vehicle_type_id":"4","last_reported":1733425628,"current_range_meters":33200,"station_id":"ce4bhjp2rcd13ifvqga0","pricing_plan_id":"cebpf4jnsgd1na2vs0mg"},{"bike_id":"92cc9f09-00d3-45cf-99f8-4b1213e9b197","system_id":"levelo_inurba_marseille","lat":43.2971,"lon":5.36612,"is_reserved":false,"is_disabled":false,"rental_uris":{"android":"levelo://app?vid=92cc9f09-00d3-45cf-99f8-4b1213e9b197","ios":"levelo://app?vid=92cc9f09-00d3-45cf-99f8-4b1213e9b197"},"vehicle_type_id":"4","last_reported":1733425628,"current_range_meters":34000,"station_id":"ce4bgn12rcd13ifvqbt0","pricing_plan_id":"cebpf4jnsgd1na2vs0mg"},{"bike_id":"c7937e55-70ee-4a20-b169-edc60cf12155","system_id":"levelo_inurba_marseille","lat":43.30796,"lon":5.43521,"is_reserved":false,"is_disabled":true,"rental_uris":{"android":"levelo://app?vid=c7937e55-70ee-4a20-b169-edc60cf12155","ios":"levelo://app?vid=c7937e55-70ee-4a20-b169-edc60cf12155"},"vehicle_type_id":"4","last_reported":1733425628,"current_range_meters":0,"station_id":"ce4bhph2rcd13ifvqheg","pricing_plan_id":"cebpf4jnsgd1na2vs0mg"},{"bike_id":"0d76dbf6-5e40-455b-a0e6-70fb0b70c5f9","system_id":"levelo_inurba_marseille","lat":43.3237,"lon":5.38873,"is_reserved":false,"is_disabled":true,"rental_uris":{"android":"levelo://app?vid=0d76dbf6-5e40-455b-a0e6-70fb0b70c5f9","ios":"levelo://app?vid=0d76dbf6-5e40-455b-a0e6-70fb0b70c5f9"},"vehicle_type_id":"4","last_reported":1733425628,"current_range_meters":0,"station_id":"ce4bhqp2rcd13ifvqhog","pricing_plan_id":"cebpf4jnsgd1na2vs0mg"},{"bike_id":"bb33fa0c-b703-4470-8119-8d67c160e4d2","system_id":"levelo_inurba_marseille","lat":43.25087,"lon":5.39507,"is_reserved":false,"is_disabled":false,"rental_uris":{"android":"levelo://app?vid=bb33fa0c-b703-4470-8119-8d67c160e4d2","ios":"levelo://app?vid=bb33fa0c-b703-4470-8119-8d67c160e4d2"},"vehicle_type_id":"4","last_reported":1733425628,"current_range_meters":6800,"station_id":"ce4bhm12rcd13ifvqgkg","pricing_plan_id":"cebpf4jnsgd1na2vs0mg"},{"bike_id":"2f3968e7-9336-4ee4-ba78-8e92c0a818cc","system_id":"levelo_inurba_marseille","lat":43.31322,"lon":5.36647,"is_reserved":false,"is_disabled":true,"rental_uris":{"android":"levelo://app?vid=2f3968e7-9336-4ee4-ba78-8e92c0a818cc","ios":"levelo://app?vid=2f3968e7-9336-4ee4-ba78-8e92c0a818cc"},"vehicle_type_id":"4","last_reported":1733425628,"current_range_meters":0,"station_id":"","pricing_plan_id":"cebpf4jnsgd1na2vs0mg"},{"bike_id":"47241d2d-0042-414f-aa94-6649cc70c148","system_id":"levelo_inurba_marseille","lat":43.298831,"lon":5.364013,"is_reserved":false,"is_disabled":false,"rental_uris":{"android":"levelo://app?vid=47241d2d-0042-414f-aa94-6649cc70c148","ios":"levelo://app?vid=47241d2d-0042-414f-aa94-6649cc70c148"},"vehicle_type_id":"4","last_reported":1733425628,"current_range_meters":24000,"station_id":"","pricing_plan_id":"cebpf4jnsgd1na2vs0mg"},{"bike_id":"9aded1fd-28b2-485b-aa1d-02cd137f431b","system_id":"levelo_inurba_marseille","lat":43.26495,"lon":5.3954,"is_reserved":false,"is_disabled":true,"rental_uris":{"android":"levelo://app?vid=9aded1fd-28b2-485b-aa1d-02cd137f431b","ios":"levelo://app?vid=9aded1fd-28b2-485b-aa1d-02cd137f431b"},"vehicle_type_id":"4","last_reported":1733425628,"current_range_meters":0,"station_id":"ce4bhi12rcd13ifvqfq0","pricing_plan_id":"cebpf4jnsgd1na2vs0mg"},{"bike_id":"86c47149-ed1d-4ab2-8964-74fc59cf1c0e","system_id":"levelo_inurba_marseille","lat":43.23965,"lon":5.36631,"is_reserved":false,"is_disabled":false,"rental_uris":{"android":"levelo://app?vid=86c47149-ed1d-4ab2-8964-74fc59cf1c0e","ios":"levelo://app?vid=86c47149-ed1d-4ab2-8964-74fc59cf1c0e"},"vehicle_type_id":"4","last_reported":1733425628,"current_range_meters":12400,"station_id":"ce4bhi12rcd13ifvqfp0","pricing_plan_id":"cebpf4jnsgd1na2vs0mg"},{"bike_id":"adab05ba-c3f5-4615-958f-1596a92ba8f5","system_id":"levelo_inurba_marseille","lat":43.27421,"lon":5.39419,"is_reserved":false,"is_disabled":false,"rental_uris":{"android":"levelo://app?vid=adab05ba-c3f5-4615-958f-1596a92ba8f5","ios":"levelo://app?vid=adab05ba-c3f5-4615-958f-1596a92ba8f5"},"vehicle_type_id":"4","last_reported":1733425628,"current_range_meters":16000,"station_id":"ce4bhdp2rcd13ifvqf20","pricing_plan_id":"cebpf4jnsgd1na2vs0mg"},{"bike_id":"0a922ab3-bcdd-47fa-959f-d1d2b8cb4a55","system_id":"levelo_inurba_marseille","lat":43.24173,"lon":5.39721,"is_reserved":false,"is_disabled":false,"rental_uris":{"android":"levelo://app?vid=0a922ab3-bcdd-47fa-959f-d1d2b8cb4a55","ios":"levelo://app?vid=0a922ab3-bcdd-47fa-959f-d1d2b8cb4a55"},"vehicle_type_id":"4","last_reported":1733425628,"current_range_meters":13600,"station_id":"ce4bhn12rcd13ifvqgpg","pricing_plan_id":"cebpf4jnsgd1na2vs0mg"},{"bike_id":"0a040c83-c718-4acd-8c8f-a736efe02907","system_id":"levelo_inurba_marseille","lat":43.30908,"lon":5.36838,"is_reserved":false,"is_disabled":false,"rental_uris":{"android":"levelo://app?vid=0a040c83-c718-4acd-8c8f-a736efe02907","ios":"levelo://app?vid=0a040c83-c718-4acd-8c8f-a736efe02907"},"vehicle_type_id":"4","last_reported":1733425628,"current_range_meters":38800,"station_id":"ce4bgn92rcd13ifvqbvg","pricing_plan_id":"cebpf4jnsgd1na2vs0mg"},{"bike_id":"18c465ad-16a0-4d72-a337-11a15929aab8","system_id":"levelo_inurba_marseille","lat":43.23942,"lon":5.36649,"is_reserved":false,"is_disabled":false,"rental_uris":{"android":"levelo://app?vid=18c465ad-16a0-4d72-a337-11a15929aab8","ios":"levelo://app?vid=18c465ad-16a0-4d72-a337-11a15929aab8"},"vehicle_type_id":"4","last_reported":1733425628,"current_range_meters":11600,"station_id":"ce4bhi12rcd13ifvqfp0","pricing_plan_id":"cebpf4jnsgd1na2vs0mg"},{"bike_id":"2f7b887c-1623-4de2-8868-e6f453f327e4","system_id":"levelo_inurba_marseille","lat":43.3035,"lon":5.41871,"is_reserved":false,"is_disabled":true,"rental_uris":{"android":"levelo://app?vid=2f7b887c-1623-4de2-8868-e6f453f327e4","ios":"levelo://app?vid=2f7b887c-1623-4de2-8868-e6f453f327e4"},"vehicle_type_id":"4","last_reported":1733425628,"current_range_meters":1200,"station_id":"ce4bhop2rcd13ifvqh7g","pricing_plan_id":"cebpf4jnsgd1na2vs0mg"},{"bike_id":"65710493-44ff-4beb-9f06-846fab6f733e","system_id":"levelo_inurba_marseille","lat":43.29517,"lon":5.39051,"is_reserved":false,"is_disabled":false,"rental_uris":{"android":"levelo://app?vid=65710493-44ff-4beb-9f06-846fab6f733e","ios":"levelo://app?vid=65710493-44ff-4beb-9f06-846fab6f733e"},"vehicle_type_id":"4","last_reported":1733425628,"current_range_meters":36400,"station_id":"ce4bh3p2rcd13ifvqdp0","pricing_plan_id":"cebpf4jnsgd1na2vs0mg"},{"bike_id":"4aaca529-bc54-4418-8d67-32a3ee9249ee","system_id":"levelo_inurba_marseille","lat":43.27814,"lon":5.40706,"is_reserved":false,"is_disabled":false,"rental_uris":{"android":"levelo://app?vid=4aaca529-bc54-4418-8d67-32a3ee9249ee","ios":"levelo://app?vid=4aaca529-bc54-4418-8d67-32a3ee9249ee"},"vehicle_type_id":"4","last_reported":1733425628,"current_range_meters":38000,"station_id":"ce4bhnh2rcd13ifvqgtg","pricing_plan_id":"cebpf4jnsgd1na2vs0mg"},{"bike_id":"b0025f03-f4b7-4e1f-b2ae-d738bfb01f75","system_id":"levelo_inurba_marseille","lat":43.31015,"lon":5.37907,"is_reserved":false,"is_disabled":true,"rental_uris":{"android":"levelo://app?vid=b0025f03-f4b7-4e1f-b2ae-d738bfb01f75","ios":"levelo://app?vid=b0025f03-f4b7-4e1f-b2ae-d738bfb01f75"},"vehicle_type_id":"4","last_reported":1733425628,"current_range_meters":36800,"station_id":"","pricing_plan_id":"cebpf4jnsgd1na2vs0mg"},{"bike_id":"9971e89c-a86d-48a4-96a6-3177d4eb273e","system_id":"levelo_inurba_marseille","lat":43.240593,"lon":5.377491,"is_reserved":false,"is_disabled":false,"rental_uris":{"android":"levelo://app?vid=9971e89c-a86d-48a4-96a6-3177d4eb273e","ios":"levelo://app?vid=9971e89c-a86d-48a4-96a6-3177d4eb273e"},"vehicle_type_id":"4","last_reported":1733425628,"current_range_meters":30800,"station_id":"ce4bhnp2rcd13ifvqgvg","pricing_plan_id":"cebpf4jnsgd1na2vs0mg"},{"bike_id":"b85bb37f-2197-498e-b358-747241fe43e5","system_id":"levelo_inurba_marseille","lat":43.28425,"lon":5.39196,"is_reserved":false,"is_disabled":false,"rental_uris":{"android":"levelo://app?vid=b85bb37f-2197-498e-b358-747241fe43e5","ios":"levelo://app?vid=b85bb37f-2197-498e-b358-747241fe43e5"},"vehicle_type_id":"4","last_reported":1733425628,"current_range_meters":38800,"station_id":"ce4bhoh2rcd13ifvqh5g","pricing_plan_id":"cebpf4jnsgd1na2vs0mg"},{"bike_id":"a80a808b-d83a-48b0-a87c-889d0a59a5e3","system_id":"levelo_inurba_marseille","lat":43.24395,"lon":5.37059,"is_reserved":false,"is_disabled":false,"rental_uris":{"android":"levelo://app?vid=a80a808b-d83a-48b0-a87c-889d0a59a5e3","ios":"levelo://app?vid=a80a808b-d83a-48b0-a87c-889d0a59a5e3"},"vehicle_type_id":"4","last_reported":1733425628,"current_range_meters":38800,"station_id":"ce4bhhh2rcd13ifvqfk0","pricing_plan_id":"cebpf4jnsgd1na2vs0mg"},{"bike_id":"fae6f9c7-5722-4159-86ac-ba066001570a","system_id":"levelo_inurba_marseille","lat":43.29863,"lon":5.39742,"is_reserved":false,"is_disabled":false,"rental_uris":{"android":"levelo://app?vid=fae6f9c7-5722-4159-86ac-ba066001570a","ios":"levelo://app?vid=fae6f9c7-5722-4159-86ac-ba066001570a"},"vehicle_type_id":"4","last_reported":1733425628,"current_range_meters":3200,"station_id":"ce4bh0h2rcd13ifvqd50","pricing_plan_id":"cebpf4jnsgd1na2vs0mg"},{"bike_id":"f10c5e90-601b-4bd4-87e7-4cbb6a13a4fb","system_id":"levelo_inurba_marseille","lat":43.26117,"lon":5.39266,"is_reserved":false,"is_disabled":false,"rental_uris":{"android":"levelo://app?vid=f10c5e90-601b-4bd4-87e7-4cbb6a13a4fb","ios":"levelo://app?vid=f10c5e90-601b-4bd4-87e7-4cbb6a13a4fb"},"vehicle_type_id":"4","last_reported":1733425628,"current_range_meters":4800,"station_id":"","pricing_plan_id":"cebpf4jnsgd1na2vs0mg"},{"bike_id":"a3de5cf7-74f5-47e6-a00d-af0e63e27d62","system_id":"levelo_inurba_marseille","lat":43.28933,"lon":5.36633,"is_reserved":false,"is_disabled":false,"rental_uris":{"android":"levelo://app?vid=a3de5cf7-74f5-47e6-a00d-af0e63e27d62","ios":"levelo://app?vid=a3de5cf7-74f5-47e6-a00d-af0e63e27d62"},"vehicle_type_id":"4","last_reported":1733425628,"current_range_meters":36800,"station_id":"ce4bhap2rcd13ifvqek0","pricing_plan_id":"cebpf4jnsgd1na2vs0mg"},{"bike_id":"216642dc-5e19-4552-8c52-74eda9279fe7","system_id":"levelo_inurba_marseille","lat":43.31684,"lon":5.40466,"is_reserved":false,"is_disabled":true,"rental_uris":{"android":"levelo://app?vid=216642dc-5e19-4552-8c52-74eda9279fe7","ios":"levelo://app?vid=216642dc-5e19-4552-8c52-74eda9279fe7"},"vehicle_type_id":"4","last_reported":1733425628,"current_range_meters":1200,"station_id":"ce4bh012rcd13ifvqd00","pricing_plan_id":"cebpf4jnsgd1na2vs0mg"},{"bike_id":"afd1bf14-3ba1-4dce-845e-7ca743e06c7c","system_id":"levelo_inurba_marseille","lat":43.28154,"lon":5.42645,"is_reserved":false,"is_disabled":false,"rental_uris":{"android":"levelo://app?vid=afd1bf14-3ba1-4dce-845e-7ca743e06c7c","ios":"levelo://app?vid=afd1bf14-3ba1-4dce-845e-7ca743e06c7c"},"vehicle_type_id":"4","last_reported":1733425628,"current_range_meters":38800,"station_id":"ce4bhnh2rcd13ifvqgug","pricing_plan_id":"cebpf4jnsgd1na2vs0mg"},{"bike_id":"c471e38a-28cc-4a96-8473-b6afe628ff50","system_id":"levelo_inurba_marseille","lat":43.28719,"lon":5.36088,"is_reserved":false,"is_disabled":false,"rental_uris":{"android":"levelo://app?vid=c471e38a-28cc-4a96-8473-b6afe628ff50","ios":"levelo://app?vid=c471e38a-28cc-4a96-8473-b6afe628ff50"},"vehicle_type_id":"4","last_reported":1733425628,"current_range_meters":16000,"station_id":"cki0cbj6b192h4jlfktg","pricing_plan_id":"cebpf4jnsgd1na2vs0mg"},{"bike_id":"e9f33ec6-71dd-4c01-81d1-548f83eda297","system_id":"levelo_inurba_marseille","lat":43.2466,"lon":5.3816,"is_reserved":false,"is_disabled":false,"rental_uris":{"android":"levelo://app?vid=e9f33ec6-71dd-4c01-81d1-548f83eda297","ios":"levelo://app?vid=e9f33ec6-71dd-4c01-81d1-548f83eda297"},"vehicle_type_id":"4","last_reported":1733425628,"current_range_meters":39200,"station_id":"ce4bhih2rcd13ifvqfr0","pricing_plan_id":"cebpf4jnsgd1na2vs0mg"},{"bike_id":"25df6fa5-0e99-4ca3-b962-45e4d327f4cd","system_id":"levelo_inurba_marseille","lat":43.28616,"lon":5.35106,"is_reserved":false,"is_disabled":false,"rental_uris":{"android":"levelo://app?vid=25df6fa5-0e99-4ca3-b962-45e4d327f4cd","ios":"levelo://app?vid=25df6fa5-0e99-4ca3-b962-45e4d327f4cd"},"vehicle_type_id":"4","last_reported":1733425628,"current_range_meters":24400,"station_id":"ce4bhch2rcd13ifvqeug","pricing_plan_id":"cebpf4jnsgd1na2vs0mg"},{"bike_id":"c0ecc308-ccc4-492f-bcda-d659d2cd5777","system_id":"levelo_inurba_marseille","lat":43.25106,"lon":5.40325,"is_reserved":false,"is_disabled":false,"rental_uris":{"android":"levelo://app?vid=c0ecc308-ccc4-492f-bcda-d659d2cd5777","ios":"levelo://app?vid=c0ecc308-ccc4-492f-bcda-d659d2cd5777"},"vehicle_type_id":"4","last_reported":1733425628,"current_range_meters":38800,"station_id":"ce4bhlh2rcd13ifvqgig","pricing_plan_id":"cebpf4jnsgd1na2vs0mg"},{"bike_id":"f5bd5773-3df4-400a-9c89-e449e0b42a96","system_id":"levelo_inurba_marseille","lat":43.2481,"lon":5.3746,"is_reserved":false,"is_disabled":true,"rental_uris":{"android":"levelo://app?vid=f5bd5773-3df4-400a-9c89-e449e0b42a96","ios":"levelo://app?vid=f5bd5773-3df4-400a-9c89-e449e0b42a96"},"vehicle_type_id":"4","last_reported":1733425628,"current_range_meters":38800,"station_id":"ce4bhgh2rcd13ifvqfb0","pricing_plan_id":"cebpf4jnsgd1na2vs0mg"},{"bike_id":"4e8acc77-9bdd-49aa-aaca-7dc0dbc5cfdd","system_id":"levelo_inurba_marseille","lat":43.29524,"lon":5.39033,"is_reserved":false,"is_disabled":false,"rental_uris":{"android":"levelo://app?vid=4e8acc77-9bdd-49aa-aaca-7dc0dbc5cfdd","ios":"levelo://app?vid=4e8acc77-9bdd-49aa-aaca-7dc0dbc5cfdd"},"vehicle_type_id":"4","last_reported":1733425628,"current_range_meters":24000,"station_id":"ce4bh3p2rcd13ifvqdp0","pricing_plan_id":"cebpf4jnsgd1na2vs0mg"},{"bike_id":"cee1a977-f386-4ca7-b7f4-ecb23b8538de","system_id":"levelo_inurba_marseille","lat":43.28488,"lon":5.38424,"is_reserved":false,"is_disabled":true,"rental_uris":{"android":"levelo://app?vid=cee1a977-f386-4ca7-b7f4-ecb23b8538de","ios":"levelo://app?vid=cee1a977-f386-4ca7-b7f4-ecb23b8538de"},"vehicle_type_id":"4","last_reported":1733425628,"current_range_meters":37600,"station_id":"ce4bh512rcd13ifvqe3g","pricing_plan_id":"cebpf4jnsgd1na2vs0mg"},{"bike_id":"a4d3b324-e08a-49a2-ae58-8854d2d2da3b","system_id":"levelo_inurba_marseille","lat":43.31784,"lon":5.37283,"is_reserved":false,"is_disabled":false,"rental_uris":{"android":"levelo://app?vid=a4d3b324-e08a-49a2-ae58-8854d2d2da3b","ios":"levelo://app?vid=a4d3b324-e08a-49a2-ae58-8854d2d2da3b"},"vehicle_type_id":"4","last_reported":1733425628,"current_range_meters":36400,"station_id":"","pricing_plan_id":"cebpf4jnsgd1na2vs0mg"},{"bike_id":"cdfe6590-4984-4014-86c8-6dd70747c27a","system_id":"levelo_inurba_marseille","lat":43.29737,"lon":5.37434,"is_reserved":false,"is_disabled":true,"rental_uris":{"android":"levelo://app?vid=cdfe6590-4984-4014-86c8-6dd70747c27a","ios":"levelo://app?vid=cdfe6590-4984-4014-86c8-6dd70747c27a"},"vehicle_type_id":"4","last_reported":1733425628,"current_range_meters":0,"station_id":"","pricing_plan_id":"cebpf4jnsgd1na2vs0mg"},{"bike_id":"4f342de8-792f-4d33-9b83-db22117593b4","system_id":"levelo_inurba_marseille","lat":43.26781,"lon":5.39416,"is_reserved":false,"is_disabled":false,"rental_uris":{"android":"levelo://app?vid=4f342de8-792f-4d33-9b83-db22117593b4","ios":"levelo://app?vid=4f342de8-792f-4d33-9b83-db22117593b4"},"vehicle_type_id":"4","last_reported":1733425628,"current_range_meters":26000,"station_id":"ce4bhh12rcd13ifvqfg0","pricing_plan_id":"cebpf4jnsgd1na2vs0mg"},{"bike_id":"4d0dadab-e6e1-4e5a-9b42-cd848beb1025","system_id":"levelo_inurba_marseille","lat":43.25576,"lon":5.38224,"is_reserved":false,"is_disabled":false,"rental_uris":{"android":"levelo://app?vid=4d0dadab-e6e1-4e5a-9b42-cd848beb1025","ios":"levelo://app?vid=4d0dadab-e6e1-4e5a-9b42-cd848beb1025"},"vehicle_type_id":"4","last_reported":1733425628,"current_range_meters":22000,"station_id":"ce4bhih2rcd13ifvqfs0","pricing_plan_id":"cebpf4jnsgd1na2vs0mg"},{"bike_id":"a0181206-4402-4eee-b282-307bc5035baf","system_id":"levelo_inurba_marseille","lat":43.27997,"lon":5.40008,"is_reserved":false,"is_disabled":false,"rental_uris":{"android":"levelo://app?vid=a0181206-4402-4eee-b282-307bc5035baf","ios":"levelo://app?vid=a0181206-4402-4eee-b282-307bc5035baf"},"vehicle_type_id":"4","last_reported":1733425628,"current_range_meters":38800,"station_id":"ce4bho92rcd13ifvqh4g","pricing_plan_id":"cebpf4jnsgd1na2vs0mg"},{"bike_id":"23e79cd9-2557-4ec0-b1c7-ccb3c131243a","system_id":"levelo_inurba_marseille","lat":43.28033,"lon":5.36941,"is_reserved":false,"is_disabled":false,"rental_uris":{"android":"levelo://app?vid=23e79cd9-2557-4ec0-b1c7-ccb3c131243a","ios":"levelo://app?vid=23e79cd9-2557-4ec0-b1c7-ccb3c131243a"},"vehicle_type_id":"4","last_reported":1733425628,"current_range_meters":30800,"station_id":"ce4bha12rcd13ifvqef0","pricing_plan_id":"cebpf4jnsgd1na2vs0mg"},{"bike_id":"6fb00969-21f8-4503-a74e-e887bd6407a1","system_id":"levelo_inurba_marseille","lat":43.27481,"lon":5.42455,"is_reserved":false,"is_disabled":false,"rental_uris":{"android":"levelo://app?vid=6fb00969-21f8-4503-a74e-e887bd6407a1","ios":"levelo://app?vid=6fb00969-21f8-4503-a74e-e887bd6407a1"},"vehicle_type_id":"4","last_reported":1733425628,"current_range_meters":38800,"station_id":"ce4bhn92rcd13ifvqgrg","pricing_plan_id":"cebpf4jnsgd1na2vs0mg"},{"bike_id":"987a5ab4-d60c-480c-94b6-7cab38975402","system_id":"levelo_inurba_marseille","lat":43.29748,"lon":5.37971,"is_reserved":false,"is_disabled":true,"rental_uris":{"android":"levelo://app?vid=987a5ab4-d60c-480c-94b6-7cab38975402","ios":"levelo://app?vid=987a5ab4-d60c-480c-94b6-7cab38975402"},"vehicle_type_id":"4","last_reported":1733425628,"current_range_meters":0,"station_id":"","pricing_plan_id":"cebpf4jnsgd1na2vs0mg"},{"bike_id":"2c4596ad-0ad9-4016-b92b-0093349de2b4","system_id":"levelo_inurba_marseille","lat":43.30755,"lon":5.38187,"is_reserved":false,"is_disabled":true,"rental_uris":{"android":"levelo://app?vid=2c4596ad-0ad9-4016-b92b-0093349de2b4","ios":"levelo://app?vid=2c4596ad-0ad9-4016-b92b-0093349de2b4"},"vehicle_type_id":"4","last_reported":1733425628,"current_range_meters":0,"station_id":"","pricing_plan_id":"cebpf4jnsgd1na2vs0mg"},{"bike_id":"e48f5008-9d86-4d3e-a482-6e6abeb29355","system_id":"levelo_inurba_marseille","lat":43.29514,"lon":5.39398,"is_reserved":false,"is_disabled":false,"rental_uris":{"android":"levelo://app?vid=e48f5008-9d86-4d3e-a482-6e6abeb29355","ios":"levelo://app?vid=e48f5008-9d86-4d3e-a482-6e6abeb29355"},"vehicle_type_id":"4","last_reported":1733425628,"current_range_meters":38800,"station_id":"ce4bh292rcd13ifvqdf0","pricing_plan_id":"cebpf4jnsgd1na2vs0mg"},{"bike_id":"ce39bde7-97f9-4b04-9dce-d3f0aeb380df","system_id":"levelo_inurba_marseille","lat":43.29902,"lon":5.38141,"is_reserved":false,"is_disabled":false,"rental_uris":{"android":"levelo://app?vid=ce39bde7-97f9-4b04-9dce-d3f0aeb380df","ios":"levelo://app?vid=ce39bde7-97f9-4b04-9dce-d3f0aeb380df"},"vehicle_type_id":"4","last_reported":1733425628,"current_range_meters":38800,"station_id":"ce4bgj12rcd13ifvqbc0","pricing_plan_id":"cebpf4jnsgd1na2vs0mg"},{"bike_id":"b7ab8c01-033f-4395-8276-23c850ad3d02","system_id":"levelo_inurba_marseille","lat":43.30348,"lon":5.36626,"is_reserved":false,"is_disabled":true,"rental_uris":{"android":"levelo://app?vid=b7ab8c01-033f-4395-8276-23c850ad3d02","ios":"levelo://app?vid=b7ab8c01-033f-4395-8276-23c850ad3d02"},"vehicle_type_id":"4","last_reported":1733425628,"current_range_meters":0,"station_id":"","pricing_plan_id":"cebpf4jnsgd1na2vs0mg"},{"bike_id":"0279b2c0-513c-422a-b9fb-9fc99372925b","system_id":"levelo_inurba_marseille","lat":43.31325,"lon":5.39686,"is_reserved":false,"is_disabled":false,"rental_uris":{"android":"levelo://app?vid=0279b2c0-513c-422a-b9fb-9fc99372925b","ios":"levelo://app?vid=0279b2c0-513c-422a-b9fb-9fc99372925b"},"vehicle_type_id":"4","last_reported":1733425628,"current_range_meters":22000,"station_id":"ce4bgvp2rcd13ifvqcu0","pricing_plan_id":"cebpf4jnsgd1na2vs0mg"},{"bike_id":"f4676a9b-685c-4e8f-a479-8e34f48f1df5","system_id":"levelo_inurba_marseille","lat":43.33724,"lon":5.39173,"is_reserved":false,"is_disabled":true,"rental_uris":{"android":"levelo://app?vid=f4676a9b-685c-4e8f-a479-8e34f48f1df5","ios":"levelo://app?vid=f4676a9b-685c-4e8f-a479-8e34f48f1df5"},"vehicle_type_id":"4","last_reported":1733425628,"current_range_meters":1200,"station_id":"ce4bhr92rcd13ifvqhsg","pricing_plan_id":"cebpf4jnsgd1na2vs0mg"},{"bike_id":"5068770d-709f-4fe9-a25e-3bdaaf3e71cc","system_id":"levelo_inurba_marseille","lat":43.25079,"lon":5.39513,"is_reserved":false,"is_disabled":false,"rental_uris":{"android":"levelo://app?vid=5068770d-709f-4fe9-a25e-3bdaaf3e71cc","ios":"levelo://app?vid=5068770d-709f-4fe9-a25e-3bdaaf3e71cc"},"vehicle_type_id":"4","last_reported":1733425628,"current_range_meters":8800,"station_id":"ce4bhm12rcd13ifvqgkg","pricing_plan_id":"cebpf4jnsgd1na2vs0mg"},{"bike_id":"b0748d67-2401-460d-b8da-a9aeb94f1f27","system_id":"levelo_inurba_marseille","lat":43.31673,"lon":5.40479,"is_reserved":false,"is_disabled":false,"rental_uris":{"android":"levelo://app?vid=b0748d67-2401-460d-b8da-a9aeb94f1f27","ios":"levelo://app?vid=b0748d67-2401-460d-b8da-a9aeb94f1f27"},"vehicle_type_id":"4","last_reported":1733425628,"current_range_meters":36400,"station_id":"ce4bh012rcd13ifvqd00","pricing_plan_id":"cebpf4jnsgd1na2vs0mg"},{"bike_id":"01fc086f-11d0-4126-a5a7-f83f36005f81","system_id":"levelo_inurba_marseille","lat":43.31842,"lon":5.37298,"is_reserved":false,"is_disabled":false,"rental_uris":{"android":"levelo://app?vid=01fc086f-11d0-4126-a5a7-f83f36005f81","ios":"levelo://app?vid=01fc086f-11d0-4126-a5a7-f83f36005f81"},"vehicle_type_id":"4","last_reported":1733425628,"current_range_meters":37600,"station_id":"","pricing_plan_id":"cebpf4jnsgd1na2vs0mg"},{"bike_id":"d0fd18c1-3898-46e2-812b-d16b1dad312a","system_id":"levelo_inurba_marseille","lat":43.27881,"lon":5.38828,"is_reserved":false,"is_disabled":false,"rental_uris":{"android":"levelo://app?vid=d0fd18c1-3898-46e2-812b-d16b1dad312a","ios":"levelo://app?vid=d0fd18c1-3898-46e2-812b-d16b1dad312a"},"vehicle_type_id":"4","last_reported":1733425628,"current_range_meters":8800,"station_id":"","pricing_plan_id":"cebpf4jnsgd1na2vs0mg"},{"bike_id":"6cc6805f-c0ca-4585-bdf1-b5a0339762b0","system_id":"levelo_inurba_marseille","lat":43.29013,"lon":5.42792,"is_reserved":false,"is_disabled":true,"rental_uris":{"android":"levelo://app?vid=6cc6805f-c0ca-4585-bdf1-b5a0339762b0","ios":"levelo://app?vid=6cc6805f-c0ca-4585-bdf1-b5a0339762b0"},"vehicle_type_id":"4","last_reported":1733425628,"current_range_meters":0,"station_id":"","pricing_plan_id":"cebpf4jnsgd1na2vs0mg"},{"bike_id":"4e6fc26f-c1d5-4d84-ac5b-7d384b8c30d5","system_id":"levelo_inurba_marseille","lat":43.32354,"lon":5.36756,"is_reserved":false,"is_disabled":false,"rental_uris":{"android":"levelo://app?vid=4e6fc26f-c1d5-4d84-ac5b-7d384b8c30d5","ios":"levelo://app?vid=4e6fc26f-c1d5-4d84-ac5b-7d384b8c30d5"},"vehicle_type_id":"4","last_reported":1733425628,"current_range_meters":9200,"station_id":"ce4bhsh2rcd13ifvqi2g","pricing_plan_id":"cebpf4jnsgd1na2vs0mg"},{"bike_id":"8d1c8b92-79bb-4181-b0d2-5e94db1a14d0","system_id":"levelo_inurba_marseille","lat":43.29972,"lon":5.3826,"is_reserved":false,"is_disabled":true,"rental_uris":{"android":"levelo://app?vid=8d1c8b92-79bb-4181-b0d2-5e94db1a14d0","ios":"levelo://app?vid=8d1c8b92-79bb-4181-b0d2-5e94db1a14d0"},"vehicle_type_id":"4","last_reported":1733425628,"current_range_meters":0,"station_id":"","pricing_plan_id":"cebpf4jnsgd1na2vs0mg"},{"bike_id":"66988d75-a9f0-423c-89be-11e06668ead3","system_id":"levelo_inurba_marseille","lat":43.26557,"lon":5.37287,"is_reserved":false,"is_disabled":true,"rental_uris":{"android":"levelo://app?vid=66988d75-a9f0-423c-89be-11e06668ead3","ios":"levelo://app?vid=66988d75-a9f0-423c-89be-11e06668ead3"},"vehicle_type_id":"4","last_reported":1733425628,"current_range_meters":0,"station_id":"ce4bhg12rcd13ifvqf70","pricing_plan_id":"cebpf4jnsgd1na2vs0mg"},{"bike_id":"f0ff5847-c9d6-43ba-a5d2-d418d2e550a4","system_id":"levelo_inurba_marseille","lat":43.30425,"lon":5.39753,"is_reserved":false,"is_disabled":false,"rental_uris":{"android":"levelo://app?vid=f0ff5847-c9d6-43ba-a5d2-d418d2e550a4","ios":"levelo://app?vid=f0ff5847-c9d6-43ba-a5d2-d418d2e550a4"},"vehicle_type_id":"4","last_reported":1733425628,"current_range_meters":32000,"station_id":"ce4bh092rcd13ifvqd20","pricing_plan_id":"cebpf4jnsgd1na2vs0mg"},{"bike_id":"bd97762a-c11b-4874-b403-203a52c032ea","system_id":"levelo_inurba_marseille","lat":43.25121,"lon":5.40316,"is_reserved":false,"is_disabled":false,"rental_uris":{"android":"levelo://app?vid=bd97762a-c11b-4874-b403-203a52c032ea","ios":"levelo://app?vid=bd97762a-c11b-4874-b403-203a52c032ea"},"vehicle_type_id":"4","last_reported":1733425628,"current_range_meters":14800,"station_id":"ce4bhlh2rcd13ifvqgig","pricing_plan_id":"cebpf4jnsgd1na2vs0mg"},{"bike_id":"7401184e-dcdc-4f69-89e9-1615045c1f8c","system_id":"levelo_inurba_marseille","lat":43.3003,"lon":5.38911,"is_reserved":false,"is_disabled":true,"rental_uris":{"android":"levelo://app?vid=7401184e-dcdc-4f69-89e9-1615045c1f8c","ios":"levelo://app?vid=7401184e-dcdc-4f69-89e9-1615045c1f8c"},"vehicle_type_id":"4","last_reported":1733425628,"current_range_meters":0,"station_id":"","pricing_plan_id":"cebpf4jnsgd1na2vs0mg"},{"bike_id":"6ec0ac1d-1b13-4a34-b988-feb1deebc8da","system_id":"levelo_inurba_marseille","lat":43.30537,"lon":5.38412,"is_reserved":false,"is_disabled":true,"rental_uris":{"android":"levelo://app?vid=6ec0ac1d-1b13-4a34-b988-feb1deebc8da","ios":"levelo://app?vid=6ec0ac1d-1b13-4a34-b988-feb1deebc8da"},"vehicle_type_id":"4","last_reported":1733425628,"current_range_meters":0,"station_id":"ce4bgg92rcd13ifvqb30","pricing_plan_id":"cebpf4jnsgd1na2vs0mg"},{"bike_id":"2b3f8c5e-e33d-484b-8a9f-345736b44e0e","system_id":"levelo_inurba_marseille","lat":43.28844,"lon":5.35845,"is_reserved":false,"is_disabled":false,"rental_uris":{"android":"levelo://app?vid=2b3f8c5e-e33d-484b-8a9f-345736b44e0e","ios":"levelo://app?vid=2b3f8c5e-e33d-484b-8a9f-345736b44e0e"},"vehicle_type_id":"4","last_reported":1733425628,"current_range_meters":16000,"station_id":"ce4bhb12rcd13ifvqem0","pricing_plan_id":"cebpf4jnsgd1na2vs0mg"},{"bike_id":"327b5030-84ea-4932-8f2e-7091f15b4001","system_id":"levelo_inurba_marseille","lat":43.29167,"lon":5.37167,"is_reserved":false,"is_disabled":false,"rental_uris":{"android":"levelo://app?vid=327b5030-84ea-4932-8f2e-7091f15b4001","ios":"levelo://app?vid=327b5030-84ea-4932-8f2e-7091f15b4001"},"vehicle_type_id":"4","last_reported":1733425628,"current_range_meters":25600,"station_id":"ce4bha92rcd13ifvqeh0","pricing_plan_id":"cebpf4jnsgd1na2vs0mg"},{"bike_id":"5e0f238b-ae64-4126-8ec3-f35e96dcf93f","system_id":"levelo_inurba_marseille","lat":43.24999,"lon":5.38925,"is_reserved":false,"is_disabled":false,"rental_uris":{"android":"levelo://app?vid=5e0f238b-ae64-4126-8ec3-f35e96dcf93f","ios":"levelo://app?vid=5e0f238b-ae64-4126-8ec3-f35e96dcf93f"},"vehicle_type_id":"4","last_reported":1733425628,"current_range_meters":33200,"station_id":"ce4bhgp2rcd13ifvqfd0","pricing_plan_id":"cebpf4jnsgd1na2vs0mg"},{"bike_id":"dc08eabf-1b59-4004-8055-34faeb95ec28","system_id":"levelo_inurba_marseille","lat":43.25822,"lon":5.39417,"is_reserved":false,"is_disabled":true,"rental_uris":{"android":"levelo://app?vid=dc08eabf-1b59-4004-8055-34faeb95ec28","ios":"levelo://app?vid=dc08eabf-1b59-4004-8055-34faeb95ec28"},"vehicle_type_id":"4","last_reported":1733425628,"current_range_meters":0,"station_id":"ce4bhip2rcd13ifvqft0","pricing_plan_id":"cebpf4jnsgd1na2vs0mg"},{"bike_id":"e971bf9a-b1da-454f-8e40-b352d3e9a972","system_id":"levelo_inurba_marseille","lat":43.289327,"lon":5.363973,"is_reserved":false,"is_disabled":false,"rental_uris":{"android":"levelo://app?vid=e971bf9a-b1da-454f-8e40-b352d3e9a972","ios":"levelo://app?vid=e971bf9a-b1da-454f-8e40-b352d3e9a972"},"vehicle_type_id":"4","last_reported":1733425628,"current_range_meters":38400,"station_id":"ce4bhc92rcd13ifvqetg","pricing_plan_id":"cebpf4jnsgd1na2vs0mg"},{"bike_id":"2aab817b-3036-4778-b252-20a2852e9c7c","system_id":"levelo_inurba_marseille","lat":43.28079,"lon":5.39651,"is_reserved":false,"is_disabled":false,"rental_uris":{"android":"levelo://app?vid=2aab817b-3036-4778-b252-20a2852e9c7c","ios":"levelo://app?vid=2aab817b-3036-4778-b252-20a2852e9c7c"},"vehicle_type_id":"4","last_reported":1733425628,"current_range_meters":31200,"station_id":"ce4bho12rcd13ifvqh2g","pricing_plan_id":"cebpf4jnsgd1na2vs0mg"},{"bike_id":"7e138b6d-da12-4dd1-aa5c-731ba9e5976b","system_id":"levelo_inurba_marseille","lat":43.31678,"lon":5.3733,"is_reserved":false,"is_disabled":true,"rental_uris":{"android":"levelo://app?vid=7e138b6d-da12-4dd1-aa5c-731ba9e5976b","ios":"levelo://app?vid=7e138b6d-da12-4dd1-aa5c-731ba9e5976b"},"vehicle_type_id":"4","last_reported":1733425628,"current_range_meters":400,"station_id":"","pricing_plan_id":"cebpf4jnsgd1na2vs0mg"},{"bike_id":"97caf237-85e4-434f-9ad0-53e6794457f3","system_id":"levelo_inurba_marseille","lat":43.23179,"lon":5.39995,"is_reserved":false,"is_disabled":true,"rental_uris":{"android":"levelo://app?vid=97caf237-85e4-434f-9ad0-53e6794457f3","ios":"levelo://app?vid=97caf237-85e4-434f-9ad0-53e6794457f3"},"vehicle_type_id":"4","last_reported":1733425628,"current_range_meters":0,"station_id":"ce4bhn12rcd13ifvqgqg","pricing_plan_id":"cebpf4jnsgd1na2vs0mg"},{"bike_id":"d59a407a-9ea4-4470-aab2-8435eec23b51","system_id":"levelo_inurba_marseille","lat":43.25826,"lon":5.39442,"is_reserved":false,"is_disabled":true,"rental_uris":{"android":"levelo://app?vid=d59a407a-9ea4-4470-aab2-8435eec23b51","ios":"levelo://app?vid=d59a407a-9ea4-4470-aab2-8435eec23b51"},"vehicle_type_id":"4","last_reported":1733425628,"current_range_meters":400,"station_id":"ce4bhip2rcd13ifvqft0","pricing_plan_id":"cebpf4jnsgd1na2vs0mg"},{"bike_id":"a607bc71-0d54-40a7-bd2e-c094c8f313e9","system_id":"levelo_inurba_marseille","lat":43.28851,"lon":5.39331,"is_reserved":false,"is_disabled":false,"rental_uris":{"android":"levelo://app?vid=a607bc71-0d54-40a7-bd2e-c094c8f313e9","ios":"levelo://app?vid=a607bc71-0d54-40a7-bd2e-c094c8f313e9"},"vehicle_type_id":"4","last_reported":1733425628,"current_range_meters":38800,"station_id":"ce4bh2p2rcd13ifvqdi0","pricing_plan_id":"cebpf4jnsgd1na2vs0mg"},{"bike_id":"9c77a68d-2e99-44e9-b903-950fb6644d35","system_id":"levelo_inurba_marseille","lat":43.25265,"lon":5.39465,"is_reserved":false,"is_disabled":true,"rental_uris":{"android":"levelo://app?vid=9c77a68d-2e99-44e9-b903-950fb6644d35","ios":"levelo://app?vid=9c77a68d-2e99-44e9-b903-950fb6644d35"},"vehicle_type_id":"4","last_reported":1733425628,"current_range_meters":0,"station_id":"","pricing_plan_id":"cebpf4jnsgd1na2vs0mg"},{"bike_id":"315c7bc2-5174-410a-9110-4933c4ae6ab7","system_id":"levelo_inurba_marseille","lat":43.2511,"lon":5.40322,"is_reserved":false,"is_disabled":false,"rental_uris":{"android":"levelo://app?vid=315c7bc2-5174-410a-9110-4933c4ae6ab7","ios":"levelo://app?vid=315c7bc2-5174-410a-9110-4933c4ae6ab7"},"vehicle_type_id":"4","last_reported":1733425628,"current_range_meters":16400,"station_id":"ce4bhlh2rcd13ifvqgig","pricing_plan_id":"cebpf4jnsgd1na2vs0mg"},{"bike_id":"d3489d0a-d479-4163-8faf-7b84ac21b9c3","system_id":"levelo_inurba_marseille","lat":43.31081,"lon":5.42431,"is_reserved":false,"is_disabled":false,"rental_uris":{"android":"levelo://app?vid=d3489d0a-d479-4163-8faf-7b84ac21b9c3","ios":"levelo://app?vid=d3489d0a-d479-4163-8faf-7b84ac21b9c3"},"vehicle_type_id":"4","last_reported":1733425628,"current_range_meters":8800,"station_id":"ce4bhp92rcd13ifvqhag","pricing_plan_id":"cebpf4jnsgd1na2vs0mg"},{"bike_id":"e04227b7-ced6-4250-ae54-f72d289db29a","system_id":"levelo_inurba_marseille","lat":43.26192,"lon":5.37445,"is_reserved":false,"is_disabled":false,"rental_uris":{"android":"levelo://app?vid=e04227b7-ced6-4250-ae54-f72d289db29a","ios":"levelo://app?vid=e04227b7-ced6-4250-ae54-f72d289db29a"},"vehicle_type_id":"4","last_reported":1733425628,"current_range_meters":9600,"station_id":"ce4bhgp2rcd13ifvqfc0","pricing_plan_id":"cebpf4jnsgd1na2vs0mg"},{"bike_id":"477c8036-8af9-4621-ab14-d113fc5db190","system_id":"levelo_inurba_marseille","lat":43.27558,"lon":5.38415,"is_reserved":false,"is_disabled":false,"rental_uris":{"android":"levelo://app?vid=477c8036-8af9-4621-ab14-d113fc5db190","ios":"levelo://app?vid=477c8036-8af9-4621-ab14-d113fc5db190"},"vehicle_type_id":"4","last_reported":1733425628,"current_range_meters":14400,"station_id":"ce4bhh92rcd13ifvqfi0","pricing_plan_id":"cebpf4jnsgd1na2vs0mg"},{"bike_id":"d0c1876a-a4f3-4d77-a856-9a68b657c668","system_id":"levelo_inurba_marseille","lat":43.24065,"lon":5.37759,"is_reserved":false,"is_disabled":false,"rental_uris":{"android":"levelo://app?vid=d0c1876a-a4f3-4d77-a856-9a68b657c668","ios":"levelo://app?vid=d0c1876a-a4f3-4d77-a856-9a68b657c668"},"vehicle_type_id":"4","last_reported":1733425628,"current_range_meters":36800,"station_id":"ce4bhnp2rcd13ifvqgvg","pricing_plan_id":"cebpf4jnsgd1na2vs0mg"},{"bike_id":"83985555-c848-4b28-808f-8a7e7cf8519e","system_id":"levelo_inurba_marseille","lat":43.28115,"lon":5.43955,"is_reserved":false,"is_disabled":true,"rental_uris":{"android":"levelo://app?vid=83985555-c848-4b28-808f-8a7e7cf8519e","ios":"levelo://app?vid=83985555-c848-4b28-808f-8a7e7cf8519e"},"vehicle_type_id":"4","last_reported":1733425628,"current_range_meters":0,"station_id":"","pricing_plan_id":"cebpf4jnsgd1na2vs0mg"},{"bike_id":"76f22b2b-4267-4978-afb4-a70105660a0f","system_id":"levelo_inurba_marseille","lat":43.31224,"lon":5.36853,"is_reserved":false,"is_disabled":true,"rental_uris":{"android":"levelo://app?vid=76f22b2b-4267-4978-afb4-a70105660a0f","ios":"levelo://app?vid=76f22b2b-4267-4978-afb4-a70105660a0f"},"vehicle_type_id":"4","last_reported":1733425628,"current_range_meters":0,"station_id":"ce4bgl92rcd13ifvqbq0","pricing_plan_id":"cebpf4jnsgd1na2vs0mg"},{"bike_id":"01afb4bc-870a-4bb9-b0a6-be7ee7b649f2","system_id":"levelo_inurba_marseille","lat":43.2718,"lon":5.40985,"is_reserved":false,"is_disabled":false,"rental_uris":{"android":"levelo://app?vid=01afb4bc-870a-4bb9-b0a6-be7ee7b649f2","ios":"levelo://app?vid=01afb4bc-870a-4bb9-b0a6-be7ee7b649f2"},"vehicle_type_id":"4","last_reported":1733425628,"current_range_meters":38800,"station_id":"ce4bhl12rcd13ifvqgf0","pricing_plan_id":"cebpf4jnsgd1na2vs0mg"},{"bike_id":"903ec8f1-f4c3-441f-a117-ff7454fcb959","system_id":"levelo_inurba_marseille","lat":43.29478,"lon":5.39404,"is_reserved":false,"is_disabled":true,"rental_uris":{"android":"levelo://app?vid=903ec8f1-f4c3-441f-a117-ff7454fcb959","ios":"levelo://app?vid=903ec8f1-f4c3-441f-a117-ff7454fcb959"},"vehicle_type_id":"4","last_reported":1733425628,"current_range_meters":0,"station_id":"ce4bh292rcd13ifvqdf0","pricing_plan_id":"cebpf4jnsgd1na2vs0mg"},{"bike_id":"d19b3e5d-6dc5-4829-a312-b98428c3833c","system_id":"levelo_inurba_marseille","lat":43.29595,"lon":5.38101,"is_reserved":false,"is_disabled":false,"rental_uris":{"android":"levelo://app?vid=d19b3e5d-6dc5-4829-a312-b98428c3833c","ios":"levelo://app?vid=d19b3e5d-6dc5-4829-a312-b98428c3833c"},"vehicle_type_id":"4","last_reported":1733425628,"current_range_meters":21600,"station_id":"ce4bgl12rcd13ifvqbo0","pricing_plan_id":"cebpf4jnsgd1na2vs0mg"},{"bike_id":"3bbccc06-a35b-42c2-8a4a-d86df5770f64","system_id":"levelo_inurba_marseille","lat":43.32657,"lon":5.40988,"is_reserved":false,"is_disabled":false,"rental_uris":{"android":"levelo://app?vid=3bbccc06-a35b-42c2-8a4a-d86df5770f64","ios":"levelo://app?vid=3bbccc06-a35b-42c2-8a4a-d86df5770f64"},"vehicle_type_id":"4","last_reported":1733425628,"current_range_meters":4400,"station_id":"ce4bhpp2rcd13ifvqhgg","pricing_plan_id":"cebpf4jnsgd1na2vs0mg"},{"bike_id":"4a8e21e6-ec65-4655-92a4-dfff45da23c1","system_id":"levelo_inurba_marseille","lat":43.255,"lon":5.37644,"is_reserved":false,"is_disabled":false,"rental_uris":{"android":"levelo://app?vid=4a8e21e6-ec65-4655-92a4-dfff45da23c1","ios":"levelo://app?vid=4a8e21e6-ec65-4655-92a4-dfff45da23c1"},"vehicle_type_id":"4","last_reported":1733425628,"current_range_meters":38800,"station_id":"ce4bhh12rcd13ifvqff0","pricing_plan_id":"cebpf4jnsgd1na2vs0mg"},{"bike_id":"6ab515cf-0c36-470a-9dcf-74ce73ab72f2","system_id":"levelo_inurba_marseille","lat":43.28438,"lon":5.39182,"is_reserved":false,"is_disabled":false,"rental_uris":{"android":"levelo://app?vid=6ab515cf-0c36-470a-9dcf-74ce73ab72f2","ios":"levelo://app?vid=6ab515cf-0c36-470a-9dcf-74ce73ab72f2"},"vehicle_type_id":"4","last_reported":1733425628,"current_range_meters":38800,"station_id":"ce4bhoh2rcd13ifvqh5g","pricing_plan_id":"cebpf4jnsgd1na2vs0mg"},{"bike_id":"8e2aa1c8-ce17-45d4-85dc-de1ce7358d76","system_id":"levelo_inurba_marseille","lat":43.29526,"lon":5.38543,"is_reserved":false,"is_disabled":false,"rental_uris":{"android":"levelo://app?vid=8e2aa1c8-ce17-45d4-85dc-de1ce7358d76","ios":"levelo://app?vid=8e2aa1c8-ce17-45d4-85dc-de1ce7358d76"},"vehicle_type_id":"4","last_reported":1733425628,"current_range_meters":28400,"station_id":"ce4bgih2rcd13ifvqba0","pricing_plan_id":"cebpf4jnsgd1na2vs0mg"},{"bike_id":"020719d4-c29b-4e35-be4b-81ca932ddaa9","system_id":"levelo_inurba_marseille","lat":43.30241,"lon":5.4005,"is_reserved":false,"is_disabled":true,"rental_uris":{"android":"levelo://app?vid=020719d4-c29b-4e35-be4b-81ca932ddaa9","ios":"levelo://app?vid=020719d4-c29b-4e35-be4b-81ca932ddaa9"},"vehicle_type_id":"4","last_reported":1733425628,"current_range_meters":30000,"station_id":"ce4bgvh2rcd13ifvqcs0","pricing_plan_id":"cebpf4jnsgd1na2vs0mg"},{"bike_id":"c2f48d87-f9ca-423e-83ad-31085e4fc804","system_id":"levelo_inurba_marseille","lat":43.26684,"lon":5.38271,"is_reserved":false,"is_disabled":false,"rental_uris":{"android":"levelo://app?vid=c2f48d87-f9ca-423e-83ad-31085e4fc804","ios":"levelo://app?vid=c2f48d87-f9ca-423e-83ad-31085e4fc804"},"vehicle_type_id":"4","last_reported":1733425628,"current_range_meters":38800,"station_id":"ce4bhg92rcd13ifvqf90","pricing_plan_id":"cebpf4jnsgd1na2vs0mg"},{"bike_id":"a8264fb2-dad4-4c52-9230-cf80b47302d6","system_id":"levelo_inurba_marseille","lat":43.31991,"lon":5.38136,"is_reserved":false,"is_disabled":true,"rental_uris":{"android":"levelo://app?vid=a8264fb2-dad4-4c52-9230-cf80b47302d6","ios":"levelo://app?vid=a8264fb2-dad4-4c52-9230-cf80b47302d6"},"vehicle_type_id":"4","last_reported":1733425628,"current_range_meters":16400,"station_id":"ce4bhr12rcd13ifvqhpg","pricing_plan_id":"cebpf4jnsgd1na2vs0mg"},{"bike_id":"5edf82fa-e9d0-4d1f-98f1-37c98092771a","system_id":"levelo_inurba_marseille","lat":43.23191,"lon":5.35542,"is_reserved":false,"is_disabled":false,"rental_uris":{"android":"levelo://app?vid=5edf82fa-e9d0-4d1f-98f1-37c98092771a","ios":"levelo://app?vid=5edf82fa-e9d0-4d1f-98f1-37c98092771a"},"vehicle_type_id":"4","last_reported":1733425628,"current_range_meters":39200,"station_id":"ce4bhu92rcd13ifvqi70","pricing_plan_id":"cebpf4jnsgd1na2vs0mg"},{"bike_id":"5c8c1563-790f-413c-92a4-e9bf05f3db3f","system_id":"levelo_inurba_marseille","lat":43.24069,"lon":5.37759,"is_reserved":false,"is_disabled":false,"rental_uris":{"android":"levelo://app?vid=5c8c1563-790f-413c-92a4-e9bf05f3db3f","ios":"levelo://app?vid=5c8c1563-790f-413c-92a4-e9bf05f3db3f"},"vehicle_type_id":"4","last_reported":1733425628,"current_range_meters":13600,"station_id":"ce4bhnp2rcd13ifvqgvg","pricing_plan_id":"cebpf4jnsgd1na2vs0mg"},{"bike_id":"48f0f46a-d93c-4d8d-9d4e-bacc7cb94894","system_id":"levelo_inurba_marseille","lat":43.33017,"lon":5.3904,"is_reserved":false,"is_disabled":false,"rental_uris":{"android":"levelo://app?vid=48f0f46a-d93c-4d8d-9d4e-bacc7cb94894","ios":"levelo://app?vid=48f0f46a-d93c-4d8d-9d4e-bacc7cb94894"},"vehicle_type_id":"4","last_reported":1733425628,"current_range_meters":38800,"station_id":"ce4bhr92rcd13ifvqhrg","pricing_plan_id":"cebpf4jnsgd1na2vs0mg"},{"bike_id":"8f753f0a-2f10-4092-a331-86096a8eda7e","system_id":"levelo_inurba_marseille","lat":43.25115,"lon":5.40318,"is_reserved":false,"is_disabled":true,"rental_uris":{"android":"levelo://app?vid=8f753f0a-2f10-4092-a331-86096a8eda7e","ios":"levelo://app?vid=8f753f0a-2f10-4092-a331-86096a8eda7e"},"vehicle_type_id":"4","last_reported":1733425628,"current_range_meters":0,"station_id":"ce4bhlh2rcd13ifvqgig","pricing_plan_id":"cebpf4jnsgd1na2vs0mg"},{"bike_id":"41346609-e441-453a-b44b-4e7dd7d81ac6","system_id":"levelo_inurba_marseille","lat":43.26552,"lon":5.3728,"is_reserved":false,"is_disabled":false,"rental_uris":{"android":"levelo://app?vid=41346609-e441-453a-b44b-4e7dd7d81ac6","ios":"levelo://app?vid=41346609-e441-453a-b44b-4e7dd7d81ac6"},"vehicle_type_id":"4","last_reported":1733425628,"current_range_meters":22000,"station_id":"ce4bhg12rcd13ifvqf70","pricing_plan_id":"cebpf4jnsgd1na2vs0mg"},{"bike_id":"1fdd6986-fd3d-46ec-bb8e-b98d6a137718","system_id":"levelo_inurba_marseille","lat":43.31366,"lon":5.38495,"is_reserved":false,"is_disabled":false,"rental_uris":{"android":"levelo://app?vid=1fdd6986-fd3d-46ec-bb8e-b98d6a137718","ios":"levelo://app?vid=1fdd6986-fd3d-46ec-bb8e-b98d6a137718"},"vehicle_type_id":"4","last_reported":1733425628,"current_range_meters":31200,"station_id":"ce4bgt92rcd13ifvqcf0","pricing_plan_id":"cebpf4jnsgd1na2vs0mg"},{"bike_id":"506c09f4-6c9b-4fb3-996c-4c7f86dd75a8","system_id":"levelo_inurba_marseille","lat":43.25495,"lon":5.37646,"is_reserved":false,"is_disabled":true,"rental_uris":{"android":"levelo://app?vid=506c09f4-6c9b-4fb3-996c-4c7f86dd75a8","ios":"levelo://app?vid=506c09f4-6c9b-4fb3-996c-4c7f86dd75a8"},"vehicle_type_id":"4","last_reported":1733425628,"current_range_meters":0,"station_id":"ce4bhh12rcd13ifvqff0","pricing_plan_id":"cebpf4jnsgd1na2vs0mg"},{"bike_id":"30447de0-3055-47c6-abb6-5a70699a0c75","system_id":"levelo_inurba_marseille","lat":43.29578,"lon":5.39959,"is_reserved":false,"is_disabled":false,"rental_uris":{"android":"levelo://app?vid=30447de0-3055-47c6-abb6-5a70699a0c75","ios":"levelo://app?vid=30447de0-3055-47c6-abb6-5a70699a0c75"},"vehicle_type_id":"4","last_reported":1733425628,"current_range_meters":30000,"station_id":"ce4bh312rcd13ifvqdj0","pricing_plan_id":"cebpf4jnsgd1na2vs0mg"},{"bike_id":"f6710090-c0ab-46ae-af55-684904d7653b","system_id":"levelo_inurba_marseille","lat":43.29264,"lon":5.38428,"is_reserved":false,"is_disabled":false,"rental_uris":{"android":"levelo://app?vid=f6710090-c0ab-46ae-af55-684904d7653b","ios":"levelo://app?vid=f6710090-c0ab-46ae-af55-684904d7653b"},"vehicle_type_id":"4","last_reported":1733425628,"current_range_meters":26800,"station_id":"ce4bh692rcd13ifvqea0","pricing_plan_id":"cebpf4jnsgd1na2vs0mg"},{"bike_id":"9202c63e-372c-4469-a5c1-8e35757d1940","system_id":"levelo_inurba_marseille","lat":43.30053,"lon":5.38832,"is_reserved":false,"is_disabled":true,"rental_uris":{"android":"levelo://app?vid=9202c63e-372c-4469-a5c1-8e35757d1940","ios":"levelo://app?vid=9202c63e-372c-4469-a5c1-8e35757d1940"},"vehicle_type_id":"4","last_reported":1733425628,"current_range_meters":0,"station_id":"","pricing_plan_id":"cebpf4jnsgd1na2vs0mg"},{"bike_id":"4d75ea9c-71c5-44e7-a3ed-dd13a7651159","system_id":"levelo_inurba_marseille","lat":43.30796,"lon":5.43527,"is_reserved":false,"is_disabled":false,"rental_uris":{"android":"levelo://app?vid=4d75ea9c-71c5-44e7-a3ed-dd13a7651159","ios":"levelo://app?vid=4d75ea9c-71c5-44e7-a3ed-dd13a7651159"},"vehicle_type_id":"4","last_reported":1733425628,"current_range_meters":26000,"station_id":"ce4bhph2rcd13ifvqheg","pricing_plan_id":"cebpf4jnsgd1na2vs0mg"},{"bike_id":"6f913474-d23a-429c-afdf-6d1c342176fb","system_id":"levelo_inurba_marseille","lat":43.29417,"lon":5.38615,"is_reserved":false,"is_disabled":false,"rental_uris":{"android":"levelo://app?vid=6f913474-d23a-429c-afdf-6d1c342176fb","ios":"levelo://app?vid=6f913474-d23a-429c-afdf-6d1c342176fb"},"vehicle_type_id":"4","last_reported":1733425628,"current_range_meters":2800,"station_id":"ce4bh2h2rcd13ifvqdh0","pricing_plan_id":"cebpf4jnsgd1na2vs0mg"},{"bike_id":"1d1e223d-f3f8-4945-8923-f4bdebc5ab9c","system_id":"levelo_inurba_marseille","lat":43.32066,"lon":5.41522,"is_reserved":false,"is_disabled":true,"rental_uris":{"android":"levelo://app?vid=1d1e223d-f3f8-4945-8923-f4bdebc5ab9c","ios":"levelo://app?vid=1d1e223d-f3f8-4945-8923-f4bdebc5ab9c"},"vehicle_type_id":"4","last_reported":1733425628,"current_range_meters":38800,"station_id":"ce4bhq92rcd13ifvqhkg","pricing_plan_id":"cebpf4jnsgd1na2vs0mg"},{"bike_id":"813fffc9-70fa-4ba9-8586-fca452458199","system_id":"levelo_inurba_marseille","lat":43.29562,"lon":5.37529,"is_reserved":false,"is_disabled":false,"rental_uris":{"android":"levelo://app?vid=813fffc9-70fa-4ba9-8586-fca452458199","ios":"levelo://app?vid=813fffc9-70fa-4ba9-8586-fca452458199"},"vehicle_type_id":"4","last_reported":1733425628,"current_range_meters":36000,"station_id":"ce4bgh92rcd13ifvqb50","pricing_plan_id":"cebpf4jnsgd1na2vs0mg"},{"bike_id":"7eeba46d-29f6-46d6-bbb2-d714d5be030f","system_id":"levelo_inurba_marseille","lat":43.28887,"lon":5.38372,"is_reserved":false,"is_disabled":false,"rental_uris":{"android":"levelo://app?vid=7eeba46d-29f6-46d6-bbb2-d714d5be030f","ios":"levelo://app?vid=7eeba46d-29f6-46d6-bbb2-d714d5be030f"},"vehicle_type_id":"4","last_reported":1733425628,"current_range_meters":28400,"station_id":"","pricing_plan_id":"cebpf4jnsgd1na2vs0mg"},{"bike_id":"0deb7b46-3bee-4382-87b1-3984fb62457f","system_id":"levelo_inurba_marseille","lat":43.28741,"lon":5.38918,"is_reserved":false,"is_disabled":true,"rental_uris":{"android":"levelo://app?vid=0deb7b46-3bee-4382-87b1-3984fb62457f","ios":"levelo://app?vid=0deb7b46-3bee-4382-87b1-3984fb62457f"},"vehicle_type_id":"4","last_reported":1733425628,"current_range_meters":36000,"station_id":"","pricing_plan_id":"cebpf4jnsgd1na2vs0mg"},{"bike_id":"cf3e6ea0-09ff-406c-b357-28a6a6117f94","system_id":"levelo_inurba_marseille","lat":43.22935,"lon":5.35381,"is_reserved":false,"is_disabled":false,"rental_uris":{"android":"levelo://app?vid=cf3e6ea0-09ff-406c-b357-28a6a6117f94","ios":"levelo://app?vid=cf3e6ea0-09ff-406c-b357-28a6a6117f94"},"vehicle_type_id":"4","last_reported":1733425628,"current_range_meters":38800,"station_id":"cpo3532slgdg3j2ikp40","pricing_plan_id":"cebpf4jnsgd1na2vs0mg"},{"bike_id":"285f2b15-1ff4-4bf4-9ef2-1c7b546f7bb5","system_id":"levelo_inurba_marseille","lat":43.248,"lon":5.37452,"is_reserved":false,"is_disabled":false,"rental_uris":{"android":"levelo://app?vid=285f2b15-1ff4-4bf4-9ef2-1c7b546f7bb5","ios":"levelo://app?vid=285f2b15-1ff4-4bf4-9ef2-1c7b546f7bb5"},"vehicle_type_id":"4","last_reported":1733425628,"current_range_meters":31200,"station_id":"ce4bhgh2rcd13ifvqfb0","pricing_plan_id":"cebpf4jnsgd1na2vs0mg"},{"bike_id":"32d85675-c134-4b11-ad74-96c6122c9ab0","system_id":"levelo_inurba_marseille","lat":43.30435,"lon":5.38886,"is_reserved":false,"is_disabled":false,"rental_uris":{"android":"levelo://app?vid=32d85675-c134-4b11-ad74-96c6122c9ab0","ios":"levelo://app?vid=32d85675-c134-4b11-ad74-96c6122c9ab0"},"vehicle_type_id":"4","last_reported":1733425628,"current_range_meters":11600,"station_id":"ce4bgk12rcd13ifvqbi0","pricing_plan_id":"cebpf4jnsgd1na2vs0mg"},{"bike_id":"23cb901a-643e-4349-8339-2e0c6f3bbc7d","system_id":"levelo_inurba_marseille","lat":43.284474,"lon":5.391947,"is_reserved":false,"is_disabled":true,"rental_uris":{"android":"levelo://app?vid=23cb901a-643e-4349-8339-2e0c6f3bbc7d","ios":"levelo://app?vid=23cb901a-643e-4349-8339-2e0c6f3bbc7d"},"vehicle_type_id":"4","last_reported":1733425628,"current_range_meters":0,"station_id":"ce4bhoh2rcd13ifvqh5g","pricing_plan_id":"cebpf4jnsgd1na2vs0mg"},{"bike_id":"719e509a-25e4-4b1b-9830-f708d85d7593","system_id":"levelo_inurba_marseille","lat":43.29404,"lon":5.37451,"is_reserved":false,"is_disabled":true,"rental_uris":{"android":"levelo://app?vid=719e509a-25e4-4b1b-9830-f708d85d7593","ios":"levelo://app?vid=719e509a-25e4-4b1b-9830-f708d85d7593"},"vehicle_type_id":"4","last_reported":1733425628,"current_range_meters":0,"station_id":"","pricing_plan_id":"cebpf4jnsgd1na2vs0mg"},{"bike_id":"ad104f85-8dde-4a89-a631-5d2f6d1842ec","system_id":"levelo_inurba_marseille","lat":43.25118,"lon":5.40313,"is_reserved":false,"is_disabled":false,"rental_uris":{"android":"levelo://app?vid=ad104f85-8dde-4a89-a631-5d2f6d1842ec","ios":"levelo://app?vid=ad104f85-8dde-4a89-a631-5d2f6d1842ec"},"vehicle_type_id":"4","last_reported":1733425628,"current_range_meters":10000,"station_id":"ce4bhlh2rcd13ifvqgig","pricing_plan_id":"cebpf4jnsgd1na2vs0mg"},{"bike_id":"162aa6ef-3fd9-4c6d-b68d-25afcd8b5816","system_id":"levelo_inurba_marseille","lat":43.29433,"lon":5.39761,"is_reserved":false,"is_disabled":false,"rental_uris":{"android":"levelo://app?vid=162aa6ef-3fd9-4c6d-b68d-25afcd8b5816","ios":"levelo://app?vid=162aa6ef-3fd9-4c6d-b68d-25afcd8b5816"},"vehicle_type_id":"4","last_reported":1733425628,"current_range_meters":31200,"station_id":"ce4bh3h2rcd13ifvqdo0","pricing_plan_id":"cebpf4jnsgd1na2vs0mg"},{"bike_id":"a33ff461-64e3-4300-8ce1-c5ea20047de2","system_id":"levelo_inurba_marseille","lat":43.30237,"lon":5.40042,"is_reserved":false,"is_disabled":false,"rental_uris":{"android":"levelo://app?vid=a33ff461-64e3-4300-8ce1-c5ea20047de2","ios":"levelo://app?vid=a33ff461-64e3-4300-8ce1-c5ea20047de2"},"vehicle_type_id":"4","last_reported":1733425628,"current_range_meters":9600,"station_id":"ce4bgvh2rcd13ifvqcs0","pricing_plan_id":"cebpf4jnsgd1na2vs0mg"},{"bike_id":"04de0acf-2347-4b27-b5f4-4f63ae6f064a","system_id":"levelo_inurba_marseille","lat":43.291647,"lon":5.371583,"is_reserved":false,"is_disabled":false,"rental_uris":{"android":"levelo://app?vid=04de0acf-2347-4b27-b5f4-4f63ae6f064a","ios":"levelo://app?vid=04de0acf-2347-4b27-b5f4-4f63ae6f064a"},"vehicle_type_id":"4","last_reported":1733425628,"current_range_meters":38800,"station_id":"ce4bha92rcd13ifvqeh0","pricing_plan_id":"cebpf4jnsgd1na2vs0mg"},{"bike_id":"5dcf808c-6709-434c-991e-442ddb976190","system_id":"levelo_inurba_marseille","lat":43.2621,"lon":5.37441,"is_reserved":false,"is_disabled":false,"rental_uris":{"android":"levelo://app?vid=5dcf808c-6709-434c-991e-442ddb976190","ios":"levelo://app?vid=5dcf808c-6709-434c-991e-442ddb976190"},"vehicle_type_id":"4","last_reported":1733425628,"current_range_meters":25600,"station_id":"ce4bhgp2rcd13ifvqfc0","pricing_plan_id":"cebpf4jnsgd1na2vs0mg"},{"bike_id":"3eac95d3-b5a4-4bbd-8508-0debbfb4ff6c","system_id":"levelo_inurba_marseille","lat":43.28616,"lon":5.35102,"is_reserved":false,"is_disabled":false,"rental_uris":{"android":"levelo://app?vid=3eac95d3-b5a4-4bbd-8508-0debbfb4ff6c","ios":"levelo://app?vid=3eac95d3-b5a4-4bbd-8508-0debbfb4ff6c"},"vehicle_type_id":"4","last_reported":1733425628,"current_range_meters":38400,"station_id":"ce4bhch2rcd13ifvqeug","pricing_plan_id":"cebpf4jnsgd1na2vs0mg"},{"bike_id":"6a7ba481-a30d-474a-8bb7-4161477695ef","system_id":"levelo_inurba_marseille","lat":43.31354,"lon":5.385,"is_reserved":false,"is_disabled":false,"rental_uris":{"android":"levelo://app?vid=6a7ba481-a30d-474a-8bb7-4161477695ef","ios":"levelo://app?vid=6a7ba481-a30d-474a-8bb7-4161477695ef"},"vehicle_type_id":"4","last_reported":1733425628,"current_range_meters":28400,"station_id":"ce4bgt92rcd13ifvqcf0","pricing_plan_id":"cebpf4jnsgd1na2vs0mg"},{"bike_id":"b27994f0-39f1-4888-861a-0dd6775a480c","system_id":"levelo_inurba_marseille","lat":43.27911,"lon":5.39578,"is_reserved":false,"is_disabled":false,"rental_uris":{"android":"levelo://app?vid=b27994f0-39f1-4888-861a-0dd6775a480c","ios":"levelo://app?vid=b27994f0-39f1-4888-861a-0dd6775a480c"},"vehicle_type_id":"4","last_reported":1733425628,"current_range_meters":34000,"station_id":"ce4bhf92rcd13ifvqf40","pricing_plan_id":"cebpf4jnsgd1na2vs0mg"},{"bike_id":"3ded800b-3ec6-41df-add9-0b709511ec15","system_id":"levelo_inurba_marseille","lat":43.302163,"lon":5.394861,"is_reserved":false,"is_disabled":true,"rental_uris":{"android":"levelo://app?vid=3ded800b-3ec6-41df-add9-0b709511ec15","ios":"levelo://app?vid=3ded800b-3ec6-41df-add9-0b709511ec15"},"vehicle_type_id":"4","last_reported":1733425628,"current_range_meters":0,"station_id":"ce4bh0p2rcd13ifvqd70","pricing_plan_id":"cebpf4jnsgd1na2vs0mg"},{"bike_id":"b01ba929-1580-401b-973d-e4a15d746d4a","system_id":"levelo_inurba_marseille","lat":43.22929,"lon":5.35379,"is_reserved":false,"is_disabled":false,"rental_uris":{"android":"levelo://app?vid=b01ba929-1580-401b-973d-e4a15d746d4a","ios":"levelo://app?vid=b01ba929-1580-401b-973d-e4a15d746d4a"},"vehicle_type_id":"4","last_reported":1733425628,"current_range_meters":13600,"station_id":"cpo3532slgdg3j2ikp40","pricing_plan_id":"cebpf4jnsgd1na2vs0mg"},{"bike_id":"7519ef7a-d08a-49a3-a099-389c2c29dff3","system_id":"levelo_inurba_marseille","lat":43.313365,"lon":5.37038,"is_reserved":false,"is_disabled":true,"rental_uris":{"android":"levelo://app?vid=7519ef7a-d08a-49a3-a099-389c2c29dff3","ios":"levelo://app?vid=7519ef7a-d08a-49a3-a099-389c2c29dff3"},"vehicle_type_id":"4","last_reported":1733425628,"current_range_meters":800,"station_id":"","pricing_plan_id":"cebpf4jnsgd1na2vs0mg"},{"bike_id":"8c1e28b4-904f-48d7-ba6d-d3b5b5d05922","system_id":"levelo_inurba_marseille","lat":43.29267,"lon":5.4011,"is_reserved":false,"is_disabled":true,"rental_uris":{"android":"levelo://app?vid=8c1e28b4-904f-48d7-ba6d-d3b5b5d05922","ios":"levelo://app?vid=8c1e28b4-904f-48d7-ba6d-d3b5b5d05922"},"vehicle_type_id":"4","last_reported":1733425628,"current_range_meters":33600,"station_id":"ce4bh312rcd13ifvqdk0","pricing_plan_id":"cebpf4jnsgd1na2vs0mg"},{"bike_id":"d6b1ec26-9586-4206-93f9-f392281c6a50","system_id":"levelo_inurba_marseille","lat":43.29785,"lon":5.37103,"is_reserved":false,"is_disabled":true,"rental_uris":{"android":"levelo://app?vid=d6b1ec26-9586-4206-93f9-f392281c6a50","ios":"levelo://app?vid=d6b1ec26-9586-4206-93f9-f392281c6a50"},"vehicle_type_id":"4","last_reported":1733425628,"current_range_meters":800,"station_id":"ce4bgop2rcd13ifvqc1g","pricing_plan_id":"cebpf4jnsgd1na2vs0mg"},{"bike_id":"db50fb3c-78a2-4944-bbf7-526c0e8dd300","system_id":"levelo_inurba_marseille","lat":43.29628,"lon":5.40597,"is_reserved":false,"is_disabled":false,"rental_uris":{"android":"levelo://app?vid=db50fb3c-78a2-4944-bbf7-526c0e8dd300","ios":"levelo://app?vid=db50fb3c-78a2-4944-bbf7-526c0e8dd300"},"vehicle_type_id":"4","last_reported":1733425628,"current_range_meters":38400,"station_id":"ce4bh0h2rcd13ifvqd60","pricing_plan_id":"cebpf4jnsgd1na2vs0mg"},{"bike_id":"1d9a4b4c-056a-4257-82be-cdf0089ad0fc","system_id":"levelo_inurba_marseille","lat":43.26939,"lon":5.40252,"is_reserved":false,"is_disabled":false,"rental_uris":{"android":"levelo://app?vid=1d9a4b4c-056a-4257-82be-cdf0089ad0fc","ios":"levelo://app?vid=1d9a4b4c-056a-4257-82be-cdf0089ad0fc"},"vehicle_type_id":"4","last_reported":1733425628,"current_range_meters":39200,"station_id":"cjm6bp8fraef2m0cb0m0","pricing_plan_id":"cebpf4jnsgd1na2vs0mg"},{"bike_id":"010f1ddc-a5dd-4595-9905-ebf82317a65f","system_id":"levelo_inurba_marseille","lat":43.33025,"lon":5.39037,"is_reserved":false,"is_disabled":false,"rental_uris":{"android":"levelo://app?vid=010f1ddc-a5dd-4595-9905-ebf82317a65f","ios":"levelo://app?vid=010f1ddc-a5dd-4595-9905-ebf82317a65f"},"vehicle_type_id":"4","last_reported":1733425628,"current_range_meters":38800,"station_id":"ce4bhr92rcd13ifvqhrg","pricing_plan_id":"cebpf4jnsgd1na2vs0mg"},{"bike_id":"71991769-7b79-468e-aa16-533cfe544033","system_id":"levelo_inurba_marseille","lat":43.29261,"lon":5.38444,"is_reserved":false,"is_disabled":false,"rental_uris":{"android":"levelo://app?vid=71991769-7b79-468e-aa16-533cfe544033","ios":"levelo://app?vid=71991769-7b79-468e-aa16-533cfe544033"},"vehicle_type_id":"4","last_reported":1733425628,"current_range_meters":38800,"station_id":"ce4bh692rcd13ifvqea0","pricing_plan_id":"cebpf4jnsgd1na2vs0mg"},{"bike_id":"a5672787-1503-4a21-a827-057a8be34e26","system_id":"levelo_inurba_marseille","lat":43.29603,"lon":5.3811,"is_reserved":false,"is_disabled":false,"rental_uris":{"android":"levelo://app?vid=a5672787-1503-4a21-a827-057a8be34e26","ios":"levelo://app?vid=a5672787-1503-4a21-a827-057a8be34e26"},"vehicle_type_id":"4","last_reported":1733425628,"current_range_meters":37600,"station_id":"ce4bgl12rcd13ifvqbo0","pricing_plan_id":"cebpf4jnsgd1na2vs0mg"},{"bike_id":"14757c55-869a-4b0b-afac-0faeea29372b","system_id":"levelo_inurba_marseille","lat":43.330292,"lon":5.390349,"is_reserved":false,"is_disabled":false,"rental_uris":{"android":"levelo://app?vid=14757c55-869a-4b0b-afac-0faeea29372b","ios":"levelo://app?vid=14757c55-869a-4b0b-afac-0faeea29372b"},"vehicle_type_id":"4","last_reported":1733425628,"current_range_meters":38800,"station_id":"ce4bhr92rcd13ifvqhrg","pricing_plan_id":"cebpf4jnsgd1na2vs0mg"},{"bike_id":"d68ce2c1-f9cc-46cc-8d04-2eb7462a4434","system_id":"levelo_inurba_marseille","lat":43.28573,"lon":5.39483,"is_reserved":false,"is_disabled":false,"rental_uris":{"android":"levelo://app?vid=d68ce2c1-f9cc-46cc-8d04-2eb7462a4434","ios":"levelo://app?vid=d68ce2c1-f9cc-46cc-8d04-2eb7462a4434"},"vehicle_type_id":"4","last_reported":1733425628,"current_range_meters":10800,"station_id":"ce4bh292rcd13ifvqdg0","pricing_plan_id":"cebpf4jnsgd1na2vs0mg"},{"bike_id":"1f41adbd-b25d-46c6-8a53-e4ecdbbf967f","system_id":"levelo_inurba_marseille","lat":43.24081,"lon":5.37744,"is_reserved":false,"is_disabled":false,"rental_uris":{"android":"levelo://app?vid=1f41adbd-b25d-46c6-8a53-e4ecdbbf967f","ios":"levelo://app?vid=1f41adbd-b25d-46c6-8a53-e4ecdbbf967f"},"vehicle_type_id":"4","last_reported":1733425628,"current_range_meters":19600,"station_id":"ce4bhnp2rcd13ifvqgvg","pricing_plan_id":"cebpf4jnsgd1na2vs0mg"},{"bike_id":"3e592e74-64b6-427b-a9f3-9c85b0d07de7","system_id":"levelo_inurba_marseille","lat":43.23181,"lon":5.39991,"is_reserved":false,"is_disabled":false,"rental_uris":{"android":"levelo://app?vid=3e592e74-64b6-427b-a9f3-9c85b0d07de7","ios":"levelo://app?vid=3e592e74-64b6-427b-a9f3-9c85b0d07de7"},"vehicle_type_id":"4","last_reported":1733425628,"current_range_meters":28400,"station_id":"ce4bhn12rcd13ifvqgqg","pricing_plan_id":"cebpf4jnsgd1na2vs0mg"},{"bike_id":"0aafc038-63a7-465c-97be-6a28dd91a638","system_id":"levelo_inurba_marseille","lat":43.24179,"lon":5.3973,"is_reserved":false,"is_disabled":false,"rental_uris":{"android":"levelo://app?vid=0aafc038-63a7-465c-97be-6a28dd91a638","ios":"levelo://app?vid=0aafc038-63a7-465c-97be-6a28dd91a638"},"vehicle_type_id":"4","last_reported":1733425628,"current_range_meters":6800,"station_id":"ce4bhn12rcd13ifvqgpg","pricing_plan_id":"cebpf4jnsgd1na2vs0mg"},{"bike_id":"53a3209b-fc7a-4d40-ac43-8c9336f430b9","system_id":"levelo_inurba_marseille","lat":43.30432,"lon":5.38888,"is_reserved":false,"is_disabled":false,"rental_uris":{"android":"levelo://app?vid=53a3209b-fc7a-4d40-ac43-8c9336f430b9","ios":"levelo://app?vid=53a3209b-fc7a-4d40-ac43-8c9336f430b9"},"vehicle_type_id":"4","last_reported":1733425628,"current_range_meters":36800,"station_id":"ce4bgk12rcd13ifvqbi0","pricing_plan_id":"cebpf4jnsgd1na2vs0mg"},{"bike_id":"710c9d13-8a64-4ca7-ba64-fd3194714b19","system_id":"levelo_inurba_marseille","lat":43.30795,"lon":5.3733,"is_reserved":false,"is_disabled":false,"rental_uris":{"android":"levelo://app?vid=710c9d13-8a64-4ca7-ba64-fd3194714b19","ios":"levelo://app?vid=710c9d13-8a64-4ca7-ba64-fd3194714b19"},"vehicle_type_id":"4","last_reported":1733425628,"current_range_meters":20800,"station_id":"","pricing_plan_id":"cebpf4jnsgd1na2vs0mg"},{"bike_id":"a4b9e425-64b8-4ce2-a5ab-5fcc5d1230a4","system_id":"levelo_inurba_marseille","lat":43.32105,"lon":5.36767,"is_reserved":false,"is_disabled":false,"rental_uris":{"android":"levelo://app?vid=a4b9e425-64b8-4ce2-a5ab-5fcc5d1230a4","ios":"levelo://app?vid=a4b9e425-64b8-4ce2-a5ab-5fcc5d1230a4"},"vehicle_type_id":"4","last_reported":1733425628,"current_range_meters":35200,"station_id":"ce4bhrh2rcd13ifvqhug","pricing_plan_id":"cebpf4jnsgd1na2vs0mg"},{"bike_id":"fd98eaa9-4d55-4e7b-aa90-0d14707466d9","system_id":"levelo_inurba_marseille","lat":43.337444,"lon":5.374475,"is_reserved":false,"is_disabled":true,"rental_uris":{"android":"levelo://app?vid=fd98eaa9-4d55-4e7b-aa90-0d14707466d9","ios":"levelo://app?vid=fd98eaa9-4d55-4e7b-aa90-0d14707466d9"},"vehicle_type_id":"4","last_reported":1733425628,"current_range_meters":0,"station_id":"","pricing_plan_id":"cebpf4jnsgd1na2vs0mg"},{"bike_id":"7739e7e5-bcce-43a6-9d41-f90a9ba836ed","system_id":"levelo_inurba_marseille","lat":43.29589,"lon":5.38098,"is_reserved":false,"is_disabled":true,"rental_uris":{"android":"levelo://app?vid=7739e7e5-bcce-43a6-9d41-f90a9ba836ed","ios":"levelo://app?vid=7739e7e5-bcce-43a6-9d41-f90a9ba836ed"},"vehicle_type_id":"4","last_reported":1733425628,"current_range_meters":0,"station_id":"ce4bgl12rcd13ifvqbo0","pricing_plan_id":"cebpf4jnsgd1na2vs0mg"},{"bike_id":"e25dc6e3-1f83-4e32-ad60-7f8ea4cb5b47","system_id":"levelo_inurba_marseille","lat":43.29794,"lon":5.39351,"is_reserved":false,"is_disabled":true,"rental_uris":{"android":"levelo://app?vid=e25dc6e3-1f83-4e32-ad60-7f8ea4cb5b47","ios":"levelo://app?vid=e25dc6e3-1f83-4e32-ad60-7f8ea4cb5b47"},"vehicle_type_id":"4","last_reported":1733425628,"current_range_meters":0,"station_id":"chh1huq6cuj3fo74tm60","pricing_plan_id":"cebpf4jnsgd1na2vs0mg"},{"bike_id":"9f166179-3cc0-42ca-860b-06242525cca2","system_id":"levelo_inurba_marseille","lat":43.31996,"lon":5.41578,"is_reserved":false,"is_disabled":false,"rental_uris":{"android":"levelo://app?vid=9f166179-3cc0-42ca-860b-06242525cca2","ios":"levelo://app?vid=9f166179-3cc0-42ca-860b-06242525cca2"},"vehicle_type_id":"4","last_reported":1733425628,"current_range_meters":33200,"station_id":"","pricing_plan_id":"cebpf4jnsgd1na2vs0mg"},{"bike_id":"cbf578cc-cc2f-4189-9de2-b212a0c21f11","system_id":"levelo_inurba_marseille","lat":43.29518,"lon":5.39017,"is_reserved":false,"is_disabled":false,"rental_uris":{"android":"levelo://app?vid=cbf578cc-cc2f-4189-9de2-b212a0c21f11","ios":"levelo://app?vid=cbf578cc-cc2f-4189-9de2-b212a0c21f11"},"vehicle_type_id":"4","last_reported":1733425628,"current_range_meters":23200,"station_id":"ce4bh3p2rcd13ifvqdp0","pricing_plan_id":"cebpf4jnsgd1na2vs0mg"},{"bike_id":"c2d8a1c2-d166-4a36-b32f-beec95c93bd5","system_id":"levelo_inurba_marseille","lat":43.33756,"lon":5.37459,"is_reserved":false,"is_disabled":false,"rental_uris":{"android":"levelo://app?vid=c2d8a1c2-d166-4a36-b32f-beec95c93bd5","ios":"levelo://app?vid=c2d8a1c2-d166-4a36-b32f-beec95c93bd5"},"vehicle_type_id":"4","last_reported":1733425628,"current_range_meters":8400,"station_id":"","pricing_plan_id":"cebpf4jnsgd1na2vs0mg"},{"bike_id":"c9dce079-8ccc-43f8-8d7b-142ecf67a18e","system_id":"levelo_inurba_marseille","lat":43.28458,"lon":5.35909,"is_reserved":false,"is_disabled":false,"rental_uris":{"android":"levelo://app?vid=c9dce079-8ccc-43f8-8d7b-142ecf67a18e","ios":"levelo://app?vid=c9dce079-8ccc-43f8-8d7b-142ecf67a18e"},"vehicle_type_id":"4","last_reported":1733425628,"current_range_meters":33600,"station_id":"ce4bhah2rcd13ifvqei0","pricing_plan_id":"cebpf4jnsgd1na2vs0mg"},{"bike_id":"c452b77b-6320-4d7e-bff7-1aa7805d0b04","system_id":"levelo_inurba_marseille","lat":43.28079,"lon":5.39645,"is_reserved":false,"is_disabled":false,"rental_uris":{"android":"levelo://app?vid=c452b77b-6320-4d7e-bff7-1aa7805d0b04","ios":"levelo://app?vid=c452b77b-6320-4d7e-bff7-1aa7805d0b04"},"vehicle_type_id":"4","last_reported":1733425628,"current_range_meters":6400,"station_id":"ce4bho12rcd13ifvqh2g","pricing_plan_id":"cebpf4jnsgd1na2vs0mg"},{"bike_id":"ca2ec074-de60-4930-9130-00bcd269391b","system_id":"levelo_inurba_marseille","lat":43.28453,"lon":5.35899,"is_reserved":false,"is_disabled":false,"rental_uris":{"android":"levelo://app?vid=ca2ec074-de60-4930-9130-00bcd269391b","ios":"levelo://app?vid=ca2ec074-de60-4930-9130-00bcd269391b"},"vehicle_type_id":"4","last_reported":1733425628,"current_range_meters":22800,"station_id":"ce4bhah2rcd13ifvqei0","pricing_plan_id":"cebpf4jnsgd1na2vs0mg"},{"bike_id":"260ca9c6-2da4-4db4-91e3-5df4d5d65a4c","system_id":"levelo_inurba_marseille","lat":43.29065,"lon":5.37161,"is_reserved":false,"is_disabled":false,"rental_uris":{"android":"levelo://app?vid=260ca9c6-2da4-4db4-91e3-5df4d5d65a4c","ios":"levelo://app?vid=260ca9c6-2da4-4db4-91e3-5df4d5d65a4c"},"vehicle_type_id":"4","last_reported":1733425628,"current_range_meters":36000,"station_id":"ce4bh5p2rcd13ifvqe4g","pricing_plan_id":"cebpf4jnsgd1na2vs0mg"},{"bike_id":"e8d25b9b-2f6f-4f7f-8bc4-2102c4e24b79","system_id":"levelo_inurba_marseille","lat":43.284353,"lon":5.391814,"is_reserved":false,"is_disabled":false,"rental_uris":{"android":"levelo://app?vid=e8d25b9b-2f6f-4f7f-8bc4-2102c4e24b79","ios":"levelo://app?vid=e8d25b9b-2f6f-4f7f-8bc4-2102c4e24b79"},"vehicle_type_id":"4","last_reported":1733425628,"current_range_meters":38800,"station_id":"ce4bhoh2rcd13ifvqh5g","pricing_plan_id":"cebpf4jnsgd1na2vs0mg"},{"bike_id":"dce35d6a-08b0-4b4c-b89b-7b5e69e85874","system_id":"levelo_inurba_marseille","lat":43.32435,"lon":5.36371,"is_reserved":false,"is_disabled":false,"rental_uris":{"android":"levelo://app?vid=dce35d6a-08b0-4b4c-b89b-7b5e69e85874","ios":"levelo://app?vid=dce35d6a-08b0-4b4c-b89b-7b5e69e85874"},"vehicle_type_id":"4","last_reported":1733425628,"current_range_meters":8800,"station_id":"","pricing_plan_id":"cebpf4jnsgd1na2vs0mg"},{"bike_id":"37727576-2d28-4525-b065-40affdaee0f8","system_id":"levelo_inurba_marseille","lat":43.32367,"lon":5.38882,"is_reserved":false,"is_disabled":false,"rental_uris":{"android":"levelo://app?vid=37727576-2d28-4525-b065-40affdaee0f8","ios":"levelo://app?vid=37727576-2d28-4525-b065-40affdaee0f8"},"vehicle_type_id":"4","last_reported":1733425628,"current_range_meters":38400,"station_id":"ce4bhqp2rcd13ifvqhog","pricing_plan_id":"cebpf4jnsgd1na2vs0mg"},{"bike_id":"a2716c4a-53c2-4192-997b-e5f968d1365d","system_id":"levelo_inurba_marseille","lat":43.28849,"lon":5.39302,"is_reserved":false,"is_disabled":false,"rental_uris":{"android":"levelo://app?vid=a2716c4a-53c2-4192-997b-e5f968d1365d","ios":"levelo://app?vid=a2716c4a-53c2-4192-997b-e5f968d1365d"},"vehicle_type_id":"4","last_reported":1733425628,"current_range_meters":36800,"station_id":"ce4bh2p2rcd13ifvqdi0","pricing_plan_id":"cebpf4jnsgd1na2vs0mg"},{"bike_id":"737bdef3-e4f9-4d42-9b3b-45164c8dc58f","system_id":"levelo_inurba_marseille","lat":43.24065,"lon":5.37736,"is_reserved":false,"is_disabled":true,"rental_uris":{"android":"levelo://app?vid=737bdef3-e4f9-4d42-9b3b-45164c8dc58f","ios":"levelo://app?vid=737bdef3-e4f9-4d42-9b3b-45164c8dc58f"},"vehicle_type_id":"4","last_reported":1733425628,"current_range_meters":11200,"station_id":"ce4bhnp2rcd13ifvqgvg","pricing_plan_id":"cebpf4jnsgd1na2vs0mg"},{"bike_id":"4a53085c-edee-457d-baad-2a365f253951","system_id":"levelo_inurba_marseille","lat":43.31116,"lon":5.37757,"is_reserved":false,"is_disabled":true,"rental_uris":{"android":"levelo://app?vid=4a53085c-edee-457d-baad-2a365f253951","ios":"levelo://app?vid=4a53085c-edee-457d-baad-2a365f253951"},"vehicle_type_id":"4","last_reported":1733425628,"current_range_meters":0,"station_id":"ce4bgt92rcd13ifvqcg0","pricing_plan_id":"cebpf4jnsgd1na2vs0mg"},{"bike_id":"bd019733-b285-43d6-9d13-b5c534a12ecb","system_id":"levelo_inurba_marseille","lat":43.31047,"lon":5.38756,"is_reserved":false,"is_disabled":false,"rental_uris":{"android":"levelo://app?vid=bd019733-b285-43d6-9d13-b5c534a12ecb","ios":"levelo://app?vid=bd019733-b285-43d6-9d13-b5c534a12ecb"},"vehicle_type_id":"4","last_reported":1733425628,"current_range_meters":38800,"station_id":"","pricing_plan_id":"cebpf4jnsgd1na2vs0mg"},{"bike_id":"caef05e5-3985-4194-8ee8-a708119875f7","system_id":"levelo_inurba_marseille","lat":43.24385,"lon":5.37062,"is_reserved":false,"is_disabled":false,"rental_uris":{"android":"levelo://app?vid=caef05e5-3985-4194-8ee8-a708119875f7","ios":"levelo://app?vid=caef05e5-3985-4194-8ee8-a708119875f7"},"vehicle_type_id":"4","last_reported":1733425628,"current_range_meters":22400,"station_id":"ce4bhhh2rcd13ifvqfk0","pricing_plan_id":"cebpf4jnsgd1na2vs0mg"},{"bike_id":"56857096-9e33-440c-a561-11d72612acad","system_id":"levelo_inurba_marseille","lat":43.29415,"lon":5.38621,"is_reserved":false,"is_disabled":true,"rental_uris":{"android":"levelo://app?vid=56857096-9e33-440c-a561-11d72612acad","ios":"levelo://app?vid=56857096-9e33-440c-a561-11d72612acad"},"vehicle_type_id":"4","last_reported":1733425628,"current_range_meters":1200,"station_id":"ce4bh2h2rcd13ifvqdh0","pricing_plan_id":"cebpf4jnsgd1na2vs0mg"},{"bike_id":"5d0d87c6-624c-49c3-a382-3c51a5b0a87e","system_id":"levelo_inurba_marseille","lat":43.32364,"lon":5.38878,"is_reserved":false,"is_disabled":false,"rental_uris":{"android":"levelo://app?vid=5d0d87c6-624c-49c3-a382-3c51a5b0a87e","ios":"levelo://app?vid=5d0d87c6-624c-49c3-a382-3c51a5b0a87e"},"vehicle_type_id":"4","last_reported":1733425628,"current_range_meters":21600,"station_id":"ce4bhqp2rcd13ifvqhog","pricing_plan_id":"cebpf4jnsgd1na2vs0mg"},{"bike_id":"f963ce32-e074-4d93-8dde-a731e687b210","system_id":"levelo_inurba_marseille","lat":43.28918,"lon":5.38399,"is_reserved":false,"is_disabled":false,"rental_uris":{"android":"levelo://app?vid=f963ce32-e074-4d93-8dde-a731e687b210","ios":"levelo://app?vid=f963ce32-e074-4d93-8dde-a731e687b210"},"vehicle_type_id":"4","last_reported":1733425628,"current_range_meters":6800,"station_id":"ce4bh612rcd13ifvqe6g","pricing_plan_id":"cebpf4jnsgd1na2vs0mg"},{"bike_id":"e53f851f-4fe2-4f42-8246-21beb518723a","system_id":"levelo_inurba_marseille","lat":43.270604,"lon":5.40254,"is_reserved":false,"is_disabled":false,"rental_uris":{"android":"levelo://app?vid=e53f851f-4fe2-4f42-8246-21beb518723a","ios":"levelo://app?vid=e53f851f-4fe2-4f42-8246-21beb518723a"},"vehicle_type_id":"4","last_reported":1733425628,"current_range_meters":7200,"station_id":"ce4bhk92rcd13ifvqgc0","pricing_plan_id":"cebpf4jnsgd1na2vs0mg"},{"bike_id":"bdc3ba48-6a70-4875-8d2c-94d69c992388","system_id":"levelo_inurba_marseille","lat":43.28418,"lon":5.34974,"is_reserved":false,"is_disabled":false,"rental_uris":{"android":"levelo://app?vid=bdc3ba48-6a70-4875-8d2c-94d69c992388","ios":"levelo://app?vid=bdc3ba48-6a70-4875-8d2c-94d69c992388"},"vehicle_type_id":"4","last_reported":1733425628,"current_range_meters":38800,"station_id":"","pricing_plan_id":"cebpf4jnsgd1na2vs0mg"},{"bike_id":"21c61b3f-2ae1-41ed-96e8-21fc1b01a387","system_id":"levelo_inurba_marseille","lat":43.30083,"lon":5.37233,"is_reserved":false,"is_disabled":false,"rental_uris":{"android":"levelo://app?vid=21c61b3f-2ae1-41ed-96e8-21fc1b01a387","ios":"levelo://app?vid=21c61b3f-2ae1-41ed-96e8-21fc1b01a387"},"vehicle_type_id":"4","last_reported":1733425628,"current_range_meters":14800,"station_id":"","pricing_plan_id":"cebpf4jnsgd1na2vs0mg"},{"bike_id":"f51684b7-fd29-4622-9efb-7a87c0a48d7b","system_id":"levelo_inurba_marseille","lat":43.24391,"lon":5.37059,"is_reserved":false,"is_disabled":true,"rental_uris":{"android":"levelo://app?vid=f51684b7-fd29-4622-9efb-7a87c0a48d7b","ios":"levelo://app?vid=f51684b7-fd29-4622-9efb-7a87c0a48d7b"},"vehicle_type_id":"4","last_reported":1733425628,"current_range_meters":28000,"station_id":"ce4bhhh2rcd13ifvqfk0","pricing_plan_id":"cebpf4jnsgd1na2vs0mg"},{"bike_id":"b030df25-1e77-4193-aa77-7efa271f35c5","system_id":"levelo_inurba_marseille","lat":43.2893,"lon":5.36629,"is_reserved":false,"is_disabled":false,"rental_uris":{"android":"levelo://app?vid=b030df25-1e77-4193-aa77-7efa271f35c5","ios":"levelo://app?vid=b030df25-1e77-4193-aa77-7efa271f35c5"},"vehicle_type_id":"4","last_reported":1733425628,"current_range_meters":25600,"station_id":"ce4bhap2rcd13ifvqek0","pricing_plan_id":"cebpf4jnsgd1na2vs0mg"},{"bike_id":"3a9149f3-357c-4d0a-859b-18382ef024a5","system_id":"levelo_inurba_marseille","lat":43.32113,"lon":5.36757,"is_reserved":false,"is_disabled":false,"rental_uris":{"android":"levelo://app?vid=3a9149f3-357c-4d0a-859b-18382ef024a5","ios":"levelo://app?vid=3a9149f3-357c-4d0a-859b-18382ef024a5"},"vehicle_type_id":"4","last_reported":1733425628,"current_range_meters":22800,"station_id":"ce4bhrh2rcd13ifvqhug","pricing_plan_id":"cebpf4jnsgd1na2vs0mg"},{"bike_id":"bbcbfa71-d8f5-4b8e-9040-d67356b9ece4","system_id":"levelo_inurba_marseille","lat":43.31361,"lon":5.38487,"is_reserved":false,"is_disabled":true,"rental_uris":{"android":"levelo://app?vid=bbcbfa71-d8f5-4b8e-9040-d67356b9ece4","ios":"levelo://app?vid=bbcbfa71-d8f5-4b8e-9040-d67356b9ece4"},"vehicle_type_id":"4","last_reported":1733425628,"current_range_meters":9600,"station_id":"ce4bgt92rcd13ifvqcf0","pricing_plan_id":"cebpf4jnsgd1na2vs0mg"},{"bike_id":"91377ecf-29e3-451a-ab1d-f37d5b1c8041","system_id":"levelo_inurba_marseille","lat":43.28677,"lon":5.38671,"is_reserved":false,"is_disabled":false,"rental_uris":{"android":"levelo://app?vid=91377ecf-29e3-451a-ab1d-f37d5b1c8041","ios":"levelo://app?vid=91377ecf-29e3-451a-ab1d-f37d5b1c8041"},"vehicle_type_id":"4","last_reported":1733425628,"current_range_meters":25600,"station_id":"ce4bh492rcd13ifvqdug","pricing_plan_id":"cebpf4jnsgd1na2vs0mg"},{"bike_id":"50de62aa-f06f-40ef-8e88-99b7b28b39c9","system_id":"levelo_inurba_marseille","lat":43.26912,"lon":5.40256,"is_reserved":false,"is_disabled":false,"rental_uris":{"android":"levelo://app?vid=50de62aa-f06f-40ef-8e88-99b7b28b39c9","ios":"levelo://app?vid=50de62aa-f06f-40ef-8e88-99b7b28b39c9"},"vehicle_type_id":"4","last_reported":1733425628,"current_range_meters":11600,"station_id":"cjm6bp8fraef2m0cb0m0","pricing_plan_id":"cebpf4jnsgd1na2vs0mg"},{"bike_id":"721f5feb-b378-4dac-af39-7801c98d73b6","system_id":"levelo_inurba_marseille","lat":43.30151,"lon":5.38102,"is_reserved":false,"is_disabled":true,"rental_uris":{"android":"levelo://app?vid=721f5feb-b378-4dac-af39-7801c98d73b6","ios":"levelo://app?vid=721f5feb-b378-4dac-af39-7801c98d73b6"},"vehicle_type_id":"4","last_reported":1733425628,"current_range_meters":0,"station_id":"ce4bgjp2rcd13ifvqbh0","pricing_plan_id":"cebpf4jnsgd1na2vs0mg"},{"bike_id":"da6a7a1d-e653-4950-af8c-8137b06f7d40","system_id":"levelo_inurba_marseille","lat":43.3004,"lon":5.37551,"is_reserved":false,"is_disabled":true,"rental_uris":{"android":"levelo://app?vid=da6a7a1d-e653-4950-af8c-8137b06f7d40","ios":"levelo://app?vid=da6a7a1d-e653-4950-af8c-8137b06f7d40"},"vehicle_type_id":"4","last_reported":1733425628,"current_range_meters":0,"station_id":"","pricing_plan_id":"cebpf4jnsgd1na2vs0mg"},{"bike_id":"b1ce4e53-59d1-4dc6-bd81-38e823b0b8a9","system_id":"levelo_inurba_marseille","lat":43.29412,"lon":5.38603,"is_reserved":false,"is_disabled":true,"rental_uris":{"android":"levelo://app?vid=b1ce4e53-59d1-4dc6-bd81-38e823b0b8a9","ios":"levelo://app?vid=b1ce4e53-59d1-4dc6-bd81-38e823b0b8a9"},"vehicle_type_id":"4","last_reported":1733425628,"current_range_meters":0,"station_id":"ce4bh2h2rcd13ifvqdh0","pricing_plan_id":"cebpf4jnsgd1na2vs0mg"},{"bike_id":"b318b6bd-bf9f-46e2-be2d-894e7ab6b3e8","system_id":"levelo_inurba_marseille","lat":43.3266,"lon":5.40985,"is_reserved":false,"is_disabled":true,"rental_uris":{"android":"levelo://app?vid=b318b6bd-bf9f-46e2-be2d-894e7ab6b3e8","ios":"levelo://app?vid=b318b6bd-bf9f-46e2-be2d-894e7ab6b3e8"},"vehicle_type_id":"4","last_reported":1733425628,"current_range_meters":0,"station_id":"ce4bhpp2rcd13ifvqhgg","pricing_plan_id":"cebpf4jnsgd1na2vs0mg"},{"bike_id":"0224f1d3-a86a-41cc-95e3-1e33af87b767","system_id":"levelo_inurba_marseille","lat":43.29628,"lon":5.40596,"is_reserved":false,"is_disabled":false,"rental_uris":{"android":"levelo://app?vid=0224f1d3-a86a-41cc-95e3-1e33af87b767","ios":"levelo://app?vid=0224f1d3-a86a-41cc-95e3-1e33af87b767"},"vehicle_type_id":"4","last_reported":1733425628,"current_range_meters":14800,"station_id":"ce4bh0h2rcd13ifvqd60","pricing_plan_id":"cebpf4jnsgd1na2vs0mg"},{"bike_id":"b15b6b5e-bf26-4345-8946-14181dc7ac5b","system_id":"levelo_inurba_marseille","lat":43.25108,"lon":5.40321,"is_reserved":false,"is_disabled":false,"rental_uris":{"android":"levelo://app?vid=b15b6b5e-bf26-4345-8946-14181dc7ac5b","ios":"levelo://app?vid=b15b6b5e-bf26-4345-8946-14181dc7ac5b"},"vehicle_type_id":"4","last_reported":1733425628,"current_range_meters":38800,"station_id":"ce4bhlh2rcd13ifvqgig","pricing_plan_id":"cebpf4jnsgd1na2vs0mg"},{"bike_id":"163a631b-221f-458e-bbd0-95484e5cc755","system_id":"levelo_inurba_marseille","lat":43.29262,"lon":5.38438,"is_reserved":false,"is_disabled":false,"rental_uris":{"android":"levelo://app?vid=163a631b-221f-458e-bbd0-95484e5cc755","ios":"levelo://app?vid=163a631b-221f-458e-bbd0-95484e5cc755"},"vehicle_type_id":"4","last_reported":1733425628,"current_range_meters":10800,"station_id":"ce4bh692rcd13ifvqea0","pricing_plan_id":"cebpf4jnsgd1na2vs0mg"},{"bike_id":"4f49ad56-4b2a-4c40-be26-790379ebaeb3","system_id":"levelo_inurba_marseille","lat":43.29553,"lon":5.42291,"is_reserved":false,"is_disabled":true,"rental_uris":{"android":"levelo://app?vid=4f49ad56-4b2a-4c40-be26-790379ebaeb3","ios":"levelo://app?vid=4f49ad56-4b2a-4c40-be26-790379ebaeb3"},"vehicle_type_id":"4","last_reported":1733425628,"current_range_meters":0,"station_id":"ce4bhph2rcd13ifvqhdg","pricing_plan_id":"cebpf4jnsgd1na2vs0mg"},{"bike_id":"cc386f96-2828-4d7c-a04c-ea8cbb7cceed","system_id":"levelo_inurba_marseille","lat":43.296034,"lon":5.367281,"is_reserved":false,"is_disabled":false,"rental_uris":{"android":"levelo://app?vid=cc386f96-2828-4d7c-a04c-ea8cbb7cceed","ios":"levelo://app?vid=cc386f96-2828-4d7c-a04c-ea8cbb7cceed"},"vehicle_type_id":"4","last_reported":1733425628,"current_range_meters":28800,"station_id":"ce4bgph2rcd13ifvqc2g","pricing_plan_id":"cebpf4jnsgd1na2vs0mg"},{"bike_id":"8860d1fc-2653-4816-aa2e-df544d55ca54","system_id":"levelo_inurba_marseille","lat":43.2407,"lon":5.37764,"is_reserved":false,"is_disabled":false,"rental_uris":{"android":"levelo://app?vid=8860d1fc-2653-4816-aa2e-df544d55ca54","ios":"levelo://app?vid=8860d1fc-2653-4816-aa2e-df544d55ca54"},"vehicle_type_id":"4","last_reported":1733425628,"current_range_meters":13600,"station_id":"ce4bhnp2rcd13ifvqgvg","pricing_plan_id":"cebpf4jnsgd1na2vs0mg"},{"bike_id":"b983f700-39e1-418f-84a3-1c3c95a84b96","system_id":"levelo_inurba_marseille","lat":43.33761,"lon":5.37491,"is_reserved":false,"is_disabled":false,"rental_uris":{"android":"levelo://app?vid=b983f700-39e1-418f-84a3-1c3c95a84b96","ios":"levelo://app?vid=b983f700-39e1-418f-84a3-1c3c95a84b96"},"vehicle_type_id":"4","last_reported":1733425628,"current_range_meters":36800,"station_id":"","pricing_plan_id":"cebpf4jnsgd1na2vs0mg"},{"bike_id":"30de221a-4ae9-44c8-af60-f5843b67f535","system_id":"levelo_inurba_marseille","lat":43.337444,"lon":5.374475,"is_reserved":false,"is_disabled":false,"rental_uris":{"android":"levelo://app?vid=30de221a-4ae9-44c8-af60-f5843b67f535","ios":"levelo://app?vid=30de221a-4ae9-44c8-af60-f5843b67f535"},"vehicle_type_id":"4","last_reported":1733425628,"current_range_meters":36800,"station_id":"","pricing_plan_id":"cebpf4jnsgd1na2vs0mg"},{"bike_id":"5a00fe35-ebb1-433e-a9d6-9e9f5440cd7b","system_id":"levelo_inurba_marseille","lat":43.25819,"lon":5.39433,"is_reserved":false,"is_disabled":false,"rental_uris":{"android":"levelo://app?vid=5a00fe35-ebb1-433e-a9d6-9e9f5440cd7b","ios":"levelo://app?vid=5a00fe35-ebb1-433e-a9d6-9e9f5440cd7b"},"vehicle_type_id":"4","last_reported":1733425628,"current_range_meters":18800,"station_id":"ce4bhip2rcd13ifvqft0","pricing_plan_id":"cebpf4jnsgd1na2vs0mg"},{"bike_id":"57e1d7cb-12a3-41fd-b677-5990b01609b9","system_id":"levelo_inurba_marseille","lat":43.25819,"lon":5.39421,"is_reserved":false,"is_disabled":false,"rental_uris":{"android":"levelo://app?vid=57e1d7cb-12a3-41fd-b677-5990b01609b9","ios":"levelo://app?vid=57e1d7cb-12a3-41fd-b677-5990b01609b9"},"vehicle_type_id":"4","last_reported":1733425628,"current_range_meters":36400,"station_id":"ce4bhip2rcd13ifvqft0","pricing_plan_id":"cebpf4jnsgd1na2vs0mg"},{"bike_id":"40ed9026-67fc-4a1d-9781-f3af6252f442","system_id":"levelo_inurba_marseille","lat":43.30231,"lon":5.40058,"is_reserved":false,"is_disabled":false,"rental_uris":{"android":"levelo://app?vid=40ed9026-67fc-4a1d-9781-f3af6252f442","ios":"levelo://app?vid=40ed9026-67fc-4a1d-9781-f3af6252f442"},"vehicle_type_id":"4","last_reported":1733425628,"current_range_meters":38800,"station_id":"ce4bgvh2rcd13ifvqcs0","pricing_plan_id":"cebpf4jnsgd1na2vs0mg"},{"bike_id":"aad731d3-d891-46a2-9b9b-88b7d6723761","system_id":"levelo_inurba_marseille","lat":43.28421,"lon":5.34982,"is_reserved":false,"is_disabled":false,"rental_uris":{"android":"levelo://app?vid=aad731d3-d891-46a2-9b9b-88b7d6723761","ios":"levelo://app?vid=aad731d3-d891-46a2-9b9b-88b7d6723761"},"vehicle_type_id":"4","last_reported":1733425628,"current_range_meters":2000,"station_id":"ce4bhbh2rcd13ifvqepg","pricing_plan_id":"cebpf4jnsgd1na2vs0mg"},{"bike_id":"14a7634f-2c63-4372-8288-df8c18aa2742","system_id":"levelo_inurba_marseille","lat":43.29894,"lon":5.43667,"is_reserved":false,"is_disabled":true,"rental_uris":{"android":"levelo://app?vid=14a7634f-2c63-4372-8288-df8c18aa2742","ios":"levelo://app?vid=14a7634f-2c63-4372-8288-df8c18aa2742"},"vehicle_type_id":"4","last_reported":1733425628,"current_range_meters":400,"station_id":"ce4bhpp2rcd13ifvqhfg","pricing_plan_id":"cebpf4jnsgd1na2vs0mg"},{"bike_id":"943cbc7a-f9d1-4bbd-bbc7-cb5f017d06c0","system_id":"levelo_inurba_marseille","lat":43.32487,"lon":5.36558,"is_reserved":false,"is_disabled":false,"rental_uris":{"android":"levelo://app?vid=943cbc7a-f9d1-4bbd-bbc7-cb5f017d06c0","ios":"levelo://app?vid=943cbc7a-f9d1-4bbd-bbc7-cb5f017d06c0"},"vehicle_type_id":"4","last_reported":1733425628,"current_range_meters":37600,"station_id":"ce4bhs12rcd13ifvqhvg","pricing_plan_id":"cebpf4jnsgd1na2vs0mg"},{"bike_id":"bae1c42b-8a08-4a08-aca3-4c99b9020d1a","system_id":"levelo_inurba_marseille","lat":43.31117,"lon":5.3775,"is_reserved":false,"is_disabled":true,"rental_uris":{"android":"levelo://app?vid=bae1c42b-8a08-4a08-aca3-4c99b9020d1a","ios":"levelo://app?vid=bae1c42b-8a08-4a08-aca3-4c99b9020d1a"},"vehicle_type_id":"4","last_reported":1733425628,"current_range_meters":1200,"station_id":"ce4bgt92rcd13ifvqcg0","pricing_plan_id":"cebpf4jnsgd1na2vs0mg"},{"bike_id":"7714ce30-465c-426d-9621-0f0245a19ff8","system_id":"levelo_inurba_marseille","lat":43.2718,"lon":5.41,"is_reserved":false,"is_disabled":false,"rental_uris":{"android":"levelo://app?vid=7714ce30-465c-426d-9621-0f0245a19ff8","ios":"levelo://app?vid=7714ce30-465c-426d-9621-0f0245a19ff8"},"vehicle_type_id":"4","last_reported":1733425628,"current_range_meters":26000,"station_id":"ce4bhl12rcd13ifvqgf0","pricing_plan_id":"cebpf4jnsgd1na2vs0mg"},{"bike_id":"4a2552fb-fc34-4622-908e-9d7b39eeb28a","system_id":"levelo_inurba_marseille","lat":43.33015,"lon":5.39048,"is_reserved":false,"is_disabled":false,"rental_uris":{"android":"levelo://app?vid=4a2552fb-fc34-4622-908e-9d7b39eeb28a","ios":"levelo://app?vid=4a2552fb-fc34-4622-908e-9d7b39eeb28a"},"vehicle_type_id":"4","last_reported":1733425628,"current_range_meters":10000,"station_id":"ce4bhr92rcd13ifvqhrg","pricing_plan_id":"cebpf4jnsgd1na2vs0mg"},{"bike_id":"b12d51a9-9370-4e5b-ab46-f54ae82d1ede","system_id":"levelo_inurba_marseille","lat":43.30415,"lon":5.41286,"is_reserved":false,"is_disabled":false,"rental_uris":{"android":"levelo://app?vid=b12d51a9-9370-4e5b-ab46-f54ae82d1ede","ios":"levelo://app?vid=b12d51a9-9370-4e5b-ab46-f54ae82d1ede"},"vehicle_type_id":"4","last_reported":1733425628,"current_range_meters":30000,"station_id":"ce4bhop2rcd13ifvqh8g","pricing_plan_id":"cebpf4jnsgd1na2vs0mg"},{"bike_id":"cce3eecc-cb69-4101-857b-0cac7483201c","system_id":"levelo_inurba_marseille","lat":43.27492,"lon":5.42447,"is_reserved":false,"is_disabled":true,"rental_uris":{"android":"levelo://app?vid=cce3eecc-cb69-4101-857b-0cac7483201c","ios":"levelo://app?vid=cce3eecc-cb69-4101-857b-0cac7483201c"},"vehicle_type_id":"4","last_reported":1733425628,"current_range_meters":0,"station_id":"ce4bhn92rcd13ifvqgrg","pricing_plan_id":"cebpf4jnsgd1na2vs0mg"},{"bike_id":"914e2da6-b203-455d-bab7-6e3debbf268a","system_id":"levelo_inurba_marseille","lat":43.265709,"lon":5.372846,"is_reserved":false,"is_disabled":false,"rental_uris":{"android":"levelo://app?vid=914e2da6-b203-455d-bab7-6e3debbf268a","ios":"levelo://app?vid=914e2da6-b203-455d-bab7-6e3debbf268a"},"vehicle_type_id":"4","last_reported":1733425628,"current_range_meters":14400,"station_id":"ce4bhg12rcd13ifvqf70","pricing_plan_id":"cebpf4jnsgd1na2vs0mg"},{"bike_id":"cd830f02-9a1a-4a45-b43d-4f9c4cb35b55","system_id":"levelo_inurba_marseille","lat":43.26064,"lon":5.39393,"is_reserved":false,"is_disabled":true,"rental_uris":{"android":"levelo://app?vid=cd830f02-9a1a-4a45-b43d-4f9c4cb35b55","ios":"levelo://app?vid=cd830f02-9a1a-4a45-b43d-4f9c4cb35b55"},"vehicle_type_id":"4","last_reported":1733425628,"current_range_meters":400,"station_id":"ce4bhh92rcd13ifvqfj0","pricing_plan_id":"cebpf4jnsgd1na2vs0mg"},{"bike_id":"347d363b-83a6-4d56-8948-2933c66099de","system_id":"levelo_inurba_marseille","lat":43.27839,"lon":5.39205,"is_reserved":false,"is_disabled":false,"rental_uris":{"android":"levelo://app?vid=347d363b-83a6-4d56-8948-2933c66099de","ios":"levelo://app?vid=347d363b-83a6-4d56-8948-2933c66099de"},