{"last_updated":1762089329,"ttl":60,"version":"2.2","data":{"bikes":[{"bike_id":"ad9109f0-a47b-41ab-9a71-455a6b341dfc","system_id":"levelo_inurba_marseille","lat":43.28477,"lon":5.48395,"is_reserved":false,"is_disabled":false,"rental_uris":{"android":"levelo://app?vid=ad9109f0-a47b-41ab-9a71-455a6b341dfc","ios":"levelo://app?vid=ad9109f0-a47b-41ab-9a71-455a6b341dfc"},"vehicle_type_id":"4","last_reported":1762089329,"current_range_meters":2800,"station_id":"st_d3svhcjqgbts73a3dn0g","pricing_plan_id":"cebpf4jnsgd1na2vs0mg"},{"bike_id":"4ae82769-2f9e-4c25-a073-dec417896630","system_id":"levelo_inurba_marseille","lat":43.22566,"lon":5.41629,"is_reserved":false,"is_disabled":false,"rental_uris":{"android":"levelo://app?vid=4ae82769-2f9e-4c25-a073-dec417896630","ios":"levelo://app?vid=4ae82769-2f9e-4c25-a073-dec417896630"},"vehicle_type_id":"4","last_reported":1762089329,"current_range_meters":2800,"station_id":"st_d2o4gvlbi1j2169b742g","pricing_plan_id":"cebpf4jnsgd1na2vs0mg"},{"bike_id":"c08e1456-1bfe-4757-98f6-726dc640ffbd","system_id":"levelo_inurba_marseille","lat":43.24804,"lon":5.37456,"is_reserved":false,"is_disabled":false,"rental_uris":{"android":"levelo://app?vid=c08e1456-1bfe-4757-98f6-726dc640ffbd","ios":"levelo://app?vid=c08e1456-1bfe-4757-98f6-726dc640ffbd"},"vehicle_type_id":"4","last_reported":1762089329,"current_range_meters":3200,"station_id":"ce4bhgh2rcd13ifvqfb0","pricing_plan_id":"cebpf4jnsgd1na2vs0mg"},{"bike_id":"a47589a1-8c9b-4690-97a1-d336b9a5aa4e","system_id":"levelo_inurba_marseille","lat":43.21742,"lon":5.34605,"is_reserved":false,"is_disabled":false,"rental_uris":{"android":"levelo://app?vid=a47589a1-8c9b-4690-97a1-d336b9a5aa4e","ios":"levelo://app?vid=a47589a1-8c9b-4690-97a1-d336b9a5aa4e"},"vehicle_type_id":"4","last_reported":1762089329,"current_range_meters":3200,"station_id":"st_cvj6r9ubvosntc0bgbag","pricing_plan_id":"cebpf4jnsgd1na2vs0mg"},{"bike_id":"e1196ee9-9c25-4674-a5fe-d3b7ddaa8e88","system_id":"levelo_inurba_marseille","lat":43.2257,"lon":5.41655,"is_reserved":false,"is_disabled":false,"rental_uris":{"android":"levelo://app?vid=e1196ee9-9c25-4674-a5fe-d3b7ddaa8e88","ios":"levelo://app?vid=e1196ee9-9c25-4674-a5fe-d3b7ddaa8e88"},"vehicle_type_id":"4","last_reported":1762089329,"current_range_meters":3600,"station_id":"st_d2o4gvlbi1j2169b742g","pricing_plan_id":"cebpf4jnsgd1na2vs0mg"},{"bike_id":"4a49882e-3242-40a5-9d9f-b2f8f0c42c93","system_id":"levelo_inurba_marseille","lat":43.255848,"lon":5.382353,"is_reserved":false,"is_disabled":false,"rental_uris":{"android":"levelo://app?vid=4a49882e-3242-40a5-9d9f-b2f8f0c42c93","ios":"levelo://app?vid=4a49882e-3242-40a5-9d9f-b2f8f0c42c93"},"vehicle_type_id":"4","last_reported":1762089329,"current_range_meters":3600,"station_id":"ce4bhih2rcd13ifvqfs0","pricing_plan_id":"cebpf4jnsgd1na2vs0mg"},{"bike_id":"c16ca171-3e5e-49d0-a567-1645c2374376","system_id":"levelo_inurba_marseille","lat":43.305477,"lon":5.365185,"is_reserved":false,"is_disabled":true,"rental_uris":{"android":"levelo://app?vid=c16ca171-3e5e-49d0-a567-1645c2374376","ios":"levelo://app?vid=c16ca171-3e5e-49d0-a567-1645c2374376"},"vehicle_type_id":"4","last_reported":1762089329,"current_range_meters":4000,"station_id":"ce4bgs12rcd13ifvqcag","pricing_plan_id":"cebpf4jnsgd1na2vs0mg"},{"bike_id":"ae07ab63-4d5b-4772-b71c-b1ae6fa6d900","system_id":"levelo_inurba_marseille","lat":43.270689,"lon":5.42278,"is_reserved":false,"is_disabled":false,"rental_uris":{"android":"levelo://app?vid=ae07ab63-4d5b-4772-b71c-b1ae6fa6d900","ios":"levelo://app?vid=ae07ab63-4d5b-4772-b71c-b1ae6fa6d900"},"vehicle_type_id":"4","last_reported":1762089329,"current_range_meters":4000,"station_id":"ce4bhk92rcd13ifvqgb0","pricing_plan_id":"cebpf4jnsgd1na2vs0mg"},{"bike_id":"36e11220-c697-4964-bb95-321e78afa2d6","system_id":"levelo_inurba_marseille","lat":43.308838,"lon":5.396738,"is_reserved":false,"is_disabled":false,"rental_uris":{"android":"levelo://app?vid=36e11220-c697-4964-bb95-321e78afa2d6","ios":"levelo://app?vid=36e11220-c697-4964-bb95-321e78afa2d6"},"vehicle_type_id":"4","last_reported":1762089329,"current_range_meters":4000,"station_id":"ce4bh012rcd13ifvqcv0","pricing_plan_id":"cebpf4jnsgd1na2vs0mg"},{"bike_id":"a4dac4fa-66e6-48be-a654-6e17cdc7ca0b","system_id":"levelo_inurba_marseille","lat":43.337571,"lon":5.374323,"is_reserved":false,"is_disabled":false,"rental_uris":{"android":"levelo://app?vid=a4dac4fa-66e6-48be-a654-6e17cdc7ca0b","ios":"levelo://app?vid=a4dac4fa-66e6-48be-a654-6e17cdc7ca0b"},"vehicle_type_id":"4","last_reported":1762089329,"current_range_meters":4400,"station_id":"","pricing_plan_id":"cebpf4jnsgd1na2vs0mg"},{"bike_id":"6a291482-a99a-41d7-bc23-cf97de15042d","system_id":"levelo_inurba_marseille","lat":43.32476,"lon":5.36566,"is_reserved":false,"is_disabled":false,"rental_uris":{"android":"levelo://app?vid=6a291482-a99a-41d7-bc23-cf97de15042d","ios":"levelo://app?vid=6a291482-a99a-41d7-bc23-cf97de15042d"},"vehicle_type_id":"4","last_reported":1762089329,"current_range_meters":4400,"station_id":"ce4bhs12rcd13ifvqhvg","pricing_plan_id":"cebpf4jnsgd1na2vs0mg"},{"bike_id":"676292e6-7adb-4610-89de-c1ac3a3b2d06","system_id":"levelo_inurba_marseille","lat":43.26684,"lon":5.38271,"is_reserved":false,"is_disabled":false,"rental_uris":{"android":"levelo://app?vid=676292e6-7adb-4610-89de-c1ac3a3b2d06","ios":"levelo://app?vid=676292e6-7adb-4610-89de-c1ac3a3b2d06"},"vehicle_type_id":"4","last_reported":1762089329,"current_range_meters":4400,"station_id":"ce4bhg92rcd13ifvqf90","pricing_plan_id":"cebpf4jnsgd1na2vs0mg"},{"bike_id":"8a759722-19f7-4a56-9646-2c26a5e7e25d","system_id":"levelo_inurba_marseille","lat":43.27984,"lon":5.38697,"is_reserved":false,"is_disabled":true,"rental_uris":{"android":"levelo://app?vid=8a759722-19f7-4a56-9646-2c26a5e7e25d","ios":"levelo://app?vid=8a759722-19f7-4a56-9646-2c26a5e7e25d"},"vehicle_type_id":"4","last_reported":1762089329,"current_range_meters":4800,"station_id":"ce4bhg12rcd13ifvqf80","pricing_plan_id":"cebpf4jnsgd1na2vs0mg"},{"bike_id":"43ce0a53-fff8-43c0-9d1e-7fdd5f65702d","system_id":"levelo_inurba_marseille","lat":43.3089,"lon":5.39664,"is_reserved":false,"is_disabled":false,"rental_uris":{"android":"levelo://app?vid=43ce0a53-fff8-43c0-9d1e-7fdd5f65702d","ios":"levelo://app?vid=43ce0a53-fff8-43c0-9d1e-7fdd5f65702d"},"vehicle_type_id":"4","last_reported":1762089329,"current_range_meters":4800,"station_id":"ce4bh012rcd13ifvqcv0","pricing_plan_id":"cebpf4jnsgd1na2vs0mg"},{"bike_id":"cd6f2d04-98c5-42b9-aa5b-b8110e64b304","system_id":"levelo_inurba_marseille","lat":43.29851,"lon":5.36284,"is_reserved":false,"is_disabled":false,"rental_uris":{"android":"levelo://app?vid=cd6f2d04-98c5-42b9-aa5b-b8110e64b304","ios":"levelo://app?vid=cd6f2d04-98c5-42b9-aa5b-b8110e64b304"},"vehicle_type_id":"4","last_reported":1762089329,"current_range_meters":5600,"station_id":"ce4bgpp2rcd13ifvqc3g","pricing_plan_id":"cebpf4jnsgd1na2vs0mg"},{"bike_id":"c399ce04-d2fd-4c70-bb16-433bfab2ee02","system_id":"levelo_inurba_marseille","lat":43.30253,"lon":5.40045,"is_reserved":false,"is_disabled":false,"rental_uris":{"android":"levelo://app?vid=c399ce04-d2fd-4c70-bb16-433bfab2ee02","ios":"levelo://app?vid=c399ce04-d2fd-4c70-bb16-433bfab2ee02"},"vehicle_type_id":"4","last_reported":1762089329,"current_range_meters":5600,"station_id":"ce4bgvh2rcd13ifvqcs0","pricing_plan_id":"cebpf4jnsgd1na2vs0mg"},{"bike_id":"f703ae54-221d-4263-b3ec-00627c20e2f2","system_id":"levelo_inurba_marseille","lat":43.217455,"lon":5.346101,"is_reserved":false,"is_disabled":false,"rental_uris":{"android":"levelo://app?vid=f703ae54-221d-4263-b3ec-00627c20e2f2","ios":"levelo://app?vid=f703ae54-221d-4263-b3ec-00627c20e2f2"},"vehicle_type_id":"4","last_reported":1762089329,"current_range_meters":5600,"station_id":"","pricing_plan_id":"cebpf4jnsgd1na2vs0mg"},{"bike_id":"27abc7d1-dd85-495f-9415-aa00cef4846e","system_id":"levelo_inurba_marseille","lat":43.27781,"lon":5.39508,"is_reserved":false,"is_disabled":false,"rental_uris":{"android":"levelo://app?vid=27abc7d1-dd85-495f-9415-aa00cef4846e","ios":"levelo://app?vid=27abc7d1-dd85-495f-9415-aa00cef4846e"},"vehicle_type_id":"4","last_reported":1762089329,"current_range_meters":5600,"station_id":"","pricing_plan_id":"cebpf4jnsgd1na2vs0mg"},{"bike_id":"d62a4e30-2a8a-47de-9d7a-fd92f829db09","system_id":"levelo_inurba_marseille","lat":43.28989,"lon":5.37135,"is_reserved":false,"is_disabled":false,"rental_uris":{"android":"levelo://app?vid=d62a4e30-2a8a-47de-9d7a-fd92f829db09","ios":"levelo://app?vid=d62a4e30-2a8a-47de-9d7a-fd92f829db09"},"vehicle_type_id":"4","last_reported":1762089329,"current_range_meters":5600,"station_id":"","pricing_plan_id":"cebpf4jnsgd1na2vs0mg"},{"bike_id":"0b532f30-5f00-4113-94ad-b706b61e0154","system_id":"levelo_inurba_marseille","lat":43.231949,"lon":5.436279,"is_reserved":false,"is_disabled":false,"rental_uris":{"android":"levelo://app?vid=0b532f30-5f00-4113-94ad-b706b61e0154","ios":"levelo://app?vid=0b532f30-5f00-4113-94ad-b706b61e0154"},"vehicle_type_id":"4","last_reported":1762089329,"current_range_meters":5600,"station_id":"ce4bhmp2rcd13ifvqgog","pricing_plan_id":"cebpf4jnsgd1na2vs0mg"},{"bike_id":"884ffe4c-b8e5-4fdf-8c44-f7b89acc9b2c","system_id":"levelo_inurba_marseille","lat":43.284185,"lon":5.349889,"is_reserved":false,"is_disabled":false,"rental_uris":{"android":"levelo://app?vid=884ffe4c-b8e5-4fdf-8c44-f7b89acc9b2c","ios":"levelo://app?vid=884ffe4c-b8e5-4fdf-8c44-f7b89acc9b2c"},"vehicle_type_id":"4","last_reported":1762089329,"current_range_meters":5600,"station_id":"ce4bhbh2rcd13ifvqepg","pricing_plan_id":"cebpf4jnsgd1na2vs0mg"},{"bike_id":"7964de6c-fad0-4fd1-8a21-0815ea287c4c","system_id":"levelo_inurba_marseille","lat":43.28156,"lon":5.42638,"is_reserved":false,"is_disabled":true,"rental_uris":{"android":"levelo://app?vid=7964de6c-fad0-4fd1-8a21-0815ea287c4c","ios":"levelo://app?vid=7964de6c-fad0-4fd1-8a21-0815ea287c4c"},"vehicle_type_id":"4","last_reported":1762089329,"current_range_meters":6000,"station_id":"ce4bhnh2rcd13ifvqgug","pricing_plan_id":"cebpf4jnsgd1na2vs0mg"},{"bike_id":"995c398a-192b-4e7d-923c-0e5720d4a0ab","system_id":"levelo_inurba_marseille","lat":43.21752,"lon":5.34606,"is_reserved":false,"is_disabled":false,"rental_uris":{"android":"levelo://app?vid=995c398a-192b-4e7d-923c-0e5720d4a0ab","ios":"levelo://app?vid=995c398a-192b-4e7d-923c-0e5720d4a0ab"},"vehicle_type_id":"4","last_reported":1762089329,"current_range_meters":6000,"station_id":"st_cvj6r9ubvosntc0bgbag","pricing_plan_id":"cebpf4jnsgd1na2vs0mg"},{"bike_id":"52b117f2-4c01-4f66-887d-006722496528","system_id":"levelo_inurba_marseille","lat":43.30856,"lon":5.37158,"is_reserved":false,"is_disabled":false,"rental_uris":{"android":"levelo://app?vid=52b117f2-4c01-4f66-887d-006722496528","ios":"levelo://app?vid=52b117f2-4c01-4f66-887d-006722496528"},"vehicle_type_id":"4","last_reported":1762089329,"current_range_meters":6000,"station_id":"","pricing_plan_id":"cebpf4jnsgd1na2vs0mg"},{"bike_id":"10a9e0e5-1144-4779-aa4e-add04b8e5e59","system_id":"levelo_inurba_marseille","lat":43.26031,"lon":5.37547,"is_reserved":false,"is_disabled":false,"rental_uris":{"android":"levelo://app?vid=10a9e0e5-1144-4779-aa4e-add04b8e5e59","ios":"levelo://app?vid=10a9e0e5-1144-4779-aa4e-add04b8e5e59"},"vehicle_type_id":"4","last_reported":1762089329,"current_range_meters":6000,"station_id":"ce4bhgh2rcd13ifvqfa0","pricing_plan_id":"cebpf4jnsgd1na2vs0mg"},{"bike_id":"ac5b2824-d3ce-4324-8fac-289a178421e7","system_id":"levelo_inurba_marseille","lat":43.30996,"lon":5.38326,"is_reserved":false,"is_disabled":false,"rental_uris":{"android":"levelo://app?vid=ac5b2824-d3ce-4324-8fac-289a178421e7","ios":"levelo://app?vid=ac5b2824-d3ce-4324-8fac-289a178421e7"},"vehicle_type_id":"4","last_reported":1762089329,"current_range_meters":6400,"station_id":"","pricing_plan_id":"cebpf4jnsgd1na2vs0mg"},{"bike_id":"4e6cb7f0-47e0-424c-bc09-b99775af5d88","system_id":"levelo_inurba_marseille","lat":43.29517,"lon":5.39389,"is_reserved":false,"is_disabled":false,"rental_uris":{"android":"levelo://app?vid=4e6cb7f0-47e0-424c-bc09-b99775af5d88","ios":"levelo://app?vid=4e6cb7f0-47e0-424c-bc09-b99775af5d88"},"vehicle_type_id":"4","last_reported":1762089329,"current_range_meters":6400,"station_id":"ce4bh292rcd13ifvqdf0","pricing_plan_id":"cebpf4jnsgd1na2vs0mg"},{"bike_id":"fca252be-68c3-40cc-92d4-0eb23191f310","system_id":"levelo_inurba_marseille","lat":43.31896,"lon":5.4076,"is_reserved":false,"is_disabled":false,"rental_uris":{"android":"levelo://app?vid=fca252be-68c3-40cc-92d4-0eb23191f310","ios":"levelo://app?vid=fca252be-68c3-40cc-92d4-0eb23191f310"},"vehicle_type_id":"4","last_reported":1762089329,"current_range_meters":6400,"station_id":"ce4bhq12rcd13ifvqhig","pricing_plan_id":"cebpf4jnsgd1na2vs0mg"},{"bike_id":"0d53681a-2462-4979-9106-982e825913ab","system_id":"levelo_inurba_marseille","lat":43.29551,"lon":5.366021,"is_reserved":false,"is_disabled":false,"rental_uris":{"android":"levelo://app?vid=0d53681a-2462-4979-9106-982e825913ab","ios":"levelo://app?vid=0d53681a-2462-4979-9106-982e825913ab"},"vehicle_type_id":"4","last_reported":1762089329,"current_range_meters":6800,"station_id":"","pricing_plan_id":"cebpf4jnsgd1na2vs0mg"},{"bike_id":"dcb5f4d6-a57a-45ea-b185-de3fe952058c","system_id":"levelo_inurba_marseille","lat":43.28104,"lon":5.37844,"is_reserved":false,"is_disabled":true,"rental_uris":{"android":"levelo://app?vid=dcb5f4d6-a57a-45ea-b185-de3fe952058c","ios":"levelo://app?vid=dcb5f4d6-a57a-45ea-b185-de3fe952058c"},"vehicle_type_id":"4","last_reported":1762089329,"current_range_meters":6800,"station_id":"ce4bha12rcd13ifvqee0","pricing_plan_id":"cebpf4jnsgd1na2vs0mg"},{"bike_id":"a220e166-3bdf-4a0e-834d-fd366254b1d1","system_id":"levelo_inurba_marseille","lat":43.305943,"lon":5.393635,"is_reserved":false,"is_disabled":false,"rental_uris":{"android":"levelo://app?vid=a220e166-3bdf-4a0e-834d-fd366254b1d1","ios":"levelo://app?vid=a220e166-3bdf-4a0e-834d-fd366254b1d1"},"vehicle_type_id":"4","last_reported":1762089329,"current_range_meters":6800,"station_id":"ce4bh0p2rcd13ifvqd80","pricing_plan_id":"cebpf4jnsgd1na2vs0mg"},{"bike_id":"b1e81361-2b17-4ef1-8a58-6def5753471b","system_id":"levelo_inurba_marseille","lat":43.33753,"lon":5.37484,"is_reserved":false,"is_disabled":false,"rental_uris":{"android":"levelo://app?vid=b1e81361-2b17-4ef1-8a58-6def5753471b","ios":"levelo://app?vid=b1e81361-2b17-4ef1-8a58-6def5753471b"},"vehicle_type_id":"4","last_reported":1762089329,"current_range_meters":7200,"station_id":"","pricing_plan_id":"cebpf4jnsgd1na2vs0mg"},{"bike_id":"abf908fd-10cc-42fb-9573-d650131f2fbd","system_id":"levelo_inurba_marseille","lat":43.28629,"lon":5.35099,"is_reserved":false,"is_disabled":false,"rental_uris":{"android":"levelo://app?vid=abf908fd-10cc-42fb-9573-d650131f2fbd","ios":"levelo://app?vid=abf908fd-10cc-42fb-9573-d650131f2fbd"},"vehicle_type_id":"4","last_reported":1762089329,"current_range_meters":7200,"station_id":"ce4bhch2rcd13ifvqeug","pricing_plan_id":"cebpf4jnsgd1na2vs0mg"},{"bike_id":"fe211fee-df04-4312-bc0a-d625bf6086ab","system_id":"levelo_inurba_marseille","lat":43.291802,"lon":5.403209,"is_reserved":false,"is_disabled":true,"rental_uris":{"android":"levelo://app?vid=fe211fee-df04-4312-bc0a-d625bf6086ab","ios":"levelo://app?vid=fe211fee-df04-4312-bc0a-d625bf6086ab"},"vehicle_type_id":"4","last_reported":1762089329,"current_range_meters":7200,"station_id":"","pricing_plan_id":"cebpf4jnsgd1na2vs0mg"},{"bike_id":"cbf54ad8-06e8-4c83-9a47-a7554339d452","system_id":"levelo_inurba_marseille","lat":43.28409,"lon":5.37528,"is_reserved":false,"is_disabled":false,"rental_uris":{"android":"levelo://app?vid=cbf54ad8-06e8-4c83-9a47-a7554339d452","ios":"levelo://app?vid=cbf54ad8-06e8-4c83-9a47-a7554339d452"},"vehicle_type_id":"4","last_reported":1762089329,"current_range_meters":8000,"station_id":"ce4bh412rcd13ifvqds0","pricing_plan_id":"cebpf4jnsgd1na2vs0mg"},{"bike_id":"6f61ea76-c6b4-45d6-951d-e6149f6784dc","system_id":"levelo_inurba_marseille","lat":43.24806,"lon":5.3746,"is_reserved":false,"is_disabled":false,"rental_uris":{"android":"levelo://app?vid=6f61ea76-c6b4-45d6-951d-e6149f6784dc","ios":"levelo://app?vid=6f61ea76-c6b4-45d6-951d-e6149f6784dc"},"vehicle_type_id":"4","last_reported":1762089329,"current_range_meters":8000,"station_id":"ce4bhgh2rcd13ifvqfb0","pricing_plan_id":"cebpf4jnsgd1na2vs0mg"},{"bike_id":"93961bb9-532a-44f5-a8cc-42e961cc1b0b","system_id":"levelo_inurba_marseille","lat":43.3229,"lon":5.38272,"is_reserved":false,"is_disabled":false,"rental_uris":{"android":"levelo://app?vid=93961bb9-532a-44f5-a8cc-42e961cc1b0b","ios":"levelo://app?vid=93961bb9-532a-44f5-a8cc-42e961cc1b0b"},"vehicle_type_id":"4","last_reported":1762089329,"current_range_meters":8000,"station_id":"ce4bhr12rcd13ifvqhqg","pricing_plan_id":"cebpf4jnsgd1na2vs0mg"},{"bike_id":"603f84c7-55e1-4d19-8f37-178ddadc668f","system_id":"levelo_inurba_marseille","lat":43.21192,"lon":5.35078,"is_reserved":false,"is_disabled":false,"rental_uris":{"android":"levelo://app?vid=603f84c7-55e1-4d19-8f37-178ddadc668f","ios":"levelo://app?vid=603f84c7-55e1-4d19-8f37-178ddadc668f"},"vehicle_type_id":"4","last_reported":1762089329,"current_range_meters":8400,"station_id":"st_cvj6sg6p6f1abm77japg","pricing_plan_id":"cebpf4jnsgd1na2vs0mg"},{"bike_id":"1da56141-654f-442c-b20c-6c2bd52c2965","system_id":"levelo_inurba_marseille","lat":43.31257,"lon":5.3821,"is_reserved":false,"is_disabled":true,"rental_uris":{"android":"levelo://app?vid=1da56141-654f-442c-b20c-6c2bd52c2965","ios":"levelo://app?vid=1da56141-654f-442c-b20c-6c2bd52c2965"},"vehicle_type_id":"4","last_reported":1762089329,"current_range_meters":8400,"station_id":"","pricing_plan_id":"cebpf4jnsgd1na2vs0mg"},{"bike_id":"ed890a36-02ef-4914-b497-b0b60f616f2a","system_id":"levelo_inurba_marseille","lat":43.28157,"lon":5.4265,"is_reserved":false,"is_disabled":false,"rental_uris":{"android":"levelo://app?vid=ed890a36-02ef-4914-b497-b0b60f616f2a","ios":"levelo://app?vid=ed890a36-02ef-4914-b497-b0b60f616f2a"},"vehicle_type_id":"4","last_reported":1762089329,"current_range_meters":8400,"station_id":"ce4bhnh2rcd13ifvqgug","pricing_plan_id":"cebpf4jnsgd1na2vs0mg"},{"bike_id":"77cf13d5-5c06-4119-bdad-ad1edf67fc69","system_id":"levelo_inurba_marseille","lat":43.308798,"lon":5.396456,"is_reserved":false,"is_disabled":false,"rental_uris":{"android":"levelo://app?vid=77cf13d5-5c06-4119-bdad-ad1edf67fc69","ios":"levelo://app?vid=77cf13d5-5c06-4119-bdad-ad1edf67fc69"},"vehicle_type_id":"4","last_reported":1762089329,"current_range_meters":8400,"station_id":"ce4bh012rcd13ifvqcv0","pricing_plan_id":"cebpf4jnsgd1na2vs0mg"},{"bike_id":"a8c37853-0b1d-4686-a393-5126f07eea8e","system_id":"levelo_inurba_marseille","lat":43.288147,"lon":5.391652,"is_reserved":false,"is_disabled":false,"rental_uris":{"android":"levelo://app?vid=a8c37853-0b1d-4686-a393-5126f07eea8e","ios":"levelo://app?vid=a8c37853-0b1d-4686-a393-5126f07eea8e"},"vehicle_type_id":"4","last_reported":1762089329,"current_range_meters":8400,"station_id":"","pricing_plan_id":"cebpf4jnsgd1na2vs0mg"},{"bike_id":"13f03332-ddce-42ad-82d3-6d3b2e6cbcd9","system_id":"levelo_inurba_marseille","lat":43.30689,"lon":5.43192,"is_reserved":false,"is_disabled":false,"rental_uris":{"android":"levelo://app?vid=13f03332-ddce-42ad-82d3-6d3b2e6cbcd9","ios":"levelo://app?vid=13f03332-ddce-42ad-82d3-6d3b2e6cbcd9"},"vehicle_type_id":"4","last_reported":1762089329,"current_range_meters":8400,"station_id":"","pricing_plan_id":"cebpf4jnsgd1na2vs0mg"},{"bike_id":"c6e5cf67-a047-4d89-b1c5-f6f005d8ff9b","system_id":"levelo_inurba_marseille","lat":43.32543,"lon":5.41457,"is_reserved":false,"is_disabled":false,"rental_uris":{"android":"levelo://app?vid=c6e5cf67-a047-4d89-b1c5-f6f005d8ff9b","ios":"levelo://app?vid=c6e5cf67-a047-4d89-b1c5-f6f005d8ff9b"},"vehicle_type_id":"4","last_reported":1762089329,"current_range_meters":8800,"station_id":"ce4bhq12rcd13ifvqhhg","pricing_plan_id":"cebpf4jnsgd1na2vs0mg"},{"bike_id":"afba2e7c-0dbc-4820-b93f-fdd58168ba1f","system_id":"levelo_inurba_marseille","lat":43.28765,"lon":5.385455,"is_reserved":false,"is_disabled":false,"rental_uris":{"android":"levelo://app?vid=afba2e7c-0dbc-4820-b93f-fdd58168ba1f","ios":"levelo://app?vid=afba2e7c-0dbc-4820-b93f-fdd58168ba1f"},"vehicle_type_id":"4","last_reported":1762089329,"current_range_meters":8800,"station_id":"","pricing_plan_id":"cebpf4jnsgd1na2vs0mg"},{"bike_id":"964f4efa-929b-4a74-b9d4-087109b278cc","system_id":"levelo_inurba_marseille","lat":43.29638,"lon":5.37159,"is_reserved":false,"is_disabled":false,"rental_uris":{"android":"levelo://app?vid=964f4efa-929b-4a74-b9d4-087109b278cc","ios":"levelo://app?vid=964f4efa-929b-4a74-b9d4-087109b278cc"},"vehicle_type_id":"4","last_reported":1762089329,"current_range_meters":8800,"station_id":"ce4bgnh2rcd13ifvqc0g","pricing_plan_id":"cebpf4jnsgd1na2vs0mg"},{"bike_id":"7e3e7ea9-a459-4cbb-b5df-b4faa92c4f48","system_id":"levelo_inurba_marseille","lat":43.29854,"lon":5.36256,"is_reserved":false,"is_disabled":false,"rental_uris":{"android":"levelo://app?vid=7e3e7ea9-a459-4cbb-b5df-b4faa92c4f48","ios":"levelo://app?vid=7e3e7ea9-a459-4cbb-b5df-b4faa92c4f48"},"vehicle_type_id":"4","last_reported":1762089329,"current_range_meters":9200,"station_id":"ce4bgpp2rcd13ifvqc3g","pricing_plan_id":"cebpf4jnsgd1na2vs0mg"},{"bike_id":"eb737d05-d9f2-4432-97d1-7781357ab9df","system_id":"levelo_inurba_marseille","lat":43.27067,"lon":5.42282,"is_reserved":false,"is_disabled":true,"rental_uris":{"android":"levelo://app?vid=eb737d05-d9f2-4432-97d1-7781357ab9df","ios":"levelo://app?vid=eb737d05-d9f2-4432-97d1-7781357ab9df"},"vehicle_type_id":"4","last_reported":1762089329,"current_range_meters":9200,"station_id":"ce4bhk92rcd13ifvqgb0","pricing_plan_id":"cebpf4jnsgd1na2vs0mg"},{"bike_id":"a59d0682-0316-4cb4-918b-55665f35b093","system_id":"levelo_inurba_marseille","lat":43.2954,"lon":5.39397,"is_reserved":false,"is_disabled":false,"rental_uris":{"android":"levelo://app?vid=a59d0682-0316-4cb4-918b-55665f35b093","ios":"levelo://app?vid=a59d0682-0316-4cb4-918b-55665f35b093"},"vehicle_type_id":"4","last_reported":1762089329,"current_range_meters":9200,"station_id":"ce4bh292rcd13ifvqdf0","pricing_plan_id":"cebpf4jnsgd1na2vs0mg"},{"bike_id":"0c3bfe72-1bfa-4fe4-8ec1-abc531b0b6c5","system_id":"levelo_inurba_marseille","lat":43.265523,"lon":5.372898,"is_reserved":false,"is_disabled":true,"rental_uris":{"android":"levelo://app?vid=0c3bfe72-1bfa-4fe4-8ec1-abc531b0b6c5","ios":"levelo://app?vid=0c3bfe72-1bfa-4fe4-8ec1-abc531b0b6c5"},"vehicle_type_id":"4","last_reported":1762089329,"current_range_meters":9600,"station_id":"ce4bhg12rcd13ifvqf70","pricing_plan_id":"cebpf4jnsgd1na2vs0mg"},{"bike_id":"b110e993-420d-407b-946b-61452224fe39","system_id":"levelo_inurba_marseille","lat":43.231499,"lon":5.437135,"is_reserved":false,"is_disabled":false,"rental_uris":{"android":"levelo://app?vid=b110e993-420d-407b-946b-61452224fe39","ios":"levelo://app?vid=b110e993-420d-407b-946b-61452224fe39"},"vehicle_type_id":"4","last_reported":1762089329,"current_range_meters":9600,"station_id":"ce4bhmp2rcd13ifvqgog","pricing_plan_id":"cebpf4jnsgd1na2vs0mg"},{"bike_id":"3c3d3dc6-ea55-46a9-86b0-18a0a17e9a36","system_id":"levelo_inurba_marseille","lat":43.2465,"lon":5.38893,"is_reserved":false,"is_disabled":false,"rental_uris":{"android":"levelo://app?vid=3c3d3dc6-ea55-46a9-86b0-18a0a17e9a36","ios":"levelo://app?vid=3c3d3dc6-ea55-46a9-86b0-18a0a17e9a36"},"vehicle_type_id":"4","last_reported":1762089329,"current_range_meters":9600,"station_id":"ce4bhg12rcd13ifvqf60","pricing_plan_id":"cebpf4jnsgd1na2vs0mg"},{"bike_id":"1d29646a-da1f-4f66-b008-0838ffb2fa84","system_id":"levelo_inurba_marseille","lat":43.299928,"lon":5.372293,"is_reserved":false,"is_disabled":false,"rental_uris":{"android":"levelo://app?vid=1d29646a-da1f-4f66-b008-0838ffb2fa84","ios":"levelo://app?vid=1d29646a-da1f-4f66-b008-0838ffb2fa84"},"vehicle_type_id":"4","last_reported":1762089329,"current_range_meters":10000,"station_id":"ce4bgr92rcd13ifvqc7g","pricing_plan_id":"cebpf4jnsgd1na2vs0mg"},{"bike_id":"ccbb9b89-ebba-4c6c-b9fe-acafe29ddb47","system_id":"levelo_inurba_marseille","lat":43.33484,"lon":5.42756,"is_reserved":false,"is_disabled":false,"rental_uris":{"android":"levelo://app?vid=ccbb9b89-ebba-4c6c-b9fe-acafe29ddb47","ios":"levelo://app?vid=ccbb9b89-ebba-4c6c-b9fe-acafe29ddb47"},"vehicle_type_id":"4","last_reported":1762089329,"current_range_meters":10800,"station_id":"","pricing_plan_id":"cebpf4jnsgd1na2vs0mg"},{"bike_id":"7e971471-f9cc-4176-a7f5-a4df1d28ce85","system_id":"levelo_inurba_marseille","lat":43.30543,"lon":5.36712,"is_reserved":false,"is_disabled":false,"rental_uris":{"android":"levelo://app?vid=7e971471-f9cc-4176-a7f5-a4df1d28ce85","ios":"levelo://app?vid=7e971471-f9cc-4176-a7f5-a4df1d28ce85"},"vehicle_type_id":"4","last_reported":1762089329,"current_range_meters":10800,"station_id":"ce4bgrp2rcd13ifvqc9g","pricing_plan_id":"cebpf4jnsgd1na2vs0mg"},{"bike_id":"737330b6-3a9f-4188-9c34-0eebdd5c94f0","system_id":"levelo_inurba_marseille","lat":43.29853,"lon":5.36288,"is_reserved":false,"is_disabled":false,"rental_uris":{"android":"levelo://app?vid=737330b6-3a9f-4188-9c34-0eebdd5c94f0","ios":"levelo://app?vid=737330b6-3a9f-4188-9c34-0eebdd5c94f0"},"vehicle_type_id":"4","last_reported":1762089329,"current_range_meters":11200,"station_id":"ce4bgpp2rcd13ifvqc3g","pricing_plan_id":"cebpf4jnsgd1na2vs0mg"},{"bike_id":"87bf0f62-f5e5-4586-abe4-d7bb497c069f","system_id":"levelo_inurba_marseille","lat":43.32377,"lon":5.36777,"is_reserved":false,"is_disabled":false,"rental_uris":{"android":"levelo://app?vid=87bf0f62-f5e5-4586-abe4-d7bb497c069f","ios":"levelo://app?vid=87bf0f62-f5e5-4586-abe4-d7bb497c069f"},"vehicle_type_id":"4","last_reported":1762089329,"current_range_meters":11200,"station_id":"ce4bhsh2rcd13ifvqi2g","pricing_plan_id":"cebpf4jnsgd1na2vs0mg"},{"bike_id":"eaa48740-d9fb-4beb-9b5f-f8c469653e74","system_id":"levelo_inurba_marseille","lat":43.30328,"lon":5.40443,"is_reserved":false,"is_disabled":false,"rental_uris":{"android":"levelo://app?vid=eaa48740-d9fb-4beb-9b5f-f8c469653e74","ios":"levelo://app?vid=eaa48740-d9fb-4beb-9b5f-f8c469653e74"},"vehicle_type_id":"4","last_reported":1762089329,"current_range_meters":11200,"station_id":"ce4bh012rcd13ifvqd10","pricing_plan_id":"cebpf4jnsgd1na2vs0mg"},{"bike_id":"045a1472-e1c5-4292-bcf3-9db70d393ebe","system_id":"levelo_inurba_marseille","lat":43.26569,"lon":5.39006,"is_reserved":false,"is_disabled":false,"rental_uris":{"android":"levelo://app?vid=045a1472-e1c5-4292-bcf3-9db70d393ebe","ios":"levelo://app?vid=045a1472-e1c5-4292-bcf3-9db70d393ebe"},"vehicle_type_id":"4","last_reported":1762089329,"current_range_meters":11200,"station_id":"ce4bhe12rcd13ifvqf30","pricing_plan_id":"cebpf4jnsgd1na2vs0mg"},{"bike_id":"730ca9ac-fea7-459e-bf1a-e3eab4e2c977","system_id":"levelo_inurba_marseille","lat":43.24656,"lon":5.38173,"is_reserved":false,"is_disabled":false,"rental_uris":{"android":"levelo://app?vid=730ca9ac-fea7-459e-bf1a-e3eab4e2c977","ios":"levelo://app?vid=730ca9ac-fea7-459e-bf1a-e3eab4e2c977"},"vehicle_type_id":"4","last_reported":1762089329,"current_range_meters":11600,"station_id":"ce4bhih2rcd13ifvqfr0","pricing_plan_id":"cebpf4jnsgd1na2vs0mg"},{"bike_id":"45833a00-bb86-4c87-99c2-814a719ac317","system_id":"levelo_inurba_marseille","lat":43.22923,"lon":5.353818,"is_reserved":false,"is_disabled":false,"rental_uris":{"android":"levelo://app?vid=45833a00-bb86-4c87-99c2-814a719ac317","ios":"levelo://app?vid=45833a00-bb86-4c87-99c2-814a719ac317"},"vehicle_type_id":"4","last_reported":1762089329,"current_range_meters":11600,"station_id":"cpo3532slgdg3j2ikp40","pricing_plan_id":"cebpf4jnsgd1na2vs0mg"},{"bike_id":"7b0eaa70-7657-4098-8e47-f6fae1ad1d21","system_id":"levelo_inurba_marseille","lat":43.25861,"lon":5.398951,"is_reserved":false,"is_disabled":false,"rental_uris":{"android":"levelo://app?vid=7b0eaa70-7657-4098-8e47-f6fae1ad1d21","ios":"levelo://app?vid=7b0eaa70-7657-4098-8e47-f6fae1ad1d21"},"vehicle_type_id":"4","last_reported":1762089329,"current_range_meters":11600,"station_id":"ce4bhl92rcd13ifvqghg","pricing_plan_id":"cebpf4jnsgd1na2vs0mg"},{"bike_id":"41598790-345d-414f-9e87-720cb432f278","system_id":"levelo_inurba_marseille","lat":43.29477,"lon":5.36227,"is_reserved":false,"is_disabled":false,"rental_uris":{"android":"levelo://app?vid=41598790-345d-414f-9e87-720cb432f278","ios":"levelo://app?vid=41598790-345d-414f-9e87-720cb432f278"},"vehicle_type_id":"4","last_reported":1762089329,"current_range_meters":11600,"station_id":"","pricing_plan_id":"cebpf4jnsgd1na2vs0mg"},{"bike_id":"09aa8f06-ffeb-4dc5-b1e3-4dfaaa5d105e","system_id":"levelo_inurba_marseille","lat":43.270537,"lon":5.383052,"is_reserved":false,"is_disabled":false,"rental_uris":{"android":"levelo://app?vid=09aa8f06-ffeb-4dc5-b1e3-4dfaaa5d105e","ios":"levelo://app?vid=09aa8f06-ffeb-4dc5-b1e3-4dfaaa5d105e"},"vehicle_type_id":"4","last_reported":1762089329,"current_range_meters":11600,"station_id":"st_d3n2fo6cfp8s73cte1j0","pricing_plan_id":"cebpf4jnsgd1na2vs0mg"},{"bike_id":"9ed83576-2cd9-4d25-ba69-eddb8df93a38","system_id":"levelo_inurba_marseille","lat":43.23969,"lon":5.36642,"is_reserved":false,"is_disabled":false,"rental_uris":{"android":"levelo://app?vid=9ed83576-2cd9-4d25-ba69-eddb8df93a38","ios":"levelo://app?vid=9ed83576-2cd9-4d25-ba69-eddb8df93a38"},"vehicle_type_id":"4","last_reported":1762089329,"current_range_meters":12000,"station_id":"ce4bhi12rcd13ifvqfp0","pricing_plan_id":"cebpf4jnsgd1na2vs0mg"},{"bike_id":"12a18d4a-7b67-4876-88d1-1820554fc400","system_id":"levelo_inurba_marseille","lat":43.29734,"lon":5.38112,"is_reserved":false,"is_disabled":false,"rental_uris":{"android":"levelo://app?vid=12a18d4a-7b67-4876-88d1-1820554fc400","ios":"levelo://app?vid=12a18d4a-7b67-4876-88d1-1820554fc400"},"vehicle_type_id":"4","last_reported":1762089329,"current_range_meters":12000,"station_id":"","pricing_plan_id":"cebpf4jnsgd1na2vs0mg"},{"bike_id":"6a1b659a-7d8a-4de4-9f62-20e2944a4db3","system_id":"levelo_inurba_marseille","lat":43.29602,"lon":5.37723,"is_reserved":false,"is_disabled":false,"rental_uris":{"android":"levelo://app?vid=6a1b659a-7d8a-4de4-9f62-20e2944a4db3","ios":"levelo://app?vid=6a1b659a-7d8a-4de4-9f62-20e2944a4db3"},"vehicle_type_id":"4","last_reported":1762089329,"current_range_meters":12000,"station_id":"ce4bgi92rcd13ifvqb90","pricing_plan_id":"cebpf4jnsgd1na2vs0mg"},{"bike_id":"6fe8defd-7365-4870-9fd8-a61adc4c20bd","system_id":"levelo_inurba_marseille","lat":43.29874,"lon":5.39734,"is_reserved":false,"is_disabled":true,"rental_uris":{"android":"levelo://app?vid=6fe8defd-7365-4870-9fd8-a61adc4c20bd","ios":"levelo://app?vid=6fe8defd-7365-4870-9fd8-a61adc4c20bd"},"vehicle_type_id":"4","last_reported":1762089329,"current_range_meters":12000,"station_id":"ce4bh0h2rcd13ifvqd50","pricing_plan_id":"cebpf4jnsgd1na2vs0mg"},{"bike_id":"c4f2ef56-a448-4bb1-9320-6136c50246c9","system_id":"levelo_inurba_marseille","lat":43.24802,"lon":5.37453,"is_reserved":false,"is_disabled":true,"rental_uris":{"android":"levelo://app?vid=c4f2ef56-a448-4bb1-9320-6136c50246c9","ios":"levelo://app?vid=c4f2ef56-a448-4bb1-9320-6136c50246c9"},"vehicle_type_id":"4","last_reported":1762089329,"current_range_meters":12000,"station_id":"ce4bhgh2rcd13ifvqfb0","pricing_plan_id":"cebpf4jnsgd1na2vs0mg"},{"bike_id":"3c25eaad-085d-4c41-8d15-f76406cc33ea","system_id":"levelo_inurba_marseille","lat":43.30199,"lon":5.36623,"is_reserved":false,"is_disabled":false,"rental_uris":{"android":"levelo://app?vid=3c25eaad-085d-4c41-8d15-f76406cc33ea","ios":"levelo://app?vid=3c25eaad-085d-4c41-8d15-f76406cc33ea"},"vehicle_type_id":"4","last_reported":1762089329,"current_range_meters":12000,"station_id":"ce4bgrh2rcd13ifvqc8g","pricing_plan_id":"cebpf4jnsgd1na2vs0mg"},{"bike_id":"a753117c-cfb4-4b15-9ec1-9092c4a4604d","system_id":"levelo_inurba_marseille","lat":43.317046,"lon":5.423998,"is_reserved":false,"is_disabled":false,"rental_uris":{"android":"levelo://app?vid=a753117c-cfb4-4b15-9ec1-9092c4a4604d","ios":"levelo://app?vid=a753117c-cfb4-4b15-9ec1-9092c4a4604d"},"vehicle_type_id":"4","last_reported":1762089329,"current_range_meters":12000,"station_id":"ce4bhp92rcd13ifvqhbg","pricing_plan_id":"cebpf4jnsgd1na2vs0mg"},{"bike_id":"9a775806-2002-4e47-9502-942778773696","system_id":"levelo_inurba_marseille","lat":43.28231,"lon":5.39072,"is_reserved":false,"is_disabled":false,"rental_uris":{"android":"levelo://app?vid=9a775806-2002-4e47-9502-942778773696","ios":"levelo://app?vid=9a775806-2002-4e47-9502-942778773696"},"vehicle_type_id":"4","last_reported":1762089329,"current_range_meters":12000,"station_id":"ce4bhn92rcd13ifvqgsg","pricing_plan_id":"cebpf4jnsgd1na2vs0mg"},{"bike_id":"0e99dd80-18ad-4ee8-83a1-8b1f36894f7d","system_id":"levelo_inurba_marseille","lat":43.21191,"lon":5.35074,"is_reserved":false,"is_disabled":false,"rental_uris":{"android":"levelo://app?vid=0e99dd80-18ad-4ee8-83a1-8b1f36894f7d","ios":"levelo://app?vid=0e99dd80-18ad-4ee8-83a1-8b1f36894f7d"},"vehicle_type_id":"4","last_reported":1762089329,"current_range_meters":12400,"station_id":"st_cvj6sg6p6f1abm77japg","pricing_plan_id":"cebpf4jnsgd1na2vs0mg"},{"bike_id":"c7d57f9b-8ba9-4435-ac3b-54d333c0b4c7","system_id":"levelo_inurba_marseille","lat":43.32354,"lon":5.36748,"is_reserved":false,"is_disabled":false,"rental_uris":{"android":"levelo://app?vid=c7d57f9b-8ba9-4435-ac3b-54d333c0b4c7","ios":"levelo://app?vid=c7d57f9b-8ba9-4435-ac3b-54d333c0b4c7"},"vehicle_type_id":"4","last_reported":1762089329,"current_range_meters":12400,"station_id":"ce4bhsh2rcd13ifvqi2g","pricing_plan_id":"cebpf4jnsgd1na2vs0mg"},{"bike_id":"9a8800fa-24be-4848-a250-19e32415acb4","system_id":"levelo_inurba_marseille","lat":43.21192,"lon":5.35077,"is_reserved":false,"is_disabled":false,"rental_uris":{"android":"levelo://app?vid=9a8800fa-24be-4848-a250-19e32415acb4","ios":"levelo://app?vid=9a8800fa-24be-4848-a250-19e32415acb4"},"vehicle_type_id":"4","last_reported":1762089329,"current_range_meters":12400,"station_id":"st_cvj6sg6p6f1abm77japg","pricing_plan_id":"cebpf4jnsgd1na2vs0mg"},{"bike_id":"8826ede5-ae30-4091-839e-dd39c3609359","system_id":"levelo_inurba_marseille","lat":43.29779,"lon":5.39333,"is_reserved":false,"is_disabled":true,"rental_uris":{"android":"levelo://app?vid=8826ede5-ae30-4091-839e-dd39c3609359","ios":"levelo://app?vid=8826ede5-ae30-4091-839e-dd39c3609359"},"vehicle_type_id":"4","last_reported":1762089329,"current_range_meters":12400,"station_id":"chh1huq6cuj3fo74tm60","pricing_plan_id":"cebpf4jnsgd1na2vs0mg"},{"bike_id":"84f1bfac-8d21-499b-b8e1-fdc8049e10ac","system_id":"levelo_inurba_marseille","lat":43.31273,"lon":5.37773,"is_reserved":false,"is_disabled":false,"rental_uris":{"android":"levelo://app?vid=84f1bfac-8d21-499b-b8e1-fdc8049e10ac","ios":"levelo://app?vid=84f1bfac-8d21-499b-b8e1-fdc8049e10ac"},"vehicle_type_id":"4","last_reported":1762089329,"current_range_meters":12400,"station_id":"","pricing_plan_id":"cebpf4jnsgd1na2vs0mg"},{"bike_id":"5f336b60-f344-4d17-8bde-3d24435f4cd0","system_id":"levelo_inurba_marseille","lat":43.2174,"lon":5.34608,"is_reserved":false,"is_disabled":false,"rental_uris":{"android":"levelo://app?vid=5f336b60-f344-4d17-8bde-3d24435f4cd0","ios":"levelo://app?vid=5f336b60-f344-4d17-8bde-3d24435f4cd0"},"vehicle_type_id":"4","last_reported":1762089329,"current_range_meters":12400,"station_id":"st_cvj6r9ubvosntc0bgbag","pricing_plan_id":"cebpf4jnsgd1na2vs0mg"},{"bike_id":"7e22b25d-d57c-4a5b-8960-675f69daacd8","system_id":"levelo_inurba_marseille","lat":43.279083,"lon":5.380124,"is_reserved":false,"is_disabled":false,"rental_uris":{"android":"levelo://app?vid=7e22b25d-d57c-4a5b-8960-675f69daacd8","ios":"levelo://app?vid=7e22b25d-d57c-4a5b-8960-675f69daacd8"},"vehicle_type_id":"4","last_reported":1762089329,"current_range_meters":12400,"station_id":"ce4bhf92rcd13ifvqf50","pricing_plan_id":"cebpf4jnsgd1na2vs0mg"},{"bike_id":"cb0ccd34-fade-44b0-bce4-fe9e999689d0","system_id":"levelo_inurba_marseille","lat":43.28154,"lon":5.42647,"is_reserved":false,"is_disabled":false,"rental_uris":{"android":"levelo://app?vid=cb0ccd34-fade-44b0-bce4-fe9e999689d0","ios":"levelo://app?vid=cb0ccd34-fade-44b0-bce4-fe9e999689d0"},"vehicle_type_id":"4","last_reported":1762089329,"current_range_meters":12400,"station_id":"ce4bhnh2rcd13ifvqgug","pricing_plan_id":"cebpf4jnsgd1na2vs0mg"},{"bike_id":"ba541a52-7e4e-4241-9791-ae6f1fb03dcd","system_id":"levelo_inurba_marseille","lat":43.3201,"lon":5.41593,"is_reserved":false,"is_disabled":false,"rental_uris":{"android":"levelo://app?vid=ba541a52-7e4e-4241-9791-ae6f1fb03dcd","ios":"levelo://app?vid=ba541a52-7e4e-4241-9791-ae6f1fb03dcd"},"vehicle_type_id":"4","last_reported":1762089329,"current_range_meters":12400,"station_id":"ce4bhq92rcd13ifvqhkg","pricing_plan_id":"cebpf4jnsgd1na2vs0mg"},{"bike_id":"e718eb19-1ff9-4674-92c2-56321ad9eee9","system_id":"levelo_inurba_marseille","lat":43.2534,"lon":5.42179,"is_reserved":false,"is_disabled":false,"rental_uris":{"android":"levelo://app?vid=e718eb19-1ff9-4674-92c2-56321ad9eee9","ios":"levelo://app?vid=e718eb19-1ff9-4674-92c2-56321ad9eee9"},"vehicle_type_id":"4","last_reported":1762089329,"current_range_meters":12800,"station_id":"st_d2m65c5bi1j21697t3ng","pricing_plan_id":"cebpf4jnsgd1na2vs0mg"},{"bike_id":"e674e599-fd74-496b-88d1-c0da372626e9","system_id":"levelo_inurba_marseille","lat":43.21751,"lon":5.34596,"is_reserved":false,"is_disabled":false,"rental_uris":{"android":"levelo://app?vid=e674e599-fd74-496b-88d1-c0da372626e9","ios":"levelo://app?vid=e674e599-fd74-496b-88d1-c0da372626e9"},"vehicle_type_id":"4","last_reported":1762089329,"current_range_meters":12800,"station_id":"st_cvj6r9ubvosntc0bgbag","pricing_plan_id":"cebpf4jnsgd1na2vs0mg"},{"bike_id":"de0ca7a8-116a-46c8-8c50-6b445a473423","system_id":"levelo_inurba_marseille","lat":43.288603,"lon":5.425293,"is_reserved":false,"is_disabled":false,"rental_uris":{"android":"levelo://app?vid=de0ca7a8-116a-46c8-8c50-6b445a473423","ios":"levelo://app?vid=de0ca7a8-116a-46c8-8c50-6b445a473423"},"vehicle_type_id":"4","last_reported":1762089329,"current_range_meters":12800,"station_id":"st_d3b462108ojc7389ooeg","pricing_plan_id":"cebpf4jnsgd1na2vs0mg"},{"bike_id":"f556ad88-b0ef-4d15-8048-f36fbe8e026c","system_id":"levelo_inurba_marseille","lat":43.285353,"lon":5.440994,"is_reserved":false,"is_disabled":false,"rental_uris":{"android":"levelo://app?vid=f556ad88-b0ef-4d15-8048-f36fbe8e026c","ios":"levelo://app?vid=f556ad88-b0ef-4d15-8048-f36fbe8e026c"},"vehicle_type_id":"4","last_reported":1762089329,"current_range_meters":12800,"station_id":"st_d3j3df2ikq2c7380ej80","pricing_plan_id":"cebpf4jnsgd1na2vs0mg"},{"bike_id":"63f252f3-ffdc-4384-ac89-a4e9be0dfd03","system_id":"levelo_inurba_marseille","lat":43.31134,"lon":5.39358,"is_reserved":false,"is_disabled":false,"rental_uris":{"android":"levelo://app?vid=63f252f3-ffdc-4384-ac89-a4e9be0dfd03","ios":"levelo://app?vid=63f252f3-ffdc-4384-ac89-a4e9be0dfd03"},"vehicle_type_id":"4","last_reported":1762089329,"current_range_meters":12800,"station_id":"","pricing_plan_id":"cebpf4jnsgd1na2vs0mg"},{"bike_id":"91891e2b-3c04-410a-b47f-e4a2d35addbb","system_id":"levelo_inurba_marseille","lat":43.248047,"lon":5.374465,"is_reserved":false,"is_disabled":false,"rental_uris":{"android":"levelo://app?vid=91891e2b-3c04-410a-b47f-e4a2d35addbb","ios":"levelo://app?vid=91891e2b-3c04-410a-b47f-e4a2d35addbb"},"vehicle_type_id":"4","last_reported":1762089329,"current_range_meters":12800,"station_id":"ce4bhgh2rcd13ifvqfb0","pricing_plan_id":"cebpf4jnsgd1na2vs0mg"},{"bike_id":"93ca5b8d-3716-4cc0-9c2b-fa25f4b4f35f","system_id":"levelo_inurba_marseille","lat":43.2659,"lon":5.39056,"is_reserved":false,"is_disabled":false,"rental_uris":{"android":"levelo://app?vid=93ca5b8d-3716-4cc0-9c2b-fa25f4b4f35f","ios":"levelo://app?vid=93ca5b8d-3716-4cc0-9c2b-fa25f4b4f35f"},"vehicle_type_id":"4","last_reported":1762089329,"current_range_meters":12800,"station_id":"ce4bhe12rcd13ifvqf30","pricing_plan_id":"cebpf4jnsgd1na2vs0mg"},{"bike_id":"d87e8435-a903-4228-b33e-bd6d66e6673b","system_id":"levelo_inurba_marseille","lat":43.24639,"lon":5.43148,"is_reserved":false,"is_disabled":false,"rental_uris":{"android":"levelo://app?vid=d87e8435-a903-4228-b33e-bd6d66e6673b","ios":"levelo://app?vid=d87e8435-a903-4228-b33e-bd6d66e6673b"},"vehicle_type_id":"4","last_reported":1762089329,"current_range_meters":12800,"station_id":"st_d2m6c4gdas8pm72e190g","pricing_plan_id":"cebpf4jnsgd1na2vs0mg"},{"bike_id":"a68061c2-d95f-4f31-99a2-5420c7ee3441","system_id":"levelo_inurba_marseille","lat":43.30326,"lon":5.40434,"is_reserved":false,"is_disabled":false,"rental_uris":{"android":"levelo://app?vid=a68061c2-d95f-4f31-99a2-5420c7ee3441","ios":"levelo://app?vid=a68061c2-d95f-4f31-99a2-5420c7ee3441"},"vehicle_type_id":"4","last_reported":1762089329,"current_range_meters":12800,"station_id":"ce4bh012rcd13ifvqd10","pricing_plan_id":"cebpf4jnsgd1na2vs0mg"},{"bike_id":"079d2352-ba60-4c63-b7a4-6ec0ccf76dcc","system_id":"levelo_inurba_marseille","lat":43.257204,"lon":5.411142,"is_reserved":false,"is_disabled":false,"rental_uris":{"android":"levelo://app?vid=079d2352-ba60-4c63-b7a4-6ec0ccf76dcc","ios":"levelo://app?vid=079d2352-ba60-4c63-b7a4-6ec0ccf76dcc"},"vehicle_type_id":"4","last_reported":1762089329,"current_range_meters":13600,"station_id":"ce4bhkp2rcd13ifvqgd0","pricing_plan_id":"cebpf4jnsgd1na2vs0mg"},{"bike_id":"eda2024d-9c9f-4267-a5f0-346e2f2e33c6","system_id":"levelo_inurba_marseille","lat":43.26678,"lon":5.38266,"is_reserved":false,"is_disabled":false,"rental_uris":{"android":"levelo://app?vid=eda2024d-9c9f-4267-a5f0-346e2f2e33c6","ios":"levelo://app?vid=eda2024d-9c9f-4267-a5f0-346e2f2e33c6"},"vehicle_type_id":"4","last_reported":1762089329,"current_range_meters":13600,"station_id":"ce4bhg92rcd13ifvqf90","pricing_plan_id":"cebpf4jnsgd1na2vs0mg"},{"bike_id":"0d3e0b55-eff8-448b-8988-99ff4e704c13","system_id":"levelo_inurba_marseille","lat":43.288736,"lon":5.378887,"is_reserved":false,"is_disabled":false,"rental_uris":{"android":"levelo://app?vid=0d3e0b55-eff8-448b-8988-99ff4e704c13","ios":"levelo://app?vid=0d3e0b55-eff8-448b-8988-99ff4e704c13"},"vehicle_type_id":"4","last_reported":1762089329,"current_range_meters":13600,"station_id":"","pricing_plan_id":"cebpf4jnsgd1na2vs0mg"},{"bike_id":"7caef2b3-bfc6-4ca2-93f7-4d6bb0a9c820","system_id":"levelo_inurba_marseille","lat":43.26568,"lon":5.39007,"is_reserved":false,"is_disabled":false,"rental_uris":{"android":"levelo://app?vid=7caef2b3-bfc6-4ca2-93f7-4d6bb0a9c820","ios":"levelo://app?vid=7caef2b3-bfc6-4ca2-93f7-4d6bb0a9c820"},"vehicle_type_id":"4","last_reported":1762089329,"current_range_meters":13600,"station_id":"ce4bhe12rcd13ifvqf30","pricing_plan_id":"cebpf4jnsgd1na2vs0mg"},{"bike_id":"ebf85bdb-1a2b-49af-a88d-03e90d4c31b8","system_id":"levelo_inurba_marseille","lat":43.23959,"lon":5.36625,"is_reserved":false,"is_disabled":true,"rental_uris":{"android":"levelo://app?vid=ebf85bdb-1a2b-49af-a88d-03e90d4c31b8","ios":"levelo://app?vid=ebf85bdb-1a2b-49af-a88d-03e90d4c31b8"},"vehicle_type_id":"4","last_reported":1762089329,"current_range_meters":14000,"station_id":"ce4bhi12rcd13ifvqfp0","pricing_plan_id":"cebpf4jnsgd1na2vs0mg"},{"bike_id":"77679107-31f6-4769-888c-bfa8b6d2bccd","system_id":"levelo_inurba_marseille","lat":43.28861,"lon":5.42527,"is_reserved":false,"is_disabled":false,"rental_uris":{"android":"levelo://app?vid=77679107-31f6-4769-888c-bfa8b6d2bccd","ios":"levelo://app?vid=77679107-31f6-4769-888c-bfa8b6d2bccd"},"vehicle_type_id":"4","last_reported":1762089329,"current_range_meters":14000,"station_id":"st_d3b462108ojc7389ooeg","pricing_plan_id":"cebpf4jnsgd1na2vs0mg"},{"bike_id":"8adef542-af60-4b61-8a5b-4b604c3bcfe4","system_id":"levelo_inurba_marseille","lat":43.246372,"lon":5.431422,"is_reserved":false,"is_disabled":false,"rental_uris":{"android":"levelo://app?vid=8adef542-af60-4b61-8a5b-4b604c3bcfe4","ios":"levelo://app?vid=8adef542-af60-4b61-8a5b-4b604c3bcfe4"},"vehicle_type_id":"4","last_reported":1762089329,"current_range_meters":14000,"station_id":"st_d2m6c4gdas8pm72e190g","pricing_plan_id":"cebpf4jnsgd1na2vs0mg"},{"bike_id":"25b8b9c6-92a5-43d3-8767-0700e7c7de1c","system_id":"levelo_inurba_marseille","lat":43.337619,"lon":5.374272,"is_reserved":false,"is_disabled":false,"rental_uris":{"android":"levelo://app?vid=25b8b9c6-92a5-43d3-8767-0700e7c7de1c","ios":"levelo://app?vid=25b8b9c6-92a5-43d3-8767-0700e7c7de1c"},"vehicle_type_id":"4","last_reported":1762089329,"current_range_meters":14000,"station_id":"","pricing_plan_id":"cebpf4jnsgd1na2vs0mg"},{"bike_id":"0f583a9b-84b4-45e2-a280-f0ff1282968e","system_id":"levelo_inurba_marseille","lat":43.27663,"lon":5.38884,"is_reserved":false,"is_disabled":true,"rental_uris":{"android":"levelo://app?vid=0f583a9b-84b4-45e2-a280-f0ff1282968e","ios":"levelo://app?vid=0f583a9b-84b4-45e2-a280-f0ff1282968e"},"vehicle_type_id":"4","last_reported":1762089329,"current_range_meters":14000,"station_id":"ce4bhi12rcd13ifvqfo0","pricing_plan_id":"cebpf4jnsgd1na2vs0mg"},{"bike_id":"12c24c1a-5f34-4e4f-b6c0-f07cd6755b8d","system_id":"levelo_inurba_marseille","lat":43.24946,"lon":5.40494,"is_reserved":false,"is_disabled":false,"rental_uris":{"android":"levelo://app?vid=12c24c1a-5f34-4e4f-b6c0-f07cd6755b8d","ios":"levelo://app?vid=12c24c1a-5f34-4e4f-b6c0-f07cd6755b8d"},"vehicle_type_id":"4","last_reported":1762089329,"current_range_meters":14400,"station_id":"st_d2ngiaodas8pm72gd1h0","pricing_plan_id":"cebpf4jnsgd1na2vs0mg"},{"bike_id":"14b92a7a-0805-475a-abfd-8c979184b42b","system_id":"levelo_inurba_marseille","lat":43.31004,"lon":5.37022,"is_reserved":false,"is_disabled":false,"rental_uris":{"android":"levelo://app?vid=14b92a7a-0805-475a-abfd-8c979184b42b","ios":"levelo://app?vid=14b92a7a-0805-475a-abfd-8c979184b42b"},"vehicle_type_id":"4","last_reported":1762089329,"current_range_meters":14400,"station_id":"","pricing_plan_id":"cebpf4jnsgd1na2vs0mg"},{"bike_id":"23964231-9294-40d2-9d81-16e99ab01d5b","system_id":"levelo_inurba_marseille","lat":43.25329,"lon":5.42201,"is_reserved":false,"is_disabled":false,"rental_uris":{"android":"levelo://app?vid=23964231-9294-40d2-9d81-16e99ab01d5b","ios":"levelo://app?vid=23964231-9294-40d2-9d81-16e99ab01d5b"},"vehicle_type_id":"4","last_reported":1762089329,"current_range_meters":14400,"station_id":"st_d2m65c5bi1j21697t3ng","pricing_plan_id":"cebpf4jnsgd1na2vs0mg"},{"bike_id":"423802bb-722e-4533-9018-c0f75cce34a6","system_id":"levelo_inurba_marseille","lat":43.30674,"lon":5.38176,"is_reserved":false,"is_disabled":false,"rental_uris":{"android":"levelo://app?vid=423802bb-722e-4533-9018-c0f75cce34a6","ios":"levelo://app?vid=423802bb-722e-4533-9018-c0f75cce34a6"},"vehicle_type_id":"4","last_reported":1762089329,"current_range_meters":14800,"station_id":"","pricing_plan_id":"cebpf4jnsgd1na2vs0mg"},{"bike_id":"aad6a064-c048-4ba9-a156-1745b89548aa","system_id":"levelo_inurba_marseille","lat":43.28325,"lon":5.4113,"is_reserved":false,"is_disabled":false,"rental_uris":{"android":"levelo://app?vid=aad6a064-c048-4ba9-a156-1745b89548aa","ios":"levelo://app?vid=aad6a064-c048-4ba9-a156-1745b89548aa"},"vehicle_type_id":"4","last_reported":1762089329,"current_range_meters":14800,"station_id":"","pricing_plan_id":"cebpf4jnsgd1na2vs0mg"},{"bike_id":"04017ca4-97fd-4759-9184-7d6b0cf1d686","system_id":"levelo_inurba_marseille","lat":43.30173,"lon":5.38105,"is_reserved":false,"is_disabled":false,"rental_uris":{"android":"levelo://app?vid=04017ca4-97fd-4759-9184-7d6b0cf1d686","ios":"levelo://app?vid=04017ca4-97fd-4759-9184-7d6b0cf1d686"},"vehicle_type_id":"4","last_reported":1762089329,"current_range_meters":15200,"station_id":"ce4bgjp2rcd13ifvqbh0","pricing_plan_id":"cebpf4jnsgd1na2vs0mg"},{"bike_id":"bd28d377-3e28-44b0-81ff-2ee6bac26cbc","system_id":"levelo_inurba_marseille","lat":43.30951,"lon":5.39039,"is_reserved":false,"is_disabled":false,"rental_uris":{"android":"levelo://app?vid=bd28d377-3e28-44b0-81ff-2ee6bac26cbc","ios":"levelo://app?vid=bd28d377-3e28-44b0-81ff-2ee6bac26cbc"},"vehicle_type_id":"4","last_reported":1762089329,"current_range_meters":15200,"station_id":"ce4bgup2rcd13ifvqco0","pricing_plan_id":"cebpf4jnsgd1na2vs0mg"},{"bike_id":"0ba38b99-4d19-44c8-847f-056676925de8","system_id":"levelo_inurba_marseille","lat":43.28409,"lon":5.37515,"is_reserved":false,"is_disabled":false,"rental_uris":{"android":"levelo://app?vid=0ba38b99-4d19-44c8-847f-056676925de8","ios":"levelo://app?vid=0ba38b99-4d19-44c8-847f-056676925de8"},"vehicle_type_id":"4","last_reported":1762089329,"current_range_meters":15200,"station_id":"ce4bh412rcd13ifvqds0","pricing_plan_id":"cebpf4jnsgd1na2vs0mg"},{"bike_id":"066ede02-47a2-4c83-bcb1-7eb633a370fb","system_id":"levelo_inurba_marseille","lat":43.312822,"lon":5.3776,"is_reserved":false,"is_disabled":false,"rental_uris":{"android":"levelo://app?vid=066ede02-47a2-4c83-bcb1-7eb633a370fb","ios":"levelo://app?vid=066ede02-47a2-4c83-bcb1-7eb633a370fb"},"vehicle_type_id":"4","last_reported":1762089329,"current_range_meters":16000,"station_id":"","pricing_plan_id":"cebpf4jnsgd1na2vs0mg"},{"bike_id":"4910d7c4-d705-49db-9cc8-a10f1ea5e134","system_id":"levelo_inurba_marseille","lat":43.29903,"lon":5.37189,"is_reserved":false,"is_disabled":false,"rental_uris":{"android":"levelo://app?vid=4910d7c4-d705-49db-9cc8-a10f1ea5e134","ios":"levelo://app?vid=4910d7c4-d705-49db-9cc8-a10f1ea5e134"},"vehicle_type_id":"4","last_reported":1762089329,"current_range_meters":16000,"station_id":"","pricing_plan_id":"cebpf4jnsgd1na2vs0mg"},{"bike_id":"6a1cc001-3bc9-4225-8e3c-d058d9b19e8e","system_id":"levelo_inurba_marseille","lat":43.24636,"lon":5.43158,"is_reserved":false,"is_disabled":false,"rental_uris":{"android":"levelo://app?vid=6a1cc001-3bc9-4225-8e3c-d058d9b19e8e","ios":"levelo://app?vid=6a1cc001-3bc9-4225-8e3c-d058d9b19e8e"},"vehicle_type_id":"4","last_reported":1762089329,"current_range_meters":16000,"station_id":"st_d2m6c4gdas8pm72e190g","pricing_plan_id":"cebpf4jnsgd1na2vs0mg"},{"bike_id":"6eb523a4-350d-4959-ac5e-1335d8f70954","system_id":"levelo_inurba_marseille","lat":43.315717,"lon":5.406423,"is_reserved":false,"is_disabled":false,"rental_uris":{"android":"levelo://app?vid=6eb523a4-350d-4959-ac5e-1335d8f70954","ios":"levelo://app?vid=6eb523a4-350d-4959-ac5e-1335d8f70954"},"vehicle_type_id":"4","last_reported":1762089329,"current_range_meters":16000,"station_id":"","pricing_plan_id":"cebpf4jnsgd1na2vs0mg"},{"bike_id":"e2b26344-8047-452f-a135-c9163ba63ac5","system_id":"levelo_inurba_marseille","lat":43.21742,"lon":5.34603,"is_reserved":false,"is_disabled":false,"rental_uris":{"android":"levelo://app?vid=e2b26344-8047-452f-a135-c9163ba63ac5","ios":"levelo://app?vid=e2b26344-8047-452f-a135-c9163ba63ac5"},"vehicle_type_id":"4","last_reported":1762089329,"current_range_meters":16000,"station_id":"st_cvj6r9ubvosntc0bgbag","pricing_plan_id":"cebpf4jnsgd1na2vs0mg"},{"bike_id":"02ab0480-1393-487e-95a2-314141ae01bf","system_id":"levelo_inurba_marseille","lat":43.28165,"lon":5.42664,"is_reserved":false,"is_disabled":false,"rental_uris":{"android":"levelo://app?vid=02ab0480-1393-487e-95a2-314141ae01bf","ios":"levelo://app?vid=02ab0480-1393-487e-95a2-314141ae01bf"},"vehicle_type_id":"4","last_reported":1762089329,"current_range_meters":16400,"station_id":"ce4bhnh2rcd13ifvqgug","pricing_plan_id":"cebpf4jnsgd1na2vs0mg"},{"bike_id":"8015b7d6-bc9b-4269-b31c-ac60ba8c2053","system_id":"levelo_inurba_marseille","lat":43.21192,"lon":5.3507,"is_reserved":false,"is_disabled":false,"rental_uris":{"android":"levelo://app?vid=8015b7d6-bc9b-4269-b31c-ac60ba8c2053","ios":"levelo://app?vid=8015b7d6-bc9b-4269-b31c-ac60ba8c2053"},"vehicle_type_id":"4","last_reported":1762089329,"current_range_meters":16400,"station_id":"st_cvj6sg6p6f1abm77japg","pricing_plan_id":"cebpf4jnsgd1na2vs0mg"},{"bike_id":"aef75ae5-d606-43b6-8ba5-d53a35c16de5","system_id":"levelo_inurba_marseille","lat":43.27445,"lon":5.3941,"is_reserved":false,"is_disabled":true,"rental_uris":{"android":"levelo://app?vid=aef75ae5-d606-43b6-8ba5-d53a35c16de5","ios":"levelo://app?vid=aef75ae5-d606-43b6-8ba5-d53a35c16de5"},"vehicle_type_id":"4","last_reported":1762089329,"current_range_meters":16400,"station_id":"ce4bhdp2rcd13ifvqf20","pricing_plan_id":"cebpf4jnsgd1na2vs0mg"},{"bike_id":"1c7e9560-2754-4a88-b1cb-cdee38fc1289","system_id":"levelo_inurba_marseille","lat":43.26895,"lon":5.40291,"is_reserved":false,"is_disabled":true,"rental_uris":{"android":"levelo://app?vid=1c7e9560-2754-4a88-b1cb-cdee38fc1289","ios":"levelo://app?vid=1c7e9560-2754-4a88-b1cb-cdee38fc1289"},"vehicle_type_id":"4","last_reported":1762089329,"current_range_meters":16400,"station_id":"cjm6bp8fraef2m0cb0m0","pricing_plan_id":"cebpf4jnsgd1na2vs0mg"},{"bike_id":"fcc7a5b9-eb88-45bf-aebf-cf96cca8c3ef","system_id":"levelo_inurba_marseille","lat":43.24729,"lon":5.38264,"is_reserved":false,"is_disabled":false,"rental_uris":{"android":"levelo://app?vid=fcc7a5b9-eb88-45bf-aebf-cf96cca8c3ef","ios":"levelo://app?vid=fcc7a5b9-eb88-45bf-aebf-cf96cca8c3ef"},"vehicle_type_id":"4","last_reported":1762089329,"current_range_meters":16400,"station_id":"","pricing_plan_id":"cebpf4jnsgd1na2vs0mg"},{"bike_id":"fe2272ea-7316-4280-b90c-d8c4db7bc73e","system_id":"levelo_inurba_marseille","lat":43.27945,"lon":5.39298,"is_reserved":false,"is_disabled":false,"rental_uris":{"android":"levelo://app?vid=fe2272ea-7316-4280-b90c-d8c4db7bc73e","ios":"levelo://app?vid=fe2272ea-7316-4280-b90c-d8c4db7bc73e"},"vehicle_type_id":"4","last_reported":1762089329,"current_range_meters":16400,"station_id":"","pricing_plan_id":"cebpf4jnsgd1na2vs0mg"},{"bike_id":"d5da00c9-670b-4368-80b3-d7115e67e17a","system_id":"levelo_inurba_marseille","lat":43.31497,"lon":5.3731,"is_reserved":false,"is_disabled":false,"rental_uris":{"android":"levelo://app?vid=d5da00c9-670b-4368-80b3-d7115e67e17a","ios":"levelo://app?vid=d5da00c9-670b-4368-80b3-d7115e67e17a"},"vehicle_type_id":"4","last_reported":1762089329,"current_range_meters":16400,"station_id":"ce4bgt12rcd13ifvqcd0","pricing_plan_id":"cebpf4jnsgd1na2vs0mg"},{"bike_id":"aa56963e-5f6a-4043-b1c7-23e4d9f05d8c","system_id":"levelo_inurba_marseille","lat":43.313499,"lon":5.379119,"is_reserved":false,"is_disabled":false,"rental_uris":{"android":"levelo://app?vid=aa56963e-5f6a-4043-b1c7-23e4d9f05d8c","ios":"levelo://app?vid=aa56963e-5f6a-4043-b1c7-23e4d9f05d8c"},"vehicle_type_id":"4","last_reported":1762089329,"current_range_meters":16400,"station_id":"","pricing_plan_id":"cebpf4jnsgd1na2vs0mg"},{"bike_id":"ea981441-de44-4e91-a60f-0f3605343256","system_id":"levelo_inurba_marseille","lat":43.323548,"lon":5.367439,"is_reserved":false,"is_disabled":false,"rental_uris":{"android":"levelo://app?vid=ea981441-de44-4e91-a60f-0f3605343256","ios":"levelo://app?vid=ea981441-de44-4e91-a60f-0f3605343256"},"vehicle_type_id":"4","last_reported":1762089329,"current_range_meters":16400,"station_id":"ce4bhsh2rcd13ifvqi2g","pricing_plan_id":"cebpf4jnsgd1na2vs0mg"},{"bike_id":"5b56b1f9-cc97-4ac9-b235-d814d7d861e9","system_id":"levelo_inurba_marseille","lat":43.257283,"lon":5.411128,"is_reserved":false,"is_disabled":false,"rental_uris":{"android":"levelo://app?vid=5b56b1f9-cc97-4ac9-b235-d814d7d861e9","ios":"levelo://app?vid=5b56b1f9-cc97-4ac9-b235-d814d7d861e9"},"vehicle_type_id":"4","last_reported":1762089329,"current_range_meters":16400,"station_id":"ce4bhkp2rcd13ifvqgd0","pricing_plan_id":"cebpf4jnsgd1na2vs0mg"},{"bike_id":"85d8043d-b929-43f8-9188-ad421047c360","system_id":"levelo_inurba_marseille","lat":43.253324,"lon":5.421621,"is_reserved":false,"is_disabled":false,"rental_uris":{"android":"levelo://app?vid=85d8043d-b929-43f8-9188-ad421047c360","ios":"levelo://app?vid=85d8043d-b929-43f8-9188-ad421047c360"},"vehicle_type_id":"4","last_reported":1762089329,"current_range_meters":16800,"station_id":"st_d2m65c5bi1j21697t3ng","pricing_plan_id":"cebpf4jnsgd1na2vs0mg"},{"bike_id":"65959e76-2dec-43d3-b15c-b4e7433182fd","system_id":"levelo_inurba_marseille","lat":43.293631,"lon":5.371955,"is_reserved":false,"is_disabled":false,"rental_uris":{"android":"levelo://app?vid=65959e76-2dec-43d3-b15c-b4e7433182fd","ios":"levelo://app?vid=65959e76-2dec-43d3-b15c-b4e7433182fd"},"vehicle_type_id":"4","last_reported":1762089329,"current_range_meters":16800,"station_id":"","pricing_plan_id":"cebpf4jnsgd1na2vs0mg"},{"bike_id":"6dbae8fb-b558-4de5-931e-260b80081062","system_id":"levelo_inurba_marseille","lat":43.29889,"lon":5.43642,"is_reserved":false,"is_disabled":false,"rental_uris":{"android":"levelo://app?vid=6dbae8fb-b558-4de5-931e-260b80081062","ios":"levelo://app?vid=6dbae8fb-b558-4de5-931e-260b80081062"},"vehicle_type_id":"4","last_reported":1762089329,"current_range_meters":16800,"station_id":"ce4bhpp2rcd13ifvqhfg","pricing_plan_id":"cebpf4jnsgd1na2vs0mg"},{"bike_id":"b0f13743-8000-4cf9-9975-6d3a0b7effc8","system_id":"levelo_inurba_marseille","lat":43.30593,"lon":5.37208,"is_reserved":false,"is_disabled":false,"rental_uris":{"android":"levelo://app?vid=b0f13743-8000-4cf9-9975-6d3a0b7effc8","ios":"levelo://app?vid=b0f13743-8000-4cf9-9975-6d3a0b7effc8"},"vehicle_type_id":"4","last_reported":1762089329,"current_range_meters":16800,"station_id":"ce4bgqh2rcd13ifvqc4g","pricing_plan_id":"cebpf4jnsgd1na2vs0mg"},{"bike_id":"cc475582-0cc3-4b14-a66c-6041b0d2e976","system_id":"levelo_inurba_marseille","lat":43.29335,"lon":5.41178,"is_reserved":false,"is_disabled":false,"rental_uris":{"android":"levelo://app?vid=cc475582-0cc3-4b14-a66c-6041b0d2e976","ios":"levelo://app?vid=cc475582-0cc3-4b14-a66c-6041b0d2e976"},"vehicle_type_id":"4","last_reported":1762089329,"current_range_meters":16800,"station_id":"","pricing_plan_id":"cebpf4jnsgd1na2vs0mg"},{"bike_id":"fb5034e0-3aea-4d52-bc49-3aaebdc82460","system_id":"levelo_inurba_marseille","lat":43.29529,"lon":5.38546,"is_reserved":false,"is_disabled":false,"rental_uris":{"android":"levelo://app?vid=fb5034e0-3aea-4d52-bc49-3aaebdc82460","ios":"levelo://app?vid=fb5034e0-3aea-4d52-bc49-3aaebdc82460"},"vehicle_type_id":"4","last_reported":1762089329,"current_range_meters":16800,"station_id":"ce4bgih2rcd13ifvqba0","pricing_plan_id":"cebpf4jnsgd1na2vs0mg"},{"bike_id":"f62c6d6b-70ef-48a7-bde6-34b3edad9f11","system_id":"levelo_inurba_marseille","lat":43.28696,"lon":5.40015,"is_reserved":false,"is_disabled":false,"rental_uris":{"android":"levelo://app?vid=f62c6d6b-70ef-48a7-bde6-34b3edad9f11","ios":"levelo://app?vid=f62c6d6b-70ef-48a7-bde6-34b3edad9f11"},"vehicle_type_id":"4","last_reported":1762089329,"current_range_meters":16800,"station_id":"ce4bho92rcd13ifvqh3g","pricing_plan_id":"cebpf4jnsgd1na2vs0mg"},{"bike_id":"5477c7f8-a772-48db-a5b3-ba769641e22b","system_id":"levelo_inurba_marseille","lat":43.32489,"lon":5.36602,"is_reserved":false,"is_disabled":false,"rental_uris":{"android":"levelo://app?vid=5477c7f8-a772-48db-a5b3-ba769641e22b","ios":"levelo://app?vid=5477c7f8-a772-48db-a5b3-ba769641e22b"},"vehicle_type_id":"4","last_reported":1762089329,"current_range_meters":16800,"station_id":"ce4bhs12rcd13ifvqhvg","pricing_plan_id":"cebpf4jnsgd1na2vs0mg"},{"bike_id":"2028d4ce-ded6-40be-bc4a-6279c68b564c","system_id":"levelo_inurba_marseille","lat":43.21743,"lon":5.34605,"is_reserved":false,"is_disabled":false,"rental_uris":{"android":"levelo://app?vid=2028d4ce-ded6-40be-bc4a-6279c68b564c","ios":"levelo://app?vid=2028d4ce-ded6-40be-bc4a-6279c68b564c"},"vehicle_type_id":"4","last_reported":1762089329,"current_range_meters":16800,"station_id":"","pricing_plan_id":"cebpf4jnsgd1na2vs0mg"},{"bike_id":"a222e02c-8931-4f0c-b87a-a972f6b458bd","system_id":"levelo_inurba_marseille","lat":43.31078,"lon":5.3835,"is_reserved":false,"is_disabled":false,"rental_uris":{"android":"levelo://app?vid=a222e02c-8931-4f0c-b87a-a972f6b458bd","ios":"levelo://app?vid=a222e02c-8931-4f0c-b87a-a972f6b458bd"},"vehicle_type_id":"4","last_reported":1762089329,"current_range_meters":16800,"station_id":"ce4bgv92rcd13ifvqcr0","pricing_plan_id":"cebpf4jnsgd1na2vs0mg"},{"bike_id":"082a1fc9-fa33-4385-8dc2-797cf958a64d","system_id":"levelo_inurba_marseille","lat":43.30798,"lon":5.43515,"is_reserved":false,"is_disabled":false,"rental_uris":{"android":"levelo://app?vid=082a1fc9-fa33-4385-8dc2-797cf958a64d","ios":"levelo://app?vid=082a1fc9-fa33-4385-8dc2-797cf958a64d"},"vehicle_type_id":"4","last_reported":1762089329,"current_range_meters":17200,"station_id":"","pricing_plan_id":"cebpf4jnsgd1na2vs0mg"},{"bike_id":"71d30f73-c7cf-460d-bade-562daa7e1043","system_id":"levelo_inurba_marseille","lat":43.273155,"lon":5.39058,"is_reserved":false,"is_disabled":false,"rental_uris":{"android":"levelo://app?vid=71d30f73-c7cf-460d-bade-562daa7e1043","ios":"levelo://app?vid=71d30f73-c7cf-460d-bade-562daa7e1043"},"vehicle_type_id":"4","last_reported":1762089329,"current_range_meters":17200,"station_id":"ce4bhmh2rcd13ifvqgmg","pricing_plan_id":"cebpf4jnsgd1na2vs0mg"},{"bike_id":"ea56cd0c-97c0-48fb-99e6-e2871fc26fd0","system_id":"levelo_inurba_marseille","lat":43.30596,"lon":5.37228,"is_reserved":false,"is_disabled":false,"rental_uris":{"android":"levelo://app?vid=ea56cd0c-97c0-48fb-99e6-e2871fc26fd0","ios":"levelo://app?vid=ea56cd0c-97c0-48fb-99e6-e2871fc26fd0"},"vehicle_type_id":"4","last_reported":1762089329,"current_range_meters":17200,"station_id":"ce4bgqh2rcd13ifvqc4g","pricing_plan_id":"cebpf4jnsgd1na2vs0mg"},{"bike_id":"123ec047-d6a2-4308-aee4-8ec0b2bea538","system_id":"levelo_inurba_marseille","lat":43.231949,"lon":5.355538,"is_reserved":false,"is_disabled":false,"rental_uris":{"android":"levelo://app?vid=123ec047-d6a2-4308-aee4-8ec0b2bea538","ios":"levelo://app?vid=123ec047-d6a2-4308-aee4-8ec0b2bea538"},"vehicle_type_id":"4","last_reported":1762089329,"current_range_meters":17200,"station_id":"ce4bhu92rcd13ifvqi70","pricing_plan_id":"cebpf4jnsgd1na2vs0mg"},{"bike_id":"f10c1fd0-819c-4bcb-a779-837cb537741a","system_id":"levelo_inurba_marseille","lat":43.29486,"lon":5.37466,"is_reserved":false,"is_disabled":false,"rental_uris":{"android":"levelo://app?vid=f10c1fd0-819c-4bcb-a779-837cb537741a","ios":"levelo://app?vid=f10c1fd0-819c-4bcb-a779-837cb537741a"},"vehicle_type_id":"4","last_reported":1762089329,"current_range_meters":17200,"station_id":"","pricing_plan_id":"cebpf4jnsgd1na2vs0mg"},{"bike_id":"8ddff015-adbb-4f07-8778-137067ff26d9","system_id":"levelo_inurba_marseille","lat":43.22572,"lon":5.41626,"is_reserved":false,"is_disabled":false,"rental_uris":{"android":"levelo://app?vid=8ddff015-adbb-4f07-8778-137067ff26d9","ios":"levelo://app?vid=8ddff015-adbb-4f07-8778-137067ff26d9"},"vehicle_type_id":"4","last_reported":1762089329,"current_range_meters":17200,"station_id":"st_d2o4gvlbi1j2169b742g","pricing_plan_id":"cebpf4jnsgd1na2vs0mg"},{"bike_id":"1f4bf620-5a86-4131-b1aa-491aa828d1ad","system_id":"levelo_inurba_marseille","lat":43.25095,"lon":5.39516,"is_reserved":false,"is_disabled":false,"rental_uris":{"android":"levelo://app?vid=1f4bf620-5a86-4131-b1aa-491aa828d1ad","ios":"levelo://app?vid=1f4bf620-5a86-4131-b1aa-491aa828d1ad"},"vehicle_type_id":"4","last_reported":1762089329,"current_range_meters":17600,"station_id":"ce4bhm12rcd13ifvqgkg","pricing_plan_id":"cebpf4jnsgd1na2vs0mg"},{"bike_id":"e37a3e06-24f5-4130-8d50-b62005271d50","system_id":"levelo_inurba_marseille","lat":43.24167,"lon":5.36388,"is_reserved":false,"is_disabled":false,"rental_uris":{"android":"levelo://app?vid=e37a3e06-24f5-4130-8d50-b62005271d50","ios":"levelo://app?vid=e37a3e06-24f5-4130-8d50-b62005271d50"},"vehicle_type_id":"4","last_reported":1762089329,"current_range_meters":17600,"station_id":"cpo36qri1sfpv3e86is0","pricing_plan_id":"cebpf4jnsgd1na2vs0mg"},{"bike_id":"4c2e795a-4ac2-4fba-b47e-7412c196e673","system_id":"levelo_inurba_marseille","lat":43.3211,"lon":5.36781,"is_reserved":false,"is_disabled":false,"rental_uris":{"android":"levelo://app?vid=4c2e795a-4ac2-4fba-b47e-7412c196e673","ios":"levelo://app?vid=4c2e795a-4ac2-4fba-b47e-7412c196e673"},"vehicle_type_id":"4","last_reported":1762089329,"current_range_meters":17600,"station_id":"ce4bhrh2rcd13ifvqhug","pricing_plan_id":"cebpf4jnsgd1na2vs0mg"},{"bike_id":"b2514755-0f11-4833-b225-7d1f8289efa4","system_id":"levelo_inurba_marseille","lat":43.22932,"lon":5.3538,"is_reserved":false,"is_disabled":false,"rental_uris":{"android":"levelo://app?vid=b2514755-0f11-4833-b225-7d1f8289efa4","ios":"levelo://app?vid=b2514755-0f11-4833-b225-7d1f8289efa4"},"vehicle_type_id":"4","last_reported":1762089329,"current_range_meters":17600,"station_id":"cpo3532slgdg3j2ikp40","pricing_plan_id":"cebpf4jnsgd1na2vs0mg"},{"bike_id":"ac6fb5ab-2bf5-4938-b19e-f037b143495c","system_id":"levelo_inurba_marseille","lat":43.2707,"lon":5.42275,"is_reserved":false,"is_disabled":false,"rental_uris":{"android":"levelo://app?vid=ac6fb5ab-2bf5-4938-b19e-f037b143495c","ios":"levelo://app?vid=ac6fb5ab-2bf5-4938-b19e-f037b143495c"},"vehicle_type_id":"4","last_reported":1762089329,"current_range_meters":17600,"station_id":"ce4bhk92rcd13ifvqgb0","pricing_plan_id":"cebpf4jnsgd1na2vs0mg"},{"bike_id":"098d7ae5-5b2b-4d49-ad2f-d14f29937957","system_id":"levelo_inurba_marseille","lat":43.28962,"lon":5.37838,"is_reserved":false,"is_disabled":true,"rental_uris":{"android":"levelo://app?vid=098d7ae5-5b2b-4d49-ad2f-d14f29937957","ios":"levelo://app?vid=098d7ae5-5b2b-4d49-ad2f-d14f29937957"},"vehicle_type_id":"4","last_reported":1762089329,"current_range_meters":17600,"station_id":"ce4bh9p2rcd13ifvqed0","pricing_plan_id":"cebpf4jnsgd1na2vs0mg"},{"bike_id":"28f5c609-94bd-4f1d-9186-f66e4c2140b5","system_id":"levelo_inurba_marseille","lat":43.307356,"lon":5.424399,"is_reserved":false,"is_disabled":false,"rental_uris":{"android":"levelo://app?vid=28f5c609-94bd-4f1d-9186-f66e4c2140b5","ios":"levelo://app?vid=28f5c609-94bd-4f1d-9186-f66e4c2140b5"},"vehicle_type_id":"4","last_reported":1762089329,"current_range_meters":17600,"station_id":"st_cvj6ca6bvosntc0bfgr0","pricing_plan_id":"cebpf4jnsgd1na2vs0mg"},{"bike_id":"bc97e72b-f479-4cfb-ba90-458ce1432bd8","system_id":"levelo_inurba_marseille","lat":43.302941,"lon":5.377009,"is_reserved":false,"is_disabled":true,"rental_uris":{"android":"levelo://app?vid=bc97e72b-f479-4cfb-ba90-458ce1432bd8","ios":"levelo://app?vid=bc97e72b-f479-4cfb-ba90-458ce1432bd8"},"vehicle_type_id":"4","last_reported":1762089329,"current_range_meters":17600,"station_id":"ce4bguh2rcd13ifvqcj0","pricing_plan_id":"cebpf4jnsgd1na2vs0mg"},{"bike_id":"9cf7e28f-7b0d-4c2c-a2b9-f3633fadfc11","system_id":"levelo_inurba_marseille","lat":43.31885,"lon":5.40741,"is_reserved":false,"is_disabled":false,"rental_uris":{"android":"levelo://app?vid=9cf7e28f-7b0d-4c2c-a2b9-f3633fadfc11","ios":"levelo://app?vid=9cf7e28f-7b0d-4c2c-a2b9-f3633fadfc11"},"vehicle_type_id":"4","last_reported":1762089329,"current_range_meters":17600,"station_id":"ce4bhq12rcd13ifvqhig","pricing_plan_id":"cebpf4jnsgd1na2vs0mg"},{"bike_id":"dd5e056b-1aaf-4b9c-9437-38d38cb4bdec","system_id":"levelo_inurba_marseille","lat":43.27207,"lon":5.39184,"is_reserved":false,"is_disabled":false,"rental_uris":{"android":"levelo://app?vid=dd5e056b-1aaf-4b9c-9437-38d38cb4bdec","ios":"levelo://app?vid=dd5e056b-1aaf-4b9c-9437-38d38cb4bdec"},"vehicle_type_id":"4","last_reported":1762089329,"current_range_meters":17600,"station_id":"ce4bhhp2rcd13ifvqfm0","pricing_plan_id":"cebpf4jnsgd1na2vs0mg"},{"bike_id":"4f2560ae-c631-4e46-981e-63c5a3acd16c","system_id":"levelo_inurba_marseille","lat":43.273137,"lon":5.390854,"is_reserved":false,"is_disabled":false,"rental_uris":{"android":"levelo://app?vid=4f2560ae-c631-4e46-981e-63c5a3acd16c","ios":"levelo://app?vid=4f2560ae-c631-4e46-981e-63c5a3acd16c"},"vehicle_type_id":"4","last_reported":1762089329,"current_range_meters":18000,"station_id":"ce4bhgp2rcd13ifvqfe0","pricing_plan_id":"cebpf4jnsgd1na2vs0mg"},{"bike_id":"6dd18053-e3ac-4ec6-8544-7b6c95a61457","system_id":"levelo_inurba_marseille","lat":43.241664,"lon":5.363973,"is_reserved":false,"is_disabled":false,"rental_uris":{"android":"levelo://app?vid=6dd18053-e3ac-4ec6-8544-7b6c95a61457","ios":"levelo://app?vid=6dd18053-e3ac-4ec6-8544-7b6c95a61457"},"vehicle_type_id":"4","last_reported":1762089329,"current_range_meters":18000,"station_id":"cpo36qri1sfpv3e86is0","pricing_plan_id":"cebpf4jnsgd1na2vs0mg"},{"bike_id":"7b0640f1-89b5-48a2-9295-c64c6b4d91b0","system_id":"levelo_inurba_marseille","lat":43.2769,"lon":5.38917,"is_reserved":false,"is_disabled":false,"rental_uris":{"android":"levelo://app?vid=7b0640f1-89b5-48a2-9295-c64c6b4d91b0","ios":"levelo://app?vid=7b0640f1-89b5-48a2-9295-c64c6b4d91b0"},"vehicle_type_id":"4","last_reported":1762089329,"current_range_meters":18000,"station_id":"ce4bhi12rcd13ifvqfo0","pricing_plan_id":"cebpf4jnsgd1na2vs0mg"},{"bike_id":"9ef4b4ad-5e67-4e3a-8679-6d65e54b676b","system_id":"levelo_inurba_marseille","lat":43.27496,"lon":5.4245,"is_reserved":false,"is_disabled":false,"rental_uris":{"android":"levelo://app?vid=9ef4b4ad-5e67-4e3a-8679-6d65e54b676b","ios":"levelo://app?vid=9ef4b4ad-5e67-4e3a-8679-6d65e54b676b"},"vehicle_type_id":"4","last_reported":1762089329,"current_range_meters":18000,"station_id":"ce4bhn92rcd13ifvqgrg","pricing_plan_id":"cebpf4jnsgd1na2vs0mg"},{"bike_id":"ef3051ac-87a4-400e-a432-5bfc2a83a3e3","system_id":"levelo_inurba_marseille","lat":43.32446,"lon":5.36572,"is_reserved":false,"is_disabled":false,"rental_uris":{"android":"levelo://app?vid=ef3051ac-87a4-400e-a432-5bfc2a83a3e3","ios":"levelo://app?vid=ef3051ac-87a4-400e-a432-5bfc2a83a3e3"},"vehicle_type_id":"4","last_reported":1762089329,"current_range_meters":18000,"station_id":"ce4bhs12rcd13ifvqhvg","pricing_plan_id":"cebpf4jnsgd1na2vs0mg"},{"bike_id":"054e5513-a18a-4fec-bab2-96a168188b7d","system_id":"levelo_inurba_marseille","lat":43.31178,"lon":5.3737,"is_reserved":false,"is_disabled":false,"rental_uris":{"android":"levelo://app?vid=054e5513-a18a-4fec-bab2-96a168188b7d","ios":"levelo://app?vid=054e5513-a18a-4fec-bab2-96a168188b7d"},"vehicle_type_id":"4","last_reported":1762089329,"current_range_meters":18000,"station_id":"","pricing_plan_id":"cebpf4jnsgd1na2vs0mg"},{"bike_id":"1a9255c3-f809-427d-b153-cdb99d824189","system_id":"levelo_inurba_marseille","lat":43.249513,"lon":5.404936,"is_reserved":false,"is_disabled":false,"rental_uris":{"android":"levelo://app?vid=1a9255c3-f809-427d-b153-cdb99d824189","ios":"levelo://app?vid=1a9255c3-f809-427d-b153-cdb99d824189"},"vehicle_type_id":"4","last_reported":1762089329,"current_range_meters":18000,"station_id":"st_d2ngiaodas8pm72gd1h0","pricing_plan_id":"cebpf4jnsgd1na2vs0mg"},{"bike_id":"d87975d2-a2e1-4541-9551-dcffb3b9574e","system_id":"levelo_inurba_marseille","lat":43.30957,"lon":5.39056,"is_reserved":false,"is_disabled":false,"rental_uris":{"android":"levelo://app?vid=d87975d2-a2e1-4541-9551-dcffb3b9574e","ios":"levelo://app?vid=d87975d2-a2e1-4541-9551-dcffb3b9574e"},"vehicle_type_id":"4","last_reported":1762089329,"current_range_meters":18000,"station_id":"ce4bgup2rcd13ifvqco0","pricing_plan_id":"cebpf4jnsgd1na2vs0mg"},{"bike_id":"85dce785-b2b7-4cf5-a34e-b4a9114ae38b","system_id":"levelo_inurba_marseille","lat":43.28415,"lon":5.34992,"is_reserved":false,"is_disabled":false,"rental_uris":{"android":"levelo://app?vid=85dce785-b2b7-4cf5-a34e-b4a9114ae38b","ios":"levelo://app?vid=85dce785-b2b7-4cf5-a34e-b4a9114ae38b"},"vehicle_type_id":"4","last_reported":1762089329,"current_range_meters":18800,"station_id":"ce4bhbh2rcd13ifvqepg","pricing_plan_id":"cebpf4jnsgd1na2vs0mg"},{"bike_id":"75214922-1e7d-4be3-84ae-23b8d8279199","system_id":"levelo_inurba_marseille","lat":43.324627,"lon":5.365601,"is_reserved":false,"is_disabled":false,"rental_uris":{"android":"levelo://app?vid=75214922-1e7d-4be3-84ae-23b8d8279199","ios":"levelo://app?vid=75214922-1e7d-4be3-84ae-23b8d8279199"},"vehicle_type_id":"4","last_reported":1762089329,"current_range_meters":18800,"station_id":"ce4bhs12rcd13ifvqhvg","pricing_plan_id":"cebpf4jnsgd1na2vs0mg"},{"bike_id":"06756d68-f601-4313-a049-fec54d37d722","system_id":"levelo_inurba_marseille","lat":43.336107,"lon":5.410388,"is_reserved":false,"is_disabled":false,"rental_uris":{"android":"levelo://app?vid=06756d68-f601-4313-a049-fec54d37d722","ios":"levelo://app?vid=06756d68-f601-4313-a049-fec54d37d722"},"vehicle_type_id":"4","last_reported":1762089329,"current_range_meters":18800,"station_id":"ce4bhq92rcd13ifvqhkg","pricing_plan_id":"cebpf4jnsgd1na2vs0mg"},{"bike_id":"cfc27691-61f7-4b7d-9c2b-fa331c214f26","system_id":"levelo_inurba_marseille","lat":43.280335,"lon":5.369477,"is_reserved":false,"is_disabled":false,"rental_uris":{"android":"levelo://app?vid=cfc27691-61f7-4b7d-9c2b-fa331c214f26","ios":"levelo://app?vid=cfc27691-61f7-4b7d-9c2b-fa331c214f26"},"vehicle_type_id":"4","last_reported":1762089329,"current_range_meters":18800,"station_id":"ce4bha12rcd13ifvqef0","pricing_plan_id":"cebpf4jnsgd1na2vs0mg"},{"bike_id":"41a0e05b-05bf-4f74-92d2-741c85fb6fe4","system_id":"levelo_inurba_marseille","lat":43.25511,"lon":5.37663,"is_reserved":false,"is_disabled":true,"rental_uris":{"android":"levelo://app?vid=41a0e05b-05bf-4f74-92d2-741c85fb6fe4","ios":"levelo://app?vid=41a0e05b-05bf-4f74-92d2-741c85fb6fe4"},"vehicle_type_id":"4","last_reported":1762089329,"current_range_meters":18800,"station_id":"ce4bhh12rcd13ifvqff0","pricing_plan_id":"cebpf4jnsgd1na2vs0mg"},{"bike_id":"a1d40ddf-b5bf-4e28-b501-19b855936b47","system_id":"levelo_inurba_marseille","lat":43.281062,"lon":5.378302,"is_reserved":false,"is_disabled":false,"rental_uris":{"android":"levelo://app?vid=a1d40ddf-b5bf-4e28-b501-19b855936b47","ios":"levelo://app?vid=a1d40ddf-b5bf-4e28-b501-19b855936b47"},"vehicle_type_id":"4","last_reported":1762089329,"current_range_meters":18800,"station_id":"ce4bha12rcd13ifvqee0","pricing_plan_id":"cebpf4jnsgd1na2vs0mg"},{"bike_id":"1b1e71cc-c221-4e91-89c8-2d987f944d9c","system_id":"levelo_inurba_marseille","lat":43.241772,"lon":5.364007,"is_reserved":false,"is_disabled":true,"rental_uris":{"android":"levelo://app?vid=1b1e71cc-c221-4e91-89c8-2d987f944d9c","ios":"levelo://app?vid=1b1e71cc-c221-4e91-89c8-2d987f944d9c"},"vehicle_type_id":"4","last_reported":1762089329,"current_range_meters":18800,"station_id":"cpo36qri1sfpv3e86is0","pricing_plan_id":"cebpf4jnsgd1na2vs0mg"},{"bike_id":"45178dd9-b960-4161-871b-52bd5ff2bc66","system_id":"levelo_inurba_marseille","lat":43.255182,"lon":5.37642,"is_reserved":false,"is_disabled":false,"rental_uris":{"android":"levelo://app?vid=45178dd9-b960-4161-871b-52bd5ff2bc66","ios":"levelo://app?vid=45178dd9-b960-4161-871b-52bd5ff2bc66"},"vehicle_type_id":"4","last_reported":1762089329,"current_range_meters":18800,"station_id":"ce4bhh12rcd13ifvqff0","pricing_plan_id":"cebpf4jnsgd1na2vs0mg"},{"bike_id":"88a37c3f-2822-4e65-9019-f92712cd5915","system_id":"levelo_inurba_marseille","lat":43.21192,"lon":5.35077,"is_reserved":false,"is_disabled":true,"rental_uris":{"android":"levelo://app?vid=88a37c3f-2822-4e65-9019-f92712cd5915","ios":"levelo://app?vid=88a37c3f-2822-4e65-9019-f92712cd5915"},"vehicle_type_id":"4","last_reported":1762089329,"current_range_meters":18800,"station_id":"","pricing_plan_id":"cebpf4jnsgd1na2vs0mg"},{"bike_id":"d1b7e294-8ae6-48ef-89d0-e05e23f9f8e0","system_id":"levelo_inurba_marseille","lat":43.29544,"lon":5.36121,"is_reserved":false,"is_disabled":false,"rental_uris":{"android":"levelo://app?vid=d1b7e294-8ae6-48ef-89d0-e05e23f9f8e0","ios":"levelo://app?vid=d1b7e294-8ae6-48ef-89d0-e05e23f9f8e0"},"vehicle_type_id":"4","last_reported":1762089329,"current_range_meters":18800,"station_id":"","pricing_plan_id":"cebpf4jnsgd1na2vs0mg"},{"bike_id":"a8ec203b-d616-4825-acb4-ec9a8037e9f2","system_id":"levelo_inurba_marseille","lat":43.28263,"lon":5.38505,"is_reserved":false,"is_disabled":false,"rental_uris":{"android":"levelo://app?vid=a8ec203b-d616-4825-acb4-ec9a8037e9f2","ios":"levelo://app?vid=a8ec203b-d616-4825-acb4-ec9a8037e9f2"},"vehicle_type_id":"4","last_reported":1762089329,"current_range_meters":18800,"station_id":"","pricing_plan_id":"cebpf4jnsgd1na2vs0mg"},{"bike_id":"dd5f2f9c-0c05-44b1-826b-b53d5ab6e49d","system_id":"levelo_inurba_marseille","lat":43.31326,"lon":5.39695,"is_reserved":false,"is_disabled":false,"rental_uris":{"android":"levelo://app?vid=dd5f2f9c-0c05-44b1-826b-b53d5ab6e49d","ios":"levelo://app?vid=dd5f2f9c-0c05-44b1-826b-b53d5ab6e49d"},"vehicle_type_id":"4","last_reported":1762089329,"current_range_meters":19200,"station_id":"ce4bgvp2rcd13ifvqcu0","pricing_plan_id":"cebpf4jnsgd1na2vs0mg"},{"bike_id":"32d4a401-7eac-4706-9e22-d4c2a7e55b17","system_id":"levelo_inurba_marseille","lat":43.24615,"lon":5.43147,"is_reserved":false,"is_disabled":false,"rental_uris":{"android":"levelo://app?vid=32d4a401-7eac-4706-9e22-d4c2a7e55b17","ios":"levelo://app?vid=32d4a401-7eac-4706-9e22-d4c2a7e55b17"},"vehicle_type_id":"4","last_reported":1762089329,"current_range_meters":19200,"station_id":"st_d2m6c4gdas8pm72e190g","pricing_plan_id":"cebpf4jnsgd1na2vs0mg"},{"bike_id":"2457a6da-e737-4e7a-9c85-e9723cf378b9","system_id":"levelo_inurba_marseille","lat":43.27198,"lon":5.40994,"is_reserved":false,"is_disabled":false,"rental_uris":{"android":"levelo://app?vid=2457a6da-e737-4e7a-9c85-e9723cf378b9","ios":"levelo://app?vid=2457a6da-e737-4e7a-9c85-e9723cf378b9"},"vehicle_type_id":"4","last_reported":1762089329,"current_range_meters":19200,"station_id":"ce4bhl12rcd13ifvqgf0","pricing_plan_id":"cebpf4jnsgd1na2vs0mg"},{"bike_id":"3215364f-6e5f-4b0d-90d7-810d037ad472","system_id":"levelo_inurba_marseille","lat":43.30298,"lon":5.39224,"is_reserved":false,"is_disabled":false,"rental_uris":{"android":"levelo://app?vid=3215364f-6e5f-4b0d-90d7-810d037ad472","ios":"levelo://app?vid=3215364f-6e5f-4b0d-90d7-810d037ad472"},"vehicle_type_id":"4","last_reported":1762089329,"current_range_meters":19200,"station_id":"ce4bgkh2rcd13ifvqbk0","pricing_plan_id":"cebpf4jnsgd1na2vs0mg"},{"bike_id":"4c4b8bcf-4ef8-4551-8b0c-0892f8af6559","system_id":"levelo_inurba_marseille","lat":43.22558,"lon":5.41622,"is_reserved":false,"is_disabled":false,"rental_uris":{"android":"levelo://app?vid=4c4b8bcf-4ef8-4551-8b0c-0892f8af6559","ios":"levelo://app?vid=4c4b8bcf-4ef8-4551-8b0c-0892f8af6559"},"vehicle_type_id":"4","last_reported":1762089329,"current_range_meters":19200,"station_id":"st_d2o4gvlbi1j2169b742g","pricing_plan_id":"cebpf4jnsgd1na2vs0mg"},{"bike_id":"e07ef6a6-32ff-49b4-ad9e-e5d0f3a50b50","system_id":"levelo_inurba_marseille","lat":43.28419,"lon":5.34979,"is_reserved":false,"is_disabled":false,"rental_uris":{"android":"levelo://app?vid=e07ef6a6-32ff-49b4-ad9e-e5d0f3a50b50","ios":"levelo://app?vid=e07ef6a6-32ff-49b4-ad9e-e5d0f3a50b50"},"vehicle_type_id":"4","last_reported":1762089329,"current_range_meters":19200,"station_id":"ce4bhbh2rcd13ifvqepg","pricing_plan_id":"cebpf4jnsgd1na2vs0mg"},{"bike_id":"580e559c-3107-42fc-9c6d-a7d94bd39d44","system_id":"levelo_inurba_marseille","lat":43.28534,"lon":5.44094,"is_reserved":false,"is_disabled":false,"rental_uris":{"android":"levelo://app?vid=580e559c-3107-42fc-9c6d-a7d94bd39d44","ios":"levelo://app?vid=580e559c-3107-42fc-9c6d-a7d94bd39d44"},"vehicle_type_id":"4","last_reported":1762089329,"current_range_meters":19200,"station_id":"st_d3j3df2ikq2c7380ej80","pricing_plan_id":"cebpf4jnsgd1na2vs0mg"},{"bike_id":"7c2e1dd0-781f-4876-a060-0d576f2acc81","system_id":"levelo_inurba_marseille","lat":43.29835,"lon":5.36309,"is_reserved":false,"is_disabled":false,"rental_uris":{"android":"levelo://app?vid=7c2e1dd0-781f-4876-a060-0d576f2acc81","ios":"levelo://app?vid=7c2e1dd0-781f-4876-a060-0d576f2acc81"},"vehicle_type_id":"4","last_reported":1762089329,"current_range_meters":19200,"station_id":"ce4bgpp2rcd13ifvqc3g","pricing_plan_id":"cebpf4jnsgd1na2vs0mg"},{"bike_id":"a09b7839-d620-4bdc-9e33-ea07afd23f6e","system_id":"levelo_inurba_marseille","lat":43.31896,"lon":5.40734,"is_reserved":false,"is_disabled":false,"rental_uris":{"android":"levelo://app?vid=a09b7839-d620-4bdc-9e33-ea07afd23f6e","ios":"levelo://app?vid=a09b7839-d620-4bdc-9e33-ea07afd23f6e"},"vehicle_type_id":"4","last_reported":1762089329,"current_range_meters":19200,"station_id":"ce4bhq12rcd13ifvqhig","pricing_plan_id":"cebpf4jnsgd1na2vs0mg"},{"bike_id":"b5b418f4-b55b-4870-a08a-74c7f7b42e9b","system_id":"levelo_inurba_marseille","lat":43.21174,"lon":5.35085,"is_reserved":false,"is_disabled":false,"rental_uris":{"android":"levelo://app?vid=b5b418f4-b55b-4870-a08a-74c7f7b42e9b","ios":"levelo://app?vid=b5b418f4-b55b-4870-a08a-74c7f7b42e9b"},"vehicle_type_id":"4","last_reported":1762089329,"current_range_meters":19200,"station_id":"","pricing_plan_id":"cebpf4jnsgd1na2vs0mg"},{"bike_id":"03518348-a473-43a5-aebe-4dbf2f87920e","system_id":"levelo_inurba_marseille","lat":43.284876,"lon":5.378801,"is_reserved":false,"is_disabled":false,"rental_uris":{"android":"levelo://app?vid=03518348-a473-43a5-aebe-4dbf2f87920e","ios":"levelo://app?vid=03518348-a473-43a5-aebe-4dbf2f87920e"},"vehicle_type_id":"4","last_reported":1762089329,"current_range_meters":19200,"station_id":"","pricing_plan_id":"cebpf4jnsgd1na2vs0mg"},{"bike_id":"2aa5ca15-b2b3-4ce6-9617-929a2f170c50","system_id":"levelo_inurba_marseille","lat":43.28265,"lon":5.35513,"is_reserved":false,"is_disabled":false,"rental_uris":{"android":"levelo://app?vid=2aa5ca15-b2b3-4ce6-9617-929a2f170c50","ios":"levelo://app?vid=2aa5ca15-b2b3-4ce6-9617-929a2f170c50"},"vehicle_type_id":"4","last_reported":1762089329,"current_range_meters":19600,"station_id":"","pricing_plan_id":"cebpf4jnsgd1na2vs0mg"},{"bike_id":"6d91648c-e5ff-403d-bfdd-a4dfa274490c","system_id":"levelo_inurba_marseille","lat":43.305407,"lon":5.365355,"is_reserved":false,"is_disabled":false,"rental_uris":{"android":"levelo://app?vid=6d91648c-e5ff-403d-bfdd-a4dfa274490c","ios":"levelo://app?vid=6d91648c-e5ff-403d-bfdd-a4dfa274490c"},"vehicle_type_id":"4","last_reported":1762089329,"current_range_meters":19600,"station_id":"ce4bgs12rcd13ifvqcag","pricing_plan_id":"cebpf4jnsgd1na2vs0mg"},{"bike_id":"14e0fcd6-488b-4da1-b9ec-2f06247e9652","system_id":"levelo_inurba_marseille","lat":43.30742,"lon":5.424418,"is_reserved":false,"is_disabled":false,"rental_uris":{"android":"levelo://app?vid=14e0fcd6-488b-4da1-b9ec-2f06247e9652","ios":"levelo://app?vid=14e0fcd6-488b-4da1-b9ec-2f06247e9652"},"vehicle_type_id":"4","last_reported":1762089329,"current_range_meters":19600,"station_id":"st_cvj6ca6bvosntc0bfgr0","pricing_plan_id":"cebpf4jnsgd1na2vs0mg"},{"bike_id":"af4f7b47-7d8e-4840-b717-1f79462c0609","system_id":"levelo_inurba_marseille","lat":43.29713,"lon":5.37837,"is_reserved":false,"is_disabled":false,"rental_uris":{"android":"levelo://app?vid=af4f7b47-7d8e-4840-b717-1f79462c0609","ios":"levelo://app?vid=af4f7b47-7d8e-4840-b717-1f79462c0609"},"vehicle_type_id":"4","last_reported":1762089329,"current_range_meters":19600,"station_id":"","pricing_plan_id":"cebpf4jnsgd1na2vs0mg"},{"bike_id":"88518052-44e4-4486-a814-c8e987810fd6","system_id":"levelo_inurba_marseille","lat":43.29343,"lon":5.38221,"is_reserved":false,"is_disabled":false,"rental_uris":{"android":"levelo://app?vid=88518052-44e4-4486-a814-c8e987810fd6","ios":"levelo://app?vid=88518052-44e4-4486-a814-c8e987810fd6"},"vehicle_type_id":"4","last_reported":1762089329,"current_range_meters":19600,"station_id":"","pricing_plan_id":"cebpf4jnsgd1na2vs0mg"},{"bike_id":"3f026d9f-5d5e-4e07-8d95-e006607fa497","system_id":"levelo_inurba_marseille","lat":43.32539,"lon":5.41418,"is_reserved":false,"is_disabled":false,"rental_uris":{"android":"levelo://app?vid=3f026d9f-5d5e-4e07-8d95-e006607fa497","ios":"levelo://app?vid=3f026d9f-5d5e-4e07-8d95-e006607fa497"},"vehicle_type_id":"4","last_reported":1762089329,"current_range_meters":19600,"station_id":"ce4bhq12rcd13ifvqhhg","pricing_plan_id":"cebpf4jnsgd1na2vs0mg"},{"bike_id":"7d29e189-d1a2-4543-b815-e8c8b283bc2a","system_id":"levelo_inurba_marseille","lat":43.32474,"lon":5.36565,"is_reserved":false,"is_disabled":false,"rental_uris":{"android":"levelo://app?vid=7d29e189-d1a2-4543-b815-e8c8b283bc2a","ios":"levelo://app?vid=7d29e189-d1a2-4543-b815-e8c8b283bc2a"},"vehicle_type_id":"4","last_reported":1762089329,"current_range_meters":19600,"station_id":"ce4bhs12rcd13ifvqhvg","pricing_plan_id":"cebpf4jnsgd1na2vs0mg"},{"bike_id":"b9377384-e9dc-45da-8144-27639c107f22","system_id":"levelo_inurba_marseille","lat":43.30541,"lon":5.36552,"is_reserved":false,"is_disabled":false,"rental_uris":{"android":"levelo://app?vid=b9377384-e9dc-45da-8144-27639c107f22","ios":"levelo://app?vid=b9377384-e9dc-45da-8144-27639c107f22"},"vehicle_type_id":"4","last_reported":1762089329,"current_range_meters":19600,"station_id":"ce4bgs12rcd13ifvqcag","pricing_plan_id":"cebpf4jnsgd1na2vs0mg"},{"bike_id":"f45220e5-1594-41fa-ba40-bbc623680dea","system_id":"levelo_inurba_marseille","lat":43.27969,"lon":5.3873,"is_reserved":false,"is_disabled":false,"rental_uris":{"android":"levelo://app?vid=f45220e5-1594-41fa-ba40-bbc623680dea","ios":"levelo://app?vid=f45220e5-1594-41fa-ba40-bbc623680dea"},"vehicle_type_id":"4","last_reported":1762089329,"current_range_meters":19600,"station_id":"ce4bhg12rcd13ifvqf80","pricing_plan_id":"cebpf4jnsgd1na2vs0mg"},{"bike_id":"e354ed2b-01df-47b5-abca-0ddc8904e7a8","system_id":"levelo_inurba_marseille","lat":43.26557,"lon":5.4032,"is_reserved":false,"is_disabled":false,"rental_uris":{"android":"levelo://app?vid=e354ed2b-01df-47b5-abca-0ddc8904e7a8","ios":"levelo://app?vid=e354ed2b-01df-47b5-abca-0ddc8904e7a8"},"vehicle_type_id":"4","last_reported":1762089329,"current_range_meters":19600,"station_id":"ce4bhmp2rcd13ifvqgng","pricing_plan_id":"cebpf4jnsgd1na2vs0mg"},{"bike_id":"25f4a80a-2173-4cfc-929a-9ce678c6480b","system_id":"levelo_inurba_marseille","lat":43.306,"lon":5.39359,"is_reserved":false,"is_disabled":false,"rental_uris":{"android":"levelo://app?vid=25f4a80a-2173-4cfc-929a-9ce678c6480b","ios":"levelo://app?vid=25f4a80a-2173-4cfc-929a-9ce678c6480b"},"vehicle_type_id":"4","last_reported":1762089329,"current_range_meters":20000,"station_id":"ce4bh0p2rcd13ifvqd80","pricing_plan_id":"cebpf4jnsgd1na2vs0mg"},{"bike_id":"2c6ca10e-6e5c-4cb2-a7aa-f043cbf8e77b","system_id":"levelo_inurba_marseille","lat":43.31329,"lon":5.39688,"is_reserved":false,"is_disabled":false,"rental_uris":{"android":"levelo://app?vid=2c6ca10e-6e5c-4cb2-a7aa-f043cbf8e77b","ios":"levelo://app?vid=2c6ca10e-6e5c-4cb2-a7aa-f043cbf8e77b"},"vehicle_type_id":"4","last_reported":1762089329,"current_range_meters":20000,"station_id":"ce4bgvp2rcd13ifvqcu0","pricing_plan_id":"cebpf4jnsgd1na2vs0mg"},{"bike_id":"600594a6-be69-4e43-ad17-c2d891da9a62","system_id":"levelo_inurba_marseille","lat":43.29034,"lon":5.38152,"is_reserved":false,"is_disabled":true,"rental_uris":{"android":"levelo://app?vid=600594a6-be69-4e43-ad17-c2d891da9a62","ios":"levelo://app?vid=600594a6-be69-4e43-ad17-c2d891da9a62"},"vehicle_type_id":"4","last_reported":1762089329,"current_range_meters":20000,"station_id":"ce4bh4p2rcd13ifvqe1g","pricing_plan_id":"cebpf4jnsgd1na2vs0mg"},{"bike_id":"782a02c9-f51b-4b61-89b2-ec2ecf7d0e40","system_id":"levelo_inurba_marseille","lat":43.24958,"lon":5.40488,"is_reserved":false,"is_disabled":false,"rental_uris":{"android":"levelo://app?vid=782a02c9-f51b-4b61-89b2-ec2ecf7d0e40","ios":"levelo://app?vid=782a02c9-f51b-4b61-89b2-ec2ecf7d0e40"},"vehicle_type_id":"4","last_reported":1762089329,"current_range_meters":20000,"station_id":"st_d2ngiaodas8pm72gd1h0","pricing_plan_id":"cebpf4jnsgd1na2vs0mg"},{"bike_id":"145adec1-02ad-4d16-a5dd-42bf80721343","system_id":"levelo_inurba_marseille","lat":43.30096,"lon":5.38428,"is_reserved":false,"is_disabled":false,"rental_uris":{"android":"levelo://app?vid=145adec1-02ad-4d16-a5dd-42bf80721343","ios":"levelo://app?vid=145adec1-02ad-4d16-a5dd-42bf80721343"},"vehicle_type_id":"4","last_reported":1762089329,"current_range_meters":20000,"station_id":"","pricing_plan_id":"cebpf4jnsgd1na2vs0mg"},{"bike_id":"5eb9db26-abf8-4b3a-a40c-77af04cc957e","system_id":"levelo_inurba_marseille","lat":43.241683,"lon":5.36398,"is_reserved":false,"is_disabled":false,"rental_uris":{"android":"levelo://app?vid=5eb9db26-abf8-4b3a-a40c-77af04cc957e","ios":"levelo://app?vid=5eb9db26-abf8-4b3a-a40c-77af04cc957e"},"vehicle_type_id":"4","last_reported":1762089329,"current_range_meters":20000,"station_id":"cpo36qri1sfpv3e86is0","pricing_plan_id":"cebpf4jnsgd1na2vs0mg"},{"bike_id":"aa22c237-e3ca-42a8-bc4a-a192c77c4abb","system_id":"levelo_inurba_marseille","lat":43.229204,"lon":5.353723,"is_reserved":false,"is_disabled":false,"rental_uris":{"android":"levelo://app?vid=aa22c237-e3ca-42a8-bc4a-a192c77c4abb","ios":"levelo://app?vid=aa22c237-e3ca-42a8-bc4a-a192c77c4abb"},"vehicle_type_id":"4","last_reported":1762089329,"current_range_meters":20000,"station_id":"cpo3532slgdg3j2ikp40","pricing_plan_id":"cebpf4jnsgd1na2vs0mg"},{"bike_id":"af9530b9-dd7e-4485-9204-54acae1ed4ad","system_id":"levelo_inurba_marseille","lat":43.25724,"lon":5.41126,"is_reserved":false,"is_disabled":false,"rental_uris":{"android":"levelo://app?vid=af9530b9-dd7e-4485-9204-54acae1ed4ad","ios":"levelo://app?vid=af9530b9-dd7e-4485-9204-54acae1ed4ad"},"vehicle_type_id":"4","last_reported":1762089329,"current_range_meters":20000,"station_id":"ce4bhkp2rcd13ifvqgd0","pricing_plan_id":"cebpf4jnsgd1na2vs0mg"},{"bike_id":"7aef1029-9880-4ac1-bc62-5df1ae769dad","system_id":"levelo_inurba_marseille","lat":43.31001,"lon":5.37039,"is_reserved":false,"is_disabled":false,"rental_uris":{"android":"levelo://app?vid=7aef1029-9880-4ac1-bc62-5df1ae769dad","ios":"levelo://app?vid=7aef1029-9880-4ac1-bc62-5df1ae769dad"},"vehicle_type_id":"4","last_reported":1762089329,"current_range_meters":20000,"station_id":"","pricing_plan_id":"cebpf4jnsgd1na2vs0mg"},{"bike_id":"05d6a3f7-b83a-4da1-9593-ef5015b8f8ec","system_id":"levelo_inurba_marseille","lat":43.27943,"lon":5.39938,"is_reserved":false,"is_disabled":false,"rental_uris":{"android":"levelo://app?vid=05d6a3f7-b83a-4da1-9593-ef5015b8f8ec","ios":"levelo://app?vid=05d6a3f7-b83a-4da1-9593-ef5015b8f8ec"},"vehicle_type_id":"4","last_reported":1762089329,"current_range_meters":20000,"station_id":"","pricing_plan_id":"cebpf4jnsgd1na2vs0mg"},{"bike_id":"6055b89a-9e07-4bf8-8412-05e8ed7b3044","system_id":"levelo_inurba_marseille","lat":43.21182,"lon":5.35088,"is_reserved":false,"is_disabled":false,"rental_uris":{"android":"levelo://app?vid=6055b89a-9e07-4bf8-8412-05e8ed7b3044","ios":"levelo://app?vid=6055b89a-9e07-4bf8-8412-05e8ed7b3044"},"vehicle_type_id":"4","last_reported":1762089329,"current_range_meters":20400,"station_id":"","pricing_plan_id":"cebpf4jnsgd1na2vs0mg"},{"bike_id":"5eee67bb-3614-4f3b-ab22-554d031d3012","system_id":"levelo_inurba_marseille","lat":43.257189,"lon":5.411241,"is_reserved":false,"is_disabled":false,"rental_uris":{"android":"levelo://app?vid=5eee67bb-3614-4f3b-ab22-554d031d3012","ios":"levelo://app?vid=5eee67bb-3614-4f3b-ab22-554d031d3012"},"vehicle_type_id":"4","last_reported":1762089329,"current_range_meters":20400,"station_id":"ce4bhkp2rcd13ifvqgd0","pricing_plan_id":"cebpf4jnsgd1na2vs0mg"},{"bike_id":"77690a5b-ffae-4659-b761-b403411560ec","system_id":"levelo_inurba_marseille","lat":43.2418,"lon":5.39735,"is_reserved":false,"is_disabled":false,"rental_uris":{"android":"levelo://app?vid=77690a5b-ffae-4659-b761-b403411560ec","ios":"levelo://app?vid=77690a5b-ffae-4659-b761-b403411560ec"},"vehicle_type_id":"4","last_reported":1762089329,"current_range_meters":20400,"station_id":"ce4bhn12rcd13ifvqgpg","pricing_plan_id":"cebpf4jnsgd1na2vs0mg"},{"bike_id":"7697f83b-11c1-4978-89f1-e9d9aca50ac7","system_id":"levelo_inurba_marseille","lat":43.24704,"lon":5.38169,"is_reserved":false,"is_disabled":true,"rental_uris":{"android":"levelo://app?vid=7697f83b-11c1-4978-89f1-e9d9aca50ac7","ios":"levelo://app?vid=7697f83b-11c1-4978-89f1-e9d9aca50ac7"},"vehicle_type_id":"4","last_reported":1762089329,"current_range_meters":20400,"station_id":"ce4bhih2rcd13ifvqfr0","pricing_plan_id":"cebpf4jnsgd1na2vs0mg"},{"bike_id":"78fd86d5-da4c-4278-affd-7283f0275d72","system_id":"levelo_inurba_marseille","lat":43.278167,"lon":5.407025,"is_reserved":false,"is_disabled":false,"rental_uris":{"android":"levelo://app?vid=78fd86d5-da4c-4278-affd-7283f0275d72","ios":"levelo://app?vid=78fd86d5-da4c-4278-affd-7283f0275d72"},"vehicle_type_id":"4","last_reported":1762089329,"current_range_meters":20400,"station_id":"ce4bhnh2rcd13ifvqgtg","pricing_plan_id":"cebpf4jnsgd1na2vs0mg"},{"bike_id":"ac2f2e0c-7f3a-4615-95a9-755ddbeafcff","system_id":"levelo_inurba_marseille","lat":43.273797,"lon":5.362517,"is_reserved":false,"is_disabled":true,"rental_uris":{"android":"levelo://app?vid=ac2f2e0c-7f3a-4615-95a9-755ddbeafcff","ios":"levelo://app?vid=ac2f2e0c-7f3a-4615-95a9-755ddbeafcff"},"vehicle_type_id":"4","last_reported":1762089329,"current_range_meters":20400,"station_id":"ce4bhbh2rcd13ifvqeo0","pricing_plan_id":"cebpf4jnsgd1na2vs0mg"},{"bike_id":"5ef6620d-24a9-4b71-9d1f-7fc52cf2689c","system_id":"levelo_inurba_marseille","lat":43.28661,"lon":5.3636,"is_reserved":false,"is_disabled":false,"rental_uris":{"android":"levelo://app?vid=5ef6620d-24a9-4b71-9d1f-7fc52cf2689c","ios":"levelo://app?vid=5ef6620d-24a9-4b71-9d1f-7fc52cf2689c"},"vehicle_type_id":"4","last_reported":1762089329,"current_range_meters":20400,"station_id":"ce4bhah2rcd13ifvqej0","pricing_plan_id":"cebpf4jnsgd1na2vs0mg"},{"bike_id":"2b77c4ed-6988-4db1-a3c2-75096f2ecbaf","system_id":"levelo_inurba_marseille","lat":43.33607,"lon":5.41033,"is_reserved":false,"is_disabled":false,"rental_uris":{"android":"levelo://app?vid=2b77c4ed-6988-4db1-a3c2-75096f2ecbaf","ios":"levelo://app?vid=2b77c4ed-6988-4db1-a3c2-75096f2ecbaf"},"vehicle_type_id":"4","last_reported":1762089329,"current_range_meters":20400,"station_id":"ce4bhqh2rcd13ifvqhmg","pricing_plan_id":"cebpf4jnsgd1na2vs0mg"},{"bike_id":"9a9a029d-a048-463b-abc5-436675712ae9","system_id":"levelo_inurba_marseille","lat":43.31483,"lon":5.37309,"is_reserved":false,"is_disabled":false,"rental_uris":{"android":"levelo://app?vid=9a9a029d-a048-463b-abc5-436675712ae9","ios":"levelo://app?vid=9a9a029d-a048-463b-abc5-436675712ae9"},"vehicle_type_id":"4","last_reported":1762089329,"current_range_meters":20400,"station_id":"ce4bgt12rcd13ifvqcd0","pricing_plan_id":"cebpf4jnsgd1na2vs0mg"},{"bike_id":"f234ad47-0901-40bf-a06a-e46adc6b907e","system_id":"levelo_inurba_marseille","lat":43.231894,"lon":5.355562,"is_reserved":false,"is_disabled":true,"rental_uris":{"android":"levelo://app?vid=f234ad47-0901-40bf-a06a-e46adc6b907e","ios":"levelo://app?vid=f234ad47-0901-40bf-a06a-e46adc6b907e"},"vehicle_type_id":"4","last_reported":1762089329,"current_range_meters":20400,"station_id":"ce4bhu92rcd13ifvqi70","pricing_plan_id":"cebpf4jnsgd1na2vs0mg"},{"bike_id":"a8d0be4c-3e38-4247-b462-6e35f9043fea","system_id":"levelo_inurba_marseille","lat":43.25688,"lon":5.41108,"is_reserved":false,"is_disabled":true,"rental_uris":{"android":"levelo://app?vid=a8d0be4c-3e38-4247-b462-6e35f9043fea","ios":"levelo://app?vid=a8d0be4c-3e38-4247-b462-6e35f9043fea"},"vehicle_type_id":"4","last_reported":1762089329,"current_range_meters":20400,"station_id":"ce4bhkp2rcd13ifvqgd0","pricing_plan_id":"cebpf4jnsgd1na2vs0mg"},{"bike_id":"6da9591e-791f-4813-a780-46dbccb9cf37","system_id":"levelo_inurba_marseille","lat":43.29917,"lon":5.38148,"is_reserved":false,"is_disabled":false,"rental_uris":{"android":"levelo://app?vid=6da9591e-791f-4813-a780-46dbccb9cf37","ios":"levelo://app?vid=6da9591e-791f-4813-a780-46dbccb9cf37"},"vehicle_type_id":"4","last_reported":1762089329,"current_range_meters":20800,"station_id":"ce4bgj12rcd13ifvqbc0","pricing_plan_id":"cebpf4jnsgd1na2vs0mg"},{"bike_id":"258d165a-449f-4925-b56e-beae8f481fb2","system_id":"levelo_inurba_marseille","lat":43.284004,"lon":5.349923,"is_reserved":false,"is_disabled":true,"rental_uris":{"android":"levelo://app?vid=258d165a-449f-4925-b56e-beae8f481fb2","ios":"levelo://app?vid=258d165a-449f-4925-b56e-beae8f481fb2"},"vehicle_type_id":"4","last_reported":1762089329,"current_range_meters":20800,"station_id":"","pricing_plan_id":"cebpf4jnsgd1na2vs0mg"},{"bike_id":"d832187b-0cde-49a0-bf94-c76879c710ab","system_id":"levelo_inurba_marseille","lat":43.30893,"lon":5.39631,"is_reserved":false,"is_disabled":false,"rental_uris":{"android":"levelo://app?vid=d832187b-0cde-49a0-bf94-c76879c710ab","ios":"levelo://app?vid=d832187b-0cde-49a0-bf94-c76879c710ab"},"vehicle_type_id":"4","last_reported":1762089329,"current_range_meters":20800,"station_id":"ce4bh012rcd13ifvqcv0","pricing_plan_id":"cebpf4jnsgd1na2vs0mg"},{"bike_id":"e8adea7e-0a90-49fd-b3a2-32134cae9db0","system_id":"levelo_inurba_marseille","lat":43.211877,"lon":5.350778,"is_reserved":false,"is_disabled":false,"rental_uris":{"android":"levelo://app?vid=e8adea7e-0a90-49fd-b3a2-32134cae9db0","ios":"levelo://app?vid=e8adea7e-0a90-49fd-b3a2-32134cae9db0"},"vehicle_type_id":"4","last_reported":1762089329,"current_range_meters":20800,"station_id":"","pricing_plan_id":"cebpf4jnsgd1na2vs0mg"},{"bike_id":"7266ed46-2381-404a-9c13-a92f05fa953b","system_id":"levelo_inurba_marseille","lat":43.337608,"lon":5.374329,"is_reserved":false,"is_disabled":false,"rental_uris":{"android":"levelo://app?vid=7266ed46-2381-404a-9c13-a92f05fa953b","ios":"levelo://app?vid=7266ed46-2381-404a-9c13-a92f05fa953b"},"vehicle_type_id":"4","last_reported":1762089329,"current_range_meters":20800,"station_id":"","pricing_plan_id":"cebpf4jnsgd1na2vs0mg"},{"bike_id":"b350e16b-90a8-4bd2-a5a3-d562af1344be","system_id":"levelo_inurba_marseille","lat":43.31273,"lon":5.40171,"is_reserved":false,"is_disabled":false,"rental_uris":{"android":"levelo://app?vid=b350e16b-90a8-4bd2-a5a3-d562af1344be","ios":"levelo://app?vid=b350e16b-90a8-4bd2-a5a3-d562af1344be"},"vehicle_type_id":"4","last_reported":1762089329,"current_range_meters":20800,"station_id":"ce4bh092rcd13ifvqd30","pricing_plan_id":"cebpf4jnsgd1na2vs0mg"},{"bike_id":"51bf3cb7-470c-477e-9e73-8c565aae20cb","system_id":"levelo_inurba_marseille","lat":43.29747,"lon":5.42801,"is_reserved":false,"is_disabled":false,"rental_uris":{"android":"levelo://app?vid=51bf3cb7-470c-477e-9e73-8c565aae20cb","ios":"levelo://app?vid=51bf3cb7-470c-477e-9e73-8c565aae20cb"},"vehicle_type_id":"4","last_reported":1762089329,"current_range_meters":21600,"station_id":"st_d3md5207bmas73dh9klg","pricing_plan_id":"cebpf4jnsgd1na2vs0mg"},{"bike_id":"2d7457f6-2302-48b2-9baf-754daa46d361","system_id":"levelo_inurba_marseille","lat":43.25345,"lon":5.42163,"is_reserved":false,"is_disabled":false,"rental_uris":{"android":"levelo://app?vid=2d7457f6-2302-48b2-9baf-754daa46d361","ios":"levelo://app?vid=2d7457f6-2302-48b2-9baf-754daa46d361"},"vehicle_type_id":"4","last_reported":1762089329,"current_range_meters":21600,"station_id":"st_d2m65c5bi1j21697t3ng","pricing_plan_id":"cebpf4jnsgd1na2vs0mg"},{"bike_id":"7b3ada81-0ff3-49e9-8471-eb10e4c9b7f2","system_id":"levelo_inurba_marseille","lat":43.290189,"lon":5.381331,"is_reserved":false,"is_disabled":false,"rental_uris":{"android":"levelo://app?vid=7b3ada81-0ff3-49e9-8471-eb10e4c9b7f2","ios":"levelo://app?vid=7b3ada81-0ff3-49e9-8471-eb10e4c9b7f2"},"vehicle_type_id":"4","last_reported":1762089329,"current_range_meters":21600,"station_id":"ce4bh4p2rcd13ifvqe1g","pricing_plan_id":"cebpf4jnsgd1na2vs0mg"},{"bike_id":"7169be03-bc65-4131-80d6-267376a245a6","system_id":"levelo_inurba_marseille","lat":43.22562,"lon":5.41626,"is_reserved":false,"is_disabled":false,"rental_uris":{"android":"levelo://app?vid=7169be03-bc65-4131-80d6-267376a245a6","ios":"levelo://app?vid=7169be03-bc65-4131-80d6-267376a245a6"},"vehicle_type_id":"4","last_reported":1762089329,"current_range_meters":21600,"station_id":"st_d2o4gvlbi1j2169b742g","pricing_plan_id":"cebpf4jnsgd1na2vs0mg"},{"bike_id":"b5d46701-5459-4db4-8f22-762d861e46ca","system_id":"levelo_inurba_marseille","lat":43.304918,"lon":5.367176,"is_reserved":false,"is_disabled":false,"rental_uris":{"android":"levelo://app?vid=b5d46701-5459-4db4-8f22-762d861e46ca","ios":"levelo://app?vid=b5d46701-5459-4db4-8f22-762d861e46ca"},"vehicle_type_id":"4","last_reported":1762089329,"current_range_meters":21600,"station_id":"ce4bgs12rcd13ifvqcag","pricing_plan_id":"cebpf4jnsgd1na2vs0mg"},