{"last_updated":1690387692,"ttl":30,"version":"2.2","data":{"bikes":[{"bike_id":"e526d4e2-849c-44ae-a0d7-5572a62df909","system_id":"levelo_inurba_marseille","lat":43.312239,"lon":5.368562,"is_reserved":false,"is_disabled":false,"rental_uris":{"android":"levelo://app?vid=e526d4e2-849c-44ae-a0d7-5572a62df909","ios":"levelo://app?vid=e526d4e2-849c-44ae-a0d7-5572a62df909"},"vehicle_type_id":"4","last_reported":1690387692,"current_range_meters":31200,"station_id":"ce4bgl92rcd13ifvqbq0","pricing_plan_id":"free"},{"bike_id":"2d0f900e-2a3b-4228-a30a-a108c18d5b00","system_id":"levelo_inurba_marseille","lat":43.309076,"lon":5.368465,"is_reserved":false,"is_disabled":false,"rental_uris":{"android":"levelo://app?vid=2d0f900e-2a3b-4228-a30a-a108c18d5b00","ios":"levelo://app?vid=2d0f900e-2a3b-4228-a30a-a108c18d5b00"},"vehicle_type_id":"4","last_reported":1690387692,"current_range_meters":13600,"station_id":"ce4bgn92rcd13ifvqbvg","pricing_plan_id":"free"},{"bike_id":"ecf35bcd-0149-43df-a652-e6dfa00df02d","system_id":"levelo_inurba_marseille","lat":43.314811,"lon":5.373103,"is_reserved":false,"is_disabled":false,"rental_uris":{"android":"levelo://app?vid=ecf35bcd-0149-43df-a652-e6dfa00df02d","ios":"levelo://app?vid=ecf35bcd-0149-43df-a652-e6dfa00df02d"},"vehicle_type_id":"4","last_reported":1690387692,"current_range_meters":31200,"station_id":"ce4bgt12rcd13ifvqcd0","pricing_plan_id":"free"},{"bike_id":"f48de34b-498a-4f87-9029-b3778bb9ec67","system_id":"levelo_inurba_marseille","lat":43.314811,"lon":5.373103,"is_reserved":false,"is_disabled":false,"rental_uris":{"android":"levelo://app?vid=f48de34b-498a-4f87-9029-b3778bb9ec67","ios":"levelo://app?vid=f48de34b-498a-4f87-9029-b3778bb9ec67"},"vehicle_type_id":"4","last_reported":1690387692,"current_range_meters":31200,"station_id":"ce4bgt12rcd13ifvqcd0","pricing_plan_id":"free"},{"bike_id":"c66357ff-a87b-4942-b4b5-f66e355678f6","system_id":"levelo_inurba_marseille","lat":43.314811,"lon":5.373103,"is_reserved":false,"is_disabled":false,"rental_uris":{"android":"levelo://app?vid=c66357ff-a87b-4942-b4b5-f66e355678f6","ios":"levelo://app?vid=c66357ff-a87b-4942-b4b5-f66e355678f6"},"vehicle_type_id":"4","last_reported":1690387692,"current_range_meters":31200,"station_id":"ce4bgt12rcd13ifvqcd0","pricing_plan_id":"free"},{"bike_id":"fac9895c-3e69-4b6a-9c1f-8e7cb5549bb6","system_id":"levelo_inurba_marseille","lat":43.314811,"lon":5.373103,"is_reserved":false,"is_disabled":false,"rental_uris":{"android":"levelo://app?vid=fac9895c-3e69-4b6a-9c1f-8e7cb5549bb6","ios":"levelo://app?vid=fac9895c-3e69-4b6a-9c1f-8e7cb5549bb6"},"vehicle_type_id":"4","last_reported":1690387692,"current_range_meters":30800,"station_id":"ce4bgt12rcd13ifvqcd0","pricing_plan_id":"free"},{"bike_id":"da3b8c04-4692-48c9-ba6f-f6e11065541f","system_id":"levelo_inurba_marseille","lat":43.314811,"lon":5.373104,"is_reserved":false,"is_disabled":false,"rental_uris":{"android":"levelo://app?vid=da3b8c04-4692-48c9-ba6f-f6e11065541f","ios":"levelo://app?vid=da3b8c04-4692-48c9-ba6f-f6e11065541f"},"vehicle_type_id":"4","last_reported":1690387692,"current_range_meters":27200,"station_id":"ce4bgt12rcd13ifvqcd0","pricing_plan_id":"free"},{"bike_id":"2d03556e-9858-405b-b392-a2789c8268f0","system_id":"levelo_inurba_marseille","lat":43.31571,"lon":5.37323,"is_reserved":false,"is_disabled":false,"rental_uris":{"android":"levelo://app?vid=2d03556e-9858-405b-b392-a2789c8268f0","ios":"levelo://app?vid=2d03556e-9858-405b-b392-a2789c8268f0"},"vehicle_type_id":"4","last_reported":1690387692,"current_range_meters":24400,"station_id":"","pricing_plan_id":"free"},{"bike_id":"737e36f8-b3bd-4e07-8acd-81d5a4bc85a0","system_id":"levelo_inurba_marseille","lat":43.30697,"lon":5.3655,"is_reserved":false,"is_disabled":false,"rental_uris":{"android":"levelo://app?vid=737e36f8-b3bd-4e07-8acd-81d5a4bc85a0","ios":"levelo://app?vid=737e36f8-b3bd-4e07-8acd-81d5a4bc85a0"},"vehicle_type_id":"4","last_reported":1690387692,"current_range_meters":16400,"station_id":"","pricing_plan_id":"free"},{"bike_id":"607f7da1-dcb7-4916-8614-93aa4190932a","system_id":"levelo_inurba_marseille","lat":43.31671,"lon":5.37465,"is_reserved":false,"is_disabled":false,"rental_uris":{"android":"levelo://app?vid=607f7da1-dcb7-4916-8614-93aa4190932a","ios":"levelo://app?vid=607f7da1-dcb7-4916-8614-93aa4190932a"},"vehicle_type_id":"4","last_reported":1690387692,"current_range_meters":3200,"station_id":"","pricing_plan_id":"free"},{"bike_id":"ba20465a-788a-4a52-b23a-c243cbf9d56f","system_id":"levelo_inurba_marseille","lat":43.305706,"lon":5.365654,"is_reserved":false,"is_disabled":false,"rental_uris":{"android":"levelo://app?vid=ba20465a-788a-4a52-b23a-c243cbf9d56f","ios":"levelo://app?vid=ba20465a-788a-4a52-b23a-c243cbf9d56f"},"vehicle_type_id":"4","last_reported":1690387692,"current_range_meters":17200,"station_id":"ce4bgs12rcd13ifvqcag","pricing_plan_id":"free"},{"bike_id":"76001aef-a200-4b27-bf65-a2786367132d","system_id":"levelo_inurba_marseille","lat":43.305989,"lon":5.37225,"is_reserved":false,"is_disabled":false,"rental_uris":{"android":"levelo://app?vid=76001aef-a200-4b27-bf65-a2786367132d","ios":"levelo://app?vid=76001aef-a200-4b27-bf65-a2786367132d"},"vehicle_type_id":"4","last_reported":1690387692,"current_range_meters":12400,"station_id":"ce4bgqh2rcd13ifvqc4g","pricing_plan_id":"free"},{"bike_id":"85e80f58-33c1-4ab8-9d62-4f5507ae9a27","system_id":"levelo_inurba_marseille","lat":43.305989,"lon":5.37225,"is_reserved":false,"is_disabled":false,"rental_uris":{"android":"levelo://app?vid=85e80f58-33c1-4ab8-9d62-4f5507ae9a27","ios":"levelo://app?vid=85e80f58-33c1-4ab8-9d62-4f5507ae9a27"},"vehicle_type_id":"4","last_reported":1690387692,"current_range_meters":14000,"station_id":"ce4bgqh2rcd13ifvqc4g","pricing_plan_id":"free"},{"bike_id":"90ae4a26-e093-4fe8-997c-e6e7057f3498","system_id":"levelo_inurba_marseille","lat":43.305989,"lon":5.37225,"is_reserved":false,"is_disabled":false,"rental_uris":{"android":"levelo://app?vid=90ae4a26-e093-4fe8-997c-e6e7057f3498","ios":"levelo://app?vid=90ae4a26-e093-4fe8-997c-e6e7057f3498"},"vehicle_type_id":"4","last_reported":1690387692,"current_range_meters":22800,"station_id":"ce4bgqh2rcd13ifvqc4g","pricing_plan_id":"free"},{"bike_id":"7110522c-7621-4328-9114-064860594ead","system_id":"levelo_inurba_marseille","lat":43.311125,"lon":5.377624,"is_reserved":false,"is_disabled":false,"rental_uris":{"android":"levelo://app?vid=7110522c-7621-4328-9114-064860594ead","ios":"levelo://app?vid=7110522c-7621-4328-9114-064860594ead"},"vehicle_type_id":"4","last_reported":1690387692,"current_range_meters":31200,"station_id":"ce4bgt92rcd13ifvqcg0","pricing_plan_id":"free"},{"bike_id":"ef7e3039-b16a-4570-a977-8713196b82d0","system_id":"levelo_inurba_marseille","lat":43.311125,"lon":5.377624,"is_reserved":false,"is_disabled":false,"rental_uris":{"android":"levelo://app?vid=ef7e3039-b16a-4570-a977-8713196b82d0","ios":"levelo://app?vid=ef7e3039-b16a-4570-a977-8713196b82d0"},"vehicle_type_id":"4","last_reported":1690387692,"current_range_meters":20800,"station_id":"ce4bgt92rcd13ifvqcg0","pricing_plan_id":"free"},{"bike_id":"1cdb8a72-7ee8-4bc8-a7c4-62c2dbdd4f21","system_id":"levelo_inurba_marseille","lat":43.30789,"lon":5.3765,"is_reserved":false,"is_disabled":false,"rental_uris":{"android":"levelo://app?vid=1cdb8a72-7ee8-4bc8-a7c4-62c2dbdd4f21","ios":"levelo://app?vid=1cdb8a72-7ee8-4bc8-a7c4-62c2dbdd4f21"},"vehicle_type_id":"4","last_reported":1690387692,"current_range_meters":28000,"station_id":"ce4bgv92rcd13ifvqcq0","pricing_plan_id":"free"},{"bike_id":"047babe1-62d0-40b8-b6d7-6d0c1df3eb37","system_id":"levelo_inurba_marseille","lat":43.3078,"lon":5.37651,"is_reserved":false,"is_disabled":false,"rental_uris":{"android":"levelo://app?vid=047babe1-62d0-40b8-b6d7-6d0c1df3eb37","ios":"levelo://app?vid=047babe1-62d0-40b8-b6d7-6d0c1df3eb37"},"vehicle_type_id":"4","last_reported":1690387692,"current_range_meters":16000,"station_id":"ce4bgv92rcd13ifvqcq0","pricing_plan_id":"free"},{"bike_id":"61031a22-6ad4-4f2a-9ce0-1574a82bb89a","system_id":"levelo_inurba_marseille","lat":43.317075,"lon":5.377367,"is_reserved":false,"is_disabled":false,"rental_uris":{"android":"levelo://app?vid=61031a22-6ad4-4f2a-9ce0-1574a82bb89a","ios":"levelo://app?vid=61031a22-6ad4-4f2a-9ce0-1574a82bb89a"},"vehicle_type_id":"4","last_reported":1690387692,"current_range_meters":27200,"station_id":"ce4bgth2rcd13ifvqch0","pricing_plan_id":"free"},{"bike_id":"7adb652a-f9fd-44cc-93b1-1afa58394305","system_id":"levelo_inurba_marseille","lat":43.303046,"lon":5.368981,"is_reserved":false,"is_disabled":false,"rental_uris":{"android":"levelo://app?vid=7adb652a-f9fd-44cc-93b1-1afa58394305","ios":"levelo://app?vid=7adb652a-f9fd-44cc-93b1-1afa58394305"},"vehicle_type_id":"4","last_reported":1690387692,"current_range_meters":30800,"station_id":"ce4bgqh2rcd13ifvqc5g","pricing_plan_id":"free"},{"bike_id":"ed1de62d-f8e3-4ab9-bc37-7005c19657a8","system_id":"levelo_inurba_marseille","lat":43.3031,"lon":5.36889,"is_reserved":false,"is_disabled":false,"rental_uris":{"android":"levelo://app?vid=ed1de62d-f8e3-4ab9-bc37-7005c19657a8","ios":"levelo://app?vid=ed1de62d-f8e3-4ab9-bc37-7005c19657a8"},"vehicle_type_id":"4","last_reported":1690387692,"current_range_meters":17200,"station_id":"ce4bgqh2rcd13ifvqc5g","pricing_plan_id":"free"},{"bike_id":"b3bc14e0-034b-440f-986d-8f64ae8d1242","system_id":"levelo_inurba_marseille","lat":43.30306,"lon":5.36903,"is_reserved":false,"is_disabled":false,"rental_uris":{"android":"levelo://app?vid=b3bc14e0-034b-440f-986d-8f64ae8d1242","ios":"levelo://app?vid=b3bc14e0-034b-440f-986d-8f64ae8d1242"},"vehicle_type_id":"4","last_reported":1690387692,"current_range_meters":29600,"station_id":"ce4bgqh2rcd13ifvqc5g","pricing_plan_id":"free"},{"bike_id":"ea16063b-8adc-4037-881f-9c4ed44559ed","system_id":"levelo_inurba_marseille","lat":43.31536,"lon":5.38028,"is_reserved":false,"is_disabled":false,"rental_uris":{"android":"levelo://app?vid=ea16063b-8adc-4037-881f-9c4ed44559ed","ios":"levelo://app?vid=ea16063b-8adc-4037-881f-9c4ed44559ed"},"vehicle_type_id":"4","last_reported":1690387692,"current_range_meters":8400,"station_id":"ce4bhsp2rcd13ifvqi50","pricing_plan_id":"free"},{"bike_id":"055c954f-ddc9-4a08-be77-c93829776e20","system_id":"levelo_inurba_marseille","lat":43.3019,"lon":5.36621,"is_reserved":false,"is_disabled":false,"rental_uris":{"android":"levelo://app?vid=055c954f-ddc9-4a08-be77-c93829776e20","ios":"levelo://app?vid=055c954f-ddc9-4a08-be77-c93829776e20"},"vehicle_type_id":"4","last_reported":1690387692,"current_range_meters":20800,"station_id":"ce4bgrh2rcd13ifvqc8g","pricing_plan_id":"free"},{"bike_id":"ecf2cfff-d6d2-4fb6-9d99-8e12ab83bdd6","system_id":"levelo_inurba_marseille","lat":43.304606,"lon":5.379026,"is_reserved":false,"is_disabled":false,"rental_uris":{"android":"levelo://app?vid=ecf2cfff-d6d2-4fb6-9d99-8e12ab83bdd6","ios":"levelo://app?vid=ecf2cfff-d6d2-4fb6-9d99-8e12ab83bdd6"},"vehicle_type_id":"4","last_reported":1690387692,"current_range_meters":30400,"station_id":"ce4bgup2rcd13ifvqcn0","pricing_plan_id":"free"},{"bike_id":"e2e66414-4d72-46a9-8620-5b1ab7dc1a83","system_id":"levelo_inurba_marseille","lat":43.30142,"lon":5.37415,"is_reserved":false,"is_disabled":false,"rental_uris":{"android":"levelo://app?vid=e2e66414-4d72-46a9-8620-5b1ab7dc1a83","ios":"levelo://app?vid=e2e66414-4d72-46a9-8620-5b1ab7dc1a83"},"vehicle_type_id":"4","last_reported":1690387692,"current_range_meters":31200,"station_id":"","pricing_plan_id":"free"},{"bike_id":"5e541652-9df9-4d6f-aa02-54b4ffd30a27","system_id":"levelo_inurba_marseille","lat":43.313571,"lon":5.384829,"is_reserved":false,"is_disabled":false,"rental_uris":{"android":"levelo://app?vid=5e541652-9df9-4d6f-aa02-54b4ffd30a27","ios":"levelo://app?vid=5e541652-9df9-4d6f-aa02-54b4ffd30a27"},"vehicle_type_id":"4","last_reported":1690387692,"current_range_meters":28000,"station_id":"ce4bgt92rcd13ifvqcf0","pricing_plan_id":"free"},{"bike_id":"a8bf1da2-a46b-408a-b112-c3a6de638308","system_id":"levelo_inurba_marseille","lat":43.299222,"lon":5.365554,"is_reserved":false,"is_disabled":false,"rental_uris":{"android":"levelo://app?vid=a8bf1da2-a46b-408a-b112-c3a6de638308","ios":"levelo://app?vid=a8bf1da2-a46b-408a-b112-c3a6de638308"},"vehicle_type_id":"4","last_reported":1690387692,"current_range_meters":23600,"station_id":"ce4bgm92rcd13ifvqbr0","pricing_plan_id":"free"},{"bike_id":"8b4f6f3c-f439-435d-a24a-5993c11fd798","system_id":"levelo_inurba_marseille","lat":43.30033,"lon":5.37423,"is_reserved":false,"is_disabled":false,"rental_uris":{"android":"levelo://app?vid=8b4f6f3c-f439-435d-a24a-5993c11fd798","ios":"levelo://app?vid=8b4f6f3c-f439-435d-a24a-5993c11fd798"},"vehicle_type_id":"4","last_reported":1690387692,"current_range_meters":10000,"station_id":"","pricing_plan_id":"free"},{"bike_id":"3c392128-810f-425d-a407-e621c62094c2","system_id":"levelo_inurba_marseille","lat":43.30543,"lon":5.38415,"is_reserved":false,"is_disabled":false,"rental_uris":{"android":"levelo://app?vid=3c392128-810f-425d-a407-e621c62094c2","ios":"levelo://app?vid=3c392128-810f-425d-a407-e621c62094c2"},"vehicle_type_id":"4","last_reported":1690387692,"current_range_meters":8400,"station_id":"ce4bgg92rcd13ifvqb30","pricing_plan_id":"free"},{"bike_id":"98f9cc8b-3c1b-42e8-85a9-a816b445b8cd","system_id":"levelo_inurba_marseille","lat":43.305364,"lon":5.384119,"is_reserved":false,"is_disabled":false,"rental_uris":{"android":"levelo://app?vid=98f9cc8b-3c1b-42e8-85a9-a816b445b8cd","ios":"levelo://app?vid=98f9cc8b-3c1b-42e8-85a9-a816b445b8cd"},"vehicle_type_id":"4","last_reported":1690387692,"current_range_meters":28000,"station_id":"ce4bgg92rcd13ifvqb30","pricing_plan_id":"free"},{"bike_id":"04d9cdd0-7a1d-4a9a-a2b4-c1214301e03a","system_id":"levelo_inurba_marseille","lat":43.2991,"lon":5.37491,"is_reserved":false,"is_disabled":false,"rental_uris":{"android":"levelo://app?vid=04d9cdd0-7a1d-4a9a-a2b4-c1214301e03a","ios":"levelo://app?vid=04d9cdd0-7a1d-4a9a-a2b4-c1214301e03a"},"vehicle_type_id":"4","last_reported":1690387692,"current_range_meters":22800,"station_id":"ce4bgjh2rcd13ifvqbg0","pricing_plan_id":"free"},{"bike_id":"cce47f54-795a-455b-bc38-bc1eb9d02f03","system_id":"levelo_inurba_marseille","lat":43.322872,"lon":5.382756,"is_reserved":false,"is_disabled":false,"rental_uris":{"android":"levelo://app?vid=cce47f54-795a-455b-bc38-bc1eb9d02f03","ios":"levelo://app?vid=cce47f54-795a-455b-bc38-bc1eb9d02f03"},"vehicle_type_id":"4","last_reported":1690387692,"current_range_meters":12800,"station_id":"ce4bhr12rcd13ifvqhqg","pricing_plan_id":"free"},{"bike_id":"316e88fb-cba0-48b8-840b-7e1881569755","system_id":"levelo_inurba_marseille","lat":43.32287,"lon":5.38281,"is_reserved":false,"is_disabled":false,"rental_uris":{"android":"levelo://app?vid=316e88fb-cba0-48b8-840b-7e1881569755","ios":"levelo://app?vid=316e88fb-cba0-48b8-840b-7e1881569755"},"vehicle_type_id":"4","last_reported":1690387692,"current_range_meters":21200,"station_id":"ce4bhr12rcd13ifvqhqg","pricing_plan_id":"free"},{"bike_id":"2a409f19-f7fa-4ff7-87dd-5c980b6579fe","system_id":"levelo_inurba_marseille","lat":43.328371,"lon":5.366909,"is_reserved":false,"is_disabled":false,"rental_uris":{"android":"levelo://app?vid=2a409f19-f7fa-4ff7-87dd-5c980b6579fe","ios":"levelo://app?vid=2a409f19-f7fa-4ff7-87dd-5c980b6579fe"},"vehicle_type_id":"4","last_reported":1690387692,"current_range_meters":7200,"station_id":"ce4bhs92rcd13ifvqi0g","pricing_plan_id":"free"},{"bike_id":"2615877e-e56a-49b3-93fb-18e33574fc6d","system_id":"levelo_inurba_marseille","lat":43.32825,"lon":5.36681,"is_reserved":false,"is_disabled":false,"rental_uris":{"android":"levelo://app?vid=2615877e-e56a-49b3-93fb-18e33574fc6d","ios":"levelo://app?vid=2615877e-e56a-49b3-93fb-18e33574fc6d"},"vehicle_type_id":"4","last_reported":1690387692,"current_range_meters":25200,"station_id":"ce4bhs92rcd13ifvqi0g","pricing_plan_id":"free"},{"bike_id":"0152df97-6f5b-423a-983e-b5c5759143c2","system_id":"levelo_inurba_marseille","lat":43.328371,"lon":5.366909,"is_reserved":false,"is_disabled":false,"rental_uris":{"android":"levelo://app?vid=0152df97-6f5b-423a-983e-b5c5759143c2","ios":"levelo://app?vid=0152df97-6f5b-423a-983e-b5c5759143c2"},"vehicle_type_id":"4","last_reported":1690387692,"current_range_meters":18800,"station_id":"ce4bhs92rcd13ifvqi0g","pricing_plan_id":"free"},{"bike_id":"6d5aded8-6c7a-420f-a7d1-0bdb269e329f","system_id":"levelo_inurba_marseille","lat":43.328371,"lon":5.366909,"is_reserved":false,"is_disabled":false,"rental_uris":{"android":"levelo://app?vid=6d5aded8-6c7a-420f-a7d1-0bdb269e329f","ios":"levelo://app?vid=6d5aded8-6c7a-420f-a7d1-0bdb269e329f"},"vehicle_type_id":"4","last_reported":1690387692,"current_range_meters":20000,"station_id":"ce4bhs92rcd13ifvqi0g","pricing_plan_id":"free"},{"bike_id":"6d2d67d0-9e72-4e99-87d2-530132902e7b","system_id":"levelo_inurba_marseille","lat":43.3283,"lon":5.36674,"is_reserved":false,"is_disabled":false,"rental_uris":{"android":"levelo://app?vid=6d2d67d0-9e72-4e99-87d2-530132902e7b","ios":"levelo://app?vid=6d2d67d0-9e72-4e99-87d2-530132902e7b"},"vehicle_type_id":"4","last_reported":1690387692,"current_range_meters":29600,"station_id":"ce4bhs92rcd13ifvqi0g","pricing_plan_id":"free"},{"bike_id":"88883ed5-5758-4cfb-b26e-3fdc17f1f394","system_id":"levelo_inurba_marseille","lat":43.231562,"lon":5.436933,"is_reserved":false,"is_disabled":false,"rental_uris":{"android":"levelo://app?vid=88883ed5-5758-4cfb-b26e-3fdc17f1f394","ios":"levelo://app?vid=88883ed5-5758-4cfb-b26e-3fdc17f1f394"},"vehicle_type_id":"4","last_reported":1690387692,"current_range_meters":30800,"station_id":"ce4bhmp2rcd13ifvqgog","pricing_plan_id":"free"},{"bike_id":"dd789220-e7b5-42c1-b9dc-dc4243148021","system_id":"levelo_inurba_marseille","lat":43.297163,"lon":5.365866,"is_reserved":false,"is_disabled":false,"rental_uris":{"android":"levelo://app?vid=dd789220-e7b5-42c1-b9dc-dc4243148021","ios":"levelo://app?vid=dd789220-e7b5-42c1-b9dc-dc4243148021"},"vehicle_type_id":"4","last_reported":1690387692,"current_range_meters":31200,"station_id":"ce4bgn12rcd13ifvqbt0","pricing_plan_id":"free"},{"bike_id":"1ddfe248-918b-4110-9c81-ca8a913d4717","system_id":"levelo_inurba_marseille","lat":43.32836,"lon":5.3669,"is_reserved":false,"is_disabled":false,"rental_uris":{"android":"levelo://app?vid=1ddfe248-918b-4110-9c81-ca8a913d4717","ios":"levelo://app?vid=1ddfe248-918b-4110-9c81-ca8a913d4717"},"vehicle_type_id":"4","last_reported":1690387692,"current_range_meters":30000,"station_id":"ce4bhs92rcd13ifvqi0g","pricing_plan_id":"free"},{"bike_id":"5185cda1-31b9-41e0-ab9d-5a2948936cbe","system_id":"levelo_inurba_marseille","lat":43.296131,"lon":5.370791,"is_reserved":false,"is_disabled":false,"rental_uris":{"android":"levelo://app?vid=5185cda1-31b9-41e0-ab9d-5a2948936cbe","ios":"levelo://app?vid=5185cda1-31b9-41e0-ab9d-5a2948936cbe"},"vehicle_type_id":"4","last_reported":1690387692,"current_range_meters":30400,"station_id":"ce4bgnh2rcd13ifvqc0g","pricing_plan_id":"free"},{"bike_id":"80c66ce2-5505-4e00-bb12-e9d35c8c8bb2","system_id":"levelo_inurba_marseille","lat":43.29586,"lon":5.36723,"is_reserved":false,"is_disabled":false,"rental_uris":{"android":"levelo://app?vid=80c66ce2-5505-4e00-bb12-e9d35c8c8bb2","ios":"levelo://app?vid=80c66ce2-5505-4e00-bb12-e9d35c8c8bb2"},"vehicle_type_id":"4","last_reported":1690387692,"current_range_meters":26000,"station_id":"ce4bgph2rcd13ifvqc2g","pricing_plan_id":"free"},{"bike_id":"ec9f2d06-18d3-492a-b5b2-38e7e4fdb11b","system_id":"levelo_inurba_marseille","lat":43.29573,"lon":5.367355,"is_reserved":false,"is_disabled":false,"rental_uris":{"android":"levelo://app?vid=ec9f2d06-18d3-492a-b5b2-38e7e4fdb11b","ios":"levelo://app?vid=ec9f2d06-18d3-492a-b5b2-38e7e4fdb11b"},"vehicle_type_id":"4","last_reported":1690387692,"current_range_meters":17200,"station_id":"ce4bgph2rcd13ifvqc2g","pricing_plan_id":"free"},{"bike_id":"1ae0393c-4742-4b6b-b8cf-d33e0c71086e","system_id":"levelo_inurba_marseille","lat":43.29582,"lon":5.36751,"is_reserved":false,"is_disabled":false,"rental_uris":{"android":"levelo://app?vid=1ae0393c-4742-4b6b-b8cf-d33e0c71086e","ios":"levelo://app?vid=1ae0393c-4742-4b6b-b8cf-d33e0c71086e"},"vehicle_type_id":"4","last_reported":1690387692,"current_range_meters":31200,"station_id":"ce4bgph2rcd13ifvqc2g","pricing_plan_id":"free"},{"bike_id":"22d8eb35-1ae2-4828-b5bd-f21cc4799c08","system_id":"levelo_inurba_marseille","lat":43.29573,"lon":5.367355,"is_reserved":false,"is_disabled":false,"rental_uris":{"android":"levelo://app?vid=22d8eb35-1ae2-4828-b5bd-f21cc4799c08","ios":"levelo://app?vid=22d8eb35-1ae2-4828-b5bd-f21cc4799c08"},"vehicle_type_id":"4","last_reported":1690387692,"current_range_meters":20800,"station_id":"ce4bgph2rcd13ifvqc2g","pricing_plan_id":"free"},{"bike_id":"15ed48a9-5911-4d1c-aa68-d93a92d2a71a","system_id":"levelo_inurba_marseille","lat":43.29573,"lon":5.367355,"is_reserved":false,"is_disabled":false,"rental_uris":{"android":"levelo://app?vid=15ed48a9-5911-4d1c-aa68-d93a92d2a71a","ios":"levelo://app?vid=15ed48a9-5911-4d1c-aa68-d93a92d2a71a"},"vehicle_type_id":"4","last_reported":1690387692,"current_range_meters":31200,"station_id":"ce4bgph2rcd13ifvqc2g","pricing_plan_id":"free"},{"bike_id":"ae3a1e44-d2cd-45e2-85de-4bde6a769993","system_id":"levelo_inurba_marseille","lat":43.29915,"lon":5.38143,"is_reserved":false,"is_disabled":false,"rental_uris":{"android":"levelo://app?vid=ae3a1e44-d2cd-45e2-85de-4bde6a769993","ios":"levelo://app?vid=ae3a1e44-d2cd-45e2-85de-4bde6a769993"},"vehicle_type_id":"4","last_reported":1690387692,"current_range_meters":21600,"station_id":"","pricing_plan_id":"free"},{"bike_id":"80996baf-8597-4552-b66a-a0139bedf903","system_id":"levelo_inurba_marseille","lat":43.309502,"lon":5.390365,"is_reserved":false,"is_disabled":false,"rental_uris":{"android":"levelo://app?vid=80996baf-8597-4552-b66a-a0139bedf903","ios":"levelo://app?vid=80996baf-8597-4552-b66a-a0139bedf903"},"vehicle_type_id":"4","last_reported":1690387692,"current_range_meters":13600,"station_id":"","pricing_plan_id":"free"},{"bike_id":"f0b1921d-8fc5-42f6-8214-26455e772ce5","system_id":"levelo_inurba_marseille","lat":43.309589,"lon":5.390258,"is_reserved":false,"is_disabled":false,"rental_uris":{"android":"levelo://app?vid=f0b1921d-8fc5-42f6-8214-26455e772ce5","ios":"levelo://app?vid=f0b1921d-8fc5-42f6-8214-26455e772ce5"},"vehicle_type_id":"4","last_reported":1690387692,"current_range_meters":28000,"station_id":"ce4bgup2rcd13ifvqco0","pricing_plan_id":"free"},{"bike_id":"ae3d2dad-d0f0-45f4-bee8-fa3324b74bd8","system_id":"levelo_inurba_marseille","lat":43.295279,"lon":5.375048,"is_reserved":false,"is_disabled":false,"rental_uris":{"android":"levelo://app?vid=ae3d2dad-d0f0-45f4-bee8-fa3324b74bd8","ios":"levelo://app?vid=ae3d2dad-d0f0-45f4-bee8-fa3324b74bd8"},"vehicle_type_id":"4","last_reported":1690387692,"current_range_meters":18000,"station_id":"ce4bgkp2rcd13ifvqbmg","pricing_plan_id":"free"},{"bike_id":"ed437331-d2c5-436f-8d33-19a15aeb8934","system_id":"levelo_inurba_marseille","lat":43.304374,"lon":5.388888,"is_reserved":false,"is_disabled":false,"rental_uris":{"android":"levelo://app?vid=ed437331-d2c5-436f-8d33-19a15aeb8934","ios":"levelo://app?vid=ed437331-d2c5-436f-8d33-19a15aeb8934"},"vehicle_type_id":"4","last_reported":1690387692,"current_range_meters":5600,"station_id":"","pricing_plan_id":"free"},{"bike_id":"41ab54a9-69aa-46a1-8d6d-0b6d963ff066","system_id":"levelo_inurba_marseille","lat":43.296277,"lon":5.377108,"is_reserved":false,"is_disabled":false,"rental_uris":{"android":"levelo://app?vid=41ab54a9-69aa-46a1-8d6d-0b6d963ff066","ios":"levelo://app?vid=41ab54a9-69aa-46a1-8d6d-0b6d963ff066"},"vehicle_type_id":"4","last_reported":1690387692,"current_range_meters":21600,"station_id":"ce4bgi92rcd13ifvqb90","pricing_plan_id":"free"},{"bike_id":"7e41beb9-8471-4e43-9dcd-2f0cf14b33a0","system_id":"levelo_inurba_marseille","lat":43.30429,"lon":5.38891,"is_reserved":false,"is_disabled":false,"rental_uris":{"android":"levelo://app?vid=7e41beb9-8471-4e43-9dcd-2f0cf14b33a0","ios":"levelo://app?vid=7e41beb9-8471-4e43-9dcd-2f0cf14b33a0"},"vehicle_type_id":"4","last_reported":1690387692,"current_range_meters":25600,"station_id":"ce4bgk12rcd13ifvqbi0","pricing_plan_id":"free"},{"bike_id":"1435c555-0be4-4453-9554-34b997077b57","system_id":"levelo_inurba_marseille","lat":43.30433,"lon":5.38896,"is_reserved":false,"is_disabled":false,"rental_uris":{"android":"levelo://app?vid=1435c555-0be4-4453-9554-34b997077b57","ios":"levelo://app?vid=1435c555-0be4-4453-9554-34b997077b57"},"vehicle_type_id":"4","last_reported":1690387692,"current_range_meters":2400,"station_id":"ce4bgk12rcd13ifvqbi0","pricing_plan_id":"free"},{"bike_id":"c314881a-0341-4401-ba26-b2f313dff158","system_id":"levelo_inurba_marseille","lat":43.296263,"lon":5.377094,"is_reserved":false,"is_disabled":false,"rental_uris":{"android":"levelo://app?vid=c314881a-0341-4401-ba26-b2f313dff158","ios":"levelo://app?vid=c314881a-0341-4401-ba26-b2f313dff158"},"vehicle_type_id":"4","last_reported":1690387692,"current_range_meters":10400,"station_id":"ce4bgi92rcd13ifvqb90","pricing_plan_id":"free"},{"bike_id":"6c38dbf7-5f65-43d5-904d-fc4ef01644f8","system_id":"levelo_inurba_marseille","lat":43.296263,"lon":5.377094,"is_reserved":false,"is_disabled":false,"rental_uris":{"android":"levelo://app?vid=6c38dbf7-5f65-43d5-904d-fc4ef01644f8","ios":"levelo://app?vid=6c38dbf7-5f65-43d5-904d-fc4ef01644f8"},"vehicle_type_id":"4","last_reported":1690387692,"current_range_meters":19200,"station_id":"ce4bgi92rcd13ifvqb90","pricing_plan_id":"free"},{"bike_id":"9e220027-687d-48e1-9693-ce1c5edcd22a","system_id":"levelo_inurba_marseille","lat":43.296277,"lon":5.377108,"is_reserved":false,"is_disabled":false,"rental_uris":{"android":"levelo://app?vid=9e220027-687d-48e1-9693-ce1c5edcd22a","ios":"levelo://app?vid=9e220027-687d-48e1-9693-ce1c5edcd22a"},"vehicle_type_id":"4","last_reported":1690387692,"current_range_meters":3200,"station_id":"ce4bgi92rcd13ifvqb90","pricing_plan_id":"free"},{"bike_id":"b8b8131e-01b6-4932-90e4-9e770319ae3f","system_id":"levelo_inurba_marseille","lat":43.299724,"lon":5.384848,"is_reserved":false,"is_disabled":false,"rental_uris":{"android":"levelo://app?vid=b8b8131e-01b6-4932-90e4-9e770319ae3f","ios":"levelo://app?vid=b8b8131e-01b6-4932-90e4-9e770319ae3f"},"vehicle_type_id":"4","last_reported":1690387692,"current_range_meters":13600,"station_id":"ce4bgj92rcd13ifvqbd0","pricing_plan_id":"free"},{"bike_id":"09641fda-a8f2-48ee-b511-6f21216478e7","system_id":"levelo_inurba_marseille","lat":43.295279,"lon":5.375048,"is_reserved":false,"is_disabled":false,"rental_uris":{"android":"levelo://app?vid=09641fda-a8f2-48ee-b511-6f21216478e7","ios":"levelo://app?vid=09641fda-a8f2-48ee-b511-6f21216478e7"},"vehicle_type_id":"4","last_reported":1690387692,"current_range_meters":4000,"station_id":"ce4bgkp2rcd13ifvqbmg","pricing_plan_id":"free"},{"bike_id":"0872f09c-155e-4427-b002-452bdac44512","system_id":"levelo_inurba_marseille","lat":43.295279,"lon":5.375048,"is_reserved":false,"is_disabled":false,"rental_uris":{"android":"levelo://app?vid=0872f09c-155e-4427-b002-452bdac44512","ios":"levelo://app?vid=0872f09c-155e-4427-b002-452bdac44512"},"vehicle_type_id":"4","last_reported":1690387692,"current_range_meters":17200,"station_id":"ce4bgkp2rcd13ifvqbmg","pricing_plan_id":"free"},{"bike_id":"8e2b40f5-9c96-4cd1-8734-96589289c122","system_id":"levelo_inurba_marseille","lat":43.29633,"lon":5.37972,"is_reserved":false,"is_disabled":false,"rental_uris":{"android":"levelo://app?vid=8e2b40f5-9c96-4cd1-8734-96589289c122","ios":"levelo://app?vid=8e2b40f5-9c96-4cd1-8734-96589289c122"},"vehicle_type_id":"4","last_reported":1690387692,"current_range_meters":21200,"station_id":"","pricing_plan_id":"free"},{"bike_id":"ba4fef93-79b8-4fd7-a7eb-f9033499f73f","system_id":"levelo_inurba_marseille","lat":43.2954,"lon":5.37798,"is_reserved":false,"is_disabled":false,"rental_uris":{"android":"levelo://app?vid=ba4fef93-79b8-4fd7-a7eb-f9033499f73f","ios":"levelo://app?vid=ba4fef93-79b8-4fd7-a7eb-f9033499f73f"},"vehicle_type_id":"4","last_reported":1690387692,"current_range_meters":4400,"station_id":"","pricing_plan_id":"free"},{"bike_id":"927291a0-d519-4f5c-a30b-686cd4682865","system_id":"levelo_inurba_marseille","lat":43.32371,"lon":5.38872,"is_reserved":false,"is_disabled":false,"rental_uris":{"android":"levelo://app?vid=927291a0-d519-4f5c-a30b-686cd4682865","ios":"levelo://app?vid=927291a0-d519-4f5c-a30b-686cd4682865"},"vehicle_type_id":"4","last_reported":1690387692,"current_range_meters":24000,"station_id":"ce4bhqp2rcd13ifvqhog","pricing_plan_id":"free"},{"bike_id":"1e20c74e-26fa-4656-a855-666fd19784b2","system_id":"levelo_inurba_marseille","lat":43.32367,"lon":5.38884,"is_reserved":false,"is_disabled":false,"rental_uris":{"android":"levelo://app?vid=1e20c74e-26fa-4656-a855-666fd19784b2","ios":"levelo://app?vid=1e20c74e-26fa-4656-a855-666fd19784b2"},"vehicle_type_id":"4","last_reported":1690387692,"current_range_meters":22400,"station_id":"ce4bhqp2rcd13ifvqhog","pricing_plan_id":"free"},{"bike_id":"4f34c5ba-a7e8-4382-9eda-8b28e06e58ba","system_id":"levelo_inurba_marseille","lat":43.29602,"lon":5.381084,"is_reserved":false,"is_disabled":false,"rental_uris":{"android":"levelo://app?vid=4f34c5ba-a7e8-4382-9eda-8b28e06e58ba","ios":"levelo://app?vid=4f34c5ba-a7e8-4382-9eda-8b28e06e58ba"},"vehicle_type_id":"4","last_reported":1690387692,"current_range_meters":20000,"station_id":"ce4bgl12rcd13ifvqbo0","pricing_plan_id":"free"},{"bike_id":"e36e18f2-8bb2-451a-bc7f-8832238d9807","system_id":"levelo_inurba_marseille","lat":43.292749,"lon":5.368398,"is_reserved":false,"is_disabled":false,"rental_uris":{"android":"levelo://app?vid=e36e18f2-8bb2-451a-bc7f-8832238d9807","ios":"levelo://app?vid=e36e18f2-8bb2-451a-bc7f-8832238d9807"},"vehicle_type_id":"4","last_reported":1690387692,"current_range_meters":7600,"station_id":"ce4bhbp2rcd13ifvqesg","pricing_plan_id":"free"},{"bike_id":"ada1bbdb-c105-479f-82d6-e16360e3c523","system_id":"levelo_inurba_marseille","lat":43.293009,"lon":5.374584,"is_reserved":false,"is_disabled":false,"rental_uris":{"android":"levelo://app?vid=ada1bbdb-c105-479f-82d6-e16360e3c523","ios":"levelo://app?vid=ada1bbdb-c105-479f-82d6-e16360e3c523"},"vehicle_type_id":"4","last_reported":1690387692,"current_range_meters":16800,"station_id":"ce4bgi12rcd13ifvqb70","pricing_plan_id":"free"},{"bike_id":"a0ddf89a-0d5f-4bb0-a703-d4f62ae01ce1","system_id":"levelo_inurba_marseille","lat":43.293009,"lon":5.374584,"is_reserved":false,"is_disabled":false,"rental_uris":{"android":"levelo://app?vid=a0ddf89a-0d5f-4bb0-a703-d4f62ae01ce1","ios":"levelo://app?vid=a0ddf89a-0d5f-4bb0-a703-d4f62ae01ce1"},"vehicle_type_id":"4","last_reported":1690387692,"current_range_meters":20400,"station_id":"ce4bgi12rcd13ifvqb70","pricing_plan_id":"free"},{"bike_id":"9237f24a-21f2-44a1-b7e6-ab09209fe718","system_id":"levelo_inurba_marseille","lat":43.2927,"lon":5.35963,"is_reserved":false,"is_disabled":false,"rental_uris":{"android":"levelo://app?vid=9237f24a-21f2-44a1-b7e6-ab09209fe718","ios":"levelo://app?vid=9237f24a-21f2-44a1-b7e6-ab09209fe718"},"vehicle_type_id":"4","last_reported":1690387692,"current_range_meters":14800,"station_id":"","pricing_plan_id":"free"},{"bike_id":"3edb5371-9d5f-4b25-91b2-ac6eeb840d8d","system_id":"levelo_inurba_marseille","lat":43.302992,"lon":5.392136,"is_reserved":false,"is_disabled":false,"rental_uris":{"android":"levelo://app?vid=3edb5371-9d5f-4b25-91b2-ac6eeb840d8d","ios":"levelo://app?vid=3edb5371-9d5f-4b25-91b2-ac6eeb840d8d"},"vehicle_type_id":"4","last_reported":1690387692,"current_range_meters":24400,"station_id":"ce4bgkh2rcd13ifvqbk0","pricing_plan_id":"free"},{"bike_id":"a0aeab87-5ad8-436f-b226-27a41aaebeaa","system_id":"levelo_inurba_marseille","lat":43.300852,"lon":5.390859,"is_reserved":false,"is_disabled":false,"rental_uris":{"android":"levelo://app?vid=a0aeab87-5ad8-436f-b226-27a41aaebeaa","ios":"levelo://app?vid=a0aeab87-5ad8-436f-b226-27a41aaebeaa"},"vehicle_type_id":"4","last_reported":1690387692,"current_range_meters":15600,"station_id":"ce4bh192rcd13ifvqdb0","pricing_plan_id":"free"},{"bike_id":"9fa52cb2-6a32-4922-93ba-fa4a6450623f","system_id":"levelo_inurba_marseille","lat":43.30085,"lon":5.390856,"is_reserved":false,"is_disabled":false,"rental_uris":{"android":"levelo://app?vid=9fa52cb2-6a32-4922-93ba-fa4a6450623f","ios":"levelo://app?vid=9fa52cb2-6a32-4922-93ba-fa4a6450623f"},"vehicle_type_id":"4","last_reported":1690387692,"current_range_meters":25600,"station_id":"ce4bh192rcd13ifvqdb0","pricing_plan_id":"free"},{"bike_id":"7092b879-cd5a-4e9b-b8ef-74585e522491","system_id":"levelo_inurba_marseille","lat":43.300852,"lon":5.390859,"is_reserved":false,"is_disabled":false,"rental_uris":{"android":"levelo://app?vid=7092b879-cd5a-4e9b-b8ef-74585e522491","ios":"levelo://app?vid=7092b879-cd5a-4e9b-b8ef-74585e522491"},"vehicle_type_id":"4","last_reported":1690387692,"current_range_meters":27200,"station_id":"ce4bh192rcd13ifvqdb0","pricing_plan_id":"free"},{"bike_id":"4cc46593-b892-4c6e-9504-3db6ade60512","system_id":"levelo_inurba_marseille","lat":43.300852,"lon":5.390859,"is_reserved":false,"is_disabled":false,"rental_uris":{"android":"levelo://app?vid=4cc46593-b892-4c6e-9504-3db6ade60512","ios":"levelo://app?vid=4cc46593-b892-4c6e-9504-3db6ade60512"},"vehicle_type_id":"4","last_reported":1690387692,"current_range_meters":10400,"station_id":"ce4bh192rcd13ifvqdb0","pricing_plan_id":"free"},{"bike_id":"31e6be01-13c9-4c63-9fb0-83fdaf9fa8e3","system_id":"levelo_inurba_marseille","lat":43.29219,"lon":5.36048,"is_reserved":false,"is_disabled":false,"rental_uris":{"android":"levelo://app?vid=31e6be01-13c9-4c63-9fb0-83fdaf9fa8e3","ios":"levelo://app?vid=31e6be01-13c9-4c63-9fb0-83fdaf9fa8e3"},"vehicle_type_id":"4","last_reported":1690387692,"current_range_meters":18400,"station_id":"ce4bhbh2rcd13ifvqeqg","pricing_plan_id":"free"},{"bike_id":"53187c4b-8402-40fa-8dda-5fc28c0dd01a","system_id":"levelo_inurba_marseille","lat":43.292311,"lon":5.360731,"is_reserved":false,"is_disabled":false,"rental_uris":{"android":"levelo://app?vid=53187c4b-8402-40fa-8dda-5fc28c0dd01a","ios":"levelo://app?vid=53187c4b-8402-40fa-8dda-5fc28c0dd01a"},"vehicle_type_id":"4","last_reported":1690387692,"current_range_meters":25600,"station_id":"ce4bhbh2rcd13ifvqeqg","pricing_plan_id":"free"},{"bike_id":"46f7e547-5974-48ab-9d66-edbd6d84365e","system_id":"levelo_inurba_marseille","lat":43.29219,"lon":5.36037,"is_reserved":false,"is_disabled":false,"rental_uris":{"android":"levelo://app?vid=46f7e547-5974-48ab-9d66-edbd6d84365e","ios":"levelo://app?vid=46f7e547-5974-48ab-9d66-edbd6d84365e"},"vehicle_type_id":"4","last_reported":1690387692,"current_range_meters":28000,"station_id":"ce4bhbh2rcd13ifvqeqg","pricing_plan_id":"free"},{"bike_id":"9e33df5c-a06d-44af-99f5-8ad0c650ec1f","system_id":"levelo_inurba_marseille","lat":43.30085,"lon":5.390856,"is_reserved":false,"is_disabled":false,"rental_uris":{"android":"levelo://app?vid=9e33df5c-a06d-44af-99f5-8ad0c650ec1f","ios":"levelo://app?vid=9e33df5c-a06d-44af-99f5-8ad0c650ec1f"},"vehicle_type_id":"4","last_reported":1690387692,"current_range_meters":23600,"station_id":"ce4bh192rcd13ifvqdb0","pricing_plan_id":"free"},{"bike_id":"48d4248b-a573-4a8e-abb2-86b40c84b944","system_id":"levelo_inurba_marseille","lat":43.292663,"lon":5.376394,"is_reserved":false,"is_disabled":false,"rental_uris":{"android":"levelo://app?vid=48d4248b-a573-4a8e-abb2-86b40c84b944","ios":"levelo://app?vid=48d4248b-a573-4a8e-abb2-86b40c84b944"},"vehicle_type_id":"4","last_reported":1690387692,"current_range_meters":19200,"station_id":"ce4bgi12rcd13ifvqb80","pricing_plan_id":"free"},{"bike_id":"5dbb964a-d08d-4f72-9000-fd75ca203801","system_id":"levelo_inurba_marseille","lat":43.29266,"lon":5.37647,"is_reserved":false,"is_disabled":false,"rental_uris":{"android":"levelo://app?vid=5dbb964a-d08d-4f72-9000-fd75ca203801","ios":"levelo://app?vid=5dbb964a-d08d-4f72-9000-fd75ca203801"},"vehicle_type_id":"4","last_reported":1690387692,"current_range_meters":20800,"station_id":"","pricing_plan_id":"free"},{"bike_id":"718d492f-6711-4cfb-877f-4ac12228152e","system_id":"levelo_inurba_marseille","lat":43.298764,"lon":5.388973,"is_reserved":false,"is_disabled":false,"rental_uris":{"android":"levelo://app?vid=718d492f-6711-4cfb-877f-4ac12228152e","ios":"levelo://app?vid=718d492f-6711-4cfb-877f-4ac12228152e"},"vehicle_type_id":"4","last_reported":1690387692,"current_range_meters":0,"station_id":"ce4bh392rcd13ifvqdl0","pricing_plan_id":"free"},{"bike_id":"f3616ebd-dbb9-475e-9de0-79d213f4cf23","system_id":"levelo_inurba_marseille","lat":43.29883,"lon":5.38908,"is_reserved":false,"is_disabled":false,"rental_uris":{"android":"levelo://app?vid=f3616ebd-dbb9-475e-9de0-79d213f4cf23","ios":"levelo://app?vid=f3616ebd-dbb9-475e-9de0-79d213f4cf23"},"vehicle_type_id":"4","last_reported":1690387692,"current_range_meters":7600,"station_id":"ce4bh392rcd13ifvqdl0","pricing_plan_id":"free"},{"bike_id":"1f36ee79-2878-40b9-8007-128c36180675","system_id":"levelo_inurba_marseille","lat":43.298764,"lon":5.388973,"is_reserved":false,"is_disabled":false,"rental_uris":{"android":"levelo://app?vid=1f36ee79-2878-40b9-8007-128c36180675","ios":"levelo://app?vid=1f36ee79-2878-40b9-8007-128c36180675"},"vehicle_type_id":"4","last_reported":1690387692,"current_range_meters":23600,"station_id":"ce4bh392rcd13ifvqdl0","pricing_plan_id":"free"},{"bike_id":"8698c363-7b0e-46b3-83ba-eaeba68d1fe3","system_id":"levelo_inurba_marseille","lat":43.29165,"lon":5.37145,"is_reserved":false,"is_disabled":false,"rental_uris":{"android":"levelo://app?vid=8698c363-7b0e-46b3-83ba-eaeba68d1fe3","ios":"levelo://app?vid=8698c363-7b0e-46b3-83ba-eaeba68d1fe3"},"vehicle_type_id":"4","last_reported":1690387692,"current_range_meters":29600,"station_id":"ce4bha92rcd13ifvqeh0","pricing_plan_id":"free"},{"bike_id":"4ac5c0ba-ae34-45f1-92a2-15445a4f91cf","system_id":"levelo_inurba_marseille","lat":43.3089,"lon":5.39638,"is_reserved":false,"is_disabled":false,"rental_uris":{"android":"levelo://app?vid=4ac5c0ba-ae34-45f1-92a2-15445a4f91cf","ios":"levelo://app?vid=4ac5c0ba-ae34-45f1-92a2-15445a4f91cf"},"vehicle_type_id":"4","last_reported":1690387692,"current_range_meters":15200,"station_id":"ce4bh012rcd13ifvqcv0","pricing_plan_id":"free"},{"bike_id":"cf6e9306-e5f0-4a15-a5c6-b3350895e8e4","system_id":"levelo_inurba_marseille","lat":43.29529,"lon":5.385581,"is_reserved":false,"is_disabled":false,"rental_uris":{"android":"levelo://app?vid=cf6e9306-e5f0-4a15-a5c6-b3350895e8e4","ios":"levelo://app?vid=cf6e9306-e5f0-4a15-a5c6-b3350895e8e4"},"vehicle_type_id":"4","last_reported":1690387692,"current_range_meters":15200,"station_id":"ce4bgih2rcd13ifvqba0","pricing_plan_id":"free"},{"bike_id":"5b4334e4-6adb-4908-9924-204fb95f2509","system_id":"levelo_inurba_marseille","lat":43.29529,"lon":5.385581,"is_reserved":false,"is_disabled":false,"rental_uris":{"android":"levelo://app?vid=5b4334e4-6adb-4908-9924-204fb95f2509","ios":"levelo://app?vid=5b4334e4-6adb-4908-9924-204fb95f2509"},"vehicle_type_id":"4","last_reported":1690387692,"current_range_meters":28800,"station_id":"ce4bgih2rcd13ifvqba0","pricing_plan_id":"free"},{"bike_id":"df3412fd-4725-49c4-97df-bcd80d9de5ce","system_id":"levelo_inurba_marseille","lat":43.29529,"lon":5.385581,"is_reserved":false,"is_disabled":false,"rental_uris":{"android":"levelo://app?vid=df3412fd-4725-49c4-97df-bcd80d9de5ce","ios":"levelo://app?vid=df3412fd-4725-49c4-97df-bcd80d9de5ce"},"vehicle_type_id":"4","last_reported":1690387692,"current_range_meters":31200,"station_id":"ce4bgih2rcd13ifvqba0","pricing_plan_id":"free"},{"bike_id":"167849c4-a286-41a1-9c2e-ff19d02ff0a5","system_id":"levelo_inurba_marseille","lat":43.29529,"lon":5.385581,"is_reserved":false,"is_disabled":false,"rental_uris":{"android":"levelo://app?vid=167849c4-a286-41a1-9c2e-ff19d02ff0a5","ios":"levelo://app?vid=167849c4-a286-41a1-9c2e-ff19d02ff0a5"},"vehicle_type_id":"4","last_reported":1690387692,"current_range_meters":24800,"station_id":"ce4bgih2rcd13ifvqba0","pricing_plan_id":"free"},{"bike_id":"3b66e00c-7a9c-4811-8770-724abf95a368","system_id":"levelo_inurba_marseille","lat":43.29529,"lon":5.385581,"is_reserved":false,"is_disabled":false,"rental_uris":{"android":"levelo://app?vid=3b66e00c-7a9c-4811-8770-724abf95a368","ios":"levelo://app?vid=3b66e00c-7a9c-4811-8770-724abf95a368"},"vehicle_type_id":"4","last_reported":1690387692,"current_range_meters":30000,"station_id":"ce4bgih2rcd13ifvqba0","pricing_plan_id":"free"},{"bike_id":"9032222d-0dbb-4808-b325-1cc1af84cadc","system_id":"levelo_inurba_marseille","lat":43.29529,"lon":5.385581,"is_reserved":false,"is_disabled":false,"rental_uris":{"android":"levelo://app?vid=9032222d-0dbb-4808-b325-1cc1af84cadc","ios":"levelo://app?vid=9032222d-0dbb-4808-b325-1cc1af84cadc"},"vehicle_type_id":"4","last_reported":1690387692,"current_range_meters":25200,"station_id":"ce4bgih2rcd13ifvqba0","pricing_plan_id":"free"},{"bike_id":"7247f473-8a96-40f0-b297-fa71a3000982","system_id":"levelo_inurba_marseille","lat":43.290624,"lon":5.359245,"is_reserved":false,"is_disabled":false,"rental_uris":{"android":"levelo://app?vid=7247f473-8a96-40f0-b297-fa71a3000982","ios":"levelo://app?vid=7247f473-8a96-40f0-b297-fa71a3000982"},"vehicle_type_id":"4","last_reported":1690387692,"current_range_meters":29200,"station_id":"ce4bha92rcd13ifvqeg0","pricing_plan_id":"free"},{"bike_id":"83b995bc-61c0-467d-931b-44ff7c94edad","system_id":"levelo_inurba_marseille","lat":43.290624,"lon":5.359245,"is_reserved":false,"is_disabled":false,"rental_uris":{"android":"levelo://app?vid=83b995bc-61c0-467d-931b-44ff7c94edad","ios":"levelo://app?vid=83b995bc-61c0-467d-931b-44ff7c94edad"},"vehicle_type_id":"4","last_reported":1690387692,"current_range_meters":7200,"station_id":"ce4bha92rcd13ifvqeg0","pricing_plan_id":"free"},{"bike_id":"e5b5222f-ba05-40bc-8298-ea58ca2835de","system_id":"levelo_inurba_marseille","lat":43.29044,"lon":5.35922,"is_reserved":false,"is_disabled":false,"rental_uris":{"android":"levelo://app?vid=e5b5222f-ba05-40bc-8298-ea58ca2835de","ios":"levelo://app?vid=e5b5222f-ba05-40bc-8298-ea58ca2835de"},"vehicle_type_id":"4","last_reported":1690387692,"current_range_meters":28800,"station_id":"","pricing_plan_id":"free"},{"bike_id":"9e50be48-c686-4eea-b61e-4c4a1f12809f","system_id":"levelo_inurba_marseille","lat":43.294153,"lon":5.386305,"is_reserved":false,"is_disabled":false,"rental_uris":{"android":"levelo://app?vid=9e50be48-c686-4eea-b61e-4c4a1f12809f","ios":"levelo://app?vid=9e50be48-c686-4eea-b61e-4c4a1f12809f"},"vehicle_type_id":"4","last_reported":1690387692,"current_range_meters":24000,"station_id":"ce4bh2h2rcd13ifvqdh0","pricing_plan_id":"free"},{"bike_id":"90d88a2f-9e48-46f4-9452-24506e8ddbb1","system_id":"levelo_inurba_marseille","lat":43.294162,"lon":5.386292,"is_reserved":false,"is_disabled":false,"rental_uris":{"android":"levelo://app?vid=90d88a2f-9e48-46f4-9452-24506e8ddbb1","ios":"levelo://app?vid=90d88a2f-9e48-46f4-9452-24506e8ddbb1"},"vehicle_type_id":"4","last_reported":1690387692,"current_range_meters":24400,"station_id":"ce4bh2h2rcd13ifvqdh0","pricing_plan_id":"free"},{"bike_id":"e3778825-afab-4750-b07f-a25013bfada9","system_id":"levelo_inurba_marseille","lat":43.294153,"lon":5.386305,"is_reserved":false,"is_disabled":false,"rental_uris":{"android":"levelo://app?vid=e3778825-afab-4750-b07f-a25013bfada9","ios":"levelo://app?vid=e3778825-afab-4750-b07f-a25013bfada9"},"vehicle_type_id":"4","last_reported":1690387692,"current_range_meters":31200,"station_id":"ce4bh2h2rcd13ifvqdh0","pricing_plan_id":"free"},{"bike_id":"13562c42-1727-4543-8e81-c8c7ed4e867f","system_id":"levelo_inurba_marseille","lat":43.294153,"lon":5.386305,"is_reserved":false,"is_disabled":false,"rental_uris":{"android":"levelo://app?vid=13562c42-1727-4543-8e81-c8c7ed4e867f","ios":"levelo://app?vid=13562c42-1727-4543-8e81-c8c7ed4e867f"},"vehicle_type_id":"4","last_reported":1690387692,"current_range_meters":24400,"station_id":"ce4bh2h2rcd13ifvqdh0","pricing_plan_id":"free"},{"bike_id":"c5ad738d-c3b6-4d56-8214-30d9389ec1b5","system_id":"levelo_inurba_marseille","lat":43.29417,"lon":5.38624,"is_reserved":false,"is_disabled":false,"rental_uris":{"android":"levelo://app?vid=c5ad738d-c3b6-4d56-8214-30d9389ec1b5","ios":"levelo://app?vid=c5ad738d-c3b6-4d56-8214-30d9389ec1b5"},"vehicle_type_id":"4","last_reported":1690387692,"current_range_meters":19600,"station_id":"ce4bh2h2rcd13ifvqdh0","pricing_plan_id":"free"},{"bike_id":"a6d28c52-784d-4cb7-84b0-d273889a1034","system_id":"levelo_inurba_marseille","lat":43.294162,"lon":5.386292,"is_reserved":false,"is_disabled":false,"rental_uris":{"android":"levelo://app?vid=a6d28c52-784d-4cb7-84b0-d273889a1034","ios":"levelo://app?vid=a6d28c52-784d-4cb7-84b0-d273889a1034"},"vehicle_type_id":"4","last_reported":1690387692,"current_range_meters":20800,"station_id":"ce4bh2h2rcd13ifvqdh0","pricing_plan_id":"free"},{"bike_id":"502b2a58-9608-4835-9896-14f21a85b1d1","system_id":"levelo_inurba_marseille","lat":43.294162,"lon":5.386292,"is_reserved":false,"is_disabled":false,"rental_uris":{"android":"levelo://app?vid=502b2a58-9608-4835-9896-14f21a85b1d1","ios":"levelo://app?vid=502b2a58-9608-4835-9896-14f21a85b1d1"},"vehicle_type_id":"4","last_reported":1690387692,"current_range_meters":13200,"station_id":"ce4bh2h2rcd13ifvqdh0","pricing_plan_id":"free"},{"bike_id":"aa907cdf-e16b-45ea-8ffe-5baaac960b9f","system_id":"levelo_inurba_marseille","lat":43.289184,"lon":5.366408,"is_reserved":false,"is_disabled":false,"rental_uris":{"android":"levelo://app?vid=aa907cdf-e16b-45ea-8ffe-5baaac960b9f","ios":"levelo://app?vid=aa907cdf-e16b-45ea-8ffe-5baaac960b9f"},"vehicle_type_id":"4","last_reported":1690387692,"current_range_meters":24000,"station_id":"ce4bhap2rcd13ifvqek0","pricing_plan_id":"free"},{"bike_id":"9909c420-06c9-4da8-b9b9-730a7628ac29","system_id":"levelo_inurba_marseille","lat":43.294153,"lon":5.386305,"is_reserved":false,"is_disabled":false,"rental_uris":{"android":"levelo://app?vid=9909c420-06c9-4da8-b9b9-730a7628ac29","ios":"levelo://app?vid=9909c420-06c9-4da8-b9b9-730a7628ac29"},"vehicle_type_id":"4","last_reported":1690387692,"current_range_meters":24800,"station_id":"ce4bh2h2rcd13ifvqdh0","pricing_plan_id":"free"},{"bike_id":"9166093a-0aa2-48fb-9600-ac6355bc5dfe","system_id":"levelo_inurba_marseille","lat":43.289184,"lon":5.366408,"is_reserved":false,"is_disabled":false,"rental_uris":{"android":"levelo://app?vid=9166093a-0aa2-48fb-9600-ac6355bc5dfe","ios":"levelo://app?vid=9166093a-0aa2-48fb-9600-ac6355bc5dfe"},"vehicle_type_id":"4","last_reported":1690387692,"current_range_meters":9200,"station_id":"ce4bhap2rcd13ifvqek0","pricing_plan_id":"free"},{"bike_id":"e3a71010-6b8a-4f20-aced-8b92aa1ea9e4","system_id":"levelo_inurba_marseille","lat":43.289184,"lon":5.366408,"is_reserved":false,"is_disabled":false,"rental_uris":{"android":"levelo://app?vid=e3a71010-6b8a-4f20-aced-8b92aa1ea9e4","ios":"levelo://app?vid=e3a71010-6b8a-4f20-aced-8b92aa1ea9e4"},"vehicle_type_id":"4","last_reported":1690387692,"current_range_meters":18000,"station_id":"ce4bhap2rcd13ifvqek0","pricing_plan_id":"free"},{"bike_id":"85d27170-613a-4005-9b4b-7ff17f0b832d","system_id":"levelo_inurba_marseille","lat":43.289184,"lon":5.366408,"is_reserved":false,"is_disabled":false,"rental_uris":{"android":"levelo://app?vid=85d27170-613a-4005-9b4b-7ff17f0b832d","ios":"levelo://app?vid=85d27170-613a-4005-9b4b-7ff17f0b832d"},"vehicle_type_id":"4","last_reported":1690387692,"current_range_meters":27600,"station_id":"ce4bhap2rcd13ifvqek0","pricing_plan_id":"free"},{"bike_id":"fb5da1ef-7942-4eb7-844f-ed3792052edf","system_id":"levelo_inurba_marseille","lat":43.289468,"lon":5.363719,"is_reserved":false,"is_disabled":false,"rental_uris":{"android":"levelo://app?vid=fb5da1ef-7942-4eb7-844f-ed3792052edf","ios":"levelo://app?vid=fb5da1ef-7942-4eb7-844f-ed3792052edf"},"vehicle_type_id":"4","last_reported":1690387692,"current_range_meters":4800,"station_id":"ce4bhc92rcd13ifvqetg","pricing_plan_id":"free"},{"bike_id":"7864ae7b-0aa5-4692-b922-34087029a516","system_id":"levelo_inurba_marseille","lat":43.292644,"lon":5.384257,"is_reserved":false,"is_disabled":false,"rental_uris":{"android":"levelo://app?vid=7864ae7b-0aa5-4692-b922-34087029a516","ios":"levelo://app?vid=7864ae7b-0aa5-4692-b922-34087029a516"},"vehicle_type_id":"4","last_reported":1690387692,"current_range_meters":12800,"station_id":"ce4bh692rcd13ifvqea0","pricing_plan_id":"free"},{"bike_id":"8765c3d7-263c-4c45-8e9f-5d2eb4bdff1b","system_id":"levelo_inurba_marseille","lat":43.290103,"lon":5.356114,"is_reserved":false,"is_disabled":false,"rental_uris":{"android":"levelo://app?vid=8765c3d7-263c-4c45-8e9f-5d2eb4bdff1b","ios":"levelo://app?vid=8765c3d7-263c-4c45-8e9f-5d2eb4bdff1b"},"vehicle_type_id":"4","last_reported":1690387692,"current_range_meters":21600,"station_id":"ce4bhb92rcd13ifvqen0","pricing_plan_id":"free"},{"bike_id":"c359a6ef-a2bf-4eb8-a6aa-9363a524fcb2","system_id":"levelo_inurba_marseille","lat":43.292642,"lon":5.384254,"is_reserved":false,"is_disabled":false,"rental_uris":{"android":"levelo://app?vid=c359a6ef-a2bf-4eb8-a6aa-9363a524fcb2","ios":"levelo://app?vid=c359a6ef-a2bf-4eb8-a6aa-9363a524fcb2"},"vehicle_type_id":"4","last_reported":1690387692,"current_range_meters":26000,"station_id":"ce4bh692rcd13ifvqea0","pricing_plan_id":"free"},{"bike_id":"3a5e74df-2a10-47ee-a7e3-65a930de8eb1","system_id":"levelo_inurba_marseille","lat":43.330442,"lon":5.389148,"is_reserved":false,"is_disabled":false,"rental_uris":{"android":"levelo://app?vid=3a5e74df-2a10-47ee-a7e3-65a930de8eb1","ios":"levelo://app?vid=3a5e74df-2a10-47ee-a7e3-65a930de8eb1"},"vehicle_type_id":"4","last_reported":1690387692,"current_range_meters":8800,"station_id":"ce4bhr92rcd13ifvqhrg","pricing_plan_id":"free"},{"bike_id":"25dd1d6d-9f1e-4912-bac7-089bb523f1a3","system_id":"levelo_inurba_marseille","lat":43.33046,"lon":5.38907,"is_reserved":false,"is_disabled":false,"rental_uris":{"android":"levelo://app?vid=25dd1d6d-9f1e-4912-bac7-089bb523f1a3","ios":"levelo://app?vid=25dd1d6d-9f1e-4912-bac7-089bb523f1a3"},"vehicle_type_id":"4","last_reported":1690387692,"current_range_meters":19200,"station_id":"ce4bhr92rcd13ifvqhrg","pricing_plan_id":"free"},{"bike_id":"88404aae-9970-41ff-af6e-47c8a2c0fca6","system_id":"levelo_inurba_marseille","lat":43.33042,"lon":5.38915,"is_reserved":false,"is_disabled":false,"rental_uris":{"android":"levelo://app?vid=88404aae-9970-41ff-af6e-47c8a2c0fca6","ios":"levelo://app?vid=88404aae-9970-41ff-af6e-47c8a2c0fca6"},"vehicle_type_id":"4","last_reported":1690387692,"current_range_meters":20400,"station_id":"ce4bhr92rcd13ifvqhrg","pricing_plan_id":"free"},{"bike_id":"633edd21-a73a-4693-b39b-5c04b4ec83f5","system_id":"levelo_inurba_marseille","lat":43.290104,"lon":5.356111,"is_reserved":false,"is_disabled":false,"rental_uris":{"android":"levelo://app?vid=633edd21-a73a-4693-b39b-5c04b4ec83f5","ios":"levelo://app?vid=633edd21-a73a-4693-b39b-5c04b4ec83f5"},"vehicle_type_id":"4","last_reported":1690387692,"current_range_meters":28800,"station_id":"ce4bhb92rcd13ifvqen0","pricing_plan_id":"free"},{"bike_id":"4e0a25ca-6770-47e2-8248-479f892f01fb","system_id":"levelo_inurba_marseille","lat":43.33041,"lon":5.38919,"is_reserved":false,"is_disabled":false,"rental_uris":{"android":"levelo://app?vid=4e0a25ca-6770-47e2-8248-479f892f01fb","ios":"levelo://app?vid=4e0a25ca-6770-47e2-8248-479f892f01fb"},"vehicle_type_id":"4","last_reported":1690387692,"current_range_meters":22000,"station_id":"ce4bhr92rcd13ifvqhrg","pricing_plan_id":"free"},{"bike_id":"0f7bc18f-e6c1-47b0-8f1c-aef49027d93f","system_id":"levelo_inurba_marseille","lat":43.33044,"lon":5.38915,"is_reserved":false,"is_disabled":false,"rental_uris":{"android":"levelo://app?vid=0f7bc18f-e6c1-47b0-8f1c-aef49027d93f","ios":"levelo://app?vid=0f7bc18f-e6c1-47b0-8f1c-aef49027d93f"},"vehicle_type_id":"4","last_reported":1690387692,"current_range_meters":24400,"station_id":"ce4bhr92rcd13ifvqhrg","pricing_plan_id":"free"},{"bike_id":"42263800-8128-4f1b-a1a5-6d23f3968fa7","system_id":"levelo_inurba_marseille","lat":43.33041,"lon":5.3892,"is_reserved":false,"is_disabled":false,"rental_uris":{"android":"levelo://app?vid=42263800-8128-4f1b-a1a5-6d23f3968fa7","ios":"levelo://app?vid=42263800-8128-4f1b-a1a5-6d23f3968fa7"},"vehicle_type_id":"4","last_reported":1690387692,"current_range_meters":13200,"station_id":"ce4bhr92rcd13ifvqhrg","pricing_plan_id":"free"},{"bike_id":"547fe218-a202-423c-aab9-a539d3880f5e","system_id":"levelo_inurba_marseille","lat":43.33046,"lon":5.38913,"is_reserved":false,"is_disabled":false,"rental_uris":{"android":"levelo://app?vid=547fe218-a202-423c-aab9-a539d3880f5e","ios":"levelo://app?vid=547fe218-a202-423c-aab9-a539d3880f5e"},"vehicle_type_id":"4","last_reported":1690387692,"current_range_meters":16400,"station_id":"ce4bhr92rcd13ifvqhrg","pricing_plan_id":"free"},{"bike_id":"c759ee83-f8de-4fd6-aac9-ed656b69f68a","system_id":"levelo_inurba_marseille","lat":43.33043,"lon":5.38918,"is_reserved":false,"is_disabled":false,"rental_uris":{"android":"levelo://app?vid=c759ee83-f8de-4fd6-aac9-ed656b69f68a","ios":"levelo://app?vid=c759ee83-f8de-4fd6-aac9-ed656b69f68a"},"vehicle_type_id":"4","last_reported":1690387692,"current_range_meters":18800,"station_id":"ce4bhr92rcd13ifvqhrg","pricing_plan_id":"free"},{"bike_id":"76dcdf1b-c017-45e1-b08a-abe62af31063","system_id":"levelo_inurba_marseille","lat":43.29008,"lon":5.35614,"is_reserved":false,"is_disabled":false,"rental_uris":{"android":"levelo://app?vid=76dcdf1b-c017-45e1-b08a-abe62af31063","ios":"levelo://app?vid=76dcdf1b-c017-45e1-b08a-abe62af31063"},"vehicle_type_id":"4","last_reported":1690387692,"current_range_meters":6800,"station_id":"ce4bhb92rcd13ifvqen0","pricing_plan_id":"free"},{"bike_id":"2f9b7d7e-3709-4f31-8f15-4ea858bb9538","system_id":"levelo_inurba_marseille","lat":43.33046,"lon":5.38914,"is_reserved":false,"is_disabled":false,"rental_uris":{"android":"levelo://app?vid=2f9b7d7e-3709-4f31-8f15-4ea858bb9538","ios":"levelo://app?vid=2f9b7d7e-3709-4f31-8f15-4ea858bb9538"},"vehicle_type_id":"4","last_reported":1690387692,"current_range_meters":18800,"station_id":"ce4bhr92rcd13ifvqhrg","pricing_plan_id":"free"},{"bike_id":"73ed3f19-4ae4-4b8f-b3e9-559d58575af5","system_id":"levelo_inurba_marseille","lat":43.33044,"lon":5.38918,"is_reserved":false,"is_disabled":false,"rental_uris":{"android":"levelo://app?vid=73ed3f19-4ae4-4b8f-b3e9-559d58575af5","ios":"levelo://app?vid=73ed3f19-4ae4-4b8f-b3e9-559d58575af5"},"vehicle_type_id":"4","last_reported":1690387692,"current_range_meters":24000,"station_id":"ce4bhr92rcd13ifvqhrg","pricing_plan_id":"free"},{"bike_id":"55c62a5b-4109-4f05-a1b7-34d97bd058e2","system_id":"levelo_inurba_marseille","lat":43.3304,"lon":5.38924,"is_reserved":false,"is_disabled":false,"rental_uris":{"android":"levelo://app?vid=55c62a5b-4109-4f05-a1b7-34d97bd058e2","ios":"levelo://app?vid=55c62a5b-4109-4f05-a1b7-34d97bd058e2"},"vehicle_type_id":"4","last_reported":1690387692,"current_range_meters":14400,"station_id":"ce4bhr92rcd13ifvqhrg","pricing_plan_id":"free"},{"bike_id":"9ccab6c9-5be4-4790-949f-95e896019f0b","system_id":"levelo_inurba_marseille","lat":43.33044,"lon":5.38919,"is_reserved":false,"is_disabled":false,"rental_uris":{"android":"levelo://app?vid=9ccab6c9-5be4-4790-949f-95e896019f0b","ios":"levelo://app?vid=9ccab6c9-5be4-4790-949f-95e896019f0b"},"vehicle_type_id":"4","last_reported":1690387692,"current_range_meters":1600,"station_id":"ce4bhr92rcd13ifvqhrg","pricing_plan_id":"free"},{"bike_id":"9c6e8b08-a787-470e-a459-ffa61942bf25","system_id":"levelo_inurba_marseille","lat":43.3305,"lon":5.3891,"is_reserved":false,"is_disabled":false,"rental_uris":{"android":"levelo://app?vid=9c6e8b08-a787-470e-a459-ffa61942bf25","ios":"levelo://app?vid=9c6e8b08-a787-470e-a459-ffa61942bf25"},"vehicle_type_id":"4","last_reported":1690387692,"current_range_meters":7200,"station_id":"ce4bhr92rcd13ifvqhrg","pricing_plan_id":"free"},{"bike_id":"e60467e9-1aaa-4db3-8a0e-23c0937e2e99","system_id":"levelo_inurba_marseille","lat":43.33047,"lon":5.38915,"is_reserved":false,"is_disabled":false,"rental_uris":{"android":"levelo://app?vid=e60467e9-1aaa-4db3-8a0e-23c0937e2e99","ios":"levelo://app?vid=e60467e9-1aaa-4db3-8a0e-23c0937e2e99"},"vehicle_type_id":"4","last_reported":1690387692,"current_range_meters":28400,"station_id":"ce4bhr92rcd13ifvqhrg","pricing_plan_id":"free"},{"bike_id":"4fb48603-e76d-4653-a3f1-763a728c793e","system_id":"levelo_inurba_marseille","lat":43.290104,"lon":5.356111,"is_reserved":false,"is_disabled":false,"rental_uris":{"android":"levelo://app?vid=4fb48603-e76d-4653-a3f1-763a728c793e","ios":"levelo://app?vid=4fb48603-e76d-4653-a3f1-763a728c793e"},"vehicle_type_id":"4","last_reported":1690387692,"current_range_meters":31200,"station_id":"ce4bhb92rcd13ifvqen0","pricing_plan_id":"free"},{"bike_id":"121c6ac3-f4a5-4866-a81f-a0799e685cc5","system_id":"levelo_inurba_marseille","lat":43.29006,"lon":5.35611,"is_reserved":false,"is_disabled":false,"rental_uris":{"android":"levelo://app?vid=121c6ac3-f4a5-4866-a81f-a0799e685cc5","ios":"levelo://app?vid=121c6ac3-f4a5-4866-a81f-a0799e685cc5"},"vehicle_type_id":"4","last_reported":1690387692,"current_range_meters":10000,"station_id":"ce4bhb92rcd13ifvqen0","pricing_plan_id":"free"},{"bike_id":"3151ac97-7960-4156-bae6-a0b3998c0429","system_id":"levelo_inurba_marseille","lat":43.33046,"lon":5.38919,"is_reserved":false,"is_disabled":false,"rental_uris":{"android":"levelo://app?vid=3151ac97-7960-4156-bae6-a0b3998c0429","ios":"levelo://app?vid=3151ac97-7960-4156-bae6-a0b3998c0429"},"vehicle_type_id":"4","last_reported":1690387692,"current_range_meters":21200,"station_id":"ce4bhr92rcd13ifvqhrg","pricing_plan_id":"free"},{"bike_id":"f2f27d13-a4c9-4817-8539-ea5979861b5e","system_id":"levelo_inurba_marseille","lat":43.3305,"lon":5.38913,"is_reserved":false,"is_disabled":false,"rental_uris":{"android":"levelo://app?vid=f2f27d13-a4c9-4817-8539-ea5979861b5e","ios":"levelo://app?vid=f2f27d13-a4c9-4817-8539-ea5979861b5e"},"vehicle_type_id":"4","last_reported":1690387692,"current_range_meters":29600,"station_id":"ce4bhr92rcd13ifvqhrg","pricing_plan_id":"free"},{"bike_id":"e074fc3d-d7ac-4c1d-9fda-bb5e86985a86","system_id":"levelo_inurba_marseille","lat":43.294162,"lon":5.386292,"is_reserved":false,"is_disabled":false,"rental_uris":{"android":"levelo://app?vid=e074fc3d-d7ac-4c1d-9fda-bb5e86985a86","ios":"levelo://app?vid=e074fc3d-d7ac-4c1d-9fda-bb5e86985a86"},"vehicle_type_id":"4","last_reported":1690387692,"current_range_meters":19600,"station_id":"ce4bh2h2rcd13ifvqdh0","pricing_plan_id":"free"},{"bike_id":"23f5ec6b-33d3-4dbb-8628-221b92688a2c","system_id":"levelo_inurba_marseille","lat":43.3305,"lon":5.38914,"is_reserved":false,"is_disabled":false,"rental_uris":{"android":"levelo://app?vid=23f5ec6b-33d3-4dbb-8628-221b92688a2c","ios":"levelo://app?vid=23f5ec6b-33d3-4dbb-8628-221b92688a2c"},"vehicle_type_id":"4","last_reported":1690387692,"current_range_meters":20800,"station_id":"ce4bhr92rcd13ifvqhrg","pricing_plan_id":"free"},{"bike_id":"fbf84aab-85c0-4c9c-bad4-9a486a705a7f","system_id":"levelo_inurba_marseille","lat":43.29003,"lon":5.35619,"is_reserved":false,"is_disabled":false,"rental_uris":{"android":"levelo://app?vid=fbf84aab-85c0-4c9c-bad4-9a486a705a7f","ios":"levelo://app?vid=fbf84aab-85c0-4c9c-bad4-9a486a705a7f"},"vehicle_type_id":"4","last_reported":1690387692,"current_range_meters":31200,"station_id":"ce4bhb92rcd13ifvqen0","pricing_plan_id":"free"},{"bike_id":"69737180-2eee-4f4e-819b-76733618e6ca","system_id":"levelo_inurba_marseille","lat":43.29005,"lon":5.35611,"is_reserved":false,"is_disabled":false,"rental_uris":{"android":"levelo://app?vid=69737180-2eee-4f4e-819b-76733618e6ca","ios":"levelo://app?vid=69737180-2eee-4f4e-819b-76733618e6ca"},"vehicle_type_id":"4","last_reported":1690387692,"current_range_meters":21200,"station_id":"ce4bhb92rcd13ifvqen0","pricing_plan_id":"free"},{"bike_id":"8a9e4b56-beea-4976-ac96-c648de9b64b4","system_id":"levelo_inurba_marseille","lat":43.290104,"lon":5.356111,"is_reserved":false,"is_disabled":false,"rental_uris":{"android":"levelo://app?vid=8a9e4b56-beea-4976-ac96-c648de9b64b4","ios":"levelo://app?vid=8a9e4b56-beea-4976-ac96-c648de9b64b4"},"vehicle_type_id":"4","last_reported":1690387692,"current_range_meters":30000,"station_id":"ce4bhb92rcd13ifvqen0","pricing_plan_id":"free"},{"bike_id":"60c1174b-5865-4c8c-97a7-f1da507271bc","system_id":"levelo_inurba_marseille","lat":43.290104,"lon":5.356111,"is_reserved":false,"is_disabled":false,"rental_uris":{"android":"levelo://app?vid=60c1174b-5865-4c8c-97a7-f1da507271bc","ios":"levelo://app?vid=60c1174b-5865-4c8c-97a7-f1da507271bc"},"vehicle_type_id":"4","last_reported":1690387692,"current_range_meters":20000,"station_id":"ce4bhb92rcd13ifvqen0","pricing_plan_id":"free"},{"bike_id":"ae31193c-7f63-4b2e-afd5-ad1edad83e02","system_id":"levelo_inurba_marseille","lat":43.29005,"lon":5.35607,"is_reserved":false,"is_disabled":false,"rental_uris":{"android":"levelo://app?vid=ae31193c-7f63-4b2e-afd5-ad1edad83e02","ios":"levelo://app?vid=ae31193c-7f63-4b2e-afd5-ad1edad83e02"},"vehicle_type_id":"4","last_reported":1690387692,"current_range_meters":15600,"station_id":"ce4bhb92rcd13ifvqen0","pricing_plan_id":"free"},{"bike_id":"91fec792-a5a5-4820-af7d-3c6be3109af2","system_id":"levelo_inurba_marseille","lat":43.290104,"lon":5.356111,"is_reserved":false,"is_disabled":false,"rental_uris":{"android":"levelo://app?vid=91fec792-a5a5-4820-af7d-3c6be3109af2","ios":"levelo://app?vid=91fec792-a5a5-4820-af7d-3c6be3109af2"},"vehicle_type_id":"4","last_reported":1690387692,"current_range_meters":31600,"station_id":"ce4bhb92rcd13ifvqen0","pricing_plan_id":"free"},{"bike_id":"393d59f1-7515-4bfe-8761-d45f640a705b","system_id":"levelo_inurba_marseille","lat":43.290104,"lon":5.356111,"is_reserved":false,"is_disabled":false,"rental_uris":{"android":"levelo://app?vid=393d59f1-7515-4bfe-8761-d45f640a705b","ios":"levelo://app?vid=393d59f1-7515-4bfe-8761-d45f640a705b"},"vehicle_type_id":"4","last_reported":1690387692,"current_range_meters":28000,"station_id":"ce4bhb92rcd13ifvqen0","pricing_plan_id":"free"},{"bike_id":"fd798d91-e59c-4a76-bd91-92ce206c30b6","system_id":"levelo_inurba_marseille","lat":43.3305,"lon":5.38919,"is_reserved":false,"is_disabled":false,"rental_uris":{"android":"levelo://app?vid=fd798d91-e59c-4a76-bd91-92ce206c30b6","ios":"levelo://app?vid=fd798d91-e59c-4a76-bd91-92ce206c30b6"},"vehicle_type_id":"4","last_reported":1690387692,"current_range_meters":8000,"station_id":"ce4bhr92rcd13ifvqhrg","pricing_plan_id":"free"},{"bike_id":"b61828db-f369-4ff8-95b5-f29ee5ea101b","system_id":"levelo_inurba_marseille","lat":43.291016,"lon":5.381254,"is_reserved":false,"is_disabled":false,"rental_uris":{"android":"levelo://app?vid=b61828db-f369-4ff8-95b5-f29ee5ea101b","ios":"levelo://app?vid=b61828db-f369-4ff8-95b5-f29ee5ea101b"},"vehicle_type_id":"4","last_reported":1690387692,"current_range_meters":24000,"station_id":"","pricing_plan_id":"free"},{"bike_id":"ff50a2a6-49f8-4332-bf73-d4537e73730c","system_id":"levelo_inurba_marseille","lat":43.290995,"lon":5.381361,"is_reserved":false,"is_disabled":false,"rental_uris":{"android":"levelo://app?vid=ff50a2a6-49f8-4332-bf73-d4537e73730c","ios":"levelo://app?vid=ff50a2a6-49f8-4332-bf73-d4537e73730c"},"vehicle_type_id":"4","last_reported":1690387692,"current_range_meters":30000,"station_id":"ce4bh512rcd13ifvqe2g","pricing_plan_id":"free"},{"bike_id":"45cc8d52-de14-4a83-8fe1-80bd2de0997e","system_id":"levelo_inurba_marseille","lat":43.290995,"lon":5.381361,"is_reserved":false,"is_disabled":false,"rental_uris":{"android":"levelo://app?vid=45cc8d52-de14-4a83-8fe1-80bd2de0997e","ios":"levelo://app?vid=45cc8d52-de14-4a83-8fe1-80bd2de0997e"},"vehicle_type_id":"4","last_reported":1690387692,"current_range_meters":27200,"station_id":"ce4bh512rcd13ifvqe2g","pricing_plan_id":"free"},{"bike_id":"cc6c2e05-8738-4fe7-974f-0d6bbf4ac112","system_id":"levelo_inurba_marseille","lat":43.295169,"lon":5.390426,"is_reserved":false,"is_disabled":false,"rental_uris":{"android":"levelo://app?vid=cc6c2e05-8738-4fe7-974f-0d6bbf4ac112","ios":"levelo://app?vid=cc6c2e05-8738-4fe7-974f-0d6bbf4ac112"},"vehicle_type_id":"4","last_reported":1690387692,"current_range_meters":14800,"station_id":"ce4bh3p2rcd13ifvqdp0","pricing_plan_id":"free"},{"bike_id":"8c29c498-b37d-420a-85a6-91f332c14eee","system_id":"levelo_inurba_marseille","lat":43.28977,"lon":5.37841,"is_reserved":false,"is_disabled":false,"rental_uris":{"android":"levelo://app?vid=8c29c498-b37d-420a-85a6-91f332c14eee","ios":"levelo://app?vid=8c29c498-b37d-420a-85a6-91f332c14eee"},"vehicle_type_id":"4","last_reported":1690387692,"current_range_meters":19600,"station_id":"ce4bh9p2rcd13ifvqed0","pricing_plan_id":"free"},{"bike_id":"1a03fe56-081e-4e5a-be83-1daca401bc4c","system_id":"levelo_inurba_marseille","lat":43.295169,"lon":5.390426,"is_reserved":false,"is_disabled":false,"rental_uris":{"android":"levelo://app?vid=1a03fe56-081e-4e5a-be83-1daca401bc4c","ios":"levelo://app?vid=1a03fe56-081e-4e5a-be83-1daca401bc4c"},"vehicle_type_id":"4","last_reported":1690387692,"current_range_meters":25600,"station_id":"ce4bh3p2rcd13ifvqdp0","pricing_plan_id":"free"},{"bike_id":"716dbed2-e4b7-45e6-8f02-76bb6c081ac8","system_id":"levelo_inurba_marseille","lat":43.295169,"lon":5.390426,"is_reserved":false,"is_disabled":false,"rental_uris":{"android":"levelo://app?vid=716dbed2-e4b7-45e6-8f02-76bb6c081ac8","ios":"levelo://app?vid=716dbed2-e4b7-45e6-8f02-76bb6c081ac8"},"vehicle_type_id":"4","last_reported":1690387692,"current_range_meters":17600,"station_id":"ce4bh3p2rcd13ifvqdp0","pricing_plan_id":"free"},{"bike_id":"b421a2d1-fa55-474a-853e-b62342024b90","system_id":"levelo_inurba_marseille","lat":43.294153,"lon":5.386305,"is_reserved":false,"is_disabled":false,"rental_uris":{"android":"levelo://app?vid=b421a2d1-fa55-474a-853e-b62342024b90","ios":"levelo://app?vid=b421a2d1-fa55-474a-853e-b62342024b90"},"vehicle_type_id":"4","last_reported":1690387692,"current_range_meters":8000,"station_id":"ce4bh2h2rcd13ifvqdh0","pricing_plan_id":"free"},{"bike_id":"efa8f951-2ba4-4e0b-b574-8cdf6c8ac6d8","system_id":"levelo_inurba_marseille","lat":43.312609,"lon":5.401662,"is_reserved":false,"is_disabled":false,"rental_uris":{"android":"levelo://app?vid=efa8f951-2ba4-4e0b-b574-8cdf6c8ac6d8","ios":"levelo://app?vid=efa8f951-2ba4-4e0b-b574-8cdf6c8ac6d8"},"vehicle_type_id":"4","last_reported":1690387692,"current_range_meters":24000,"station_id":"ce4bh092rcd13ifvqd30","pricing_plan_id":"free"},{"bike_id":"1fc35d3d-6859-477e-a60e-be7c2e26433c","system_id":"levelo_inurba_marseille","lat":43.312609,"lon":5.401662,"is_reserved":false,"is_disabled":false,"rental_uris":{"android":"levelo://app?vid=1fc35d3d-6859-477e-a60e-be7c2e26433c","ios":"levelo://app?vid=1fc35d3d-6859-477e-a60e-be7c2e26433c"},"vehicle_type_id":"4","last_reported":1690387692,"current_range_meters":24400,"station_id":"ce4bh092rcd13ifvqd30","pricing_plan_id":"free"},{"bike_id":"eafc3fdd-b836-4a33-84b4-a2f0c9ffd396","system_id":"levelo_inurba_marseille","lat":43.309371,"lon":5.401449,"is_reserved":false,"is_disabled":false,"rental_uris":{"android":"levelo://app?vid=eafc3fdd-b836-4a33-84b4-a2f0c9ffd396","ios":"levelo://app?vid=eafc3fdd-b836-4a33-84b4-a2f0c9ffd396"},"vehicle_type_id":"4","last_reported":1690387692,"current_range_meters":24000,"station_id":"ce4bgvp2rcd13ifvqct0","pricing_plan_id":"free"},{"bike_id":"85ea8328-82a0-4ca0-b74c-1608370e6634","system_id":"levelo_inurba_marseille","lat":43.312609,"lon":5.401662,"is_reserved":false,"is_disabled":false,"rental_uris":{"android":"levelo://app?vid=85ea8328-82a0-4ca0-b74c-1608370e6634","ios":"levelo://app?vid=85ea8328-82a0-4ca0-b74c-1608370e6634"},"vehicle_type_id":"4","last_reported":1690387692,"current_range_meters":5200,"station_id":"ce4bh092rcd13ifvqd30","pricing_plan_id":"free"},{"bike_id":"01973b15-6aae-41c4-8542-c8fe06b0f419","system_id":"levelo_inurba_marseille","lat":43.295196,"lon":5.39397,"is_reserved":false,"is_disabled":false,"rental_uris":{"android":"levelo://app?vid=01973b15-6aae-41c4-8542-c8fe06b0f419","ios":"levelo://app?vid=01973b15-6aae-41c4-8542-c8fe06b0f419"},"vehicle_type_id":"4","last_reported":1690387692,"current_range_meters":31600,"station_id":"ce4bh292rcd13ifvqdf0","pricing_plan_id":"free"},{"bike_id":"4083e21f-121b-4d6d-bf96-c2dd5c4f9ba9","system_id":"levelo_inurba_marseille","lat":43.30642,"lon":5.40097,"is_reserved":false,"is_disabled":false,"rental_uris":{"android":"levelo://app?vid=4083e21f-121b-4d6d-bf96-c2dd5c4f9ba9","ios":"levelo://app?vid=4083e21f-121b-4d6d-bf96-c2dd5c4f9ba9"},"vehicle_type_id":"4","last_reported":1690387692,"current_range_meters":4800,"station_id":"ce4bh112rcd13ifvqda0","pricing_plan_id":"free"},{"bike_id":"210f5999-6c8a-4fc0-ba5e-4414158919c5","system_id":"levelo_inurba_marseille","lat":43.30626,"lon":5.40098,"is_reserved":false,"is_disabled":false,"rental_uris":{"android":"levelo://app?vid=210f5999-6c8a-4fc0-ba5e-4414158919c5","ios":"levelo://app?vid=210f5999-6c8a-4fc0-ba5e-4414158919c5"},"vehicle_type_id":"4","last_reported":1690387692,"current_range_meters":15200,"station_id":"ce4bh112rcd13ifvqda0","pricing_plan_id":"free"},{"bike_id":"a5a4650a-d677-495d-b886-26e2ea125055","system_id":"levelo_inurba_marseille","lat":43.301117,"lon":5.398795,"is_reserved":false,"is_disabled":false,"rental_uris":{"android":"levelo://app?vid=a5a4650a-d677-495d-b886-26e2ea125055","ios":"levelo://app?vid=a5a4650a-d677-495d-b886-26e2ea125055"},"vehicle_type_id":"4","last_reported":1690387692,"current_range_meters":0,"station_id":"ce4bh0h2rcd13ifvqd40","pricing_plan_id":"free"},{"bike_id":"90a1e7b2-dde2-43be-857c-38a665b03c04","system_id":"levelo_inurba_marseille","lat":43.301117,"lon":5.398795,"is_reserved":false,"is_disabled":false,"rental_uris":{"android":"levelo://app?vid=90a1e7b2-dde2-43be-857c-38a665b03c04","ios":"levelo://app?vid=90a1e7b2-dde2-43be-857c-38a665b03c04"},"vehicle_type_id":"4","last_reported":1690387692,"current_range_meters":7600,"station_id":"ce4bh0h2rcd13ifvqd40","pricing_plan_id":"free"},{"bike_id":"7f262151-9bc7-45e9-8bea-3e396fa14d9f","system_id":"levelo_inurba_marseille","lat":43.3061,"lon":5.401231,"is_reserved":false,"is_disabled":false,"rental_uris":{"android":"levelo://app?vid=7f262151-9bc7-45e9-8bea-3e396fa14d9f","ios":"levelo://app?vid=7f262151-9bc7-45e9-8bea-3e396fa14d9f"},"vehicle_type_id":"4","last_reported":1690387692,"current_range_meters":3600,"station_id":"ce4bh112rcd13ifvqda0","pricing_plan_id":"free"},{"bike_id":"ac99fe29-ca3d-440c-9051-f467ef70b475","system_id":"levelo_inurba_marseille","lat":43.286591,"lon":5.363346,"is_reserved":false,"is_disabled":false,"rental_uris":{"android":"levelo://app?vid=ac99fe29-ca3d-440c-9051-f467ef70b475","ios":"levelo://app?vid=ac99fe29-ca3d-440c-9051-f467ef70b475"},"vehicle_type_id":"4","last_reported":1690387692,"current_range_meters":18400,"station_id":"ce4bhah2rcd13ifvqej0","pricing_plan_id":"free"},{"bike_id":"8d699923-45ea-4104-b715-9c142d1961fc","system_id":"levelo_inurba_marseille","lat":43.286591,"lon":5.363346,"is_reserved":false,"is_disabled":false,"rental_uris":{"android":"levelo://app?vid=8d699923-45ea-4104-b715-9c142d1961fc","ios":"levelo://app?vid=8d699923-45ea-4104-b715-9c142d1961fc"},"vehicle_type_id":"4","last_reported":1690387692,"current_range_meters":10000,"station_id":"ce4bhah2rcd13ifvqej0","pricing_plan_id":"free"},{"bike_id":"209afc9d-8c2d-41e0-bb20-ef2025d952aa","system_id":"levelo_inurba_marseille","lat":43.295196,"lon":5.39397,"is_reserved":false,"is_disabled":false,"rental_uris":{"android":"levelo://app?vid=209afc9d-8c2d-41e0-bb20-ef2025d952aa","ios":"levelo://app?vid=209afc9d-8c2d-41e0-bb20-ef2025d952aa"},"vehicle_type_id":"4","last_reported":1690387692,"current_range_meters":0,"station_id":"ce4bh292rcd13ifvqdf0","pricing_plan_id":"free"},{"bike_id":"9a7ae224-82f2-4064-83cc-9ed11a6e3e2f","system_id":"levelo_inurba_marseille","lat":43.286593,"lon":5.363346,"is_reserved":false,"is_disabled":false,"rental_uris":{"android":"levelo://app?vid=9a7ae224-82f2-4064-83cc-9ed11a6e3e2f","ios":"levelo://app?vid=9a7ae224-82f2-4064-83cc-9ed11a6e3e2f"},"vehicle_type_id":"4","last_reported":1690387692,"current_range_meters":30400,"station_id":"ce4bhah2rcd13ifvqej0","pricing_plan_id":"free"},{"bike_id":"75199276-b705-4ad7-b6a9-49aeaa84628a","system_id":"levelo_inurba_marseille","lat":43.286593,"lon":5.363346,"is_reserved":false,"is_disabled":false,"rental_uris":{"android":"levelo://app?vid=75199276-b705-4ad7-b6a9-49aeaa84628a","ios":"levelo://app?vid=75199276-b705-4ad7-b6a9-49aeaa84628a"},"vehicle_type_id":"4","last_reported":1690387692,"current_range_meters":31200,"station_id":"ce4bhah2rcd13ifvqej0","pricing_plan_id":"free"},{"bike_id":"89c1a993-d3a6-4a3e-bded-398a7488e3b8","system_id":"levelo_inurba_marseille","lat":43.283998,"lon":5.375062,"is_reserved":false,"is_disabled":false,"rental_uris":{"android":"levelo://app?vid=89c1a993-d3a6-4a3e-bded-398a7488e3b8","ios":"levelo://app?vid=89c1a993-d3a6-4a3e-bded-398a7488e3b8"},"vehicle_type_id":"4","last_reported":1690387692,"current_range_meters":23200,"station_id":"ce4bh412rcd13ifvqds0","pricing_plan_id":"free"},{"bike_id":"cda7b5e3-e4cd-4d93-b9eb-2ec8d900d832","system_id":"levelo_inurba_marseille","lat":43.295196,"lon":5.39397,"is_reserved":false,"is_disabled":false,"rental_uris":{"android":"levelo://app?vid=cda7b5e3-e4cd-4d93-b9eb-2ec8d900d832","ios":"levelo://app?vid=cda7b5e3-e4cd-4d93-b9eb-2ec8d900d832"},"vehicle_type_id":"4","last_reported":1690387692,"current_range_meters":19200,"station_id":"ce4bh292rcd13ifvqdf0","pricing_plan_id":"free"},{"bike_id":"f944c82c-032f-4489-8244-98d5c2606755","system_id":"levelo_inurba_marseille","lat":43.295194,"lon":5.39397,"is_reserved":false,"is_disabled":false,"rental_uris":{"android":"levelo://app?vid=f944c82c-032f-4489-8244-98d5c2606755","ios":"levelo://app?vid=f944c82c-032f-4489-8244-98d5c2606755"},"vehicle_type_id":"4","last_reported":1690387692,"current_range_meters":0,"station_id":"ce4bh292rcd13ifvqdf0","pricing_plan_id":"free"},{"bike_id":"49a9f8dd-8d8d-4916-ab4c-e0f43329f377","system_id":"levelo_inurba_marseille","lat":43.295196,"lon":5.39397,"is_reserved":false,"is_disabled":false,"rental_uris":{"android":"levelo://app?vid=49a9f8dd-8d8d-4916-ab4c-e0f43329f377","ios":"levelo://app?vid=49a9f8dd-8d8d-4916-ab4c-e0f43329f377"},"vehicle_type_id":"4","last_reported":1690387692,"current_range_meters":0,"station_id":"ce4bh292rcd13ifvqdf0","pricing_plan_id":"free"},{"bike_id":"c8b1bdab-521e-4e74-b2e6-ab56bb3bf12e","system_id":"levelo_inurba_marseille","lat":43.295194,"lon":5.39397,"is_reserved":false,"is_disabled":false,"rental_uris":{"android":"levelo://app?vid=c8b1bdab-521e-4e74-b2e6-ab56bb3bf12e","ios":"levelo://app?vid=c8b1bdab-521e-4e74-b2e6-ab56bb3bf12e"},"vehicle_type_id":"4","last_reported":1690387692,"current_range_meters":0,"station_id":"ce4bh292rcd13ifvqdf0","pricing_plan_id":"free"},{"bike_id":"5b7f1d4f-8fd2-405f-a0fe-2c50501041f9","system_id":"levelo_inurba_marseille","lat":43.290336,"lon":5.386425,"is_reserved":false,"is_disabled":false,"rental_uris":{"android":"levelo://app?vid=5b7f1d4f-8fd2-405f-a0fe-2c50501041f9","ios":"levelo://app?vid=5b7f1d4f-8fd2-405f-a0fe-2c50501041f9"},"vehicle_type_id":"4","last_reported":1690387692,"current_range_meters":3200,"station_id":"ce4bh4p2rcd13ifvqe0g","pricing_plan_id":"free"},{"bike_id":"26220677-c5e2-4853-8299-29f1036ab47c","system_id":"levelo_inurba_marseille","lat":43.290336,"lon":5.386425,"is_reserved":false,"is_disabled":false,"rental_uris":{"android":"levelo://app?vid=26220677-c5e2-4853-8299-29f1036ab47c","ios":"levelo://app?vid=26220677-c5e2-4853-8299-29f1036ab47c"},"vehicle_type_id":"4","last_reported":1690387692,"current_range_meters":17600,"station_id":"ce4bh4p2rcd13ifvqe0g","pricing_plan_id":"free"},{"bike_id":"1b58b14f-283a-4a07-8eef-5a3eefb0188c","system_id":"levelo_inurba_marseille","lat":43.290336,"lon":5.386425,"is_reserved":false,"is_disabled":false,"rental_uris":{"android":"levelo://app?vid=1b58b14f-283a-4a07-8eef-5a3eefb0188c","ios":"levelo://app?vid=1b58b14f-283a-4a07-8eef-5a3eefb0188c"},"vehicle_type_id":"4","last_reported":1690387692,"current_range_meters":11200,"station_id":"ce4bh4p2rcd13ifvqe0g","pricing_plan_id":"free"},{"bike_id":"ad322a97-af2a-4841-adfa-b4e6e26bd10a","system_id":"levelo_inurba_marseille","lat":43.290345,"lon":5.38646,"is_reserved":false,"is_disabled":false,"rental_uris":{"android":"levelo://app?vid=ad322a97-af2a-4841-adfa-b4e6e26bd10a","ios":"levelo://app?vid=ad322a97-af2a-4841-adfa-b4e6e26bd10a"},"vehicle_type_id":"4","last_reported":1690387692,"current_range_meters":28400,"station_id":"ce4bh4p2rcd13ifvqe0g","pricing_plan_id":"free"},{"bike_id":"8c9aff7b-db86-4db6-997f-6788c72b1f0e","system_id":"levelo_inurba_marseille","lat":43.302759,"lon":5.400793,"is_reserved":false,"is_disabled":false,"rental_uris":{"android":"levelo://app?vid=8c9aff7b-db86-4db6-997f-6788c72b1f0e","ios":"levelo://app?vid=8c9aff7b-db86-4db6-997f-6788c72b1f0e"},"vehicle_type_id":"4","last_reported":1690387692,"current_range_meters":24400,"station_id":"ce4bgvh2rcd13ifvqcs0","pricing_plan_id":"free"},{"bike_id":"99072805-2983-4d6d-ba87-f0748399dfe1","system_id":"levelo_inurba_marseille","lat":43.302759,"lon":5.400793,"is_reserved":false,"is_disabled":false,"rental_uris":{"android":"levelo://app?vid=99072805-2983-4d6d-ba87-f0748399dfe1","ios":"levelo://app?vid=99072805-2983-4d6d-ba87-f0748399dfe1"},"vehicle_type_id":"4","last_reported":1690387692,"current_range_meters":22400,"station_id":"ce4bgvh2rcd13ifvqcs0","pricing_plan_id":"free"},{"bike_id":"86b6e669-169b-4e40-8c1d-f0d00dc75e72","system_id":"levelo_inurba_marseille","lat":43.286039,"lon":5.370679,"is_reserved":false,"is_disabled":false,"rental_uris":{"android":"levelo://app?vid=86b6e669-169b-4e40-8c1d-f0d00dc75e72","ios":"levelo://app?vid=86b6e669-169b-4e40-8c1d-f0d00dc75e72"},"vehicle_type_id":"4","last_reported":1690387692,"current_range_meters":22400,"station_id":"ce4bht12rcd13ifvqi60","pricing_plan_id":"free"},{"bike_id":"91b1d501-8f43-4be9-b390-78d77462e7f8","system_id":"levelo_inurba_marseille","lat":43.302759,"lon":5.400793,"is_reserved":false,"is_disabled":false,"rental_uris":{"android":"levelo://app?vid=91b1d501-8f43-4be9-b390-78d77462e7f8","ios":"levelo://app?vid=91b1d501-8f43-4be9-b390-78d77462e7f8"},"vehicle_type_id":"4","last_reported":1690387692,"current_range_meters":22400,"station_id":"ce4bgvh2rcd13ifvqcs0","pricing_plan_id":"free"},{"bike_id":"69308482-8843-453f-8b1b-04701e58877e","system_id":"levelo_inurba_marseille","lat":43.28605,"lon":5.37071,"is_reserved":false,"is_disabled":false,"rental_uris":{"android":"levelo://app?vid=69308482-8843-453f-8b1b-04701e58877e","ios":"levelo://app?vid=69308482-8843-453f-8b1b-04701e58877e"},"vehicle_type_id":"4","last_reported":1690387692,"current_range_meters":20000,"station_id":"ce4bht12rcd13ifvqi60","pricing_plan_id":"free"},{"bike_id":"a8407103-5735-42ef-98a8-0cada83b9d3c","system_id":"levelo_inurba_marseille","lat":43.287185,"lon":5.379373,"is_reserved":false,"is_disabled":false,"rental_uris":{"android":"levelo://app?vid=a8407103-5735-42ef-98a8-0cada83b9d3c","ios":"levelo://app?vid=a8407103-5735-42ef-98a8-0cada83b9d3c"},"vehicle_type_id":"4","last_reported":1690387692,"current_range_meters":7600,"station_id":"ce4bh9p2rcd13ifvqec0","pricing_plan_id":"free"},{"bike_id":"c0bcd099-7305-4e4c-bcb9-c7b1d16d1f35","system_id":"levelo_inurba_marseille","lat":43.28715,"lon":5.3794,"is_reserved":false,"is_disabled":false,"rental_uris":{"android":"levelo://app?vid=c0bcd099-7305-4e4c-bcb9-c7b1d16d1f35","ios":"levelo://app?vid=c0bcd099-7305-4e4c-bcb9-c7b1d16d1f35"},"vehicle_type_id":"4","last_reported":1690387692,"current_range_meters":28800,"station_id":"","pricing_plan_id":"free"},{"bike_id":"5afddb6d-deea-4d04-83b1-d057aeedea00","system_id":"levelo_inurba_marseille","lat":43.302759,"lon":5.400793,"is_reserved":false,"is_disabled":false,"rental_uris":{"android":"levelo://app?vid=5afddb6d-deea-4d04-83b1-d057aeedea00","ios":"levelo://app?vid=5afddb6d-deea-4d04-83b1-d057aeedea00"},"vehicle_type_id":"4","last_reported":1690387692,"current_range_meters":31200,"station_id":"ce4bgvh2rcd13ifvqcs0","pricing_plan_id":"free"},{"bike_id":"1caf89aa-2abf-42d4-b7c6-c0212806cfdd","system_id":"levelo_inurba_marseille","lat":43.291994,"lon":5.392907,"is_reserved":false,"is_disabled":false,"rental_uris":{"android":"levelo://app?vid=1caf89aa-2abf-42d4-b7c6-c0212806cfdd","ios":"levelo://app?vid=1caf89aa-2abf-42d4-b7c6-c0212806cfdd"},"vehicle_type_id":"4","last_reported":1690387692,"current_range_meters":28800,"station_id":"ce4bh192rcd13ifvqdd0","pricing_plan_id":"free"},{"bike_id":"09d0ad35-b139-462e-8288-517fe02a047d","system_id":"levelo_inurba_marseille","lat":43.294314,"lon":5.397498,"is_reserved":false,"is_disabled":false,"rental_uris":{"android":"levelo://app?vid=09d0ad35-b139-462e-8288-517fe02a047d","ios":"levelo://app?vid=09d0ad35-b139-462e-8288-517fe02a047d"},"vehicle_type_id":"4","last_reported":1690387692,"current_range_meters":23200,"station_id":"ce4bh3h2rcd13ifvqdo0","pricing_plan_id":"free"},{"bike_id":"c5fe1353-1067-4c39-a0cb-9712ed95a2c3","system_id":"levelo_inurba_marseille","lat":43.28617,"lon":5.35105,"is_reserved":false,"is_disabled":false,"rental_uris":{"android":"levelo://app?vid=c5fe1353-1067-4c39-a0cb-9712ed95a2c3","ios":"levelo://app?vid=c5fe1353-1067-4c39-a0cb-9712ed95a2c3"},"vehicle_type_id":"4","last_reported":1690387692,"current_range_meters":24400,"station_id":"ce4bhch2rcd13ifvqeug","pricing_plan_id":"free"},{"bike_id":"691d8053-da59-4c12-bfec-0fd419abbf6e","system_id":"levelo_inurba_marseille","lat":43.28616,"lon":5.35104,"is_reserved":false,"is_disabled":false,"rental_uris":{"android":"levelo://app?vid=691d8053-da59-4c12-bfec-0fd419abbf6e","ios":"levelo://app?vid=691d8053-da59-4c12-bfec-0fd419abbf6e"},"vehicle_type_id":"4","last_reported":1690387692,"current_range_meters":27200,"station_id":"ce4bhch2rcd13ifvqeug","pricing_plan_id":"free"},{"bike_id":"b6a0fb02-5540-48d4-8625-fad09f528cda","system_id":"levelo_inurba_marseille","lat":43.28615,"lon":5.35107,"is_reserved":false,"is_disabled":false,"rental_uris":{"android":"levelo://app?vid=b6a0fb02-5540-48d4-8625-fad09f528cda","ios":"levelo://app?vid=b6a0fb02-5540-48d4-8625-fad09f528cda"},"vehicle_type_id":"4","last_reported":1690387692,"current_range_meters":16400,"station_id":"ce4bhch2rcd13ifvqeug","pricing_plan_id":"free"},{"bike_id":"5000de5e-c45f-4fcc-91e0-eefa60a2b2d6","system_id":"levelo_inurba_marseille","lat":43.28617,"lon":5.351,"is_reserved":false,"is_disabled":false,"rental_uris":{"android":"levelo://app?vid=5000de5e-c45f-4fcc-91e0-eefa60a2b2d6","ios":"levelo://app?vid=5000de5e-c45f-4fcc-91e0-eefa60a2b2d6"},"vehicle_type_id":"4","last_reported":1690387692,"current_range_meters":22400,"station_id":"ce4bhch2rcd13ifvqeug","pricing_plan_id":"free"},{"bike_id":"78a707f0-8bbc-4486-9f6f-581fe9911aa9","system_id":"levelo_inurba_marseille","lat":43.28613,"lon":5.35112,"is_reserved":false,"is_disabled":false,"rental_uris":{"android":"levelo://app?vid=78a707f0-8bbc-4486-9f6f-581fe9911aa9","ios":"levelo://app?vid=78a707f0-8bbc-4486-9f6f-581fe9911aa9"},"vehicle_type_id":"4","last_reported":1690387692,"current_range_meters":5600,"station_id":"ce4bhch2rcd13ifvqeug","pricing_plan_id":"free"},{"bike_id":"c0dc80f3-4176-4e37-8150-3de3e2cd40c6","system_id":"levelo_inurba_marseille","lat":43.286153,"lon":5.351029,"is_reserved":false,"is_disabled":false,"rental_uris":{"android":"levelo://app?vid=c0dc80f3-4176-4e37-8150-3de3e2cd40c6","ios":"levelo://app?vid=c0dc80f3-4176-4e37-8150-3de3e2cd40c6"},"vehicle_type_id":"4","last_reported":1690387692,"current_range_meters":1600,"station_id":"ce4bhch2rcd13ifvqeug","pricing_plan_id":"free"},{"bike_id":"71412cbc-997a-4ae3-88f9-3c1094138001","system_id":"levelo_inurba_marseille","lat":43.28613,"lon":5.3511,"is_reserved":false,"is_disabled":false,"rental_uris":{"android":"levelo://app?vid=71412cbc-997a-4ae3-88f9-3c1094138001","ios":"levelo://app?vid=71412cbc-997a-4ae3-88f9-3c1094138001"},"vehicle_type_id":"4","last_reported":1690387692,"current_range_meters":13600,"station_id":"ce4bhch2rcd13ifvqeug","pricing_plan_id":"free"},{"bike_id":"642daaf1-675a-46fd-9ae4-31e9be6a480c","system_id":"levelo_inurba_marseille","lat":43.28615,"lon":5.35099,"is_reserved":false,"is_disabled":false,"rental_uris":{"android":"levelo://app?vid=642daaf1-675a-46fd-9ae4-31e9be6a480c","ios":"levelo://app?vid=642daaf1-675a-46fd-9ae4-31e9be6a480c"},"vehicle_type_id":"4","last_reported":1690387692,"current_range_meters":3200,"station_id":"ce4bhch2rcd13ifvqeug","pricing_plan_id":"free"},{"bike_id":"0e115af2-cd8f-4747-b7ee-311f86667dfa","system_id":"levelo_inurba_marseille","lat":43.28615,"lon":5.35098,"is_reserved":false,"is_disabled":false,"rental_uris":{"android":"levelo://app?vid=0e115af2-cd8f-4747-b7ee-311f86667dfa","ios":"levelo://app?vid=0e115af2-cd8f-4747-b7ee-311f86667dfa"},"vehicle_type_id":"4","last_reported":1690387692,"current_range_meters":26800,"station_id":"ce4bhch2rcd13ifvqeug","pricing_plan_id":"free"},{"bike_id":"bdc51481-cde8-4114-991f-2e84fb8d552b","system_id":"levelo_inurba_marseille","lat":43.28614,"lon":5.351,"is_reserved":false,"is_disabled":false,"rental_uris":{"android":"levelo://app?vid=bdc51481-cde8-4114-991f-2e84fb8d552b","ios":"levelo://app?vid=bdc51481-cde8-4114-991f-2e84fb8d552b"},"vehicle_type_id":"4","last_reported":1690387692,"current_range_meters":5600,"station_id":"ce4bhch2rcd13ifvqeug","pricing_plan_id":"free"},{"bike_id":"0649821e-e7f8-4e5d-ae8b-3eb663e30597","system_id":"levelo_inurba_marseille","lat":43.28613,"lon":5.35103,"is_reserved":false,"is_disabled":false,"rental_uris":{"android":"levelo://app?vid=0649821e-e7f8-4e5d-ae8b-3eb663e30597","ios":"levelo://app?vid=0649821e-e7f8-4e5d-ae8b-3eb663e30597"},"vehicle_type_id":"4","last_reported":1690387692,"current_range_meters":9600,"station_id":"ce4bhch2rcd13ifvqeug","pricing_plan_id":"free"},{"bike_id":"42c78300-0ccb-466b-b8ac-a102e8b462a3","system_id":"levelo_inurba_marseille","lat":43.28612,"lon":5.35104,"is_reserved":false,"is_disabled":false,"rental_uris":{"android":"levelo://app?vid=42c78300-0ccb-466b-b8ac-a102e8b462a3","ios":"levelo://app?vid=42c78300-0ccb-466b-b8ac-a102e8b462a3"},"vehicle_type_id":"4","last_reported":1690387692,"current_range_meters":6000,"station_id":"ce4bhch2rcd13ifvqeug","pricing_plan_id":"free"},{"bike_id":"c11ab966-cfe9-4bbf-b1f8-f81fa112ca17","system_id":"levelo_inurba_marseille","lat":43.286124,"lon":5.351026,"is_reserved":false,"is_disabled":false,"rental_uris":{"android":"levelo://app?vid=c11ab966-cfe9-4bbf-b1f8-f81fa112ca17","ios":"levelo://app?vid=c11ab966-cfe9-4bbf-b1f8-f81fa112ca17"},"vehicle_type_id":"4","last_reported":1690387692,"current_range_meters":24000,"station_id":"","pricing_plan_id":"free"},{"bike_id":"5d332a43-e85c-4b3d-ba83-c1bd2587af6a","system_id":"levelo_inurba_marseille","lat":43.2861,"lon":5.35106,"is_reserved":false,"is_disabled":false,"rental_uris":{"android":"levelo://app?vid=5d332a43-e85c-4b3d-ba83-c1bd2587af6a","ios":"levelo://app?vid=5d332a43-e85c-4b3d-ba83-c1bd2587af6a"},"vehicle_type_id":"4","last_reported":1690387692,"current_range_meters":9600,"station_id":"ce4bhch2rcd13ifvqeug","pricing_plan_id":"free"},{"bike_id":"c8f98762-2b7f-4a5e-ba2f-6ca63d99d804","system_id":"levelo_inurba_marseille","lat":43.28605,"lon":5.3511,"is_reserved":false,"is_disabled":false,"rental_uris":{"android":"levelo://app?vid=c8f98762-2b7f-4a5e-ba2f-6ca63d99d804","ios":"levelo://app?vid=c8f98762-2b7f-4a5e-ba2f-6ca63d99d804"},"vehicle_type_id":"4","last_reported":1690387692,"current_range_meters":13200,"station_id":"ce4bhch2rcd13ifvqeug","pricing_plan_id":"free"},{"bike_id":"24413810-bcef-4d5d-86a9-97337b75f8b2","system_id":"levelo_inurba_marseille","lat":43.29576,"lon":5.39972,"is_reserved":false,"is_disabled":false,"rental_uris":{"android":"levelo://app?vid=24413810-bcef-4d5d-86a9-97337b75f8b2","ios":"levelo://app?vid=24413810-bcef-4d5d-86a9-97337b75f8b2"},"vehicle_type_id":"4","last_reported":1690387692,"current_range_meters":2400,"station_id":"ce4bh312rcd13ifvqdj0","pricing_plan_id":"free"},{"bike_id":"06e2784a-4396-4f03-a661-552687f68561","system_id":"levelo_inurba_marseille","lat":43.283998,"lon":5.375062,"is_reserved":false,"is_disabled":false,"rental_uris":{"android":"levelo://app?vid=06e2784a-4396-4f03-a661-552687f68561","ios":"levelo://app?vid=06e2784a-4396-4f03-a661-552687f68561"},"vehicle_type_id":"4","last_reported":1690387692,"current_range_meters":18800,"station_id":"ce4bh412rcd13ifvqds0","pricing_plan_id":"free"},{"bike_id":"623d0ef7-ae29-4b55-8b7b-612e7c853657","system_id":"levelo_inurba_marseille","lat":43.283998,"lon":5.375062,"is_reserved":false,"is_disabled":false,"rental_uris":{"android":"levelo://app?vid=623d0ef7-ae29-4b55-8b7b-612e7c853657","ios":"levelo://app?vid=623d0ef7-ae29-4b55-8b7b-612e7c853657"},"vehicle_type_id":"4","last_reported":1690387692,"current_range_meters":7200,"station_id":"ce4bh412rcd13ifvqds0","pricing_plan_id":"free"},{"bike_id":"204ad7c8-fab6-4795-9710-4e8c25ec6717","system_id":"levelo_inurba_marseille","lat":43.283998,"lon":5.375062,"is_reserved":false,"is_disabled":false,"rental_uris":{"android":"levelo://app?vid=204ad7c8-fab6-4795-9710-4e8c25ec6717","ios":"levelo://app?vid=204ad7c8-fab6-4795-9710-4e8c25ec6717"},"vehicle_type_id":"4","last_reported":1690387692,"current_range_meters":24800,"station_id":"ce4bh412rcd13ifvqds0","pricing_plan_id":"free"},{"bike_id":"f4e69904-3926-49e3-835c-c1655dc763a6","system_id":"levelo_inurba_marseille","lat":43.286595,"lon":5.386795,"is_reserved":false,"is_disabled":false,"rental_uris":{"android":"levelo://app?vid=f4e69904-3926-49e3-835c-c1655dc763a6","ios":"levelo://app?vid=f4e69904-3926-49e3-835c-c1655dc763a6"},"vehicle_type_id":"4","last_reported":1690387692,"current_range_meters":24000,"station_id":"ce4bh492rcd13ifvqdug","pricing_plan_id":"free"},{"bike_id":"b5603fec-51e5-46f1-910e-8de835308c56","system_id":"levelo_inurba_marseille","lat":43.286595,"lon":5.386795,"is_reserved":false,"is_disabled":false,"rental_uris":{"android":"levelo://app?vid=b5603fec-51e5-46f1-910e-8de835308c56","ios":"levelo://app?vid=b5603fec-51e5-46f1-910e-8de835308c56"},"vehicle_type_id":"4","last_reported":1690387692,"current_range_meters":24000,"station_id":"ce4bh492rcd13ifvqdug","pricing_plan_id":"free"},{"bike_id":"1a4f2712-fd15-4d1a-8e3a-506cdf0dfff9","system_id":"levelo_inurba_marseille","lat":43.319179,"lon":5.407725,"is_reserved":false,"is_disabled":false,"rental_uris":{"android":"levelo://app?vid=1a4f2712-fd15-4d1a-8e3a-506cdf0dfff9","ios":"levelo://app?vid=1a4f2712-fd15-4d1a-8e3a-506cdf0dfff9"},"vehicle_type_id":"4","last_reported":1690387692,"current_range_meters":12400,"station_id":"ce4bhq12rcd13ifvqhig","pricing_plan_id":"free"},{"bike_id":"3989120f-0612-491a-a2e6-f44972e1c048","system_id":"levelo_inurba_marseille","lat":43.31892,"lon":5.40736,"is_reserved":false,"is_disabled":false,"rental_uris":{"android":"levelo://app?vid=3989120f-0612-491a-a2e6-f44972e1c048","ios":"levelo://app?vid=3989120f-0612-491a-a2e6-f44972e1c048"},"vehicle_type_id":"4","last_reported":1690387692,"current_range_meters":28000,"station_id":"ce4bhq12rcd13ifvqhig","pricing_plan_id":"free"},{"bike_id":"cc3eab38-9c21-4228-b321-5f66510d7666","system_id":"levelo_inurba_marseille","lat":43.323464,"lon":5.406297,"is_reserved":false,"is_disabled":false,"rental_uris":{"android":"levelo://app?vid=cc3eab38-9c21-4228-b321-5f66510d7666","ios":"levelo://app?vid=cc3eab38-9c21-4228-b321-5f66510d7666"},"vehicle_type_id":"4","last_reported":1690387692,"current_range_meters":31200,"station_id":"ce4bhq92rcd13ifvqhjg","pricing_plan_id":"free"},{"bike_id":"4f5480e4-3685-4076-921a-848296a01e05","system_id":"levelo_inurba_marseille","lat":43.323464,"lon":5.406297,"is_reserved":false,"is_disabled":false,"rental_uris":{"android":"levelo://app?vid=4f5480e4-3685-4076-921a-848296a01e05","ios":"levelo://app?vid=4f5480e4-3685-4076-921a-848296a01e05"},"vehicle_type_id":"4","last_reported":1690387692,"current_range_meters":10800,"station_id":"ce4bhq92rcd13ifvqhjg","pricing_plan_id":"free"},{"bike_id":"b1d92be6-55f5-4a33-90f4-3e6b93c54cf5","system_id":"levelo_inurba_marseille","lat":43.323464,"lon":5.406297,"is_reserved":false,"is_disabled":false,"rental_uris":{"android":"levelo://app?vid=b1d92be6-55f5-4a33-90f4-3e6b93c54cf5","ios":"levelo://app?vid=b1d92be6-55f5-4a33-90f4-3e6b93c54cf5"},"vehicle_type_id":"4","last_reported":1690387692,"current_range_meters":31200,"station_id":"ce4bhq92rcd13ifvqhjg","pricing_plan_id":"free"},{"bike_id":"223610d1-6c1d-40ac-bfe4-46c598d28313","system_id":"levelo_inurba_marseille","lat":43.284793,"lon":5.384119,"is_reserved":false,"is_disabled":false,"rental_uris":{"android":"levelo://app?vid=223610d1-6c1d-40ac-bfe4-46c598d28313","ios":"levelo://app?vid=223610d1-6c1d-40ac-bfe4-46c598d28313"},"vehicle_type_id":"4","last_reported":1690387692,"current_range_meters":30800,"station_id":"ce4bh512rcd13ifvqe3g","pricing_plan_id":"free"},{"bike_id":"22f958d5-ffe1-4674-8d4c-af94f31c76f4","system_id":"levelo_inurba_marseille","lat":43.29803,"lon":5.40387,"is_reserved":false,"is_disabled":false,"rental_uris":{"android":"levelo://app?vid=22f958d5-ffe1-4674-8d4c-af94f31c76f4","ios":"levelo://app?vid=22f958d5-ffe1-4674-8d4c-af94f31c76f4"},"vehicle_type_id":"4","last_reported":1690387692,"current_range_meters":27600,"station_id":"","pricing_plan_id":"free"},{"bike_id":"ab80fd78-f68c-467b-b08f-603ce22fd4fa","system_id":"levelo_inurba_marseille","lat":43.284787,"lon":5.384116,"is_reserved":false,"is_disabled":false,"rental_uris":{"android":"levelo://app?vid=ab80fd78-f68c-467b-b08f-603ce22fd4fa","ios":"levelo://app?vid=ab80fd78-f68c-467b-b08f-603ce22fd4fa"},"vehicle_type_id":"4","last_reported":1690387692,"current_range_meters":16400,"station_id":"ce4bh512rcd13ifvqe3g","pricing_plan_id":"free"},{"bike_id":"4817e239-67e1-4cf3-b49e-c866bbaa2e21","system_id":"levelo_inurba_marseille","lat":43.29788,"lon":5.404,"is_reserved":false,"is_disabled":false,"rental_uris":{"android":"levelo://app?vid=4817e239-67e1-4cf3-b49e-c866bbaa2e21","ios":"levelo://app?vid=4817e239-67e1-4cf3-b49e-c866bbaa2e21"},"vehicle_type_id":"4","last_reported":1690387692,"current_range_meters":4000,"station_id":"","pricing_plan_id":"free"},{"bike_id":"ca6129fd-d5fa-49f8-bbc1-c12c22a83865","system_id":"levelo_inurba_marseille","lat":43.283494,"lon":5.380945,"is_reserved":false,"is_disabled":false,"rental_uris":{"android":"levelo://app?vid=ca6129fd-d5fa-49f8-bbc1-c12c22a83865","ios":"levelo://app?vid=ca6129fd-d5fa-49f8-bbc1-c12c22a83865"},"vehicle_type_id":"4","last_reported":1690387692,"current_range_meters":24400,"station_id":"ce4bh412rcd13ifvqdr0","pricing_plan_id":"free"},{"bike_id":"3bae8031-105b-4648-9a6d-f096ea965fca","system_id":"levelo_inurba_marseille","lat":43.284219,"lon":5.3497,"is_reserved":false,"is_disabled":false,"rental_uris":{"android":"levelo://app?vid=3bae8031-105b-4648-9a6d-f096ea965fca","ios":"levelo://app?vid=3bae8031-105b-4648-9a6d-f096ea965fca"},"vehicle_type_id":"4","last_reported":1690387692,"current_range_meters":29600,"station_id":"ce4bhbh2rcd13ifvqepg","pricing_plan_id":"free"},{"bike_id":"607ccf8e-ddd5-45d8-ba13-baa8b64e0505","system_id":"levelo_inurba_marseille","lat":43.28422,"lon":5.34987,"is_reserved":false,"is_disabled":false,"rental_uris":{"android":"levelo://app?vid=607ccf8e-ddd5-45d8-ba13-baa8b64e0505","ios":"levelo://app?vid=607ccf8e-ddd5-45d8-ba13-baa8b64e0505"},"vehicle_type_id":"4","last_reported":1690387692,"current_range_meters":3200,"station_id":"ce4bhbh2rcd13ifvqepg","pricing_plan_id":"free"},{"bike_id":"d0a178c5-39c5-4bc5-bdd6-d7eba95cc945","system_id":"levelo_inurba_marseille","lat":43.284219,"lon":5.3497,"is_reserved":false,"is_disabled":false,"rental_uris":{"android":"levelo://app?vid=d0a178c5-39c5-4bc5-bdd6-d7eba95cc945","ios":"levelo://app?vid=d0a178c5-39c5-4bc5-bdd6-d7eba95cc945"},"vehicle_type_id":"4","last_reported":1690387692,"current_range_meters":11200,"station_id":"ce4bhbh2rcd13ifvqepg","pricing_plan_id":"free"},{"bike_id":"b36bccd7-a37e-4951-afec-9113e2f3084d","system_id":"levelo_inurba_marseille","lat":43.284219,"lon":5.3497,"is_reserved":false,"is_disabled":false,"rental_uris":{"android":"levelo://app?vid=b36bccd7-a37e-4951-afec-9113e2f3084d","ios":"levelo://app?vid=b36bccd7-a37e-4951-afec-9113e2f3084d"},"vehicle_type_id":"4","last_reported":1690387692,"current_range_meters":29200,"station_id":"ce4bhbh2rcd13ifvqepg","pricing_plan_id":"free"},{"bike_id":"953dff0b-d6e5-4d4f-84e3-8de4b737e07b","system_id":"levelo_inurba_marseille","lat":43.284219,"lon":5.3497,"is_reserved":false,"is_disabled":false,"rental_uris":{"android":"levelo://app?vid=953dff0b-d6e5-4d4f-84e3-8de4b737e07b","ios":"levelo://app?vid=953dff0b-d6e5-4d4f-84e3-8de4b737e07b"},"vehicle_type_id":"4","last_reported":1690387692,"current_range_meters":31200,"station_id":"ce4bhbh2rcd13ifvqepg","pricing_plan_id":"free"},{"bike_id":"b087ddaf-3a7c-4c6f-8138-d159163f1ba9","system_id":"levelo_inurba_marseille","lat":43.284217,"lon":5.349697,"is_reserved":false,"is_disabled":false,"rental_uris":{"android":"levelo://app?vid=b087ddaf-3a7c-4c6f-8138-d159163f1ba9","ios":"levelo://app?vid=b087ddaf-3a7c-4c6f-8138-d159163f1ba9"},"vehicle_type_id":"4","last_reported":1690387692,"current_range_meters":16000,"station_id":"ce4bhbh2rcd13ifvqepg","pricing_plan_id":"free"},{"bike_id":"e457fd02-2329-4ad2-b04d-9ae2ece55d5e","system_id":"levelo_inurba_marseille","lat":43.28421,"lon":5.3498,"is_reserved":false,"is_disabled":false,"rental_uris":{"android":"levelo://app?vid=e457fd02-2329-4ad2-b04d-9ae2ece55d5e","ios":"levelo://app?vid=e457fd02-2329-4ad2-b04d-9ae2ece55d5e"},"vehicle_type_id":"4","last_reported":1690387692,"current_range_meters":29600,"station_id":"ce4bhbh2rcd13ifvqepg","pricing_plan_id":"free"},{"bike_id":"4dacf7b2-3858-411b-913c-326de740a593","system_id":"levelo_inurba_marseille","lat":43.284219,"lon":5.3497,"is_reserved":false,"is_disabled":false,"rental_uris":{"android":"levelo://app?vid=4dacf7b2-3858-411b-913c-326de740a593","ios":"levelo://app?vid=4dacf7b2-3858-411b-913c-326de740a593"},"vehicle_type_id":"4","last_reported":1690387692,"current_range_meters":16800,"station_id":"ce4bhbh2rcd13ifvqepg","pricing_plan_id":"free"},{"bike_id":"da4c6505-2ec6-4401-af0a-1a7c230b3162","system_id":"levelo_inurba_marseille","lat":43.284217,"lon":5.349697,"is_reserved":false,"is_disabled":false,"rental_uris":{"android":"levelo://app?vid=da4c6505-2ec6-4401-af0a-1a7c230b3162","ios":"levelo://app?vid=da4c6505-2ec6-4401-af0a-1a7c230b3162"},"vehicle_type_id":"4","last_reported":1690387692,"current_range_meters":22800,"station_id":"ce4bhbh2rcd13ifvqepg","pricing_plan_id":"free"},{"bike_id":"fe59550c-b75a-4e36-afec-8ec1ced3ab1c","system_id":"levelo_inurba_marseille","lat":43.284219,"lon":5.3497,"is_reserved":false,"is_disabled":false,"rental_uris":{"android":"levelo://app?vid=fe59550c-b75a-4e36-afec-8ec1ced3ab1c","ios":"levelo://app?vid=fe59550c-b75a-4e36-afec-8ec1ced3ab1c"},"vehicle_type_id":"4","last_reported":1690387692,"current_range_meters":32000,"station_id":"ce4bhbh2rcd13ifvqepg","pricing_plan_id":"free"},{"bike_id":"ed03d56e-ef33-4668-a536-750de42e24e8","system_id":"levelo_inurba_marseille","lat":43.28416,"lon":5.34982,"is_reserved":false,"is_disabled":false,"rental_uris":{"android":"levelo://app?vid=ed03d56e-ef33-4668-a536-750de42e24e8","ios":"levelo://app?vid=ed03d56e-ef33-4668-a536-750de42e24e8"},"vehicle_type_id":"4","last_reported":1690387692,"current_range_meters":23200,"station_id":"ce4bhbh2rcd13ifvqepg","pricing_plan_id":"free"},{"bike_id":"7e73a931-5ebe-4b34-bf9f-d788bf3ae6c3","system_id":"levelo_inurba_marseille","lat":43.284217,"lon":5.349697,"is_reserved":false,"is_disabled":false,"rental_uris":{"android":"levelo://app?vid=7e73a931-5ebe-4b34-bf9f-d788bf3ae6c3","ios":"levelo://app?vid=7e73a931-5ebe-4b34-bf9f-d788bf3ae6c3"},"vehicle_type_id":"4","last_reported":1690387692,"current_range_meters":31200,"station_id":"ce4bhbh2rcd13ifvqepg","pricing_plan_id":"free"},