{"last_updated":1731417437,"ttl":60,"version":"2.2","data":{"bikes":[{"bike_id":"f0235392-c652-4570-ba32-10ed045f886b","system_id":"levelo_inurba_marseille","lat":43.24084,"lon":5.3774,"is_reserved":false,"is_disabled":false,"rental_uris":{"android":"levelo://app?vid=f0235392-c652-4570-ba32-10ed045f886b","ios":"levelo://app?vid=f0235392-c652-4570-ba32-10ed045f886b"},"vehicle_type_id":"4","last_reported":1731417437,"current_range_meters":28800,"station_id":"ce4bhnp2rcd13ifvqgvg","pricing_plan_id":"cebpf4jnsgd1na2vs0mg"},{"bike_id":"4ecf88c0-77a6-4268-b158-1994aec5c096","system_id":"levelo_inurba_marseille","lat":43.31072,"lon":5.40092,"is_reserved":false,"is_disabled":false,"rental_uris":{"android":"levelo://app?vid=4ecf88c0-77a6-4268-b158-1994aec5c096","ios":"levelo://app?vid=4ecf88c0-77a6-4268-b158-1994aec5c096"},"vehicle_type_id":"4","last_reported":1731417437,"current_range_meters":4800,"station_id":"","pricing_plan_id":"cebpf4jnsgd1na2vs0mg"},{"bike_id":"8e2597d5-898a-4e1f-a315-c138cf2c2171","system_id":"levelo_inurba_marseille","lat":43.27183,"lon":5.40998,"is_reserved":false,"is_disabled":false,"rental_uris":{"android":"levelo://app?vid=8e2597d5-898a-4e1f-a315-c138cf2c2171","ios":"levelo://app?vid=8e2597d5-898a-4e1f-a315-c138cf2c2171"},"vehicle_type_id":"4","last_reported":1731417437,"current_range_meters":22400,"station_id":"ce4bhl12rcd13ifvqgf0","pricing_plan_id":"cebpf4jnsgd1na2vs0mg"},{"bike_id":"e921a58b-afc8-4518-b05d-10f124225a08","system_id":"levelo_inurba_marseille","lat":43.29416,"lon":5.38628,"is_reserved":false,"is_disabled":false,"rental_uris":{"android":"levelo://app?vid=e921a58b-afc8-4518-b05d-10f124225a08","ios":"levelo://app?vid=e921a58b-afc8-4518-b05d-10f124225a08"},"vehicle_type_id":"4","last_reported":1731417437,"current_range_meters":4400,"station_id":"ce4bh2h2rcd13ifvqdh0","pricing_plan_id":"cebpf4jnsgd1na2vs0mg"},{"bike_id":"1ccfb8bd-1ae7-4c84-99a2-a988a6a36a58","system_id":"levelo_inurba_marseille","lat":43.26947,"lon":5.38634,"is_reserved":false,"is_disabled":false,"rental_uris":{"android":"levelo://app?vid=1ccfb8bd-1ae7-4c84-99a2-a988a6a36a58","ios":"levelo://app?vid=1ccfb8bd-1ae7-4c84-99a2-a988a6a36a58"},"vehicle_type_id":"4","last_reported":1731417437,"current_range_meters":29600,"station_id":"ce4bhh92rcd13ifvqfh0","pricing_plan_id":"cebpf4jnsgd1na2vs0mg"},{"bike_id":"3f25d806-ed04-4777-a51c-9468e09ffec0","system_id":"levelo_inurba_marseille","lat":43.240713,"lon":5.377548,"is_reserved":false,"is_disabled":false,"rental_uris":{"android":"levelo://app?vid=3f25d806-ed04-4777-a51c-9468e09ffec0","ios":"levelo://app?vid=3f25d806-ed04-4777-a51c-9468e09ffec0"},"vehicle_type_id":"4","last_reported":1731417437,"current_range_meters":20800,"station_id":"ce4bhnp2rcd13ifvqgvg","pricing_plan_id":"cebpf4jnsgd1na2vs0mg"},{"bike_id":"ab9c05bb-0c09-4400-b04c-9f7781c7d171","system_id":"levelo_inurba_marseille","lat":43.28923,"lon":5.384,"is_reserved":false,"is_disabled":false,"rental_uris":{"android":"levelo://app?vid=ab9c05bb-0c09-4400-b04c-9f7781c7d171","ios":"levelo://app?vid=ab9c05bb-0c09-4400-b04c-9f7781c7d171"},"vehicle_type_id":"4","last_reported":1731417437,"current_range_meters":16800,"station_id":"ce4bh612rcd13ifvqe6g","pricing_plan_id":"cebpf4jnsgd1na2vs0mg"},{"bike_id":"fca408c1-cf45-4f85-8117-75b4cdf1e5bc","system_id":"levelo_inurba_marseille","lat":43.29603,"lon":5.38107,"is_reserved":false,"is_disabled":false,"rental_uris":{"android":"levelo://app?vid=fca408c1-cf45-4f85-8117-75b4cdf1e5bc","ios":"levelo://app?vid=fca408c1-cf45-4f85-8117-75b4cdf1e5bc"},"vehicle_type_id":"4","last_reported":1731417437,"current_range_meters":40000,"station_id":"ce4bgl12rcd13ifvqbo0","pricing_plan_id":"cebpf4jnsgd1na2vs0mg"},{"bike_id":"c11ad709-cea1-4ef9-889d-d80230a8fdfc","system_id":"levelo_inurba_marseille","lat":43.29002,"lon":5.35605,"is_reserved":false,"is_disabled":false,"rental_uris":{"android":"levelo://app?vid=c11ad709-cea1-4ef9-889d-d80230a8fdfc","ios":"levelo://app?vid=c11ad709-cea1-4ef9-889d-d80230a8fdfc"},"vehicle_type_id":"4","last_reported":1731417437,"current_range_meters":37600,"station_id":"ce4bhb92rcd13ifvqen0","pricing_plan_id":"cebpf4jnsgd1na2vs0mg"},{"bike_id":"d3bc65f8-96a4-47eb-a231-9d88eec69246","system_id":"levelo_inurba_marseille","lat":43.29268,"lon":5.3685,"is_reserved":false,"is_disabled":false,"rental_uris":{"android":"levelo://app?vid=d3bc65f8-96a4-47eb-a231-9d88eec69246","ios":"levelo://app?vid=d3bc65f8-96a4-47eb-a231-9d88eec69246"},"vehicle_type_id":"4","last_reported":1731417437,"current_range_meters":38800,"station_id":"ce4bhbp2rcd13ifvqesg","pricing_plan_id":"cebpf4jnsgd1na2vs0mg"},{"bike_id":"ad523e06-6332-4817-8d14-70db33cd44e6","system_id":"levelo_inurba_marseille","lat":43.2867,"lon":5.38661,"is_reserved":false,"is_disabled":false,"rental_uris":{"android":"levelo://app?vid=ad523e06-6332-4817-8d14-70db33cd44e6","ios":"levelo://app?vid=ad523e06-6332-4817-8d14-70db33cd44e6"},"vehicle_type_id":"4","last_reported":1731417437,"current_range_meters":32000,"station_id":"ce4bh492rcd13ifvqdug","pricing_plan_id":"cebpf4jnsgd1na2vs0mg"},{"bike_id":"4439e7e2-640f-479c-a970-5e17bbf11d2f","system_id":"levelo_inurba_marseille","lat":43.30909,"lon":5.36855,"is_reserved":false,"is_disabled":false,"rental_uris":{"android":"levelo://app?vid=4439e7e2-640f-479c-a970-5e17bbf11d2f","ios":"levelo://app?vid=4439e7e2-640f-479c-a970-5e17bbf11d2f"},"vehicle_type_id":"4","last_reported":1731417437,"current_range_meters":39200,"station_id":"ce4bgn92rcd13ifvqbvg","pricing_plan_id":"cebpf4jnsgd1na2vs0mg"},{"bike_id":"c2172132-6879-47e9-a811-7d8e34b0dd78","system_id":"levelo_inurba_marseille","lat":43.31344,"lon":5.36709,"is_reserved":false,"is_disabled":false,"rental_uris":{"android":"levelo://app?vid=c2172132-6879-47e9-a811-7d8e34b0dd78","ios":"levelo://app?vid=c2172132-6879-47e9-a811-7d8e34b0dd78"},"vehicle_type_id":"4","last_reported":1731417437,"current_range_meters":29600,"station_id":"ce4bgr92rcd13ifvqc6g","pricing_plan_id":"cebpf4jnsgd1na2vs0mg"},{"bike_id":"6b228d07-4301-4a5b-9474-4b744d853bd2","system_id":"levelo_inurba_marseille","lat":43.3248,"lon":5.36565,"is_reserved":false,"is_disabled":false,"rental_uris":{"android":"levelo://app?vid=6b228d07-4301-4a5b-9474-4b744d853bd2","ios":"levelo://app?vid=6b228d07-4301-4a5b-9474-4b744d853bd2"},"vehicle_type_id":"4","last_reported":1731417437,"current_range_meters":25600,"station_id":"ce4bhs12rcd13ifvqhvg","pricing_plan_id":"cebpf4jnsgd1na2vs0mg"},{"bike_id":"07c3259f-e215-4bfe-b3a4-d7000216f62d","system_id":"levelo_inurba_marseille","lat":43.29278,"lon":5.40123,"is_reserved":false,"is_disabled":false,"rental_uris":{"android":"levelo://app?vid=07c3259f-e215-4bfe-b3a4-d7000216f62d","ios":"levelo://app?vid=07c3259f-e215-4bfe-b3a4-d7000216f62d"},"vehicle_type_id":"4","last_reported":1731417437,"current_range_meters":18000,"station_id":"ce4bh312rcd13ifvqdk0","pricing_plan_id":"cebpf4jnsgd1na2vs0mg"},{"bike_id":"948d5a63-762a-46b2-a20d-d3a7e21e8d19","system_id":"levelo_inurba_marseille","lat":43.24069,"lon":5.37765,"is_reserved":false,"is_disabled":false,"rental_uris":{"android":"levelo://app?vid=948d5a63-762a-46b2-a20d-d3a7e21e8d19","ios":"levelo://app?vid=948d5a63-762a-46b2-a20d-d3a7e21e8d19"},"vehicle_type_id":"4","last_reported":1731417437,"current_range_meters":26000,"station_id":"ce4bhnp2rcd13ifvqgvg","pricing_plan_id":"cebpf4jnsgd1na2vs0mg"},{"bike_id":"9aa2259a-1f9f-415f-82a8-3977a7a35ee3","system_id":"levelo_inurba_marseille","lat":43.2953,"lon":5.3855,"is_reserved":false,"is_disabled":false,"rental_uris":{"android":"levelo://app?vid=9aa2259a-1f9f-415f-82a8-3977a7a35ee3","ios":"levelo://app?vid=9aa2259a-1f9f-415f-82a8-3977a7a35ee3"},"vehicle_type_id":"4","last_reported":1731417437,"current_range_meters":38000,"station_id":"ce4bgih2rcd13ifvqba0","pricing_plan_id":"cebpf4jnsgd1na2vs0mg"},{"bike_id":"a13500f9-f43c-4f6f-9dc4-ca2ea22ea904","system_id":"levelo_inurba_marseille","lat":43.28346,"lon":5.38106,"is_reserved":false,"is_disabled":false,"rental_uris":{"android":"levelo://app?vid=a13500f9-f43c-4f6f-9dc4-ca2ea22ea904","ios":"levelo://app?vid=a13500f9-f43c-4f6f-9dc4-ca2ea22ea904"},"vehicle_type_id":"4","last_reported":1731417437,"current_range_meters":33600,"station_id":"ce4bh412rcd13ifvqdr0","pricing_plan_id":"cebpf4jnsgd1na2vs0mg"},{"bike_id":"6a0655c0-57dc-4377-b540-68edd40f44ee","system_id":"levelo_inurba_marseille","lat":43.27203,"lon":5.39179,"is_reserved":false,"is_disabled":false,"rental_uris":{"android":"levelo://app?vid=6a0655c0-57dc-4377-b540-68edd40f44ee","ios":"levelo://app?vid=6a0655c0-57dc-4377-b540-68edd40f44ee"},"vehicle_type_id":"4","last_reported":1731417437,"current_range_meters":32000,"station_id":"ce4bhhp2rcd13ifvqfm0","pricing_plan_id":"cebpf4jnsgd1na2vs0mg"},{"bike_id":"b8f61845-5bab-411f-b6c0-9ebe5cac9e1a","system_id":"levelo_inurba_marseille","lat":43.26948,"lon":5.38635,"is_reserved":false,"is_disabled":false,"rental_uris":{"android":"levelo://app?vid=b8f61845-5bab-411f-b6c0-9ebe5cac9e1a","ios":"levelo://app?vid=b8f61845-5bab-411f-b6c0-9ebe5cac9e1a"},"vehicle_type_id":"4","last_reported":1731417437,"current_range_meters":35200,"station_id":"ce4bhh92rcd13ifvqfh0","pricing_plan_id":"cebpf4jnsgd1na2vs0mg"},{"bike_id":"ba24314d-3e57-47ab-843e-229d2d34192c","system_id":"levelo_inurba_marseille","lat":43.31882,"lon":5.40736,"is_reserved":false,"is_disabled":false,"rental_uris":{"android":"levelo://app?vid=ba24314d-3e57-47ab-843e-229d2d34192c","ios":"levelo://app?vid=ba24314d-3e57-47ab-843e-229d2d34192c"},"vehicle_type_id":"4","last_reported":1731417437,"current_range_meters":36400,"station_id":"ce4bhq12rcd13ifvqhig","pricing_plan_id":"cebpf4jnsgd1na2vs0mg"},{"bike_id":"ec2bd622-564a-4344-81ef-f79e221200a1","system_id":"levelo_inurba_marseille","lat":43.25579,"lon":5.38247,"is_reserved":false,"is_disabled":false,"rental_uris":{"android":"levelo://app?vid=ec2bd622-564a-4344-81ef-f79e221200a1","ios":"levelo://app?vid=ec2bd622-564a-4344-81ef-f79e221200a1"},"vehicle_type_id":"4","last_reported":1731417437,"current_range_meters":28800,"station_id":"ce4bhih2rcd13ifvqfs0","pricing_plan_id":"cebpf4jnsgd1na2vs0mg"},{"bike_id":"48af4b69-aaa3-41b9-b064-2e73de59e95a","system_id":"levelo_inurba_marseille","lat":43.27974,"lon":5.38742,"is_reserved":false,"is_disabled":false,"rental_uris":{"android":"levelo://app?vid=48af4b69-aaa3-41b9-b064-2e73de59e95a","ios":"levelo://app?vid=48af4b69-aaa3-41b9-b064-2e73de59e95a"},"vehicle_type_id":"4","last_reported":1731417437,"current_range_meters":19200,"station_id":"ce4bhg12rcd13ifvqf80","pricing_plan_id":"cebpf4jnsgd1na2vs0mg"},{"bike_id":"f98fc6c7-a4c1-4766-a17b-182abf1b070f","system_id":"levelo_inurba_marseille","lat":43.28347,"lon":5.38107,"is_reserved":false,"is_disabled":false,"rental_uris":{"android":"levelo://app?vid=f98fc6c7-a4c1-4766-a17b-182abf1b070f","ios":"levelo://app?vid=f98fc6c7-a4c1-4766-a17b-182abf1b070f"},"vehicle_type_id":"4","last_reported":1731417437,"current_range_meters":19200,"station_id":"ce4bh412rcd13ifvqdr0","pricing_plan_id":"cebpf4jnsgd1na2vs0mg"},{"bike_id":"a9275dbb-262b-4ebf-826d-6cf4ea9adb2c","system_id":"levelo_inurba_marseille","lat":43.27942,"lon":5.41048,"is_reserved":false,"is_disabled":false,"rental_uris":{"android":"levelo://app?vid=a9275dbb-262b-4ebf-826d-6cf4ea9adb2c","ios":"levelo://app?vid=a9275dbb-262b-4ebf-826d-6cf4ea9adb2c"},"vehicle_type_id":"4","last_reported":1731417437,"current_range_meters":9200,"station_id":"ce4bhnp2rcd13ifvqh0g","pricing_plan_id":"cebpf4jnsgd1na2vs0mg"},{"bike_id":"ce2e3f6e-6398-4940-93f2-fd49c28434c4","system_id":"levelo_inurba_marseille","lat":43.24083,"lon":5.37752,"is_reserved":false,"is_disabled":false,"rental_uris":{"android":"levelo://app?vid=ce2e3f6e-6398-4940-93f2-fd49c28434c4","ios":"levelo://app?vid=ce2e3f6e-6398-4940-93f2-fd49c28434c4"},"vehicle_type_id":"4","last_reported":1731417437,"current_range_meters":8000,"station_id":"ce4bhnp2rcd13ifvqgvg","pricing_plan_id":"cebpf4jnsgd1na2vs0mg"},{"bike_id":"f9cacf57-36ba-4889-8f1f-f771a3c6f728","system_id":"levelo_inurba_marseille","lat":43.29907,"lon":5.38149,"is_reserved":false,"is_disabled":false,"rental_uris":{"android":"levelo://app?vid=f9cacf57-36ba-4889-8f1f-f771a3c6f728","ios":"levelo://app?vid=f9cacf57-36ba-4889-8f1f-f771a3c6f728"},"vehicle_type_id":"4","last_reported":1731417437,"current_range_meters":38800,"station_id":"ce4bgj12rcd13ifvqbc0","pricing_plan_id":"cebpf4jnsgd1na2vs0mg"},{"bike_id":"45892449-4309-414c-84e5-59bfb2962cf8","system_id":"levelo_inurba_marseille","lat":43.27993,"lon":5.41665,"is_reserved":false,"is_disabled":false,"rental_uris":{"android":"levelo://app?vid=45892449-4309-414c-84e5-59bfb2962cf8","ios":"levelo://app?vid=45892449-4309-414c-84e5-59bfb2962cf8"},"vehicle_type_id":"4","last_reported":1731417437,"current_range_meters":39200,"station_id":"ce4bho12rcd13ifvqh1g","pricing_plan_id":"cebpf4jnsgd1na2vs0mg"},{"bike_id":"46af5b7f-5607-486d-bc57-2daa7d5b28e7","system_id":"levelo_inurba_marseille","lat":43.27066,"lon":5.42277,"is_reserved":false,"is_disabled":false,"rental_uris":{"android":"levelo://app?vid=46af5b7f-5607-486d-bc57-2daa7d5b28e7","ios":"levelo://app?vid=46af5b7f-5607-486d-bc57-2daa7d5b28e7"},"vehicle_type_id":"4","last_reported":1731417437,"current_range_meters":38000,"station_id":"ce4bhk92rcd13ifvqgb0","pricing_plan_id":"cebpf4jnsgd1na2vs0mg"},{"bike_id":"5c7bd2ef-8d8f-4446-abaf-09dbef262f50","system_id":"levelo_inurba_marseille","lat":43.30959,"lon":5.39033,"is_reserved":false,"is_disabled":false,"rental_uris":{"android":"levelo://app?vid=5c7bd2ef-8d8f-4446-abaf-09dbef262f50","ios":"levelo://app?vid=5c7bd2ef-8d8f-4446-abaf-09dbef262f50"},"vehicle_type_id":"4","last_reported":1731417437,"current_range_meters":6400,"station_id":"ce4bgup2rcd13ifvqco0","pricing_plan_id":"cebpf4jnsgd1na2vs0mg"},{"bike_id":"5770bbd9-2c6e-4691-a76b-306c0fdae32c","system_id":"levelo_inurba_marseille","lat":43.28858,"lon":5.35851,"is_reserved":false,"is_disabled":false,"rental_uris":{"android":"levelo://app?vid=5770bbd9-2c6e-4691-a76b-306c0fdae32c","ios":"levelo://app?vid=5770bbd9-2c6e-4691-a76b-306c0fdae32c"},"vehicle_type_id":"4","last_reported":1731417437,"current_range_meters":34000,"station_id":"ce4bhb12rcd13ifvqem0","pricing_plan_id":"cebpf4jnsgd1na2vs0mg"},{"bike_id":"507284d9-4009-457e-bfa1-5ddbf58c6240","system_id":"levelo_inurba_marseille","lat":43.27171,"lon":5.40987,"is_reserved":false,"is_disabled":false,"rental_uris":{"android":"levelo://app?vid=507284d9-4009-457e-bfa1-5ddbf58c6240","ios":"levelo://app?vid=507284d9-4009-457e-bfa1-5ddbf58c6240"},"vehicle_type_id":"4","last_reported":1731417437,"current_range_meters":39200,"station_id":"ce4bhl12rcd13ifvqgf0","pricing_plan_id":"cebpf4jnsgd1na2vs0mg"},{"bike_id":"e01fd6b0-ac07-49fb-bb1f-2e453e216216","system_id":"levelo_inurba_marseille","lat":43.31532,"lon":5.38035,"is_reserved":false,"is_disabled":false,"rental_uris":{"android":"levelo://app?vid=e01fd6b0-ac07-49fb-bb1f-2e453e216216","ios":"levelo://app?vid=e01fd6b0-ac07-49fb-bb1f-2e453e216216"},"vehicle_type_id":"4","last_reported":1731417437,"current_range_meters":38400,"station_id":"ce4bhsp2rcd13ifvqi50","pricing_plan_id":"cebpf4jnsgd1na2vs0mg"},{"bike_id":"007ed1e0-5e71-46da-97d5-4d5c67a3b532","system_id":"levelo_inurba_marseille","lat":43.2668,"lon":5.38266,"is_reserved":false,"is_disabled":false,"rental_uris":{"android":"levelo://app?vid=007ed1e0-5e71-46da-97d5-4d5c67a3b532","ios":"levelo://app?vid=007ed1e0-5e71-46da-97d5-4d5c67a3b532"},"vehicle_type_id":"4","last_reported":1731417437,"current_range_meters":36800,"station_id":"ce4bhg92rcd13ifvqf90","pricing_plan_id":"cebpf4jnsgd1na2vs0mg"},{"bike_id":"62f5ce0e-90f2-4cf5-a3ef-fa5904dc77cf","system_id":"levelo_inurba_marseille","lat":43.290066,"lon":5.356097,"is_reserved":false,"is_disabled":false,"rental_uris":{"android":"levelo://app?vid=62f5ce0e-90f2-4cf5-a3ef-fa5904dc77cf","ios":"levelo://app?vid=62f5ce0e-90f2-4cf5-a3ef-fa5904dc77cf"},"vehicle_type_id":"4","last_reported":1731417437,"current_range_meters":34000,"station_id":"ce4bhb92rcd13ifvqen0","pricing_plan_id":"cebpf4jnsgd1na2vs0mg"},{"bike_id":"44a85343-f177-4904-8616-4b62e063a17c","system_id":"levelo_inurba_marseille","lat":43.29002,"lon":5.35613,"is_reserved":false,"is_disabled":false,"rental_uris":{"android":"levelo://app?vid=44a85343-f177-4904-8616-4b62e063a17c","ios":"levelo://app?vid=44a85343-f177-4904-8616-4b62e063a17c"},"vehicle_type_id":"4","last_reported":1731417437,"current_range_meters":40000,"station_id":"ce4bhb92rcd13ifvqen0","pricing_plan_id":"cebpf4jnsgd1na2vs0mg"},{"bike_id":"f4e02794-322e-4818-830c-8d3b2c66c4ee","system_id":"levelo_inurba_marseille","lat":43.33611,"lon":5.41031,"is_reserved":false,"is_disabled":false,"rental_uris":{"android":"levelo://app?vid=f4e02794-322e-4818-830c-8d3b2c66c4ee","ios":"levelo://app?vid=f4e02794-322e-4818-830c-8d3b2c66c4ee"},"vehicle_type_id":"4","last_reported":1731417437,"current_range_meters":36800,"station_id":"ce4bhqh2rcd13ifvqhmg","pricing_plan_id":"cebpf4jnsgd1na2vs0mg"},{"bike_id":"9ff46309-c6e0-445e-8ef2-1916bba1fdc1","system_id":"levelo_inurba_marseille","lat":43.28941,"lon":5.36388,"is_reserved":false,"is_disabled":false,"rental_uris":{"android":"levelo://app?vid=9ff46309-c6e0-445e-8ef2-1916bba1fdc1","ios":"levelo://app?vid=9ff46309-c6e0-445e-8ef2-1916bba1fdc1"},"vehicle_type_id":"4","last_reported":1731417437,"current_range_meters":38400,"station_id":"ce4bhc92rcd13ifvqetg","pricing_plan_id":"cebpf4jnsgd1na2vs0mg"},{"bike_id":"59cb5f6e-efb7-4dab-b0b9-60fb27398b1c","system_id":"levelo_inurba_marseille","lat":43.27961,"lon":5.38718,"is_reserved":false,"is_disabled":false,"rental_uris":{"android":"levelo://app?vid=59cb5f6e-efb7-4dab-b0b9-60fb27398b1c","ios":"levelo://app?vid=59cb5f6e-efb7-4dab-b0b9-60fb27398b1c"},"vehicle_type_id":"4","last_reported":1731417437,"current_range_meters":38800,"station_id":"ce4bhg12rcd13ifvqf80","pricing_plan_id":"cebpf4jnsgd1na2vs0mg"},{"bike_id":"59d7e861-e3d3-4088-bc9c-c43fc36cf4fe","system_id":"levelo_inurba_marseille","lat":43.24084,"lon":5.37744,"is_reserved":false,"is_disabled":false,"rental_uris":{"android":"levelo://app?vid=59d7e861-e3d3-4088-bc9c-c43fc36cf4fe","ios":"levelo://app?vid=59d7e861-e3d3-4088-bc9c-c43fc36cf4fe"},"vehicle_type_id":"4","last_reported":1731417437,"current_range_meters":7200,"station_id":"ce4bhnp2rcd13ifvqgvg","pricing_plan_id":"cebpf4jnsgd1na2vs0mg"},{"bike_id":"c8577b48-3d1b-496e-92f7-bd3fc9e36063","system_id":"levelo_inurba_marseille","lat":43.337444,"lon":5.374475,"is_reserved":false,"is_disabled":false,"rental_uris":{"android":"levelo://app?vid=c8577b48-3d1b-496e-92f7-bd3fc9e36063","ios":"levelo://app?vid=c8577b48-3d1b-496e-92f7-bd3fc9e36063"},"vehicle_type_id":"4","last_reported":1731417437,"current_range_meters":37600,"station_id":"","pricing_plan_id":"cebpf4jnsgd1na2vs0mg"},{"bike_id":"9e15b188-2341-4d66-8a22-cefbe21774ba","system_id":"levelo_inurba_marseille","lat":43.31231,"lon":5.3686,"is_reserved":false,"is_disabled":false,"rental_uris":{"android":"levelo://app?vid=9e15b188-2341-4d66-8a22-cefbe21774ba","ios":"levelo://app?vid=9e15b188-2341-4d66-8a22-cefbe21774ba"},"vehicle_type_id":"4","last_reported":1731417437,"current_range_meters":27600,"station_id":"ce4bgl92rcd13ifvqbq0","pricing_plan_id":"cebpf4jnsgd1na2vs0mg"},{"bike_id":"ae5855c0-8447-495f-a998-74b81686d82e","system_id":"levelo_inurba_marseille","lat":43.26684,"lon":5.38271,"is_reserved":false,"is_disabled":false,"rental_uris":{"android":"levelo://app?vid=ae5855c0-8447-495f-a998-74b81686d82e","ios":"levelo://app?vid=ae5855c0-8447-495f-a998-74b81686d82e"},"vehicle_type_id":"4","last_reported":1731417437,"current_range_meters":40000,"station_id":"ce4bhg92rcd13ifvqf90","pricing_plan_id":"cebpf4jnsgd1na2vs0mg"},{"bike_id":"d265751d-fa37-4729-b8e3-a5848e7e9d07","system_id":"levelo_inurba_marseille","lat":43.24804,"lon":5.37455,"is_reserved":false,"is_disabled":false,"rental_uris":{"android":"levelo://app?vid=d265751d-fa37-4729-b8e3-a5848e7e9d07","ios":"levelo://app?vid=d265751d-fa37-4729-b8e3-a5848e7e9d07"},"vehicle_type_id":"4","last_reported":1731417437,"current_range_meters":39200,"station_id":"ce4bhgh2rcd13ifvqfb0","pricing_plan_id":"cebpf4jnsgd1na2vs0mg"},{"bike_id":"7ddf5a1d-ec6d-43ff-857b-7df82f161350","system_id":"levelo_inurba_marseille","lat":43.28615,"lon":5.35098,"is_reserved":false,"is_disabled":false,"rental_uris":{"android":"levelo://app?vid=7ddf5a1d-ec6d-43ff-857b-7df82f161350","ios":"levelo://app?vid=7ddf5a1d-ec6d-43ff-857b-7df82f161350"},"vehicle_type_id":"4","last_reported":1731417437,"current_range_meters":34800,"station_id":"ce4bhch2rcd13ifvqeug","pricing_plan_id":"cebpf4jnsgd1na2vs0mg"},{"bike_id":"991bef25-7582-49b4-bbf4-c554ae6b520f","system_id":"levelo_inurba_marseille","lat":43.2985,"lon":5.36276,"is_reserved":false,"is_disabled":false,"rental_uris":{"android":"levelo://app?vid=991bef25-7582-49b4-bbf4-c554ae6b520f","ios":"levelo://app?vid=991bef25-7582-49b4-bbf4-c554ae6b520f"},"vehicle_type_id":"4","last_reported":1731417437,"current_range_meters":38000,"station_id":"ce4bgpp2rcd13ifvqc3g","pricing_plan_id":"cebpf4jnsgd1na2vs0mg"},{"bike_id":"d2f21156-f56b-4def-afa2-291fd17f4295","system_id":"levelo_inurba_marseille","lat":43.29787,"lon":5.39341,"is_reserved":false,"is_disabled":false,"rental_uris":{"android":"levelo://app?vid=d2f21156-f56b-4def-afa2-291fd17f4295","ios":"levelo://app?vid=d2f21156-f56b-4def-afa2-291fd17f4295"},"vehicle_type_id":"4","last_reported":1731417437,"current_range_meters":16400,"station_id":"chh1huq6cuj3fo74tm60","pricing_plan_id":"cebpf4jnsgd1na2vs0mg"},{"bike_id":"ee54c23e-a693-4bf4-8cc3-6b985168b303","system_id":"levelo_inurba_marseille","lat":43.29028,"lon":5.37558,"is_reserved":false,"is_disabled":false,"rental_uris":{"android":"levelo://app?vid=ee54c23e-a693-4bf4-8cc3-6b985168b303","ios":"levelo://app?vid=ee54c23e-a693-4bf4-8cc3-6b985168b303"},"vehicle_type_id":"4","last_reported":1731417437,"current_range_meters":34000,"station_id":"ce4bh692rcd13ifvqe90","pricing_plan_id":"cebpf4jnsgd1na2vs0mg"},{"bike_id":"b9a61c7d-c2e0-445d-b53e-84e455ca4886","system_id":"levelo_inurba_marseille","lat":43.32654,"lon":5.40994,"is_reserved":false,"is_disabled":false,"rental_uris":{"android":"levelo://app?vid=b9a61c7d-c2e0-445d-b53e-84e455ca4886","ios":"levelo://app?vid=b9a61c7d-c2e0-445d-b53e-84e455ca4886"},"vehicle_type_id":"4","last_reported":1731417437,"current_range_meters":40000,"station_id":"ce4bhpp2rcd13ifvqhgg","pricing_plan_id":"cebpf4jnsgd1na2vs0mg"},{"bike_id":"47f68d1a-08bc-4a05-95ab-0c37ad1d556f","system_id":"levelo_inurba_marseille","lat":43.3172,"lon":5.42394,"is_reserved":false,"is_disabled":false,"rental_uris":{"android":"levelo://app?vid=47f68d1a-08bc-4a05-95ab-0c37ad1d556f","ios":"levelo://app?vid=47f68d1a-08bc-4a05-95ab-0c37ad1d556f"},"vehicle_type_id":"4","last_reported":1731417437,"current_range_meters":6400,"station_id":"ce4bhp92rcd13ifvqhbg","pricing_plan_id":"cebpf4jnsgd1na2vs0mg"},{"bike_id":"c712db69-4651-47a9-b991-3387f12e08c0","system_id":"levelo_inurba_marseille","lat":43.30217,"lon":5.39471,"is_reserved":false,"is_disabled":false,"rental_uris":{"android":"levelo://app?vid=c712db69-4651-47a9-b991-3387f12e08c0","ios":"levelo://app?vid=c712db69-4651-47a9-b991-3387f12e08c0"},"vehicle_type_id":"4","last_reported":1731417437,"current_range_meters":33200,"station_id":"ce4bh0p2rcd13ifvqd70","pricing_plan_id":"cebpf4jnsgd1na2vs0mg"},{"bike_id":"b51379b7-662e-4729-961b-ffecd4d4a14b","system_id":"levelo_inurba_marseille","lat":43.28615,"lon":5.35106,"is_reserved":false,"is_disabled":false,"rental_uris":{"android":"levelo://app?vid=b51379b7-662e-4729-961b-ffecd4d4a14b","ios":"levelo://app?vid=b51379b7-662e-4729-961b-ffecd4d4a14b"},"vehicle_type_id":"4","last_reported":1731417437,"current_range_meters":38800,"station_id":"ce4bhch2rcd13ifvqeug","pricing_plan_id":"cebpf4jnsgd1na2vs0mg"},{"bike_id":"2f5f6c73-c676-4306-b6c3-49ec5e954bf7","system_id":"levelo_inurba_marseille","lat":43.30266,"lon":5.37717,"is_reserved":false,"is_disabled":false,"rental_uris":{"android":"levelo://app?vid=2f5f6c73-c676-4306-b6c3-49ec5e954bf7","ios":"levelo://app?vid=2f5f6c73-c676-4306-b6c3-49ec5e954bf7"},"vehicle_type_id":"4","last_reported":1731417437,"current_range_meters":30000,"station_id":"ce4bguh2rcd13ifvqcj0","pricing_plan_id":"cebpf4jnsgd1na2vs0mg"},{"bike_id":"dafcd14f-9c44-41c3-ab9c-fa462e1c91ac","system_id":"levelo_inurba_marseille","lat":43.25929,"lon":5.40913,"is_reserved":false,"is_disabled":false,"rental_uris":{"android":"levelo://app?vid=dafcd14f-9c44-41c3-ab9c-fa462e1c91ac","ios":"levelo://app?vid=dafcd14f-9c44-41c3-ab9c-fa462e1c91ac"},"vehicle_type_id":"4","last_reported":1731417437,"current_range_meters":29600,"station_id":"ce4bhm92rcd13ifvqglg","pricing_plan_id":"cebpf4jnsgd1na2vs0mg"},{"bike_id":"bd26570d-a2ca-49b3-9fa5-5c4606a10674","system_id":"levelo_inurba_marseille","lat":43.30946,"lon":5.39047,"is_reserved":false,"is_disabled":false,"rental_uris":{"android":"levelo://app?vid=bd26570d-a2ca-49b3-9fa5-5c4606a10674","ios":"levelo://app?vid=bd26570d-a2ca-49b3-9fa5-5c4606a10674"},"vehicle_type_id":"4","last_reported":1731417437,"current_range_meters":7200,"station_id":"ce4bgup2rcd13ifvqco0","pricing_plan_id":"cebpf4jnsgd1na2vs0mg"},{"bike_id":"5a600eae-0831-49a6-8b60-e89d4e136c61","system_id":"levelo_inurba_marseille","lat":43.29008,"lon":5.35616,"is_reserved":false,"is_disabled":false,"rental_uris":{"android":"levelo://app?vid=5a600eae-0831-49a6-8b60-e89d4e136c61","ios":"levelo://app?vid=5a600eae-0831-49a6-8b60-e89d4e136c61"},"vehicle_type_id":"4","last_reported":1731417437,"current_range_meters":8800,"station_id":"ce4bhb92rcd13ifvqen0","pricing_plan_id":"cebpf4jnsgd1na2vs0mg"},{"bike_id":"bbcd3432-7c91-4287-abb0-e58d1d91530d","system_id":"levelo_inurba_marseille","lat":43.30097,"lon":5.39086,"is_reserved":false,"is_disabled":false,"rental_uris":{"android":"levelo://app?vid=bbcd3432-7c91-4287-abb0-e58d1d91530d","ios":"levelo://app?vid=bbcd3432-7c91-4287-abb0-e58d1d91530d"},"vehicle_type_id":"4","last_reported":1731417437,"current_range_meters":32400,"station_id":"ce4bh192rcd13ifvqdb0","pricing_plan_id":"cebpf4jnsgd1na2vs0mg"},{"bike_id":"17e0f37a-2580-4ed0-be77-547ca60aa971","system_id":"levelo_inurba_marseille","lat":43.30143,"lon":5.37421,"is_reserved":false,"is_disabled":false,"rental_uris":{"android":"levelo://app?vid=17e0f37a-2580-4ed0-be77-547ca60aa971","ios":"levelo://app?vid=17e0f37a-2580-4ed0-be77-547ca60aa971"},"vehicle_type_id":"4","last_reported":1731417437,"current_range_meters":19200,"station_id":"ce4bgs92rcd13ifvqcc0","pricing_plan_id":"cebpf4jnsgd1na2vs0mg"},{"bike_id":"a751f3a5-286a-411d-98f7-0c4eecb102d9","system_id":"levelo_inurba_marseille","lat":43.29283,"lon":5.40122,"is_reserved":false,"is_disabled":false,"rental_uris":{"android":"levelo://app?vid=a751f3a5-286a-411d-98f7-0c4eecb102d9","ios":"levelo://app?vid=a751f3a5-286a-411d-98f7-0c4eecb102d9"},"vehicle_type_id":"4","last_reported":1731417437,"current_range_meters":38000,"station_id":"ce4bh312rcd13ifvqdk0","pricing_plan_id":"cebpf4jnsgd1na2vs0mg"},{"bike_id":"2d1792f0-af76-4d9e-9073-6b58abd1668b","system_id":"levelo_inurba_marseille","lat":43.27907,"lon":5.38011,"is_reserved":false,"is_disabled":false,"rental_uris":{"android":"levelo://app?vid=2d1792f0-af76-4d9e-9073-6b58abd1668b","ios":"levelo://app?vid=2d1792f0-af76-4d9e-9073-6b58abd1668b"},"vehicle_type_id":"4","last_reported":1731417437,"current_range_meters":39200,"station_id":"ce4bhf92rcd13ifvqf50","pricing_plan_id":"cebpf4jnsgd1na2vs0mg"},{"bike_id":"28ed024a-eca2-42ce-a85a-8ca29d72a8fa","system_id":"levelo_inurba_marseille","lat":43.29049,"lon":5.39954,"is_reserved":false,"is_disabled":false,"rental_uris":{"android":"levelo://app?vid=28ed024a-eca2-42ce-a85a-8ca29d72a8fa","ios":"levelo://app?vid=28ed024a-eca2-42ce-a85a-8ca29d72a8fa"},"vehicle_type_id":"4","last_reported":1731417437,"current_range_meters":29600,"station_id":"ce4bh392rcd13ifvqdm0","pricing_plan_id":"cebpf4jnsgd1na2vs0mg"},{"bike_id":"e99bf37f-004d-43bc-958e-87cb19a3e1e4","system_id":"levelo_inurba_marseille","lat":43.260639,"lon":5.394021,"is_reserved":false,"is_disabled":false,"rental_uris":{"android":"levelo://app?vid=e99bf37f-004d-43bc-958e-87cb19a3e1e4","ios":"levelo://app?vid=e99bf37f-004d-43bc-958e-87cb19a3e1e4"},"vehicle_type_id":"4","last_reported":1731417437,"current_range_meters":30000,"station_id":"ce4bhh92rcd13ifvqfj0","pricing_plan_id":"cebpf4jnsgd1na2vs0mg"},{"bike_id":"623602e4-06c6-444b-bd86-81778eae2704","system_id":"levelo_inurba_marseille","lat":43.28337,"lon":5.38078,"is_reserved":false,"is_disabled":false,"rental_uris":{"android":"levelo://app?vid=623602e4-06c6-444b-bd86-81778eae2704","ios":"levelo://app?vid=623602e4-06c6-444b-bd86-81778eae2704"},"vehicle_type_id":"4","last_reported":1731417437,"current_range_meters":27600,"station_id":"ce4bh412rcd13ifvqdr0","pricing_plan_id":"cebpf4jnsgd1na2vs0mg"},{"bike_id":"7c77f153-89f7-4f94-9d7b-5a3a3b371ccb","system_id":"levelo_inurba_marseille","lat":43.27913,"lon":5.39575,"is_reserved":false,"is_disabled":false,"rental_uris":{"android":"levelo://app?vid=7c77f153-89f7-4f94-9d7b-5a3a3b371ccb","ios":"levelo://app?vid=7c77f153-89f7-4f94-9d7b-5a3a3b371ccb"},"vehicle_type_id":"4","last_reported":1731417437,"current_range_meters":36000,"station_id":"ce4bhf92rcd13ifvqf40","pricing_plan_id":"cebpf4jnsgd1na2vs0mg"},{"bike_id":"e3a95f59-d69e-4831-bd3b-e0c8a101136d","system_id":"levelo_inurba_marseille","lat":43.31703,"lon":5.3776,"is_reserved":false,"is_disabled":false,"rental_uris":{"android":"levelo://app?vid=e3a95f59-d69e-4831-bd3b-e0c8a101136d","ios":"levelo://app?vid=e3a95f59-d69e-4831-bd3b-e0c8a101136d"},"vehicle_type_id":"4","last_reported":1731417437,"current_range_meters":31200,"station_id":"ce4bgth2rcd13ifvqch0","pricing_plan_id":"cebpf4jnsgd1na2vs0mg"},{"bike_id":"310bf956-2d0c-40fb-9411-0b80e8e2b383","system_id":"levelo_inurba_marseille","lat":43.3032,"lon":5.40447,"is_reserved":false,"is_disabled":false,"rental_uris":{"android":"levelo://app?vid=310bf956-2d0c-40fb-9411-0b80e8e2b383","ios":"levelo://app?vid=310bf956-2d0c-40fb-9411-0b80e8e2b383"},"vehicle_type_id":"4","last_reported":1731417437,"current_range_meters":6400,"station_id":"ce4bh012rcd13ifvqd10","pricing_plan_id":"cebpf4jnsgd1na2vs0mg"},{"bike_id":"e8e02d9c-9f18-44fb-893f-40424ddd086b","system_id":"levelo_inurba_marseille","lat":43.28459,"lon":5.359,"is_reserved":false,"is_disabled":false,"rental_uris":{"android":"levelo://app?vid=e8e02d9c-9f18-44fb-893f-40424ddd086b","ios":"levelo://app?vid=e8e02d9c-9f18-44fb-893f-40424ddd086b"},"vehicle_type_id":"4","last_reported":1731417437,"current_range_meters":40000,"station_id":"ce4bhah2rcd13ifvqei0","pricing_plan_id":"cebpf4jnsgd1na2vs0mg"},{"bike_id":"320a9af6-d4f5-4183-9dc1-2fcb22dfe9a7","system_id":"levelo_inurba_marseille","lat":43.30458,"lon":5.37906,"is_reserved":false,"is_disabled":false,"rental_uris":{"android":"levelo://app?vid=320a9af6-d4f5-4183-9dc1-2fcb22dfe9a7","ios":"levelo://app?vid=320a9af6-d4f5-4183-9dc1-2fcb22dfe9a7"},"vehicle_type_id":"4","last_reported":1731417437,"current_range_meters":39200,"station_id":"ce4bgup2rcd13ifvqcn0","pricing_plan_id":"cebpf4jnsgd1na2vs0mg"},{"bike_id":"8f16e5ba-6b74-47cb-ae3c-5981267e8c97","system_id":"levelo_inurba_marseille","lat":43.29714,"lon":5.36612,"is_reserved":false,"is_disabled":false,"rental_uris":{"android":"levelo://app?vid=8f16e5ba-6b74-47cb-ae3c-5981267e8c97","ios":"levelo://app?vid=8f16e5ba-6b74-47cb-ae3c-5981267e8c97"},"vehicle_type_id":"4","last_reported":1731417437,"current_range_meters":16800,"station_id":"ce4bgn12rcd13ifvqbt0","pricing_plan_id":"cebpf4jnsgd1na2vs0mg"},{"bike_id":"1740a8aa-c44f-4c36-a230-385a32395a5f","system_id":"levelo_inurba_marseille","lat":43.28726,"lon":5.36084,"is_reserved":false,"is_disabled":false,"rental_uris":{"android":"levelo://app?vid=1740a8aa-c44f-4c36-a230-385a32395a5f","ios":"levelo://app?vid=1740a8aa-c44f-4c36-a230-385a32395a5f"},"vehicle_type_id":"4","last_reported":1731417437,"current_range_meters":24000,"station_id":"cki0cbj6b192h4jlfktg","pricing_plan_id":"cebpf4jnsgd1na2vs0mg"},{"bike_id":"2dd7535a-c116-4669-8e1d-caa19e32b5ba","system_id":"levelo_inurba_marseille","lat":43.24078,"lon":5.37753,"is_reserved":false,"is_disabled":false,"rental_uris":{"android":"levelo://app?vid=2dd7535a-c116-4669-8e1d-caa19e32b5ba","ios":"levelo://app?vid=2dd7535a-c116-4669-8e1d-caa19e32b5ba"},"vehicle_type_id":"4","last_reported":1731417437,"current_range_meters":14800,"station_id":"ce4bhnp2rcd13ifvqgvg","pricing_plan_id":"cebpf4jnsgd1na2vs0mg"},{"bike_id":"2b3e0803-0bd7-448b-99a4-0fce636af499","system_id":"levelo_inurba_marseille","lat":43.30542,"lon":5.36532,"is_reserved":false,"is_disabled":false,"rental_uris":{"android":"levelo://app?vid=2b3e0803-0bd7-448b-99a4-0fce636af499","ios":"levelo://app?vid=2b3e0803-0bd7-448b-99a4-0fce636af499"},"vehicle_type_id":"4","last_reported":1731417437,"current_range_meters":28800,"station_id":"ce4bgs12rcd13ifvqcag","pricing_plan_id":"cebpf4jnsgd1na2vs0mg"},{"bike_id":"f3003102-7600-4296-ad8c-b621fb4a92b3","system_id":"levelo_inurba_marseille","lat":43.28941,"lon":5.36388,"is_reserved":false,"is_disabled":false,"rental_uris":{"android":"levelo://app?vid=f3003102-7600-4296-ad8c-b621fb4a92b3","ios":"levelo://app?vid=f3003102-7600-4296-ad8c-b621fb4a92b3"},"vehicle_type_id":"4","last_reported":1731417437,"current_range_meters":32400,"station_id":"ce4bhc92rcd13ifvqetg","pricing_plan_id":"cebpf4jnsgd1na2vs0mg"},{"bike_id":"fc818519-d1db-46e1-8384-9d8c8815487a","system_id":"levelo_inurba_marseille","lat":43.3055,"lon":5.36533,"is_reserved":false,"is_disabled":false,"rental_uris":{"android":"levelo://app?vid=fc818519-d1db-46e1-8384-9d8c8815487a","ios":"levelo://app?vid=fc818519-d1db-46e1-8384-9d8c8815487a"},"vehicle_type_id":"4","last_reported":1731417437,"current_range_meters":20000,"station_id":"ce4bgs12rcd13ifvqcag","pricing_plan_id":"cebpf4jnsgd1na2vs0mg"},{"bike_id":"8ac24647-eec0-42c8-97be-c751bce2e1bf","system_id":"levelo_inurba_marseille","lat":43.24071,"lon":5.37755,"is_reserved":false,"is_disabled":false,"rental_uris":{"android":"levelo://app?vid=8ac24647-eec0-42c8-97be-c751bce2e1bf","ios":"levelo://app?vid=8ac24647-eec0-42c8-97be-c751bce2e1bf"},"vehicle_type_id":"4","last_reported":1731417437,"current_range_meters":16800,"station_id":"ce4bhnp2rcd13ifvqgvg","pricing_plan_id":"cebpf4jnsgd1na2vs0mg"},{"bike_id":"212b6c3f-ace3-45e8-99f0-447547f69bd6","system_id":"levelo_inurba_marseille","lat":43.28001,"lon":5.41667,"is_reserved":false,"is_disabled":false,"rental_uris":{"android":"levelo://app?vid=212b6c3f-ace3-45e8-99f0-447547f69bd6","ios":"levelo://app?vid=212b6c3f-ace3-45e8-99f0-447547f69bd6"},"vehicle_type_id":"4","last_reported":1731417437,"current_range_meters":40000,"station_id":"ce4bho12rcd13ifvqh1g","pricing_plan_id":"cebpf4jnsgd1na2vs0mg"},{"bike_id":"5b923780-51a4-40e6-ad1c-e622ba0683f6","system_id":"levelo_inurba_marseille","lat":43.2408,"lon":5.37739,"is_reserved":false,"is_disabled":false,"rental_uris":{"android":"levelo://app?vid=5b923780-51a4-40e6-ad1c-e622ba0683f6","ios":"levelo://app?vid=5b923780-51a4-40e6-ad1c-e622ba0683f6"},"vehicle_type_id":"4","last_reported":1731417437,"current_range_meters":28400,"station_id":"ce4bhnp2rcd13ifvqgvg","pricing_plan_id":"cebpf4jnsgd1na2vs0mg"},{"bike_id":"960172c6-23a4-41d0-9469-6fbced3cceec","system_id":"levelo_inurba_marseille","lat":43.24386,"lon":5.37055,"is_reserved":false,"is_disabled":false,"rental_uris":{"android":"levelo://app?vid=960172c6-23a4-41d0-9469-6fbced3cceec","ios":"levelo://app?vid=960172c6-23a4-41d0-9469-6fbced3cceec"},"vehicle_type_id":"4","last_reported":1731417437,"current_range_meters":27200,"station_id":"ce4bhhh2rcd13ifvqfk0","pricing_plan_id":"cebpf4jnsgd1na2vs0mg"},{"bike_id":"3559050b-e3bb-4549-a2b3-bdfe2ddf3947","system_id":"levelo_inurba_marseille","lat":43.30953,"lon":5.3903,"is_reserved":false,"is_disabled":false,"rental_uris":{"android":"levelo://app?vid=3559050b-e3bb-4549-a2b3-bdfe2ddf3947","ios":"levelo://app?vid=3559050b-e3bb-4549-a2b3-bdfe2ddf3947"},"vehicle_type_id":"4","last_reported":1731417437,"current_range_meters":38800,"station_id":"ce4bgup2rcd13ifvqco0","pricing_plan_id":"cebpf4jnsgd1na2vs0mg"},{"bike_id":"986d0b41-bd0d-4053-9756-dde640f402ab","system_id":"levelo_inurba_marseille","lat":43.25824,"lon":5.39423,"is_reserved":false,"is_disabled":false,"rental_uris":{"android":"levelo://app?vid=986d0b41-bd0d-4053-9756-dde640f402ab","ios":"levelo://app?vid=986d0b41-bd0d-4053-9756-dde640f402ab"},"vehicle_type_id":"4","last_reported":1731417437,"current_range_meters":38400,"station_id":"ce4bhip2rcd13ifvqft0","pricing_plan_id":"cebpf4jnsgd1na2vs0mg"},{"bike_id":"a6fae25d-9953-4f30-ae3a-4e969c25e94c","system_id":"levelo_inurba_marseille","lat":43.26053,"lon":5.39403,"is_reserved":false,"is_disabled":false,"rental_uris":{"android":"levelo://app?vid=a6fae25d-9953-4f30-ae3a-4e969c25e94c","ios":"levelo://app?vid=a6fae25d-9953-4f30-ae3a-4e969c25e94c"},"vehicle_type_id":"4","last_reported":1731417437,"current_range_meters":39200,"station_id":"ce4bhh92rcd13ifvqfj0","pricing_plan_id":"cebpf4jnsgd1na2vs0mg"},{"bike_id":"6b5b780b-1915-41f3-95ca-02dd8c70600f","system_id":"levelo_inurba_marseille","lat":43.25488,"lon":5.37648,"is_reserved":false,"is_disabled":false,"rental_uris":{"android":"levelo://app?vid=6b5b780b-1915-41f3-95ca-02dd8c70600f","ios":"levelo://app?vid=6b5b780b-1915-41f3-95ca-02dd8c70600f"},"vehicle_type_id":"4","last_reported":1731417437,"current_range_meters":36000,"station_id":"ce4bhh12rcd13ifvqff0","pricing_plan_id":"cebpf4jnsgd1na2vs0mg"},{"bike_id":"ab3a1098-a1ec-4316-bd16-5eee6994d645","system_id":"levelo_inurba_marseille","lat":43.26571,"lon":5.39,"is_reserved":false,"is_disabled":false,"rental_uris":{"android":"levelo://app?vid=ab3a1098-a1ec-4316-bd16-5eee6994d645","ios":"levelo://app?vid=ab3a1098-a1ec-4316-bd16-5eee6994d645"},"vehicle_type_id":"4","last_reported":1731417437,"current_range_meters":14000,"station_id":"ce4bhe12rcd13ifvqf30","pricing_plan_id":"cebpf4jnsgd1na2vs0mg"},{"bike_id":"4c63f235-e9cc-4210-bae9-e21c561a3d2c","system_id":"levelo_inurba_marseille","lat":43.30185,"lon":5.36602,"is_reserved":false,"is_disabled":false,"rental_uris":{"android":"levelo://app?vid=4c63f235-e9cc-4210-bae9-e21c561a3d2c","ios":"levelo://app?vid=4c63f235-e9cc-4210-bae9-e21c561a3d2c"},"vehicle_type_id":"4","last_reported":1731417437,"current_range_meters":38800,"station_id":"ce4bgrh2rcd13ifvqc8g","pricing_plan_id":"cebpf4jnsgd1na2vs0mg"},{"bike_id":"647d87d8-ed03-4344-9ce2-6aeae85a7109","system_id":"levelo_inurba_marseille","lat":43.28567,"lon":5.39501,"is_reserved":false,"is_disabled":false,"rental_uris":{"android":"levelo://app?vid=647d87d8-ed03-4344-9ce2-6aeae85a7109","ios":"levelo://app?vid=647d87d8-ed03-4344-9ce2-6aeae85a7109"},"vehicle_type_id":"4","last_reported":1731417437,"current_range_meters":6000,"station_id":"ce4bh292rcd13ifvqdg0","pricing_plan_id":"cebpf4jnsgd1na2vs0mg"},{"bike_id":"2218d88e-b22a-49ec-bd75-53a2cb0db1e1","system_id":"levelo_inurba_marseille","lat":43.29377,"lon":5.37841,"is_reserved":false,"is_disabled":false,"rental_uris":{"android":"levelo://app?vid=2218d88e-b22a-49ec-bd75-53a2cb0db1e1","ios":"levelo://app?vid=2218d88e-b22a-49ec-bd75-53a2cb0db1e1"},"vehicle_type_id":"4","last_reported":1731417437,"current_range_meters":24400,"station_id":"ce4bgjh2rcd13ifvqbf0","pricing_plan_id":"cebpf4jnsgd1na2vs0mg"},{"bike_id":"fc9498f0-0bb9-4724-ad4e-bc81738e5dd8","system_id":"levelo_inurba_marseille","lat":43.24073,"lon":5.37753,"is_reserved":false,"is_disabled":false,"rental_uris":{"android":"levelo://app?vid=fc9498f0-0bb9-4724-ad4e-bc81738e5dd8","ios":"levelo://app?vid=fc9498f0-0bb9-4724-ad4e-bc81738e5dd8"},"vehicle_type_id":"4","last_reported":1731417437,"current_range_meters":12800,"station_id":"ce4bhnp2rcd13ifvqgvg","pricing_plan_id":"cebpf4jnsgd1na2vs0mg"},{"bike_id":"ac702bda-51a4-4f87-bb8b-945bd68c9bd2","system_id":"levelo_inurba_marseille","lat":43.27423,"lon":5.39421,"is_reserved":false,"is_disabled":false,"rental_uris":{"android":"levelo://app?vid=ac702bda-51a4-4f87-bb8b-945bd68c9bd2","ios":"levelo://app?vid=ac702bda-51a4-4f87-bb8b-945bd68c9bd2"},"vehicle_type_id":"4","last_reported":1731417437,"current_range_meters":30000,"station_id":"ce4bhdp2rcd13ifvqf20","pricing_plan_id":"cebpf4jnsgd1na2vs0mg"},{"bike_id":"3418ac43-f884-441f-8da3-861a705100f3","system_id":"levelo_inurba_marseille","lat":43.29002,"lon":5.35608,"is_reserved":false,"is_disabled":false,"rental_uris":{"android":"levelo://app?vid=3418ac43-f884-441f-8da3-861a705100f3","ios":"levelo://app?vid=3418ac43-f884-441f-8da3-861a705100f3"},"vehicle_type_id":"4","last_reported":1731417437,"current_range_meters":35600,"station_id":"ce4bhb92rcd13ifvqen0","pricing_plan_id":"cebpf4jnsgd1na2vs0mg"},{"bike_id":"5e7da7ec-49fe-4ae4-993a-f15e3fd6f06d","system_id":"levelo_inurba_marseille","lat":43.27487,"lon":5.42465,"is_reserved":false,"is_disabled":false,"rental_uris":{"android":"levelo://app?vid=5e7da7ec-49fe-4ae4-993a-f15e3fd6f06d","ios":"levelo://app?vid=5e7da7ec-49fe-4ae4-993a-f15e3fd6f06d"},"vehicle_type_id":"4","last_reported":1731417437,"current_range_meters":10000,"station_id":"ce4bhn92rcd13ifvqgrg","pricing_plan_id":"cebpf4jnsgd1na2vs0mg"},{"bike_id":"9ab19154-f624-4c4f-89e2-c425d485ab25","system_id":"levelo_inurba_marseille","lat":43.25003,"lon":5.38927,"is_reserved":false,"is_disabled":false,"rental_uris":{"android":"levelo://app?vid=9ab19154-f624-4c4f-89e2-c425d485ab25","ios":"levelo://app?vid=9ab19154-f624-4c4f-89e2-c425d485ab25"},"vehicle_type_id":"4","last_reported":1731417437,"current_range_meters":36000,"station_id":"ce4bhgp2rcd13ifvqfd0","pricing_plan_id":"cebpf4jnsgd1na2vs0mg"},{"bike_id":"31c32401-df06-402e-8dde-bc5d6c9fdeb1","system_id":"levelo_inurba_marseille","lat":43.28367,"lon":5.38628,"is_reserved":false,"is_disabled":false,"rental_uris":{"android":"levelo://app?vid=31c32401-df06-402e-8dde-bc5d6c9fdeb1","ios":"levelo://app?vid=31c32401-df06-402e-8dde-bc5d6c9fdeb1"},"vehicle_type_id":"4","last_reported":1731417437,"current_range_meters":39200,"station_id":"ce4bh492rcd13ifvqdvg","pricing_plan_id":"cebpf4jnsgd1na2vs0mg"},{"bike_id":"bdf0beac-151c-434e-af99-7b13a1d3236a","system_id":"levelo_inurba_marseille","lat":43.29262,"lon":5.36844,"is_reserved":false,"is_disabled":false,"rental_uris":{"android":"levelo://app?vid=bdf0beac-151c-434e-af99-7b13a1d3236a","ios":"levelo://app?vid=bdf0beac-151c-434e-af99-7b13a1d3236a"},"vehicle_type_id":"4","last_reported":1731417437,"current_range_meters":38000,"station_id":"ce4bhbp2rcd13ifvqesg","pricing_plan_id":"cebpf4jnsgd1na2vs0mg"},{"bike_id":"e981660b-80e2-40ff-a292-ec8b8a619da4","system_id":"levelo_inurba_marseille","lat":43.29248,"lon":5.36058,"is_reserved":false,"is_disabled":false,"rental_uris":{"android":"levelo://app?vid=e981660b-80e2-40ff-a292-ec8b8a619da4","ios":"levelo://app?vid=e981660b-80e2-40ff-a292-ec8b8a619da4"},"vehicle_type_id":"4","last_reported":1731417437,"current_range_meters":36800,"station_id":"ce4bhbh2rcd13ifvqeqg","pricing_plan_id":"cebpf4jnsgd1na2vs0mg"},{"bike_id":"4005ddf1-0e61-4574-92c1-8edf3681e4e2","system_id":"levelo_inurba_marseille","lat":43.3414,"lon":5.40906,"is_reserved":false,"is_disabled":false,"rental_uris":{"android":"levelo://app?vid=4005ddf1-0e61-4574-92c1-8edf3681e4e2","ios":"levelo://app?vid=4005ddf1-0e61-4574-92c1-8edf3681e4e2"},"vehicle_type_id":"4","last_reported":1731417437,"current_range_meters":35200,"station_id":"ce4bhqh2rcd13ifvqhlg","pricing_plan_id":"cebpf4jnsgd1na2vs0mg"},{"bike_id":"594177b5-d4e2-4078-b07a-3c829c1e9fc3","system_id":"levelo_inurba_marseille","lat":43.301399,"lon":5.374227,"is_reserved":false,"is_disabled":false,"rental_uris":{"android":"levelo://app?vid=594177b5-d4e2-4078-b07a-3c829c1e9fc3","ios":"levelo://app?vid=594177b5-d4e2-4078-b07a-3c829c1e9fc3"},"vehicle_type_id":"4","last_reported":1731417437,"current_range_meters":26800,"station_id":"ce4bgs92rcd13ifvqcc0","pricing_plan_id":"cebpf4jnsgd1na2vs0mg"},{"bike_id":"368db317-09e9-492c-9da7-a6c74ce12116","system_id":"levelo_inurba_marseille","lat":43.27813,"lon":5.4071,"is_reserved":false,"is_disabled":false,"rental_uris":{"android":"levelo://app?vid=368db317-09e9-492c-9da7-a6c74ce12116","ios":"levelo://app?vid=368db317-09e9-492c-9da7-a6c74ce12116"},"vehicle_type_id":"4","last_reported":1731417437,"current_range_meters":34000,"station_id":"ce4bhnh2rcd13ifvqgtg","pricing_plan_id":"cebpf4jnsgd1na2vs0mg"},{"bike_id":"0681ab7e-cefc-43a0-ba03-9f42a8d2dc0c","system_id":"levelo_inurba_marseille","lat":43.29035,"lon":5.38638,"is_reserved":false,"is_disabled":false,"rental_uris":{"android":"levelo://app?vid=0681ab7e-cefc-43a0-ba03-9f42a8d2dc0c","ios":"levelo://app?vid=0681ab7e-cefc-43a0-ba03-9f42a8d2dc0c"},"vehicle_type_id":"4","last_reported":1731417437,"current_range_meters":38800,"station_id":"ce4bh4p2rcd13ifvqe0g","pricing_plan_id":"cebpf4jnsgd1na2vs0mg"},{"bike_id":"02a3f1fa-1b00-4bb2-8845-d89d50875ff5","system_id":"levelo_inurba_marseille","lat":43.32364,"lon":5.38895,"is_reserved":false,"is_disabled":false,"rental_uris":{"android":"levelo://app?vid=02a3f1fa-1b00-4bb2-8845-d89d50875ff5","ios":"levelo://app?vid=02a3f1fa-1b00-4bb2-8845-d89d50875ff5"},"vehicle_type_id":"4","last_reported":1731417437,"current_range_meters":36800,"station_id":"ce4bhqp2rcd13ifvqhog","pricing_plan_id":"cebpf4jnsgd1na2vs0mg"},{"bike_id":"da1e89e2-3210-4014-8329-78e281a0a3ac","system_id":"levelo_inurba_marseille","lat":43.33614,"lon":5.41037,"is_reserved":false,"is_disabled":false,"rental_uris":{"android":"levelo://app?vid=da1e89e2-3210-4014-8329-78e281a0a3ac","ios":"levelo://app?vid=da1e89e2-3210-4014-8329-78e281a0a3ac"},"vehicle_type_id":"4","last_reported":1731417437,"current_range_meters":38000,"station_id":"ce4bhqh2rcd13ifvqhmg","pricing_plan_id":"cebpf4jnsgd1na2vs0mg"},{"bike_id":"91396e2c-9f64-4b07-9603-7237ff652da5","system_id":"levelo_inurba_marseille","lat":43.28156,"lon":5.42642,"is_reserved":false,"is_disabled":false,"rental_uris":{"android":"levelo://app?vid=91396e2c-9f64-4b07-9603-7237ff652da5","ios":"levelo://app?vid=91396e2c-9f64-4b07-9603-7237ff652da5"},"vehicle_type_id":"4","last_reported":1731417437,"current_range_meters":37600,"station_id":"ce4bhnh2rcd13ifvqgug","pricing_plan_id":"cebpf4jnsgd1na2vs0mg"},{"bike_id":"23371319-3326-4e94-b694-68f01aa3521f","system_id":"levelo_inurba_marseille","lat":43.337444,"lon":5.374475,"is_reserved":false,"is_disabled":false,"rental_uris":{"android":"levelo://app?vid=23371319-3326-4e94-b694-68f01aa3521f","ios":"levelo://app?vid=23371319-3326-4e94-b694-68f01aa3521f"},"vehicle_type_id":"4","last_reported":1731417437,"current_range_meters":37600,"station_id":"","pricing_plan_id":"cebpf4jnsgd1na2vs0mg"},{"bike_id":"daafac50-d1fb-44ef-8ca3-984e6ad5772a","system_id":"levelo_inurba_marseille","lat":43.25938,"lon":5.40898,"is_reserved":false,"is_disabled":false,"rental_uris":{"android":"levelo://app?vid=daafac50-d1fb-44ef-8ca3-984e6ad5772a","ios":"levelo://app?vid=daafac50-d1fb-44ef-8ca3-984e6ad5772a"},"vehicle_type_id":"4","last_reported":1731417437,"current_range_meters":35200,"station_id":"ce4bhm92rcd13ifvqglg","pricing_plan_id":"cebpf4jnsgd1na2vs0mg"},{"bike_id":"b413ee38-7f10-424a-b89a-050f0b950f64","system_id":"levelo_inurba_marseille","lat":43.29522,"lon":5.39039,"is_reserved":false,"is_disabled":false,"rental_uris":{"android":"levelo://app?vid=b413ee38-7f10-424a-b89a-050f0b950f64","ios":"levelo://app?vid=b413ee38-7f10-424a-b89a-050f0b950f64"},"vehicle_type_id":"4","last_reported":1731417437,"current_range_meters":38800,"station_id":"ce4bh3p2rcd13ifvqdp0","pricing_plan_id":"cebpf4jnsgd1na2vs0mg"},{"bike_id":"ea03d38b-e0a4-4353-b731-8b0c05bc93d9","system_id":"levelo_inurba_marseille","lat":43.29032,"lon":5.35927,"is_reserved":false,"is_disabled":false,"rental_uris":{"android":"levelo://app?vid=ea03d38b-e0a4-4353-b731-8b0c05bc93d9","ios":"levelo://app?vid=ea03d38b-e0a4-4353-b731-8b0c05bc93d9"},"vehicle_type_id":"4","last_reported":1731417437,"current_range_meters":39200,"station_id":"ce4bha92rcd13ifvqeg0","pricing_plan_id":"cebpf4jnsgd1na2vs0mg"},{"bike_id":"f6ec8717-1c2c-4c9c-90c5-29827b3ed065","system_id":"levelo_inurba_marseille","lat":43.28869,"lon":5.35852,"is_reserved":false,"is_disabled":false,"rental_uris":{"android":"levelo://app?vid=f6ec8717-1c2c-4c9c-90c5-29827b3ed065","ios":"levelo://app?vid=f6ec8717-1c2c-4c9c-90c5-29827b3ed065"},"vehicle_type_id":"4","last_reported":1731417437,"current_range_meters":4000,"station_id":"ce4bhb12rcd13ifvqem0","pricing_plan_id":"cebpf4jnsgd1na2vs0mg"},{"bike_id":"e4d8f0dd-43a2-4f26-8d98-25f8d913adf2","system_id":"levelo_inurba_marseille","lat":43.26562,"lon":5.39006,"is_reserved":false,"is_disabled":false,"rental_uris":{"android":"levelo://app?vid=e4d8f0dd-43a2-4f26-8d98-25f8d913adf2","ios":"levelo://app?vid=e4d8f0dd-43a2-4f26-8d98-25f8d913adf2"},"vehicle_type_id":"4","last_reported":1731417437,"current_range_meters":36000,"station_id":"ce4bhe12rcd13ifvqf30","pricing_plan_id":"cebpf4jnsgd1na2vs0mg"},{"bike_id":"e283ece9-f44a-4249-a146-3e8007c96da9","system_id":"levelo_inurba_marseille","lat":43.29097,"lon":5.38139,"is_reserved":false,"is_disabled":false,"rental_uris":{"android":"levelo://app?vid=e283ece9-f44a-4249-a146-3e8007c96da9","ios":"levelo://app?vid=e283ece9-f44a-4249-a146-3e8007c96da9"},"vehicle_type_id":"4","last_reported":1731417437,"current_range_meters":39200,"station_id":"ce4bh512rcd13ifvqe2g","pricing_plan_id":"cebpf4jnsgd1na2vs0mg"},{"bike_id":"d502d781-ddb6-4e5d-8f26-b54f907c73dd","system_id":"levelo_inurba_marseille","lat":43.29839,"lon":5.36276,"is_reserved":false,"is_disabled":false,"rental_uris":{"android":"levelo://app?vid=d502d781-ddb6-4e5d-8f26-b54f907c73dd","ios":"levelo://app?vid=d502d781-ddb6-4e5d-8f26-b54f907c73dd"},"vehicle_type_id":"4","last_reported":1731417437,"current_range_meters":14400,"station_id":"ce4bgpp2rcd13ifvqc3g","pricing_plan_id":"cebpf4jnsgd1na2vs0mg"},{"bike_id":"6339fb1a-3cd4-46c5-9b4c-c932b2f48b23","system_id":"levelo_inurba_marseille","lat":43.26949,"lon":5.38638,"is_reserved":false,"is_disabled":false,"rental_uris":{"android":"levelo://app?vid=6339fb1a-3cd4-46c5-9b4c-c932b2f48b23","ios":"levelo://app?vid=6339fb1a-3cd4-46c5-9b4c-c932b2f48b23"},"vehicle_type_id":"4","last_reported":1731417437,"current_range_meters":38800,"station_id":"ce4bhh92rcd13ifvqfh0","pricing_plan_id":"cebpf4jnsgd1na2vs0mg"},{"bike_id":"f7224742-1c5f-43de-b137-1abda0e4262a","system_id":"levelo_inurba_marseille","lat":43.33605,"lon":5.4103,"is_reserved":false,"is_disabled":false,"rental_uris":{"android":"levelo://app?vid=f7224742-1c5f-43de-b137-1abda0e4262a","ios":"levelo://app?vid=f7224742-1c5f-43de-b137-1abda0e4262a"},"vehicle_type_id":"4","last_reported":1731417437,"current_range_meters":39200,"station_id":"ce4bhqh2rcd13ifvqhmg","pricing_plan_id":"cebpf4jnsgd1na2vs0mg"},{"bike_id":"fec10551-f379-49ba-9ca2-8a635f99a617","system_id":"levelo_inurba_marseille","lat":43.337444,"lon":5.374475,"is_reserved":false,"is_disabled":false,"rental_uris":{"android":"levelo://app?vid=fec10551-f379-49ba-9ca2-8a635f99a617","ios":"levelo://app?vid=fec10551-f379-49ba-9ca2-8a635f99a617"},"vehicle_type_id":"4","last_reported":1731417437,"current_range_meters":35600,"station_id":"","pricing_plan_id":"cebpf4jnsgd1na2vs0mg"},{"bike_id":"979b0182-b0c0-414a-ac99-0bb48afc867b","system_id":"levelo_inurba_marseille","lat":43.27406,"lon":5.389558,"is_reserved":false,"is_disabled":false,"rental_uris":{"android":"levelo://app?vid=979b0182-b0c0-414a-ac99-0bb48afc867b","ios":"levelo://app?vid=979b0182-b0c0-414a-ac99-0bb48afc867b"},"vehicle_type_id":"4","last_reported":1731417437,"current_range_meters":14400,"station_id":"","pricing_plan_id":"cebpf4jnsgd1na2vs0mg"},{"bike_id":"4828d33f-464a-4c5e-a382-61e5ca1ba1b3","system_id":"levelo_inurba_marseille","lat":43.29201,"lon":5.35812,"is_reserved":false,"is_disabled":false,"rental_uris":{"android":"levelo://app?vid=4828d33f-464a-4c5e-a382-61e5ca1ba1b3","ios":"levelo://app?vid=4828d33f-464a-4c5e-a382-61e5ca1ba1b3"},"vehicle_type_id":"4","last_reported":1731417437,"current_range_meters":38000,"station_id":"ce4bhb12rcd13ifvqel0","pricing_plan_id":"cebpf4jnsgd1na2vs0mg"},{"bike_id":"b0df53d8-4899-4a0b-858b-061d8f5798f2","system_id":"levelo_inurba_marseille","lat":43.23149,"lon":5.43719,"is_reserved":false,"is_disabled":false,"rental_uris":{"android":"levelo://app?vid=b0df53d8-4899-4a0b-858b-061d8f5798f2","ios":"levelo://app?vid=b0df53d8-4899-4a0b-858b-061d8f5798f2"},"vehicle_type_id":"4","last_reported":1731417437,"current_range_meters":38800,"station_id":"ce4bhmp2rcd13ifvqgog","pricing_plan_id":"cebpf4jnsgd1na2vs0mg"},{"bike_id":"4459ab1b-6a6d-4e40-8c91-248fd89c21a2","system_id":"levelo_inurba_marseille","lat":43.30597,"lon":5.39365,"is_reserved":false,"is_disabled":false,"rental_uris":{"android":"levelo://app?vid=4459ab1b-6a6d-4e40-8c91-248fd89c21a2","ios":"levelo://app?vid=4459ab1b-6a6d-4e40-8c91-248fd89c21a2"},"vehicle_type_id":"4","last_reported":1731417437,"current_range_meters":30800,"station_id":"ce4bh0p2rcd13ifvqd80","pricing_plan_id":"cebpf4jnsgd1na2vs0mg"},{"bike_id":"ca8e5c5f-e3f7-4240-b01c-610c7aa768fb","system_id":"levelo_inurba_marseille","lat":43.26192,"lon":5.37446,"is_reserved":false,"is_disabled":false,"rental_uris":{"android":"levelo://app?vid=ca8e5c5f-e3f7-4240-b01c-610c7aa768fb","ios":"levelo://app?vid=ca8e5c5f-e3f7-4240-b01c-610c7aa768fb"},"vehicle_type_id":"4","last_reported":1731417437,"current_range_meters":36800,"station_id":"ce4bhgp2rcd13ifvqfc0","pricing_plan_id":"cebpf4jnsgd1na2vs0mg"},{"bike_id":"fddb5c98-efe0-4fd7-97de-6bff3111da24","system_id":"levelo_inurba_marseille","lat":43.30562,"lon":5.36545,"is_reserved":false,"is_disabled":false,"rental_uris":{"android":"levelo://app?vid=fddb5c98-efe0-4fd7-97de-6bff3111da24","ios":"levelo://app?vid=fddb5c98-efe0-4fd7-97de-6bff3111da24"},"vehicle_type_id":"4","last_reported":1731417437,"current_range_meters":32000,"station_id":"ce4bgs12rcd13ifvqcag","pricing_plan_id":"cebpf4jnsgd1na2vs0mg"},{"bike_id":"23363503-2f5e-447a-a474-8d1e75828622","system_id":"levelo_inurba_marseille","lat":43.29589,"lon":5.36734,"is_reserved":false,"is_disabled":false,"rental_uris":{"android":"levelo://app?vid=23363503-2f5e-447a-a474-8d1e75828622","ios":"levelo://app?vid=23363503-2f5e-447a-a474-8d1e75828622"},"vehicle_type_id":"4","last_reported":1731417437,"current_range_meters":39200,"station_id":"ce4bgph2rcd13ifvqc2g","pricing_plan_id":"cebpf4jnsgd1na2vs0mg"},{"bike_id":"28153c25-77fc-4021-ad30-689d290a678f","system_id":"levelo_inurba_marseille","lat":43.337444,"lon":5.374475,"is_reserved":false,"is_disabled":false,"rental_uris":{"android":"levelo://app?vid=28153c25-77fc-4021-ad30-689d290a678f","ios":"levelo://app?vid=28153c25-77fc-4021-ad30-689d290a678f"},"vehicle_type_id":"4","last_reported":1731417437,"current_range_meters":38000,"station_id":"","pricing_plan_id":"cebpf4jnsgd1na2vs0mg"},{"bike_id":"94439e2b-8635-4929-91b1-01d80a24b23b","system_id":"levelo_inurba_marseille","lat":43.24069,"lon":5.37766,"is_reserved":false,"is_disabled":false,"rental_uris":{"android":"levelo://app?vid=94439e2b-8635-4929-91b1-01d80a24b23b","ios":"levelo://app?vid=94439e2b-8635-4929-91b1-01d80a24b23b"},"vehicle_type_id":"4","last_reported":1731417437,"current_range_meters":39200,"station_id":"ce4bhnp2rcd13ifvqgvg","pricing_plan_id":"cebpf4jnsgd1na2vs0mg"},{"bike_id":"ac3319ff-f4fc-4a4a-9405-971d1f31dafa","system_id":"levelo_inurba_marseille","lat":43.25933,"lon":5.40906,"is_reserved":false,"is_disabled":false,"rental_uris":{"android":"levelo://app?vid=ac3319ff-f4fc-4a4a-9405-971d1f31dafa","ios":"levelo://app?vid=ac3319ff-f4fc-4a4a-9405-971d1f31dafa"},"vehicle_type_id":"4","last_reported":1731417437,"current_range_meters":33200,"station_id":"ce4bhm92rcd13ifvqglg","pricing_plan_id":"cebpf4jnsgd1na2vs0mg"},{"bike_id":"91030f84-0cf2-46c3-887a-4fcac4ec99de","system_id":"levelo_inurba_marseille","lat":43.28603,"lon":5.37063,"is_reserved":false,"is_disabled":false,"rental_uris":{"android":"levelo://app?vid=91030f84-0cf2-46c3-887a-4fcac4ec99de","ios":"levelo://app?vid=91030f84-0cf2-46c3-887a-4fcac4ec99de"},"vehicle_type_id":"4","last_reported":1731417437,"current_range_meters":39200,"station_id":"ce4bht12rcd13ifvqi60","pricing_plan_id":"cebpf4jnsgd1na2vs0mg"},{"bike_id":"d03b96af-cef9-43ff-bbb9-126d7848b5bf","system_id":"levelo_inurba_marseille","lat":43.27049,"lon":5.40271,"is_reserved":false,"is_disabled":false,"rental_uris":{"android":"levelo://app?vid=d03b96af-cef9-43ff-bbb9-126d7848b5bf","ios":"levelo://app?vid=d03b96af-cef9-43ff-bbb9-126d7848b5bf"},"vehicle_type_id":"4","last_reported":1731417437,"current_range_meters":32400,"station_id":"ce4bhk92rcd13ifvqgc0","pricing_plan_id":"cebpf4jnsgd1na2vs0mg"},{"bike_id":"640a8c51-d5b4-4a2f-86db-339cff3ee8bc","system_id":"levelo_inurba_marseille","lat":43.24541,"lon":5.39527,"is_reserved":false,"is_disabled":false,"rental_uris":{"android":"levelo://app?vid=640a8c51-d5b4-4a2f-86db-339cff3ee8bc","ios":"levelo://app?vid=640a8c51-d5b4-4a2f-86db-339cff3ee8bc"},"vehicle_type_id":"4","last_reported":1731417437,"current_range_meters":38800,"station_id":"ce4bhlp2rcd13ifvqgjg","pricing_plan_id":"cebpf4jnsgd1na2vs0mg"},{"bike_id":"4d4d33a0-86d7-4ac2-92f4-210a4f996849","system_id":"levelo_inurba_marseille","lat":43.30772,"lon":5.37654,"is_reserved":false,"is_disabled":false,"rental_uris":{"android":"levelo://app?vid=4d4d33a0-86d7-4ac2-92f4-210a4f996849","ios":"levelo://app?vid=4d4d33a0-86d7-4ac2-92f4-210a4f996849"},"vehicle_type_id":"4","last_reported":1731417437,"current_range_meters":38000,"station_id":"ce4bgv92rcd13ifvqcq0","pricing_plan_id":"cebpf4jnsgd1na2vs0mg"},{"bike_id":"465a66a3-6a91-4be0-b927-1d8a6f45b3d5","system_id":"levelo_inurba_marseille","lat":43.30216,"lon":5.39465,"is_reserved":false,"is_disabled":false,"rental_uris":{"android":"levelo://app?vid=465a66a3-6a91-4be0-b927-1d8a6f45b3d5","ios":"levelo://app?vid=465a66a3-6a91-4be0-b927-1d8a6f45b3d5"},"vehicle_type_id":"4","last_reported":1731417437,"current_range_meters":33200,"station_id":"ce4bh0p2rcd13ifvqd70","pricing_plan_id":"cebpf4jnsgd1na2vs0mg"},{"bike_id":"a47de0d2-fa11-4e58-936c-b9a545aa01ef","system_id":"levelo_inurba_marseille","lat":43.24075,"lon":5.37761,"is_reserved":false,"is_disabled":false,"rental_uris":{"android":"levelo://app?vid=a47de0d2-fa11-4e58-936c-b9a545aa01ef","ios":"levelo://app?vid=a47de0d2-fa11-4e58-936c-b9a545aa01ef"},"vehicle_type_id":"4","last_reported":1731417437,"current_range_meters":34800,"station_id":"ce4bhnp2rcd13ifvqgvg","pricing_plan_id":"cebpf4jnsgd1na2vs0mg"},{"bike_id":"29b16ad0-7c34-46f1-b49b-badaed3ac810","system_id":"levelo_inurba_marseille","lat":43.31352,"lon":5.36728,"is_reserved":false,"is_disabled":false,"rental_uris":{"android":"levelo://app?vid=29b16ad0-7c34-46f1-b49b-badaed3ac810","ios":"levelo://app?vid=29b16ad0-7c34-46f1-b49b-badaed3ac810"},"vehicle_type_id":"4","last_reported":1731417437,"current_range_meters":38800,"station_id":"ce4bgr92rcd13ifvqc6g","pricing_plan_id":"cebpf4jnsgd1na2vs0mg"},{"bike_id":"2ef04947-c25c-4fe2-a891-7678bc8d660e","system_id":"levelo_inurba_marseille","lat":43.2969,"lon":5.37295,"is_reserved":false,"is_disabled":false,"rental_uris":{"android":"levelo://app?vid=2ef04947-c25c-4fe2-a891-7678bc8d660e","ios":"levelo://app?vid=2ef04947-c25c-4fe2-a891-7678bc8d660e"},"vehicle_type_id":"4","last_reported":1731417437,"current_range_meters":38000,"station_id":"ce4bgk12rcd13ifvqbj0","pricing_plan_id":"cebpf4jnsgd1na2vs0mg"},{"bike_id":"71719d79-1676-47aa-8f24-857276a3146a","system_id":"levelo_inurba_marseille","lat":43.25683,"lon":5.41014,"is_reserved":false,"is_disabled":false,"rental_uris":{"android":"levelo://app?vid=71719d79-1676-47aa-8f24-857276a3146a","ios":"levelo://app?vid=71719d79-1676-47aa-8f24-857276a3146a"},"vehicle_type_id":"4","last_reported":1731417437,"current_range_meters":27200,"station_id":"ce4bhkp2rcd13ifvqgd0","pricing_plan_id":"cebpf4jnsgd1na2vs0mg"},{"bike_id":"51652ddf-dcfe-4378-9048-ec231d3dcb2a","system_id":"levelo_inurba_marseille","lat":43.28667,"lon":5.38666,"is_reserved":false,"is_disabled":false,"rental_uris":{"android":"levelo://app?vid=51652ddf-dcfe-4378-9048-ec231d3dcb2a","ios":"levelo://app?vid=51652ddf-dcfe-4378-9048-ec231d3dcb2a"},"vehicle_type_id":"4","last_reported":1731417437,"current_range_meters":38800,"station_id":"ce4bh492rcd13ifvqdug","pricing_plan_id":"cebpf4jnsgd1na2vs0mg"},{"bike_id":"c8e7954d-807c-42c4-9428-45b282cd8008","system_id":"levelo_inurba_marseille","lat":43.30211,"lon":5.394665,"is_reserved":false,"is_disabled":false,"rental_uris":{"android":"levelo://app?vid=c8e7954d-807c-42c4-9428-45b282cd8008","ios":"levelo://app?vid=c8e7954d-807c-42c4-9428-45b282cd8008"},"vehicle_type_id":"4","last_reported":1731417437,"current_range_meters":38400,"station_id":"ce4bh0p2rcd13ifvqd70","pricing_plan_id":"cebpf4jnsgd1na2vs0mg"},{"bike_id":"ff662199-ff74-4c0b-bff3-b1c4365f348b","system_id":"levelo_inurba_marseille","lat":43.24083,"lon":5.37745,"is_reserved":false,"is_disabled":false,"rental_uris":{"android":"levelo://app?vid=ff662199-ff74-4c0b-bff3-b1c4365f348b","ios":"levelo://app?vid=ff662199-ff74-4c0b-bff3-b1c4365f348b"},"vehicle_type_id":"4","last_reported":1731417437,"current_range_meters":35600,"station_id":"ce4bhnp2rcd13ifvqgvg","pricing_plan_id":"cebpf4jnsgd1na2vs0mg"},{"bike_id":"71a649ef-ed3c-4201-bbe7-3f4c92d1bb6e","system_id":"levelo_inurba_marseille","lat":43.2952,"lon":5.39037,"is_reserved":false,"is_disabled":false,"rental_uris":{"android":"levelo://app?vid=71a649ef-ed3c-4201-bbe7-3f4c92d1bb6e","ios":"levelo://app?vid=71a649ef-ed3c-4201-bbe7-3f4c92d1bb6e"},"vehicle_type_id":"4","last_reported":1731417437,"current_range_meters":33600,"station_id":"ce4bh3p2rcd13ifvqdp0","pricing_plan_id":"cebpf4jnsgd1na2vs0mg"},{"bike_id":"a8b10452-9f1a-43a7-93f0-d4a153b64fbf","system_id":"levelo_inurba_marseille","lat":43.23145,"lon":5.43721,"is_reserved":false,"is_disabled":false,"rental_uris":{"android":"levelo://app?vid=a8b10452-9f1a-43a7-93f0-d4a153b64fbf","ios":"levelo://app?vid=a8b10452-9f1a-43a7-93f0-d4a153b64fbf"},"vehicle_type_id":"4","last_reported":1731417437,"current_range_meters":38800,"station_id":"ce4bhmp2rcd13ifvqgog","pricing_plan_id":"cebpf4jnsgd1na2vs0mg"},{"bike_id":"402dc5db-5596-4069-b071-0d017adc840b","system_id":"levelo_inurba_marseille","lat":43.26936,"lon":5.3894,"is_reserved":false,"is_disabled":false,"rental_uris":{"android":"levelo://app?vid=402dc5db-5596-4069-b071-0d017adc840b","ios":"levelo://app?vid=402dc5db-5596-4069-b071-0d017adc840b"},"vehicle_type_id":"4","last_reported":1731417437,"current_range_meters":29600,"station_id":"ce4bhhh2rcd13ifvqfl0","pricing_plan_id":"cebpf4jnsgd1na2vs0mg"},{"bike_id":"8801a9ab-2cdf-4db6-a265-83c3b290056e","system_id":"levelo_inurba_marseille","lat":43.30092,"lon":5.39082,"is_reserved":false,"is_disabled":false,"rental_uris":{"android":"levelo://app?vid=8801a9ab-2cdf-4db6-a265-83c3b290056e","ios":"levelo://app?vid=8801a9ab-2cdf-4db6-a265-83c3b290056e"},"vehicle_type_id":"4","last_reported":1731417437,"current_range_meters":8000,"station_id":"ce4bh192rcd13ifvqdb0","pricing_plan_id":"cebpf4jnsgd1na2vs0mg"},{"bike_id":"dace8dfc-5f07-41cf-96fd-9ddd4b1c832d","system_id":"levelo_inurba_marseille","lat":43.26952,"lon":5.38628,"is_reserved":false,"is_disabled":false,"rental_uris":{"android":"levelo://app?vid=dace8dfc-5f07-41cf-96fd-9ddd4b1c832d","ios":"levelo://app?vid=dace8dfc-5f07-41cf-96fd-9ddd4b1c832d"},"vehicle_type_id":"4","last_reported":1731417437,"current_range_meters":17200,"station_id":"ce4bhh92rcd13ifvqfh0","pricing_plan_id":"cebpf4jnsgd1na2vs0mg"},{"bike_id":"7e8fca00-ba30-43fe-abd0-d83f1b42f060","system_id":"levelo_inurba_marseille","lat":43.30136,"lon":5.39874,"is_reserved":false,"is_disabled":false,"rental_uris":{"android":"levelo://app?vid=7e8fca00-ba30-43fe-abd0-d83f1b42f060","ios":"levelo://app?vid=7e8fca00-ba30-43fe-abd0-d83f1b42f060"},"vehicle_type_id":"4","last_reported":1731417437,"current_range_meters":9200,"station_id":"ce4bh0h2rcd13ifvqd40","pricing_plan_id":"cebpf4jnsgd1na2vs0mg"},{"bike_id":"e20e371e-0ac8-4f8a-8e0a-12e9bf345f5e","system_id":"levelo_inurba_marseille","lat":43.27069,"lon":5.42281,"is_reserved":false,"is_disabled":false,"rental_uris":{"android":"levelo://app?vid=e20e371e-0ac8-4f8a-8e0a-12e9bf345f5e","ios":"levelo://app?vid=e20e371e-0ac8-4f8a-8e0a-12e9bf345f5e"},"vehicle_type_id":"4","last_reported":1731417437,"current_range_meters":31200,"station_id":"ce4bhk92rcd13ifvqgb0","pricing_plan_id":"cebpf4jnsgd1na2vs0mg"},{"bike_id":"8af32e73-6dde-4e16-ab05-724c3cce65dc","system_id":"levelo_inurba_marseille","lat":43.2937,"lon":5.37847,"is_reserved":false,"is_disabled":false,"rental_uris":{"android":"levelo://app?vid=8af32e73-6dde-4e16-ab05-724c3cce65dc","ios":"levelo://app?vid=8af32e73-6dde-4e16-ab05-724c3cce65dc"},"vehicle_type_id":"4","last_reported":1731417437,"current_range_meters":38400,"station_id":"ce4bgjh2rcd13ifvqbf0","pricing_plan_id":"cebpf4jnsgd1na2vs0mg"},{"bike_id":"9233cbfc-3039-4b18-ae97-3be7b3743f94","system_id":"levelo_inurba_marseille","lat":43.29936,"lon":5.36538,"is_reserved":false,"is_disabled":false,"rental_uris":{"android":"levelo://app?vid=9233cbfc-3039-4b18-ae97-3be7b3743f94","ios":"levelo://app?vid=9233cbfc-3039-4b18-ae97-3be7b3743f94"},"vehicle_type_id":"4","last_reported":1731417437,"current_range_meters":18800,"station_id":"ce4bgm92rcd13ifvqbr0","pricing_plan_id":"cebpf4jnsgd1na2vs0mg"},{"bike_id":"a7fa391a-5e9a-4306-ab89-3411e5df4996","system_id":"levelo_inurba_marseille","lat":43.33019,"lon":5.39027,"is_reserved":false,"is_disabled":false,"rental_uris":{"android":"levelo://app?vid=a7fa391a-5e9a-4306-ab89-3411e5df4996","ios":"levelo://app?vid=a7fa391a-5e9a-4306-ab89-3411e5df4996"},"vehicle_type_id":"4","last_reported":1731417437,"current_range_meters":38400,"station_id":"ce4bhr92rcd13ifvqhrg","pricing_plan_id":"cebpf4jnsgd1na2vs0mg"},{"bike_id":"5817e958-deb7-4799-af1a-ed194ead4717","system_id":"levelo_inurba_marseille","lat":43.29204,"lon":5.39333,"is_reserved":false,"is_disabled":false,"rental_uris":{"android":"levelo://app?vid=5817e958-deb7-4799-af1a-ed194ead4717","ios":"levelo://app?vid=5817e958-deb7-4799-af1a-ed194ead4717"},"vehicle_type_id":"4","last_reported":1731417437,"current_range_meters":38000,"station_id":"ce4bh192rcd13ifvqdd0","pricing_plan_id":"cebpf4jnsgd1na2vs0mg"},{"bike_id":"5b43c497-1004-47a9-9ab6-ddfd468ee01e","system_id":"levelo_inurba_marseille","lat":43.28981,"lon":5.37831,"is_reserved":false,"is_disabled":false,"rental_uris":{"android":"levelo://app?vid=5b43c497-1004-47a9-9ab6-ddfd468ee01e","ios":"levelo://app?vid=5b43c497-1004-47a9-9ab6-ddfd468ee01e"},"vehicle_type_id":"4","last_reported":1731417437,"current_range_meters":25600,"station_id":"ce4bh9p2rcd13ifvqed0","pricing_plan_id":"cebpf4jnsgd1na2vs0mg"},{"bike_id":"ca628aaa-dc96-44b7-930e-e20066c665c4","system_id":"levelo_inurba_marseille","lat":43.29438,"lon":5.39753,"is_reserved":false,"is_disabled":false,"rental_uris":{"android":"levelo://app?vid=ca628aaa-dc96-44b7-930e-e20066c665c4","ios":"levelo://app?vid=ca628aaa-dc96-44b7-930e-e20066c665c4"},"vehicle_type_id":"4","last_reported":1731417437,"current_range_meters":38000,"station_id":"ce4bh3h2rcd13ifvqdo0","pricing_plan_id":"cebpf4jnsgd1na2vs0mg"},{"bike_id":"42d52a67-a111-45ff-b216-f95ab26ba86a","system_id":"levelo_inurba_marseille","lat":43.30531,"lon":5.36536,"is_reserved":false,"is_disabled":false,"rental_uris":{"android":"levelo://app?vid=42d52a67-a111-45ff-b216-f95ab26ba86a","ios":"levelo://app?vid=42d52a67-a111-45ff-b216-f95ab26ba86a"},"vehicle_type_id":"4","last_reported":1731417437,"current_range_meters":32400,"station_id":"ce4bgs12rcd13ifvqcag","pricing_plan_id":"cebpf4jnsgd1na2vs0mg"},{"bike_id":"c5e48c76-8416-4ddf-b205-1665e45f83aa","system_id":"levelo_inurba_marseille","lat":43.229241,"lon":5.353778,"is_reserved":false,"is_disabled":false,"rental_uris":{"android":"levelo://app?vid=c5e48c76-8416-4ddf-b205-1665e45f83aa","ios":"levelo://app?vid=c5e48c76-8416-4ddf-b205-1665e45f83aa"},"vehicle_type_id":"4","last_reported":1731417437,"current_range_meters":36400,"station_id":"cpo3532slgdg3j2ikp40","pricing_plan_id":"cebpf4jnsgd1na2vs0mg"},{"bike_id":"0c3032d8-c89b-4f2d-8763-b8a42f6ed7c0","system_id":"levelo_inurba_marseille","lat":43.29204,"lon":5.39316,"is_reserved":false,"is_disabled":false,"rental_uris":{"android":"levelo://app?vid=0c3032d8-c89b-4f2d-8763-b8a42f6ed7c0","ios":"levelo://app?vid=0c3032d8-c89b-4f2d-8763-b8a42f6ed7c0"},"vehicle_type_id":"4","last_reported":1731417437,"current_range_meters":28000,"station_id":"ce4bh192rcd13ifvqdd0","pricing_plan_id":"cebpf4jnsgd1na2vs0mg"},{"bike_id":"1de9a05a-c632-4239-8c8c-40cbff71217b","system_id":"levelo_inurba_marseille","lat":43.29283,"lon":5.40117,"is_reserved":false,"is_disabled":false,"rental_uris":{"android":"levelo://app?vid=1de9a05a-c632-4239-8c8c-40cbff71217b","ios":"levelo://app?vid=1de9a05a-c632-4239-8c8c-40cbff71217b"},"vehicle_type_id":"4","last_reported":1731417437,"current_range_meters":36000,"station_id":"ce4bh312rcd13ifvqdk0","pricing_plan_id":"cebpf4jnsgd1na2vs0mg"},{"bike_id":"d3d88389-bd60-4947-8db6-b3fd375e6183","system_id":"levelo_inurba_marseille","lat":43.23956,"lon":5.36627,"is_reserved":false,"is_disabled":false,"rental_uris":{"android":"levelo://app?vid=d3d88389-bd60-4947-8db6-b3fd375e6183","ios":"levelo://app?vid=d3d88389-bd60-4947-8db6-b3fd375e6183"},"vehicle_type_id":"4","last_reported":1731417437,"current_range_meters":36800,"station_id":"ce4bhi12rcd13ifvqfp0","pricing_plan_id":"cebpf4jnsgd1na2vs0mg"},{"bike_id":"6affe10b-211a-4891-9384-227ee69896db","system_id":"levelo_inurba_marseille","lat":43.29095,"lon":5.38134,"is_reserved":false,"is_disabled":false,"rental_uris":{"android":"levelo://app?vid=6affe10b-211a-4891-9384-227ee69896db","ios":"levelo://app?vid=6affe10b-211a-4891-9384-227ee69896db"},"vehicle_type_id":"4","last_reported":1731417437,"current_range_meters":38800,"station_id":"ce4bh512rcd13ifvqe2g","pricing_plan_id":"cebpf4jnsgd1na2vs0mg"},{"bike_id":"9b5a3a92-5740-4277-bcb0-01249ff40604","system_id":"levelo_inurba_marseille","lat":43.27976,"lon":5.38755,"is_reserved":false,"is_disabled":false,"rental_uris":{"android":"levelo://app?vid=9b5a3a92-5740-4277-bcb0-01249ff40604","ios":"levelo://app?vid=9b5a3a92-5740-4277-bcb0-01249ff40604"},"vehicle_type_id":"4","last_reported":1731417437,"current_range_meters":39200,"station_id":"ce4bhg12rcd13ifvqf80","pricing_plan_id":"cebpf4jnsgd1na2vs0mg"},{"bike_id":"28858b7c-7f98-4729-af58-f5c891cf23b1","system_id":"levelo_inurba_marseille","lat":43.29787,"lon":5.39354,"is_reserved":false,"is_disabled":false,"rental_uris":{"android":"levelo://app?vid=28858b7c-7f98-4729-af58-f5c891cf23b1","ios":"levelo://app?vid=28858b7c-7f98-4729-af58-f5c891cf23b1"},"vehicle_type_id":"4","last_reported":1731417437,"current_range_meters":35200,"station_id":"chh1huq6cuj3fo74tm60","pricing_plan_id":"cebpf4jnsgd1na2vs0mg"},{"bike_id":"f46fb145-cccc-4992-92f3-a34e899044af","system_id":"levelo_inurba_marseille","lat":43.29974,"lon":5.37178,"is_reserved":false,"is_disabled":false,"rental_uris":{"android":"levelo://app?vid=f46fb145-cccc-4992-92f3-a34e899044af","ios":"levelo://app?vid=f46fb145-cccc-4992-92f3-a34e899044af"},"vehicle_type_id":"4","last_reported":1731417437,"current_range_meters":37600,"station_id":"ce4bgr92rcd13ifvqc7g","pricing_plan_id":"cebpf4jnsgd1na2vs0mg"},{"bike_id":"c4462b4f-07ed-4b5e-bf6e-9a1af451a07e","system_id":"levelo_inurba_marseille","lat":43.29621,"lon":5.37164,"is_reserved":false,"is_disabled":false,"rental_uris":{"android":"levelo://app?vid=c4462b4f-07ed-4b5e-bf6e-9a1af451a07e","ios":"levelo://app?vid=c4462b4f-07ed-4b5e-bf6e-9a1af451a07e"},"vehicle_type_id":"4","last_reported":1731417437,"current_range_meters":28000,"station_id":"ce4bgnh2rcd13ifvqc0g","pricing_plan_id":"cebpf4jnsgd1na2vs0mg"},{"bike_id":"791345a1-d078-467a-b22f-33b43d0b3aa5","system_id":"levelo_inurba_marseille","lat":43.337444,"lon":5.374475,"is_reserved":false,"is_disabled":false,"rental_uris":{"android":"levelo://app?vid=791345a1-d078-467a-b22f-33b43d0b3aa5","ios":"levelo://app?vid=791345a1-d078-467a-b22f-33b43d0b3aa5"},"vehicle_type_id":"4","last_reported":1731417437,"current_range_meters":38000,"station_id":"","pricing_plan_id":"cebpf4jnsgd1na2vs0mg"},{"bike_id":"daa6014d-57d3-43d2-b22f-811394452eba","system_id":"levelo_inurba_marseille","lat":43.23151,"lon":5.43724,"is_reserved":false,"is_disabled":false,"rental_uris":{"android":"levelo://app?vid=daa6014d-57d3-43d2-b22f-811394452eba","ios":"levelo://app?vid=daa6014d-57d3-43d2-b22f-811394452eba"},"vehicle_type_id":"4","last_reported":1731417437,"current_range_meters":38800,"station_id":"ce4bhmp2rcd13ifvqgog","pricing_plan_id":"cebpf4jnsgd1na2vs0mg"},{"bike_id":"e403f88f-668d-45d1-9955-21fad772752a","system_id":"levelo_inurba_marseille","lat":43.30314,"lon":5.36906,"is_reserved":false,"is_disabled":false,"rental_uris":{"android":"levelo://app?vid=e403f88f-668d-45d1-9955-21fad772752a","ios":"levelo://app?vid=e403f88f-668d-45d1-9955-21fad772752a"},"vehicle_type_id":"4","last_reported":1731417437,"current_range_meters":38800,"station_id":"ce4bgqh2rcd13ifvqc5g","pricing_plan_id":"cebpf4jnsgd1na2vs0mg"},{"bike_id":"16efff65-970a-4325-b56d-fd0a0df56e3d","system_id":"levelo_inurba_marseille","lat":43.26956,"lon":5.38617,"is_reserved":false,"is_disabled":false,"rental_uris":{"android":"levelo://app?vid=16efff65-970a-4325-b56d-fd0a0df56e3d","ios":"levelo://app?vid=16efff65-970a-4325-b56d-fd0a0df56e3d"},"vehicle_type_id":"4","last_reported":1731417437,"current_range_meters":4000,"station_id":"ce4bhh92rcd13ifvqfh0","pricing_plan_id":"cebpf4jnsgd1na2vs0mg"},{"bike_id":"91526d85-6d2f-4b0d-b668-d1a556d90682","system_id":"levelo_inurba_marseille","lat":43.31993,"lon":5.38151,"is_reserved":false,"is_disabled":false,"rental_uris":{"android":"levelo://app?vid=91526d85-6d2f-4b0d-b668-d1a556d90682","ios":"levelo://app?vid=91526d85-6d2f-4b0d-b668-d1a556d90682"},"vehicle_type_id":"4","last_reported":1731417437,"current_range_meters":39200,"station_id":"ce4bhr12rcd13ifvqhpg","pricing_plan_id":"cebpf4jnsgd1na2vs0mg"},{"bike_id":"5620aab5-9ff9-4a0a-ab79-ef86252fe385","system_id":"levelo_inurba_marseille","lat":43.26798,"lon":5.40262,"is_reserved":false,"is_disabled":false,"rental_uris":{"android":"levelo://app?vid=5620aab5-9ff9-4a0a-ab79-ef86252fe385","ios":"levelo://app?vid=5620aab5-9ff9-4a0a-ab79-ef86252fe385"},"vehicle_type_id":"4","last_reported":1731417437,"current_range_meters":38400,"station_id":"ce501612rcd8frsf0b60","pricing_plan_id":"cebpf4jnsgd1na2vs0mg"},{"bike_id":"4d12bd78-524f-459e-9d71-db1e9b3e042f","system_id":"levelo_inurba_marseille","lat":43.2695,"lon":5.38636,"is_reserved":false,"is_disabled":false,"rental_uris":{"android":"levelo://app?vid=4d12bd78-524f-459e-9d71-db1e9b3e042f","ios":"levelo://app?vid=4d12bd78-524f-459e-9d71-db1e9b3e042f"},"vehicle_type_id":"4","last_reported":1731417437,"current_range_meters":33200,"station_id":"ce4bhh92rcd13ifvqfh0","pricing_plan_id":"cebpf4jnsgd1na2vs0mg"},{"bike_id":"e1f2424d-96e3-41c7-9f8d-6dd18a27c6ce","system_id":"levelo_inurba_marseille","lat":43.27429,"lon":5.39422,"is_reserved":false,"is_disabled":false,"rental_uris":{"android":"levelo://app?vid=e1f2424d-96e3-41c7-9f8d-6dd18a27c6ce","ios":"levelo://app?vid=e1f2424d-96e3-41c7-9f8d-6dd18a27c6ce"},"vehicle_type_id":"4","last_reported":1731417437,"current_range_meters":40000,"station_id":"ce4bhdp2rcd13ifvqf20","pricing_plan_id":"cebpf4jnsgd1na2vs0mg"},{"bike_id":"07462640-5a0e-4a22-8313-b0645a14d0f9","system_id":"levelo_inurba_marseille","lat":43.29912,"lon":5.3814,"is_reserved":false,"is_disabled":false,"rental_uris":{"android":"levelo://app?vid=07462640-5a0e-4a22-8313-b0645a14d0f9","ios":"levelo://app?vid=07462640-5a0e-4a22-8313-b0645a14d0f9"},"vehicle_type_id":"4","last_reported":1731417437,"current_range_meters":36800,"station_id":"ce4bgj12rcd13ifvqbc0","pricing_plan_id":"cebpf4jnsgd1na2vs0mg"},{"bike_id":"f0a40cc6-a1da-4af9-a14b-5e586331dd8e","system_id":"levelo_inurba_marseille","lat":43.29921,"lon":5.37476,"is_reserved":false,"is_disabled":false,"rental_uris":{"android":"levelo://app?vid=f0a40cc6-a1da-4af9-a14b-5e586331dd8e","ios":"levelo://app?vid=f0a40cc6-a1da-4af9-a14b-5e586331dd8e"},"vehicle_type_id":"4","last_reported":1731417437,"current_range_meters":8000,"station_id":"ce4bgjh2rcd13ifvqbg0","pricing_plan_id":"cebpf4jnsgd1na2vs0mg"},{"bike_id":"c1b8d31c-a84c-452b-a37c-c4439ca46883","system_id":"levelo_inurba_marseille","lat":43.28658,"lon":5.363503,"is_reserved":false,"is_disabled":false,"rental_uris":{"android":"levelo://app?vid=c1b8d31c-a84c-452b-a37c-c4439ca46883","ios":"levelo://app?vid=c1b8d31c-a84c-452b-a37c-c4439ca46883"},"vehicle_type_id":"4","last_reported":1731417437,"current_range_meters":31200,"station_id":"ce4bhah2rcd13ifvqej0","pricing_plan_id":"cebpf4jnsgd1na2vs0mg"},{"bike_id":"690959e1-32d7-492f-a674-cbcd4a6a2909","system_id":"levelo_inurba_marseille","lat":43.27913,"lon":5.39581,"is_reserved":false,"is_disabled":false,"rental_uris":{"android":"levelo://app?vid=690959e1-32d7-492f-a674-cbcd4a6a2909","ios":"levelo://app?vid=690959e1-32d7-492f-a674-cbcd4a6a2909"},"vehicle_type_id":"4","last_reported":1731417437,"current_range_meters":36400,"station_id":"ce4bhf92rcd13ifvqf40","pricing_plan_id":"cebpf4jnsgd1na2vs0mg"},{"bike_id":"c7d03d28-25b0-4dfa-bd0d-f9944277dfd5","system_id":"levelo_inurba_marseille","lat":43.27905,"lon":5.39594,"is_reserved":false,"is_disabled":false,"rental_uris":{"android":"levelo://app?vid=c7d03d28-25b0-4dfa-bd0d-f9944277dfd5","ios":"levelo://app?vid=c7d03d28-25b0-4dfa-bd0d-f9944277dfd5"},"vehicle_type_id":"4","last_reported":1731417437,"current_range_meters":33600,"station_id":"ce4bhf92rcd13ifvqf40","pricing_plan_id":"cebpf4jnsgd1na2vs0mg"},{"bike_id":"1d5c0317-1894-4866-90f1-32b25be7eb1b","system_id":"levelo_inurba_marseille","lat":43.23966,"lon":5.36628,"is_reserved":false,"is_disabled":false,"rental_uris":{"android":"levelo://app?vid=1d5c0317-1894-4866-90f1-32b25be7eb1b","ios":"levelo://app?vid=1d5c0317-1894-4866-90f1-32b25be7eb1b"},"vehicle_type_id":"4","last_reported":1731417437,"current_range_meters":38000,"station_id":"ce4bhi12rcd13ifvqfp0","pricing_plan_id":"cebpf4jnsgd1na2vs0mg"},{"bike_id":"58f18ecf-ad63-4b43-bcdf-8c1e9fb66eea","system_id":"levelo_inurba_marseille","lat":43.27078,"lon":5.42278,"is_reserved":false,"is_disabled":false,"rental_uris":{"android":"levelo://app?vid=58f18ecf-ad63-4b43-bcdf-8c1e9fb66eea","ios":"levelo://app?vid=58f18ecf-ad63-4b43-bcdf-8c1e9fb66eea"},"vehicle_type_id":"4","last_reported":1731417437,"current_range_meters":22800,"station_id":"ce4bhk92rcd13ifvqgb0","pricing_plan_id":"cebpf4jnsgd1na2vs0mg"},{"bike_id":"54f971ab-1cab-4301-b5de-ecfc17914b9d","system_id":"levelo_inurba_marseille","lat":43.29601,"lon":5.38109,"is_reserved":false,"is_disabled":false,"rental_uris":{"android":"levelo://app?vid=54f971ab-1cab-4301-b5de-ecfc17914b9d","ios":"levelo://app?vid=54f971ab-1cab-4301-b5de-ecfc17914b9d"},"vehicle_type_id":"4","last_reported":1731417437,"current_range_meters":16800,"station_id":"ce4bgl12rcd13ifvqbo0","pricing_plan_id":"cebpf4jnsgd1na2vs0mg"},{"bike_id":"93eb7531-844f-4e40-8bd9-f01837cd95b4","system_id":"levelo_inurba_marseille","lat":43.2997,"lon":5.38495,"is_reserved":false,"is_disabled":false,"rental_uris":{"android":"levelo://app?vid=93eb7531-844f-4e40-8bd9-f01837cd95b4","ios":"levelo://app?vid=93eb7531-844f-4e40-8bd9-f01837cd95b4"},"vehicle_type_id":"4","last_reported":1731417437,"current_range_meters":35600,"station_id":"ce4bgj92rcd13ifvqbd0","pricing_plan_id":"cebpf4jnsgd1na2vs0mg"},{"bike_id":"e62bb96a-ded7-4199-85d5-f7da5543f92d","system_id":"levelo_inurba_marseille","lat":43.30239,"lon":5.40071,"is_reserved":false,"is_disabled":false,"rental_uris":{"android":"levelo://app?vid=e62bb96a-ded7-4199-85d5-f7da5543f92d","ios":"levelo://app?vid=e62bb96a-ded7-4199-85d5-f7da5543f92d"},"vehicle_type_id":"4","last_reported":1731417437,"current_range_meters":7200,"station_id":"ce4bgvh2rcd13ifvqcs0","pricing_plan_id":"cebpf4jnsgd1na2vs0mg"},{"bike_id":"6ef18400-609f-49f8-a270-49ff8cef822c","system_id":"levelo_inurba_marseille","lat":43.26941,"lon":5.38645,"is_reserved":false,"is_disabled":false,"rental_uris":{"android":"levelo://app?vid=6ef18400-609f-49f8-a270-49ff8cef822c","ios":"levelo://app?vid=6ef18400-609f-49f8-a270-49ff8cef822c"},"vehicle_type_id":"4","last_reported":1731417437,"current_range_meters":24000,"station_id":"ce4bhh92rcd13ifvqfh0","pricing_plan_id":"cebpf4jnsgd1na2vs0mg"},{"bike_id":"aac01b64-c8f8-4f0f-aeeb-a88c06ec5297","system_id":"levelo_inurba_marseille","lat":43.26947,"lon":5.38643,"is_reserved":false,"is_disabled":false,"rental_uris":{"android":"levelo://app?vid=aac01b64-c8f8-4f0f-aeeb-a88c06ec5297","ios":"levelo://app?vid=aac01b64-c8f8-4f0f-aeeb-a88c06ec5297"},"vehicle_type_id":"4","last_reported":1731417437,"current_range_meters":30800,"station_id":"ce4bhh92rcd13ifvqfh0","pricing_plan_id":"cebpf4jnsgd1na2vs0mg"},{"bike_id":"3f7f3df8-50d9-475f-8a41-f4a7ada046d4","system_id":"levelo_inurba_marseille","lat":43.31573,"lon":5.37287,"is_reserved":false,"is_disabled":false,"rental_uris":{"android":"levelo://app?vid=3f7f3df8-50d9-475f-8a41-f4a7ada046d4","ios":"levelo://app?vid=3f7f3df8-50d9-475f-8a41-f4a7ada046d4"},"vehicle_type_id":"4","last_reported":1731417437,"current_range_meters":28400,"station_id":"","pricing_plan_id":"cebpf4jnsgd1na2vs0mg"},{"bike_id":"2906f8b6-a4e2-4047-8d25-71634dcd5e02","system_id":"levelo_inurba_marseille","lat":43.30213,"lon":5.39475,"is_reserved":false,"is_disabled":false,"rental_uris":{"android":"levelo://app?vid=2906f8b6-a4e2-4047-8d25-71634dcd5e02","ios":"levelo://app?vid=2906f8b6-a4e2-4047-8d25-71634dcd5e02"},"vehicle_type_id":"4","last_reported":1731417437,"current_range_meters":29600,"station_id":"ce4bh0p2rcd13ifvqd70","pricing_plan_id":"cebpf4jnsgd1na2vs0mg"},{"bike_id":"b22f2a40-0b1b-4953-aa00-f14d5aaab638","system_id":"levelo_inurba_marseille","lat":43.29041,"lon":5.39953,"is_reserved":false,"is_disabled":false,"rental_uris":{"android":"levelo://app?vid=b22f2a40-0b1b-4953-aa00-f14d5aaab638","ios":"levelo://app?vid=b22f2a40-0b1b-4953-aa00-f14d5aaab638"},"vehicle_type_id":"4","last_reported":1731417437,"current_range_meters":32000,"station_id":"ce4bh392rcd13ifvqdm0","pricing_plan_id":"cebpf4jnsgd1na2vs0mg"},{"bike_id":"6d1a9a23-bc6b-425f-bdd4-9f846113ef71","system_id":"levelo_inurba_marseille","lat":43.2408,"lon":5.37742,"is_reserved":false,"is_disabled":false,"rental_uris":{"android":"levelo://app?vid=6d1a9a23-bc6b-425f-bdd4-9f846113ef71","ios":"levelo://app?vid=6d1a9a23-bc6b-425f-bdd4-9f846113ef71"},"vehicle_type_id":"4","last_reported":1731417437,"current_range_meters":8400,"station_id":"ce4bhnp2rcd13ifvqgvg","pricing_plan_id":"cebpf4jnsgd1na2vs0mg"},{"bike_id":"30126a5d-7823-4be0-b141-bbfb3299d08f","system_id":"levelo_inurba_marseille","lat":43.33771,"lon":5.37433,"is_reserved":false,"is_disabled":false,"rental_uris":{"android":"levelo://app?vid=30126a5d-7823-4be0-b141-bbfb3299d08f","ios":"levelo://app?vid=30126a5d-7823-4be0-b141-bbfb3299d08f"},"vehicle_type_id":"4","last_reported":1731417437,"current_range_meters":38800,"station_id":"","pricing_plan_id":"cebpf4jnsgd1na2vs0mg"},{"bike_id":"4eb50ab8-9414-42de-9c94-544e0c23e915","system_id":"levelo_inurba_marseille","lat":43.28685,"lon":5.38661,"is_reserved":false,"is_disabled":false,"rental_uris":{"android":"levelo://app?vid=4eb50ab8-9414-42de-9c94-544e0c23e915","ios":"levelo://app?vid=4eb50ab8-9414-42de-9c94-544e0c23e915"},"vehicle_type_id":"4","last_reported":1731417437,"current_range_meters":38400,"station_id":"ce4bh492rcd13ifvqdug","pricing_plan_id":"cebpf4jnsgd1na2vs0mg"},{"bike_id":"d5426224-b207-4ac9-92ce-42ade048fe02","system_id":"levelo_inurba_marseille","lat":43.30545,"lon":5.36545,"is_reserved":false,"is_disabled":false,"rental_uris":{"android":"levelo://app?vid=d5426224-b207-4ac9-92ce-42ade048fe02","ios":"levelo://app?vid=d5426224-b207-4ac9-92ce-42ade048fe02"},"vehicle_type_id":"4","last_reported":1731417437,"current_range_meters":28400,"station_id":"ce4bgs12rcd13ifvqcag","pricing_plan_id":"cebpf4jnsgd1na2vs0mg"},{"bike_id":"c8ced0bb-16df-44c6-9899-59fe38b998b1","system_id":"levelo_inurba_marseille","lat":43.286926,"lon":5.399899,"is_reserved":false,"is_disabled":false,"rental_uris":{"android":"levelo://app?vid=c8ced0bb-16df-44c6-9899-59fe38b998b1","ios":"levelo://app?vid=c8ced0bb-16df-44c6-9899-59fe38b998b1"},"vehicle_type_id":"4","last_reported":1731417437,"current_range_meters":36800,"station_id":"ce4bh392rcd13ifvqdm0","pricing_plan_id":"cebpf4jnsgd1na2vs0mg"},{"bike_id":"cf030a69-a16e-413f-8391-bbfc07e67c31","system_id":"levelo_inurba_marseille","lat":43.28363,"lon":5.38626,"is_reserved":false,"is_disabled":false,"rental_uris":{"android":"levelo://app?vid=cf030a69-a16e-413f-8391-bbfc07e67c31","ios":"levelo://app?vid=cf030a69-a16e-413f-8391-bbfc07e67c31"},"vehicle_type_id":"4","last_reported":1731417437,"current_range_meters":28400,"station_id":"ce4bh492rcd13ifvqdvg","pricing_plan_id":"cebpf4jnsgd1na2vs0mg"},{"bike_id":"a2713e59-5f4b-4a7c-90d1-54f5f802a964","system_id":"levelo_inurba_marseille","lat":43.27995,"lon":5.40007,"is_reserved":false,"is_disabled":false,"rental_uris":{"android":"levelo://app?vid=a2713e59-5f4b-4a7c-90d1-54f5f802a964","ios":"levelo://app?vid=a2713e59-5f4b-4a7c-90d1-54f5f802a964"},"vehicle_type_id":"4","last_reported":1731417437,"current_range_meters":37600,"station_id":"ce4bho92rcd13ifvqh4g","pricing_plan_id":"cebpf4jnsgd1na2vs0mg"},{"bike_id":"99b1f1e7-062b-47cb-9aa9-34dfc0e8dfb8","system_id":"levelo_inurba_marseille","lat":43.31751,"lon":5.39026,"is_reserved":false,"is_disabled":false,"rental_uris":{"android":"levelo://app?vid=99b1f1e7-062b-47cb-9aa9-34dfc0e8dfb8","ios":"levelo://app?vid=99b1f1e7-062b-47cb-9aa9-34dfc0e8dfb8"},"vehicle_type_id":"4","last_reported":1731417437,"current_range_meters":8800,"station_id":"ce4bhqp2rcd13ifvqhng","pricing_plan_id":"cebpf4jnsgd1na2vs0mg"},{"bike_id":"0fa4e1b1-2fba-415a-9413-923835308bde","system_id":"levelo_inurba_marseille","lat":43.25585,"lon":5.38237,"is_reserved":false,"is_disabled":false,"rental_uris":{"android":"levelo://app?vid=0fa4e1b1-2fba-415a-9413-923835308bde","ios":"levelo://app?vid=0fa4e1b1-2fba-415a-9413-923835308bde"},"vehicle_type_id":"4","last_reported":1731417437,"current_range_meters":15200,"station_id":"ce4bhih2rcd13ifvqfs0","pricing_plan_id":"cebpf4jnsgd1na2vs0mg"},{"bike_id":"215ac4fa-64b5-4064-a0cb-691d109bb1b8","system_id":"levelo_inurba_marseille","lat":43.29846,"lon":5.36264,"is_reserved":false,"is_disabled":false,"rental_uris":{"android":"levelo://app?vid=215ac4fa-64b5-4064-a0cb-691d109bb1b8","ios":"levelo://app?vid=215ac4fa-64b5-4064-a0cb-691d109bb1b8"},"vehicle_type_id":"4","last_reported":1731417437,"current_range_meters":19600,"station_id":"ce4bgpp2rcd13ifvqc3g","pricing_plan_id":"cebpf4jnsgd1na2vs0mg"},{"bike_id":"c10412c8-e862-49dc-aee4-955dedb40d46","system_id":"levelo_inurba_marseille","lat":43.29912,"lon":5.38138,"is_reserved":false,"is_disabled":false,"rental_uris":{"android":"levelo://app?vid=c10412c8-e862-49dc-aee4-955dedb40d46","ios":"levelo://app?vid=c10412c8-e862-49dc-aee4-955dedb40d46"},"vehicle_type_id":"4","last_reported":1731417437,"current_range_meters":36800,"station_id":"ce4bgj12rcd13ifvqbc0","pricing_plan_id":"cebpf4jnsgd1na2vs0mg"},{"bike_id":"e92c5947-6d80-41ba-aecc-06ded8281947","system_id":"levelo_inurba_marseille","lat":43.32482,"lon":5.36562,"is_reserved":false,"is_disabled":false,"rental_uris":{"android":"levelo://app?vid=e92c5947-6d80-41ba-aecc-06ded8281947","ios":"levelo://app?vid=e92c5947-6d80-41ba-aecc-06ded8281947"},"vehicle_type_id":"4","last_reported":1731417437,"current_range_meters":36800,"station_id":"ce4bhs12rcd13ifvqhvg","pricing_plan_id":"cebpf4jnsgd1na2vs0mg"},{"bike_id":"0625f123-144e-4825-a568-156272e7a978","system_id":"levelo_inurba_marseille","lat":43.30538,"lon":5.36543,"is_reserved":false,"is_disabled":false,"rental_uris":{"android":"levelo://app?vid=0625f123-144e-4825-a568-156272e7a978","ios":"levelo://app?vid=0625f123-144e-4825-a568-156272e7a978"},"vehicle_type_id":"4","last_reported":1731417437,"current_range_meters":39200,"station_id":"ce4bgs12rcd13ifvqcag","pricing_plan_id":"cebpf4jnsgd1na2vs0mg"},{"bike_id":"95f5045e-8fd4-447c-a73d-f7eb497c745b","system_id":"levelo_inurba_marseille","lat":43.30186,"lon":5.36602,"is_reserved":false,"is_disabled":false,"rental_uris":{"android":"levelo://app?vid=95f5045e-8fd4-447c-a73d-f7eb497c745b","ios":"levelo://app?vid=95f5045e-8fd4-447c-a73d-f7eb497c745b"},"vehicle_type_id":"4","last_reported":1731417437,"current_range_meters":38800,"station_id":"ce4bgrh2rcd13ifvqc8g","pricing_plan_id":"cebpf4jnsgd1na2vs0mg"},{"bike_id":"5db5cfd6-3d3f-44a4-beb2-1497f7bafd38","system_id":"levelo_inurba_marseille","lat":43.30141,"lon":5.39875,"is_reserved":false,"is_disabled":false,"rental_uris":{"android":"levelo://app?vid=5db5cfd6-3d3f-44a4-beb2-1497f7bafd38","ios":"levelo://app?vid=5db5cfd6-3d3f-44a4-beb2-1497f7bafd38"},"vehicle_type_id":"4","last_reported":1731417437,"current_range_meters":30800,"station_id":"ce4bh0h2rcd13ifvqd40","pricing_plan_id":"cebpf4jnsgd1na2vs0mg"},{"bike_id":"b9ecfbcf-3cfc-4dc2-a21d-c9650bd6e460","system_id":"levelo_inurba_marseille","lat":43.305431,"lon":5.365298,"is_reserved":false,"is_disabled":false,"rental_uris":{"android":"levelo://app?vid=b9ecfbcf-3cfc-4dc2-a21d-c9650bd6e460","ios":"levelo://app?vid=b9ecfbcf-3cfc-4dc2-a21d-c9650bd6e460"},"vehicle_type_id":"4","last_reported":1731417437,"current_range_meters":40000,"station_id":"ce4bgs12rcd13ifvqcag","pricing_plan_id":"cebpf4jnsgd1na2vs0mg"},{"bike_id":"e87f9406-2fab-4e2b-85a1-12c23c486a46","system_id":"levelo_inurba_marseille","lat":43.33606,"lon":5.4102,"is_reserved":false,"is_disabled":false,"rental_uris":{"android":"levelo://app?vid=e87f9406-2fab-4e2b-85a1-12c23c486a46","ios":"levelo://app?vid=e87f9406-2fab-4e2b-85a1-12c23c486a46"},"vehicle_type_id":"4","last_reported":1731417437,"current_range_meters":39200,"station_id":"ce4bhqh2rcd13ifvqhmg","pricing_plan_id":"cebpf4jnsgd1na2vs0mg"},{"bike_id":"ce3e4523-9c43-4aea-8ee8-b0a7cde77265","system_id":"levelo_inurba_marseille","lat":43.29616,"lon":5.38105,"is_reserved":false,"is_disabled":false,"rental_uris":{"android":"levelo://app?vid=ce3e4523-9c43-4aea-8ee8-b0a7cde77265","ios":"levelo://app?vid=ce3e4523-9c43-4aea-8ee8-b0a7cde77265"},"vehicle_type_id":"4","last_reported":1731417437,"current_range_meters":18000,"station_id":"ce4bgl12rcd13ifvqbo0","pricing_plan_id":"cebpf4jnsgd1na2vs0mg"},{"bike_id":"e6e8b17e-b78a-47f8-87b6-edf9fe27d935","system_id":"levelo_inurba_marseille","lat":43.26942,"lon":5.40249,"is_reserved":false,"is_disabled":false,"rental_uris":{"android":"levelo://app?vid=e6e8b17e-b78a-47f8-87b6-edf9fe27d935","ios":"levelo://app?vid=e6e8b17e-b78a-47f8-87b6-edf9fe27d935"},"vehicle_type_id":"4","last_reported":1731417437,"current_range_meters":37600,"station_id":"cjm6bp8fraef2m0cb0m0","pricing_plan_id":"cebpf4jnsgd1na2vs0mg"},{"bike_id":"284a631b-d35f-4abf-8c0c-89b46dfbd0d7","system_id":"levelo_inurba_marseille","lat":43.30901,"lon":5.36857,"is_reserved":false,"is_disabled":false,"rental_uris":{"android":"levelo://app?vid=284a631b-d35f-4abf-8c0c-89b46dfbd0d7","ios":"levelo://app?vid=284a631b-d35f-4abf-8c0c-89b46dfbd0d7"},"vehicle_type_id":"4","last_reported":1731417437,"current_range_meters":36800,"station_id":"ce4bgn92rcd13ifvqbvg","pricing_plan_id":"cebpf4jnsgd1na2vs0mg"},{"bike_id":"5559578d-89d8-424a-ae54-f61000a37cb9","system_id":"levelo_inurba_marseille","lat":43.273218,"lon":5.390618,"is_reserved":false,"is_disabled":false,"rental_uris":{"android":"levelo://app?vid=5559578d-89d8-424a-ae54-f61000a37cb9","ios":"levelo://app?vid=5559578d-89d8-424a-ae54-f61000a37cb9"},"vehicle_type_id":"4","last_reported":1731417437,"current_range_meters":38000,"station_id":"ce4bhgp2rcd13ifvqfe0","pricing_plan_id":"cebpf4jnsgd1na2vs0mg"},{"bike_id":"e7b1aa23-16ca-4572-80cd-f773513f26ce","system_id":"levelo_inurba_marseille","lat":43.29841,"lon":5.36268,"is_reserved":false,"is_disabled":false,"rental_uris":{"android":"levelo://app?vid=e7b1aa23-16ca-4572-80cd-f773513f26ce","ios":"levelo://app?vid=e7b1aa23-16ca-4572-80cd-f773513f26ce"},"vehicle_type_id":"4","last_reported":1731417437,"current_range_meters":25600,"station_id":"ce4bgpp2rcd13ifvqc3g","pricing_plan_id":"cebpf4jnsgd1na2vs0mg"},{"bike_id":"e0d573cb-2cd1-45b5-92b5-4f56afcba59c","system_id":"levelo_inurba_marseille","lat":43.29166,"lon":5.37159,"is_reserved":false,"is_disabled":false,"rental_uris":{"android":"levelo://app?vid=e0d573cb-2cd1-45b5-92b5-4f56afcba59c","ios":"levelo://app?vid=e0d573cb-2cd1-45b5-92b5-4f56afcba59c"},"vehicle_type_id":"4","last_reported":1731417437,"current_range_meters":40000,"station_id":"ce4bha92rcd13ifvqeh0","pricing_plan_id":"cebpf4jnsgd1na2vs0mg"},{"bike_id":"ffecbc65-0da9-4c25-abcb-810f2a066864","system_id":"levelo_inurba_marseille","lat":43.29708,"lon":5.36612,"is_reserved":false,"is_disabled":false,"rental_uris":{"android":"levelo://app?vid=ffecbc65-0da9-4c25-abcb-810f2a066864","ios":"levelo://app?vid=ffecbc65-0da9-4c25-abcb-810f2a066864"},"vehicle_type_id":"4","last_reported":1731417437,"current_range_meters":35600,"station_id":"ce4bgn12rcd13ifvqbt0","pricing_plan_id":"cebpf4jnsgd1na2vs0mg"},{"bike_id":"ba4d68a0-0574-44a5-a4aa-0c00dd999085","system_id":"levelo_inurba_marseille","lat":43.29901,"lon":5.3814,"is_reserved":false,"is_disabled":false,"rental_uris":{"android":"levelo://app?vid=ba4d68a0-0574-44a5-a4aa-0c00dd999085","ios":"levelo://app?vid=ba4d68a0-0574-44a5-a4aa-0c00dd999085"},"vehicle_type_id":"4","last_reported":1731417437,"current_range_meters":38400,"station_id":"ce4bgj12rcd13ifvqbc0","pricing_plan_id":"cebpf4jnsgd1na2vs0mg"},{"bike_id":"cbaa6e37-6b03-406d-8299-1f3d4122e2ec","system_id":"levelo_inurba_marseille","lat":43.29572,"lon":5.37538,"is_reserved":false,"is_disabled":false,"rental_uris":{"android":"levelo://app?vid=cbaa6e37-6b03-406d-8299-1f3d4122e2ec","ios":"levelo://app?vid=cbaa6e37-6b03-406d-8299-1f3d4122e2ec"},"vehicle_type_id":"4","last_reported":1731417437,"current_range_meters":19600,"station_id":"ce4bgh92rcd13ifvqb50","pricing_plan_id":"cebpf4jnsgd1na2vs0mg"},{"bike_id":"721744ee-a77d-4c5d-96be-59a106f4c316","system_id":"levelo_inurba_marseille","lat":43.24073,"lon":5.3776,"is_reserved":false,"is_disabled":false,"rental_uris":{"android":"levelo://app?vid=721744ee-a77d-4c5d-96be-59a106f4c316","ios":"levelo://app?vid=721744ee-a77d-4c5d-96be-59a106f4c316"},"vehicle_type_id":"4","last_reported":1731417437,"current_range_meters":24400,"station_id":"ce4bhnp2rcd13ifvqgvg","pricing_plan_id":"cebpf4jnsgd1na2vs0mg"},{"bike_id":"9b899324-9bf0-4e7e-944b-128cdc9d3596","system_id":"levelo_inurba_marseille","lat":43.25575,"lon":5.38232,"is_reserved":false,"is_disabled":false,"rental_uris":{"android":"levelo://app?vid=9b899324-9bf0-4e7e-944b-128cdc9d3596","ios":"levelo://app?vid=9b899324-9bf0-4e7e-944b-128cdc9d3596"},"vehicle_type_id":"4","last_reported":1731417437,"current_range_meters":33600,"station_id":"ce4bhih2rcd13ifvqfs0","pricing_plan_id":"cebpf4jnsgd1na2vs0mg"},{"bike_id":"36c613f3-c69e-4092-acf7-4d285a1372d1","system_id":"levelo_inurba_marseille","lat":43.3059,"lon":5.39362,"is_reserved":false,"is_disabled":false,"rental_uris":{"android":"levelo://app?vid=36c613f3-c69e-4092-acf7-4d285a1372d1","ios":"levelo://app?vid=36c613f3-c69e-4092-acf7-4d285a1372d1"},"vehicle_type_id":"4","last_reported":1731417437,"current_range_meters":38800,"station_id":"ce4bh0p2rcd13ifvqd80","pricing_plan_id":"cebpf4jnsgd1na2vs0mg"},{"bike_id":"5038b3d1-9358-4be9-b4b3-374cf19dd9f2","system_id":"levelo_inurba_marseille","lat":43.28671,"lon":5.38677,"is_reserved":false,"is_disabled":false,"rental_uris":{"android":"levelo://app?vid=5038b3d1-9358-4be9-b4b3-374cf19dd9f2","ios":"levelo://app?vid=5038b3d1-9358-4be9-b4b3-374cf19dd9f2"},"vehicle_type_id":"4","last_reported":1731417437,"current_range_meters":38000,"station_id":"ce4bh492rcd13ifvqdug","pricing_plan_id":"cebpf4jnsgd1na2vs0mg"},{"bike_id":"52a803cd-037c-4542-9657-84b331aca8ec","system_id":"levelo_inurba_marseille","lat":43.274328,"lon":5.394054,"is_reserved":false,"is_disabled":false,"rental_uris":{"android":"levelo://app?vid=52a803cd-037c-4542-9657-84b331aca8ec","ios":"levelo://app?vid=52a803cd-037c-4542-9657-84b331aca8ec"},"vehicle_type_id":"4","last_reported":1731417437,"current_range_meters":32800,"station_id":"ce4bhdp2rcd13ifvqf20","pricing_plan_id":"cebpf4jnsgd1na2vs0mg"},{"bike_id":"58e12c16-8727-45bc-88ca-9c77aa3adbd8","system_id":"levelo_inurba_marseille","lat":43.30285,"lon":5.37708,"is_reserved":false,"is_disabled":false,"rental_uris":{"android":"levelo://app?vid=58e12c16-8727-45bc-88ca-9c77aa3adbd8","ios":"levelo://app?vid=58e12c16-8727-45bc-88ca-9c77aa3adbd8"},"vehicle_type_id":"4","last_reported":1731417437,"current_range_meters":40000,"station_id":"ce4bguh2rcd13ifvqcj0","pricing_plan_id":"cebpf4jnsgd1na2vs0mg"},{"bike_id":"157a35fa-5a72-47cc-8d9f-01ff84a920cc","system_id":"levelo_inurba_marseille","lat":43.28856,"lon":5.39305,"is_reserved":false,"is_disabled":false,"rental_uris":{"android":"levelo://app?vid=157a35fa-5a72-47cc-8d9f-01ff84a920cc","ios":"levelo://app?vid=157a35fa-5a72-47cc-8d9f-01ff84a920cc"},"vehicle_type_id":"4","last_reported":1731417437,"current_range_meters":40000,"station_id":"ce4bh2p2rcd13ifvqdi0","pricing_plan_id":"cebpf4jnsgd1na2vs0mg"},{"bike_id":"ac11e4b1-5c99-4d11-abf3-37c02b630e7f","system_id":"levelo_inurba_marseille","lat":43.29601,"lon":5.38094,"is_reserved":false,"is_disabled":false,"rental_uris":{"android":"levelo://app?vid=ac11e4b1-5c99-4d11-abf3-37c02b630e7f","ios":"levelo://app?vid=ac11e4b1-5c99-4d11-abf3-37c02b630e7f"},"vehicle_type_id":"4","last_reported":1731417437,"current_range_meters":38000,"station_id":"ce4bgl12rcd13ifvqbo0","pricing_plan_id":"cebpf4jnsgd1na2vs0mg"},{"bike_id":"717f8475-1ae4-4ef4-a993-09150080d098","system_id":"levelo_inurba_marseille","lat":43.278313,"lon":5.392087,"is_reserved":false,"is_disabled":false,"rental_uris":{"android":"levelo://app?vid=717f8475-1ae4-4ef4-a993-09150080d098","ios":"levelo://app?vid=717f8475-1ae4-4ef4-a993-09150080d098"},"vehicle_type_id":"4","last_reported":1731417437,"current_range_meters":20800,"station_id":"ce4bhjp2rcd13ifvqga0","pricing_plan_id":"cebpf4jnsgd1na2vs0mg"},{"bike_id":"5a1e29ec-2829-42fe-91d5-033c37b110e5","system_id":"levelo_inurba_marseille","lat":43.31356,"lon":5.36715,"is_reserved":false,"is_disabled":false,"rental_uris":{"android":"levelo://app?vid=5a1e29ec-2829-42fe-91d5-033c37b110e5","ios":"levelo://app?vid=5a1e29ec-2829-42fe-91d5-033c37b110e5"},"vehicle_type_id":"4","last_reported":1731417437,"current_range_meters":35600,"station_id":"ce4bgr92rcd13ifvqc6g","pricing_plan_id":"cebpf4jnsgd1na2vs0mg"},{"bike_id":"0331047c-92b1-40dd-8c87-ce9fb982b619","system_id":"levelo_inurba_marseille","lat":43.29363,"lon":5.3785,"is_reserved":false,"is_disabled":false,"rental_uris":{"android":"levelo://app?vid=0331047c-92b1-40dd-8c87-ce9fb982b619","ios":"levelo://app?vid=0331047c-92b1-40dd-8c87-ce9fb982b619"},"vehicle_type_id":"4","last_reported":1731417437,"current_range_meters":40000,"station_id":"ce4bgjh2rcd13ifvqbf0","pricing_plan_id":"cebpf4jnsgd1na2vs0mg"},{"bike_id":"afa715b5-1241-4d6f-8f78-73e0daefc925","system_id":"levelo_inurba_marseille","lat":43.29007,"lon":5.3561,"is_reserved":false,"is_disabled":false,"rental_uris":{"android":"levelo://app?vid=afa715b5-1241-4d6f-8f78-73e0daefc925","ios":"levelo://app?vid=afa715b5-1241-4d6f-8f78-73e0daefc925"},"vehicle_type_id":"4","last_reported":1731417437,"current_range_meters":34000,"station_id":"ce4bhb92rcd13ifvqen0","pricing_plan_id":"cebpf4jnsgd1na2vs0mg"},{"bike_id":"997050a2-eb35-42df-8b8a-91d1a86688fb","system_id":"levelo_inurba_marseille","lat":43.337444,"lon":5.374475,"is_reserved":false,"is_disabled":false,"rental_uris":{"android":"levelo://app?vid=997050a2-eb35-42df-8b8a-91d1a86688fb","ios":"levelo://app?vid=997050a2-eb35-42df-8b8a-91d1a86688fb"},"vehicle_type_id":"4","last_reported":1731417437,"current_range_meters":38400,"station_id":"","pricing_plan_id":"cebpf4jnsgd1na2vs0mg"},