{"last_updated":1730088723,"ttl":60,"version":"2.2","data":{"bikes":[{"bike_id":"796d13f0-dbdb-469e-b237-8b6f408a292a","system_id":"levelo_inurba_marseille","lat":43.28674,"lon":5.36339,"is_reserved":false,"is_disabled":false,"rental_uris":{"android":"levelo://app?vid=796d13f0-dbdb-469e-b237-8b6f408a292a","ios":"levelo://app?vid=796d13f0-dbdb-469e-b237-8b6f408a292a"},"vehicle_type_id":"4","last_reported":1730088723,"current_range_meters":39200,"station_id":"ce4bhah2rcd13ifvqej0","pricing_plan_id":"cebpf4jnsgd1na2vs0mg"},{"bike_id":"51d67c9f-7876-4edd-add9-daa6b63bce71","system_id":"levelo_inurba_marseille","lat":43.28264,"lon":5.35072,"is_reserved":false,"is_disabled":false,"rental_uris":{"android":"levelo://app?vid=51d67c9f-7876-4edd-add9-daa6b63bce71","ios":"levelo://app?vid=51d67c9f-7876-4edd-add9-daa6b63bce71"},"vehicle_type_id":"4","last_reported":1730088723,"current_range_meters":30400,"station_id":"ce4bhbp2rcd13ifvqerg","pricing_plan_id":"cebpf4jnsgd1na2vs0mg"},{"bike_id":"645e4a67-a45f-4559-bf89-21f7355cc074","system_id":"levelo_inurba_marseille","lat":43.29882,"lon":5.39741,"is_reserved":false,"is_disabled":false,"rental_uris":{"android":"levelo://app?vid=645e4a67-a45f-4559-bf89-21f7355cc074","ios":"levelo://app?vid=645e4a67-a45f-4559-bf89-21f7355cc074"},"vehicle_type_id":"4","last_reported":1730088723,"current_range_meters":40000,"station_id":"ce4bh0h2rcd13ifvqd50","pricing_plan_id":"cebpf4jnsgd1na2vs0mg"},{"bike_id":"1e7c1adc-6e5f-45d9-a75d-a51f2ad067c8","system_id":"levelo_inurba_marseille","lat":43.29898,"lon":5.43664,"is_reserved":false,"is_disabled":false,"rental_uris":{"android":"levelo://app?vid=1e7c1adc-6e5f-45d9-a75d-a51f2ad067c8","ios":"levelo://app?vid=1e7c1adc-6e5f-45d9-a75d-a51f2ad067c8"},"vehicle_type_id":"4","last_reported":1730088723,"current_range_meters":4000,"station_id":"ce4bhpp2rcd13ifvqhfg","pricing_plan_id":"cebpf4jnsgd1na2vs0mg"},{"bike_id":"6cd46184-ccd4-41a7-92e5-9f321ea4dee8","system_id":"levelo_inurba_marseille","lat":43.24072,"lon":5.37748,"is_reserved":false,"is_disabled":false,"rental_uris":{"android":"levelo://app?vid=6cd46184-ccd4-41a7-92e5-9f321ea4dee8","ios":"levelo://app?vid=6cd46184-ccd4-41a7-92e5-9f321ea4dee8"},"vehicle_type_id":"4","last_reported":1730088723,"current_range_meters":38400,"station_id":"ce4bhnp2rcd13ifvqgvg","pricing_plan_id":"cebpf4jnsgd1na2vs0mg"},{"bike_id":"b6e289e4-f54c-41d4-9b66-a1a2db060b7b","system_id":"levelo_inurba_marseille","lat":43.28468,"lon":5.35877,"is_reserved":false,"is_disabled":false,"rental_uris":{"android":"levelo://app?vid=b6e289e4-f54c-41d4-9b66-a1a2db060b7b","ios":"levelo://app?vid=b6e289e4-f54c-41d4-9b66-a1a2db060b7b"},"vehicle_type_id":"4","last_reported":1730088723,"current_range_meters":38800,"station_id":"ce4bhah2rcd13ifvqei0","pricing_plan_id":"cebpf4jnsgd1na2vs0mg"},{"bike_id":"90b09f7c-4665-4372-8e70-8220f506b4de","system_id":"levelo_inurba_marseille","lat":43.25724,"lon":5.41102,"is_reserved":false,"is_disabled":false,"rental_uris":{"android":"levelo://app?vid=90b09f7c-4665-4372-8e70-8220f506b4de","ios":"levelo://app?vid=90b09f7c-4665-4372-8e70-8220f506b4de"},"vehicle_type_id":"4","last_reported":1730088723,"current_range_meters":9200,"station_id":"ce4bhkp2rcd13ifvqgd0","pricing_plan_id":"cebpf4jnsgd1na2vs0mg"},{"bike_id":"83dc329b-1766-4a0e-99ca-b0b205cf41c3","system_id":"levelo_inurba_marseille","lat":43.281057,"lon":5.378357,"is_reserved":false,"is_disabled":false,"rental_uris":{"android":"levelo://app?vid=83dc329b-1766-4a0e-99ca-b0b205cf41c3","ios":"levelo://app?vid=83dc329b-1766-4a0e-99ca-b0b205cf41c3"},"vehicle_type_id":"4","last_reported":1730088723,"current_range_meters":27600,"station_id":"ce4bha12rcd13ifvqee0","pricing_plan_id":"cebpf4jnsgd1na2vs0mg"},{"bike_id":"5d10cd37-f6c1-477f-82ad-19f24508535a","system_id":"levelo_inurba_marseille","lat":43.27993,"lon":5.40016,"is_reserved":false,"is_disabled":false,"rental_uris":{"android":"levelo://app?vid=5d10cd37-f6c1-477f-82ad-19f24508535a","ios":"levelo://app?vid=5d10cd37-f6c1-477f-82ad-19f24508535a"},"vehicle_type_id":"4","last_reported":1730088723,"current_range_meters":31200,"station_id":"ce4bho92rcd13ifvqh4g","pricing_plan_id":"cebpf4jnsgd1na2vs0mg"},{"bike_id":"18728487-1f41-4027-9752-d42c4c6fc507","system_id":"levelo_inurba_marseille","lat":43.29872,"lon":5.39757,"is_reserved":false,"is_disabled":false,"rental_uris":{"android":"levelo://app?vid=18728487-1f41-4027-9752-d42c4c6fc507","ios":"levelo://app?vid=18728487-1f41-4027-9752-d42c4c6fc507"},"vehicle_type_id":"4","last_reported":1730088723,"current_range_meters":16000,"station_id":"ce4bh0h2rcd13ifvqd50","pricing_plan_id":"cebpf4jnsgd1na2vs0mg"},{"bike_id":"0417c2c0-a8fa-4e85-94c8-8f98d5bb5512","system_id":"levelo_inurba_marseille","lat":43.24806,"lon":5.37452,"is_reserved":false,"is_disabled":false,"rental_uris":{"android":"levelo://app?vid=0417c2c0-a8fa-4e85-94c8-8f98d5bb5512","ios":"levelo://app?vid=0417c2c0-a8fa-4e85-94c8-8f98d5bb5512"},"vehicle_type_id":"4","last_reported":1730088723,"current_range_meters":37600,"station_id":"ce4bhgh2rcd13ifvqfb0","pricing_plan_id":"cebpf4jnsgd1na2vs0mg"},{"bike_id":"4f16e8bb-2b9c-4a34-a78f-80246efb6268","system_id":"levelo_inurba_marseille","lat":43.30886,"lon":5.39618,"is_reserved":false,"is_disabled":false,"rental_uris":{"android":"levelo://app?vid=4f16e8bb-2b9c-4a34-a78f-80246efb6268","ios":"levelo://app?vid=4f16e8bb-2b9c-4a34-a78f-80246efb6268"},"vehicle_type_id":"4","last_reported":1730088723,"current_range_meters":32800,"station_id":"ce4bh012rcd13ifvqcv0","pricing_plan_id":"cebpf4jnsgd1na2vs0mg"},{"bike_id":"c992afc2-2fbf-4367-99c3-aaab10742675","system_id":"levelo_inurba_marseille","lat":43.29066,"lon":5.37154,"is_reserved":false,"is_disabled":false,"rental_uris":{"android":"levelo://app?vid=c992afc2-2fbf-4367-99c3-aaab10742675","ios":"levelo://app?vid=c992afc2-2fbf-4367-99c3-aaab10742675"},"vehicle_type_id":"4","last_reported":1730088723,"current_range_meters":25200,"station_id":"ce4bh5p2rcd13ifvqe4g","pricing_plan_id":"cebpf4jnsgd1na2vs0mg"},{"bike_id":"e1395604-316e-4ef3-9482-76e16d240733","system_id":"levelo_inurba_marseille","lat":43.308841,"lon":5.396429,"is_reserved":false,"is_disabled":false,"rental_uris":{"android":"levelo://app?vid=e1395604-316e-4ef3-9482-76e16d240733","ios":"levelo://app?vid=e1395604-316e-4ef3-9482-76e16d240733"},"vehicle_type_id":"4","last_reported":1730088723,"current_range_meters":38400,"station_id":"ce4bh012rcd13ifvqcv0","pricing_plan_id":"cebpf4jnsgd1na2vs0mg"},{"bike_id":"e2971513-5509-43da-a4bb-a3d89812546c","system_id":"levelo_inurba_marseille","lat":43.25008,"lon":5.38919,"is_reserved":false,"is_disabled":false,"rental_uris":{"android":"levelo://app?vid=e2971513-5509-43da-a4bb-a3d89812546c","ios":"levelo://app?vid=e2971513-5509-43da-a4bb-a3d89812546c"},"vehicle_type_id":"4","last_reported":1730088723,"current_range_meters":7200,"station_id":"ce4bhgp2rcd13ifvqfd0","pricing_plan_id":"cebpf4jnsgd1na2vs0mg"},{"bike_id":"836f7436-a4c1-44c4-bfd8-a2c6c8f2c411","system_id":"levelo_inurba_marseille","lat":43.32934,"lon":5.41123,"is_reserved":false,"is_disabled":false,"rental_uris":{"android":"levelo://app?vid=836f7436-a4c1-44c4-bfd8-a2c6c8f2c411","ios":"levelo://app?vid=836f7436-a4c1-44c4-bfd8-a2c6c8f2c411"},"vehicle_type_id":"4","last_reported":1730088723,"current_range_meters":31200,"station_id":"","pricing_plan_id":"cebpf4jnsgd1na2vs0mg"},{"bike_id":"4e76489d-b1e0-4ba9-adfd-a21d6b553c02","system_id":"levelo_inurba_marseille","lat":43.25118,"lon":5.40321,"is_reserved":false,"is_disabled":false,"rental_uris":{"android":"levelo://app?vid=4e76489d-b1e0-4ba9-adfd-a21d6b553c02","ios":"levelo://app?vid=4e76489d-b1e0-4ba9-adfd-a21d6b553c02"},"vehicle_type_id":"4","last_reported":1730088723,"current_range_meters":35600,"station_id":"ce4bhlh2rcd13ifvqgig","pricing_plan_id":"cebpf4jnsgd1na2vs0mg"},{"bike_id":"713f5c9e-116f-4c28-99ae-d5eb1c1249d0","system_id":"levelo_inurba_marseille","lat":43.27996,"lon":5.40017,"is_reserved":false,"is_disabled":false,"rental_uris":{"android":"levelo://app?vid=713f5c9e-116f-4c28-99ae-d5eb1c1249d0","ios":"levelo://app?vid=713f5c9e-116f-4c28-99ae-d5eb1c1249d0"},"vehicle_type_id":"4","last_reported":1730088723,"current_range_meters":40000,"station_id":"ce4bho92rcd13ifvqh4g","pricing_plan_id":"cebpf4jnsgd1na2vs0mg"},{"bike_id":"c151cf74-fa7e-4aca-97a5-f6e88f5aac2e","system_id":"levelo_inurba_marseille","lat":43.29257,"lon":5.36601,"is_reserved":false,"is_disabled":false,"rental_uris":{"android":"levelo://app?vid=c151cf74-fa7e-4aca-97a5-f6e88f5aac2e","ios":"levelo://app?vid=c151cf74-fa7e-4aca-97a5-f6e88f5aac2e"},"vehicle_type_id":"4","last_reported":1730088723,"current_range_meters":38000,"station_id":"","pricing_plan_id":"cebpf4jnsgd1na2vs0mg"},{"bike_id":"a531fcfe-00f9-4d5e-bf0b-055819806b8e","system_id":"levelo_inurba_marseille","lat":43.31328,"lon":5.39692,"is_reserved":false,"is_disabled":false,"rental_uris":{"android":"levelo://app?vid=a531fcfe-00f9-4d5e-bf0b-055819806b8e","ios":"levelo://app?vid=a531fcfe-00f9-4d5e-bf0b-055819806b8e"},"vehicle_type_id":"4","last_reported":1730088723,"current_range_meters":35200,"station_id":"ce4bgvp2rcd13ifvqcu0","pricing_plan_id":"cebpf4jnsgd1na2vs0mg"},{"bike_id":"5fcc314b-84a4-45de-99a7-0fae3ad09225","system_id":"levelo_inurba_marseille","lat":43.31073,"lon":5.38344,"is_reserved":false,"is_disabled":false,"rental_uris":{"android":"levelo://app?vid=5fcc314b-84a4-45de-99a7-0fae3ad09225","ios":"levelo://app?vid=5fcc314b-84a4-45de-99a7-0fae3ad09225"},"vehicle_type_id":"4","last_reported":1730088723,"current_range_meters":36000,"station_id":"ce4bgv92rcd13ifvqcr0","pricing_plan_id":"cebpf4jnsgd1na2vs0mg"},{"bike_id":"1a961079-b6c6-41d7-9d14-fd3cffa41161","system_id":"levelo_inurba_marseille","lat":43.24672,"lon":5.38157,"is_reserved":false,"is_disabled":false,"rental_uris":{"android":"levelo://app?vid=1a961079-b6c6-41d7-9d14-fd3cffa41161","ios":"levelo://app?vid=1a961079-b6c6-41d7-9d14-fd3cffa41161"},"vehicle_type_id":"4","last_reported":1730088723,"current_range_meters":38800,"station_id":"ce4bhih2rcd13ifvqfr0","pricing_plan_id":"cebpf4jnsgd1na2vs0mg"},{"bike_id":"f23bd07e-c21f-480f-bcf1-78ad062ae4ca","system_id":"levelo_inurba_marseille","lat":43.2795,"lon":5.41039,"is_reserved":false,"is_disabled":false,"rental_uris":{"android":"levelo://app?vid=f23bd07e-c21f-480f-bcf1-78ad062ae4ca","ios":"levelo://app?vid=f23bd07e-c21f-480f-bcf1-78ad062ae4ca"},"vehicle_type_id":"4","last_reported":1730088723,"current_range_meters":38800,"station_id":"ce4bhnp2rcd13ifvqh0g","pricing_plan_id":"cebpf4jnsgd1na2vs0mg"},{"bike_id":"c0710a3f-9259-48fc-8baf-5f373be38096","system_id":"levelo_inurba_marseille","lat":43.30593,"lon":5.37217,"is_reserved":false,"is_disabled":false,"rental_uris":{"android":"levelo://app?vid=c0710a3f-9259-48fc-8baf-5f373be38096","ios":"levelo://app?vid=c0710a3f-9259-48fc-8baf-5f373be38096"},"vehicle_type_id":"4","last_reported":1730088723,"current_range_meters":35600,"station_id":"ce4bgqh2rcd13ifvqc4g","pricing_plan_id":"cebpf4jnsgd1na2vs0mg"},{"bike_id":"804ab3e9-2a31-4b35-ab7d-b81e9937d544","system_id":"levelo_inurba_marseille","lat":43.30303,"lon":5.39209,"is_reserved":false,"is_disabled":false,"rental_uris":{"android":"levelo://app?vid=804ab3e9-2a31-4b35-ab7d-b81e9937d544","ios":"levelo://app?vid=804ab3e9-2a31-4b35-ab7d-b81e9937d544"},"vehicle_type_id":"4","last_reported":1730088723,"current_range_meters":37600,"station_id":"ce4bgkh2rcd13ifvqbk0","pricing_plan_id":"cebpf4jnsgd1na2vs0mg"},{"bike_id":"eb74aa32-c49d-4202-bac3-91a96c4d4783","system_id":"levelo_inurba_marseille","lat":43.308056,"lon":5.369898,"is_reserved":false,"is_disabled":false,"rental_uris":{"android":"levelo://app?vid=eb74aa32-c49d-4202-bac3-91a96c4d4783","ios":"levelo://app?vid=eb74aa32-c49d-4202-bac3-91a96c4d4783"},"vehicle_type_id":"4","last_reported":1730088723,"current_range_meters":17600,"station_id":"ce4bguh2rcd13ifvqckg","pricing_plan_id":"cebpf4jnsgd1na2vs0mg"},{"bike_id":"8fea6a8c-1bba-48fa-bae2-6e9923e9bf31","system_id":"levelo_inurba_marseille","lat":43.31175,"lon":5.387204,"is_reserved":false,"is_disabled":false,"rental_uris":{"android":"levelo://app?vid=8fea6a8c-1bba-48fa-bae2-6e9923e9bf31","ios":"levelo://app?vid=8fea6a8c-1bba-48fa-bae2-6e9923e9bf31"},"vehicle_type_id":"4","last_reported":1730088723,"current_range_meters":23200,"station_id":"ce4bgv12rcd13ifvqcp0","pricing_plan_id":"cebpf4jnsgd1na2vs0mg"},{"bike_id":"84e374c4-fc62-498f-bc8b-cb0b8a3e0a0c","system_id":"levelo_inurba_marseille","lat":43.257281,"lon":5.411127,"is_reserved":false,"is_disabled":false,"rental_uris":{"android":"levelo://app?vid=84e374c4-fc62-498f-bc8b-cb0b8a3e0a0c","ios":"levelo://app?vid=84e374c4-fc62-498f-bc8b-cb0b8a3e0a0c"},"vehicle_type_id":"4","last_reported":1730088723,"current_range_meters":38800,"station_id":"ce4bhkp2rcd13ifvqgd0","pricing_plan_id":"cebpf4jnsgd1na2vs0mg"},{"bike_id":"b21d3af8-5dda-415a-bab1-b0fdc0e2d6a0","system_id":"levelo_inurba_marseille","lat":43.29791,"lon":5.39335,"is_reserved":false,"is_disabled":false,"rental_uris":{"android":"levelo://app?vid=b21d3af8-5dda-415a-bab1-b0fdc0e2d6a0","ios":"levelo://app?vid=b21d3af8-5dda-415a-bab1-b0fdc0e2d6a0"},"vehicle_type_id":"4","last_reported":1730088723,"current_range_meters":37600,"station_id":"chh1huq6cuj3fo74tm60","pricing_plan_id":"cebpf4jnsgd1na2vs0mg"},{"bike_id":"75f2e981-d20e-4abd-9642-0a30d889fe55","system_id":"levelo_inurba_marseille","lat":43.281037,"lon":5.378367,"is_reserved":false,"is_disabled":false,"rental_uris":{"android":"levelo://app?vid=75f2e981-d20e-4abd-9642-0a30d889fe55","ios":"levelo://app?vid=75f2e981-d20e-4abd-9642-0a30d889fe55"},"vehicle_type_id":"4","last_reported":1730088723,"current_range_meters":17200,"station_id":"ce4bha12rcd13ifvqee0","pricing_plan_id":"cebpf4jnsgd1na2vs0mg"},{"bike_id":"48e40d75-ca0c-48e5-ae31-b42eeb6f4184","system_id":"levelo_inurba_marseille","lat":43.31073,"lon":5.38355,"is_reserved":false,"is_disabled":false,"rental_uris":{"android":"levelo://app?vid=48e40d75-ca0c-48e5-ae31-b42eeb6f4184","ios":"levelo://app?vid=48e40d75-ca0c-48e5-ae31-b42eeb6f4184"},"vehicle_type_id":"4","last_reported":1730088723,"current_range_meters":12000,"station_id":"ce4bgv92rcd13ifvqcr0","pricing_plan_id":"cebpf4jnsgd1na2vs0mg"},{"bike_id":"2ac8b704-8f05-4bff-a9c8-ae618403c047","system_id":"levelo_inurba_marseille","lat":43.28414,"lon":5.37519,"is_reserved":false,"is_disabled":false,"rental_uris":{"android":"levelo://app?vid=2ac8b704-8f05-4bff-a9c8-ae618403c047","ios":"levelo://app?vid=2ac8b704-8f05-4bff-a9c8-ae618403c047"},"vehicle_type_id":"4","last_reported":1730088723,"current_range_meters":38800,"station_id":"ce4bh412rcd13ifvqds0","pricing_plan_id":"cebpf4jnsgd1na2vs0mg"},{"bike_id":"090c043d-c75d-4799-97ee-f225f61fa3ea","system_id":"levelo_inurba_marseille","lat":43.28157,"lon":5.42644,"is_reserved":false,"is_disabled":false,"rental_uris":{"android":"levelo://app?vid=090c043d-c75d-4799-97ee-f225f61fa3ea","ios":"levelo://app?vid=090c043d-c75d-4799-97ee-f225f61fa3ea"},"vehicle_type_id":"4","last_reported":1730088723,"current_range_meters":16800,"station_id":"ce4bhnh2rcd13ifvqgug","pricing_plan_id":"cebpf4jnsgd1na2vs0mg"},{"bike_id":"04be2868-2aab-4e6c-8872-303c9381e9e2","system_id":"levelo_inurba_marseille","lat":43.300738,"lon":5.400928,"is_reserved":false,"is_disabled":false,"rental_uris":{"android":"levelo://app?vid=04be2868-2aab-4e6c-8872-303c9381e9e2","ios":"levelo://app?vid=04be2868-2aab-4e6c-8872-303c9381e9e2"},"vehicle_type_id":"4","last_reported":1730088723,"current_range_meters":10000,"station_id":"ce4bh112rcd13ifvqd90","pricing_plan_id":"cebpf4jnsgd1na2vs0mg"},{"bike_id":"c70c3f6b-a8d0-434d-b9f6-e5c66a62c638","system_id":"levelo_inurba_marseille","lat":43.31759,"lon":5.39016,"is_reserved":false,"is_disabled":false,"rental_uris":{"android":"levelo://app?vid=c70c3f6b-a8d0-434d-b9f6-e5c66a62c638","ios":"levelo://app?vid=c70c3f6b-a8d0-434d-b9f6-e5c66a62c638"},"vehicle_type_id":"4","last_reported":1730088723,"current_range_meters":38800,"station_id":"ce4bhqp2rcd13ifvqhng","pricing_plan_id":"cebpf4jnsgd1na2vs0mg"},{"bike_id":"94a22c37-f600-4ea3-a40f-3d6d181bf35c","system_id":"levelo_inurba_marseille","lat":43.28702,"lon":5.39973,"is_reserved":false,"is_disabled":false,"rental_uris":{"android":"levelo://app?vid=94a22c37-f600-4ea3-a40f-3d6d181bf35c","ios":"levelo://app?vid=94a22c37-f600-4ea3-a40f-3d6d181bf35c"},"vehicle_type_id":"4","last_reported":1730088723,"current_range_meters":38800,"station_id":"ce4bho92rcd13ifvqh3g","pricing_plan_id":"cebpf4jnsgd1na2vs0mg"},{"bike_id":"7b87e6db-3f7a-48c8-83b0-5ba95a586374","system_id":"levelo_inurba_marseille","lat":43.28464,"lon":5.35888,"is_reserved":false,"is_disabled":false,"rental_uris":{"android":"levelo://app?vid=7b87e6db-3f7a-48c8-83b0-5ba95a586374","ios":"levelo://app?vid=7b87e6db-3f7a-48c8-83b0-5ba95a586374"},"vehicle_type_id":"4","last_reported":1730088723,"current_range_meters":38800,"station_id":"ce4bhah2rcd13ifvqei0","pricing_plan_id":"cebpf4jnsgd1na2vs0mg"},{"bike_id":"2ab6a876-b383-42be-8174-3b09d00c2764","system_id":"levelo_inurba_marseille","lat":43.22925,"lon":5.35375,"is_reserved":false,"is_disabled":false,"rental_uris":{"android":"levelo://app?vid=2ab6a876-b383-42be-8174-3b09d00c2764","ios":"levelo://app?vid=2ab6a876-b383-42be-8174-3b09d00c2764"},"vehicle_type_id":"4","last_reported":1730088723,"current_range_meters":38000,"station_id":"cpo3532slgdg3j2ikp40","pricing_plan_id":"cebpf4jnsgd1na2vs0mg"},{"bike_id":"885f8dd2-91f7-4ef6-9993-cc1af36f0309","system_id":"levelo_inurba_marseille","lat":43.28106,"lon":5.37836,"is_reserved":false,"is_disabled":false,"rental_uris":{"android":"levelo://app?vid=885f8dd2-91f7-4ef6-9993-cc1af36f0309","ios":"levelo://app?vid=885f8dd2-91f7-4ef6-9993-cc1af36f0309"},"vehicle_type_id":"4","last_reported":1730088723,"current_range_meters":31200,"station_id":"ce4bha12rcd13ifvqee0","pricing_plan_id":"cebpf4jnsgd1na2vs0mg"},{"bike_id":"f8da188e-27f9-4404-9276-e402b0c7c251","system_id":"levelo_inurba_marseille","lat":43.285663,"lon":5.395073,"is_reserved":false,"is_disabled":false,"rental_uris":{"android":"levelo://app?vid=f8da188e-27f9-4404-9276-e402b0c7c251","ios":"levelo://app?vid=f8da188e-27f9-4404-9276-e402b0c7c251"},"vehicle_type_id":"4","last_reported":1730088723,"current_range_meters":32800,"station_id":"ce4bh292rcd13ifvqdg0","pricing_plan_id":"cebpf4jnsgd1na2vs0mg"},{"bike_id":"e9d2627b-0323-4f6a-bb61-f8fed2e2d6e2","system_id":"levelo_inurba_marseille","lat":43.24182,"lon":5.39718,"is_reserved":false,"is_disabled":false,"rental_uris":{"android":"levelo://app?vid=e9d2627b-0323-4f6a-bb61-f8fed2e2d6e2","ios":"levelo://app?vid=e9d2627b-0323-4f6a-bb61-f8fed2e2d6e2"},"vehicle_type_id":"4","last_reported":1730088723,"current_range_meters":10800,"station_id":"ce4bhn12rcd13ifvqgpg","pricing_plan_id":"cebpf4jnsgd1na2vs0mg"},{"bike_id":"711ea989-9bbd-4a86-a947-8e287449186f","system_id":"levelo_inurba_marseille","lat":43.2293,"lon":5.35372,"is_reserved":false,"is_disabled":false,"rental_uris":{"android":"levelo://app?vid=711ea989-9bbd-4a86-a947-8e287449186f","ios":"levelo://app?vid=711ea989-9bbd-4a86-a947-8e287449186f"},"vehicle_type_id":"4","last_reported":1730088723,"current_range_meters":38000,"station_id":"cpo3532slgdg3j2ikp40","pricing_plan_id":"cebpf4jnsgd1na2vs0mg"},{"bike_id":"2e8b17ce-dde4-4cdc-913d-93de395cf91d","system_id":"levelo_inurba_marseille","lat":43.25729,"lon":5.41107,"is_reserved":false,"is_disabled":false,"rental_uris":{"android":"levelo://app?vid=2e8b17ce-dde4-4cdc-913d-93de395cf91d","ios":"levelo://app?vid=2e8b17ce-dde4-4cdc-913d-93de395cf91d"},"vehicle_type_id":"4","last_reported":1730088723,"current_range_meters":8000,"station_id":"ce4bhkp2rcd13ifvqgd0","pricing_plan_id":"cebpf4jnsgd1na2vs0mg"},{"bike_id":"27f39214-437b-402f-ba70-e8fd46f4e41b","system_id":"levelo_inurba_marseille","lat":43.28496,"lon":5.36922,"is_reserved":false,"is_disabled":false,"rental_uris":{"android":"levelo://app?vid=27f39214-437b-402f-ba70-e8fd46f4e41b","ios":"levelo://app?vid=27f39214-437b-402f-ba70-e8fd46f4e41b"},"vehicle_type_id":"4","last_reported":1730088723,"current_range_meters":16000,"station_id":"","pricing_plan_id":"cebpf4jnsgd1na2vs0mg"},{"bike_id":"bd4e1a28-5e3f-420f-8236-1634e6a8a61d","system_id":"levelo_inurba_marseille","lat":43.25581,"lon":5.38241,"is_reserved":false,"is_disabled":false,"rental_uris":{"android":"levelo://app?vid=bd4e1a28-5e3f-420f-8236-1634e6a8a61d","ios":"levelo://app?vid=bd4e1a28-5e3f-420f-8236-1634e6a8a61d"},"vehicle_type_id":"4","last_reported":1730088723,"current_range_meters":38800,"station_id":"ce4bhih2rcd13ifvqfs0","pricing_plan_id":"cebpf4jnsgd1na2vs0mg"},{"bike_id":"d1dacee6-8f47-4ca5-823b-a2ea6c3413e8","system_id":"levelo_inurba_marseille","lat":43.23197,"lon":5.35556,"is_reserved":false,"is_disabled":false,"rental_uris":{"android":"levelo://app?vid=d1dacee6-8f47-4ca5-823b-a2ea6c3413e8","ios":"levelo://app?vid=d1dacee6-8f47-4ca5-823b-a2ea6c3413e8"},"vehicle_type_id":"4","last_reported":1730088723,"current_range_meters":37600,"station_id":"ce4bhu92rcd13ifvqi70","pricing_plan_id":"cebpf4jnsgd1na2vs0mg"},{"bike_id":"a6965f49-eb39-4825-8976-1f87c42f05ca","system_id":"levelo_inurba_marseille","lat":43.28708,"lon":5.39981,"is_reserved":false,"is_disabled":false,"rental_uris":{"android":"levelo://app?vid=a6965f49-eb39-4825-8976-1f87c42f05ca","ios":"levelo://app?vid=a6965f49-eb39-4825-8976-1f87c42f05ca"},"vehicle_type_id":"4","last_reported":1730088723,"current_range_meters":29600,"station_id":"ce4bho92rcd13ifvqh3g","pricing_plan_id":"cebpf4jnsgd1na2vs0mg"},{"bike_id":"73bf1d48-4811-483c-9cf9-ca83aa18090a","system_id":"levelo_inurba_marseille","lat":43.3136,"lon":5.38499,"is_reserved":false,"is_disabled":false,"rental_uris":{"android":"levelo://app?vid=73bf1d48-4811-483c-9cf9-ca83aa18090a","ios":"levelo://app?vid=73bf1d48-4811-483c-9cf9-ca83aa18090a"},"vehicle_type_id":"4","last_reported":1730088723,"current_range_meters":24800,"station_id":"ce4bgt92rcd13ifvqcf0","pricing_plan_id":"cebpf4jnsgd1na2vs0mg"},{"bike_id":"c15bb78c-79db-454d-9049-5376c32a3e58","system_id":"levelo_inurba_marseille","lat":43.25088,"lon":5.3952,"is_reserved":false,"is_disabled":false,"rental_uris":{"android":"levelo://app?vid=c15bb78c-79db-454d-9049-5376c32a3e58","ios":"levelo://app?vid=c15bb78c-79db-454d-9049-5376c32a3e58"},"vehicle_type_id":"4","last_reported":1730088723,"current_range_meters":20400,"station_id":"ce4bhm12rcd13ifvqgkg","pricing_plan_id":"cebpf4jnsgd1na2vs0mg"},{"bike_id":"308f161d-9c65-444a-b013-1fa98bd64f0a","system_id":"levelo_inurba_marseille","lat":43.26028,"lon":5.37545,"is_reserved":false,"is_disabled":false,"rental_uris":{"android":"levelo://app?vid=308f161d-9c65-444a-b013-1fa98bd64f0a","ios":"levelo://app?vid=308f161d-9c65-444a-b013-1fa98bd64f0a"},"vehicle_type_id":"4","last_reported":1730088723,"current_range_meters":38400,"station_id":"ce4bhgh2rcd13ifvqfa0","pricing_plan_id":"cebpf4jnsgd1na2vs0mg"},{"bike_id":"281c038d-5b03-40f4-a463-ab112c95800a","system_id":"levelo_inurba_marseille","lat":43.258666,"lon":5.398991,"is_reserved":false,"is_disabled":false,"rental_uris":{"android":"levelo://app?vid=281c038d-5b03-40f4-a463-ab112c95800a","ios":"levelo://app?vid=281c038d-5b03-40f4-a463-ab112c95800a"},"vehicle_type_id":"4","last_reported":1730088723,"current_range_meters":18000,"station_id":"ce4bhl92rcd13ifvqghg","pricing_plan_id":"cebpf4jnsgd1na2vs0mg"},{"bike_id":"062c37a5-8c98-4262-a368-0baffa13b81a","system_id":"levelo_inurba_marseille","lat":43.29551,"lon":5.42286,"is_reserved":false,"is_disabled":false,"rental_uris":{"android":"levelo://app?vid=062c37a5-8c98-4262-a368-0baffa13b81a","ios":"levelo://app?vid=062c37a5-8c98-4262-a368-0baffa13b81a"},"vehicle_type_id":"4","last_reported":1730088723,"current_range_meters":19600,"station_id":"ce4bhph2rcd13ifvqhdg","pricing_plan_id":"cebpf4jnsgd1na2vs0mg"},{"bike_id":"c617479c-40f2-49ac-ae62-20a0a7b2a8a7","system_id":"levelo_inurba_marseille","lat":43.30601,"lon":5.37209,"is_reserved":false,"is_disabled":false,"rental_uris":{"android":"levelo://app?vid=c617479c-40f2-49ac-ae62-20a0a7b2a8a7","ios":"levelo://app?vid=c617479c-40f2-49ac-ae62-20a0a7b2a8a7"},"vehicle_type_id":"4","last_reported":1730088723,"current_range_meters":38800,"station_id":"ce4bgqh2rcd13ifvqc4g","pricing_plan_id":"cebpf4jnsgd1na2vs0mg"},{"bike_id":"edbc0e87-faf3-4a8c-ba97-80b74e7fb7da","system_id":"levelo_inurba_marseille","lat":43.3234,"lon":5.40618,"is_reserved":false,"is_disabled":false,"rental_uris":{"android":"levelo://app?vid=edbc0e87-faf3-4a8c-ba97-80b74e7fb7da","ios":"levelo://app?vid=edbc0e87-faf3-4a8c-ba97-80b74e7fb7da"},"vehicle_type_id":"4","last_reported":1730088723,"current_range_meters":22400,"station_id":"ce4bhq92rcd13ifvqhjg","pricing_plan_id":"cebpf4jnsgd1na2vs0mg"},{"bike_id":"6523d741-a400-4a3a-aea6-0544dc00a47c","system_id":"levelo_inurba_marseille","lat":43.30097,"lon":5.39072,"is_reserved":false,"is_disabled":false,"rental_uris":{"android":"levelo://app?vid=6523d741-a400-4a3a-aea6-0544dc00a47c","ios":"levelo://app?vid=6523d741-a400-4a3a-aea6-0544dc00a47c"},"vehicle_type_id":"4","last_reported":1730088723,"current_range_meters":37600,"station_id":"ce4bh192rcd13ifvqdb0","pricing_plan_id":"cebpf4jnsgd1na2vs0mg"},{"bike_id":"18cb45f7-0b78-40a9-8bee-726daf5bf233","system_id":"levelo_inurba_marseille","lat":43.28611,"lon":5.35101,"is_reserved":false,"is_disabled":false,"rental_uris":{"android":"levelo://app?vid=18cb45f7-0b78-40a9-8bee-726daf5bf233","ios":"levelo://app?vid=18cb45f7-0b78-40a9-8bee-726daf5bf233"},"vehicle_type_id":"4","last_reported":1730088723,"current_range_meters":38800,"station_id":"ce4bhch2rcd13ifvqeug","pricing_plan_id":"cebpf4jnsgd1na2vs0mg"},{"bike_id":"fb0fb3bd-9991-459b-b6be-e6c91b7de3e3","system_id":"levelo_inurba_marseille","lat":43.28103,"lon":5.378438,"is_reserved":false,"is_disabled":false,"rental_uris":{"android":"levelo://app?vid=fb0fb3bd-9991-459b-b6be-e6c91b7de3e3","ios":"levelo://app?vid=fb0fb3bd-9991-459b-b6be-e6c91b7de3e3"},"vehicle_type_id":"4","last_reported":1730088723,"current_range_meters":24400,"station_id":"ce4bha12rcd13ifvqee0","pricing_plan_id":"cebpf4jnsgd1na2vs0mg"},{"bike_id":"49d48a20-ca55-4e3a-abd2-6bef373d1253","system_id":"levelo_inurba_marseille","lat":43.23066,"lon":5.35493,"is_reserved":false,"is_disabled":false,"rental_uris":{"android":"levelo://app?vid=49d48a20-ca55-4e3a-abd2-6bef373d1253","ios":"levelo://app?vid=49d48a20-ca55-4e3a-abd2-6bef373d1253"},"vehicle_type_id":"4","last_reported":1730088723,"current_range_meters":37600,"station_id":"cpo3342slgdg3j2ifvpg","pricing_plan_id":"cebpf4jnsgd1na2vs0mg"},{"bike_id":"9b79b680-30f8-4395-9792-113c894b5741","system_id":"levelo_inurba_marseille","lat":43.27178,"lon":5.40983,"is_reserved":false,"is_disabled":false,"rental_uris":{"android":"levelo://app?vid=9b79b680-30f8-4395-9792-113c894b5741","ios":"levelo://app?vid=9b79b680-30f8-4395-9792-113c894b5741"},"vehicle_type_id":"4","last_reported":1730088723,"current_range_meters":38800,"station_id":"ce4bhl12rcd13ifvqgf0","pricing_plan_id":"cebpf4jnsgd1na2vs0mg"},{"bike_id":"6875a1a6-32b9-4783-93f5-84a3a0c85f67","system_id":"levelo_inurba_marseille","lat":43.23066,"lon":5.35491,"is_reserved":false,"is_disabled":false,"rental_uris":{"android":"levelo://app?vid=6875a1a6-32b9-4783-93f5-84a3a0c85f67","ios":"levelo://app?vid=6875a1a6-32b9-4783-93f5-84a3a0c85f67"},"vehicle_type_id":"4","last_reported":1730088723,"current_range_meters":22000,"station_id":"cpo3342slgdg3j2ifvpg","pricing_plan_id":"cebpf4jnsgd1na2vs0mg"},{"bike_id":"7daba550-57fa-427b-a443-0c724a890480","system_id":"levelo_inurba_marseille","lat":43.299747,"lon":5.371905,"is_reserved":false,"is_disabled":false,"rental_uris":{"android":"levelo://app?vid=7daba550-57fa-427b-a443-0c724a890480","ios":"levelo://app?vid=7daba550-57fa-427b-a443-0c724a890480"},"vehicle_type_id":"4","last_reported":1730088723,"current_range_meters":39200,"station_id":"ce4bgr92rcd13ifvqc7g","pricing_plan_id":"cebpf4jnsgd1na2vs0mg"},{"bike_id":"c0ddcc40-140e-4622-be2d-e71dbc9ea9d7","system_id":"levelo_inurba_marseille","lat":43.28718,"lon":5.39973,"is_reserved":false,"is_disabled":false,"rental_uris":{"android":"levelo://app?vid=c0ddcc40-140e-4622-be2d-e71dbc9ea9d7","ios":"levelo://app?vid=c0ddcc40-140e-4622-be2d-e71dbc9ea9d7"},"vehicle_type_id":"4","last_reported":1730088723,"current_range_meters":38800,"station_id":"ce4bho92rcd13ifvqh3g","pricing_plan_id":"cebpf4jnsgd1na2vs0mg"},{"bike_id":"e89036ab-06cb-459b-91f1-830ff3435de6","system_id":"levelo_inurba_marseille","lat":43.23197,"lon":5.35548,"is_reserved":false,"is_disabled":false,"rental_uris":{"android":"levelo://app?vid=e89036ab-06cb-459b-91f1-830ff3435de6","ios":"levelo://app?vid=e89036ab-06cb-459b-91f1-830ff3435de6"},"vehicle_type_id":"4","last_reported":1730088723,"current_range_meters":38000,"station_id":"ce4bhu92rcd13ifvqi70","pricing_plan_id":"cebpf4jnsgd1na2vs0mg"},{"bike_id":"29e4d27e-c275-400d-963d-7448af940e61","system_id":"levelo_inurba_marseille","lat":43.32343,"lon":5.40623,"is_reserved":false,"is_disabled":false,"rental_uris":{"android":"levelo://app?vid=29e4d27e-c275-400d-963d-7448af940e61","ios":"levelo://app?vid=29e4d27e-c275-400d-963d-7448af940e61"},"vehicle_type_id":"4","last_reported":1730088723,"current_range_meters":15200,"station_id":"ce4bhq92rcd13ifvqhjg","pricing_plan_id":"cebpf4jnsgd1na2vs0mg"},{"bike_id":"66fb00a7-295c-492a-b5c9-538d3dea086f","system_id":"levelo_inurba_marseille","lat":43.23184,"lon":5.4372,"is_reserved":false,"is_disabled":false,"rental_uris":{"android":"levelo://app?vid=66fb00a7-295c-492a-b5c9-538d3dea086f","ios":"levelo://app?vid=66fb00a7-295c-492a-b5c9-538d3dea086f"},"vehicle_type_id":"4","last_reported":1730088723,"current_range_meters":22800,"station_id":"","pricing_plan_id":"cebpf4jnsgd1na2vs0mg"},{"bike_id":"c9e0e35a-f8cb-4b07-9938-b62186a1c999","system_id":"levelo_inurba_marseille","lat":43.29015,"lon":5.38139,"is_reserved":false,"is_disabled":false,"rental_uris":{"android":"levelo://app?vid=c9e0e35a-f8cb-4b07-9938-b62186a1c999","ios":"levelo://app?vid=c9e0e35a-f8cb-4b07-9938-b62186a1c999"},"vehicle_type_id":"4","last_reported":1730088723,"current_range_meters":38800,"station_id":"ce4bh4p2rcd13ifvqe1g","pricing_plan_id":"cebpf4jnsgd1na2vs0mg"},{"bike_id":"423b7481-04af-4526-aad6-5ce5cb05eabb","system_id":"levelo_inurba_marseille","lat":43.31123,"lon":5.37754,"is_reserved":false,"is_disabled":false,"rental_uris":{"android":"levelo://app?vid=423b7481-04af-4526-aad6-5ce5cb05eabb","ios":"levelo://app?vid=423b7481-04af-4526-aad6-5ce5cb05eabb"},"vehicle_type_id":"4","last_reported":1730088723,"current_range_meters":16400,"station_id":"ce4bgt92rcd13ifvqcg0","pricing_plan_id":"cebpf4jnsgd1na2vs0mg"},{"bike_id":"7fe76d9c-88a1-4c85-8e5f-9f86d7557849","system_id":"levelo_inurba_marseille","lat":43.2315,"lon":5.4371,"is_reserved":false,"is_disabled":false,"rental_uris":{"android":"levelo://app?vid=7fe76d9c-88a1-4c85-8e5f-9f86d7557849","ios":"levelo://app?vid=7fe76d9c-88a1-4c85-8e5f-9f86d7557849"},"vehicle_type_id":"4","last_reported":1730088723,"current_range_meters":23200,"station_id":"ce4bhmp2rcd13ifvqgog","pricing_plan_id":"cebpf4jnsgd1na2vs0mg"},{"bike_id":"5d013205-968f-46f0-8cb2-f55d13ad5ff4","system_id":"levelo_inurba_marseille","lat":43.32485,"lon":5.36572,"is_reserved":false,"is_disabled":false,"rental_uris":{"android":"levelo://app?vid=5d013205-968f-46f0-8cb2-f55d13ad5ff4","ios":"levelo://app?vid=5d013205-968f-46f0-8cb2-f55d13ad5ff4"},"vehicle_type_id":"4","last_reported":1730088723,"current_range_meters":38400,"station_id":"ce4bhs12rcd13ifvqhvg","pricing_plan_id":"cebpf4jnsgd1na2vs0mg"},{"bike_id":"6e94ca15-cabd-4111-abca-8fb777e4066b","system_id":"levelo_inurba_marseille","lat":43.31126,"lon":5.37757,"is_reserved":false,"is_disabled":false,"rental_uris":{"android":"levelo://app?vid=6e94ca15-cabd-4111-abca-8fb777e4066b","ios":"levelo://app?vid=6e94ca15-cabd-4111-abca-8fb777e4066b"},"vehicle_type_id":"4","last_reported":1730088723,"current_range_meters":32400,"station_id":"ce4bgt92rcd13ifvqcg0","pricing_plan_id":"cebpf4jnsgd1na2vs0mg"},{"bike_id":"29f6a33a-010b-4d11-ad67-35668c482cf7","system_id":"levelo_inurba_marseille","lat":43.29599,"lon":5.37502,"is_reserved":false,"is_disabled":false,"rental_uris":{"android":"levelo://app?vid=29f6a33a-010b-4d11-ad67-35668c482cf7","ios":"levelo://app?vid=29f6a33a-010b-4d11-ad67-35668c482cf7"},"vehicle_type_id":"4","last_reported":1730088723,"current_range_meters":38000,"station_id":"ce4bgh92rcd13ifvqb50","pricing_plan_id":"cebpf4jnsgd1na2vs0mg"},{"bike_id":"4cabb0fa-14e1-403b-9aba-afbf578c99c2","system_id":"levelo_inurba_marseille","lat":43.25107,"lon":5.40332,"is_reserved":false,"is_disabled":false,"rental_uris":{"android":"levelo://app?vid=4cabb0fa-14e1-403b-9aba-afbf578c99c2","ios":"levelo://app?vid=4cabb0fa-14e1-403b-9aba-afbf578c99c2"},"vehicle_type_id":"4","last_reported":1730088723,"current_range_meters":6400,"station_id":"ce4bhlh2rcd13ifvqgig","pricing_plan_id":"cebpf4jnsgd1na2vs0mg"},{"bike_id":"1cc74bec-44e2-4682-a38c-9a9389ec2ca9","system_id":"levelo_inurba_marseille","lat":43.29044,"lon":5.35916,"is_reserved":false,"is_disabled":false,"rental_uris":{"android":"levelo://app?vid=1cc74bec-44e2-4682-a38c-9a9389ec2ca9","ios":"levelo://app?vid=1cc74bec-44e2-4682-a38c-9a9389ec2ca9"},"vehicle_type_id":"4","last_reported":1730088723,"current_range_meters":12000,"station_id":"ce4bha92rcd13ifvqeg0","pricing_plan_id":"cebpf4jnsgd1na2vs0mg"},{"bike_id":"c9f299e7-44b3-4adc-a93d-769d4eadb8bd","system_id":"levelo_inurba_marseille","lat":43.23151,"lon":5.43716,"is_reserved":false,"is_disabled":false,"rental_uris":{"android":"levelo://app?vid=c9f299e7-44b3-4adc-a93d-769d4eadb8bd","ios":"levelo://app?vid=c9f299e7-44b3-4adc-a93d-769d4eadb8bd"},"vehicle_type_id":"4","last_reported":1730088723,"current_range_meters":24400,"station_id":"ce4bhmp2rcd13ifvqgog","pricing_plan_id":"cebpf4jnsgd1na2vs0mg"},{"bike_id":"c0f55023-92e6-4c86-aa3a-4e546eb253f7","system_id":"levelo_inurba_marseille","lat":43.284642,"lon":5.358798,"is_reserved":false,"is_disabled":false,"rental_uris":{"android":"levelo://app?vid=c0f55023-92e6-4c86-aa3a-4e546eb253f7","ios":"levelo://app?vid=c0f55023-92e6-4c86-aa3a-4e546eb253f7"},"vehicle_type_id":"4","last_reported":1730088723,"current_range_meters":32800,"station_id":"ce4bhah2rcd13ifvqei0","pricing_plan_id":"cebpf4jnsgd1na2vs0mg"},{"bike_id":"924a846c-5c1a-42b2-aa16-a875d10a39f8","system_id":"levelo_inurba_marseille","lat":43.3079,"lon":5.3817,"is_reserved":false,"is_disabled":false,"rental_uris":{"android":"levelo://app?vid=924a846c-5c1a-42b2-aa16-a875d10a39f8","ios":"levelo://app?vid=924a846c-5c1a-42b2-aa16-a875d10a39f8"},"vehicle_type_id":"4","last_reported":1730088723,"current_range_meters":36400,"station_id":"ce4bgt12rcd13ifvqce0","pricing_plan_id":"cebpf4jnsgd1na2vs0mg"},{"bike_id":"eba855d6-bb86-4b54-87b1-b102aa1a672a","system_id":"levelo_inurba_marseille","lat":43.31762,"lon":5.39018,"is_reserved":false,"is_disabled":false,"rental_uris":{"android":"levelo://app?vid=eba855d6-bb86-4b54-87b1-b102aa1a672a","ios":"levelo://app?vid=eba855d6-bb86-4b54-87b1-b102aa1a672a"},"vehicle_type_id":"4","last_reported":1730088723,"current_range_meters":38400,"station_id":"ce4bhqp2rcd13ifvqhng","pricing_plan_id":"cebpf4jnsgd1na2vs0mg"},{"bike_id":"0d2a4df3-011a-4936-a9fd-1a74dc86478f","system_id":"levelo_inurba_marseille","lat":43.32365,"lon":5.38883,"is_reserved":false,"is_disabled":false,"rental_uris":{"android":"levelo://app?vid=0d2a4df3-011a-4936-a9fd-1a74dc86478f","ios":"levelo://app?vid=0d2a4df3-011a-4936-a9fd-1a74dc86478f"},"vehicle_type_id":"4","last_reported":1730088723,"current_range_meters":26800,"station_id":"ce4bhqp2rcd13ifvqhog","pricing_plan_id":"cebpf4jnsgd1na2vs0mg"},{"bike_id":"3d822701-cfd6-42b9-b711-72bd3e903ecb","system_id":"levelo_inurba_marseille","lat":43.25116,"lon":5.40321,"is_reserved":false,"is_disabled":false,"rental_uris":{"android":"levelo://app?vid=3d822701-cfd6-42b9-b711-72bd3e903ecb","ios":"levelo://app?vid=3d822701-cfd6-42b9-b711-72bd3e903ecb"},"vehicle_type_id":"4","last_reported":1730088723,"current_range_meters":12400,"station_id":"ce4bhlh2rcd13ifvqgig","pricing_plan_id":"cebpf4jnsgd1na2vs0mg"},{"bike_id":"f2510b72-7e55-4d25-ac93-c226c89cf60e","system_id":"levelo_inurba_marseille","lat":43.30321,"lon":5.36891,"is_reserved":false,"is_disabled":false,"rental_uris":{"android":"levelo://app?vid=f2510b72-7e55-4d25-ac93-c226c89cf60e","ios":"levelo://app?vid=f2510b72-7e55-4d25-ac93-c226c89cf60e"},"vehicle_type_id":"4","last_reported":1730088723,"current_range_meters":37600,"station_id":"ce4bgqh2rcd13ifvqc5g","pricing_plan_id":"cebpf4jnsgd1na2vs0mg"},{"bike_id":"6d79455d-54e0-49e1-b06e-03ce912563c9","system_id":"levelo_inurba_marseille","lat":43.31495,"lon":5.37296,"is_reserved":false,"is_disabled":false,"rental_uris":{"android":"levelo://app?vid=6d79455d-54e0-49e1-b06e-03ce912563c9","ios":"levelo://app?vid=6d79455d-54e0-49e1-b06e-03ce912563c9"},"vehicle_type_id":"4","last_reported":1730088723,"current_range_meters":38000,"station_id":"ce4bgt12rcd13ifvqcd0","pricing_plan_id":"cebpf4jnsgd1na2vs0mg"},{"bike_id":"ef915c69-a746-473b-bdc6-ca2cdbe5bac9","system_id":"levelo_inurba_marseille","lat":43.32286,"lon":5.382798,"is_reserved":false,"is_disabled":false,"rental_uris":{"android":"levelo://app?vid=ef915c69-a746-473b-bdc6-ca2cdbe5bac9","ios":"levelo://app?vid=ef915c69-a746-473b-bdc6-ca2cdbe5bac9"},"vehicle_type_id":"4","last_reported":1730088723,"current_range_meters":38800,"station_id":"ce4bhr12rcd13ifvqhqg","pricing_plan_id":"cebpf4jnsgd1na2vs0mg"},{"bike_id":"3d5a1e4f-9eaf-4518-a7d4-cd942bb61755","system_id":"levelo_inurba_marseille","lat":43.28711,"lon":5.39979,"is_reserved":false,"is_disabled":false,"rental_uris":{"android":"levelo://app?vid=3d5a1e4f-9eaf-4518-a7d4-cd942bb61755","ios":"levelo://app?vid=3d5a1e4f-9eaf-4518-a7d4-cd942bb61755"},"vehicle_type_id":"4","last_reported":1730088723,"current_range_meters":29600,"station_id":"ce4bho92rcd13ifvqh3g","pricing_plan_id":"cebpf4jnsgd1na2vs0mg"},{"bike_id":"cd8988cf-34e0-4cd8-92c1-67d3cd8c964e","system_id":"levelo_inurba_marseille","lat":43.23955,"lon":5.36628,"is_reserved":false,"is_disabled":false,"rental_uris":{"android":"levelo://app?vid=cd8988cf-34e0-4cd8-92c1-67d3cd8c964e","ios":"levelo://app?vid=cd8988cf-34e0-4cd8-92c1-67d3cd8c964e"},"vehicle_type_id":"4","last_reported":1730088723,"current_range_meters":12000,"station_id":"ce4bhi12rcd13ifvqfp0","pricing_plan_id":"cebpf4jnsgd1na2vs0mg"},{"bike_id":"4b4c881c-be97-49d5-9517-45cef8c368a3","system_id":"levelo_inurba_marseille","lat":43.3171,"lon":5.43703,"is_reserved":false,"is_disabled":false,"rental_uris":{"android":"levelo://app?vid=4b4c881c-be97-49d5-9517-45cef8c368a3","ios":"levelo://app?vid=4b4c881c-be97-49d5-9517-45cef8c368a3"},"vehicle_type_id":"4","last_reported":1730088723,"current_range_meters":38800,"station_id":"ce4bhp92rcd13ifvqhcg","pricing_plan_id":"cebpf4jnsgd1na2vs0mg"},{"bike_id":"ed40ab0f-ca23-4cf8-bad8-713b374e3242","system_id":"levelo_inurba_marseille","lat":43.30413,"lon":5.41283,"is_reserved":false,"is_disabled":false,"rental_uris":{"android":"levelo://app?vid=ed40ab0f-ca23-4cf8-bad8-713b374e3242","ios":"levelo://app?vid=ed40ab0f-ca23-4cf8-bad8-713b374e3242"},"vehicle_type_id":"4","last_reported":1730088723,"current_range_meters":35600,"station_id":"ce4bhop2rcd13ifvqh8g","pricing_plan_id":"cebpf4jnsgd1na2vs0mg"},{"bike_id":"1747cfa9-b040-4698-b581-4316c2e2fdf4","system_id":"levelo_inurba_marseille","lat":43.30208,"lon":5.39467,"is_reserved":false,"is_disabled":false,"rental_uris":{"android":"levelo://app?vid=1747cfa9-b040-4698-b581-4316c2e2fdf4","ios":"levelo://app?vid=1747cfa9-b040-4698-b581-4316c2e2fdf4"},"vehicle_type_id":"4","last_reported":1730088723,"current_range_meters":38000,"station_id":"ce4bh0p2rcd13ifvqd70","pricing_plan_id":"cebpf4jnsgd1na2vs0mg"},{"bike_id":"97aea651-a68f-4129-a1f2-0c368fe7bbe6","system_id":"levelo_inurba_marseille","lat":43.29785,"lon":5.37118,"is_reserved":false,"is_disabled":false,"rental_uris":{"android":"levelo://app?vid=97aea651-a68f-4129-a1f2-0c368fe7bbe6","ios":"levelo://app?vid=97aea651-a68f-4129-a1f2-0c368fe7bbe6"},"vehicle_type_id":"4","last_reported":1730088723,"current_range_meters":38000,"station_id":"ce4bgop2rcd13ifvqc1g","pricing_plan_id":"cebpf4jnsgd1na2vs0mg"},{"bike_id":"4461f702-9d41-45c6-b89e-9f584ce5f30d","system_id":"levelo_inurba_marseille","lat":43.28937,"lon":5.36389,"is_reserved":false,"is_disabled":false,"rental_uris":{"android":"levelo://app?vid=4461f702-9d41-45c6-b89e-9f584ce5f30d","ios":"levelo://app?vid=4461f702-9d41-45c6-b89e-9f584ce5f30d"},"vehicle_type_id":"4","last_reported":1730088723,"current_range_meters":28000,"station_id":"ce4bhc92rcd13ifvqetg","pricing_plan_id":"cebpf4jnsgd1na2vs0mg"},{"bike_id":"ed359f0a-e127-4b75-a938-306e58651b29","system_id":"levelo_inurba_marseille","lat":43.30285,"lon":5.37702,"is_reserved":false,"is_disabled":false,"rental_uris":{"android":"levelo://app?vid=ed359f0a-e127-4b75-a938-306e58651b29","ios":"levelo://app?vid=ed359f0a-e127-4b75-a938-306e58651b29"},"vehicle_type_id":"4","last_reported":1730088723,"current_range_meters":25600,"station_id":"ce4bguh2rcd13ifvqcj0","pricing_plan_id":"cebpf4jnsgd1na2vs0mg"},{"bike_id":"12f5d9c6-0352-4b72-9e99-839cf8f1d1c1","system_id":"levelo_inurba_marseille","lat":43.33608,"lon":5.4103,"is_reserved":false,"is_disabled":false,"rental_uris":{"android":"levelo://app?vid=12f5d9c6-0352-4b72-9e99-839cf8f1d1c1","ios":"levelo://app?vid=12f5d9c6-0352-4b72-9e99-839cf8f1d1c1"},"vehicle_type_id":"4","last_reported":1730088723,"current_range_meters":38000,"station_id":"ce4bhqh2rcd13ifvqhmg","pricing_plan_id":"cebpf4jnsgd1na2vs0mg"},{"bike_id":"5a70dc92-4a6f-4af7-ba8f-6b784bf94a61","system_id":"levelo_inurba_marseille","lat":43.27056,"lon":5.39963,"is_reserved":false,"is_disabled":false,"rental_uris":{"android":"levelo://app?vid=5a70dc92-4a6f-4af7-ba8f-6b784bf94a61","ios":"levelo://app?vid=5a70dc92-4a6f-4af7-ba8f-6b784bf94a61"},"vehicle_type_id":"4","last_reported":1730088723,"current_range_meters":36800,"station_id":"","pricing_plan_id":"cebpf4jnsgd1na2vs0mg"},{"bike_id":"bea43885-0856-455e-ac3f-50e3c52f4d9e","system_id":"levelo_inurba_marseille","lat":43.25108,"lon":5.4032,"is_reserved":false,"is_disabled":false,"rental_uris":{"android":"levelo://app?vid=bea43885-0856-455e-ac3f-50e3c52f4d9e","ios":"levelo://app?vid=bea43885-0856-455e-ac3f-50e3c52f4d9e"},"vehicle_type_id":"4","last_reported":1730088723,"current_range_meters":38800,"station_id":"ce4bhlh2rcd13ifvqgig","pricing_plan_id":"cebpf4jnsgd1na2vs0mg"},{"bike_id":"9ac06857-e5cf-459f-87b4-75d0710bcab5","system_id":"levelo_inurba_marseille","lat":43.323361,"lon":5.406234,"is_reserved":false,"is_disabled":false,"rental_uris":{"android":"levelo://app?vid=9ac06857-e5cf-459f-87b4-75d0710bcab5","ios":"levelo://app?vid=9ac06857-e5cf-459f-87b4-75d0710bcab5"},"vehicle_type_id":"4","last_reported":1730088723,"current_range_meters":14800,"station_id":"ce4bhq92rcd13ifvqhjg","pricing_plan_id":"cebpf4jnsgd1na2vs0mg"},{"bike_id":"22ca0989-6470-4735-a8b1-883f9bf848b8","system_id":"levelo_inurba_marseille","lat":43.24548,"lon":5.39522,"is_reserved":false,"is_disabled":false,"rental_uris":{"android":"levelo://app?vid=22ca0989-6470-4735-a8b1-883f9bf848b8","ios":"levelo://app?vid=22ca0989-6470-4735-a8b1-883f9bf848b8"},"vehicle_type_id":"4","last_reported":1730088723,"current_range_meters":38800,"station_id":"ce4bhlp2rcd13ifvqgjg","pricing_plan_id":"cebpf4jnsgd1na2vs0mg"},{"bike_id":"aacb3cb6-ebb2-4c9a-9d59-1efc9a1b694e","system_id":"levelo_inurba_marseille","lat":43.2511,"lon":5.40314,"is_reserved":false,"is_disabled":false,"rental_uris":{"android":"levelo://app?vid=aacb3cb6-ebb2-4c9a-9d59-1efc9a1b694e","ios":"levelo://app?vid=aacb3cb6-ebb2-4c9a-9d59-1efc9a1b694e"},"vehicle_type_id":"4","last_reported":1730088723,"current_range_meters":9600,"station_id":"ce4bhlh2rcd13ifvqgig","pricing_plan_id":"cebpf4jnsgd1na2vs0mg"},{"bike_id":"9adafdd8-3240-48a9-a8cf-b77695dc96b2","system_id":"levelo_inurba_marseille","lat":43.3236,"lon":5.38907,"is_reserved":false,"is_disabled":false,"rental_uris":{"android":"levelo://app?vid=9adafdd8-3240-48a9-a8cf-b77695dc96b2","ios":"levelo://app?vid=9adafdd8-3240-48a9-a8cf-b77695dc96b2"},"vehicle_type_id":"4","last_reported":1730088723,"current_range_meters":38400,"station_id":"ce4bhqp2rcd13ifvqhog","pricing_plan_id":"cebpf4jnsgd1na2vs0mg"},{"bike_id":"8d66ba2e-e771-4c67-99ad-ef2d113002e3","system_id":"levelo_inurba_marseille","lat":43.25082,"lon":5.39517,"is_reserved":false,"is_disabled":false,"rental_uris":{"android":"levelo://app?vid=8d66ba2e-e771-4c67-99ad-ef2d113002e3","ios":"levelo://app?vid=8d66ba2e-e771-4c67-99ad-ef2d113002e3"},"vehicle_type_id":"4","last_reported":1730088723,"current_range_meters":39200,"station_id":"ce4bhm12rcd13ifvqgkg","pricing_plan_id":"cebpf4jnsgd1na2vs0mg"},{"bike_id":"6981206a-d30e-4a3d-914c-c893cef2a8e3","system_id":"levelo_inurba_marseille","lat":43.28697,"lon":5.39975,"is_reserved":false,"is_disabled":false,"rental_uris":{"android":"levelo://app?vid=6981206a-d30e-4a3d-914c-c893cef2a8e3","ios":"levelo://app?vid=6981206a-d30e-4a3d-914c-c893cef2a8e3"},"vehicle_type_id":"4","last_reported":1730088723,"current_range_meters":38800,"station_id":"ce4bho92rcd13ifvqh3g","pricing_plan_id":"cebpf4jnsgd1na2vs0mg"},{"bike_id":"b405e5c0-dac6-4fef-a8f7-2cca2eb8d718","system_id":"levelo_inurba_marseille","lat":43.30417,"lon":5.41279,"is_reserved":false,"is_disabled":false,"rental_uris":{"android":"levelo://app?vid=b405e5c0-dac6-4fef-a8f7-2cca2eb8d718","ios":"levelo://app?vid=b405e5c0-dac6-4fef-a8f7-2cca2eb8d718"},"vehicle_type_id":"4","last_reported":1730088723,"current_range_meters":25200,"station_id":"ce4bhop2rcd13ifvqh8g","pricing_plan_id":"cebpf4jnsgd1na2vs0mg"},{"bike_id":"bff575ca-c255-4a46-8a9d-4bac098e697d","system_id":"levelo_inurba_marseille","lat":43.28462,"lon":5.35878,"is_reserved":false,"is_disabled":false,"rental_uris":{"android":"levelo://app?vid=bff575ca-c255-4a46-8a9d-4bac098e697d","ios":"levelo://app?vid=bff575ca-c255-4a46-8a9d-4bac098e697d"},"vehicle_type_id":"4","last_reported":1730088723,"current_range_meters":34000,"station_id":"ce4bhah2rcd13ifvqei0","pricing_plan_id":"cebpf4jnsgd1na2vs0mg"},{"bike_id":"c8713419-a835-43b9-ac75-b05adb95bea9","system_id":"levelo_inurba_marseille","lat":43.29553,"lon":5.42286,"is_reserved":false,"is_disabled":false,"rental_uris":{"android":"levelo://app?vid=c8713419-a835-43b9-ac75-b05adb95bea9","ios":"levelo://app?vid=c8713419-a835-43b9-ac75-b05adb95bea9"},"vehicle_type_id":"4","last_reported":1730088723,"current_range_meters":38800,"station_id":"ce4bhph2rcd13ifvqhdg","pricing_plan_id":"cebpf4jnsgd1na2vs0mg"},{"bike_id":"0727f7fa-8959-4af5-8998-b27de5da9a6d","system_id":"levelo_inurba_marseille","lat":43.31367,"lon":5.38493,"is_reserved":false,"is_disabled":false,"rental_uris":{"android":"levelo://app?vid=0727f7fa-8959-4af5-8998-b27de5da9a6d","ios":"levelo://app?vid=0727f7fa-8959-4af5-8998-b27de5da9a6d"},"vehicle_type_id":"4","last_reported":1730088723,"current_range_meters":39200,"station_id":"ce4bgt92rcd13ifvqcf0","pricing_plan_id":"cebpf4jnsgd1na2vs0mg"},{"bike_id":"dd631912-a53f-412d-9cdc-5746d82ad43d","system_id":"levelo_inurba_marseille","lat":43.30958,"lon":5.39035,"is_reserved":false,"is_disabled":false,"rental_uris":{"android":"levelo://app?vid=dd631912-a53f-412d-9cdc-5746d82ad43d","ios":"levelo://app?vid=dd631912-a53f-412d-9cdc-5746d82ad43d"},"vehicle_type_id":"4","last_reported":1730088723,"current_range_meters":33600,"station_id":"ce4bgup2rcd13ifvqco0","pricing_plan_id":"cebpf4jnsgd1na2vs0mg"},{"bike_id":"93d82bfd-ea76-4407-82bc-fffe9912c130","system_id":"levelo_inurba_marseille","lat":43.24079,"lon":5.37754,"is_reserved":false,"is_disabled":false,"rental_uris":{"android":"levelo://app?vid=93d82bfd-ea76-4407-82bc-fffe9912c130","ios":"levelo://app?vid=93d82bfd-ea76-4407-82bc-fffe9912c130"},"vehicle_type_id":"4","last_reported":1730088723,"current_range_meters":38800,"station_id":"ce4bhnp2rcd13ifvqgvg","pricing_plan_id":"cebpf4jnsgd1na2vs0mg"},{"bike_id":"36e9df11-871b-42b5-b413-0559282d5b19","system_id":"levelo_inurba_marseille","lat":43.289392,"lon":5.366354,"is_reserved":false,"is_disabled":false,"rental_uris":{"android":"levelo://app?vid=36e9df11-871b-42b5-b413-0559282d5b19","ios":"levelo://app?vid=36e9df11-871b-42b5-b413-0559282d5b19"},"vehicle_type_id":"4","last_reported":1730088723,"current_range_meters":38800,"station_id":"ce4bhap2rcd13ifvqek0","pricing_plan_id":"cebpf4jnsgd1na2vs0mg"},{"bike_id":"91d85bed-e01e-4c53-bef7-3f7b97da4ec7","system_id":"levelo_inurba_marseille","lat":43.30301,"lon":5.39203,"is_reserved":false,"is_disabled":false,"rental_uris":{"android":"levelo://app?vid=91d85bed-e01e-4c53-bef7-3f7b97da4ec7","ios":"levelo://app?vid=91d85bed-e01e-4c53-bef7-3f7b97da4ec7"},"vehicle_type_id":"4","last_reported":1730088723,"current_range_meters":25600,"station_id":"ce4bgkh2rcd13ifvqbk0","pricing_plan_id":"cebpf4jnsgd1na2vs0mg"},{"bike_id":"6a13b893-b42b-4a62-9517-c2734937350b","system_id":"levelo_inurba_marseille","lat":43.306,"lon":5.37239,"is_reserved":false,"is_disabled":false,"rental_uris":{"android":"levelo://app?vid=6a13b893-b42b-4a62-9517-c2734937350b","ios":"levelo://app?vid=6a13b893-b42b-4a62-9517-c2734937350b"},"vehicle_type_id":"4","last_reported":1730088723,"current_range_meters":22400,"station_id":"ce4bgqh2rcd13ifvqc4g","pricing_plan_id":"cebpf4jnsgd1na2vs0mg"},{"bike_id":"22e69140-bec2-4569-b1a2-bd6ec9c288e5","system_id":"levelo_inurba_marseille","lat":43.28147,"lon":5.42641,"is_reserved":false,"is_disabled":false,"rental_uris":{"android":"levelo://app?vid=22e69140-bec2-4569-b1a2-bd6ec9c288e5","ios":"levelo://app?vid=22e69140-bec2-4569-b1a2-bd6ec9c288e5"},"vehicle_type_id":"4","last_reported":1730088723,"current_range_meters":20000,"station_id":"ce4bhnh2rcd13ifvqgug","pricing_plan_id":"cebpf4jnsgd1na2vs0mg"},{"bike_id":"e113f747-4daa-44f7-a218-9e030daa2565","system_id":"levelo_inurba_marseille","lat":43.32107,"lon":5.36773,"is_reserved":false,"is_disabled":false,"rental_uris":{"android":"levelo://app?vid=e113f747-4daa-44f7-a218-9e030daa2565","ios":"levelo://app?vid=e113f747-4daa-44f7-a218-9e030daa2565"},"vehicle_type_id":"4","last_reported":1730088723,"current_range_meters":23200,"station_id":"ce4bhrh2rcd13ifvqhug","pricing_plan_id":"cebpf4jnsgd1na2vs0mg"},{"bike_id":"6738a6c6-65f8-47be-97d2-7367cfabdbe3","system_id":"levelo_inurba_marseille","lat":43.29296,"lon":5.3717,"is_reserved":false,"is_disabled":false,"rental_uris":{"android":"levelo://app?vid=6738a6c6-65f8-47be-97d2-7367cfabdbe3","ios":"levelo://app?vid=6738a6c6-65f8-47be-97d2-7367cfabdbe3"},"vehicle_type_id":"4","last_reported":1730088723,"current_range_meters":38800,"station_id":"ce4bgh92rcd13ifvqb40","pricing_plan_id":"cebpf4jnsgd1na2vs0mg"},{"bike_id":"c83bf92a-895e-4031-90cc-0a4806604b3f","system_id":"levelo_inurba_marseille","lat":43.23054,"lon":5.35491,"is_reserved":false,"is_disabled":false,"rental_uris":{"android":"levelo://app?vid=c83bf92a-895e-4031-90cc-0a4806604b3f","ios":"levelo://app?vid=c83bf92a-895e-4031-90cc-0a4806604b3f"},"vehicle_type_id":"4","last_reported":1730088723,"current_range_meters":38000,"station_id":"cpo3342slgdg3j2ifvpg","pricing_plan_id":"cebpf4jnsgd1na2vs0mg"},{"bike_id":"7aa75f4f-6c54-422b-a13a-a6e764682ad2","system_id":"levelo_inurba_marseille","lat":43.29043,"lon":5.39958,"is_reserved":false,"is_disabled":false,"rental_uris":{"android":"levelo://app?vid=7aa75f4f-6c54-422b-a13a-a6e764682ad2","ios":"levelo://app?vid=7aa75f4f-6c54-422b-a13a-a6e764682ad2"},"vehicle_type_id":"4","last_reported":1730088723,"current_range_meters":33600,"station_id":"ce4bh392rcd13ifvqdm0","pricing_plan_id":"cebpf4jnsgd1na2vs0mg"},{"bike_id":"9fd56fad-5f3d-42b4-b491-7b57b76bc0cf","system_id":"levelo_inurba_marseille","lat":43.278158,"lon":5.407182,"is_reserved":false,"is_disabled":false,"rental_uris":{"android":"levelo://app?vid=9fd56fad-5f3d-42b4-b491-7b57b76bc0cf","ios":"levelo://app?vid=9fd56fad-5f3d-42b4-b491-7b57b76bc0cf"},"vehicle_type_id":"4","last_reported":1730088723,"current_range_meters":18800,"station_id":"ce4bhnh2rcd13ifvqgtg","pricing_plan_id":"cebpf4jnsgd1na2vs0mg"},{"bike_id":"4b362985-db1a-4fb6-acf6-25ab1075fd08","system_id":"levelo_inurba_marseille","lat":43.27054,"lon":5.4026,"is_reserved":false,"is_disabled":false,"rental_uris":{"android":"levelo://app?vid=4b362985-db1a-4fb6-acf6-25ab1075fd08","ios":"levelo://app?vid=4b362985-db1a-4fb6-acf6-25ab1075fd08"},"vehicle_type_id":"4","last_reported":1730088723,"current_range_meters":38800,"station_id":"ce4bhk92rcd13ifvqgc0","pricing_plan_id":"cebpf4jnsgd1na2vs0mg"},{"bike_id":"bc75bc36-53c2-40d2-a77d-675682863779","system_id":"levelo_inurba_marseille","lat":43.309508,"lon":5.390449,"is_reserved":false,"is_disabled":false,"rental_uris":{"android":"levelo://app?vid=bc75bc36-53c2-40d2-a77d-675682863779","ios":"levelo://app?vid=bc75bc36-53c2-40d2-a77d-675682863779"},"vehicle_type_id":"4","last_reported":1730088723,"current_range_meters":7200,"station_id":"ce4bgup2rcd13ifvqco0","pricing_plan_id":"cebpf4jnsgd1na2vs0mg"},{"bike_id":"690b5d62-9810-4150-863e-35762f14a011","system_id":"levelo_inurba_marseille","lat":43.24802,"lon":5.37454,"is_reserved":false,"is_disabled":false,"rental_uris":{"android":"levelo://app?vid=690b5d62-9810-4150-863e-35762f14a011","ios":"levelo://app?vid=690b5d62-9810-4150-863e-35762f14a011"},"vehicle_type_id":"4","last_reported":1730088723,"current_range_meters":32800,"station_id":"ce4bhgh2rcd13ifvqfb0","pricing_plan_id":"cebpf4jnsgd1na2vs0mg"},{"bike_id":"1a6b642e-e085-4146-a0f3-57a2127d50e2","system_id":"levelo_inurba_marseille","lat":43.3176,"lon":5.39014,"is_reserved":false,"is_disabled":false,"rental_uris":{"android":"levelo://app?vid=1a6b642e-e085-4146-a0f3-57a2127d50e2","ios":"levelo://app?vid=1a6b642e-e085-4146-a0f3-57a2127d50e2"},"vehicle_type_id":"4","last_reported":1730088723,"current_range_meters":8400,"station_id":"ce4bhqp2rcd13ifvqhng","pricing_plan_id":"cebpf4jnsgd1na2vs0mg"},{"bike_id":"b502ad4f-4825-42a7-9380-4b1fe6eb7c94","system_id":"levelo_inurba_marseille","lat":43.29965,"lon":5.41312,"is_reserved":false,"is_disabled":false,"rental_uris":{"android":"levelo://app?vid=b502ad4f-4825-42a7-9380-4b1fe6eb7c94","ios":"levelo://app?vid=b502ad4f-4825-42a7-9380-4b1fe6eb7c94"},"vehicle_type_id":"4","last_reported":1730088723,"current_range_meters":38000,"station_id":"ce4bhp12rcd13ifvqh9g","pricing_plan_id":"cebpf4jnsgd1na2vs0mg"},{"bike_id":"b04efa54-544e-4d58-9594-ae7e10fe76cf","system_id":"levelo_inurba_marseille","lat":43.25865,"lon":5.39897,"is_reserved":false,"is_disabled":false,"rental_uris":{"android":"levelo://app?vid=b04efa54-544e-4d58-9594-ae7e10fe76cf","ios":"levelo://app?vid=b04efa54-544e-4d58-9594-ae7e10fe76cf"},"vehicle_type_id":"4","last_reported":1730088723,"current_range_meters":8400,"station_id":"ce4bhl92rcd13ifvqghg","pricing_plan_id":"cebpf4jnsgd1na2vs0mg"},{"bike_id":"16578466-81f3-472d-b079-b2e4ec231203","system_id":"levelo_inurba_marseille","lat":43.33611,"lon":5.41022,"is_reserved":false,"is_disabled":false,"rental_uris":{"android":"levelo://app?vid=16578466-81f3-472d-b079-b2e4ec231203","ios":"levelo://app?vid=16578466-81f3-472d-b079-b2e4ec231203"},"vehicle_type_id":"4","last_reported":1730088723,"current_range_meters":38000,"station_id":"ce4bhqh2rcd13ifvqhmg","pricing_plan_id":"cebpf4jnsgd1na2vs0mg"},{"bike_id":"1d0d92b7-f6c1-4ccd-8c1f-6182976eb675","system_id":"levelo_inurba_marseille","lat":43.26212,"lon":5.37926,"is_reserved":false,"is_disabled":false,"rental_uris":{"android":"levelo://app?vid=1d0d92b7-f6c1-4ccd-8c1f-6182976eb675","ios":"levelo://app?vid=1d0d92b7-f6c1-4ccd-8c1f-6182976eb675"},"vehicle_type_id":"4","last_reported":1730088723,"current_range_meters":35200,"station_id":"ce4bhjp2rcd13ifvqg90","pricing_plan_id":"cebpf4jnsgd1na2vs0mg"},{"bike_id":"a8f9e5f1-9109-4bb3-bf33-6f5251bd1cff","system_id":"levelo_inurba_marseille","lat":43.306062,"lon":5.372229,"is_reserved":false,"is_disabled":false,"rental_uris":{"android":"levelo://app?vid=a8f9e5f1-9109-4bb3-bf33-6f5251bd1cff","ios":"levelo://app?vid=a8f9e5f1-9109-4bb3-bf33-6f5251bd1cff"},"vehicle_type_id":"4","last_reported":1730088723,"current_range_meters":15200,"station_id":"ce4bgqh2rcd13ifvqc4g","pricing_plan_id":"cebpf4jnsgd1na2vs0mg"},{"bike_id":"f1704452-cc24-4a74-8351-c1aa1bec66cb","system_id":"levelo_inurba_marseille","lat":43.28854,"lon":5.35849,"is_reserved":false,"is_disabled":false,"rental_uris":{"android":"levelo://app?vid=f1704452-cc24-4a74-8351-c1aa1bec66cb","ios":"levelo://app?vid=f1704452-cc24-4a74-8351-c1aa1bec66cb"},"vehicle_type_id":"4","last_reported":1730088723,"current_range_meters":29600,"station_id":"ce4bhb12rcd13ifvqem0","pricing_plan_id":"cebpf4jnsgd1na2vs0mg"},{"bike_id":"bb43b68b-eba2-4125-9e9f-ebf8a22cffee","system_id":"levelo_inurba_marseille","lat":43.31764,"lon":5.39015,"is_reserved":false,"is_disabled":false,"rental_uris":{"android":"levelo://app?vid=bb43b68b-eba2-4125-9e9f-ebf8a22cffee","ios":"levelo://app?vid=bb43b68b-eba2-4125-9e9f-ebf8a22cffee"},"vehicle_type_id":"4","last_reported":1730088723,"current_range_meters":30000,"station_id":"ce4bhqp2rcd13ifvqhng","pricing_plan_id":"cebpf4jnsgd1na2vs0mg"},{"bike_id":"3528de46-0377-451a-8a44-997de482e404","system_id":"levelo_inurba_marseille","lat":43.304362,"lon":5.388911,"is_reserved":false,"is_disabled":false,"rental_uris":{"android":"levelo://app?vid=3528de46-0377-451a-8a44-997de482e404","ios":"levelo://app?vid=3528de46-0377-451a-8a44-997de482e404"},"vehicle_type_id":"4","last_reported":1730088723,"current_range_meters":38800,"station_id":"ce4bgk12rcd13ifvqbi0","pricing_plan_id":"cebpf4jnsgd1na2vs0mg"},{"bike_id":"630e8ee7-2ca4-4214-9e45-0804a2e1bf1d","system_id":"levelo_inurba_marseille","lat":43.31893,"lon":5.40726,"is_reserved":false,"is_disabled":false,"rental_uris":{"android":"levelo://app?vid=630e8ee7-2ca4-4214-9e45-0804a2e1bf1d","ios":"levelo://app?vid=630e8ee7-2ca4-4214-9e45-0804a2e1bf1d"},"vehicle_type_id":"4","last_reported":1730088723,"current_range_meters":8400,"station_id":"ce4bhq12rcd13ifvqhig","pricing_plan_id":"cebpf4jnsgd1na2vs0mg"},{"bike_id":"69d24c0a-401f-4b7f-a251-1bc8383a331f","system_id":"levelo_inurba_marseille","lat":43.2738,"lon":5.36265,"is_reserved":false,"is_disabled":false,"rental_uris":{"android":"levelo://app?vid=69d24c0a-401f-4b7f-a251-1bc8383a331f","ios":"levelo://app?vid=69d24c0a-401f-4b7f-a251-1bc8383a331f"},"vehicle_type_id":"4","last_reported":1730088723,"current_range_meters":32800,"station_id":"ce4bhbh2rcd13ifvqeo0","pricing_plan_id":"cebpf4jnsgd1na2vs0mg"},{"bike_id":"ba7ff12b-4fb3-47ea-b304-85ab8fca1364","system_id":"levelo_inurba_marseille","lat":43.32282,"lon":5.38276,"is_reserved":false,"is_disabled":false,"rental_uris":{"android":"levelo://app?vid=ba7ff12b-4fb3-47ea-b304-85ab8fca1364","ios":"levelo://app?vid=ba7ff12b-4fb3-47ea-b304-85ab8fca1364"},"vehicle_type_id":"4","last_reported":1730088723,"current_range_meters":38800,"station_id":"ce4bhr12rcd13ifvqhqg","pricing_plan_id":"cebpf4jnsgd1na2vs0mg"},{"bike_id":"0c8e91d5-48c5-48c3-9198-c07a15466f99","system_id":"levelo_inurba_marseille","lat":43.295648,"lon":5.399667,"is_reserved":false,"is_disabled":false,"rental_uris":{"android":"levelo://app?vid=0c8e91d5-48c5-48c3-9198-c07a15466f99","ios":"levelo://app?vid=0c8e91d5-48c5-48c3-9198-c07a15466f99"},"vehicle_type_id":"4","last_reported":1730088723,"current_range_meters":37600,"station_id":"ce4bh312rcd13ifvqdj0","pricing_plan_id":"cebpf4jnsgd1na2vs0mg"},{"bike_id":"3175915b-2fbf-4d22-8776-58128d4114a6","system_id":"levelo_inurba_marseille","lat":43.27999,"lon":5.41659,"is_reserved":false,"is_disabled":false,"rental_uris":{"android":"levelo://app?vid=3175915b-2fbf-4d22-8776-58128d4114a6","ios":"levelo://app?vid=3175915b-2fbf-4d22-8776-58128d4114a6"},"vehicle_type_id":"4","last_reported":1730088723,"current_range_meters":4800,"station_id":"ce4bho12rcd13ifvqh1g","pricing_plan_id":"cebpf4jnsgd1na2vs0mg"},{"bike_id":"2842f46d-2e4d-42ec-9460-60174175b404","system_id":"levelo_inurba_marseille","lat":43.25114,"lon":5.40317,"is_reserved":false,"is_disabled":false,"rental_uris":{"android":"levelo://app?vid=2842f46d-2e4d-42ec-9460-60174175b404","ios":"levelo://app?vid=2842f46d-2e4d-42ec-9460-60174175b404"},"vehicle_type_id":"4","last_reported":1730088723,"current_range_meters":29600,"station_id":"ce4bhlh2rcd13ifvqgig","pricing_plan_id":"cebpf4jnsgd1na2vs0mg"},{"bike_id":"771c3aab-3244-46b8-a348-ba752df5cec0","system_id":"levelo_inurba_marseille","lat":43.25867,"lon":5.39894,"is_reserved":false,"is_disabled":false,"rental_uris":{"android":"levelo://app?vid=771c3aab-3244-46b8-a348-ba752df5cec0","ios":"levelo://app?vid=771c3aab-3244-46b8-a348-ba752df5cec0"},"vehicle_type_id":"4","last_reported":1730088723,"current_range_meters":34800,"station_id":"ce4bhl92rcd13ifvqghg","pricing_plan_id":"cebpf4jnsgd1na2vs0mg"},{"bike_id":"f7a50275-88a4-4be4-ac33-5cce1242cfaa","system_id":"levelo_inurba_marseille","lat":43.31712,"lon":5.37755,"is_reserved":false,"is_disabled":false,"rental_uris":{"android":"levelo://app?vid=f7a50275-88a4-4be4-ac33-5cce1242cfaa","ios":"levelo://app?vid=f7a50275-88a4-4be4-ac33-5cce1242cfaa"},"vehicle_type_id":"4","last_reported":1730088723,"current_range_meters":39200,"station_id":"ce4bgth2rcd13ifvqch0","pricing_plan_id":"cebpf4jnsgd1na2vs0mg"},{"bike_id":"53e995e6-add3-40f6-8acb-cde71469a9f4","system_id":"levelo_inurba_marseille","lat":43.3117,"lon":5.38713,"is_reserved":false,"is_disabled":false,"rental_uris":{"android":"levelo://app?vid=53e995e6-add3-40f6-8acb-cde71469a9f4","ios":"levelo://app?vid=53e995e6-add3-40f6-8acb-cde71469a9f4"},"vehicle_type_id":"4","last_reported":1730088723,"current_range_meters":38800,"station_id":"ce4bgv12rcd13ifvqcp0","pricing_plan_id":"cebpf4jnsgd1na2vs0mg"},{"bike_id":"e20c89c8-49fc-48c0-8a85-ade3d59fe2fc","system_id":"levelo_inurba_marseille","lat":43.25109,"lon":5.40332,"is_reserved":false,"is_disabled":false,"rental_uris":{"android":"levelo://app?vid=e20c89c8-49fc-48c0-8a85-ade3d59fe2fc","ios":"levelo://app?vid=e20c89c8-49fc-48c0-8a85-ade3d59fe2fc"},"vehicle_type_id":"4","last_reported":1730088723,"current_range_meters":32400,"station_id":"ce4bhlh2rcd13ifvqgig","pricing_plan_id":"cebpf4jnsgd1na2vs0mg"},{"bike_id":"e1852f1a-b553-48e5-87af-e882bbea211c","system_id":"levelo_inurba_marseille","lat":43.30922,"lon":5.40142,"is_reserved":false,"is_disabled":false,"rental_uris":{"android":"levelo://app?vid=e1852f1a-b553-48e5-87af-e882bbea211c","ios":"levelo://app?vid=e1852f1a-b553-48e5-87af-e882bbea211c"},"vehicle_type_id":"4","last_reported":1730088723,"current_range_meters":38800,"station_id":"ce4bgvp2rcd13ifvqct0","pricing_plan_id":"cebpf4jnsgd1na2vs0mg"},{"bike_id":"0e6d7f45-38e9-416c-af7c-70cf58d1daa1","system_id":"levelo_inurba_marseille","lat":43.30466,"lon":5.37899,"is_reserved":false,"is_disabled":false,"rental_uris":{"android":"levelo://app?vid=0e6d7f45-38e9-416c-af7c-70cf58d1daa1","ios":"levelo://app?vid=0e6d7f45-38e9-416c-af7c-70cf58d1daa1"},"vehicle_type_id":"4","last_reported":1730088723,"current_range_meters":39200,"station_id":"ce4bgup2rcd13ifvqcn0","pricing_plan_id":"cebpf4jnsgd1na2vs0mg"},{"bike_id":"2b067b04-0d6a-4fcf-96fd-ac86e7fdae93","system_id":"levelo_inurba_marseille","lat":43.26936,"lon":5.40254,"is_reserved":false,"is_disabled":false,"rental_uris":{"android":"levelo://app?vid=2b067b04-0d6a-4fcf-96fd-ac86e7fdae93","ios":"levelo://app?vid=2b067b04-0d6a-4fcf-96fd-ac86e7fdae93"},"vehicle_type_id":"4","last_reported":1730088723,"current_range_meters":38800,"station_id":"cjm6bp8fraef2m0cb0m0","pricing_plan_id":"cebpf4jnsgd1na2vs0mg"},{"bike_id":"abc5207f-d86f-4e31-9ce9-ca2d68d828ba","system_id":"levelo_inurba_marseille","lat":43.2501,"lon":5.3893,"is_reserved":false,"is_disabled":false,"rental_uris":{"android":"levelo://app?vid=abc5207f-d86f-4e31-9ce9-ca2d68d828ba","ios":"levelo://app?vid=abc5207f-d86f-4e31-9ce9-ca2d68d828ba"},"vehicle_type_id":"4","last_reported":1730088723,"current_range_meters":38800,"station_id":"ce4bhgp2rcd13ifvqfd0","pricing_plan_id":"cebpf4jnsgd1na2vs0mg"},{"bike_id":"7ca56edd-ab0f-42b5-b290-aff4cb25cb72","system_id":"levelo_inurba_marseille","lat":43.24389,"lon":5.37057,"is_reserved":false,"is_disabled":false,"rental_uris":{"android":"levelo://app?vid=7ca56edd-ab0f-42b5-b290-aff4cb25cb72","ios":"levelo://app?vid=7ca56edd-ab0f-42b5-b290-aff4cb25cb72"},"vehicle_type_id":"4","last_reported":1730088723,"current_range_meters":31200,"station_id":"ce4bhhh2rcd13ifvqfk0","pricing_plan_id":"cebpf4jnsgd1na2vs0mg"},{"bike_id":"4cf016cf-222a-4af0-b71c-5001d7c7e17d","system_id":"levelo_inurba_marseille","lat":43.25092,"lon":5.39518,"is_reserved":false,"is_disabled":false,"rental_uris":{"android":"levelo://app?vid=4cf016cf-222a-4af0-b71c-5001d7c7e17d","ios":"levelo://app?vid=4cf016cf-222a-4af0-b71c-5001d7c7e17d"},"vehicle_type_id":"4","last_reported":1730088723,"current_range_meters":33600,"station_id":"ce4bhm12rcd13ifvqgkg","pricing_plan_id":"cebpf4jnsgd1na2vs0mg"},{"bike_id":"d9b05aa4-1801-4ca3-bdd2-d173467b4dfe","system_id":"levelo_inurba_marseille","lat":43.26554,"lon":5.37283,"is_reserved":false,"is_disabled":false,"rental_uris":{"android":"levelo://app?vid=d9b05aa4-1801-4ca3-bdd2-d173467b4dfe","ios":"levelo://app?vid=d9b05aa4-1801-4ca3-bdd2-d173467b4dfe"},"vehicle_type_id":"4","last_reported":1730088723,"current_range_meters":23200,"station_id":"ce4bhg12rcd13ifvqf70","pricing_plan_id":"cebpf4jnsgd1na2vs0mg"},{"bike_id":"ebb131a9-f804-4dcd-8356-6ee7c34f93ec","system_id":"levelo_inurba_marseille","lat":43.287,"lon":5.37366,"is_reserved":false,"is_disabled":false,"rental_uris":{"android":"levelo://app?vid=ebb131a9-f804-4dcd-8356-6ee7c34f93ec","ios":"levelo://app?vid=ebb131a9-f804-4dcd-8356-6ee7c34f93ec"},"vehicle_type_id":"4","last_reported":1730088723,"current_range_meters":20400,"station_id":"ce4bh3p2rcd13ifvqdq0","pricing_plan_id":"cebpf4jnsgd1na2vs0mg"},{"bike_id":"e943894b-16f8-475a-90c2-dbbc335162cc","system_id":"levelo_inurba_marseille","lat":43.31279,"lon":5.40166,"is_reserved":false,"is_disabled":false,"rental_uris":{"android":"levelo://app?vid=e943894b-16f8-475a-90c2-dbbc335162cc","ios":"levelo://app?vid=e943894b-16f8-475a-90c2-dbbc335162cc"},"vehicle_type_id":"4","last_reported":1730088723,"current_range_meters":20800,"station_id":"ce4bh092rcd13ifvqd30","pricing_plan_id":"cebpf4jnsgd1na2vs0mg"},{"bike_id":"d02e2892-3b43-44cc-af2b-0eba10956224","system_id":"levelo_inurba_marseille","lat":43.28617,"lon":5.37056,"is_reserved":false,"is_disabled":false,"rental_uris":{"android":"levelo://app?vid=d02e2892-3b43-44cc-af2b-0eba10956224","ios":"levelo://app?vid=d02e2892-3b43-44cc-af2b-0eba10956224"},"vehicle_type_id":"4","last_reported":1730088723,"current_range_meters":39200,"station_id":"ce4bht12rcd13ifvqi60","pricing_plan_id":"cebpf4jnsgd1na2vs0mg"},{"bike_id":"8d1224ea-8c67-414f-8e8e-8dff85dd0343","system_id":"levelo_inurba_marseille","lat":43.25004,"lon":5.38922,"is_reserved":false,"is_disabled":false,"rental_uris":{"android":"levelo://app?vid=8d1224ea-8c67-414f-8e8e-8dff85dd0343","ios":"levelo://app?vid=8d1224ea-8c67-414f-8e8e-8dff85dd0343"},"vehicle_type_id":"4","last_reported":1730088723,"current_range_meters":33600,"station_id":"ce4bhgp2rcd13ifvqfd0","pricing_plan_id":"cebpf4jnsgd1na2vs0mg"},{"bike_id":"9befed88-9f8c-464c-b07b-093bd97066bb","system_id":"levelo_inurba_marseille","lat":43.29805,"lon":5.37136,"is_reserved":false,"is_disabled":false,"rental_uris":{"android":"levelo://app?vid=9befed88-9f8c-464c-b07b-093bd97066bb","ios":"levelo://app?vid=9befed88-9f8c-464c-b07b-093bd97066bb"},"vehicle_type_id":"4","last_reported":1730088723,"current_range_meters":16800,"station_id":"","pricing_plan_id":"cebpf4jnsgd1na2vs0mg"},{"bike_id":"a136efbe-aa10-4490-8814-8c8ecc48a7d6","system_id":"levelo_inurba_marseille","lat":43.30887,"lon":5.39627,"is_reserved":false,"is_disabled":false,"rental_uris":{"android":"levelo://app?vid=a136efbe-aa10-4490-8814-8c8ecc48a7d6","ios":"levelo://app?vid=a136efbe-aa10-4490-8814-8c8ecc48a7d6"},"vehicle_type_id":"4","last_reported":1730088723,"current_range_meters":38800,"station_id":"ce4bh012rcd13ifvqcv0","pricing_plan_id":"cebpf4jnsgd1na2vs0mg"},{"bike_id":"f37e3b02-a49c-4c4e-b112-f9c8c24edf90","system_id":"levelo_inurba_marseille","lat":43.23191,"lon":5.35558,"is_reserved":false,"is_disabled":false,"rental_uris":{"android":"levelo://app?vid=f37e3b02-a49c-4c4e-b112-f9c8c24edf90","ios":"levelo://app?vid=f37e3b02-a49c-4c4e-b112-f9c8c24edf90"},"vehicle_type_id":"4","last_reported":1730088723,"current_range_meters":11600,"station_id":"ce4bhu92rcd13ifvqi70","pricing_plan_id":"cebpf4jnsgd1na2vs0mg"},{"bike_id":"c65ec850-e717-4601-9821-87b556c16011","system_id":"levelo_inurba_marseille","lat":43.31185,"lon":5.38705,"is_reserved":false,"is_disabled":false,"rental_uris":{"android":"levelo://app?vid=c65ec850-e717-4601-9821-87b556c16011","ios":"levelo://app?vid=c65ec850-e717-4601-9821-87b556c16011"},"vehicle_type_id":"4","last_reported":1730088723,"current_range_meters":37600,"station_id":"ce4bgv12rcd13ifvqcp0","pricing_plan_id":"cebpf4jnsgd1na2vs0mg"},{"bike_id":"9ba0a80e-a10d-4224-a3ff-12eafe3bbe3b","system_id":"levelo_inurba_marseille","lat":43.295133,"lon":5.389627,"is_reserved":false,"is_disabled":false,"rental_uris":{"android":"levelo://app?vid=9ba0a80e-a10d-4224-a3ff-12eafe3bbe3b","ios":"levelo://app?vid=9ba0a80e-a10d-4224-a3ff-12eafe3bbe3b"},"vehicle_type_id":"4","last_reported":1730088723,"current_range_meters":24800,"station_id":"ce4bh3p2rcd13ifvqdp0","pricing_plan_id":"cebpf4jnsgd1na2vs0mg"},{"bike_id":"d215c4f0-65a8-4e8e-8895-56557839c56a","system_id":"levelo_inurba_marseille","lat":43.31083,"lon":5.38342,"is_reserved":false,"is_disabled":false,"rental_uris":{"android":"levelo://app?vid=d215c4f0-65a8-4e8e-8895-56557839c56a","ios":"levelo://app?vid=d215c4f0-65a8-4e8e-8895-56557839c56a"},"vehicle_type_id":"4","last_reported":1730088723,"current_range_meters":32000,"station_id":"ce4bgv92rcd13ifvqcr0","pricing_plan_id":"cebpf4jnsgd1na2vs0mg"},{"bike_id":"0bdb1909-e629-4f09-a702-9cd163da3dff","system_id":"levelo_inurba_marseille","lat":43.29034,"lon":5.37555,"is_reserved":false,"is_disabled":false,"rental_uris":{"android":"levelo://app?vid=0bdb1909-e629-4f09-a702-9cd163da3dff","ios":"levelo://app?vid=0bdb1909-e629-4f09-a702-9cd163da3dff"},"vehicle_type_id":"4","last_reported":1730088723,"current_range_meters":19200,"station_id":"ce4bh692rcd13ifvqe90","pricing_plan_id":"cebpf4jnsgd1na2vs0mg"},{"bike_id":"6474912e-f320-45a5-9402-68e101386ae8","system_id":"levelo_inurba_marseille","lat":43.29247,"lon":5.40906,"is_reserved":false,"is_disabled":false,"rental_uris":{"android":"levelo://app?vid=6474912e-f320-45a5-9402-68e101386ae8","ios":"levelo://app?vid=6474912e-f320-45a5-9402-68e101386ae8"},"vehicle_type_id":"4","last_reported":1730088723,"current_range_meters":38800,"station_id":"ce4bh192rcd13ifvqdc0","pricing_plan_id":"cebpf4jnsgd1na2vs0mg"},{"bike_id":"b02703db-17db-435c-b1d1-0607f49bd1fd","system_id":"levelo_inurba_marseille","lat":43.2718,"lon":5.40986,"is_reserved":false,"is_disabled":false,"rental_uris":{"android":"levelo://app?vid=b02703db-17db-435c-b1d1-0607f49bd1fd","ios":"levelo://app?vid=b02703db-17db-435c-b1d1-0607f49bd1fd"},"vehicle_type_id":"4","last_reported":1730088723,"current_range_meters":37600,"station_id":"ce4bhl12rcd13ifvqgf0","pricing_plan_id":"cebpf4jnsgd1na2vs0mg"},{"bike_id":"1492a169-2d73-48b8-9767-d181153df6d9","system_id":"levelo_inurba_marseille","lat":43.317,"lon":5.4045,"is_reserved":false,"is_disabled":false,"rental_uris":{"android":"levelo://app?vid=1492a169-2d73-48b8-9767-d181153df6d9","ios":"levelo://app?vid=1492a169-2d73-48b8-9767-d181153df6d9"},"vehicle_type_id":"4","last_reported":1730088723,"current_range_meters":38800,"station_id":"ce4bh012rcd13ifvqd00","pricing_plan_id":"cebpf4jnsgd1na2vs0mg"},{"bike_id":"0fc35ec4-d69e-455a-854d-9256f0d5a7e6","system_id":"levelo_inurba_marseille","lat":43.24067,"lon":5.3776,"is_reserved":false,"is_disabled":false,"rental_uris":{"android":"levelo://app?vid=0fc35ec4-d69e-455a-854d-9256f0d5a7e6","ios":"levelo://app?vid=0fc35ec4-d69e-455a-854d-9256f0d5a7e6"},"vehicle_type_id":"4","last_reported":1730088723,"current_range_meters":24800,"station_id":"ce4bhnp2rcd13ifvqgvg","pricing_plan_id":"cebpf4jnsgd1na2vs0mg"},{"bike_id":"9c975ea9-79b8-44be-86c3-0afb0514a4ca","system_id":"levelo_inurba_marseille","lat":43.28152,"lon":5.42643,"is_reserved":false,"is_disabled":false,"rental_uris":{"android":"levelo://app?vid=9c975ea9-79b8-44be-86c3-0afb0514a4ca","ios":"levelo://app?vid=9c975ea9-79b8-44be-86c3-0afb0514a4ca"},"vehicle_type_id":"4","last_reported":1730088723,"current_range_meters":22000,"station_id":"ce4bhnh2rcd13ifvqgug","pricing_plan_id":"cebpf4jnsgd1na2vs0mg"},{"bike_id":"9f501856-31bd-489e-8c68-79174caf584a","system_id":"levelo_inurba_marseille","lat":43.27492,"lon":5.42447,"is_reserved":false,"is_disabled":false,"rental_uris":{"android":"levelo://app?vid=9f501856-31bd-489e-8c68-79174caf584a","ios":"levelo://app?vid=9f501856-31bd-489e-8c68-79174caf584a"},"vehicle_type_id":"4","last_reported":1730088723,"current_range_meters":38800,"station_id":"ce4bhn92rcd13ifvqgrg","pricing_plan_id":"cebpf4jnsgd1na2vs0mg"},{"bike_id":"6c455e31-48d5-4177-996e-e844be4bee93","system_id":"levelo_inurba_marseille","lat":43.303227,"lon":5.391999,"is_reserved":false,"is_disabled":false,"rental_uris":{"android":"levelo://app?vid=6c455e31-48d5-4177-996e-e844be4bee93","ios":"levelo://app?vid=6c455e31-48d5-4177-996e-e844be4bee93"},"vehicle_type_id":"4","last_reported":1730088723,"current_range_meters":37600,"station_id":"ce4bgkh2rcd13ifvqbk0","pricing_plan_id":"cebpf4jnsgd1na2vs0mg"},{"bike_id":"68884b0d-6374-4d88-9ab0-b0023fae514d","system_id":"levelo_inurba_marseille","lat":43.28266,"lon":5.35066,"is_reserved":false,"is_disabled":false,"rental_uris":{"android":"levelo://app?vid=68884b0d-6374-4d88-9ab0-b0023fae514d","ios":"levelo://app?vid=68884b0d-6374-4d88-9ab0-b0023fae514d"},"vehicle_type_id":"4","last_reported":1730088723,"current_range_meters":33600,"station_id":"ce4bhbp2rcd13ifvqerg","pricing_plan_id":"cebpf4jnsgd1na2vs0mg"},{"bike_id":"9de4b6d1-b328-4924-9217-9f37e44a2c12","system_id":"levelo_inurba_marseille","lat":43.306016,"lon":5.372219,"is_reserved":false,"is_disabled":false,"rental_uris":{"android":"levelo://app?vid=9de4b6d1-b328-4924-9217-9f37e44a2c12","ios":"levelo://app?vid=9de4b6d1-b328-4924-9217-9f37e44a2c12"},"vehicle_type_id":"4","last_reported":1730088723,"current_range_meters":34000,"station_id":"ce4bgqh2rcd13ifvqc4g","pricing_plan_id":"cebpf4jnsgd1na2vs0mg"},{"bike_id":"e39645c5-87ac-4e87-90ca-e4c6f3ff67ce","system_id":"levelo_inurba_marseille","lat":43.29946,"lon":5.36536,"is_reserved":false,"is_disabled":false,"rental_uris":{"android":"levelo://app?vid=e39645c5-87ac-4e87-90ca-e4c6f3ff67ce","ios":"levelo://app?vid=e39645c5-87ac-4e87-90ca-e4c6f3ff67ce"},"vehicle_type_id":"4","last_reported":1730088723,"current_range_meters":32400,"station_id":"ce4bgm92rcd13ifvqbr0","pricing_plan_id":"cebpf4jnsgd1na2vs0mg"},{"bike_id":"def66fbe-9129-4b94-9aa6-f0a9941a832b","system_id":"levelo_inurba_marseille","lat":43.29174,"lon":5.369,"is_reserved":false,"is_disabled":false,"rental_uris":{"android":"levelo://app?vid=def66fbe-9129-4b94-9aa6-f0a9941a832b","ios":"levelo://app?vid=def66fbe-9129-4b94-9aa6-f0a9941a832b"},"vehicle_type_id":"4","last_reported":1730088723,"current_range_meters":14000,"station_id":"","pricing_plan_id":"cebpf4jnsgd1na2vs0mg"},{"bike_id":"8a5799ec-e449-40ff-9cff-af399ca40c89","system_id":"levelo_inurba_marseille","lat":43.30807,"lon":5.3815,"is_reserved":false,"is_disabled":false,"rental_uris":{"android":"levelo://app?vid=8a5799ec-e449-40ff-9cff-af399ca40c89","ios":"levelo://app?vid=8a5799ec-e449-40ff-9cff-af399ca40c89"},"vehicle_type_id":"4","last_reported":1730088723,"current_range_meters":39200,"station_id":"ce4bgt12rcd13ifvqce0","pricing_plan_id":"cebpf4jnsgd1na2vs0mg"},{"bike_id":"720ff4ba-9b92-4d06-9973-bcffac4f31b1","system_id":"levelo_inurba_marseille","lat":43.29096,"lon":5.38124,"is_reserved":false,"is_disabled":false,"rental_uris":{"android":"levelo://app?vid=720ff4ba-9b92-4d06-9973-bcffac4f31b1","ios":"levelo://app?vid=720ff4ba-9b92-4d06-9973-bcffac4f31b1"},"vehicle_type_id":"4","last_reported":1730088723,"current_range_meters":35600,"station_id":"ce4bh512rcd13ifvqe2g","pricing_plan_id":"cebpf4jnsgd1na2vs0mg"},{"bike_id":"9801d1a2-a791-497d-a3df-cd59633e0430","system_id":"levelo_inurba_marseille","lat":43.27997,"lon":5.41663,"is_reserved":false,"is_disabled":false,"rental_uris":{"android":"levelo://app?vid=9801d1a2-a791-497d-a3df-cd59633e0430","ios":"levelo://app?vid=9801d1a2-a791-497d-a3df-cd59633e0430"},"vehicle_type_id":"4","last_reported":1730088723,"current_range_meters":38800,"station_id":"ce4bho12rcd13ifvqh1g","pricing_plan_id":"cebpf4jnsgd1na2vs0mg"},{"bike_id":"fd44f0b2-de28-4434-9fad-aeeaa9d34761","system_id":"levelo_inurba_marseille","lat":43.30322,"lon":5.36896,"is_reserved":false,"is_disabled":false,"rental_uris":{"android":"levelo://app?vid=fd44f0b2-de28-4434-9fad-aeeaa9d34761","ios":"levelo://app?vid=fd44f0b2-de28-4434-9fad-aeeaa9d34761"},"vehicle_type_id":"4","last_reported":1730088723,"current_range_meters":38000,"station_id":"ce4bgqh2rcd13ifvqc5g","pricing_plan_id":"cebpf4jnsgd1na2vs0mg"},{"bike_id":"3d729504-3198-4bd2-a0c7-ff4fc02f56e0","system_id":"levelo_inurba_marseille","lat":43.31519,"lon":5.37426,"is_reserved":false,"is_disabled":false,"rental_uris":{"android":"levelo://app?vid=3d729504-3198-4bd2-a0c7-ff4fc02f56e0","ios":"levelo://app?vid=3d729504-3198-4bd2-a0c7-ff4fc02f56e0"},"vehicle_type_id":"4","last_reported":1730088723,"current_range_meters":16800,"station_id":"","pricing_plan_id":"cebpf4jnsgd1na2vs0mg"},{"bike_id":"ca70969a-4e7d-43b2-92e5-d44c6ebe0b56","system_id":"levelo_inurba_marseille","lat":43.28708,"lon":5.39983,"is_reserved":false,"is_disabled":false,"rental_uris":{"android":"levelo://app?vid=ca70969a-4e7d-43b2-92e5-d44c6ebe0b56","ios":"levelo://app?vid=ca70969a-4e7d-43b2-92e5-d44c6ebe0b56"},"vehicle_type_id":"4","last_reported":1730088723,"current_range_meters":38800,"station_id":"ce4bho92rcd13ifvqh3g","pricing_plan_id":"cebpf4jnsgd1na2vs0mg"},{"bike_id":"a08296db-b3f4-4d7c-b368-674ac3a21b1e","system_id":"levelo_inurba_marseille","lat":43.23058,"lon":5.35493,"is_reserved":false,"is_disabled":false,"rental_uris":{"android":"levelo://app?vid=a08296db-b3f4-4d7c-b368-674ac3a21b1e","ios":"levelo://app?vid=a08296db-b3f4-4d7c-b368-674ac3a21b1e"},"vehicle_type_id":"4","last_reported":1730088723,"current_range_meters":37600,"station_id":"cpo3342slgdg3j2ifvpg","pricing_plan_id":"cebpf4jnsgd1na2vs0mg"},{"bike_id":"56fa48c3-db27-4e34-89de-464ed017462b","system_id":"levelo_inurba_marseille","lat":43.28465,"lon":5.35877,"is_reserved":false,"is_disabled":false,"rental_uris":{"android":"levelo://app?vid=56fa48c3-db27-4e34-89de-464ed017462b","ios":"levelo://app?vid=56fa48c3-db27-4e34-89de-464ed017462b"},"vehicle_type_id":"4","last_reported":1730088723,"current_range_meters":18000,"station_id":"ce4bhah2rcd13ifvqei0","pricing_plan_id":"cebpf4jnsgd1na2vs0mg"},{"bike_id":"a9b41ac2-66f9-4672-b6b9-87a024c562fe","system_id":"levelo_inurba_marseille","lat":43.29943,"lon":5.36538,"is_reserved":false,"is_disabled":false,"rental_uris":{"android":"levelo://app?vid=a9b41ac2-66f9-4672-b6b9-87a024c562fe","ios":"levelo://app?vid=a9b41ac2-66f9-4672-b6b9-87a024c562fe"},"vehicle_type_id":"4","last_reported":1730088723,"current_range_meters":8000,"station_id":"ce4bgm92rcd13ifvqbr0","pricing_plan_id":"cebpf4jnsgd1na2vs0mg"},{"bike_id":"2b5cb66d-e3d4-4671-bee2-532aba539c34","system_id":"levelo_inurba_marseille","lat":43.26937,"lon":5.40252,"is_reserved":false,"is_disabled":false,"rental_uris":{"android":"levelo://app?vid=2b5cb66d-e3d4-4671-bee2-532aba539c34","ios":"levelo://app?vid=2b5cb66d-e3d4-4671-bee2-532aba539c34"},"vehicle_type_id":"4","last_reported":1730088723,"current_range_meters":29600,"station_id":"cjm6bp8fraef2m0cb0m0","pricing_plan_id":"cebpf4jnsgd1na2vs0mg"},{"bike_id":"d0a949c6-8436-4a0e-abe5-eb07bb097f65","system_id":"levelo_inurba_marseille","lat":43.25114,"lon":5.40321,"is_reserved":false,"is_disabled":false,"rental_uris":{"android":"levelo://app?vid=d0a949c6-8436-4a0e-abe5-eb07bb097f65","ios":"levelo://app?vid=d0a949c6-8436-4a0e-abe5-eb07bb097f65"},"vehicle_type_id":"4","last_reported":1730088723,"current_range_meters":6800,"station_id":"ce4bhlh2rcd13ifvqgig","pricing_plan_id":"cebpf4jnsgd1na2vs0mg"},{"bike_id":"c994dbd9-aec0-4ce5-8704-d7216c1d9b5a","system_id":"levelo_inurba_marseille","lat":43.29984,"lon":5.37173,"is_reserved":false,"is_disabled":false,"rental_uris":{"android":"levelo://app?vid=c994dbd9-aec0-4ce5-8704-d7216c1d9b5a","ios":"levelo://app?vid=c994dbd9-aec0-4ce5-8704-d7216c1d9b5a"},"vehicle_type_id":"4","last_reported":1730088723,"current_range_meters":36400,"station_id":"ce4bgr92rcd13ifvqc7g","pricing_plan_id":"cebpf4jnsgd1na2vs0mg"},{"bike_id":"28513593-b70e-4462-b74c-8c32f307ccf0","system_id":"levelo_inurba_marseille","lat":43.284625,"lon":5.358855,"is_reserved":false,"is_disabled":false,"rental_uris":{"android":"levelo://app?vid=28513593-b70e-4462-b74c-8c32f307ccf0","ios":"levelo://app?vid=28513593-b70e-4462-b74c-8c32f307ccf0"},"vehicle_type_id":"4","last_reported":1730088723,"current_range_meters":36000,"station_id":"ce4bhah2rcd13ifvqei0","pricing_plan_id":"cebpf4jnsgd1na2vs0mg"},{"bike_id":"e20d3c69-3096-41fb-8abf-5b752c1ce0c2","system_id":"levelo_inurba_marseille","lat":43.28055,"lon":5.38701,"is_reserved":false,"is_disabled":false,"rental_uris":{"android":"levelo://app?vid=e20d3c69-3096-41fb-8abf-5b752c1ce0c2","ios":"levelo://app?vid=e20d3c69-3096-41fb-8abf-5b752c1ce0c2"},"vehicle_type_id":"4","last_reported":1730088723,"current_range_meters":24400,"station_id":"","pricing_plan_id":"cebpf4jnsgd1na2vs0mg"},{"bike_id":"c00d33d1-5862-4fe7-beaa-8286a2470427","system_id":"levelo_inurba_marseille","lat":43.30802,"lon":5.38146,"is_reserved":false,"is_disabled":false,"rental_uris":{"android":"levelo://app?vid=c00d33d1-5862-4fe7-beaa-8286a2470427","ios":"levelo://app?vid=c00d33d1-5862-4fe7-beaa-8286a2470427"},"vehicle_type_id":"4","last_reported":1730088723,"current_range_meters":14800,"station_id":"ce4bgt12rcd13ifvqce0","pricing_plan_id":"cebpf4jnsgd1na2vs0mg"},{"bike_id":"72f33990-5a0c-44ef-9d09-66d93400b4a5","system_id":"levelo_inurba_marseille","lat":43.31703,"lon":5.37758,"is_reserved":false,"is_disabled":false,"rental_uris":{"android":"levelo://app?vid=72f33990-5a0c-44ef-9d09-66d93400b4a5","ios":"levelo://app?vid=72f33990-5a0c-44ef-9d09-66d93400b4a5"},"vehicle_type_id":"4","last_reported":1730088723,"current_range_meters":35600,"station_id":"ce4bgth2rcd13ifvqch0","pricing_plan_id":"cebpf4jnsgd1na2vs0mg"},{"bike_id":"a0ec2347-11c9-4e66-a7c1-56a2eba33008","system_id":"levelo_inurba_marseille","lat":43.31693,"lon":5.40476,"is_reserved":false,"is_disabled":false,"rental_uris":{"android":"levelo://app?vid=a0ec2347-11c9-4e66-a7c1-56a2eba33008","ios":"levelo://app?vid=a0ec2347-11c9-4e66-a7c1-56a2eba33008"},"vehicle_type_id":"4","last_reported":1730088723,"current_range_meters":38000,"station_id":"ce4bh012rcd13ifvqd00","pricing_plan_id":"cebpf4jnsgd1na2vs0mg"},{"bike_id":"3da2b441-84ba-4dd2-867a-0bc4320d98b3","system_id":"levelo_inurba_marseille","lat":43.3229,"lon":5.3827,"is_reserved":false,"is_disabled":false,"rental_uris":{"android":"levelo://app?vid=3da2b441-84ba-4dd2-867a-0bc4320d98b3","ios":"levelo://app?vid=3da2b441-84ba-4dd2-867a-0bc4320d98b3"},"vehicle_type_id":"4","last_reported":1730088723,"current_range_meters":34000,"station_id":"ce4bhr12rcd13ifvqhqg","pricing_plan_id":"cebpf4jnsgd1na2vs0mg"},{"bike_id":"d42cd8f1-be9f-4587-96dc-fd9d11f4d1a0","system_id":"levelo_inurba_marseille","lat":43.25113,"lon":5.403074,"is_reserved":false,"is_disabled":false,"rental_uris":{"android":"levelo://app?vid=d42cd8f1-be9f-4587-96dc-fd9d11f4d1a0","ios":"levelo://app?vid=d42cd8f1-be9f-4587-96dc-fd9d11f4d1a0"},"vehicle_type_id":"4","last_reported":1730088723,"current_range_meters":24000,"station_id":"ce4bhlh2rcd13ifvqgig","pricing_plan_id":"cebpf4jnsgd1na2vs0mg"},{"bike_id":"76588601-f0de-444c-8708-6d6ae74a37db","system_id":"levelo_inurba_marseille","lat":43.239638,"lon":5.366468,"is_reserved":false,"is_disabled":false,"rental_uris":{"android":"levelo://app?vid=76588601-f0de-444c-8708-6d6ae74a37db","ios":"levelo://app?vid=76588601-f0de-444c-8708-6d6ae74a37db"},"vehicle_type_id":"4","last_reported":1730088723,"current_range_meters":37600,"station_id":"ce4bhi12rcd13ifvqfp0","pricing_plan_id":"cebpf4jnsgd1na2vs0mg"},{"bike_id":"7cdd88d2-5824-40fa-8faf-90ef733261c2","system_id":"levelo_inurba_marseille","lat":43.23966,"lon":5.36639,"is_reserved":false,"is_disabled":false,"rental_uris":{"android":"levelo://app?vid=7cdd88d2-5824-40fa-8faf-90ef733261c2","ios":"levelo://app?vid=7cdd88d2-5824-40fa-8faf-90ef733261c2"},"vehicle_type_id":"4","last_reported":1730088723,"current_range_meters":12000,"station_id":"ce4bhi12rcd13ifvqfp0","pricing_plan_id":"cebpf4jnsgd1na2vs0mg"},{"bike_id":"14dd07aa-796b-49ac-82e8-2bb3f08c1790","system_id":"levelo_inurba_marseille","lat":43.28728,"lon":5.36087,"is_reserved":false,"is_disabled":false,"rental_uris":{"android":"levelo://app?vid=14dd07aa-796b-49ac-82e8-2bb3f08c1790","ios":"levelo://app?vid=14dd07aa-796b-49ac-82e8-2bb3f08c1790"},"vehicle_type_id":"4","last_reported":1730088723,"current_range_meters":38800,"station_id":"cki0cbj6b192h4jlfktg","pricing_plan_id":"cebpf4jnsgd1na2vs0mg"},{"bike_id":"670968be-382e-49ac-a03c-a0a735afb68f","system_id":"levelo_inurba_marseille","lat":43.25577,"lon":5.38234,"is_reserved":false,"is_disabled":false,"rental_uris":{"android":"levelo://app?vid=670968be-382e-49ac-a03c-a0a735afb68f","ios":"levelo://app?vid=670968be-382e-49ac-a03c-a0a735afb68f"},"vehicle_type_id":"4","last_reported":1730088723,"current_range_meters":38800,"station_id":"ce4bhih2rcd13ifvqfs0","pricing_plan_id":"cebpf4jnsgd1na2vs0mg"},{"bike_id":"9a599d39-93e1-4768-9001-e14667f53e65","system_id":"levelo_inurba_marseille","lat":43.30807,"lon":5.38155,"is_reserved":false,"is_disabled":false,"rental_uris":{"android":"levelo://app?vid=9a599d39-93e1-4768-9001-e14667f53e65","ios":"levelo://app?vid=9a599d39-93e1-4768-9001-e14667f53e65"},"vehicle_type_id":"4","last_reported":1730088723,"current_range_meters":39200,"station_id":"ce4bgt12rcd13ifvqce0","pricing_plan_id":"cebpf4jnsgd1na2vs0mg"},{"bike_id":"9403ad19-9050-4623-81ae-08b1b66bb37c","system_id":"levelo_inurba_marseille","lat":43.23189,"lon":5.39978,"is_reserved":false,"is_disabled":false,"rental_uris":{"android":"levelo://app?vid=9403ad19-9050-4623-81ae-08b1b66bb37c","ios":"levelo://app?vid=9403ad19-9050-4623-81ae-08b1b66bb37c"},"vehicle_type_id":"4","last_reported":1730088723,"current_range_meters":38000,"station_id":"ce4bhn12rcd13ifvqgqg","pricing_plan_id":"cebpf4jnsgd1na2vs0mg"},{"bike_id":"9564f2be-e9fc-4877-b04a-6d60dcccd50d","system_id":"levelo_inurba_marseille","lat":43.28849,"lon":5.3584,"is_reserved":false,"is_disabled":false,"rental_uris":{"android":"levelo://app?vid=9564f2be-e9fc-4877-b04a-6d60dcccd50d","ios":"levelo://app?vid=9564f2be-e9fc-4877-b04a-6d60dcccd50d"},"vehicle_type_id":"4","last_reported":1730088723,"current_range_meters":38800,"station_id":"ce4bhb12rcd13ifvqem0","pricing_plan_id":"cebpf4jnsgd1na2vs0mg"},{"bike_id":"d5a1c7ae-9162-4121-b272-151b950895e5","system_id":"levelo_inurba_marseille","lat":43.27951,"lon":5.41043,"is_reserved":false,"is_disabled":false,"rental_uris":{"android":"levelo://app?vid=d5a1c7ae-9162-4121-b272-151b950895e5","ios":"levelo://app?vid=d5a1c7ae-9162-4121-b272-151b950895e5"},"vehicle_type_id":"4","last_reported":1730088723,"current_range_meters":16400,"station_id":"ce4bhnp2rcd13ifvqh0g","pricing_plan_id":"cebpf4jnsgd1na2vs0mg"},{"bike_id":"52ecacba-15ba-4ed7-b7e6-263a0a9ba727","system_id":"levelo_inurba_marseille","lat":43.28464,"lon":5.35878,"is_reserved":false,"is_disabled":false,"rental_uris":{"android":"levelo://app?vid=52ecacba-15ba-4ed7-b7e6-263a0a9ba727","ios":"levelo://app?vid=52ecacba-15ba-4ed7-b7e6-263a0a9ba727"},"vehicle_type_id":"4","last_reported":1730088723,"current_range_meters":38800,"station_id":"ce4bhah2rcd13ifvqei0","pricing_plan_id":"cebpf4jnsgd1na2vs0mg"},{"bike_id":"79b412b6-7504-41de-b13f-6567b5a9d93f","system_id":"levelo_inurba_marseille","lat":43.31542,"lon":5.38024,"is_reserved":false,"is_disabled":false,"rental_uris":{"android":"levelo://app?vid=79b412b6-7504-41de-b13f-6567b5a9d93f","ios":"levelo://app?vid=79b412b6-7504-41de-b13f-6567b5a9d93f"},"vehicle_type_id":"4","last_reported":1730088723,"current_range_meters":7200,"station_id":"ce4bhsp2rcd13ifvqi50","pricing_plan_id":"cebpf4jnsgd1na2vs0mg"},{"bike_id":"d6a732df-7d0a-4298-a50e-a9e78d4759b8","system_id":"levelo_inurba_marseille","lat":43.24545,"lon":5.39525,"is_reserved":false,"is_disabled":false,"rental_uris":{"android":"levelo://app?vid=d6a732df-7d0a-4298-a50e-a9e78d4759b8","ios":"levelo://app?vid=d6a732df-7d0a-4298-a50e-a9e78d4759b8"},"vehicle_type_id":"4","last_reported":1730088723,"current_range_meters":38800,"station_id":"ce4bhlp2rcd13ifvqgjg","pricing_plan_id":"cebpf4jnsgd1na2vs0mg"},{"bike_id":"02fd0614-a6c6-42e2-a6aa-0d2136f615e7","system_id":"levelo_inurba_marseille","lat":43.25108,"lon":5.40328,"is_reserved":false,"is_disabled":false,"rental_uris":{"android":"levelo://app?vid=02fd0614-a6c6-42e2-a6aa-0d2136f615e7","ios":"levelo://app?vid=02fd0614-a6c6-42e2-a6aa-0d2136f615e7"},"vehicle_type_id":"4","last_reported":1730088723,"current_range_meters":24000,"station_id":"ce4bhlh2rcd13ifvqgig","pricing_plan_id":"cebpf4jnsgd1na2vs0mg"},{"bike_id":"cd68f1dc-3134-4c22-9fa5-8490da02f071","system_id":"levelo_inurba_marseille","lat":43.23151,"lon":5.43719,"is_reserved":false,"is_disabled":false,"rental_uris":{"android":"levelo://app?vid=cd68f1dc-3134-4c22-9fa5-8490da02f071","ios":"levelo://app?vid=cd68f1dc-3134-4c22-9fa5-8490da02f071"},"vehicle_type_id":"4","last_reported":1730088723,"current_range_meters":11600,"station_id":"ce4bhmp2rcd13ifvqgog","pricing_plan_id":"cebpf4jnsgd1na2vs0mg"},{"bike_id":"42939b7f-8bb8-4020-9042-5a5f052537b7","system_id":"levelo_inurba_marseille","lat":43.28948,"lon":5.36395,"is_reserved":false,"is_disabled":false,"rental_uris":{"android":"levelo://app?vid=42939b7f-8bb8-4020-9042-5a5f052537b7","ios":"levelo://app?vid=42939b7f-8bb8-4020-9042-5a5f052537b7"},"vehicle_type_id":"4","last_reported":1730088723,"current_range_meters":25600,"station_id":"ce4bhc92rcd13ifvqetg","pricing_plan_id":"cebpf4jnsgd1na2vs0mg"},{"bike_id":"9df781dc-a17d-4c43-8d58-f238f2778b8b","system_id":"levelo_inurba_marseille","lat":43.25109,"lon":5.40332,"is_reserved":false,"is_disabled":false,"rental_uris":{"android":"levelo://app?vid=9df781dc-a17d-4c43-8d58-f238f2778b8b","ios":"levelo://app?vid=9df781dc-a17d-4c43-8d58-f238f2778b8b"},"vehicle_type_id":"4","last_reported":1730088723,"current_range_meters":12800,"station_id":"ce4bhlh2rcd13ifvqgig","pricing_plan_id":"cebpf4jnsgd1na2vs0mg"},{"bike_id":"33466152-8701-4ace-81b5-c2bf7c8025de","system_id":"levelo_inurba_marseille","lat":43.25868,"lon":5.39894,"is_reserved":false,"is_disabled":false,"rental_uris":{"android":"levelo://app?vid=33466152-8701-4ace-81b5-c2bf7c8025de","ios":"levelo://app?vid=33466152-8701-4ace-81b5-c2bf7c8025de"},"vehicle_type_id":"4","last_reported":1730088723,"current_range_meters":26000,"station_id":"ce4bhl92rcd13ifvqghg","pricing_plan_id":"cebpf4jnsgd1na2vs0mg"},{"bike_id":"ded3fa34-bd70-4208-8e12-be1d3f97a91f","system_id":"levelo_inurba_marseille","lat":43.28583,"lon":5.39491,"is_reserved":false,"is_disabled":false,"rental_uris":{"android":"levelo://app?vid=ded3fa34-bd70-4208-8e12-be1d3f97a91f","ios":"levelo://app?vid=ded3fa34-bd70-4208-8e12-be1d3f97a91f"},"vehicle_type_id":"4","last_reported":1730088723,"current_range_meters":38800,"station_id":"ce4bh292rcd13ifvqdg0","pricing_plan_id":"cebpf4jnsgd1na2vs0mg"},{"bike_id":"5ed2fff8-c3d4-4654-a668-3b57adf4f72b","system_id":"levelo_inurba_marseille","lat":43.27494,"lon":5.42444,"is_reserved":false,"is_disabled":false,"rental_uris":{"android":"levelo://app?vid=5ed2fff8-c3d4-4654-a668-3b57adf4f72b","ios":"levelo://app?vid=5ed2fff8-c3d4-4654-a668-3b57adf4f72b"},"vehicle_type_id":"4","last_reported":1730088723,"current_range_meters":20800,"station_id":"ce4bhn92rcd13ifvqgrg","pricing_plan_id":"cebpf4jnsgd1na2vs0mg"},{"bike_id":"a7c6eb8e-227c-4432-958d-8969596fd179","system_id":"levelo_inurba_marseille","lat":43.25729,"lon":5.41106,"is_reserved":false,"is_disabled":false,"rental_uris":{"android":"levelo://app?vid=a7c6eb8e-227c-4432-958d-8969596fd179","ios":"levelo://app?vid=a7c6eb8e-227c-4432-958d-8969596fd179"},"vehicle_type_id":"4","last_reported":1730088723,"current_range_meters":40000,"station_id":"ce4bhkp2rcd13ifvqgd0","pricing_plan_id":"cebpf4jnsgd1na2vs0mg"},{"bike_id":"c43d76fc-8dd7-430b-af42-f70b3dce699a","system_id":"levelo_inurba_marseille","lat":43.28155,"lon":5.42635,"is_reserved":false,"is_disabled":false,"rental_uris":{"android":"levelo://app?vid=c43d76fc-8dd7-430b-af42-f70b3dce699a","ios":"levelo://app?vid=c43d76fc-8dd7-430b-af42-f70b3dce699a"},"vehicle_type_id":"4","last_reported":1730088723,"current_range_meters":38800,"station_id":"ce4bhnh2rcd13ifvqgug","pricing_plan_id":"cebpf4jnsgd1na2vs0mg"},{"bike_id":"1af1ace0-6d50-4670-9928-9bb4053befbf","system_id":"levelo_inurba_marseille","lat":43.25863,"lon":5.39897,"is_reserved":false,"is_disabled":false,"rental_uris":{"android":"levelo://app?vid=1af1ace0-6d50-4670-9928-9bb4053befbf","ios":"levelo://app?vid=1af1ace0-6d50-4670-9928-9bb4053befbf"},"vehicle_type_id":"4","last_reported":1730088723,"current_range_meters":38800,"station_id":"ce4bhl92rcd13ifvqghg","pricing_plan_id":"cebpf4jnsgd1na2vs0mg"},{"bike_id":"e89316dc-a19a-469f-a9cd-dc00b495757e","system_id":"levelo_inurba_marseille","lat":43.27437,"lon":5.4065,"is_reserved":false,"is_disabled":false,"rental_uris":{"android":"levelo://app?vid=e89316dc-a19a-469f-a9cd-dc00b495757e","ios":"levelo://app?vid=e89316dc-a19a-469f-a9cd-dc00b495757e"},"vehicle_type_id":"4","last_reported":1730088723,"current_range_meters":7200,"station_id":"","pricing_plan_id":"cebpf4jnsgd1na2vs0mg"},{"bike_id":"88d679ce-bf81-422c-88c5-977567915cf3","system_id":"levelo_inurba_marseille","lat":43.27501,"lon":5.42449,"is_reserved":false,"is_disabled":false,"rental_uris":{"android":"levelo://app?vid=88d679ce-bf81-422c-88c5-977567915cf3","ios":"levelo://app?vid=88d679ce-bf81-422c-88c5-977567915cf3"},"vehicle_type_id":"4","last_reported":1730088723,"current_range_meters":39200,"station_id":"ce4bhn92rcd13ifvqgrg","pricing_plan_id":"cebpf4jnsgd1na2vs0mg"},{"bike_id":"40cb860c-c6cd-4c15-b796-c88e99e4424d","system_id":"levelo_inurba_marseille","lat":43.25113,"lon":5.4032,"is_reserved":false,"is_disabled":false,"rental_uris":{"android":"levelo://app?vid=40cb860c-c6cd-4c15-b796-c88e99e4424d","ios":"levelo://app?vid=40cb860c-c6cd-4c15-b796-c88e99e4424d"},"vehicle_type_id":"4","last_reported":1730088723,"current_range_meters":16800,"station_id":"ce4bhlh2rcd13ifvqgig","pricing_plan_id":"cebpf4jnsgd1na2vs0mg"},{"bike_id":"04dd23bb-f238-4eba-90d1-d80bc6673779","system_id":"levelo_inurba_marseille","lat":43.31169,"lon":5.38708,"is_reserved":false,"is_disabled":false,"rental_uris":{"android":"levelo://app?vid=04dd23bb-f238-4eba-90d1-d80bc6673779","ios":"levelo://app?vid=04dd23bb-f238-4eba-90d1-d80bc6673779"},"vehicle_type_id":"4","last_reported":1730088723,"current_range_meters":32800,"station_id":"ce4bgv12rcd13ifvqcp0","pricing_plan_id":"cebpf4jnsgd1na2vs0mg"},{"bike_id":"81e500be-3ff6-45b1-af40-237783c8efb0","system_id":"levelo_inurba_marseille","lat":43.27813,"lon":5.40713,"is_reserved":false,"is_disabled":false,"rental_uris":{"android":"levelo://app?vid=81e500be-3ff6-45b1-af40-237783c8efb0","ios":"levelo://app?vid=81e500be-3ff6-45b1-af40-237783c8efb0"},"vehicle_type_id":"4","last_reported":1730088723,"current_range_meters":10000,"station_id":"ce4bhnh2rcd13ifvqgtg","pricing_plan_id":"cebpf4jnsgd1na2vs0mg"},{"bike_id":"5d820ce0-2d55-46e5-b74d-cc75a18e2e27","system_id":"levelo_inurba_marseille","lat":43.27009,"lon":5.3924,"is_reserved":false,"is_disabled":false,"rental_uris":{"android":"levelo://app?vid=5d820ce0-2d55-46e5-b74d-cc75a18e2e27","ios":"levelo://app?vid=5d820ce0-2d55-46e5-b74d-cc75a18e2e27"},"vehicle_type_id":"4","last_reported":1730088723,"current_range_meters":33600,"station_id":"ce4bgh92rcd13ifvqb40","pricing_plan_id":"cebpf4jnsgd1na2vs0mg"},{"bike_id":"40b039ad-0769-4a0e-8ad8-e16a05aa5fd5","system_id":"levelo_inurba_marseille","lat":43.27952,"lon":5.41044,"is_reserved":false,"is_disabled":false,"rental_uris":{"android":"levelo://app?vid=40b039ad-0769-4a0e-8ad8-e16a05aa5fd5","ios":"levelo://app?vid=40b039ad-0769-4a0e-8ad8-e16a05aa5fd5"},"vehicle_type_id":"4","last_reported":1730088723,"current_range_meters":38800,"station_id":"ce4bhnp2rcd13ifvqh0g","pricing_plan_id":"cebpf4jnsgd1na2vs0mg"},{"bike_id":"3cf15f8a-e66b-431c-8ebb-b4fd8ccc5efd","system_id":"levelo_inurba_marseille","lat":43.28667,"lon":5.36353,"is_reserved":false,"is_disabled":false,"rental_uris":{"android":"levelo://app?vid=3cf15f8a-e66b-431c-8ebb-b4fd8ccc5efd","ios":"levelo://app?vid=3cf15f8a-e66b-431c-8ebb-b4fd8ccc5efd"},"vehicle_type_id":"4","last_reported":1730088723,"current_range_meters":38800,"station_id":"ce4bhah2rcd13ifvqej0","pricing_plan_id":"cebpf4jnsgd1na2vs0mg"},{"bike_id":"5d740240-5c8c-4416-9068-3eaec70c8525","system_id":"levelo_inurba_marseille","lat":43.28852,"lon":5.35849,"is_reserved":false,"is_disabled":false,"rental_uris":{"android":"levelo://app?vid=5d740240-5c8c-4416-9068-3eaec70c8525","ios":"levelo://app?vid=5d740240-5c8c-4416-9068-3eaec70c8525"},"vehicle_type_id":"4","last_reported":1730088723,"current_range_meters":36000,"station_id":"ce4bhb12rcd13ifvqem0","pricing_plan_id":"cebpf4jnsgd1na2vs0mg"},{"bike_id":"85954db0-0f95-4cab-bd1b-ba49cde47c67","system_id":"levelo_inurba_marseille","lat":43.31307,"lon":5.38278,"is_reserved":false,"is_disabled":false,"rental_uris":{"android":"levelo://app?vid=85954db0-0f95-4cab-bd1b-ba49cde47c67","ios":"levelo://app?vid=85954db0-0f95-4cab-bd1b-ba49cde47c67"},"vehicle_type_id":"4","last_reported":1730088723,"current_range_meters":17200,"station_id":"","pricing_plan_id":"cebpf4jnsgd1na2vs0mg"},{"bike_id":"08173270-7b13-401f-a0a1-8e7081818608","system_id":"levelo_inurba_marseille","lat":43.31489,"lon":5.373,"is_reserved":false,"is_disabled":false,"rental_uris":{"android":"levelo://app?vid=08173270-7b13-401f-a0a1-8e7081818608","ios":"levelo://app?vid=08173270-7b13-401f-a0a1-8e7081818608"},"vehicle_type_id":"4","last_reported":1730088723,"current_range_meters":27200,"station_id":"ce4bgt12rcd13ifvqcd0","pricing_plan_id":"cebpf4jnsgd1na2vs0mg"},{"bike_id":"42dac13f-214f-4da4-918e-f2fe6ed3fc58","system_id":"levelo_inurba_marseille","lat":43.31178,"lon":5.38707,"is_reserved":false,"is_disabled":false,"rental_uris":{"android":"levelo://app?vid=42dac13f-214f-4da4-918e-f2fe6ed3fc58","ios":"levelo://app?vid=42dac13f-214f-4da4-918e-f2fe6ed3fc58"},"vehicle_type_id":"4","last_reported":1730088723,"current_range_meters":38800,"station_id":"ce4bgv12rcd13ifvqcp0","pricing_plan_id":"cebpf4jnsgd1na2vs0mg"},{"bike_id":"99cec95b-ba23-456c-896e-735765711003","system_id":"levelo_inurba_marseille","lat":43.29263,"lon":5.40901,"is_reserved":false,"is_disabled":false,"rental_uris":{"android":"levelo://app?vid=99cec95b-ba23-456c-896e-735765711003","ios":"levelo://app?vid=99cec95b-ba23-456c-896e-735765711003"},"vehicle_type_id":"4","last_reported":1730088723,"current_range_meters":34000,"station_id":"ce4bh192rcd13ifvqdc0","pricing_plan_id":"cebpf4jnsgd1na2vs0mg"},{"bike_id":"2b94bfb9-e35b-4f7b-9795-79ad564e7b11","system_id":"levelo_inurba_marseille","lat":43.29555,"lon":5.42298,"is_reserved":false,"is_disabled":false,"rental_uris":{"android":"levelo://app?vid=2b94bfb9-e35b-4f7b-9795-79ad564e7b11","ios":"levelo://app?vid=2b94bfb9-e35b-4f7b-9795-79ad564e7b11"},"vehicle_type_id":"4","last_reported":1730088723,"current_range_meters":30800,"station_id":"ce4bhph2rcd13ifvqhdg","pricing_plan_id":"cebpf4jnsgd1na2vs0mg"},