{"last_updated":1746644903,"ttl":60,"version":"2.2","data":{"bikes":[{"bike_id":"646ce932-e3b6-448c-a87b-52e6b01e32fa","system_id":"levelo_inurba_marseille","lat":43.26185,"lon":5.38759,"is_reserved":false,"is_disabled":true,"rental_uris":{"android":"levelo://app?vid=646ce932-e3b6-448c-a87b-52e6b01e32fa","ios":"levelo://app?vid=646ce932-e3b6-448c-a87b-52e6b01e32fa"},"vehicle_type_id":"4","last_reported":1746644903,"current_range_meters":0,"station_id":"","pricing_plan_id":"cebpf4jnsgd1na2vs0mg"},{"bike_id":"9afdaa32-5437-40bb-b5dc-0e42f55a33ee","system_id":"levelo_inurba_marseille","lat":43.25379,"lon":5.4186,"is_reserved":false,"is_disabled":true,"rental_uris":{"android":"levelo://app?vid=9afdaa32-5437-40bb-b5dc-0e42f55a33ee","ios":"levelo://app?vid=9afdaa32-5437-40bb-b5dc-0e42f55a33ee"},"vehicle_type_id":"4","last_reported":1746644903,"current_range_meters":0,"station_id":"","pricing_plan_id":"cebpf4jnsgd1na2vs0mg"},{"bike_id":"66b646b3-6352-44bb-9bfb-21570512e3e5","system_id":"levelo_inurba_marseille","lat":43.28143,"lon":5.40392,"is_reserved":false,"is_disabled":true,"rental_uris":{"android":"levelo://app?vid=66b646b3-6352-44bb-9bfb-21570512e3e5","ios":"levelo://app?vid=66b646b3-6352-44bb-9bfb-21570512e3e5"},"vehicle_type_id":"4","last_reported":1746644903,"current_range_meters":0,"station_id":"","pricing_plan_id":"cebpf4jnsgd1na2vs0mg"},{"bike_id":"b56eeeb9-9ded-4dd2-9efa-c8d4f8a5e387","system_id":"levelo_inurba_marseille","lat":43.27389,"lon":5.42242,"is_reserved":false,"is_disabled":true,"rental_uris":{"android":"levelo://app?vid=b56eeeb9-9ded-4dd2-9efa-c8d4f8a5e387","ios":"levelo://app?vid=b56eeeb9-9ded-4dd2-9efa-c8d4f8a5e387"},"vehicle_type_id":"4","last_reported":1746644903,"current_range_meters":0,"station_id":"","pricing_plan_id":"cebpf4jnsgd1na2vs0mg"},{"bike_id":"88c3c6c1-a33a-48ed-b2a4-48c16332184c","system_id":"levelo_inurba_marseille","lat":43.2794,"lon":5.37394,"is_reserved":false,"is_disabled":true,"rental_uris":{"android":"levelo://app?vid=88c3c6c1-a33a-48ed-b2a4-48c16332184c","ios":"levelo://app?vid=88c3c6c1-a33a-48ed-b2a4-48c16332184c"},"vehicle_type_id":"4","last_reported":1746644903,"current_range_meters":0,"station_id":"","pricing_plan_id":"cebpf4jnsgd1na2vs0mg"},{"bike_id":"77f59214-f429-4425-8487-9600e7eabd23","system_id":"levelo_inurba_marseille","lat":43.31448,"lon":5.36991,"is_reserved":false,"is_disabled":true,"rental_uris":{"android":"levelo://app?vid=77f59214-f429-4425-8487-9600e7eabd23","ios":"levelo://app?vid=77f59214-f429-4425-8487-9600e7eabd23"},"vehicle_type_id":"4","last_reported":1746644903,"current_range_meters":0,"station_id":"","pricing_plan_id":"cebpf4jnsgd1na2vs0mg"},{"bike_id":"edaf51df-2b4b-4d63-a4ec-c1762e310aff","system_id":"levelo_inurba_marseille","lat":43.30609,"lon":5.37545,"is_reserved":false,"is_disabled":true,"rental_uris":{"android":"levelo://app?vid=edaf51df-2b4b-4d63-a4ec-c1762e310aff","ios":"levelo://app?vid=edaf51df-2b4b-4d63-a4ec-c1762e310aff"},"vehicle_type_id":"4","last_reported":1746644903,"current_range_meters":0,"station_id":"","pricing_plan_id":"cebpf4jnsgd1na2vs0mg"},{"bike_id":"2d251c8d-e9d0-476f-8622-cb88831f30c3","system_id":"levelo_inurba_marseille","lat":43.26997,"lon":5.38731,"is_reserved":false,"is_disabled":true,"rental_uris":{"android":"levelo://app?vid=2d251c8d-e9d0-476f-8622-cb88831f30c3","ios":"levelo://app?vid=2d251c8d-e9d0-476f-8622-cb88831f30c3"},"vehicle_type_id":"4","last_reported":1746644903,"current_range_meters":0,"station_id":"","pricing_plan_id":"cebpf4jnsgd1na2vs0mg"},{"bike_id":"718447f3-b6d2-4455-9edd-b1cf56662f96","system_id":"levelo_inurba_marseille","lat":43.32148,"lon":5.43995,"is_reserved":false,"is_disabled":true,"rental_uris":{"android":"levelo://app?vid=718447f3-b6d2-4455-9edd-b1cf56662f96","ios":"levelo://app?vid=718447f3-b6d2-4455-9edd-b1cf56662f96"},"vehicle_type_id":"4","last_reported":1746644903,"current_range_meters":0,"station_id":"","pricing_plan_id":"cebpf4jnsgd1na2vs0mg"},{"bike_id":"801d88d2-16bc-4a3f-b210-099076b50886","system_id":"levelo_inurba_marseille","lat":43.29789,"lon":5.38089,"is_reserved":false,"is_disabled":true,"rental_uris":{"android":"levelo://app?vid=801d88d2-16bc-4a3f-b210-099076b50886","ios":"levelo://app?vid=801d88d2-16bc-4a3f-b210-099076b50886"},"vehicle_type_id":"4","last_reported":1746644903,"current_range_meters":0,"station_id":"ce4bgip2rcd13ifvqbb0","pricing_plan_id":"cebpf4jnsgd1na2vs0mg"},{"bike_id":"04808f77-86a2-4fbf-ac65-69d5a858a1bb","system_id":"levelo_inurba_marseille","lat":43.26566,"lon":5.39008,"is_reserved":false,"is_disabled":true,"rental_uris":{"android":"levelo://app?vid=04808f77-86a2-4fbf-ac65-69d5a858a1bb","ios":"levelo://app?vid=04808f77-86a2-4fbf-ac65-69d5a858a1bb"},"vehicle_type_id":"4","last_reported":1746644903,"current_range_meters":0,"station_id":"ce4bhe12rcd13ifvqf30","pricing_plan_id":"cebpf4jnsgd1na2vs0mg"},{"bike_id":"77307511-626e-45d8-b74a-e966a639a439","system_id":"levelo_inurba_marseille","lat":43.26564,"lon":5.39013,"is_reserved":false,"is_disabled":true,"rental_uris":{"android":"levelo://app?vid=77307511-626e-45d8-b74a-e966a639a439","ios":"levelo://app?vid=77307511-626e-45d8-b74a-e966a639a439"},"vehicle_type_id":"4","last_reported":1746644903,"current_range_meters":0,"station_id":"ce4bhe12rcd13ifvqf30","pricing_plan_id":"cebpf4jnsgd1na2vs0mg"},{"bike_id":"6550e101-7791-4cde-9c86-c0d98b21c67b","system_id":"levelo_inurba_marseille","lat":43.27975,"lon":5.38711,"is_reserved":false,"is_disabled":true,"rental_uris":{"android":"levelo://app?vid=6550e101-7791-4cde-9c86-c0d98b21c67b","ios":"levelo://app?vid=6550e101-7791-4cde-9c86-c0d98b21c67b"},"vehicle_type_id":"4","last_reported":1746644903,"current_range_meters":0,"station_id":"ce4bhg12rcd13ifvqf80","pricing_plan_id":"cebpf4jnsgd1na2vs0mg"},{"bike_id":"5a06b9e3-2b10-414a-b86a-6beca3b898fd","system_id":"levelo_inurba_marseille","lat":43.24388,"lon":5.37063,"is_reserved":false,"is_disabled":true,"rental_uris":{"android":"levelo://app?vid=5a06b9e3-2b10-414a-b86a-6beca3b898fd","ios":"levelo://app?vid=5a06b9e3-2b10-414a-b86a-6beca3b898fd"},"vehicle_type_id":"4","last_reported":1746644903,"current_range_meters":0,"station_id":"ce4bhhh2rcd13ifvqfk0","pricing_plan_id":"cebpf4jnsgd1na2vs0mg"},{"bike_id":"25b1dfd3-6979-44ac-b4b6-6ae95adb3073","system_id":"levelo_inurba_marseille","lat":43.28725,"lon":5.39994,"is_reserved":false,"is_disabled":true,"rental_uris":{"android":"levelo://app?vid=25b1dfd3-6979-44ac-b4b6-6ae95adb3073","ios":"levelo://app?vid=25b1dfd3-6979-44ac-b4b6-6ae95adb3073"},"vehicle_type_id":"4","last_reported":1746644903,"current_range_meters":0,"station_id":"ce4bho92rcd13ifvqh3g","pricing_plan_id":"cebpf4jnsgd1na2vs0mg"},{"bike_id":"a38c2d49-7988-4ef8-83e8-42a2504085da","system_id":"levelo_inurba_marseille","lat":43.24523,"lon":5.41225,"is_reserved":false,"is_disabled":true,"rental_uris":{"android":"levelo://app?vid=a38c2d49-7988-4ef8-83e8-42a2504085da","ios":"levelo://app?vid=a38c2d49-7988-4ef8-83e8-42a2504085da"},"vehicle_type_id":"4","last_reported":1746644903,"current_range_meters":400,"station_id":"","pricing_plan_id":"cebpf4jnsgd1na2vs0mg"},{"bike_id":"cc534074-2e52-4f25-bb84-1984ad9d2aff","system_id":"levelo_inurba_marseille","lat":43.31071,"lon":5.38355,"is_reserved":false,"is_disabled":true,"rental_uris":{"android":"levelo://app?vid=cc534074-2e52-4f25-bb84-1984ad9d2aff","ios":"levelo://app?vid=cc534074-2e52-4f25-bb84-1984ad9d2aff"},"vehicle_type_id":"4","last_reported":1746644903,"current_range_meters":400,"station_id":"ce4bgv92rcd13ifvqcr0","pricing_plan_id":"cebpf4jnsgd1na2vs0mg"},{"bike_id":"02a42999-7b09-4d93-b00e-8870ad5a8674","system_id":"levelo_inurba_marseille","lat":43.31424,"lon":5.36986,"is_reserved":false,"is_disabled":true,"rental_uris":{"android":"levelo://app?vid=02a42999-7b09-4d93-b00e-8870ad5a8674","ios":"levelo://app?vid=02a42999-7b09-4d93-b00e-8870ad5a8674"},"vehicle_type_id":"4","last_reported":1746644903,"current_range_meters":800,"station_id":"","pricing_plan_id":"cebpf4jnsgd1na2vs0mg"},{"bike_id":"1ce557c5-5deb-4b11-b249-77069750229e","system_id":"levelo_inurba_marseille","lat":43.28036,"lon":5.36951,"is_reserved":false,"is_disabled":true,"rental_uris":{"android":"levelo://app?vid=1ce557c5-5deb-4b11-b249-77069750229e","ios":"levelo://app?vid=1ce557c5-5deb-4b11-b249-77069750229e"},"vehicle_type_id":"4","last_reported":1746644903,"current_range_meters":800,"station_id":"ce4bha12rcd13ifvqef0","pricing_plan_id":"cebpf4jnsgd1na2vs0mg"},{"bike_id":"1f640c4f-9f02-447f-9d8b-38e1583fd6b0","system_id":"levelo_inurba_marseille","lat":43.2925,"lon":5.40171,"is_reserved":false,"is_disabled":true,"rental_uris":{"android":"levelo://app?vid=1f640c4f-9f02-447f-9d8b-38e1583fd6b0","ios":"levelo://app?vid=1f640c4f-9f02-447f-9d8b-38e1583fd6b0"},"vehicle_type_id":"4","last_reported":1746644903,"current_range_meters":1200,"station_id":"","pricing_plan_id":"cebpf4jnsgd1na2vs0mg"},{"bike_id":"a32b0cd8-be03-4c61-938c-88cd3e665245","system_id":"levelo_inurba_marseille","lat":43.31105,"lon":5.37756,"is_reserved":false,"is_disabled":true,"rental_uris":{"android":"levelo://app?vid=a32b0cd8-be03-4c61-938c-88cd3e665245","ios":"levelo://app?vid=a32b0cd8-be03-4c61-938c-88cd3e665245"},"vehicle_type_id":"4","last_reported":1746644903,"current_range_meters":1200,"station_id":"ce4bgt92rcd13ifvqcg0","pricing_plan_id":"cebpf4jnsgd1na2vs0mg"},{"bike_id":"3891237e-1b37-4631-8d4b-817f82d28972","system_id":"levelo_inurba_marseille","lat":43.31051,"lon":5.38364,"is_reserved":false,"is_disabled":true,"rental_uris":{"android":"levelo://app?vid=3891237e-1b37-4631-8d4b-817f82d28972","ios":"levelo://app?vid=3891237e-1b37-4631-8d4b-817f82d28972"},"vehicle_type_id":"4","last_reported":1746644903,"current_range_meters":1200,"station_id":"ce4bgv92rcd13ifvqcr0","pricing_plan_id":"cebpf4jnsgd1na2vs0mg"},{"bike_id":"f95c1932-74fd-4341-8397-61fbbc59364d","system_id":"levelo_inurba_marseille","lat":43.29418,"lon":5.38625,"is_reserved":false,"is_disabled":true,"rental_uris":{"android":"levelo://app?vid=f95c1932-74fd-4341-8397-61fbbc59364d","ios":"levelo://app?vid=f95c1932-74fd-4341-8397-61fbbc59364d"},"vehicle_type_id":"4","last_reported":1746644903,"current_range_meters":1200,"station_id":"ce4bh2h2rcd13ifvqdh0","pricing_plan_id":"cebpf4jnsgd1na2vs0mg"},{"bike_id":"2e9f885f-9360-449a-9cf7-b1659ed4d7b9","system_id":"levelo_inurba_marseille","lat":43.29164,"lon":5.37157,"is_reserved":false,"is_disabled":true,"rental_uris":{"android":"levelo://app?vid=2e9f885f-9360-449a-9cf7-b1659ed4d7b9","ios":"levelo://app?vid=2e9f885f-9360-449a-9cf7-b1659ed4d7b9"},"vehicle_type_id":"4","last_reported":1746644903,"current_range_meters":1200,"station_id":"ce4bha92rcd13ifvqeh0","pricing_plan_id":"cebpf4jnsgd1na2vs0mg"},{"bike_id":"0560be33-fee5-48e9-8bad-459f1c479123","system_id":"levelo_inurba_marseille","lat":43.2893,"lon":5.36627,"is_reserved":false,"is_disabled":true,"rental_uris":{"android":"levelo://app?vid=0560be33-fee5-48e9-8bad-459f1c479123","ios":"levelo://app?vid=0560be33-fee5-48e9-8bad-459f1c479123"},"vehicle_type_id":"4","last_reported":1746644903,"current_range_meters":1200,"station_id":"ce4bhap2rcd13ifvqek0","pricing_plan_id":"cebpf4jnsgd1na2vs0mg"},{"bike_id":"3370ee49-4113-48df-97ff-5f5168b1781c","system_id":"levelo_inurba_marseille","lat":43.27968,"lon":5.38748,"is_reserved":false,"is_disabled":true,"rental_uris":{"android":"levelo://app?vid=3370ee49-4113-48df-97ff-5f5168b1781c","ios":"levelo://app?vid=3370ee49-4113-48df-97ff-5f5168b1781c"},"vehicle_type_id":"4","last_reported":1746644903,"current_range_meters":1200,"station_id":"ce4bhg12rcd13ifvqf80","pricing_plan_id":"cebpf4jnsgd1na2vs0mg"},{"bike_id":"bcc9a727-2be7-48d6-8cc7-2bf2aef762c9","system_id":"levelo_inurba_marseille","lat":43.29017,"lon":5.37204,"is_reserved":false,"is_disabled":true,"rental_uris":{"android":"levelo://app?vid=bcc9a727-2be7-48d6-8cc7-2bf2aef762c9","ios":"levelo://app?vid=bcc9a727-2be7-48d6-8cc7-2bf2aef762c9"},"vehicle_type_id":"4","last_reported":1746644903,"current_range_meters":2000,"station_id":"","pricing_plan_id":"cebpf4jnsgd1na2vs0mg"},{"bike_id":"925bcb1f-c318-46c9-a372-1c67745c1da6","system_id":"levelo_inurba_marseille","lat":43.29018,"lon":5.38124,"is_reserved":false,"is_disabled":false,"rental_uris":{"android":"levelo://app?vid=925bcb1f-c318-46c9-a372-1c67745c1da6","ios":"levelo://app?vid=925bcb1f-c318-46c9-a372-1c67745c1da6"},"vehicle_type_id":"4","last_reported":1746644903,"current_range_meters":2000,"station_id":"ce4bh4p2rcd13ifvqe1g","pricing_plan_id":"cebpf4jnsgd1na2vs0mg"},{"bike_id":"3e1f200c-fd23-4324-b14d-abd9925bc1f0","system_id":"levelo_inurba_marseille","lat":43.28927,"lon":5.38379,"is_reserved":false,"is_disabled":true,"rental_uris":{"android":"levelo://app?vid=3e1f200c-fd23-4324-b14d-abd9925bc1f0","ios":"levelo://app?vid=3e1f200c-fd23-4324-b14d-abd9925bc1f0"},"vehicle_type_id":"4","last_reported":1746644903,"current_range_meters":2000,"station_id":"ce4bh612rcd13ifvqe6g","pricing_plan_id":"cebpf4jnsgd1na2vs0mg"},{"bike_id":"fd5cba4c-ca90-48cc-8673-05d53fa5ac13","system_id":"levelo_inurba_marseille","lat":43.29005,"lon":5.3561,"is_reserved":false,"is_disabled":true,"rental_uris":{"android":"levelo://app?vid=fd5cba4c-ca90-48cc-8673-05d53fa5ac13","ios":"levelo://app?vid=fd5cba4c-ca90-48cc-8673-05d53fa5ac13"},"vehicle_type_id":"4","last_reported":1746644903,"current_range_meters":2000,"station_id":"ce4bhb92rcd13ifvqen0","pricing_plan_id":"cebpf4jnsgd1na2vs0mg"},{"bike_id":"693ba64b-169e-417d-9436-f831936e0f20","system_id":"levelo_inurba_marseille","lat":43.31999,"lon":5.381507,"is_reserved":false,"is_disabled":true,"rental_uris":{"android":"levelo://app?vid=693ba64b-169e-417d-9436-f831936e0f20","ios":"levelo://app?vid=693ba64b-169e-417d-9436-f831936e0f20"},"vehicle_type_id":"4","last_reported":1746644903,"current_range_meters":2000,"station_id":"ce4bhr12rcd13ifvqhpg","pricing_plan_id":"cebpf4jnsgd1na2vs0mg"},{"bike_id":"879af0e5-5368-4c8a-a113-a9d279bec406","system_id":"levelo_inurba_marseille","lat":43.30749,"lon":5.37135,"is_reserved":false,"is_disabled":false,"rental_uris":{"android":"levelo://app?vid=879af0e5-5368-4c8a-a113-a9d279bec406","ios":"levelo://app?vid=879af0e5-5368-4c8a-a113-a9d279bec406"},"vehicle_type_id":"4","last_reported":1746644903,"current_range_meters":3200,"station_id":"","pricing_plan_id":"cebpf4jnsgd1na2vs0mg"},{"bike_id":"c0faf23e-81a7-4ca3-895d-283152fd6265","system_id":"levelo_inurba_marseille","lat":43.29584,"lon":5.39585,"is_reserved":false,"is_disabled":false,"rental_uris":{"android":"levelo://app?vid=c0faf23e-81a7-4ca3-895d-283152fd6265","ios":"levelo://app?vid=c0faf23e-81a7-4ca3-895d-283152fd6265"},"vehicle_type_id":"4","last_reported":1746644903,"current_range_meters":3200,"station_id":"","pricing_plan_id":"cebpf4jnsgd1na2vs0mg"},{"bike_id":"8b78d463-d71d-4050-bea2-b5ef67df1847","system_id":"levelo_inurba_marseille","lat":43.31365,"lon":5.38491,"is_reserved":false,"is_disabled":false,"rental_uris":{"android":"levelo://app?vid=8b78d463-d71d-4050-bea2-b5ef67df1847","ios":"levelo://app?vid=8b78d463-d71d-4050-bea2-b5ef67df1847"},"vehicle_type_id":"4","last_reported":1746644903,"current_range_meters":3200,"station_id":"ce4bgt92rcd13ifvqcf0","pricing_plan_id":"cebpf4jnsgd1na2vs0mg"},{"bike_id":"fecf7b89-f362-4c5c-a6fa-d5a193feec01","system_id":"levelo_inurba_marseille","lat":43.308807,"lon":5.371947,"is_reserved":false,"is_disabled":false,"rental_uris":{"android":"levelo://app?vid=fecf7b89-f362-4c5c-a6fa-d5a193feec01","ios":"levelo://app?vid=fecf7b89-f362-4c5c-a6fa-d5a193feec01"},"vehicle_type_id":"4","last_reported":1746644903,"current_range_meters":3200,"station_id":"ce4bguh2rcd13ifvqckg","pricing_plan_id":"cebpf4jnsgd1na2vs0mg"},{"bike_id":"57ba6dff-3c97-403d-8e33-933365bcf061","system_id":"levelo_inurba_marseille","lat":43.29541,"lon":5.39404,"is_reserved":false,"is_disabled":false,"rental_uris":{"android":"levelo://app?vid=57ba6dff-3c97-403d-8e33-933365bcf061","ios":"levelo://app?vid=57ba6dff-3c97-403d-8e33-933365bcf061"},"vehicle_type_id":"4","last_reported":1746644903,"current_range_meters":3200,"station_id":"ce4bh292rcd13ifvqdf0","pricing_plan_id":"cebpf4jnsgd1na2vs0mg"},{"bike_id":"eb671599-dfb3-4a01-bee7-58195b2c5aa1","system_id":"levelo_inurba_marseille","lat":43.24807,"lon":5.37459,"is_reserved":false,"is_disabled":false,"rental_uris":{"android":"levelo://app?vid=eb671599-dfb3-4a01-bee7-58195b2c5aa1","ios":"levelo://app?vid=eb671599-dfb3-4a01-bee7-58195b2c5aa1"},"vehicle_type_id":"4","last_reported":1746644903,"current_range_meters":3200,"station_id":"ce4bhgh2rcd13ifvqfb0","pricing_plan_id":"cebpf4jnsgd1na2vs0mg"},{"bike_id":"8bd55c89-7254-40f3-899c-f403fdc70704","system_id":"levelo_inurba_marseille","lat":43.29223,"lon":5.36058,"is_reserved":false,"is_disabled":false,"rental_uris":{"android":"levelo://app?vid=8bd55c89-7254-40f3-899c-f403fdc70704","ios":"levelo://app?vid=8bd55c89-7254-40f3-899c-f403fdc70704"},"vehicle_type_id":"4","last_reported":1746644903,"current_range_meters":3600,"station_id":"ce4bhbh2rcd13ifvqeqg","pricing_plan_id":"cebpf4jnsgd1na2vs0mg"},{"bike_id":"f46ae0d7-03f3-41e1-96db-970fe58465cc","system_id":"levelo_inurba_marseille","lat":43.33008,"lon":5.38134,"is_reserved":false,"is_disabled":false,"rental_uris":{"android":"levelo://app?vid=f46ae0d7-03f3-41e1-96db-970fe58465cc","ios":"levelo://app?vid=f46ae0d7-03f3-41e1-96db-970fe58465cc"},"vehicle_type_id":"4","last_reported":1746644903,"current_range_meters":4000,"station_id":"","pricing_plan_id":"cebpf4jnsgd1na2vs0mg"},{"bike_id":"9748a0c4-d6b8-4d04-814d-c8cd66193aaf","system_id":"levelo_inurba_marseille","lat":43.25219,"lon":5.41055,"is_reserved":false,"is_disabled":false,"rental_uris":{"android":"levelo://app?vid=9748a0c4-d6b8-4d04-814d-c8cd66193aaf","ios":"levelo://app?vid=9748a0c4-d6b8-4d04-814d-c8cd66193aaf"},"vehicle_type_id":"4","last_reported":1746644903,"current_range_meters":4000,"station_id":"","pricing_plan_id":"cebpf4jnsgd1na2vs0mg"},{"bike_id":"cec0393c-1e8e-4fca-94f4-3ac8f52c8dd7","system_id":"levelo_inurba_marseille","lat":43.31164,"lon":5.38721,"is_reserved":false,"is_disabled":false,"rental_uris":{"android":"levelo://app?vid=cec0393c-1e8e-4fca-94f4-3ac8f52c8dd7","ios":"levelo://app?vid=cec0393c-1e8e-4fca-94f4-3ac8f52c8dd7"},"vehicle_type_id":"4","last_reported":1746644903,"current_range_meters":4000,"station_id":"ce4bgv12rcd13ifvqcp0","pricing_plan_id":"cebpf4jnsgd1na2vs0mg"},{"bike_id":"6c6952ce-fcbe-45ba-87a6-1900f8a7c84b","system_id":"levelo_inurba_marseille","lat":43.31174,"lon":5.38712,"is_reserved":false,"is_disabled":false,"rental_uris":{"android":"levelo://app?vid=6c6952ce-fcbe-45ba-87a6-1900f8a7c84b","ios":"levelo://app?vid=6c6952ce-fcbe-45ba-87a6-1900f8a7c84b"},"vehicle_type_id":"4","last_reported":1746644903,"current_range_meters":4400,"station_id":"ce4bgv12rcd13ifvqcp0","pricing_plan_id":"cebpf4jnsgd1na2vs0mg"},{"bike_id":"63cb73aa-86fe-4599-9b76-3790ec130780","system_id":"levelo_inurba_marseille","lat":43.29594,"lon":5.37867,"is_reserved":false,"is_disabled":false,"rental_uris":{"android":"levelo://app?vid=63cb73aa-86fe-4599-9b76-3790ec130780","ios":"levelo://app?vid=63cb73aa-86fe-4599-9b76-3790ec130780"},"vehicle_type_id":"4","last_reported":1746644903,"current_range_meters":4800,"station_id":"","pricing_plan_id":"cebpf4jnsgd1na2vs0mg"},{"bike_id":"5012d107-e135-47af-9c18-c3da09e66597","system_id":"levelo_inurba_marseille","lat":43.29301,"lon":5.37161,"is_reserved":false,"is_disabled":false,"rental_uris":{"android":"levelo://app?vid=5012d107-e135-47af-9c18-c3da09e66597","ios":"levelo://app?vid=5012d107-e135-47af-9c18-c3da09e66597"},"vehicle_type_id":"4","last_reported":1746644903,"current_range_meters":4800,"station_id":"ce4bgh92rcd13ifvqb40","pricing_plan_id":"cebpf4jnsgd1na2vs0mg"},{"bike_id":"1d0792a1-5714-48cc-aed1-d856784477dd","system_id":"levelo_inurba_marseille","lat":43.29869,"lon":5.38902,"is_reserved":false,"is_disabled":false,"rental_uris":{"android":"levelo://app?vid=1d0792a1-5714-48cc-aed1-d856784477dd","ios":"levelo://app?vid=1d0792a1-5714-48cc-aed1-d856784477dd"},"vehicle_type_id":"4","last_reported":1746644903,"current_range_meters":4800,"station_id":"ce4bh392rcd13ifvqdl0","pricing_plan_id":"cebpf4jnsgd1na2vs0mg"},{"bike_id":"d326a67e-2423-43ef-b12e-f6eb2f51a092","system_id":"levelo_inurba_marseille","lat":43.28418,"lon":5.34982,"is_reserved":false,"is_disabled":false,"rental_uris":{"android":"levelo://app?vid=d326a67e-2423-43ef-b12e-f6eb2f51a092","ios":"levelo://app?vid=d326a67e-2423-43ef-b12e-f6eb2f51a092"},"vehicle_type_id":"4","last_reported":1746644903,"current_range_meters":4800,"station_id":"ce4bhbh2rcd13ifvqepg","pricing_plan_id":"cebpf4jnsgd1na2vs0mg"},{"bike_id":"eccba332-1be7-42d7-a3c4-90b0d1cb293e","system_id":"levelo_inurba_marseille","lat":43.27979,"lon":5.41661,"is_reserved":false,"is_disabled":false,"rental_uris":{"android":"levelo://app?vid=eccba332-1be7-42d7-a3c4-90b0d1cb293e","ios":"levelo://app?vid=eccba332-1be7-42d7-a3c4-90b0d1cb293e"},"vehicle_type_id":"4","last_reported":1746644903,"current_range_meters":4800,"station_id":"ce4bho12rcd13ifvqh1g","pricing_plan_id":"cebpf4jnsgd1na2vs0mg"},{"bike_id":"229c158d-9a92-4d72-a163-63356585afa5","system_id":"levelo_inurba_marseille","lat":43.28439,"lon":5.39211,"is_reserved":false,"is_disabled":false,"rental_uris":{"android":"levelo://app?vid=229c158d-9a92-4d72-a163-63356585afa5","ios":"levelo://app?vid=229c158d-9a92-4d72-a163-63356585afa5"},"vehicle_type_id":"4","last_reported":1746644903,"current_range_meters":4800,"station_id":"ce4bhoh2rcd13ifvqh5g","pricing_plan_id":"cebpf4jnsgd1na2vs0mg"},{"bike_id":"4ca93efb-be27-4193-b547-d0db2c07a3d8","system_id":"levelo_inurba_marseille","lat":43.287277,"lon":5.360892,"is_reserved":false,"is_disabled":false,"rental_uris":{"android":"levelo://app?vid=4ca93efb-be27-4193-b547-d0db2c07a3d8","ios":"levelo://app?vid=4ca93efb-be27-4193-b547-d0db2c07a3d8"},"vehicle_type_id":"4","last_reported":1746644903,"current_range_meters":4800,"station_id":"cki0cbj6b192h4jlfktg","pricing_plan_id":"cebpf4jnsgd1na2vs0mg"},{"bike_id":"c9592205-9409-4f74-aed1-7c4141a58caa","system_id":"levelo_inurba_marseille","lat":43.271306,"lon":5.363637,"is_reserved":false,"is_disabled":false,"rental_uris":{"android":"levelo://app?vid=c9592205-9409-4f74-aed1-7c4141a58caa","ios":"levelo://app?vid=c9592205-9409-4f74-aed1-7c4141a58caa"},"vehicle_type_id":"4","last_reported":1746644903,"current_range_meters":5600,"station_id":"","pricing_plan_id":"cebpf4jnsgd1na2vs0mg"},{"bike_id":"72883d60-f880-4f50-be88-847478167c0b","system_id":"levelo_inurba_marseille","lat":43.29257,"lon":5.38436,"is_reserved":false,"is_disabled":false,"rental_uris":{"android":"levelo://app?vid=72883d60-f880-4f50-be88-847478167c0b","ios":"levelo://app?vid=72883d60-f880-4f50-be88-847478167c0b"},"vehicle_type_id":"4","last_reported":1746644903,"current_range_meters":5600,"station_id":"ce4bh692rcd13ifvqea0","pricing_plan_id":"cebpf4jnsgd1na2vs0mg"},{"bike_id":"4e6831b9-7177-4eb6-bb29-a7304a981a54","system_id":"levelo_inurba_marseille","lat":43.28859,"lon":5.35845,"is_reserved":false,"is_disabled":false,"rental_uris":{"android":"levelo://app?vid=4e6831b9-7177-4eb6-bb29-a7304a981a54","ios":"levelo://app?vid=4e6831b9-7177-4eb6-bb29-a7304a981a54"},"vehicle_type_id":"4","last_reported":1746644903,"current_range_meters":5600,"station_id":"ce4bhb12rcd13ifvqem0","pricing_plan_id":"cebpf4jnsgd1na2vs0mg"},{"bike_id":"be35e860-1942-4c9e-bc4c-22e3262e28a1","system_id":"levelo_inurba_marseille","lat":43.28261,"lon":5.35074,"is_reserved":false,"is_disabled":false,"rental_uris":{"android":"levelo://app?vid=be35e860-1942-4c9e-bc4c-22e3262e28a1","ios":"levelo://app?vid=be35e860-1942-4c9e-bc4c-22e3262e28a1"},"vehicle_type_id":"4","last_reported":1746644903,"current_range_meters":5600,"station_id":"ce4bhbp2rcd13ifvqerg","pricing_plan_id":"cebpf4jnsgd1na2vs0mg"},{"bike_id":"edcf042b-246d-48c7-8bbf-b87692d0b7a0","system_id":"levelo_inurba_marseille","lat":43.24387,"lon":5.37063,"is_reserved":false,"is_disabled":false,"rental_uris":{"android":"levelo://app?vid=edcf042b-246d-48c7-8bbf-b87692d0b7a0","ios":"levelo://app?vid=edcf042b-246d-48c7-8bbf-b87692d0b7a0"},"vehicle_type_id":"4","last_reported":1746644903,"current_range_meters":5600,"station_id":"ce4bhhh2rcd13ifvqfk0","pricing_plan_id":"cebpf4jnsgd1na2vs0mg"},{"bike_id":"ecf93d58-d94b-4cdf-b1a3-a23555f4e6b8","system_id":"levelo_inurba_marseille","lat":43.23192,"lon":5.35551,"is_reserved":false,"is_disabled":false,"rental_uris":{"android":"levelo://app?vid=ecf93d58-d94b-4cdf-b1a3-a23555f4e6b8","ios":"levelo://app?vid=ecf93d58-d94b-4cdf-b1a3-a23555f4e6b8"},"vehicle_type_id":"4","last_reported":1746644903,"current_range_meters":5600,"station_id":"ce4bhu92rcd13ifvqi70","pricing_plan_id":"cebpf4jnsgd1na2vs0mg"},{"bike_id":"2c387a57-cc8e-46de-a4a8-f37d683d6f16","system_id":"levelo_inurba_marseille","lat":43.30646,"lon":5.40089,"is_reserved":false,"is_disabled":false,"rental_uris":{"android":"levelo://app?vid=2c387a57-cc8e-46de-a4a8-f37d683d6f16","ios":"levelo://app?vid=2c387a57-cc8e-46de-a4a8-f37d683d6f16"},"vehicle_type_id":"4","last_reported":1746644903,"current_range_meters":6000,"station_id":"ce4bh112rcd13ifvqda0","pricing_plan_id":"cebpf4jnsgd1na2vs0mg"},{"bike_id":"5ff0538b-7403-4c4a-b191-15c820146056","system_id":"levelo_inurba_marseille","lat":43.29038,"lon":5.37568,"is_reserved":false,"is_disabled":false,"rental_uris":{"android":"levelo://app?vid=5ff0538b-7403-4c4a-b191-15c820146056","ios":"levelo://app?vid=5ff0538b-7403-4c4a-b191-15c820146056"},"vehicle_type_id":"4","last_reported":1746644903,"current_range_meters":6000,"station_id":"ce4bh692rcd13ifvqe90","pricing_plan_id":"cebpf4jnsgd1na2vs0mg"},{"bike_id":"75d04a62-81b3-4630-9b1e-c4721708b572","system_id":"levelo_inurba_marseille","lat":43.28667,"lon":5.36357,"is_reserved":false,"is_disabled":false,"rental_uris":{"android":"levelo://app?vid=75d04a62-81b3-4630-9b1e-c4721708b572","ios":"levelo://app?vid=75d04a62-81b3-4630-9b1e-c4721708b572"},"vehicle_type_id":"4","last_reported":1746644903,"current_range_meters":6000,"station_id":"ce4bhah2rcd13ifvqej0","pricing_plan_id":"cebpf4jnsgd1na2vs0mg"},{"bike_id":"5f89e5d8-8e5e-4a6d-901c-70aafb0a905d","system_id":"levelo_inurba_marseille","lat":43.29242,"lon":5.37387,"is_reserved":false,"is_disabled":false,"rental_uris":{"android":"levelo://app?vid=5f89e5d8-8e5e-4a6d-901c-70aafb0a905d","ios":"levelo://app?vid=5f89e5d8-8e5e-4a6d-901c-70aafb0a905d"},"vehicle_type_id":"4","last_reported":1746644903,"current_range_meters":6400,"station_id":"","pricing_plan_id":"cebpf4jnsgd1na2vs0mg"},{"bike_id":"db97f7d1-d35d-4dcd-976a-fbe1c8cbdd29","system_id":"levelo_inurba_marseille","lat":43.32623,"lon":5.42881,"is_reserved":false,"is_disabled":false,"rental_uris":{"android":"levelo://app?vid=db97f7d1-d35d-4dcd-976a-fbe1c8cbdd29","ios":"levelo://app?vid=db97f7d1-d35d-4dcd-976a-fbe1c8cbdd29"},"vehicle_type_id":"4","last_reported":1746644903,"current_range_meters":6400,"station_id":"","pricing_plan_id":"cebpf4jnsgd1na2vs0mg"},{"bike_id":"689ad305-aa6f-464e-86ae-f78c22581142","system_id":"levelo_inurba_marseille","lat":43.29569,"lon":5.37535,"is_reserved":false,"is_disabled":false,"rental_uris":{"android":"levelo://app?vid=689ad305-aa6f-464e-86ae-f78c22581142","ios":"levelo://app?vid=689ad305-aa6f-464e-86ae-f78c22581142"},"vehicle_type_id":"4","last_reported":1746644903,"current_range_meters":6400,"station_id":"ce4bgh92rcd13ifvqb50","pricing_plan_id":"cebpf4jnsgd1na2vs0mg"},{"bike_id":"8201c2b4-76ae-40f2-a912-47e49c35ffc8","system_id":"levelo_inurba_marseille","lat":43.27903,"lon":5.38016,"is_reserved":false,"is_disabled":false,"rental_uris":{"android":"levelo://app?vid=8201c2b4-76ae-40f2-a912-47e49c35ffc8","ios":"levelo://app?vid=8201c2b4-76ae-40f2-a912-47e49c35ffc8"},"vehicle_type_id":"4","last_reported":1746644903,"current_range_meters":6400,"station_id":"ce4bhf92rcd13ifvqf50","pricing_plan_id":"cebpf4jnsgd1na2vs0mg"},{"bike_id":"958c810e-f220-4857-bbff-5add70688806","system_id":"levelo_inurba_marseille","lat":43.34133,"lon":5.408886,"is_reserved":false,"is_disabled":false,"rental_uris":{"android":"levelo://app?vid=958c810e-f220-4857-bbff-5add70688806","ios":"levelo://app?vid=958c810e-f220-4857-bbff-5add70688806"},"vehicle_type_id":"4","last_reported":1746644903,"current_range_meters":6400,"station_id":"ce4bhqh2rcd13ifvqhlg","pricing_plan_id":"cebpf4jnsgd1na2vs0mg"},{"bike_id":"705f1f6f-d92c-4df1-a512-943b0bf79900","system_id":"levelo_inurba_marseille","lat":43.22508,"lon":5.34782,"is_reserved":false,"is_disabled":false,"rental_uris":{"android":"levelo://app?vid=705f1f6f-d92c-4df1-a512-943b0bf79900","ios":"levelo://app?vid=705f1f6f-d92c-4df1-a512-943b0bf79900"},"vehicle_type_id":"4","last_reported":1746644903,"current_range_meters":6400,"station_id":"st_cvj5dfep6f1abm77gieg","pricing_plan_id":"cebpf4jnsgd1na2vs0mg"},{"bike_id":"442beff0-e1c5-4e70-961d-58275ecb0f9c","system_id":"levelo_inurba_marseille","lat":43.29534,"lon":5.39394,"is_reserved":false,"is_disabled":false,"rental_uris":{"android":"levelo://app?vid=442beff0-e1c5-4e70-961d-58275ecb0f9c","ios":"levelo://app?vid=442beff0-e1c5-4e70-961d-58275ecb0f9c"},"vehicle_type_id":"4","last_reported":1746644903,"current_range_meters":6800,"station_id":"ce4bh292rcd13ifvqdf0","pricing_plan_id":"cebpf4jnsgd1na2vs0mg"},{"bike_id":"676a60ed-f058-445b-a492-6d9bde4aefb8","system_id":"levelo_inurba_marseille","lat":43.29716,"lon":5.37698,"is_reserved":false,"is_disabled":false,"rental_uris":{"android":"levelo://app?vid=676a60ed-f058-445b-a492-6d9bde4aefb8","ios":"levelo://app?vid=676a60ed-f058-445b-a492-6d9bde4aefb8"},"vehicle_type_id":"4","last_reported":1746644903,"current_range_meters":7200,"station_id":"ce4bgkh2rcd13ifvqbl0","pricing_plan_id":"cebpf4jnsgd1na2vs0mg"},{"bike_id":"9b14cb29-e1e9-4dcc-ae53-804f07a94bb0","system_id":"levelo_inurba_marseille","lat":43.27169,"lon":5.40977,"is_reserved":false,"is_disabled":false,"rental_uris":{"android":"levelo://app?vid=9b14cb29-e1e9-4dcc-ae53-804f07a94bb0","ios":"levelo://app?vid=9b14cb29-e1e9-4dcc-ae53-804f07a94bb0"},"vehicle_type_id":"4","last_reported":1746644903,"current_range_meters":7200,"station_id":"ce4bhl12rcd13ifvqgf0","pricing_plan_id":"cebpf4jnsgd1na2vs0mg"},{"bike_id":"dce814c0-4c4e-4a20-a33b-97af480f0bcb","system_id":"levelo_inurba_marseille","lat":43.29019,"lon":5.42648,"is_reserved":false,"is_disabled":false,"rental_uris":{"android":"levelo://app?vid=dce814c0-4c4e-4a20-a33b-97af480f0bcb","ios":"levelo://app?vid=dce814c0-4c4e-4a20-a33b-97af480f0bcb"},"vehicle_type_id":"4","last_reported":1746644903,"current_range_meters":8000,"station_id":"","pricing_plan_id":"cebpf4jnsgd1na2vs0mg"},{"bike_id":"e1aa2619-e292-4ff0-bc82-bc9c0ff5981a","system_id":"levelo_inurba_marseille","lat":43.29302,"lon":5.37184,"is_reserved":false,"is_disabled":false,"rental_uris":{"android":"levelo://app?vid=e1aa2619-e292-4ff0-bc82-bc9c0ff5981a","ios":"levelo://app?vid=e1aa2619-e292-4ff0-bc82-bc9c0ff5981a"},"vehicle_type_id":"4","last_reported":1746644903,"current_range_meters":8000,"station_id":"ce4bgh92rcd13ifvqb40","pricing_plan_id":"cebpf4jnsgd1na2vs0mg"},{"bike_id":"835fafa3-9b7f-4f74-b42c-f4f1b5709ab3","system_id":"levelo_inurba_marseille","lat":43.29247,"lon":5.38443,"is_reserved":false,"is_disabled":false,"rental_uris":{"android":"levelo://app?vid=835fafa3-9b7f-4f74-b42c-f4f1b5709ab3","ios":"levelo://app?vid=835fafa3-9b7f-4f74-b42c-f4f1b5709ab3"},"vehicle_type_id":"4","last_reported":1746644903,"current_range_meters":8000,"station_id":"ce4bh692rcd13ifvqea0","pricing_plan_id":"cebpf4jnsgd1na2vs0mg"},{"bike_id":"f7f45505-bba0-43dd-a286-02b920bb02ba","system_id":"levelo_inurba_marseille","lat":43.28858,"lon":5.35859,"is_reserved":false,"is_disabled":false,"rental_uris":{"android":"levelo://app?vid=f7f45505-bba0-43dd-a286-02b920bb02ba","ios":"levelo://app?vid=f7f45505-bba0-43dd-a286-02b920bb02ba"},"vehicle_type_id":"4","last_reported":1746644903,"current_range_meters":8000,"station_id":"ce4bhb12rcd13ifvqem0","pricing_plan_id":"cebpf4jnsgd1na2vs0mg"},{"bike_id":"c3c23392-fcc9-43d1-a15e-ccb57501353f","system_id":"levelo_inurba_marseille","lat":43.27374,"lon":5.36249,"is_reserved":false,"is_disabled":false,"rental_uris":{"android":"levelo://app?vid=c3c23392-fcc9-43d1-a15e-ccb57501353f","ios":"levelo://app?vid=c3c23392-fcc9-43d1-a15e-ccb57501353f"},"vehicle_type_id":"4","last_reported":1746644903,"current_range_meters":8000,"station_id":"ce4bhbh2rcd13ifvqeo0","pricing_plan_id":"cebpf4jnsgd1na2vs0mg"},{"bike_id":"d3107ed7-afdb-43c3-bab5-1af258429e5d","system_id":"levelo_inurba_marseille","lat":43.27175,"lon":5.40993,"is_reserved":false,"is_disabled":false,"rental_uris":{"android":"levelo://app?vid=d3107ed7-afdb-43c3-bab5-1af258429e5d","ios":"levelo://app?vid=d3107ed7-afdb-43c3-bab5-1af258429e5d"},"vehicle_type_id":"4","last_reported":1746644903,"current_range_meters":8000,"station_id":"ce4bhl12rcd13ifvqgf0","pricing_plan_id":"cebpf4jnsgd1na2vs0mg"},{"bike_id":"aa6eaa6f-a172-4a31-8500-b76476b59cb3","system_id":"levelo_inurba_marseille","lat":43.23188,"lon":5.39976,"is_reserved":false,"is_disabled":false,"rental_uris":{"android":"levelo://app?vid=aa6eaa6f-a172-4a31-8500-b76476b59cb3","ios":"levelo://app?vid=aa6eaa6f-a172-4a31-8500-b76476b59cb3"},"vehicle_type_id":"4","last_reported":1746644903,"current_range_meters":8000,"station_id":"ce4bhn12rcd13ifvqgqg","pricing_plan_id":"cebpf4jnsgd1na2vs0mg"},{"bike_id":"0090e1d6-0c6f-4225-b30a-03ea18339fb3","system_id":"levelo_inurba_marseille","lat":43.276014,"lon":5.396566,"is_reserved":false,"is_disabled":false,"rental_uris":{"android":"levelo://app?vid=0090e1d6-0c6f-4225-b30a-03ea18339fb3","ios":"levelo://app?vid=0090e1d6-0c6f-4225-b30a-03ea18339fb3"},"vehicle_type_id":"4","last_reported":1746644903,"current_range_meters":8400,"station_id":"","pricing_plan_id":"cebpf4jnsgd1na2vs0mg"},{"bike_id":"ed3997a9-f42b-4f90-9e12-6614d4a0cbc5","system_id":"levelo_inurba_marseille","lat":43.32974,"lon":5.3899,"is_reserved":false,"is_disabled":false,"rental_uris":{"android":"levelo://app?vid=ed3997a9-f42b-4f90-9e12-6614d4a0cbc5","ios":"levelo://app?vid=ed3997a9-f42b-4f90-9e12-6614d4a0cbc5"},"vehicle_type_id":"4","last_reported":1746644903,"current_range_meters":8400,"station_id":"","pricing_plan_id":"cebpf4jnsgd1na2vs0mg"},{"bike_id":"1b617b33-4bbe-49ab-862d-58bf6223d8e9","system_id":"levelo_inurba_marseille","lat":43.32631,"lon":5.43037,"is_reserved":false,"is_disabled":false,"rental_uris":{"android":"levelo://app?vid=1b617b33-4bbe-49ab-862d-58bf6223d8e9","ios":"levelo://app?vid=1b617b33-4bbe-49ab-862d-58bf6223d8e9"},"vehicle_type_id":"4","last_reported":1746644903,"current_range_meters":8400,"station_id":"","pricing_plan_id":"cebpf4jnsgd1na2vs0mg"},{"bike_id":"dfd27e22-9b34-42f8-9fdf-f3a07c5bdce7","system_id":"levelo_inurba_marseille","lat":43.24168,"lon":5.36399,"is_reserved":false,"is_disabled":false,"rental_uris":{"android":"levelo://app?vid=dfd27e22-9b34-42f8-9fdf-f3a07c5bdce7","ios":"levelo://app?vid=dfd27e22-9b34-42f8-9fdf-f3a07c5bdce7"},"vehicle_type_id":"4","last_reported":1746644903,"current_range_meters":8400,"station_id":"cpo36qri1sfpv3e86is0","pricing_plan_id":"cebpf4jnsgd1na2vs0mg"},{"bike_id":"8466492f-1da7-4f19-9878-747b9d8286f3","system_id":"levelo_inurba_marseille","lat":43.29306,"lon":5.37155,"is_reserved":false,"is_disabled":false,"rental_uris":{"android":"levelo://app?vid=8466492f-1da7-4f19-9878-747b9d8286f3","ios":"levelo://app?vid=8466492f-1da7-4f19-9878-747b9d8286f3"},"vehicle_type_id":"4","last_reported":1746644903,"current_range_meters":8800,"station_id":"ce4bgh92rcd13ifvqb40","pricing_plan_id":"cebpf4jnsgd1na2vs0mg"},{"bike_id":"3c4b369d-2d39-4228-b2a6-8fad3034d165","system_id":"levelo_inurba_marseille","lat":43.293,"lon":5.37461,"is_reserved":false,"is_disabled":false,"rental_uris":{"android":"levelo://app?vid=3c4b369d-2d39-4228-b2a6-8fad3034d165","ios":"levelo://app?vid=3c4b369d-2d39-4228-b2a6-8fad3034d165"},"vehicle_type_id":"4","last_reported":1746644903,"current_range_meters":8800,"station_id":"ce4bgi12rcd13ifvqb70","pricing_plan_id":"cebpf4jnsgd1na2vs0mg"},{"bike_id":"3b9fff3b-aa80-4bd0-8def-c0b5f1aad7f7","system_id":"levelo_inurba_marseille","lat":43.30797,"lon":5.38135,"is_reserved":false,"is_disabled":false,"rental_uris":{"android":"levelo://app?vid=3b9fff3b-aa80-4bd0-8def-c0b5f1aad7f7","ios":"levelo://app?vid=3b9fff3b-aa80-4bd0-8def-c0b5f1aad7f7"},"vehicle_type_id":"4","last_reported":1746644903,"current_range_meters":8800,"station_id":"ce4bgt12rcd13ifvqce0","pricing_plan_id":"cebpf4jnsgd1na2vs0mg"},{"bike_id":"a46a09be-a236-4999-b850-76b259231588","system_id":"levelo_inurba_marseille","lat":43.31178,"lon":5.38742,"is_reserved":false,"is_disabled":false,"rental_uris":{"android":"levelo://app?vid=a46a09be-a236-4999-b850-76b259231588","ios":"levelo://app?vid=a46a09be-a236-4999-b850-76b259231588"},"vehicle_type_id":"4","last_reported":1746644903,"current_range_meters":8800,"station_id":"ce4bgv12rcd13ifvqcp0","pricing_plan_id":"cebpf4jnsgd1na2vs0mg"},{"bike_id":"871d92dc-153b-42ec-8d90-34c9e0fb29bf","system_id":"levelo_inurba_marseille","lat":43.30626,"lon":5.39882,"is_reserved":false,"is_disabled":false,"rental_uris":{"android":"levelo://app?vid=871d92dc-153b-42ec-8d90-34c9e0fb29bf","ios":"levelo://app?vid=871d92dc-153b-42ec-8d90-34c9e0fb29bf"},"vehicle_type_id":"4","last_reported":1746644903,"current_range_meters":9200,"station_id":"","pricing_plan_id":"cebpf4jnsgd1na2vs0mg"},{"bike_id":"b7bdbe3a-b7ec-4256-908f-dfa71835a5d1","system_id":"levelo_inurba_marseille","lat":43.288616,"lon":5.371342,"is_reserved":false,"is_disabled":false,"rental_uris":{"android":"levelo://app?vid=b7bdbe3a-b7ec-4256-908f-dfa71835a5d1","ios":"levelo://app?vid=b7bdbe3a-b7ec-4256-908f-dfa71835a5d1"},"vehicle_type_id":"4","last_reported":1746644903,"current_range_meters":9200,"station_id":"","pricing_plan_id":"cebpf4jnsgd1na2vs0mg"},{"bike_id":"63d76a1d-9b43-418c-8e15-95ac8d35198a","system_id":"levelo_inurba_marseille","lat":43.29304,"lon":5.37475,"is_reserved":false,"is_disabled":false,"rental_uris":{"android":"levelo://app?vid=63d76a1d-9b43-418c-8e15-95ac8d35198a","ios":"levelo://app?vid=63d76a1d-9b43-418c-8e15-95ac8d35198a"},"vehicle_type_id":"4","last_reported":1746644903,"current_range_meters":9200,"station_id":"ce4bgi12rcd13ifvqb70","pricing_plan_id":"cebpf4jnsgd1na2vs0mg"},{"bike_id":"914701f3-1e5d-4a89-943c-8b4cea339ea3","system_id":"levelo_inurba_marseille","lat":43.31723,"lon":5.37746,"is_reserved":false,"is_disabled":false,"rental_uris":{"android":"levelo://app?vid=914701f3-1e5d-4a89-943c-8b4cea339ea3","ios":"levelo://app?vid=914701f3-1e5d-4a89-943c-8b4cea339ea3"},"vehicle_type_id":"4","last_reported":1746644903,"current_range_meters":9200,"station_id":"ce4bgth2rcd13ifvqch0","pricing_plan_id":"cebpf4jnsgd1na2vs0mg"},{"bike_id":"ca68f2ba-c24f-4061-852e-a532ddc8f5e1","system_id":"levelo_inurba_marseille","lat":43.31171,"lon":5.38736,"is_reserved":false,"is_disabled":false,"rental_uris":{"android":"levelo://app?vid=ca68f2ba-c24f-4061-852e-a532ddc8f5e1","ios":"levelo://app?vid=ca68f2ba-c24f-4061-852e-a532ddc8f5e1"},"vehicle_type_id":"4","last_reported":1746644903,"current_range_meters":9200,"station_id":"ce4bgv12rcd13ifvqcp0","pricing_plan_id":"cebpf4jnsgd1na2vs0mg"},{"bike_id":"57550d4c-0511-47fe-ade8-16aeedc6dedf","system_id":"levelo_inurba_marseille","lat":43.29255,"lon":5.38439,"is_reserved":false,"is_disabled":false,"rental_uris":{"android":"levelo://app?vid=57550d4c-0511-47fe-ade8-16aeedc6dedf","ios":"levelo://app?vid=57550d4c-0511-47fe-ade8-16aeedc6dedf"},"vehicle_type_id":"4","last_reported":1746644903,"current_range_meters":9200,"station_id":"ce4bh692rcd13ifvqea0","pricing_plan_id":"cebpf4jnsgd1na2vs0mg"},{"bike_id":"1af74947-bf81-414f-89d2-23cce578bd1b","system_id":"levelo_inurba_marseille","lat":43.29257,"lon":5.38428,"is_reserved":false,"is_disabled":false,"rental_uris":{"android":"levelo://app?vid=1af74947-bf81-414f-89d2-23cce578bd1b","ios":"levelo://app?vid=1af74947-bf81-414f-89d2-23cce578bd1b"},"vehicle_type_id":"4","last_reported":1746644903,"current_range_meters":9200,"station_id":"ce4bh692rcd13ifvqea0","pricing_plan_id":"cebpf4jnsgd1na2vs0mg"},{"bike_id":"e8ace7d1-0c5d-4e5f-8e4e-7f2903aa43ed","system_id":"levelo_inurba_marseille","lat":43.29258,"lon":5.38445,"is_reserved":false,"is_disabled":false,"rental_uris":{"android":"levelo://app?vid=e8ace7d1-0c5d-4e5f-8e4e-7f2903aa43ed","ios":"levelo://app?vid=e8ace7d1-0c5d-4e5f-8e4e-7f2903aa43ed"},"vehicle_type_id":"4","last_reported":1746644903,"current_range_meters":9200,"station_id":"ce4bh692rcd13ifvqea0","pricing_plan_id":"cebpf4jnsgd1na2vs0mg"},{"bike_id":"5872f101-9271-4805-860d-0ee54b52f844","system_id":"levelo_inurba_marseille","lat":43.32287,"lon":5.38269,"is_reserved":false,"is_disabled":false,"rental_uris":{"android":"levelo://app?vid=5872f101-9271-4805-860d-0ee54b52f844","ios":"levelo://app?vid=5872f101-9271-4805-860d-0ee54b52f844"},"vehicle_type_id":"4","last_reported":1746644903,"current_range_meters":9200,"station_id":"ce4bhr12rcd13ifvqhqg","pricing_plan_id":"cebpf4jnsgd1na2vs0mg"},{"bike_id":"149dbc3f-738a-4425-9044-fb81967ea585","system_id":"levelo_inurba_marseille","lat":43.23055,"lon":5.35493,"is_reserved":false,"is_disabled":false,"rental_uris":{"android":"levelo://app?vid=149dbc3f-738a-4425-9044-fb81967ea585","ios":"levelo://app?vid=149dbc3f-738a-4425-9044-fb81967ea585"},"vehicle_type_id":"4","last_reported":1746644903,"current_range_meters":9200,"station_id":"cpo3342slgdg3j2ifvpg","pricing_plan_id":"cebpf4jnsgd1na2vs0mg"},{"bike_id":"797b7a03-75a6-41e8-a3cb-fcc2d4b070fc","system_id":"levelo_inurba_marseille","lat":43.311643,"lon":5.387217,"is_reserved":false,"is_disabled":false,"rental_uris":{"android":"levelo://app?vid=797b7a03-75a6-41e8-a3cb-fcc2d4b070fc","ios":"levelo://app?vid=797b7a03-75a6-41e8-a3cb-fcc2d4b070fc"},"vehicle_type_id":"4","last_reported":1746644903,"current_range_meters":9600,"station_id":"ce4bgv12rcd13ifvqcp0","pricing_plan_id":"cebpf4jnsgd1na2vs0mg"},{"bike_id":"854fb2ba-779f-4ac6-838f-d877b769fc4a","system_id":"levelo_inurba_marseille","lat":43.29419,"lon":5.38624,"is_reserved":false,"is_disabled":false,"rental_uris":{"android":"levelo://app?vid=854fb2ba-779f-4ac6-838f-d877b769fc4a","ios":"levelo://app?vid=854fb2ba-779f-4ac6-838f-d877b769fc4a"},"vehicle_type_id":"4","last_reported":1746644903,"current_range_meters":9600,"station_id":"ce4bh2h2rcd13ifvqdh0","pricing_plan_id":"cebpf4jnsgd1na2vs0mg"},{"bike_id":"64dfa536-fb39-419f-a029-15f46f301614","system_id":"levelo_inurba_marseille","lat":43.2987,"lon":5.38907,"is_reserved":false,"is_disabled":false,"rental_uris":{"android":"levelo://app?vid=64dfa536-fb39-419f-a029-15f46f301614","ios":"levelo://app?vid=64dfa536-fb39-419f-a029-15f46f301614"},"vehicle_type_id":"4","last_reported":1746644903,"current_range_meters":9600,"station_id":"ce4bh392rcd13ifvqdl0","pricing_plan_id":"cebpf4jnsgd1na2vs0mg"},{"bike_id":"1661de55-4d67-477c-90e4-53ea01c1dbf0","system_id":"levelo_inurba_marseille","lat":43.27374,"lon":5.36256,"is_reserved":false,"is_disabled":false,"rental_uris":{"android":"levelo://app?vid=1661de55-4d67-477c-90e4-53ea01c1dbf0","ios":"levelo://app?vid=1661de55-4d67-477c-90e4-53ea01c1dbf0"},"vehicle_type_id":"4","last_reported":1746644903,"current_range_meters":9600,"station_id":"ce4bhbh2rcd13ifvqeo0","pricing_plan_id":"cebpf4jnsgd1na2vs0mg"},{"bike_id":"c39b4170-4214-46e8-9b3d-25c7776d6301","system_id":"levelo_inurba_marseille","lat":43.27668,"lon":5.38879,"is_reserved":false,"is_disabled":false,"rental_uris":{"android":"levelo://app?vid=c39b4170-4214-46e8-9b3d-25c7776d6301","ios":"levelo://app?vid=c39b4170-4214-46e8-9b3d-25c7776d6301"},"vehicle_type_id":"4","last_reported":1746644903,"current_range_meters":9600,"station_id":"ce4bhi12rcd13ifvqfo0","pricing_plan_id":"cebpf4jnsgd1na2vs0mg"},{"bike_id":"89420609-8590-4e4d-9042-8fb0e02b5686","system_id":"levelo_inurba_marseille","lat":43.24166,"lon":5.36395,"is_reserved":false,"is_disabled":false,"rental_uris":{"android":"levelo://app?vid=89420609-8590-4e4d-9042-8fb0e02b5686","ios":"levelo://app?vid=89420609-8590-4e4d-9042-8fb0e02b5686"},"vehicle_type_id":"4","last_reported":1746644903,"current_range_meters":9600,"station_id":"cpo36qri1sfpv3e86is0","pricing_plan_id":"cebpf4jnsgd1na2vs0mg"},{"bike_id":"dbe6c090-a883-4f7a-86ca-f7062cab9bbf","system_id":"levelo_inurba_marseille","lat":43.21745,"lon":5.346057,"is_reserved":false,"is_disabled":false,"rental_uris":{"android":"levelo://app?vid=dbe6c090-a883-4f7a-86ca-f7062cab9bbf","ios":"levelo://app?vid=dbe6c090-a883-4f7a-86ca-f7062cab9bbf"},"vehicle_type_id":"4","last_reported":1746644903,"current_range_meters":9600,"station_id":"st_cvj6r9ubvosntc0bgbag","pricing_plan_id":"cebpf4jnsgd1na2vs0mg"},{"bike_id":"bb11de88-b978-4699-abe7-fcede03c6d4e","system_id":"levelo_inurba_marseille","lat":43.28659,"lon":5.36342,"is_reserved":false,"is_disabled":false,"rental_uris":{"android":"levelo://app?vid=bb11de88-b978-4699-abe7-fcede03c6d4e","ios":"levelo://app?vid=bb11de88-b978-4699-abe7-fcede03c6d4e"},"vehicle_type_id":"4","last_reported":1746644903,"current_range_meters":10000,"station_id":"ce4bhah2rcd13ifvqej0","pricing_plan_id":"cebpf4jnsgd1na2vs0mg"},{"bike_id":"40604081-f5e4-4a6b-8ab7-71f0909c7fc0","system_id":"levelo_inurba_marseille","lat":43.27374,"lon":5.36267,"is_reserved":false,"is_disabled":false,"rental_uris":{"android":"levelo://app?vid=40604081-f5e4-4a6b-8ab7-71f0909c7fc0","ios":"levelo://app?vid=40604081-f5e4-4a6b-8ab7-71f0909c7fc0"},"vehicle_type_id":"4","last_reported":1746644903,"current_range_meters":10000,"station_id":"ce4bhbh2rcd13ifvqeo0","pricing_plan_id":"cebpf4jnsgd1na2vs0mg"},{"bike_id":"e8f2e017-ef03-4bc6-bcb9-e6015310306c","system_id":"levelo_inurba_marseille","lat":43.24803,"lon":5.3745,"is_reserved":false,"is_disabled":false,"rental_uris":{"android":"levelo://app?vid=e8f2e017-ef03-4bc6-bcb9-e6015310306c","ios":"levelo://app?vid=e8f2e017-ef03-4bc6-bcb9-e6015310306c"},"vehicle_type_id":"4","last_reported":1746644903,"current_range_meters":10000,"station_id":"ce4bhgh2rcd13ifvqfb0","pricing_plan_id":"cebpf4jnsgd1na2vs0mg"},{"bike_id":"2294d3f9-cda7-440b-943e-312c29cbb3cd","system_id":"levelo_inurba_marseille","lat":43.26772,"lon":5.3944,"is_reserved":false,"is_disabled":false,"rental_uris":{"android":"levelo://app?vid=2294d3f9-cda7-440b-943e-312c29cbb3cd","ios":"levelo://app?vid=2294d3f9-cda7-440b-943e-312c29cbb3cd"},"vehicle_type_id":"4","last_reported":1746644903,"current_range_meters":10000,"station_id":"ce4bhh12rcd13ifvqfg0","pricing_plan_id":"cebpf4jnsgd1na2vs0mg"},{"bike_id":"c650db92-e467-494a-8ffb-fba552729a60","system_id":"levelo_inurba_marseille","lat":43.23968,"lon":5.36628,"is_reserved":false,"is_disabled":false,"rental_uris":{"android":"levelo://app?vid=c650db92-e467-494a-8ffb-fba552729a60","ios":"levelo://app?vid=c650db92-e467-494a-8ffb-fba552729a60"},"vehicle_type_id":"4","last_reported":1746644903,"current_range_meters":10000,"station_id":"ce4bhi12rcd13ifvqfp0","pricing_plan_id":"cebpf4jnsgd1na2vs0mg"},{"bike_id":"199aa2d6-674b-49ea-a9d0-cb338758f4a2","system_id":"levelo_inurba_marseille","lat":43.28738,"lon":5.36079,"is_reserved":false,"is_disabled":false,"rental_uris":{"android":"levelo://app?vid=199aa2d6-674b-49ea-a9d0-cb338758f4a2","ios":"levelo://app?vid=199aa2d6-674b-49ea-a9d0-cb338758f4a2"},"vehicle_type_id":"4","last_reported":1746644903,"current_range_meters":10000,"station_id":"cki0cbj6b192h4jlfktg","pricing_plan_id":"cebpf4jnsgd1na2vs0mg"},{"bike_id":"ce40ea43-bacf-49f3-b5af-ffaf2a1f03b1","system_id":"levelo_inurba_marseille","lat":43.30481,"lon":5.36759,"is_reserved":false,"is_disabled":false,"rental_uris":{"android":"levelo://app?vid=ce40ea43-bacf-49f3-b5af-ffaf2a1f03b1","ios":"levelo://app?vid=ce40ea43-bacf-49f3-b5af-ffaf2a1f03b1"},"vehicle_type_id":"4","last_reported":1746644903,"current_range_meters":10800,"station_id":"","pricing_plan_id":"cebpf4jnsgd1na2vs0mg"},{"bike_id":"56bd24be-6f64-47ba-8c35-e59e917d355e","system_id":"levelo_inurba_marseille","lat":43.29303,"lon":5.37155,"is_reserved":false,"is_disabled":false,"rental_uris":{"android":"levelo://app?vid=56bd24be-6f64-47ba-8c35-e59e917d355e","ios":"levelo://app?vid=56bd24be-6f64-47ba-8c35-e59e917d355e"},"vehicle_type_id":"4","last_reported":1746644903,"current_range_meters":10800,"station_id":"ce4bgh92rcd13ifvqb40","pricing_plan_id":"cebpf4jnsgd1na2vs0mg"},{"bike_id":"80d9736c-f589-42ae-bda2-4d3d39b556e6","system_id":"levelo_inurba_marseille","lat":43.29296,"lon":5.37469,"is_reserved":false,"is_disabled":false,"rental_uris":{"android":"levelo://app?vid=80d9736c-f589-42ae-bda2-4d3d39b556e6","ios":"levelo://app?vid=80d9736c-f589-42ae-bda2-4d3d39b556e6"},"vehicle_type_id":"4","last_reported":1746644903,"current_range_meters":10800,"station_id":"ce4bgi12rcd13ifvqb70","pricing_plan_id":"cebpf4jnsgd1na2vs0mg"},{"bike_id":"8595f23e-9d34-4baa-97fb-423c97ce2fde","system_id":"levelo_inurba_marseille","lat":43.29219,"lon":5.361,"is_reserved":false,"is_disabled":false,"rental_uris":{"android":"levelo://app?vid=8595f23e-9d34-4baa-97fb-423c97ce2fde","ios":"levelo://app?vid=8595f23e-9d34-4baa-97fb-423c97ce2fde"},"vehicle_type_id":"4","last_reported":1746644903,"current_range_meters":10800,"station_id":"ce4bhbh2rcd13ifvqeqg","pricing_plan_id":"cebpf4jnsgd1na2vs0mg"},{"bike_id":"b15fe93b-1059-4d75-abd3-040e349ce402","system_id":"levelo_inurba_marseille","lat":43.30108,"lon":5.37008,"is_reserved":false,"is_disabled":false,"rental_uris":{"android":"levelo://app?vid=b15fe93b-1059-4d75-abd3-040e349ce402","ios":"levelo://app?vid=b15fe93b-1059-4d75-abd3-040e349ce402"},"vehicle_type_id":"4","last_reported":1746644903,"current_range_meters":11200,"station_id":"","pricing_plan_id":"cebpf4jnsgd1na2vs0mg"},{"bike_id":"a96833c3-7aad-4769-953e-d8192a324355","system_id":"levelo_inurba_marseille","lat":43.337444,"lon":5.374475,"is_reserved":false,"is_disabled":false,"rental_uris":{"android":"levelo://app?vid=a96833c3-7aad-4769-953e-d8192a324355","ios":"levelo://app?vid=a96833c3-7aad-4769-953e-d8192a324355"},"vehicle_type_id":"4","last_reported":1746644903,"current_range_meters":11200,"station_id":"","pricing_plan_id":"cebpf4jnsgd1na2vs0mg"},{"bike_id":"93d2445e-c92c-4da1-9cb1-eefade90d887","system_id":"levelo_inurba_marseille","lat":43.2959,"lon":5.38108,"is_reserved":false,"is_disabled":false,"rental_uris":{"android":"levelo://app?vid=93d2445e-c92c-4da1-9cb1-eefade90d887","ios":"levelo://app?vid=93d2445e-c92c-4da1-9cb1-eefade90d887"},"vehicle_type_id":"4","last_reported":1746644903,"current_range_meters":11200,"station_id":"ce4bgl12rcd13ifvqbo0","pricing_plan_id":"cebpf4jnsgd1na2vs0mg"},{"bike_id":"9540036a-78cf-4cc0-9874-bc38dccf1434","system_id":"levelo_inurba_marseille","lat":43.2865,"lon":5.36369,"is_reserved":false,"is_disabled":false,"rental_uris":{"android":"levelo://app?vid=9540036a-78cf-4cc0-9874-bc38dccf1434","ios":"levelo://app?vid=9540036a-78cf-4cc0-9874-bc38dccf1434"},"vehicle_type_id":"4","last_reported":1746644903,"current_range_meters":11600,"station_id":"ce4bhah2rcd13ifvqej0","pricing_plan_id":"cebpf4jnsgd1na2vs0mg"},{"bike_id":"68895f70-2afd-4fca-99d5-a0745172bf1a","system_id":"levelo_inurba_marseille","lat":43.273773,"lon":5.362576,"is_reserved":false,"is_disabled":false,"rental_uris":{"android":"levelo://app?vid=68895f70-2afd-4fca-99d5-a0745172bf1a","ios":"levelo://app?vid=68895f70-2afd-4fca-99d5-a0745172bf1a"},"vehicle_type_id":"4","last_reported":1746644903,"current_range_meters":11600,"station_id":"ce4bhbh2rcd13ifvqeo0","pricing_plan_id":"cebpf4jnsgd1na2vs0mg"},{"bike_id":"2d30c09a-a69b-4643-bf11-9a3fada4d4c9","system_id":"levelo_inurba_marseille","lat":43.27621,"lon":5.36107,"is_reserved":false,"is_disabled":false,"rental_uris":{"android":"levelo://app?vid=2d30c09a-a69b-4643-bf11-9a3fada4d4c9","ios":"levelo://app?vid=2d30c09a-a69b-4643-bf11-9a3fada4d4c9"},"vehicle_type_id":"4","last_reported":1746644903,"current_range_meters":12000,"station_id":"ce4bgj92rcd13ifvqbe0","pricing_plan_id":"cebpf4jnsgd1na2vs0mg"},{"bike_id":"3e492348-a833-474f-86e4-ac7c1b66940f","system_id":"levelo_inurba_marseille","lat":43.28692,"lon":5.37393,"is_reserved":false,"is_disabled":false,"rental_uris":{"android":"levelo://app?vid=3e492348-a833-474f-86e4-ac7c1b66940f","ios":"levelo://app?vid=3e492348-a833-474f-86e4-ac7c1b66940f"},"vehicle_type_id":"4","last_reported":1746644903,"current_range_meters":12000,"station_id":"ce4bh3p2rcd13ifvqdq0","pricing_plan_id":"cebpf4jnsgd1na2vs0mg"},{"bike_id":"5d713a40-e6f3-4885-b30e-8953fd7e64b0","system_id":"levelo_inurba_marseille","lat":43.31336,"lon":5.39715,"is_reserved":false,"is_disabled":false,"rental_uris":{"android":"levelo://app?vid=5d713a40-e6f3-4885-b30e-8953fd7e64b0","ios":"levelo://app?vid=5d713a40-e6f3-4885-b30e-8953fd7e64b0"},"vehicle_type_id":"4","last_reported":1746644903,"current_range_meters":12400,"station_id":"ce4bgvp2rcd13ifvqcu0","pricing_plan_id":"cebpf4jnsgd1na2vs0mg"},{"bike_id":"cbb568b2-7002-44bc-a849-cbc0c38aea52","system_id":"levelo_inurba_marseille","lat":43.29408,"lon":5.3862,"is_reserved":false,"is_disabled":false,"rental_uris":{"android":"levelo://app?vid=cbb568b2-7002-44bc-a849-cbc0c38aea52","ios":"levelo://app?vid=cbb568b2-7002-44bc-a849-cbc0c38aea52"},"vehicle_type_id":"4","last_reported":1746644903,"current_range_meters":12400,"station_id":"ce4bh2h2rcd13ifvqdh0","pricing_plan_id":"cebpf4jnsgd1na2vs0mg"},{"bike_id":"412da3ba-cb9b-472e-b850-959eec8df49a","system_id":"levelo_inurba_marseille","lat":43.2926,"lon":5.38438,"is_reserved":false,"is_disabled":false,"rental_uris":{"android":"levelo://app?vid=412da3ba-cb9b-472e-b850-959eec8df49a","ios":"levelo://app?vid=412da3ba-cb9b-472e-b850-959eec8df49a"},"vehicle_type_id":"4","last_reported":1746644903,"current_range_meters":12400,"station_id":"ce4bh692rcd13ifvqea0","pricing_plan_id":"cebpf4jnsgd1na2vs0mg"},{"bike_id":"13a5ef3d-eb02-42e8-8599-cb03b07d9f2a","system_id":"levelo_inurba_marseille","lat":43.29011,"lon":5.35616,"is_reserved":false,"is_disabled":false,"rental_uris":{"android":"levelo://app?vid=13a5ef3d-eb02-42e8-8599-cb03b07d9f2a","ios":"levelo://app?vid=13a5ef3d-eb02-42e8-8599-cb03b07d9f2a"},"vehicle_type_id":"4","last_reported":1746644903,"current_range_meters":12400,"station_id":"ce4bhb92rcd13ifvqen0","pricing_plan_id":"cebpf4jnsgd1na2vs0mg"},{"bike_id":"082a349e-18d9-40a4-beb3-7b63959e9010","system_id":"levelo_inurba_marseille","lat":43.29012,"lon":5.3561,"is_reserved":false,"is_disabled":false,"rental_uris":{"android":"levelo://app?vid=082a349e-18d9-40a4-beb3-7b63959e9010","ios":"levelo://app?vid=082a349e-18d9-40a4-beb3-7b63959e9010"},"vehicle_type_id":"4","last_reported":1746644903,"current_range_meters":12400,"station_id":"ce4bhb92rcd13ifvqen0","pricing_plan_id":"cebpf4jnsgd1na2vs0mg"},{"bike_id":"7ec50670-20e3-4019-9544-8d5f2ce92cf0","system_id":"levelo_inurba_marseille","lat":43.29007,"lon":5.35612,"is_reserved":false,"is_disabled":false,"rental_uris":{"android":"levelo://app?vid=7ec50670-20e3-4019-9544-8d5f2ce92cf0","ios":"levelo://app?vid=7ec50670-20e3-4019-9544-8d5f2ce92cf0"},"vehicle_type_id":"4","last_reported":1746644903,"current_range_meters":12400,"station_id":"ce4bhb92rcd13ifvqen0","pricing_plan_id":"cebpf4jnsgd1na2vs0mg"},{"bike_id":"df0dfd23-0e95-4567-81ff-4815ecafacca","system_id":"levelo_inurba_marseille","lat":43.293,"lon":5.3715,"is_reserved":false,"is_disabled":false,"rental_uris":{"android":"levelo://app?vid=df0dfd23-0e95-4567-81ff-4815ecafacca","ios":"levelo://app?vid=df0dfd23-0e95-4567-81ff-4815ecafacca"},"vehicle_type_id":"4","last_reported":1746644903,"current_range_meters":12800,"station_id":"ce4bgh92rcd13ifvqb40","pricing_plan_id":"cebpf4jnsgd1na2vs0mg"},{"bike_id":"99a487fe-5d2b-478a-b5ad-86c8c20a1dc3","system_id":"levelo_inurba_marseille","lat":43.2743,"lon":5.39408,"is_reserved":false,"is_disabled":false,"rental_uris":{"android":"levelo://app?vid=99a487fe-5d2b-478a-b5ad-86c8c20a1dc3","ios":"levelo://app?vid=99a487fe-5d2b-478a-b5ad-86c8c20a1dc3"},"vehicle_type_id":"4","last_reported":1746644903,"current_range_meters":12800,"station_id":"ce4bhdp2rcd13ifvqf20","pricing_plan_id":"cebpf4jnsgd1na2vs0mg"},{"bike_id":"f56e7141-756d-4447-8cd2-17b4550bc70d","system_id":"levelo_inurba_marseille","lat":43.23184,"lon":5.35551,"is_reserved":false,"is_disabled":false,"rental_uris":{"android":"levelo://app?vid=f56e7141-756d-4447-8cd2-17b4550bc70d","ios":"levelo://app?vid=f56e7141-756d-4447-8cd2-17b4550bc70d"},"vehicle_type_id":"4","last_reported":1746644903,"current_range_meters":12800,"station_id":"ce4bhu92rcd13ifvqi70","pricing_plan_id":"cebpf4jnsgd1na2vs0mg"},{"bike_id":"58486cb7-9fa7-455e-943b-a56f81bc4f73","system_id":"levelo_inurba_marseille","lat":43.29624,"lon":5.37719,"is_reserved":false,"is_disabled":false,"rental_uris":{"android":"levelo://app?vid=58486cb7-9fa7-455e-943b-a56f81bc4f73","ios":"levelo://app?vid=58486cb7-9fa7-455e-943b-a56f81bc4f73"},"vehicle_type_id":"4","last_reported":1746644903,"current_range_meters":13600,"station_id":"ce4bgi92rcd13ifvqb90","pricing_plan_id":"cebpf4jnsgd1na2vs0mg"},{"bike_id":"a70d6ac3-2947-4d5c-a070-ec3cc44ea2e4","system_id":"levelo_inurba_marseille","lat":43.29369,"lon":5.37839,"is_reserved":false,"is_disabled":false,"rental_uris":{"android":"levelo://app?vid=a70d6ac3-2947-4d5c-a070-ec3cc44ea2e4","ios":"levelo://app?vid=a70d6ac3-2947-4d5c-a070-ec3cc44ea2e4"},"vehicle_type_id":"4","last_reported":1746644903,"current_range_meters":13600,"station_id":"ce4bgjh2rcd13ifvqbf0","pricing_plan_id":"cebpf4jnsgd1na2vs0mg"},{"bike_id":"cb5561fb-3ed2-49bf-bd58-7c8862116c78","system_id":"levelo_inurba_marseille","lat":43.2118,"lon":5.35073,"is_reserved":false,"is_disabled":false,"rental_uris":{"android":"levelo://app?vid=cb5561fb-3ed2-49bf-bd58-7c8862116c78","ios":"levelo://app?vid=cb5561fb-3ed2-49bf-bd58-7c8862116c78"},"vehicle_type_id":"4","last_reported":1746644903,"current_range_meters":13600,"station_id":"st_cvj6sg6p6f1abm77japg","pricing_plan_id":"cebpf4jnsgd1na2vs0mg"},{"bike_id":"f59ee0cc-9f4f-4c5e-9226-662e960026a0","system_id":"levelo_inurba_marseille","lat":43.26681,"lon":5.38269,"is_reserved":false,"is_disabled":false,"rental_uris":{"android":"levelo://app?vid=f59ee0cc-9f4f-4c5e-9226-662e960026a0","ios":"levelo://app?vid=f59ee0cc-9f4f-4c5e-9226-662e960026a0"},"vehicle_type_id":"4","last_reported":1746644903,"current_range_meters":14000,"station_id":"ce4bhg92rcd13ifvqf90","pricing_plan_id":"cebpf4jnsgd1na2vs0mg"},{"bike_id":"80b02f0f-29d8-43d1-b0e0-93657000421e","system_id":"levelo_inurba_marseille","lat":43.2439,"lon":5.37059,"is_reserved":false,"is_disabled":false,"rental_uris":{"android":"levelo://app?vid=80b02f0f-29d8-43d1-b0e0-93657000421e","ios":"levelo://app?vid=80b02f0f-29d8-43d1-b0e0-93657000421e"},"vehicle_type_id":"4","last_reported":1746644903,"current_range_meters":14000,"station_id":"ce4bhhh2rcd13ifvqfk0","pricing_plan_id":"cebpf4jnsgd1na2vs0mg"},{"bike_id":"b6de7b09-2b45-4215-94b6-5c48be103da3","system_id":"levelo_inurba_marseille","lat":43.292999,"lon":5.371469,"is_reserved":false,"is_disabled":false,"rental_uris":{"android":"levelo://app?vid=b6de7b09-2b45-4215-94b6-5c48be103da3","ios":"levelo://app?vid=b6de7b09-2b45-4215-94b6-5c48be103da3"},"vehicle_type_id":"4","last_reported":1746644903,"current_range_meters":14400,"station_id":"","pricing_plan_id":"cebpf4jnsgd1na2vs0mg"},{"bike_id":"4432e194-e76e-4311-9d3f-10c3d4244651","system_id":"levelo_inurba_marseille","lat":43.28942,"lon":5.363995,"is_reserved":false,"is_disabled":false,"rental_uris":{"android":"levelo://app?vid=4432e194-e76e-4311-9d3f-10c3d4244651","ios":"levelo://app?vid=4432e194-e76e-4311-9d3f-10c3d4244651"},"vehicle_type_id":"4","last_reported":1746644903,"current_range_meters":14400,"station_id":"ce4bhc92rcd13ifvqetg","pricing_plan_id":"cebpf4jnsgd1na2vs0mg"},{"bike_id":"0f65d8af-f456-4b63-a562-65567b0e091f","system_id":"levelo_inurba_marseille","lat":43.28269,"lon":5.35062,"is_reserved":false,"is_disabled":false,"rental_uris":{"android":"levelo://app?vid=0f65d8af-f456-4b63-a562-65567b0e091f","ios":"levelo://app?vid=0f65d8af-f456-4b63-a562-65567b0e091f"},"vehicle_type_id":"4","last_reported":1746644903,"current_range_meters":14800,"station_id":"ce4bhbp2rcd13ifvqerg","pricing_plan_id":"cebpf4jnsgd1na2vs0mg"},{"bike_id":"5eff3279-85d7-441c-9830-1c46804847d1","system_id":"levelo_inurba_marseille","lat":43.28275,"lon":5.35067,"is_reserved":false,"is_disabled":false,"rental_uris":{"android":"levelo://app?vid=5eff3279-85d7-441c-9830-1c46804847d1","ios":"levelo://app?vid=5eff3279-85d7-441c-9830-1c46804847d1"},"vehicle_type_id":"4","last_reported":1746644903,"current_range_meters":14800,"station_id":"ce4bhbp2rcd13ifvqerg","pricing_plan_id":"cebpf4jnsgd1na2vs0mg"},{"bike_id":"a50f2df6-af3e-4fb0-ab69-2fa20f355ca7","system_id":"levelo_inurba_marseille","lat":43.25865,"lon":5.39897,"is_reserved":false,"is_disabled":false,"rental_uris":{"android":"levelo://app?vid=a50f2df6-af3e-4fb0-ab69-2fa20f355ca7","ios":"levelo://app?vid=a50f2df6-af3e-4fb0-ab69-2fa20f355ca7"},"vehicle_type_id":"4","last_reported":1746644903,"current_range_meters":14800,"station_id":"ce4bhl92rcd13ifvqghg","pricing_plan_id":"cebpf4jnsgd1na2vs0mg"},{"bike_id":"c95efd0f-f63e-480c-addf-ec601dadcea7","system_id":"levelo_inurba_marseille","lat":43.3135,"lon":5.38499,"is_reserved":false,"is_disabled":false,"rental_uris":{"android":"levelo://app?vid=c95efd0f-f63e-480c-addf-ec601dadcea7","ios":"levelo://app?vid=c95efd0f-f63e-480c-addf-ec601dadcea7"},"vehicle_type_id":"4","last_reported":1746644903,"current_range_meters":15200,"station_id":"ce4bgt92rcd13ifvqcf0","pricing_plan_id":"cebpf4jnsgd1na2vs0mg"},{"bike_id":"7915b7bf-1a60-4972-86c4-0897dab015cf","system_id":"levelo_inurba_marseille","lat":43.29567,"lon":5.42274,"is_reserved":false,"is_disabled":false,"rental_uris":{"android":"levelo://app?vid=7915b7bf-1a60-4972-86c4-0897dab015cf","ios":"levelo://app?vid=7915b7bf-1a60-4972-86c4-0897dab015cf"},"vehicle_type_id":"4","last_reported":1746644903,"current_range_meters":15200,"station_id":"ce4bhph2rcd13ifvqhdg","pricing_plan_id":"cebpf4jnsgd1na2vs0mg"},{"bike_id":"809c8673-c032-46b9-aa07-62c38e26d44e","system_id":"levelo_inurba_marseille","lat":43.25045,"lon":5.38793,"is_reserved":false,"is_disabled":false,"rental_uris":{"android":"levelo://app?vid=809c8673-c032-46b9-aa07-62c38e26d44e","ios":"levelo://app?vid=809c8673-c032-46b9-aa07-62c38e26d44e"},"vehicle_type_id":"4","last_reported":1746644903,"current_range_meters":16000,"station_id":"","pricing_plan_id":"cebpf4jnsgd1na2vs0mg"},{"bike_id":"e945a495-d359-4bb7-bb94-1340aff95955","system_id":"levelo_inurba_marseille","lat":43.28136,"lon":5.40619,"is_reserved":false,"is_disabled":false,"rental_uris":{"android":"levelo://app?vid=e945a495-d359-4bb7-bb94-1340aff95955","ios":"levelo://app?vid=e945a495-d359-4bb7-bb94-1340aff95955"},"vehicle_type_id":"4","last_reported":1746644903,"current_range_meters":16000,"station_id":"","pricing_plan_id":"cebpf4jnsgd1na2vs0mg"},{"bike_id":"f14406f2-c4f9-4540-8109-0c64a45c0ce2","system_id":"levelo_inurba_marseille","lat":43.29305,"lon":5.3716,"is_reserved":false,"is_disabled":false,"rental_uris":{"android":"levelo://app?vid=f14406f2-c4f9-4540-8109-0c64a45c0ce2","ios":"levelo://app?vid=f14406f2-c4f9-4540-8109-0c64a45c0ce2"},"vehicle_type_id":"4","last_reported":1746644903,"current_range_meters":16000,"station_id":"ce4bgh92rcd13ifvqb40","pricing_plan_id":"cebpf4jnsgd1na2vs0mg"},{"bike_id":"8210190a-e8a5-4d7a-9486-dd38fa1d83de","system_id":"levelo_inurba_marseille","lat":43.29292,"lon":5.37462,"is_reserved":false,"is_disabled":false,"rental_uris":{"android":"levelo://app?vid=8210190a-e8a5-4d7a-9486-dd38fa1d83de","ios":"levelo://app?vid=8210190a-e8a5-4d7a-9486-dd38fa1d83de"},"vehicle_type_id":"4","last_reported":1746644903,"current_range_meters":16000,"station_id":"ce4bgi12rcd13ifvqb70","pricing_plan_id":"cebpf4jnsgd1na2vs0mg"},{"bike_id":"ae4fcbee-9dd2-4df7-bb4f-b2e1702a5411","system_id":"levelo_inurba_marseille","lat":43.29621,"lon":5.37169,"is_reserved":false,"is_disabled":false,"rental_uris":{"android":"levelo://app?vid=ae4fcbee-9dd2-4df7-bb4f-b2e1702a5411","ios":"levelo://app?vid=ae4fcbee-9dd2-4df7-bb4f-b2e1702a5411"},"vehicle_type_id":"4","last_reported":1746644903,"current_range_meters":16000,"station_id":"ce4bgnh2rcd13ifvqc0g","pricing_plan_id":"cebpf4jnsgd1na2vs0mg"},{"bike_id":"e6282093-23fb-41a9-859d-c0d9ad966535","system_id":"levelo_inurba_marseille","lat":43.31705,"lon":5.37687,"is_reserved":false,"is_disabled":false,"rental_uris":{"android":"levelo://app?vid=e6282093-23fb-41a9-859d-c0d9ad966535","ios":"levelo://app?vid=e6282093-23fb-41a9-859d-c0d9ad966535"},"vehicle_type_id":"4","last_reported":1746644903,"current_range_meters":16000,"station_id":"ce4bgth2rcd13ifvqch0","pricing_plan_id":"cebpf4jnsgd1na2vs0mg"},{"bike_id":"17b214d6-99b5-4fbd-a65f-6ac3467903ea","system_id":"levelo_inurba_marseille","lat":43.31066,"lon":5.38342,"is_reserved":false,"is_disabled":false,"rental_uris":{"android":"levelo://app?vid=17b214d6-99b5-4fbd-a65f-6ac3467903ea","ios":"levelo://app?vid=17b214d6-99b5-4fbd-a65f-6ac3467903ea"},"vehicle_type_id":"4","last_reported":1746644903,"current_range_meters":16000,"station_id":"ce4bgv92rcd13ifvqcr0","pricing_plan_id":"cebpf4jnsgd1na2vs0mg"},{"bike_id":"a9f819a7-8ccd-46bd-bd6c-e49bc73a6784","system_id":"levelo_inurba_marseille","lat":43.27378,"lon":5.36267,"is_reserved":false,"is_disabled":false,"rental_uris":{"android":"levelo://app?vid=a9f819a7-8ccd-46bd-bd6c-e49bc73a6784","ios":"levelo://app?vid=a9f819a7-8ccd-46bd-bd6c-e49bc73a6784"},"vehicle_type_id":"4","last_reported":1746644903,"current_range_meters":16000,"station_id":"ce4bhbh2rcd13ifvqeo0","pricing_plan_id":"cebpf4jnsgd1na2vs0mg"},{"bike_id":"36fca820-290f-4c5a-8ac5-3d6a0315b30c","system_id":"levelo_inurba_marseille","lat":43.28418,"lon":5.34986,"is_reserved":false,"is_disabled":false,"rental_uris":{"android":"levelo://app?vid=36fca820-290f-4c5a-8ac5-3d6a0315b30c","ios":"levelo://app?vid=36fca820-290f-4c5a-8ac5-3d6a0315b30c"},"vehicle_type_id":"4","last_reported":1746644903,"current_range_meters":16000,"station_id":"ce4bhbh2rcd13ifvqepg","pricing_plan_id":"cebpf4jnsgd1na2vs0mg"},{"bike_id":"2d2eb0ba-fc73-41b1-bb35-be283b2436aa","system_id":"levelo_inurba_marseille","lat":43.28154,"lon":5.42648,"is_reserved":false,"is_disabled":false,"rental_uris":{"android":"levelo://app?vid=2d2eb0ba-fc73-41b1-bb35-be283b2436aa","ios":"levelo://app?vid=2d2eb0ba-fc73-41b1-bb35-be283b2436aa"},"vehicle_type_id":"4","last_reported":1746644903,"current_range_meters":16000,"station_id":"ce4bhnh2rcd13ifvqgug","pricing_plan_id":"cebpf4jnsgd1na2vs0mg"},{"bike_id":"47c1c740-1c18-4989-afe9-a51a3686f78c","system_id":"levelo_inurba_marseille","lat":43.27613,"lon":5.3611,"is_reserved":false,"is_disabled":false,"rental_uris":{"android":"levelo://app?vid=47c1c740-1c18-4989-afe9-a51a3686f78c","ios":"levelo://app?vid=47c1c740-1c18-4989-afe9-a51a3686f78c"},"vehicle_type_id":"4","last_reported":1746644903,"current_range_meters":16400,"station_id":"ce4bgj92rcd13ifvqbe0","pricing_plan_id":"cebpf4jnsgd1na2vs0mg"},{"bike_id":"37a3a749-3232-4b2d-a29b-5f7ab2c39dd4","system_id":"levelo_inurba_marseille","lat":43.28456,"lon":5.35897,"is_reserved":false,"is_disabled":false,"rental_uris":{"android":"levelo://app?vid=37a3a749-3232-4b2d-a29b-5f7ab2c39dd4","ios":"levelo://app?vid=37a3a749-3232-4b2d-a29b-5f7ab2c39dd4"},"vehicle_type_id":"4","last_reported":1746644903,"current_range_meters":16400,"station_id":"ce4bhah2rcd13ifvqei0","pricing_plan_id":"cebpf4jnsgd1na2vs0mg"},{"bike_id":"6096fdf9-2418-4599-bc62-6923415f4d54","system_id":"levelo_inurba_marseille","lat":43.28268,"lon":5.35065,"is_reserved":false,"is_disabled":false,"rental_uris":{"android":"levelo://app?vid=6096fdf9-2418-4599-bc62-6923415f4d54","ios":"levelo://app?vid=6096fdf9-2418-4599-bc62-6923415f4d54"},"vehicle_type_id":"4","last_reported":1746644903,"current_range_meters":16400,"station_id":"ce4bhbp2rcd13ifvqerg","pricing_plan_id":"cebpf4jnsgd1na2vs0mg"},{"bike_id":"ea96f9dd-65bd-4fcc-a36b-4f54ca5cea80","system_id":"levelo_inurba_marseille","lat":43.27824,"lon":5.40736,"is_reserved":false,"is_disabled":false,"rental_uris":{"android":"levelo://app?vid=ea96f9dd-65bd-4fcc-a36b-4f54ca5cea80","ios":"levelo://app?vid=ea96f9dd-65bd-4fcc-a36b-4f54ca5cea80"},"vehicle_type_id":"4","last_reported":1746644903,"current_range_meters":16400,"station_id":"ce4bhnh2rcd13ifvqgtg","pricing_plan_id":"cebpf4jnsgd1na2vs0mg"},{"bike_id":"47cd9dba-9c5a-4de3-a27d-45ec0de547bc","system_id":"levelo_inurba_marseille","lat":43.28842,"lon":5.43334,"is_reserved":false,"is_disabled":false,"rental_uris":{"android":"levelo://app?vid=47cd9dba-9c5a-4de3-a27d-45ec0de547bc","ios":"levelo://app?vid=47cd9dba-9c5a-4de3-a27d-45ec0de547bc"},"vehicle_type_id":"4","last_reported":1746644903,"current_range_meters":16800,"station_id":"","pricing_plan_id":"cebpf4jnsgd1na2vs0mg"},{"bike_id":"29989522-c8be-4366-b3b7-ed28be07a94f","system_id":"levelo_inurba_marseille","lat":43.27371,"lon":5.36274,"is_reserved":false,"is_disabled":false,"rental_uris":{"android":"levelo://app?vid=29989522-c8be-4366-b3b7-ed28be07a94f","ios":"levelo://app?vid=29989522-c8be-4366-b3b7-ed28be07a94f"},"vehicle_type_id":"4","last_reported":1746644903,"current_range_meters":16800,"station_id":"ce4bhbh2rcd13ifvqeo0","pricing_plan_id":"cebpf4jnsgd1na2vs0mg"},{"bike_id":"7e1342cb-4746-4a1c-ba04-1d943ef9154d","system_id":"levelo_inurba_marseille","lat":43.27195,"lon":5.4098,"is_reserved":false,"is_disabled":false,"rental_uris":{"android":"levelo://app?vid=7e1342cb-4746-4a1c-ba04-1d943ef9154d","ios":"levelo://app?vid=7e1342cb-4746-4a1c-ba04-1d943ef9154d"},"vehicle_type_id":"4","last_reported":1746644903,"current_range_meters":17200,"station_id":"ce4bhl12rcd13ifvqgf0","pricing_plan_id":"cebpf4jnsgd1na2vs0mg"},{"bike_id":"943c17e1-2f10-4f8b-b508-00da99e73e39","system_id":"levelo_inurba_marseille","lat":43.23185,"lon":5.39976,"is_reserved":false,"is_disabled":false,"rental_uris":{"android":"levelo://app?vid=943c17e1-2f10-4f8b-b508-00da99e73e39","ios":"levelo://app?vid=943c17e1-2f10-4f8b-b508-00da99e73e39"},"vehicle_type_id":"4","last_reported":1746644903,"current_range_meters":17200,"station_id":"ce4bhn12rcd13ifvqgqg","pricing_plan_id":"cebpf4jnsgd1na2vs0mg"},{"bike_id":"eefff796-0f0a-4523-9b40-35cc744f1a3a","system_id":"levelo_inurba_marseille","lat":43.290193,"lon":5.386375,"is_reserved":false,"is_disabled":false,"rental_uris":{"android":"levelo://app?vid=eefff796-0f0a-4523-9b40-35cc744f1a3a","ios":"levelo://app?vid=eefff796-0f0a-4523-9b40-35cc744f1a3a"},"vehicle_type_id":"4","last_reported":1746644903,"current_range_meters":17600,"station_id":"ce4bh4p2rcd13ifvqe0g","pricing_plan_id":"cebpf4jnsgd1na2vs0mg"},{"bike_id":"f34f2771-866e-4a13-aa0d-20b777139a8a","system_id":"levelo_inurba_marseille","lat":43.29051,"lon":5.35908,"is_reserved":false,"is_disabled":false,"rental_uris":{"android":"levelo://app?vid=f34f2771-866e-4a13-aa0d-20b777139a8a","ios":"levelo://app?vid=f34f2771-866e-4a13-aa0d-20b777139a8a"},"vehicle_type_id":"4","last_reported":1746644903,"current_range_meters":17600,"station_id":"ce4bha92rcd13ifvqeg0","pricing_plan_id":"cebpf4jnsgd1na2vs0mg"},{"bike_id":"86b197b1-658c-40db-8b30-e30cbe42070a","system_id":"levelo_inurba_marseille","lat":43.27372,"lon":5.36257,"is_reserved":false,"is_disabled":false,"rental_uris":{"android":"levelo://app?vid=86b197b1-658c-40db-8b30-e30cbe42070a","ios":"levelo://app?vid=86b197b1-658c-40db-8b30-e30cbe42070a"},"vehicle_type_id":"4","last_reported":1746644903,"current_range_meters":17600,"station_id":"ce4bhbh2rcd13ifvqeo0","pricing_plan_id":"cebpf4jnsgd1na2vs0mg"},{"bike_id":"7cb84a55-eae0-4ff8-a8e8-801fd7179396","system_id":"levelo_inurba_marseille","lat":43.30607,"lon":5.37428,"is_reserved":false,"is_disabled":false,"rental_uris":{"android":"levelo://app?vid=7cb84a55-eae0-4ff8-a8e8-801fd7179396","ios":"levelo://app?vid=7cb84a55-eae0-4ff8-a8e8-801fd7179396"},"vehicle_type_id":"4","last_reported":1746644903,"current_range_meters":18000,"station_id":"","pricing_plan_id":"cebpf4jnsgd1na2vs0mg"},{"bike_id":"8845de1a-be34-4f74-b18c-495de805e8ba","system_id":"levelo_inurba_marseille","lat":43.24805,"lon":5.37455,"is_reserved":false,"is_disabled":false,"rental_uris":{"android":"levelo://app?vid=8845de1a-be34-4f74-b18c-495de805e8ba","ios":"levelo://app?vid=8845de1a-be34-4f74-b18c-495de805e8ba"},"vehicle_type_id":"4","last_reported":1746644903,"current_range_meters":18000,"station_id":"ce4bhgh2rcd13ifvqfb0","pricing_plan_id":"cebpf4jnsgd1na2vs0mg"},{"bike_id":"9ea60565-2952-4579-9979-5b0b2597cb37","system_id":"levelo_inurba_marseille","lat":43.2318,"lon":5.39989,"is_reserved":false,"is_disabled":false,"rental_uris":{"android":"levelo://app?vid=9ea60565-2952-4579-9979-5b0b2597cb37","ios":"levelo://app?vid=9ea60565-2952-4579-9979-5b0b2597cb37"},"vehicle_type_id":"4","last_reported":1746644903,"current_range_meters":18000,"station_id":"ce4bhn12rcd13ifvqgqg","pricing_plan_id":"cebpf4jnsgd1na2vs0mg"},{"bike_id":"36aba3a8-66a7-483c-8eba-7ca022b59927","system_id":"levelo_inurba_marseille","lat":43.33599,"lon":5.41032,"is_reserved":false,"is_disabled":false,"rental_uris":{"android":"levelo://app?vid=36aba3a8-66a7-483c-8eba-7ca022b59927","ios":"levelo://app?vid=36aba3a8-66a7-483c-8eba-7ca022b59927"},"vehicle_type_id":"4","last_reported":1746644903,"current_range_meters":18000,"station_id":"ce4bhqh2rcd13ifvqhmg","pricing_plan_id":"cebpf4jnsgd1na2vs0mg"},{"bike_id":"5685c192-af0e-432e-a78b-7859fcd0e0d6","system_id":"levelo_inurba_marseille","lat":43.30928,"lon":5.37964,"is_reserved":false,"is_disabled":false,"rental_uris":{"android":"levelo://app?vid=5685c192-af0e-432e-a78b-7859fcd0e0d6","ios":"levelo://app?vid=5685c192-af0e-432e-a78b-7859fcd0e0d6"},"vehicle_type_id":"4","last_reported":1746644903,"current_range_meters":18800,"station_id":"","pricing_plan_id":"cebpf4jnsgd1na2vs0mg"},{"bike_id":"8bdf87bd-c91b-4644-9046-7072259f9131","system_id":"levelo_inurba_marseille","lat":43.31303,"lon":5.36881,"is_reserved":false,"is_disabled":false,"rental_uris":{"android":"levelo://app?vid=8bdf87bd-c91b-4644-9046-7072259f9131","ios":"levelo://app?vid=8bdf87bd-c91b-4644-9046-7072259f9131"},"vehicle_type_id":"4","last_reported":1746644903,"current_range_meters":18800,"station_id":"","pricing_plan_id":"cebpf4jnsgd1na2vs0mg"},{"bike_id":"68c83b39-f522-4a52-9ff6-ea685853f52b","system_id":"levelo_inurba_marseille","lat":43.29293,"lon":5.37466,"is_reserved":false,"is_disabled":false,"rental_uris":{"android":"levelo://app?vid=68c83b39-f522-4a52-9ff6-ea685853f52b","ios":"levelo://app?vid=68c83b39-f522-4a52-9ff6-ea685853f52b"},"vehicle_type_id":"4","last_reported":1746644903,"current_range_meters":18800,"station_id":"ce4bgi12rcd13ifvqb70","pricing_plan_id":"cebpf4jnsgd1na2vs0mg"},{"bike_id":"e2094e82-43c9-4eb4-a6a8-fdd9d45fb240","system_id":"levelo_inurba_marseille","lat":43.29258,"lon":5.38443,"is_reserved":false,"is_disabled":false,"rental_uris":{"android":"levelo://app?vid=e2094e82-43c9-4eb4-a6a8-fdd9d45fb240","ios":"levelo://app?vid=e2094e82-43c9-4eb4-a6a8-fdd9d45fb240"},"vehicle_type_id":"4","last_reported":1746644903,"current_range_meters":18800,"station_id":"ce4bh692rcd13ifvqea0","pricing_plan_id":"cebpf4jnsgd1na2vs0mg"},{"bike_id":"b3e19db0-98f9-42f6-b38d-fd0c441dd318","system_id":"levelo_inurba_marseille","lat":43.29027,"lon":5.3559,"is_reserved":false,"is_disabled":false,"rental_uris":{"android":"levelo://app?vid=b3e19db0-98f9-42f6-b38d-fd0c441dd318","ios":"levelo://app?vid=b3e19db0-98f9-42f6-b38d-fd0c441dd318"},"vehicle_type_id":"4","last_reported":1746644903,"current_range_meters":18800,"station_id":"ce4bhb92rcd13ifvqen0","pricing_plan_id":"cebpf4jnsgd1na2vs0mg"},{"bike_id":"e2f64e12-57bd-400f-8a1d-63203e995be0","system_id":"levelo_inurba_marseille","lat":43.28268,"lon":5.35063,"is_reserved":false,"is_disabled":false,"rental_uris":{"android":"levelo://app?vid=e2f64e12-57bd-400f-8a1d-63203e995be0","ios":"levelo://app?vid=e2f64e12-57bd-400f-8a1d-63203e995be0"},"vehicle_type_id":"4","last_reported":1746644903,"current_range_meters":18800,"station_id":"ce4bhbp2rcd13ifvqerg","pricing_plan_id":"cebpf4jnsgd1na2vs0mg"},{"bike_id":"ec1e1c12-2e58-4a4b-9cf7-02ba5a12cc09","system_id":"levelo_inurba_marseille","lat":43.24387,"lon":5.37061,"is_reserved":false,"is_disabled":false,"rental_uris":{"android":"levelo://app?vid=ec1e1c12-2e58-4a4b-9cf7-02ba5a12cc09","ios":"levelo://app?vid=ec1e1c12-2e58-4a4b-9cf7-02ba5a12cc09"},"vehicle_type_id":"4","last_reported":1746644903,"current_range_meters":18800,"station_id":"ce4bhhh2rcd13ifvqfk0","pricing_plan_id":"cebpf4jnsgd1na2vs0mg"},{"bike_id":"930d41f5-e831-45e1-b54b-86e3b022862f","system_id":"levelo_inurba_marseille","lat":43.23968,"lon":5.3663,"is_reserved":false,"is_disabled":false,"rental_uris":{"android":"levelo://app?vid=930d41f5-e831-45e1-b54b-86e3b022862f","ios":"levelo://app?vid=930d41f5-e831-45e1-b54b-86e3b022862f"},"vehicle_type_id":"4","last_reported":1746644903,"current_range_meters":18800,"station_id":"ce4bhi12rcd13ifvqfp0","pricing_plan_id":"cebpf4jnsgd1na2vs0mg"},{"bike_id":"2b58f3f1-57ee-4bac-bb56-e07a23a9ced0","system_id":"levelo_inurba_marseille","lat":43.27076,"lon":5.42272,"is_reserved":false,"is_disabled":false,"rental_uris":{"android":"levelo://app?vid=2b58f3f1-57ee-4bac-bb56-e07a23a9ced0","ios":"levelo://app?vid=2b58f3f1-57ee-4bac-bb56-e07a23a9ced0"},"vehicle_type_id":"4","last_reported":1746644903,"current_range_meters":19200,"station_id":"ce4bhk92rcd13ifvqgb0","pricing_plan_id":"cebpf4jnsgd1na2vs0mg"},{"bike_id":"14388ad8-f7f4-4a34-b95b-43c82abe54c0","system_id":"levelo_inurba_marseille","lat":43.25933,"lon":5.40894,"is_reserved":false,"is_disabled":false,"rental_uris":{"android":"levelo://app?vid=14388ad8-f7f4-4a34-b95b-43c82abe54c0","ios":"levelo://app?vid=14388ad8-f7f4-4a34-b95b-43c82abe54c0"},"vehicle_type_id":"4","last_reported":1746644903,"current_range_meters":19200,"station_id":"ce4bhm92rcd13ifvqglg","pricing_plan_id":"cebpf4jnsgd1na2vs0mg"},{"bike_id":"ad3912e1-02bc-450f-9f15-6e4766049115","system_id":"levelo_inurba_marseille","lat":43.29581,"lon":5.42262,"is_reserved":false,"is_disabled":false,"rental_uris":{"android":"levelo://app?vid=ad3912e1-02bc-450f-9f15-6e4766049115","ios":"levelo://app?vid=ad3912e1-02bc-450f-9f15-6e4766049115"},"vehicle_type_id":"4","last_reported":1746644903,"current_range_meters":19200,"station_id":"ce4bhph2rcd13ifvqhdg","pricing_plan_id":"cebpf4jnsgd1na2vs0mg"},{"bike_id":"70a29a45-574c-4ff1-aca3-740aa0e705be","system_id":"levelo_inurba_marseille","lat":43.24156,"lon":5.36407,"is_reserved":false,"is_disabled":false,"rental_uris":{"android":"levelo://app?vid=70a29a45-574c-4ff1-aca3-740aa0e705be","ios":"levelo://app?vid=70a29a45-574c-4ff1-aca3-740aa0e705be"},"vehicle_type_id":"4","last_reported":1746644903,"current_range_meters":19200,"station_id":"cpo36qri1sfpv3e86is0","pricing_plan_id":"cebpf4jnsgd1na2vs0mg"},{"bike_id":"53d4bbf7-e4e4-47e9-9ef5-025c777dca41","system_id":"levelo_inurba_marseille","lat":43.29365,"lon":5.37867,"is_reserved":false,"is_disabled":false,"rental_uris":{"android":"levelo://app?vid=53d4bbf7-e4e4-47e9-9ef5-025c777dca41","ios":"levelo://app?vid=53d4bbf7-e4e4-47e9-9ef5-025c777dca41"},"vehicle_type_id":"4","last_reported":1746644903,"current_range_meters":19600,"station_id":"ce4bgjh2rcd13ifvqbf0","pricing_plan_id":"cebpf4jnsgd1na2vs0mg"},{"bike_id":"545f7335-f587-48c6-bdc0-fb5f2925857f","system_id":"levelo_inurba_marseille","lat":43.31067,"lon":5.3836,"is_reserved":false,"is_disabled":false,"rental_uris":{"android":"levelo://app?vid=545f7335-f587-48c6-bdc0-fb5f2925857f","ios":"levelo://app?vid=545f7335-f587-48c6-bdc0-fb5f2925857f"},"vehicle_type_id":"4","last_reported":1746644903,"current_range_meters":19600,"station_id":"ce4bgv92rcd13ifvqcr0","pricing_plan_id":"cebpf4jnsgd1na2vs0mg"},{"bike_id":"bf993801-7552-413d-aa4a-a6d1ec2289ea","system_id":"levelo_inurba_marseille","lat":43.287128,"lon":5.379274,"is_reserved":false,"is_disabled":false,"rental_uris":{"android":"levelo://app?vid=bf993801-7552-413d-aa4a-a6d1ec2289ea","ios":"levelo://app?vid=bf993801-7552-413d-aa4a-a6d1ec2289ea"},"vehicle_type_id":"4","last_reported":1746644903,"current_range_meters":19600,"station_id":"ce4bh9p2rcd13ifvqec0","pricing_plan_id":"cebpf4jnsgd1na2vs0mg"},{"bike_id":"856bf0c8-089e-4333-a189-05eae84b766b","system_id":"levelo_inurba_marseille","lat":43.27374,"lon":5.3624,"is_reserved":false,"is_disabled":false,"rental_uris":{"android":"levelo://app?vid=856bf0c8-089e-4333-a189-05eae84b766b","ios":"levelo://app?vid=856bf0c8-089e-4333-a189-05eae84b766b"},"vehicle_type_id":"4","last_reported":1746644903,"current_range_meters":19600,"station_id":"ce4bhbh2rcd13ifvqeo0","pricing_plan_id":"cebpf4jnsgd1na2vs0mg"},{"bike_id":"7b44b879-bf70-4150-98d8-c78d05cb49b1","system_id":"levelo_inurba_marseille","lat":43.2655,"lon":5.37286,"is_reserved":false,"is_disabled":false,"rental_uris":{"android":"levelo://app?vid=7b44b879-bf70-4150-98d8-c78d05cb49b1","ios":"levelo://app?vid=7b44b879-bf70-4150-98d8-c78d05cb49b1"},"vehicle_type_id":"4","last_reported":1746644903,"current_range_meters":19600,"station_id":"ce4bhg12rcd13ifvqf70","pricing_plan_id":"cebpf4jnsgd1na2vs0mg"},{"bike_id":"1d1ed902-9c7d-4162-b5db-e65abbced81c","system_id":"levelo_inurba_marseille","lat":43.24795,"lon":5.37447,"is_reserved":false,"is_disabled":false,"rental_uris":{"android":"levelo://app?vid=1d1ed902-9c7d-4162-b5db-e65abbced81c","ios":"levelo://app?vid=1d1ed902-9c7d-4162-b5db-e65abbced81c"},"vehicle_type_id":"4","last_reported":1746644903,"current_range_meters":19600,"station_id":"ce4bhgh2rcd13ifvqfb0","pricing_plan_id":"cebpf4jnsgd1na2vs0mg"},{"bike_id":"0fc1f081-f6a9-44c4-b000-ff4535610d68","system_id":"levelo_inurba_marseille","lat":43.24386,"lon":5.37063,"is_reserved":false,"is_disabled":false,"rental_uris":{"android":"levelo://app?vid=0fc1f081-f6a9-44c4-b000-ff4535610d68","ios":"levelo://app?vid=0fc1f081-f6a9-44c4-b000-ff4535610d68"},"vehicle_type_id":"4","last_reported":1746644903,"current_range_meters":19600,"station_id":"ce4bhhh2rcd13ifvqfk0","pricing_plan_id":"cebpf4jnsgd1na2vs0mg"},{"bike_id":"6a105809-032a-47f0-9a51-f1aecf55634b","system_id":"levelo_inurba_marseille","lat":43.29551,"lon":5.42292,"is_reserved":false,"is_disabled":false,"rental_uris":{"android":"levelo://app?vid=6a105809-032a-47f0-9a51-f1aecf55634b","ios":"levelo://app?vid=6a105809-032a-47f0-9a51-f1aecf55634b"},"vehicle_type_id":"4","last_reported":1746644903,"current_range_meters":19600,"station_id":"ce4bhph2rcd13ifvqhdg","pricing_plan_id":"cebpf4jnsgd1na2vs0mg"},{"bike_id":"b95f4830-76c2-48af-a1a6-db3a400538dd","system_id":"levelo_inurba_marseille","lat":43.33003,"lon":5.39027,"is_reserved":false,"is_disabled":false,"rental_uris":{"android":"levelo://app?vid=b95f4830-76c2-48af-a1a6-db3a400538dd","ios":"levelo://app?vid=b95f4830-76c2-48af-a1a6-db3a400538dd"},"vehicle_type_id":"4","last_reported":1746644903,"current_range_meters":20000,"station_id":"","pricing_plan_id":"cebpf4jnsgd1na2vs0mg"},{"bike_id":"86faaeb0-89f8-42b9-be93-a34d16b7bcf7","system_id":"levelo_inurba_marseille","lat":43.30094,"lon":5.3702,"is_reserved":false,"is_disabled":false,"rental_uris":{"android":"levelo://app?vid=86faaeb0-89f8-42b9-be93-a34d16b7bcf7","ios":"levelo://app?vid=86faaeb0-89f8-42b9-be93-a34d16b7bcf7"},"vehicle_type_id":"4","last_reported":1746644903,"current_range_meters":20000,"station_id":"","pricing_plan_id":"cebpf4jnsgd1na2vs0mg"},{"bike_id":"2431c4cf-f780-4109-b51c-3cb2ad970d21","system_id":"levelo_inurba_marseille","lat":43.29559,"lon":5.42274,"is_reserved":false,"is_disabled":false,"rental_uris":{"android":"levelo://app?vid=2431c4cf-f780-4109-b51c-3cb2ad970d21","ios":"levelo://app?vid=2431c4cf-f780-4109-b51c-3cb2ad970d21"},"vehicle_type_id":"4","last_reported":1746644903,"current_range_meters":20000,"station_id":"ce4bhph2rcd13ifvqhdg","pricing_plan_id":"cebpf4jnsgd1na2vs0mg"},{"bike_id":"c9ae7a30-fe96-4997-ad29-047644accb3d","system_id":"levelo_inurba_marseille","lat":43.2873,"lon":5.36094,"is_reserved":false,"is_disabled":false,"rental_uris":{"android":"levelo://app?vid=c9ae7a30-fe96-4997-ad29-047644accb3d","ios":"levelo://app?vid=c9ae7a30-fe96-4997-ad29-047644accb3d"},"vehicle_type_id":"4","last_reported":1746644903,"current_range_meters":20000,"station_id":"cki0cbj6b192h4jlfktg","pricing_plan_id":"cebpf4jnsgd1na2vs0mg"},{"bike_id":"89b5c51b-cd9c-475c-ba7a-726b12d22f75","system_id":"levelo_inurba_marseille","lat":43.2115,"lon":5.35047,"is_reserved":false,"is_disabled":false,"rental_uris":{"android":"levelo://app?vid=89b5c51b-cd9c-475c-ba7a-726b12d22f75","ios":"levelo://app?vid=89b5c51b-cd9c-475c-ba7a-726b12d22f75"},"vehicle_type_id":"4","last_reported":1746644903,"current_range_meters":20000,"station_id":"st_cvj6sg6p6f1abm77japg","pricing_plan_id":"cebpf4jnsgd1na2vs0mg"},{"bike_id":"10554388-48f4-48c1-937e-7829c87ea57d","system_id":"levelo_inurba_marseille","lat":43.28033,"lon":5.369489,"is_reserved":false,"is_disabled":false,"rental_uris":{"android":"levelo://app?vid=10554388-48f4-48c1-937e-7829c87ea57d","ios":"levelo://app?vid=10554388-48f4-48c1-937e-7829c87ea57d"},"vehicle_type_id":"4","last_reported":1746644903,"current_range_meters":20400,"station_id":"ce4bha12rcd13ifvqef0","pricing_plan_id":"cebpf4jnsgd1na2vs0mg"},{"bike_id":"26b7ed20-d681-485d-8713-2891623ae6be","system_id":"levelo_inurba_marseille","lat":43.27378,"lon":5.36253,"is_reserved":false,"is_disabled":false,"rental_uris":{"android":"levelo://app?vid=26b7ed20-d681-485d-8713-2891623ae6be","ios":"levelo://app?vid=26b7ed20-d681-485d-8713-2891623ae6be"},"vehicle_type_id":"4","last_reported":1746644903,"current_range_meters":20400,"station_id":"ce4bhbh2rcd13ifvqeo0","pricing_plan_id":"cebpf4jnsgd1na2vs0mg"},{"bike_id":"cac0d531-1eb9-40b8-a3b6-dbae9b6fbc40","system_id":"levelo_inurba_marseille","lat":43.28734,"lon":5.36079,"is_reserved":false,"is_disabled":false,"rental_uris":{"android":"levelo://app?vid=cac0d531-1eb9-40b8-a3b6-dbae9b6fbc40","ios":"levelo://app?vid=cac0d531-1eb9-40b8-a3b6-dbae9b6fbc40"},"vehicle_type_id":"4","last_reported":1746644903,"current_range_meters":20400,"station_id":"cki0cbj6b192h4jlfktg","pricing_plan_id":"cebpf4jnsgd1na2vs0mg"},{"bike_id":"16d82653-e2e5-4531-a384-7902e244f0cf","system_id":"levelo_inurba_marseille","lat":43.22509,"lon":5.34784,"is_reserved":false,"is_disabled":false,"rental_uris":{"android":"levelo://app?vid=16d82653-e2e5-4531-a384-7902e244f0cf","ios":"levelo://app?vid=16d82653-e2e5-4531-a384-7902e244f0cf"},"vehicle_type_id":"4","last_reported":1746644903,"current_range_meters":20400,"station_id":"st_cvj5dfep6f1abm77gieg","pricing_plan_id":"cebpf4jnsgd1na2vs0mg"},{"bike_id":"a38c5fcd-2a3e-4e2c-b5be-bfb908394086","system_id":"levelo_inurba_marseille","lat":43.32781,"lon":5.3913,"is_reserved":false,"is_disabled":false,"rental_uris":{"android":"levelo://app?vid=a38c5fcd-2a3e-4e2c-b5be-bfb908394086","ios":"levelo://app?vid=a38c5fcd-2a3e-4e2c-b5be-bfb908394086"},"vehicle_type_id":"4","last_reported":1746644903,"current_range_meters":20800,"station_id":"","pricing_plan_id":"cebpf4jnsgd1na2vs0mg"},{"bike_id":"1d21839c-b8bb-44c8-8cbd-70efbbd32e51","system_id":"levelo_inurba_marseille","lat":43.29341,"lon":5.37171,"is_reserved":false,"is_disabled":false,"rental_uris":{"android":"levelo://app?vid=1d21839c-b8bb-44c8-8cbd-70efbbd32e51","ios":"levelo://app?vid=1d21839c-b8bb-44c8-8cbd-70efbbd32e51"},"vehicle_type_id":"4","last_reported":1746644903,"current_range_meters":20800,"station_id":"ce4bgh92rcd13ifvqb40","pricing_plan_id":"cebpf4jnsgd1na2vs0mg"},{"bike_id":"44f3b8a1-f121-47c0-9af3-453db94b4b42","system_id":"levelo_inurba_marseille","lat":43.27623,"lon":5.36105,"is_reserved":false,"is_disabled":false,"rental_uris":{"android":"levelo://app?vid=44f3b8a1-f121-47c0-9af3-453db94b4b42","ios":"levelo://app?vid=44f3b8a1-f121-47c0-9af3-453db94b4b42"},"vehicle_type_id":"4","last_reported":1746644903,"current_range_meters":20800,"station_id":"ce4bgj92rcd13ifvqbe0","pricing_plan_id":"cebpf4jnsgd1na2vs0mg"},{"bike_id":"b58208f6-5c5f-4f43-8041-e907b6898206","system_id":"levelo_inurba_marseille","lat":43.29245,"lon":5.38437,"is_reserved":false,"is_disabled":false,"rental_uris":{"android":"levelo://app?vid=b58208f6-5c5f-4f43-8041-e907b6898206","ios":"levelo://app?vid=b58208f6-5c5f-4f43-8041-e907b6898206"},"vehicle_type_id":"4","last_reported":1746644903,"current_range_meters":20800,"station_id":"ce4bh692rcd13ifvqea0","pricing_plan_id":"cebpf4jnsgd1na2vs0mg"},{"bike_id":"2528ca3e-6277-4bea-a633-cdf853a0f878","system_id":"levelo_inurba_marseille","lat":43.27423,"lon":5.39415,"is_reserved":false,"is_disabled":false,"rental_uris":{"android":"levelo://app?vid=2528ca3e-6277-4bea-a633-cdf853a0f878","ios":"levelo://app?vid=2528ca3e-6277-4bea-a633-cdf853a0f878"},"vehicle_type_id":"4","last_reported":1746644903,"current_range_meters":20800,"station_id":"ce4bhdp2rcd13ifvqf20","pricing_plan_id":"cebpf4jnsgd1na2vs0mg"},{"bike_id":"3c17387b-5b67-4d87-8a41-8dff1a883396","system_id":"levelo_inurba_marseille","lat":43.27493,"lon":5.4245,"is_reserved":false,"is_disabled":false,"rental_uris":{"android":"levelo://app?vid=3c17387b-5b67-4d87-8a41-8dff1a883396","ios":"levelo://app?vid=3c17387b-5b67-4d87-8a41-8dff1a883396"},"vehicle_type_id":"4","last_reported":1746644903,"current_range_meters":20800,"station_id":"ce4bhn92rcd13ifvqgrg","pricing_plan_id":"cebpf4jnsgd1na2vs0mg"},{"bike_id":"d3d0a76b-e333-419c-94f7-0e11634bab9c","system_id":"levelo_inurba_marseille","lat":43.27984,"lon":5.41657,"is_reserved":false,"is_disabled":false,"rental_uris":{"android":"levelo://app?vid=d3d0a76b-e333-419c-94f7-0e11634bab9c","ios":"levelo://app?vid=d3d0a76b-e333-419c-94f7-0e11634bab9c"},"vehicle_type_id":"4","last_reported":1746644903,"current_range_meters":20800,"station_id":"ce4bho12rcd13ifvqh1g","pricing_plan_id":"cebpf4jnsgd1na2vs0mg"},{"bike_id":"ff807334-3ad3-4e40-bbde-648eb2b1c45b","system_id":"levelo_inurba_marseille","lat":43.21189,"lon":5.3507,"is_reserved":false,"is_disabled":false,"rental_uris":{"android":"levelo://app?vid=ff807334-3ad3-4e40-bbde-648eb2b1c45b","ios":"levelo://app?vid=ff807334-3ad3-4e40-bbde-648eb2b1c45b"},"vehicle_type_id":"4","last_reported":1746644903,"current_range_meters":20800,"station_id":"st_cvj6sg6p6f1abm77japg","pricing_plan_id":"cebpf4jnsgd1na2vs0mg"},{"bike_id":"b6e1f08a-809a-4ea9-9cfc-aa5523430200","system_id":"levelo_inurba_marseille","lat":43.28938,"lon":5.3663,"is_reserved":false,"is_disabled":false,"rental_uris":{"android":"levelo://app?vid=b6e1f08a-809a-4ea9-9cfc-aa5523430200","ios":"levelo://app?vid=b6e1f08a-809a-4ea9-9cfc-aa5523430200"},"vehicle_type_id":"4","last_reported":1746644903,"current_range_meters":21600,"station_id":"ce4bhap2rcd13ifvqek0","pricing_plan_id":"cebpf4jnsgd1na2vs0mg"},{"bike_id":"04db0e6d-8f3b-41b5-9d14-983406e2e2b2","system_id":"levelo_inurba_marseille","lat":43.28869,"lon":5.35839,"is_reserved":false,"is_disabled":false,"rental_uris":{"android":"levelo://app?vid=04db0e6d-8f3b-41b5-9d14-983406e2e2b2","ios":"levelo://app?vid=04db0e6d-8f3b-41b5-9d14-983406e2e2b2"},"vehicle_type_id":"4","last_reported":1746644903,"current_range_meters":21600,"station_id":"ce4bhb12rcd13ifvqem0","pricing_plan_id":"cebpf4jnsgd1na2vs0mg"},{"bike_id":"efd9a2d2-19e1-499c-8c8a-feb2d399ed07","system_id":"levelo_inurba_marseille","lat":43.30127,"lon":5.38763,"is_reserved":false,"is_disabled":false,"rental_uris":{"android":"levelo://app?vid=efd9a2d2-19e1-499c-8c8a-feb2d399ed07","ios":"levelo://app?vid=efd9a2d2-19e1-499c-8c8a-feb2d399ed07"},"vehicle_type_id":"4","last_reported":1746644903,"current_range_meters":22000,"station_id":"ce4bghh2rcd13ifvqb60","pricing_plan_id":"cebpf4jnsgd1na2vs0mg"},{"bike_id":"06c31a0e-577f-421f-b2f9-7e71b76c76ba","system_id":"levelo_inurba_marseille","lat":43.2901,"lon":5.35611,"is_reserved":false,"is_disabled":false,"rental_uris":{"android":"levelo://app?vid=06c31a0e-577f-421f-b2f9-7e71b76c76ba","ios":"levelo://app?vid=06c31a0e-577f-421f-b2f9-7e71b76c76ba"},"vehicle_type_id":"4","last_reported":1746644903,"current_range_meters":22000,"station_id":"ce4bhb92rcd13ifvqen0","pricing_plan_id":"cebpf4jnsgd1na2vs0mg"},{"bike_id":"98f678d9-fd3e-497d-beeb-43d0bae221a1","system_id":"levelo_inurba_marseille","lat":43.28621,"lon":5.3509,"is_reserved":false,"is_disabled":false,"rental_uris":{"android":"levelo://app?vid=98f678d9-fd3e-497d-beeb-43d0bae221a1","ios":"levelo://app?vid=98f678d9-fd3e-497d-beeb-43d0bae221a1"},"vehicle_type_id":"4","last_reported":1746644903,"current_range_meters":22000,"station_id":"ce4bhch2rcd13ifvqeug","pricing_plan_id":"cebpf4jnsgd1na2vs0mg"},{"bike_id":"c821e32e-d925-441c-80d2-d5a984744aba","system_id":"levelo_inurba_marseille","lat":43.21198,"lon":5.3507,"is_reserved":false,"is_disabled":false,"rental_uris":{"android":"levelo://app?vid=c821e32e-d925-441c-80d2-d5a984744aba","ios":"levelo://app?vid=c821e32e-d925-441c-80d2-d5a984744aba"},"vehicle_type_id":"4","last_reported":1746644903,"current_range_meters":22000,"station_id":"st_cvj6sg6p6f1abm77japg","pricing_plan_id":"cebpf4jnsgd1na2vs0mg"},{"bike_id":"10102646-70c8-4147-81cc-b3aa4198cc96","system_id":"levelo_inurba_marseille","lat":43.33056,"lon":5.39033,"is_reserved":false,"is_disabled":false,"rental_uris":{"android":"levelo://app?vid=10102646-70c8-4147-81cc-b3aa4198cc96","ios":"levelo://app?vid=10102646-70c8-4147-81cc-b3aa4198cc96"},"vehicle_type_id":"4","last_reported":1746644903,"current_range_meters":22400,"station_id":"","pricing_plan_id":"cebpf4jnsgd1na2vs0mg"},{"bike_id":"3db4fd3f-4f3c-4397-b535-4aa9777d15f4","system_id":"levelo_inurba_marseille","lat":43.30799,"lon":5.36757,"is_reserved":false,"is_disabled":false,"rental_uris":{"android":"levelo://app?vid=3db4fd3f-4f3c-4397-b535-4aa9777d15f4","ios":"levelo://app?vid=3db4fd3f-4f3c-4397-b535-4aa9777d15f4"},"vehicle_type_id":"4","last_reported":1746644903,"current_range_meters":22400,"station_id":"","pricing_plan_id":"cebpf4jnsgd1na2vs0mg"},{"bike_id":"6dbeaf68-7bbd-4ba9-8004-64a87e063add","system_id":"levelo_inurba_marseille","lat":43.296,"lon":5.38104,"is_reserved":false,"is_disabled":false,"rental_uris":{"android":"levelo://app?vid=6dbeaf68-7bbd-4ba9-8004-64a87e063add","ios":"levelo://app?vid=6dbeaf68-7bbd-4ba9-8004-64a87e063add"},"vehicle_type_id":"4","last_reported":1746644903,"current_range_meters":22400,"station_id":"ce4bgl12rcd13ifvqbo0","pricing_plan_id":"cebpf4jnsgd1na2vs0mg"},{"bike_id":"9fe94a2c-d3a5-4d35-8c23-21393d84c026","system_id":"levelo_inurba_marseille","lat":43.30928,"lon":5.40144,"is_reserved":false,"is_disabled":false,"rental_uris":{"android":"levelo://app?vid=9fe94a2c-d3a5-4d35-8c23-21393d84c026","ios":"levelo://app?vid=9fe94a2c-d3a5-4d35-8c23-21393d84c026"},"vehicle_type_id":"4","last_reported":1746644903,"current_range_meters":22400,"station_id":"ce4bgvp2rcd13ifvqct0","pricing_plan_id":"cebpf4jnsgd1na2vs0mg"},{"bike_id":"7be99761-cf82-4080-8921-94dc17495f69","system_id":"levelo_inurba_marseille","lat":43.29512,"lon":5.39395,"is_reserved":false,"is_disabled":false,"rental_uris":{"android":"levelo://app?vid=7be99761-cf82-4080-8921-94dc17495f69","ios":"levelo://app?vid=7be99761-cf82-4080-8921-94dc17495f69"},"vehicle_type_id":"4","last_reported":1746644903,"current_range_meters":22400,"station_id":"ce4bh292rcd13ifvqdf0","pricing_plan_id":"cebpf4jnsgd1na2vs0mg"},{"bike_id":"b3cfae01-7739-4b96-8d5e-9e598f27763d","system_id":"levelo_inurba_marseille","lat":43.27373,"lon":5.36249,"is_reserved":false,"is_disabled":false,"rental_uris":{"android":"levelo://app?vid=b3cfae01-7739-4b96-8d5e-9e598f27763d","ios":"levelo://app?vid=b3cfae01-7739-4b96-8d5e-9e598f27763d"},"vehicle_type_id":"4","last_reported":1746644903,"current_range_meters":22400,"station_id":"ce4bhbh2rcd13ifvqeo0","pricing_plan_id":"cebpf4jnsgd1na2vs0mg"},{"bike_id":"6d71f638-4027-4b42-8fb9-7ff01ef57f7b","system_id":"levelo_inurba_marseille","lat":43.31266,"lon":5.40179,"is_reserved":false,"is_disabled":false,"rental_uris":{"android":"levelo://app?vid=6d71f638-4027-4b42-8fb9-7ff01ef57f7b","ios":"levelo://app?vid=6d71f638-4027-4b42-8fb9-7ff01ef57f7b"},"vehicle_type_id":"4","last_reported":1746644903,"current_range_meters":22800,"station_id":"ce4bh092rcd13ifvqd30","pricing_plan_id":"cebpf4jnsgd1na2vs0mg"},{"bike_id":"1bc08576-f799-49f7-9c8c-be131eae9672","system_id":"levelo_inurba_marseille","lat":43.29168,"lon":5.37154,"is_reserved":false,"is_disabled":false,"rental_uris":{"android":"levelo://app?vid=1bc08576-f799-49f7-9c8c-be131eae9672","ios":"levelo://app?vid=1bc08576-f799-49f7-9c8c-be131eae9672"},"vehicle_type_id":"4","last_reported":1746644903,"current_range_meters":22800,"station_id":"ce4bha92rcd13ifvqeh0","pricing_plan_id":"cebpf4jnsgd1na2vs0mg"},{"bike_id":"da3aa9b6-280e-441a-9902-7b55cb9fe3a3","system_id":"levelo_inurba_marseille","lat":43.32363,"lon":5.36776,"is_reserved":false,"is_disabled":false,"rental_uris":{"android":"levelo://app?vid=da3aa9b6-280e-441a-9902-7b55cb9fe3a3","ios":"levelo://app?vid=da3aa9b6-280e-441a-9902-7b55cb9fe3a3"},"vehicle_type_id":"4","last_reported":1746644903,"current_range_meters":22800,"station_id":"ce4bhsh2rcd13ifvqi2g","pricing_plan_id":"cebpf4jnsgd1na2vs0mg"},{"bike_id":"f73d450b-fde6-4898-99b1-916875a407c6","system_id":"levelo_inurba_marseille","lat":43.22505,"lon":5.34786,"is_reserved":false,"is_disabled":false,"rental_uris":{"android":"levelo://app?vid=f73d450b-fde6-4898-99b1-916875a407c6","ios":"levelo://app?vid=f73d450b-fde6-4898-99b1-916875a407c6"},"vehicle_type_id":"4","last_reported":1746644903,"current_range_meters":22800,"station_id":"st_cvj5dfep6f1abm77gieg","pricing_plan_id":"cebpf4jnsgd1na2vs0mg"},{"bike_id":"f3e9ab38-3242-4aa5-83f9-529a16ccf936","system_id":"levelo_inurba_marseille","lat":43.22514,"lon":5.3477,"is_reserved":false,"is_disabled":false,"rental_uris":{"android":"levelo://app?vid=f3e9ab38-3242-4aa5-83f9-529a16ccf936","ios":"levelo://app?vid=f3e9ab38-3242-4aa5-83f9-529a16ccf936"},"vehicle_type_id":"4","last_reported":1746644903,"current_range_meters":22800,"station_id":"st_cvj5dfep6f1abm77gieg","pricing_plan_id":"cebpf4jnsgd1na2vs0mg"},{"bike_id":"6405ff0b-ba58-4a55-9b02-a87a7275238e","system_id":"levelo_inurba_marseille","lat":43.27374,"lon":5.36259,"is_reserved":false,"is_disabled":false,"rental_uris":{"android":"levelo://app?vid=6405ff0b-ba58-4a55-9b02-a87a7275238e","ios":"levelo://app?vid=6405ff0b-ba58-4a55-9b02-a87a7275238e"},"vehicle_type_id":"4","last_reported":1746644903,"current_range_meters":23200,"station_id":"ce4bhbh2rcd13ifvqeo0","pricing_plan_id":"cebpf4jnsgd1na2vs0mg"},{"bike_id":"8e39ba1e-b4e2-493b-ad88-95cef55ba594","system_id":"levelo_inurba_marseille","lat":43.24772,"lon":5.37456,"is_reserved":false,"is_disabled":false,"rental_uris":{"android":"levelo://app?vid=8e39ba1e-b4e2-493b-ad88-95cef55ba594","ios":"levelo://app?vid=8e39ba1e-b4e2-493b-ad88-95cef55ba594"},"vehicle_type_id":"4","last_reported":1746644903,"current_range_meters":23200,"station_id":"ce4bhgh2rcd13ifvqfb0","pricing_plan_id":"cebpf4jnsgd1na2vs0mg"},{"bike_id":"75b6a3b9-5428-47ed-9f2d-b4e62feb55d7","system_id":"levelo_inurba_marseille","lat":43.29297,"lon":5.37154,"is_reserved":false,"is_disabled":false,"rental_uris":{"android":"levelo://app?vid=75b6a3b9-5428-47ed-9f2d-b4e62feb55d7","ios":"levelo://app?vid=75b6a3b9-5428-47ed-9f2d-b4e62feb55d7"},"vehicle_type_id":"4","last_reported":1746644903,"current_range_meters":24000,"station_id":"ce4bgh92rcd13ifvqb40","pricing_plan_id":"cebpf4jnsgd1na2vs0mg"},{"bike_id":"a31d9807-bf57-4c4d-b242-6672d3b50255","system_id":"levelo_inurba_marseille","lat":43.29307,"lon":5.37152,"is_reserved":false,"is_disabled":false,"rental_uris":{"android":"levelo://app?vid=a31d9807-bf57-4c4d-b242-6672d3b50255","ios":"levelo://app?vid=a31d9807-bf57-4c4d-b242-6672d3b50255"},"vehicle_type_id":"4","last_reported":1746644903,"current_range_meters":24000,"station_id":"ce4bgh92rcd13ifvqb40","pricing_plan_id":"cebpf4jnsgd1na2vs0mg"},{"bike_id":"adbd88ed-071b-4153-8072-8be2bc854932","system_id":"levelo_inurba_marseille","lat":43.29618,"lon":5.37727,"is_reserved":false,"is_disabled":false,"rental_uris":{"android":"levelo://app?vid=adbd88ed-071b-4153-8072-8be2bc854932","ios":"levelo://app?vid=adbd88ed-071b-4153-8072-8be2bc854932"},