{"last_updated":1723482442,"ttl":30,"version":"2.2","data":{"bikes":[{"bike_id":"1245ea76-43cb-4691-9701-1f8d4ce89846","system_id":"levelo_inurba_marseille","lat":43.314811,"lon":5.373103,"is_reserved":false,"is_disabled":false,"rental_uris":{"android":"levelo://app?vid=1245ea76-43cb-4691-9701-1f8d4ce89846","ios":"levelo://app?vid=1245ea76-43cb-4691-9701-1f8d4ce89846"},"vehicle_type_id":"4","last_reported":1723482443,"current_range_meters":27200,"station_id":"ce4bgt12rcd13ifvqcd0","pricing_plan_id":"cebpf4jnsgd1na2vs0mg"},{"bike_id":"312bbb50-463b-4edc-954e-6acbf5960ec1","system_id":"levelo_inurba_marseille","lat":43.31498,"lon":5.37308,"is_reserved":false,"is_disabled":false,"rental_uris":{"android":"levelo://app?vid=312bbb50-463b-4edc-954e-6acbf5960ec1","ios":"levelo://app?vid=312bbb50-463b-4edc-954e-6acbf5960ec1"},"vehicle_type_id":"4","last_reported":1723482443,"current_range_meters":0,"station_id":"ce4bgt12rcd13ifvqcd0","pricing_plan_id":"cebpf4jnsgd1na2vs0mg"},{"bike_id":"605f281c-bea2-42f7-b91a-7299ccbd76a1","system_id":"levelo_inurba_marseille","lat":43.31284,"lon":5.37572,"is_reserved":false,"is_disabled":false,"rental_uris":{"android":"levelo://app?vid=605f281c-bea2-42f7-b91a-7299ccbd76a1","ios":"levelo://app?vid=605f281c-bea2-42f7-b91a-7299ccbd76a1"},"vehicle_type_id":"4","last_reported":1723482443,"current_range_meters":0,"station_id":"","pricing_plan_id":"cebpf4jnsgd1na2vs0mg"},{"bike_id":"ba9aa7a5-6ea9-418d-ab8f-224e3a140a20","system_id":"levelo_inurba_marseille","lat":43.305989,"lon":5.37225,"is_reserved":false,"is_disabled":false,"rental_uris":{"android":"levelo://app?vid=ba9aa7a5-6ea9-418d-ab8f-224e3a140a20","ios":"levelo://app?vid=ba9aa7a5-6ea9-418d-ab8f-224e3a140a20"},"vehicle_type_id":"4","last_reported":1723482443,"current_range_meters":12000,"station_id":"ce4bgqh2rcd13ifvqc4g","pricing_plan_id":"cebpf4jnsgd1na2vs0mg"},{"bike_id":"70fe3f77-1dc7-4c81-93e8-85d5105ab4ea","system_id":"levelo_inurba_marseille","lat":43.30634,"lon":5.37281,"is_reserved":false,"is_disabled":false,"rental_uris":{"android":"levelo://app?vid=70fe3f77-1dc7-4c81-93e8-85d5105ab4ea","ios":"levelo://app?vid=70fe3f77-1dc7-4c81-93e8-85d5105ab4ea"},"vehicle_type_id":"4","last_reported":1723482443,"current_range_meters":15200,"station_id":"","pricing_plan_id":"cebpf4jnsgd1na2vs0mg"},{"bike_id":"4c497721-79eb-4158-aa50-4b48e50f9df3","system_id":"levelo_inurba_marseille","lat":43.30778,"lon":5.37652,"is_reserved":false,"is_disabled":false,"rental_uris":{"android":"levelo://app?vid=4c497721-79eb-4158-aa50-4b48e50f9df3","ios":"levelo://app?vid=4c497721-79eb-4158-aa50-4b48e50f9df3"},"vehicle_type_id":"4","last_reported":1723482443,"current_range_meters":20000,"station_id":"","pricing_plan_id":"cebpf4jnsgd1na2vs0mg"},{"bike_id":"e43d9e2c-9d56-4741-96c8-9ef311a5fe37","system_id":"levelo_inurba_marseille","lat":43.30892,"lon":5.37922,"is_reserved":false,"is_disabled":false,"rental_uris":{"android":"levelo://app?vid=e43d9e2c-9d56-4741-96c8-9ef311a5fe37","ios":"levelo://app?vid=e43d9e2c-9d56-4741-96c8-9ef311a5fe37"},"vehicle_type_id":"4","last_reported":1723482443,"current_range_meters":20000,"station_id":"","pricing_plan_id":"cebpf4jnsgd1na2vs0mg"},{"bike_id":"4583a799-8aa2-48ba-bf00-1ccaa5e3c0c0","system_id":"levelo_inurba_marseille","lat":43.303046,"lon":5.368981,"is_reserved":false,"is_disabled":false,"rental_uris":{"android":"levelo://app?vid=4583a799-8aa2-48ba-bf00-1ccaa5e3c0c0","ios":"levelo://app?vid=4583a799-8aa2-48ba-bf00-1ccaa5e3c0c0"},"vehicle_type_id":"4","last_reported":1723482443,"current_range_meters":5600,"station_id":"ce4bgqh2rcd13ifvqc5g","pricing_plan_id":"cebpf4jnsgd1na2vs0mg"},{"bike_id":"2b9a7dba-2787-47dd-9dfa-b354bd3cc7d3","system_id":"levelo_inurba_marseille","lat":43.30304,"lon":5.368987,"is_reserved":false,"is_disabled":false,"rental_uris":{"android":"levelo://app?vid=2b9a7dba-2787-47dd-9dfa-b354bd3cc7d3","ios":"levelo://app?vid=2b9a7dba-2787-47dd-9dfa-b354bd3cc7d3"},"vehicle_type_id":"4","last_reported":1723482443,"current_range_meters":12000,"station_id":"ce4bgqh2rcd13ifvqc5g","pricing_plan_id":"cebpf4jnsgd1na2vs0mg"},{"bike_id":"eb096454-44ee-4ead-83eb-b444dd2996bc","system_id":"levelo_inurba_marseille","lat":43.315289,"lon":5.380349,"is_reserved":false,"is_disabled":false,"rental_uris":{"android":"levelo://app?vid=eb096454-44ee-4ead-83eb-b444dd2996bc","ios":"levelo://app?vid=eb096454-44ee-4ead-83eb-b444dd2996bc"},"vehicle_type_id":"4","last_reported":1723482443,"current_range_meters":800,"station_id":"ce4bhsp2rcd13ifvqi50","pricing_plan_id":"cebpf4jnsgd1na2vs0mg"},{"bike_id":"d339f8eb-8911-4aec-902d-fa79820d1244","system_id":"levelo_inurba_marseille","lat":43.315289,"lon":5.380349,"is_reserved":false,"is_disabled":false,"rental_uris":{"android":"levelo://app?vid=d339f8eb-8911-4aec-902d-fa79820d1244","ios":"levelo://app?vid=d339f8eb-8911-4aec-902d-fa79820d1244"},"vehicle_type_id":"4","last_reported":1723482443,"current_range_meters":9200,"station_id":"ce4bhsp2rcd13ifvqi50","pricing_plan_id":"cebpf4jnsgd1na2vs0mg"},{"bike_id":"6f462566-3ea8-422b-b2e1-36f8e9caf2aa","system_id":"levelo_inurba_marseille","lat":43.30793,"lon":5.38156,"is_reserved":false,"is_disabled":false,"rental_uris":{"android":"levelo://app?vid=6f462566-3ea8-422b-b2e1-36f8e9caf2aa","ios":"levelo://app?vid=6f462566-3ea8-422b-b2e1-36f8e9caf2aa"},"vehicle_type_id":"4","last_reported":1723482443,"current_range_meters":2000,"station_id":"","pricing_plan_id":"cebpf4jnsgd1na2vs0mg"},{"bike_id":"aaca98b3-9f33-4d08-b456-40655f5206a3","system_id":"levelo_inurba_marseille","lat":43.30818,"lon":5.38195,"is_reserved":false,"is_disabled":false,"rental_uris":{"android":"levelo://app?vid=aaca98b3-9f33-4d08-b456-40655f5206a3","ios":"levelo://app?vid=aaca98b3-9f33-4d08-b456-40655f5206a3"},"vehicle_type_id":"4","last_reported":1723482443,"current_range_meters":13200,"station_id":"","pricing_plan_id":"cebpf4jnsgd1na2vs0mg"},{"bike_id":"725cbd78-054c-4eb5-8ec7-e5a157e4fb4b","system_id":"levelo_inurba_marseille","lat":43.324771,"lon":5.36557,"is_reserved":false,"is_disabled":false,"rental_uris":{"android":"levelo://app?vid=725cbd78-054c-4eb5-8ec7-e5a157e4fb4b","ios":"levelo://app?vid=725cbd78-054c-4eb5-8ec7-e5a157e4fb4b"},"vehicle_type_id":"4","last_reported":1723482443,"current_range_meters":400,"station_id":"ce4bhs12rcd13ifvqhvg","pricing_plan_id":"cebpf4jnsgd1na2vs0mg"},{"bike_id":"5f3fa054-5d88-4173-a149-bea1ed0912f2","system_id":"levelo_inurba_marseille","lat":43.302784,"lon":5.377158,"is_reserved":false,"is_disabled":false,"rental_uris":{"android":"levelo://app?vid=5f3fa054-5d88-4173-a149-bea1ed0912f2","ios":"levelo://app?vid=5f3fa054-5d88-4173-a149-bea1ed0912f2"},"vehicle_type_id":"4","last_reported":1723482443,"current_range_meters":6800,"station_id":"ce4bguh2rcd13ifvqcj0","pricing_plan_id":"cebpf4jnsgd1na2vs0mg"},{"bike_id":"97220db8-eec3-41eb-abfb-2e6b49626dbb","system_id":"levelo_inurba_marseille","lat":43.30143,"lon":5.37413,"is_reserved":false,"is_disabled":false,"rental_uris":{"android":"levelo://app?vid=97220db8-eec3-41eb-abfb-2e6b49626dbb","ios":"levelo://app?vid=97220db8-eec3-41eb-abfb-2e6b49626dbb"},"vehicle_type_id":"4","last_reported":1723482443,"current_range_meters":0,"station_id":"ce4bgs92rcd13ifvqcc0","pricing_plan_id":"cebpf4jnsgd1na2vs0mg"},{"bike_id":"b300f44b-463b-4d5a-899a-54f1cdc40af5","system_id":"levelo_inurba_marseille","lat":43.302784,"lon":5.377158,"is_reserved":false,"is_disabled":false,"rental_uris":{"android":"levelo://app?vid=b300f44b-463b-4d5a-899a-54f1cdc40af5","ios":"levelo://app?vid=b300f44b-463b-4d5a-899a-54f1cdc40af5"},"vehicle_type_id":"4","last_reported":1723482443,"current_range_meters":5200,"station_id":"ce4bguh2rcd13ifvqcj0","pricing_plan_id":"cebpf4jnsgd1na2vs0mg"},{"bike_id":"b2245de5-5f52-413e-853a-d1da03e9b097","system_id":"levelo_inurba_marseille","lat":43.30612,"lon":5.38149,"is_reserved":false,"is_disabled":false,"rental_uris":{"android":"levelo://app?vid=b2245de5-5f52-413e-853a-d1da03e9b097","ios":"levelo://app?vid=b2245de5-5f52-413e-853a-d1da03e9b097"},"vehicle_type_id":"4","last_reported":1723482443,"current_range_meters":22000,"station_id":"","pricing_plan_id":"cebpf4jnsgd1na2vs0mg"},{"bike_id":"c84dd652-621c-45e0-891f-3b7a79a42fed","system_id":"levelo_inurba_marseille","lat":43.3137,"lon":5.38496,"is_reserved":false,"is_disabled":false,"rental_uris":{"android":"levelo://app?vid=c84dd652-621c-45e0-891f-3b7a79a42fed","ios":"levelo://app?vid=c84dd652-621c-45e0-891f-3b7a79a42fed"},"vehicle_type_id":"4","last_reported":1723482443,"current_range_meters":24000,"station_id":"ce4bgt92rcd13ifvqcf0","pricing_plan_id":"cebpf4jnsgd1na2vs0mg"},{"bike_id":"881c0547-a4f9-48af-a505-d7c84e329405","system_id":"levelo_inurba_marseille","lat":43.298433,"lon":5.362774,"is_reserved":false,"is_disabled":false,"rental_uris":{"android":"levelo://app?vid=881c0547-a4f9-48af-a505-d7c84e329405","ios":"levelo://app?vid=881c0547-a4f9-48af-a505-d7c84e329405"},"vehicle_type_id":"4","last_reported":1723482443,"current_range_meters":18800,"station_id":"ce4bgpp2rcd13ifvqc3g","pricing_plan_id":"cebpf4jnsgd1na2vs0mg"},{"bike_id":"28a17adc-611b-40a6-95a4-f9c52a22e5c9","system_id":"levelo_inurba_marseille","lat":43.305364,"lon":5.384119,"is_reserved":false,"is_disabled":false,"rental_uris":{"android":"levelo://app?vid=28a17adc-611b-40a6-95a4-f9c52a22e5c9","ios":"levelo://app?vid=28a17adc-611b-40a6-95a4-f9c52a22e5c9"},"vehicle_type_id":"4","last_reported":1723482443,"current_range_meters":7200,"station_id":"ce4bgg92rcd13ifvqb30","pricing_plan_id":"cebpf4jnsgd1na2vs0mg"},{"bike_id":"58c1ffac-6b79-41fc-8433-1c4630b422df","system_id":"levelo_inurba_marseille","lat":43.311722,"lon":5.387247,"is_reserved":false,"is_disabled":false,"rental_uris":{"android":"levelo://app?vid=58c1ffac-6b79-41fc-8433-1c4630b422df","ios":"levelo://app?vid=58c1ffac-6b79-41fc-8433-1c4630b422df"},"vehicle_type_id":"4","last_reported":1723482443,"current_range_meters":800,"station_id":"ce4bgv12rcd13ifvqcp0","pricing_plan_id":"cebpf4jnsgd1na2vs0mg"},{"bike_id":"3e315c03-bb88-4419-a1bb-0cce4e0eaae7","system_id":"levelo_inurba_marseille","lat":43.322872,"lon":5.382756,"is_reserved":false,"is_disabled":false,"rental_uris":{"android":"levelo://app?vid=3e315c03-bb88-4419-a1bb-0cce4e0eaae7","ios":"levelo://app?vid=3e315c03-bb88-4419-a1bb-0cce4e0eaae7"},"vehicle_type_id":"4","last_reported":1723482443,"current_range_meters":8400,"station_id":"ce4bhr12rcd13ifvqhqg","pricing_plan_id":"cebpf4jnsgd1na2vs0mg"},{"bike_id":"d506dd65-5f23-4a41-9ee5-076ed2b94f6f","system_id":"levelo_inurba_marseille","lat":43.30097,"lon":5.3805,"is_reserved":false,"is_disabled":false,"rental_uris":{"android":"levelo://app?vid=d506dd65-5f23-4a41-9ee5-076ed2b94f6f","ios":"levelo://app?vid=d506dd65-5f23-4a41-9ee5-076ed2b94f6f"},"vehicle_type_id":"4","last_reported":1723482443,"current_range_meters":4400,"station_id":"","pricing_plan_id":"cebpf4jnsgd1na2vs0mg"},{"bike_id":"b210f0f4-8c39-41fb-9522-73e345e01993","system_id":"levelo_inurba_marseille","lat":43.2973,"lon":5.369151,"is_reserved":false,"is_disabled":false,"rental_uris":{"android":"levelo://app?vid=b210f0f4-8c39-41fb-9522-73e345e01993","ios":"levelo://app?vid=b210f0f4-8c39-41fb-9522-73e345e01993"},"vehicle_type_id":"4","last_reported":1723482443,"current_range_meters":7600,"station_id":"","pricing_plan_id":"cebpf4jnsgd1na2vs0mg"},{"bike_id":"b0fcbade-59fe-4b5b-b5a2-37603a5ac40f","system_id":"levelo_inurba_marseille","lat":43.29703,"lon":5.36606,"is_reserved":false,"is_disabled":false,"rental_uris":{"android":"levelo://app?vid=b0fcbade-59fe-4b5b-b5a2-37603a5ac40f","ios":"levelo://app?vid=b0fcbade-59fe-4b5b-b5a2-37603a5ac40f"},"vehicle_type_id":"4","last_reported":1723482443,"current_range_meters":0,"station_id":"ce4bgn12rcd13ifvqbt0","pricing_plan_id":"cebpf4jnsgd1na2vs0mg"},{"bike_id":"ba8bc1af-aa79-485a-ae44-71200c2a10da","system_id":"levelo_inurba_marseille","lat":43.297163,"lon":5.365866,"is_reserved":false,"is_disabled":false,"rental_uris":{"android":"levelo://app?vid=ba8bc1af-aa79-485a-ae44-71200c2a10da","ios":"levelo://app?vid=ba8bc1af-aa79-485a-ae44-71200c2a10da"},"vehicle_type_id":"4","last_reported":1723482443,"current_range_meters":21200,"station_id":"ce4bgn12rcd13ifvqbt0","pricing_plan_id":"cebpf4jnsgd1na2vs0mg"},{"bike_id":"f925dc32-1170-4f07-8662-0dc98345f84d","system_id":"levelo_inurba_marseille","lat":43.29672,"lon":5.369031,"is_reserved":false,"is_disabled":false,"rental_uris":{"android":"levelo://app?vid=f925dc32-1170-4f07-8662-0dc98345f84d","ios":"levelo://app?vid=f925dc32-1170-4f07-8662-0dc98345f84d"},"vehicle_type_id":"4","last_reported":1723482443,"current_range_meters":30800,"station_id":"","pricing_plan_id":"cebpf4jnsgd1na2vs0mg"},{"bike_id":"86210a7d-b5d3-4aaa-9698-1df31a409b06","system_id":"levelo_inurba_marseille","lat":43.296131,"lon":5.370791,"is_reserved":false,"is_disabled":false,"rental_uris":{"android":"levelo://app?vid=86210a7d-b5d3-4aaa-9698-1df31a409b06","ios":"levelo://app?vid=86210a7d-b5d3-4aaa-9698-1df31a409b06"},"vehicle_type_id":"4","last_reported":1723482443,"current_range_meters":0,"station_id":"ce4bgnh2rcd13ifvqc0g","pricing_plan_id":"cebpf4jnsgd1na2vs0mg"},{"bike_id":"1d848b02-69d8-4963-b0e9-f387fea3ef34","system_id":"levelo_inurba_marseille","lat":43.29573,"lon":5.367355,"is_reserved":false,"is_disabled":false,"rental_uris":{"android":"levelo://app?vid=1d848b02-69d8-4963-b0e9-f387fea3ef34","ios":"levelo://app?vid=1d848b02-69d8-4963-b0e9-f387fea3ef34"},"vehicle_type_id":"4","last_reported":1723482443,"current_range_meters":22400,"station_id":"ce4bgph2rcd13ifvqc2g","pricing_plan_id":"cebpf4jnsgd1na2vs0mg"},{"bike_id":"0e267618-47d3-4e0b-b238-d02a76986d0b","system_id":"levelo_inurba_marseille","lat":43.29573,"lon":5.367355,"is_reserved":false,"is_disabled":false,"rental_uris":{"android":"levelo://app?vid=0e267618-47d3-4e0b-b238-d02a76986d0b","ios":"levelo://app?vid=0e267618-47d3-4e0b-b238-d02a76986d0b"},"vehicle_type_id":"4","last_reported":1723482443,"current_range_meters":20400,"station_id":"ce4bgph2rcd13ifvqc2g","pricing_plan_id":"cebpf4jnsgd1na2vs0mg"},{"bike_id":"365ac6be-7c30-45cd-8cc7-64f4bcd8d447","system_id":"levelo_inurba_marseille","lat":43.299028,"lon":5.381509,"is_reserved":false,"is_disabled":false,"rental_uris":{"android":"levelo://app?vid=365ac6be-7c30-45cd-8cc7-64f4bcd8d447","ios":"levelo://app?vid=365ac6be-7c30-45cd-8cc7-64f4bcd8d447"},"vehicle_type_id":"4","last_reported":1723482443,"current_range_meters":8000,"station_id":"ce4bgj12rcd13ifvqbc0","pricing_plan_id":"cebpf4jnsgd1na2vs0mg"},{"bike_id":"898c14b1-fe88-409a-ac08-fa3046b013c1","system_id":"levelo_inurba_marseille","lat":43.299028,"lon":5.381509,"is_reserved":false,"is_disabled":false,"rental_uris":{"android":"levelo://app?vid=898c14b1-fe88-409a-ac08-fa3046b013c1","ios":"levelo://app?vid=898c14b1-fe88-409a-ac08-fa3046b013c1"},"vehicle_type_id":"4","last_reported":1723482443,"current_range_meters":15600,"station_id":"ce4bgj12rcd13ifvqbc0","pricing_plan_id":"cebpf4jnsgd1na2vs0mg"},{"bike_id":"d5785b52-d9fd-40a3-b816-874971f6015f","system_id":"levelo_inurba_marseille","lat":43.317557,"lon":5.390173,"is_reserved":false,"is_disabled":false,"rental_uris":{"android":"levelo://app?vid=d5785b52-d9fd-40a3-b816-874971f6015f","ios":"levelo://app?vid=d5785b52-d9fd-40a3-b816-874971f6015f"},"vehicle_type_id":"4","last_reported":1723482443,"current_range_meters":26800,"station_id":"ce4bhqp2rcd13ifvqhng","pricing_plan_id":"cebpf4jnsgd1na2vs0mg"},{"bike_id":"eda470b9-818e-41e7-927d-c51c32d999f6","system_id":"levelo_inurba_marseille","lat":43.317557,"lon":5.390173,"is_reserved":false,"is_disabled":false,"rental_uris":{"android":"levelo://app?vid=eda470b9-818e-41e7-927d-c51c32d999f6","ios":"levelo://app?vid=eda470b9-818e-41e7-927d-c51c32d999f6"},"vehicle_type_id":"4","last_reported":1723482443,"current_range_meters":28000,"station_id":"ce4bhqp2rcd13ifvqhng","pricing_plan_id":"cebpf4jnsgd1na2vs0mg"},{"bike_id":"b5bf6063-af9a-43a0-9215-2ac51ab9f502","system_id":"levelo_inurba_marseille","lat":43.298037,"lon":5.381066,"is_reserved":false,"is_disabled":false,"rental_uris":{"android":"levelo://app?vid=b5bf6063-af9a-43a0-9215-2ac51ab9f502","ios":"levelo://app?vid=b5bf6063-af9a-43a0-9215-2ac51ab9f502"},"vehicle_type_id":"4","last_reported":1723482443,"current_range_meters":4400,"station_id":"ce4bgip2rcd13ifvqbb0","pricing_plan_id":"cebpf4jnsgd1na2vs0mg"},{"bike_id":"2c54d11b-c969-4cad-8e42-c82d0f8d4a4a","system_id":"levelo_inurba_marseille","lat":43.29573,"lon":5.367355,"is_reserved":false,"is_disabled":false,"rental_uris":{"android":"levelo://app?vid=2c54d11b-c969-4cad-8e42-c82d0f8d4a4a","ios":"levelo://app?vid=2c54d11b-c969-4cad-8e42-c82d0f8d4a4a"},"vehicle_type_id":"4","last_reported":1723482443,"current_range_meters":28800,"station_id":"ce4bgph2rcd13ifvqc2g","pricing_plan_id":"cebpf4jnsgd1na2vs0mg"},{"bike_id":"b9997e72-3c08-412c-9b93-54bb78ccb940","system_id":"levelo_inurba_marseille","lat":43.298037,"lon":5.381066,"is_reserved":false,"is_disabled":false,"rental_uris":{"android":"levelo://app?vid=b9997e72-3c08-412c-9b93-54bb78ccb940","ios":"levelo://app?vid=b9997e72-3c08-412c-9b93-54bb78ccb940"},"vehicle_type_id":"4","last_reported":1723482443,"current_range_meters":11600,"station_id":"ce4bgip2rcd13ifvqbb0","pricing_plan_id":"cebpf4jnsgd1na2vs0mg"},{"bike_id":"6af2846c-71c5-4cc0-a8b1-0c04eb11585b","system_id":"levelo_inurba_marseille","lat":43.298037,"lon":5.381066,"is_reserved":false,"is_disabled":false,"rental_uris":{"android":"levelo://app?vid=6af2846c-71c5-4cc0-a8b1-0c04eb11585b","ios":"levelo://app?vid=6af2846c-71c5-4cc0-a8b1-0c04eb11585b"},"vehicle_type_id":"4","last_reported":1723482443,"current_range_meters":0,"station_id":"ce4bgip2rcd13ifvqbb0","pricing_plan_id":"cebpf4jnsgd1na2vs0mg"},{"bike_id":"19a4d1d0-6386-41ba-a067-e6d8b7475842","system_id":"levelo_inurba_marseille","lat":43.298037,"lon":5.381066,"is_reserved":false,"is_disabled":false,"rental_uris":{"android":"levelo://app?vid=19a4d1d0-6386-41ba-a067-e6d8b7475842","ios":"levelo://app?vid=19a4d1d0-6386-41ba-a067-e6d8b7475842"},"vehicle_type_id":"4","last_reported":1723482443,"current_range_meters":14000,"station_id":"ce4bgip2rcd13ifvqbb0","pricing_plan_id":"cebpf4jnsgd1na2vs0mg"},{"bike_id":"45780284-3dd7-46ee-85cc-9c7de6f7e5af","system_id":"levelo_inurba_marseille","lat":43.296277,"lon":5.377108,"is_reserved":false,"is_disabled":false,"rental_uris":{"android":"levelo://app?vid=45780284-3dd7-46ee-85cc-9c7de6f7e5af","ios":"levelo://app?vid=45780284-3dd7-46ee-85cc-9c7de6f7e5af"},"vehicle_type_id":"4","last_reported":1723482443,"current_range_meters":12400,"station_id":"ce4bgi92rcd13ifvqb90","pricing_plan_id":"cebpf4jnsgd1na2vs0mg"},{"bike_id":"eaabfb7a-04a6-48ee-a135-470d7edb89aa","system_id":"levelo_inurba_marseille","lat":43.295748,"lon":5.37522,"is_reserved":false,"is_disabled":false,"rental_uris":{"android":"levelo://app?vid=eaabfb7a-04a6-48ee-a135-470d7edb89aa","ios":"levelo://app?vid=eaabfb7a-04a6-48ee-a135-470d7edb89aa"},"vehicle_type_id":"4","last_reported":1723482443,"current_range_meters":4800,"station_id":"ce4bgh92rcd13ifvqb50","pricing_plan_id":"cebpf4jnsgd1na2vs0mg"},{"bike_id":"80704187-840a-4f46-b975-1d3b6793d99f","system_id":"levelo_inurba_marseille","lat":43.299707,"lon":5.384859,"is_reserved":false,"is_disabled":false,"rental_uris":{"android":"levelo://app?vid=80704187-840a-4f46-b975-1d3b6793d99f","ios":"levelo://app?vid=80704187-840a-4f46-b975-1d3b6793d99f"},"vehicle_type_id":"4","last_reported":1723482443,"current_range_meters":0,"station_id":"ce4bgj92rcd13ifvqbd0","pricing_plan_id":"cebpf4jnsgd1na2vs0mg"},{"bike_id":"74a64e66-ca11-4bda-a3dd-6e181b7dc284","system_id":"levelo_inurba_marseille","lat":43.295279,"lon":5.375048,"is_reserved":false,"is_disabled":false,"rental_uris":{"android":"levelo://app?vid=74a64e66-ca11-4bda-a3dd-6e181b7dc284","ios":"levelo://app?vid=74a64e66-ca11-4bda-a3dd-6e181b7dc284"},"vehicle_type_id":"4","last_reported":1723482443,"current_range_meters":0,"station_id":"ce4bgkp2rcd13ifvqbmg","pricing_plan_id":"cebpf4jnsgd1na2vs0mg"},{"bike_id":"b815be8a-40a0-4bce-acf3-d30377f5f38d","system_id":"levelo_inurba_marseille","lat":43.299724,"lon":5.384848,"is_reserved":false,"is_disabled":false,"rental_uris":{"android":"levelo://app?vid=b815be8a-40a0-4bce-acf3-d30377f5f38d","ios":"levelo://app?vid=b815be8a-40a0-4bce-acf3-d30377f5f38d"},"vehicle_type_id":"4","last_reported":1723482443,"current_range_meters":6400,"station_id":"ce4bgj92rcd13ifvqbd0","pricing_plan_id":"cebpf4jnsgd1na2vs0mg"},{"bike_id":"fbbb5242-5f25-4302-a232-38baa700cb9e","system_id":"levelo_inurba_marseille","lat":43.304606,"lon":5.379026,"is_reserved":false,"is_disabled":false,"rental_uris":{"android":"levelo://app?vid=fbbb5242-5f25-4302-a232-38baa700cb9e","ios":"levelo://app?vid=fbbb5242-5f25-4302-a232-38baa700cb9e"},"vehicle_type_id":"4","last_reported":1723482443,"current_range_meters":22000,"station_id":"ce4bgup2rcd13ifvqcn0","pricing_plan_id":"cebpf4jnsgd1na2vs0mg"},{"bike_id":"98850002-b9ec-496e-9f9d-f3e615f5ed34","system_id":"levelo_inurba_marseille","lat":43.301396,"lon":5.387812,"is_reserved":false,"is_disabled":false,"rental_uris":{"android":"levelo://app?vid=98850002-b9ec-496e-9f9d-f3e615f5ed34","ios":"levelo://app?vid=98850002-b9ec-496e-9f9d-f3e615f5ed34"},"vehicle_type_id":"4","last_reported":1723482443,"current_range_meters":8000,"station_id":"ce4bghh2rcd13ifvqb60","pricing_plan_id":"cebpf4jnsgd1na2vs0mg"},{"bike_id":"02b06e29-6988-4b07-abb4-a23f0bbd8200","system_id":"levelo_inurba_marseille","lat":43.301396,"lon":5.387812,"is_reserved":false,"is_disabled":false,"rental_uris":{"android":"levelo://app?vid=02b06e29-6988-4b07-abb4-a23f0bbd8200","ios":"levelo://app?vid=02b06e29-6988-4b07-abb4-a23f0bbd8200"},"vehicle_type_id":"4","last_reported":1723482443,"current_range_meters":21600,"station_id":"ce4bghh2rcd13ifvqb60","pricing_plan_id":"cebpf4jnsgd1na2vs0mg"},{"bike_id":"38b14e04-cfa2-4e57-a1f7-672a82f30a8b","system_id":"levelo_inurba_marseille","lat":43.29601,"lon":5.381084,"is_reserved":false,"is_disabled":false,"rental_uris":{"android":"levelo://app?vid=38b14e04-cfa2-4e57-a1f7-672a82f30a8b","ios":"levelo://app?vid=38b14e04-cfa2-4e57-a1f7-672a82f30a8b"},"vehicle_type_id":"4","last_reported":1723482443,"current_range_meters":0,"station_id":"ce4bgl12rcd13ifvqbo0","pricing_plan_id":"cebpf4jnsgd1na2vs0mg"},{"bike_id":"98bd1871-830c-4c27-9d8c-7304a5b3c430","system_id":"levelo_inurba_marseille","lat":43.29601,"lon":5.381084,"is_reserved":false,"is_disabled":false,"rental_uris":{"android":"levelo://app?vid=98bd1871-830c-4c27-9d8c-7304a5b3c430","ios":"levelo://app?vid=98bd1871-830c-4c27-9d8c-7304a5b3c430"},"vehicle_type_id":"4","last_reported":1723482443,"current_range_meters":9600,"station_id":"ce4bgl12rcd13ifvqbo0","pricing_plan_id":"cebpf4jnsgd1na2vs0mg"},{"bike_id":"53be757b-3d82-44ea-b6d4-a86097bcfebb","system_id":"levelo_inurba_marseille","lat":43.29591,"lon":5.38101,"is_reserved":false,"is_disabled":false,"rental_uris":{"android":"levelo://app?vid=53be757b-3d82-44ea-b6d4-a86097bcfebb","ios":"levelo://app?vid=53be757b-3d82-44ea-b6d4-a86097bcfebb"},"vehicle_type_id":"4","last_reported":1723482443,"current_range_meters":2400,"station_id":"ce4bgl12rcd13ifvqbo0","pricing_plan_id":"cebpf4jnsgd1na2vs0mg"},{"bike_id":"569ac62e-f884-444f-a657-1747bae26238","system_id":"levelo_inurba_marseille","lat":43.293259,"lon":5.371586,"is_reserved":false,"is_disabled":false,"rental_uris":{"android":"levelo://app?vid=569ac62e-f884-444f-a657-1747bae26238","ios":"levelo://app?vid=569ac62e-f884-444f-a657-1747bae26238"},"vehicle_type_id":"4","last_reported":1723482443,"current_range_meters":30400,"station_id":"ce4bgh92rcd13ifvqb40","pricing_plan_id":"cebpf4jnsgd1na2vs0mg"},{"bike_id":"12da4448-f9dc-4137-a3cd-aba682985bb2","system_id":"levelo_inurba_marseille","lat":43.293249,"lon":5.371578,"is_reserved":false,"is_disabled":false,"rental_uris":{"android":"levelo://app?vid=12da4448-f9dc-4137-a3cd-aba682985bb2","ios":"levelo://app?vid=12da4448-f9dc-4137-a3cd-aba682985bb2"},"vehicle_type_id":"4","last_reported":1723482443,"current_range_meters":0,"station_id":"ce4bgh92rcd13ifvqb40","pricing_plan_id":"cebpf4jnsgd1na2vs0mg"},{"bike_id":"d811b215-6184-4f62-b0f9-7e4242982529","system_id":"levelo_inurba_marseille","lat":43.292981,"lon":5.371782,"is_reserved":false,"is_disabled":false,"rental_uris":{"android":"levelo://app?vid=d811b215-6184-4f62-b0f9-7e4242982529","ios":"levelo://app?vid=d811b215-6184-4f62-b0f9-7e4242982529"},"vehicle_type_id":"4","last_reported":1723482443,"current_range_meters":11200,"station_id":"","pricing_plan_id":"cebpf4jnsgd1na2vs0mg"},{"bike_id":"38831877-51ef-4db6-b446-79861ceeb1d3","system_id":"levelo_inurba_marseille","lat":43.29302,"lon":5.37449,"is_reserved":false,"is_disabled":false,"rental_uris":{"android":"levelo://app?vid=38831877-51ef-4db6-b446-79861ceeb1d3","ios":"levelo://app?vid=38831877-51ef-4db6-b446-79861ceeb1d3"},"vehicle_type_id":"4","last_reported":1723482443,"current_range_meters":0,"station_id":"ce4bgi12rcd13ifvqb70","pricing_plan_id":"cebpf4jnsgd1na2vs0mg"},{"bike_id":"1241db0c-2f18-4571-a361-7f258dcad0e2","system_id":"levelo_inurba_marseille","lat":43.29303,"lon":5.37456,"is_reserved":false,"is_disabled":false,"rental_uris":{"android":"levelo://app?vid=1241db0c-2f18-4571-a361-7f258dcad0e2","ios":"levelo://app?vid=1241db0c-2f18-4571-a361-7f258dcad0e2"},"vehicle_type_id":"4","last_reported":1723482443,"current_range_meters":0,"station_id":"ce4bgi12rcd13ifvqb70","pricing_plan_id":"cebpf4jnsgd1na2vs0mg"},{"bike_id":"fecfcd6f-0ada-4bd8-bec6-ca0cf494ca5b","system_id":"levelo_inurba_marseille","lat":43.29298,"lon":5.37455,"is_reserved":false,"is_disabled":false,"rental_uris":{"android":"levelo://app?vid=fecfcd6f-0ada-4bd8-bec6-ca0cf494ca5b","ios":"levelo://app?vid=fecfcd6f-0ada-4bd8-bec6-ca0cf494ca5b"},"vehicle_type_id":"4","last_reported":1723482443,"current_range_meters":0,"station_id":"ce4bgi12rcd13ifvqb70","pricing_plan_id":"cebpf4jnsgd1na2vs0mg"},{"bike_id":"4f39825f-4fee-4805-909a-a20cbadd96fb","system_id":"levelo_inurba_marseille","lat":43.30582,"lon":5.39354,"is_reserved":false,"is_disabled":false,"rental_uris":{"android":"levelo://app?vid=4f39825f-4fee-4805-909a-a20cbadd96fb","ios":"levelo://app?vid=4f39825f-4fee-4805-909a-a20cbadd96fb"},"vehicle_type_id":"4","last_reported":1723482443,"current_range_meters":12400,"station_id":"ce4bh0p2rcd13ifvqd80","pricing_plan_id":"cebpf4jnsgd1na2vs0mg"},{"bike_id":"8d37495d-9961-45f8-ba67-ee81725ae3ae","system_id":"levelo_inurba_marseille","lat":43.29228,"lon":5.36363,"is_reserved":false,"is_disabled":false,"rental_uris":{"android":"levelo://app?vid=8d37495d-9961-45f8-ba67-ee81725ae3ae","ios":"levelo://app?vid=8d37495d-9961-45f8-ba67-ee81725ae3ae"},"vehicle_type_id":"4","last_reported":1723482443,"current_range_meters":800,"station_id":"","pricing_plan_id":"cebpf4jnsgd1na2vs0mg"},{"bike_id":"7d60a366-e62c-4327-8afc-5786810d6907","system_id":"levelo_inurba_marseille","lat":43.2936,"lon":5.37835,"is_reserved":false,"is_disabled":false,"rental_uris":{"android":"levelo://app?vid=7d60a366-e62c-4327-8afc-5786810d6907","ios":"levelo://app?vid=7d60a366-e62c-4327-8afc-5786810d6907"},"vehicle_type_id":"4","last_reported":1723482443,"current_range_meters":0,"station_id":"ce4bgjh2rcd13ifvqbf0","pricing_plan_id":"cebpf4jnsgd1na2vs0mg"},{"bike_id":"df910204-9860-4786-b612-6dfb1e02b439","system_id":"levelo_inurba_marseille","lat":43.292311,"lon":5.360731,"is_reserved":false,"is_disabled":false,"rental_uris":{"android":"levelo://app?vid=df910204-9860-4786-b612-6dfb1e02b439","ios":"levelo://app?vid=df910204-9860-4786-b612-6dfb1e02b439"},"vehicle_type_id":"4","last_reported":1723482443,"current_range_meters":6800,"station_id":"ce4bhbh2rcd13ifvqeqg","pricing_plan_id":"cebpf4jnsgd1na2vs0mg"},{"bike_id":"875311b2-9a4e-48f5-ac96-e3773d555d0d","system_id":"levelo_inurba_marseille","lat":43.292311,"lon":5.360731,"is_reserved":false,"is_disabled":false,"rental_uris":{"android":"levelo://app?vid=875311b2-9a4e-48f5-ac96-e3773d555d0d","ios":"levelo://app?vid=875311b2-9a4e-48f5-ac96-e3773d555d0d"},"vehicle_type_id":"4","last_reported":1723482443,"current_range_meters":0,"station_id":"ce4bhbh2rcd13ifvqeqg","pricing_plan_id":"cebpf4jnsgd1na2vs0mg"},{"bike_id":"486b470f-b439-431f-927d-9fc3c4fd14ee","system_id":"levelo_inurba_marseille","lat":43.29226,"lon":5.36061,"is_reserved":false,"is_disabled":false,"rental_uris":{"android":"levelo://app?vid=486b470f-b439-431f-927d-9fc3c4fd14ee","ios":"levelo://app?vid=486b470f-b439-431f-927d-9fc3c4fd14ee"},"vehicle_type_id":"4","last_reported":1723482443,"current_range_meters":16800,"station_id":"ce4bhbh2rcd13ifvqeqg","pricing_plan_id":"cebpf4jnsgd1na2vs0mg"},{"bike_id":"a4c1e374-3413-41f6-8778-c66f6b4882e4","system_id":"levelo_inurba_marseille","lat":43.30085,"lon":5.390856,"is_reserved":false,"is_disabled":false,"rental_uris":{"android":"levelo://app?vid=a4c1e374-3413-41f6-8778-c66f6b4882e4","ios":"levelo://app?vid=a4c1e374-3413-41f6-8778-c66f6b4882e4"},"vehicle_type_id":"4","last_reported":1723482443,"current_range_meters":1600,"station_id":"ce4bh192rcd13ifvqdb0","pricing_plan_id":"cebpf4jnsgd1na2vs0mg"},{"bike_id":"86b6f6b5-2f0e-4004-9134-cada1e2ba5b6","system_id":"levelo_inurba_marseille","lat":43.29329,"lon":5.378427,"is_reserved":false,"is_disabled":false,"rental_uris":{"android":"levelo://app?vid=86b6f6b5-2f0e-4004-9134-cada1e2ba5b6","ios":"levelo://app?vid=86b6f6b5-2f0e-4004-9134-cada1e2ba5b6"},"vehicle_type_id":"4","last_reported":1723482443,"current_range_meters":12400,"station_id":"ce4bgjh2rcd13ifvqbf0","pricing_plan_id":"cebpf4jnsgd1na2vs0mg"},{"bike_id":"039650c3-8113-4869-adcd-f8563da66393","system_id":"levelo_inurba_marseille","lat":43.293009,"lon":5.374584,"is_reserved":false,"is_disabled":false,"rental_uris":{"android":"levelo://app?vid=039650c3-8113-4869-adcd-f8563da66393","ios":"levelo://app?vid=039650c3-8113-4869-adcd-f8563da66393"},"vehicle_type_id":"4","last_reported":1723482443,"current_range_meters":21600,"station_id":"ce4bgi12rcd13ifvqb70","pricing_plan_id":"cebpf4jnsgd1na2vs0mg"},{"bike_id":"85df1a94-4491-40ab-93f5-e8b10370ccd2","system_id":"levelo_inurba_marseille","lat":43.291671,"lon":5.371575,"is_reserved":false,"is_disabled":false,"rental_uris":{"android":"levelo://app?vid=85df1a94-4491-40ab-93f5-e8b10370ccd2","ios":"levelo://app?vid=85df1a94-4491-40ab-93f5-e8b10370ccd2"},"vehicle_type_id":"4","last_reported":1723482443,"current_range_meters":25600,"station_id":"ce4bha92rcd13ifvqeh0","pricing_plan_id":"cebpf4jnsgd1na2vs0mg"},{"bike_id":"b6352b74-68f5-467a-a155-1aed369265e8","system_id":"levelo_inurba_marseille","lat":43.291675,"lon":5.371583,"is_reserved":false,"is_disabled":false,"rental_uris":{"android":"levelo://app?vid=b6352b74-68f5-467a-a155-1aed369265e8","ios":"levelo://app?vid=b6352b74-68f5-467a-a155-1aed369265e8"},"vehicle_type_id":"4","last_reported":1723482443,"current_range_meters":23600,"station_id":"ce4bha92rcd13ifvqeh0","pricing_plan_id":"cebpf4jnsgd1na2vs0mg"},{"bike_id":"ba868683-7986-41dd-9a40-b25120bfd303","system_id":"levelo_inurba_marseille","lat":43.292005,"lon":5.357875,"is_reserved":false,"is_disabled":false,"rental_uris":{"android":"levelo://app?vid=ba868683-7986-41dd-9a40-b25120bfd303","ios":"levelo://app?vid=ba868683-7986-41dd-9a40-b25120bfd303"},"vehicle_type_id":"4","last_reported":1723482443,"current_range_meters":0,"station_id":"ce4bhb12rcd13ifvqel0","pricing_plan_id":"cebpf4jnsgd1na2vs0mg"},{"bike_id":"8a40b9ae-c7f0-4bf9-9425-a332cb2a3172","system_id":"levelo_inurba_marseille","lat":43.292005,"lon":5.357875,"is_reserved":false,"is_disabled":false,"rental_uris":{"android":"levelo://app?vid=8a40b9ae-c7f0-4bf9-9425-a332cb2a3172","ios":"levelo://app?vid=8a40b9ae-c7f0-4bf9-9425-a332cb2a3172"},"vehicle_type_id":"4","last_reported":1723482443,"current_range_meters":6400,"station_id":"ce4bhb12rcd13ifvqel0","pricing_plan_id":"cebpf4jnsgd1na2vs0mg"},{"bike_id":"0d43f72e-9565-4139-9ec8-44f8e7f3aed4","system_id":"levelo_inurba_marseille","lat":43.291994,"lon":5.357886,"is_reserved":false,"is_disabled":false,"rental_uris":{"android":"levelo://app?vid=0d43f72e-9565-4139-9ec8-44f8e7f3aed4","ios":"levelo://app?vid=0d43f72e-9565-4139-9ec8-44f8e7f3aed4"},"vehicle_type_id":"4","last_reported":1723482443,"current_range_meters":25200,"station_id":"ce4bhb12rcd13ifvqel0","pricing_plan_id":"cebpf4jnsgd1na2vs0mg"},{"bike_id":"28d1374a-ae19-4462-9ca6-3ee772dd62d7","system_id":"levelo_inurba_marseille","lat":43.292005,"lon":5.357875,"is_reserved":false,"is_disabled":false,"rental_uris":{"android":"levelo://app?vid=28d1374a-ae19-4462-9ca6-3ee772dd62d7","ios":"levelo://app?vid=28d1374a-ae19-4462-9ca6-3ee772dd62d7"},"vehicle_type_id":"4","last_reported":1723482443,"current_range_meters":31200,"station_id":"ce4bhb12rcd13ifvqel0","pricing_plan_id":"cebpf4jnsgd1na2vs0mg"},{"bike_id":"6c7c9868-b0b2-4a09-ace0-d74e1d7e85b4","system_id":"levelo_inurba_marseille","lat":43.291994,"lon":5.357886,"is_reserved":false,"is_disabled":false,"rental_uris":{"android":"levelo://app?vid=6c7c9868-b0b2-4a09-ace0-d74e1d7e85b4","ios":"levelo://app?vid=6c7c9868-b0b2-4a09-ace0-d74e1d7e85b4"},"vehicle_type_id":"4","last_reported":1723482443,"current_range_meters":10800,"station_id":"ce4bhb12rcd13ifvqel0","pricing_plan_id":"cebpf4jnsgd1na2vs0mg"},{"bike_id":"9d4b68a5-c93f-4844-a235-5ff4a055b660","system_id":"levelo_inurba_marseille","lat":43.292385,"lon":5.37767,"is_reserved":false,"is_disabled":false,"rental_uris":{"android":"levelo://app?vid=9d4b68a5-c93f-4844-a235-5ff4a055b660","ios":"levelo://app?vid=9d4b68a5-c93f-4844-a235-5ff4a055b660"},"vehicle_type_id":"4","last_reported":1723482443,"current_range_meters":3600,"station_id":"","pricing_plan_id":"cebpf4jnsgd1na2vs0mg"},{"bike_id":"8ddbf294-9363-428d-95c5-69dad46ec4ee","system_id":"levelo_inurba_marseille","lat":43.291994,"lon":5.357886,"is_reserved":false,"is_disabled":false,"rental_uris":{"android":"levelo://app?vid=8ddbf294-9363-428d-95c5-69dad46ec4ee","ios":"levelo://app?vid=8ddbf294-9363-428d-95c5-69dad46ec4ee"},"vehicle_type_id":"4","last_reported":1723482443,"current_range_meters":4000,"station_id":"ce4bhb12rcd13ifvqel0","pricing_plan_id":"cebpf4jnsgd1na2vs0mg"},{"bike_id":"23fd81a2-ca4b-4abd-b1fa-3d3eb72141f6","system_id":"levelo_inurba_marseille","lat":43.29533,"lon":5.38538,"is_reserved":false,"is_disabled":false,"rental_uris":{"android":"levelo://app?vid=23fd81a2-ca4b-4abd-b1fa-3d3eb72141f6","ios":"levelo://app?vid=23fd81a2-ca4b-4abd-b1fa-3d3eb72141f6"},"vehicle_type_id":"4","last_reported":1723482443,"current_range_meters":0,"station_id":"ce4bgih2rcd13ifvqba0","pricing_plan_id":"cebpf4jnsgd1na2vs0mg"},{"bike_id":"d0df549f-bfaa-46e3-87e0-2797ffc4f742","system_id":"levelo_inurba_marseille","lat":43.302008,"lon":5.394694,"is_reserved":false,"is_disabled":false,"rental_uris":{"android":"levelo://app?vid=d0df549f-bfaa-46e3-87e0-2797ffc4f742","ios":"levelo://app?vid=d0df549f-bfaa-46e3-87e0-2797ffc4f742"},"vehicle_type_id":"4","last_reported":1723482443,"current_range_meters":2800,"station_id":"ce4bh0p2rcd13ifvqd70","pricing_plan_id":"cebpf4jnsgd1na2vs0mg"},{"bike_id":"0d920277-db90-4700-aa55-148b9c35572a","system_id":"levelo_inurba_marseille","lat":43.290631,"lon":5.359244,"is_reserved":false,"is_disabled":false,"rental_uris":{"android":"levelo://app?vid=0d920277-db90-4700-aa55-148b9c35572a","ios":"levelo://app?vid=0d920277-db90-4700-aa55-148b9c35572a"},"vehicle_type_id":"4","last_reported":1723482443,"current_range_meters":26000,"station_id":"ce4bha92rcd13ifvqeg0","pricing_plan_id":"cebpf4jnsgd1na2vs0mg"},{"bike_id":"cbea9a02-d685-4902-bd7c-5cc7f10c722f","system_id":"levelo_inurba_marseille","lat":43.290624,"lon":5.359245,"is_reserved":false,"is_disabled":false,"rental_uris":{"android":"levelo://app?vid=cbea9a02-d685-4902-bd7c-5cc7f10c722f","ios":"levelo://app?vid=cbea9a02-d685-4902-bd7c-5cc7f10c722f"},"vehicle_type_id":"4","last_reported":1723482443,"current_range_meters":10800,"station_id":"ce4bha92rcd13ifvqeg0","pricing_plan_id":"cebpf4jnsgd1na2vs0mg"},{"bike_id":"45c319cd-0c94-43ca-94be-6dc2042ee039","system_id":"levelo_inurba_marseille","lat":43.294153,"lon":5.386305,"is_reserved":false,"is_disabled":false,"rental_uris":{"android":"levelo://app?vid=45c319cd-0c94-43ca-94be-6dc2042ee039","ios":"levelo://app?vid=45c319cd-0c94-43ca-94be-6dc2042ee039"},"vehicle_type_id":"4","last_reported":1723482443,"current_range_meters":4800,"station_id":"ce4bh2h2rcd13ifvqdh0","pricing_plan_id":"cebpf4jnsgd1na2vs0mg"},{"bike_id":"a68ae8f3-dfc7-4364-aa3b-02a343155595","system_id":"levelo_inurba_marseille","lat":43.290327,"lon":5.375711,"is_reserved":false,"is_disabled":false,"rental_uris":{"android":"levelo://app?vid=a68ae8f3-dfc7-4364-aa3b-02a343155595","ios":"levelo://app?vid=a68ae8f3-dfc7-4364-aa3b-02a343155595"},"vehicle_type_id":"4","last_reported":1723482443,"current_range_meters":0,"station_id":"ce4bh692rcd13ifvqe90","pricing_plan_id":"cebpf4jnsgd1na2vs0mg"},{"bike_id":"e4553231-3959-472d-b0b7-5427cd82b1c4","system_id":"levelo_inurba_marseille","lat":43.294162,"lon":5.386292,"is_reserved":false,"is_disabled":false,"rental_uris":{"android":"levelo://app?vid=e4553231-3959-472d-b0b7-5427cd82b1c4","ios":"levelo://app?vid=e4553231-3959-472d-b0b7-5427cd82b1c4"},"vehicle_type_id":"4","last_reported":1723482443,"current_range_meters":0,"station_id":"ce4bh2h2rcd13ifvqdh0","pricing_plan_id":"cebpf4jnsgd1na2vs0mg"},{"bike_id":"ffabb631-fd0c-4ce7-99ce-fef296ba1a4d","system_id":"levelo_inurba_marseille","lat":43.294162,"lon":5.386292,"is_reserved":false,"is_disabled":false,"rental_uris":{"android":"levelo://app?vid=ffabb631-fd0c-4ce7-99ce-fef296ba1a4d","ios":"levelo://app?vid=ffabb631-fd0c-4ce7-99ce-fef296ba1a4d"},"vehicle_type_id":"4","last_reported":1723482443,"current_range_meters":16000,"station_id":"ce4bh2h2rcd13ifvqdh0","pricing_plan_id":"cebpf4jnsgd1na2vs0mg"},{"bike_id":"47daa3bb-445c-40c7-b5d9-de0a79bf4a38","system_id":"levelo_inurba_marseille","lat":43.29418,"lon":5.38626,"is_reserved":false,"is_disabled":false,"rental_uris":{"android":"levelo://app?vid=47daa3bb-445c-40c7-b5d9-de0a79bf4a38","ios":"levelo://app?vid=47daa3bb-445c-40c7-b5d9-de0a79bf4a38"},"vehicle_type_id":"4","last_reported":1723482443,"current_range_meters":0,"station_id":"ce4bh2h2rcd13ifvqdh0","pricing_plan_id":"cebpf4jnsgd1na2vs0mg"},{"bike_id":"dfa064a7-b978-4a9b-93a6-c110aa860193","system_id":"levelo_inurba_marseille","lat":43.294153,"lon":5.386305,"is_reserved":false,"is_disabled":false,"rental_uris":{"android":"levelo://app?vid=dfa064a7-b978-4a9b-93a6-c110aa860193","ios":"levelo://app?vid=dfa064a7-b978-4a9b-93a6-c110aa860193"},"vehicle_type_id":"4","last_reported":1723482443,"current_range_meters":24400,"station_id":"ce4bh2h2rcd13ifvqdh0","pricing_plan_id":"cebpf4jnsgd1na2vs0mg"},{"bike_id":"2122743c-9e40-4741-ba00-161d4e8643b0","system_id":"levelo_inurba_marseille","lat":43.294153,"lon":5.386305,"is_reserved":false,"is_disabled":false,"rental_uris":{"android":"levelo://app?vid=2122743c-9e40-4741-ba00-161d4e8643b0","ios":"levelo://app?vid=2122743c-9e40-4741-ba00-161d4e8643b0"},"vehicle_type_id":"4","last_reported":1723482443,"current_range_meters":3200,"station_id":"ce4bh2h2rcd13ifvqdh0","pricing_plan_id":"cebpf4jnsgd1na2vs0mg"},{"bike_id":"01f3c7ca-fcf1-431a-b88b-59d799e2704f","system_id":"levelo_inurba_marseille","lat":43.289184,"lon":5.366408,"is_reserved":false,"is_disabled":false,"rental_uris":{"android":"levelo://app?vid=01f3c7ca-fcf1-431a-b88b-59d799e2704f","ios":"levelo://app?vid=01f3c7ca-fcf1-431a-b88b-59d799e2704f"},"vehicle_type_id":"4","last_reported":1723482443,"current_range_meters":10800,"station_id":"ce4bhap2rcd13ifvqek0","pricing_plan_id":"cebpf4jnsgd1na2vs0mg"},{"bike_id":"d05fb83f-57b6-470b-b359-acf70b06c282","system_id":"levelo_inurba_marseille","lat":43.289184,"lon":5.366408,"is_reserved":false,"is_disabled":false,"rental_uris":{"android":"levelo://app?vid=d05fb83f-57b6-470b-b359-acf70b06c282","ios":"levelo://app?vid=d05fb83f-57b6-470b-b359-acf70b06c282"},"vehicle_type_id":"4","last_reported":1723482443,"current_range_meters":23200,"station_id":"ce4bhap2rcd13ifvqek0","pricing_plan_id":"cebpf4jnsgd1na2vs0mg"},{"bike_id":"f15f9a22-b2c0-4f71-89d1-fd03f5f141c2","system_id":"levelo_inurba_marseille","lat":43.286595,"lon":5.386795,"is_reserved":false,"is_disabled":false,"rental_uris":{"android":"levelo://app?vid=f15f9a22-b2c0-4f71-89d1-fd03f5f141c2","ios":"levelo://app?vid=f15f9a22-b2c0-4f71-89d1-fd03f5f141c2"},"vehicle_type_id":"4","last_reported":1723482443,"current_range_meters":0,"station_id":"ce4bh492rcd13ifvqdug","pricing_plan_id":"cebpf4jnsgd1na2vs0mg"},{"bike_id":"94181181-4058-4faf-94b4-d529bebd42f6","system_id":"levelo_inurba_marseille","lat":43.289468,"lon":5.363719,"is_reserved":false,"is_disabled":false,"rental_uris":{"android":"levelo://app?vid=94181181-4058-4faf-94b4-d529bebd42f6","ios":"levelo://app?vid=94181181-4058-4faf-94b4-d529bebd42f6"},"vehicle_type_id":"4","last_reported":1723482443,"current_range_meters":7200,"station_id":"ce4bhc92rcd13ifvqetg","pricing_plan_id":"cebpf4jnsgd1na2vs0mg"},{"bike_id":"222b8dc4-28ee-4cd9-af87-db9cb0faa682","system_id":"levelo_inurba_marseille","lat":43.289468,"lon":5.363719,"is_reserved":false,"is_disabled":false,"rental_uris":{"android":"levelo://app?vid=222b8dc4-28ee-4cd9-af87-db9cb0faa682","ios":"levelo://app?vid=222b8dc4-28ee-4cd9-af87-db9cb0faa682"},"vehicle_type_id":"4","last_reported":1723482443,"current_range_meters":25600,"station_id":"ce4bhc92rcd13ifvqetg","pricing_plan_id":"cebpf4jnsgd1na2vs0mg"},{"bike_id":"b1f280ce-bc32-4c7a-9e2b-7c7dbd1883c8","system_id":"levelo_inurba_marseille","lat":43.289468,"lon":5.363719,"is_reserved":false,"is_disabled":false,"rental_uris":{"android":"levelo://app?vid=b1f280ce-bc32-4c7a-9e2b-7c7dbd1883c8","ios":"levelo://app?vid=b1f280ce-bc32-4c7a-9e2b-7c7dbd1883c8"},"vehicle_type_id":"4","last_reported":1723482443,"current_range_meters":6400,"station_id":"ce4bhc92rcd13ifvqetg","pricing_plan_id":"cebpf4jnsgd1na2vs0mg"},{"bike_id":"476bacc2-82a9-4968-94cd-d6ee0606e481","system_id":"levelo_inurba_marseille","lat":43.29419,"lon":5.38668,"is_reserved":false,"is_disabled":false,"rental_uris":{"android":"levelo://app?vid=476bacc2-82a9-4968-94cd-d6ee0606e481","ios":"levelo://app?vid=476bacc2-82a9-4968-94cd-d6ee0606e481"},"vehicle_type_id":"4","last_reported":1723482443,"current_range_meters":1600,"station_id":"ce4bh2h2rcd13ifvqdh0","pricing_plan_id":"cebpf4jnsgd1na2vs0mg"},{"bike_id":"7ca56c40-d603-4fd4-aa47-b02f628852bf","system_id":"levelo_inurba_marseille","lat":43.28936,"lon":5.363995,"is_reserved":false,"is_disabled":false,"rental_uris":{"android":"levelo://app?vid=7ca56c40-d603-4fd4-aa47-b02f628852bf","ios":"levelo://app?vid=7ca56c40-d603-4fd4-aa47-b02f628852bf"},"vehicle_type_id":"4","last_reported":1723482443,"current_range_meters":0,"station_id":"ce4bhc92rcd13ifvqetg","pricing_plan_id":"cebpf4jnsgd1na2vs0mg"},{"bike_id":"3455a08a-cad4-4773-abb2-e1fdb1668d12","system_id":"levelo_inurba_marseille","lat":43.292642,"lon":5.384254,"is_reserved":false,"is_disabled":false,"rental_uris":{"android":"levelo://app?vid=3455a08a-cad4-4773-abb2-e1fdb1668d12","ios":"levelo://app?vid=3455a08a-cad4-4773-abb2-e1fdb1668d12"},"vehicle_type_id":"4","last_reported":1723482443,"current_range_meters":30400,"station_id":"ce4bh692rcd13ifvqea0","pricing_plan_id":"cebpf4jnsgd1na2vs0mg"},{"bike_id":"4f4763a8-4917-40ed-a551-10cf62ad6d75","system_id":"levelo_inurba_marseille","lat":43.292642,"lon":5.384254,"is_reserved":false,"is_disabled":false,"rental_uris":{"android":"levelo://app?vid=4f4763a8-4917-40ed-a551-10cf62ad6d75","ios":"levelo://app?vid=4f4763a8-4917-40ed-a551-10cf62ad6d75"},"vehicle_type_id":"4","last_reported":1723482443,"current_range_meters":0,"station_id":"ce4bh692rcd13ifvqea0","pricing_plan_id":"cebpf4jnsgd1na2vs0mg"},{"bike_id":"7ebc8b94-8021-47cb-9f9c-f8d43f33f583","system_id":"levelo_inurba_marseille","lat":43.292644,"lon":5.384257,"is_reserved":false,"is_disabled":false,"rental_uris":{"android":"levelo://app?vid=7ebc8b94-8021-47cb-9f9c-f8d43f33f583","ios":"levelo://app?vid=7ebc8b94-8021-47cb-9f9c-f8d43f33f583"},"vehicle_type_id":"4","last_reported":1723482443,"current_range_meters":9600,"station_id":"ce4bh692rcd13ifvqea0","pricing_plan_id":"cebpf4jnsgd1na2vs0mg"},{"bike_id":"458c8d82-12e8-43ba-b9c4-4468c708578b","system_id":"levelo_inurba_marseille","lat":43.292642,"lon":5.384254,"is_reserved":false,"is_disabled":false,"rental_uris":{"android":"levelo://app?vid=458c8d82-12e8-43ba-b9c4-4468c708578b","ios":"levelo://app?vid=458c8d82-12e8-43ba-b9c4-4468c708578b"},"vehicle_type_id":"4","last_reported":1723482443,"current_range_meters":0,"station_id":"ce4bh692rcd13ifvqea0","pricing_plan_id":"cebpf4jnsgd1na2vs0mg"},{"bike_id":"33bdd7ea-a6ff-4aa7-80cd-445f548a7aa8","system_id":"levelo_inurba_marseille","lat":43.292642,"lon":5.384254,"is_reserved":false,"is_disabled":false,"rental_uris":{"android":"levelo://app?vid=33bdd7ea-a6ff-4aa7-80cd-445f548a7aa8","ios":"levelo://app?vid=33bdd7ea-a6ff-4aa7-80cd-445f548a7aa8"},"vehicle_type_id":"4","last_reported":1723482443,"current_range_meters":0,"station_id":"ce4bh692rcd13ifvqea0","pricing_plan_id":"cebpf4jnsgd1na2vs0mg"},{"bike_id":"d2e6cd21-76bf-4f9d-8057-9fd737693ce5","system_id":"levelo_inurba_marseille","lat":43.2901,"lon":5.35607,"is_reserved":false,"is_disabled":false,"rental_uris":{"android":"levelo://app?vid=d2e6cd21-76bf-4f9d-8057-9fd737693ce5","ios":"levelo://app?vid=d2e6cd21-76bf-4f9d-8057-9fd737693ce5"},"vehicle_type_id":"4","last_reported":1723482443,"current_range_meters":12800,"station_id":"ce4bhb92rcd13ifvqen0","pricing_plan_id":"cebpf4jnsgd1na2vs0mg"},{"bike_id":"95dce4b2-9783-4bad-b33b-b747043e267f","system_id":"levelo_inurba_marseille","lat":43.29008,"lon":5.35612,"is_reserved":false,"is_disabled":false,"rental_uris":{"android":"levelo://app?vid=95dce4b2-9783-4bad-b33b-b747043e267f","ios":"levelo://app?vid=95dce4b2-9783-4bad-b33b-b747043e267f"},"vehicle_type_id":"4","last_reported":1723482443,"current_range_meters":4000,"station_id":"ce4bhb92rcd13ifvqen0","pricing_plan_id":"cebpf4jnsgd1na2vs0mg"},{"bike_id":"d63d4c5f-1398-4f0b-85bc-83cb5d6932a7","system_id":"levelo_inurba_marseille","lat":43.290103,"lon":5.356114,"is_reserved":false,"is_disabled":false,"rental_uris":{"android":"levelo://app?vid=d63d4c5f-1398-4f0b-85bc-83cb5d6932a7","ios":"levelo://app?vid=d63d4c5f-1398-4f0b-85bc-83cb5d6932a7"},"vehicle_type_id":"4","last_reported":1723482443,"current_range_meters":8800,"station_id":"ce4bhb92rcd13ifvqen0","pricing_plan_id":"cebpf4jnsgd1na2vs0mg"},{"bike_id":"1052b9fd-c70d-42db-90ce-1fef119a717b","system_id":"levelo_inurba_marseille","lat":43.290049,"lon":5.3562,"is_reserved":false,"is_disabled":false,"rental_uris":{"android":"levelo://app?vid=1052b9fd-c70d-42db-90ce-1fef119a717b","ios":"levelo://app?vid=1052b9fd-c70d-42db-90ce-1fef119a717b"},"vehicle_type_id":"4","last_reported":1723482443,"current_range_meters":12400,"station_id":"ce4bhb92rcd13ifvqen0","pricing_plan_id":"cebpf4jnsgd1na2vs0mg"},{"bike_id":"9c29d2cb-fc0e-4a34-92a5-9c27c7a7c50a","system_id":"levelo_inurba_marseille","lat":43.290103,"lon":5.356114,"is_reserved":false,"is_disabled":false,"rental_uris":{"android":"levelo://app?vid=9c29d2cb-fc0e-4a34-92a5-9c27c7a7c50a","ios":"levelo://app?vid=9c29d2cb-fc0e-4a34-92a5-9c27c7a7c50a"},"vehicle_type_id":"4","last_reported":1723482443,"current_range_meters":15200,"station_id":"ce4bhb92rcd13ifvqen0","pricing_plan_id":"cebpf4jnsgd1na2vs0mg"},{"bike_id":"8966253b-0448-4a7f-93e9-9a999ebd9d57","system_id":"levelo_inurba_marseille","lat":43.290103,"lon":5.356114,"is_reserved":false,"is_disabled":false,"rental_uris":{"android":"levelo://app?vid=8966253b-0448-4a7f-93e9-9a999ebd9d57","ios":"levelo://app?vid=8966253b-0448-4a7f-93e9-9a999ebd9d57"},"vehicle_type_id":"4","last_reported":1723482443,"current_range_meters":0,"station_id":"ce4bhb92rcd13ifvqen0","pricing_plan_id":"cebpf4jnsgd1na2vs0mg"},{"bike_id":"c1031066-07d6-40a0-ac6a-7e7b77f03db6","system_id":"levelo_inurba_marseille","lat":43.29006,"lon":5.35612,"is_reserved":false,"is_disabled":false,"rental_uris":{"android":"levelo://app?vid=c1031066-07d6-40a0-ac6a-7e7b77f03db6","ios":"levelo://app?vid=c1031066-07d6-40a0-ac6a-7e7b77f03db6"},"vehicle_type_id":"4","last_reported":1723482443,"current_range_meters":8400,"station_id":"ce4bhb92rcd13ifvqen0","pricing_plan_id":"cebpf4jnsgd1na2vs0mg"},{"bike_id":"50c79045-0c89-4d09-af65-bde167bbb9fd","system_id":"levelo_inurba_marseille","lat":43.290103,"lon":5.356114,"is_reserved":false,"is_disabled":false,"rental_uris":{"android":"levelo://app?vid=50c79045-0c89-4d09-af65-bde167bbb9fd","ios":"levelo://app?vid=50c79045-0c89-4d09-af65-bde167bbb9fd"},"vehicle_type_id":"4","last_reported":1723482443,"current_range_meters":31200,"station_id":"ce4bhb92rcd13ifvqen0","pricing_plan_id":"cebpf4jnsgd1na2vs0mg"},{"bike_id":"2c69cb3e-af2f-4e88-84ec-bfdb8ec464c6","system_id":"levelo_inurba_marseille","lat":43.29004,"lon":5.35609,"is_reserved":false,"is_disabled":false,"rental_uris":{"android":"levelo://app?vid=2c69cb3e-af2f-4e88-84ec-bfdb8ec464c6","ios":"levelo://app?vid=2c69cb3e-af2f-4e88-84ec-bfdb8ec464c6"},"vehicle_type_id":"4","last_reported":1723482443,"current_range_meters":0,"station_id":"ce4bhb92rcd13ifvqen0","pricing_plan_id":"cebpf4jnsgd1na2vs0mg"},{"bike_id":"fcf9e8a3-da2e-4cf7-9bf6-037ca7a9c9e9","system_id":"levelo_inurba_marseille","lat":43.290103,"lon":5.356114,"is_reserved":false,"is_disabled":false,"rental_uris":{"android":"levelo://app?vid=fcf9e8a3-da2e-4cf7-9bf6-037ca7a9c9e9","ios":"levelo://app?vid=fcf9e8a3-da2e-4cf7-9bf6-037ca7a9c9e9"},"vehicle_type_id":"4","last_reported":1723482443,"current_range_meters":6400,"station_id":"ce4bhb92rcd13ifvqen0","pricing_plan_id":"cebpf4jnsgd1na2vs0mg"},{"bike_id":"cb37a3e3-cd55-43af-83fb-7f7206f368d2","system_id":"levelo_inurba_marseille","lat":43.290103,"lon":5.356114,"is_reserved":false,"is_disabled":false,"rental_uris":{"android":"levelo://app?vid=cb37a3e3-cd55-43af-83fb-7f7206f368d2","ios":"levelo://app?vid=cb37a3e3-cd55-43af-83fb-7f7206f368d2"},"vehicle_type_id":"4","last_reported":1723482443,"current_range_meters":800,"station_id":"ce4bhb92rcd13ifvqen0","pricing_plan_id":"cebpf4jnsgd1na2vs0mg"},{"bike_id":"c330572f-0063-4335-862a-a50bbae6b697","system_id":"levelo_inurba_marseille","lat":43.290103,"lon":5.356114,"is_reserved":false,"is_disabled":false,"rental_uris":{"android":"levelo://app?vid=c330572f-0063-4335-862a-a50bbae6b697","ios":"levelo://app?vid=c330572f-0063-4335-862a-a50bbae6b697"},"vehicle_type_id":"4","last_reported":1723482443,"current_range_meters":800,"station_id":"ce4bhb92rcd13ifvqen0","pricing_plan_id":"cebpf4jnsgd1na2vs0mg"},{"bike_id":"632bc140-d837-4e9f-87da-6ab40ba235c9","system_id":"levelo_inurba_marseille","lat":43.29,"lon":5.35616,"is_reserved":false,"is_disabled":false,"rental_uris":{"android":"levelo://app?vid=632bc140-d837-4e9f-87da-6ab40ba235c9","ios":"levelo://app?vid=632bc140-d837-4e9f-87da-6ab40ba235c9"},"vehicle_type_id":"4","last_reported":1723482443,"current_range_meters":0,"station_id":"ce4bhb92rcd13ifvqen0","pricing_plan_id":"cebpf4jnsgd1na2vs0mg"},{"bike_id":"e5265461-dcc3-40c5-ad56-a89332f80d94","system_id":"levelo_inurba_marseille","lat":43.29002,"lon":5.35607,"is_reserved":false,"is_disabled":false,"rental_uris":{"android":"levelo://app?vid=e5265461-dcc3-40c5-ad56-a89332f80d94","ios":"levelo://app?vid=e5265461-dcc3-40c5-ad56-a89332f80d94"},"vehicle_type_id":"4","last_reported":1723482443,"current_range_meters":0,"station_id":"ce4bhb92rcd13ifvqen0","pricing_plan_id":"cebpf4jnsgd1na2vs0mg"},{"bike_id":"1ba65169-e3b0-4453-9c8b-8eb98337edb8","system_id":"levelo_inurba_marseille","lat":43.290103,"lon":5.356114,"is_reserved":false,"is_disabled":false,"rental_uris":{"android":"levelo://app?vid=1ba65169-e3b0-4453-9c8b-8eb98337edb8","ios":"levelo://app?vid=1ba65169-e3b0-4453-9c8b-8eb98337edb8"},"vehicle_type_id":"4","last_reported":1723482443,"current_range_meters":10000,"station_id":"ce4bhb92rcd13ifvqen0","pricing_plan_id":"cebpf4jnsgd1na2vs0mg"},{"bike_id":"be6293d9-7f30-4172-88d4-f262b7055591","system_id":"levelo_inurba_marseille","lat":43.28995,"lon":5.35606,"is_reserved":false,"is_disabled":false,"rental_uris":{"android":"levelo://app?vid=be6293d9-7f30-4172-88d4-f262b7055591","ios":"levelo://app?vid=be6293d9-7f30-4172-88d4-f262b7055591"},"vehicle_type_id":"4","last_reported":1723482443,"current_range_meters":3200,"station_id":"ce4bhb92rcd13ifvqen0","pricing_plan_id":"cebpf4jnsgd1na2vs0mg"},{"bike_id":"7f180dff-b87c-4fc6-8424-729bb8374efc","system_id":"levelo_inurba_marseille","lat":43.290103,"lon":5.356114,"is_reserved":false,"is_disabled":false,"rental_uris":{"android":"levelo://app?vid=7f180dff-b87c-4fc6-8424-729bb8374efc","ios":"levelo://app?vid=7f180dff-b87c-4fc6-8424-729bb8374efc"},"vehicle_type_id":"4","last_reported":1723482443,"current_range_meters":14400,"station_id":"ce4bhb92rcd13ifvqen0","pricing_plan_id":"cebpf4jnsgd1na2vs0mg"},{"bike_id":"2f949529-58fc-4e95-8670-01b92f1c1231","system_id":"levelo_inurba_marseille","lat":43.297807,"lon":5.393533,"is_reserved":false,"is_disabled":false,"rental_uris":{"android":"levelo://app?vid=2f949529-58fc-4e95-8670-01b92f1c1231","ios":"levelo://app?vid=2f949529-58fc-4e95-8670-01b92f1c1231"},"vehicle_type_id":"4","last_reported":1723482443,"current_range_meters":16000,"station_id":"chh1huq6cuj3fo74tm60","pricing_plan_id":"cebpf4jnsgd1na2vs0mg"},{"bike_id":"a995417d-4205-4acc-9d13-8eed00de7d80","system_id":"levelo_inurba_marseille","lat":43.297815,"lon":5.393548,"is_reserved":false,"is_disabled":false,"rental_uris":{"android":"levelo://app?vid=a995417d-4205-4acc-9d13-8eed00de7d80","ios":"levelo://app?vid=a995417d-4205-4acc-9d13-8eed00de7d80"},"vehicle_type_id":"4","last_reported":1723482443,"current_range_meters":1600,"station_id":"chh1huq6cuj3fo74tm60","pricing_plan_id":"cebpf4jnsgd1na2vs0mg"},{"bike_id":"67f8b5c4-d07d-401d-8fd7-17b4a54efb9c","system_id":"levelo_inurba_marseille","lat":43.297815,"lon":5.393548,"is_reserved":false,"is_disabled":false,"rental_uris":{"android":"levelo://app?vid=67f8b5c4-d07d-401d-8fd7-17b4a54efb9c","ios":"levelo://app?vid=67f8b5c4-d07d-401d-8fd7-17b4a54efb9c"},"vehicle_type_id":"4","last_reported":1723482443,"current_range_meters":8800,"station_id":"chh1huq6cuj3fo74tm60","pricing_plan_id":"cebpf4jnsgd1na2vs0mg"},{"bike_id":"bbb4ccb4-b590-4936-ad5c-e0f659979411","system_id":"levelo_inurba_marseille","lat":43.297815,"lon":5.393548,"is_reserved":false,"is_disabled":false,"rental_uris":{"android":"levelo://app?vid=bbb4ccb4-b590-4936-ad5c-e0f659979411","ios":"levelo://app?vid=bbb4ccb4-b590-4936-ad5c-e0f659979411"},"vehicle_type_id":"4","last_reported":1723482443,"current_range_meters":400,"station_id":"chh1huq6cuj3fo74tm60","pricing_plan_id":"cebpf4jnsgd1na2vs0mg"},{"bike_id":"602c9938-a94c-4db9-8127-dd99e8726a09","system_id":"levelo_inurba_marseille","lat":43.29785,"lon":5.39347,"is_reserved":false,"is_disabled":false,"rental_uris":{"android":"levelo://app?vid=602c9938-a94c-4db9-8127-dd99e8726a09","ios":"levelo://app?vid=602c9938-a94c-4db9-8127-dd99e8726a09"},"vehicle_type_id":"4","last_reported":1723482443,"current_range_meters":0,"station_id":"chh1huq6cuj3fo74tm60","pricing_plan_id":"cebpf4jnsgd1na2vs0mg"},{"bike_id":"5dc4e44b-f035-4abb-b9b2-1dec673d7139","system_id":"levelo_inurba_marseille","lat":43.295169,"lon":5.390426,"is_reserved":false,"is_disabled":false,"rental_uris":{"android":"levelo://app?vid=5dc4e44b-f035-4abb-b9b2-1dec673d7139","ios":"levelo://app?vid=5dc4e44b-f035-4abb-b9b2-1dec673d7139"},"vehicle_type_id":"4","last_reported":1723482443,"current_range_meters":0,"station_id":"ce4bh3p2rcd13ifvqdp0","pricing_plan_id":"cebpf4jnsgd1na2vs0mg"},{"bike_id":"e9dfdca1-d153-46ed-8172-24b9b5b9295d","system_id":"levelo_inurba_marseille","lat":43.297815,"lon":5.393548,"is_reserved":false,"is_disabled":false,"rental_uris":{"android":"levelo://app?vid=e9dfdca1-d153-46ed-8172-24b9b5b9295d","ios":"levelo://app?vid=e9dfdca1-d153-46ed-8172-24b9b5b9295d"},"vehicle_type_id":"4","last_reported":1723482443,"current_range_meters":23200,"station_id":"chh1huq6cuj3fo74tm60","pricing_plan_id":"cebpf4jnsgd1na2vs0mg"},{"bike_id":"4cd3835e-b93e-4dc8-ac4c-b73d09744ebd","system_id":"levelo_inurba_marseille","lat":43.33024,"lon":5.39039,"is_reserved":false,"is_disabled":false,"rental_uris":{"android":"levelo://app?vid=4cd3835e-b93e-4dc8-ac4c-b73d09744ebd","ios":"levelo://app?vid=4cd3835e-b93e-4dc8-ac4c-b73d09744ebd"},"vehicle_type_id":"4","last_reported":1723482443,"current_range_meters":11600,"station_id":"ce4bhr92rcd13ifvqhrg","pricing_plan_id":"cebpf4jnsgd1na2vs0mg"},{"bike_id":"48847d82-7675-4fc4-9307-68b49c2b8db4","system_id":"levelo_inurba_marseille","lat":43.295169,"lon":5.390426,"is_reserved":false,"is_disabled":false,"rental_uris":{"android":"levelo://app?vid=48847d82-7675-4fc4-9307-68b49c2b8db4","ios":"levelo://app?vid=48847d82-7675-4fc4-9307-68b49c2b8db4"},"vehicle_type_id":"4","last_reported":1723482443,"current_range_meters":2000,"station_id":"ce4bh3p2rcd13ifvqdp0","pricing_plan_id":"cebpf4jnsgd1na2vs0mg"},{"bike_id":"3d39f3b9-eced-454d-a727-2493f11dc708","system_id":"levelo_inurba_marseille","lat":43.3302,"lon":5.39045,"is_reserved":false,"is_disabled":false,"rental_uris":{"android":"levelo://app?vid=3d39f3b9-eced-454d-a727-2493f11dc708","ios":"levelo://app?vid=3d39f3b9-eced-454d-a727-2493f11dc708"},"vehicle_type_id":"4","last_reported":1723482443,"current_range_meters":20400,"station_id":"ce4bhr92rcd13ifvqhrg","pricing_plan_id":"cebpf4jnsgd1na2vs0mg"},{"bike_id":"4857b80f-25dc-4852-a872-61fcd91a6611","system_id":"levelo_inurba_marseille","lat":43.33028,"lon":5.39038,"is_reserved":false,"is_disabled":false,"rental_uris":{"android":"levelo://app?vid=4857b80f-25dc-4852-a872-61fcd91a6611","ios":"levelo://app?vid=4857b80f-25dc-4852-a872-61fcd91a6611"},"vehicle_type_id":"4","last_reported":1723482443,"current_range_meters":12400,"station_id":"ce4bhr92rcd13ifvqhrg","pricing_plan_id":"cebpf4jnsgd1na2vs0mg"},{"bike_id":"78648a89-512f-4216-b157-b88eca149775","system_id":"levelo_inurba_marseille","lat":43.33025,"lon":5.39043,"is_reserved":false,"is_disabled":false,"rental_uris":{"android":"levelo://app?vid=78648a89-512f-4216-b157-b88eca149775","ios":"levelo://app?vid=78648a89-512f-4216-b157-b88eca149775"},"vehicle_type_id":"4","last_reported":1723482443,"current_range_meters":0,"station_id":"ce4bhr92rcd13ifvqhrg","pricing_plan_id":"cebpf4jnsgd1na2vs0mg"},{"bike_id":"862d597d-6560-4092-b6c4-29fcecdb1ba6","system_id":"levelo_inurba_marseille","lat":43.290094,"lon":5.381264,"is_reserved":false,"is_disabled":false,"rental_uris":{"android":"levelo://app?vid=862d597d-6560-4092-b6c4-29fcecdb1ba6","ios":"levelo://app?vid=862d597d-6560-4092-b6c4-29fcecdb1ba6"},"vehicle_type_id":"4","last_reported":1723482443,"current_range_meters":28400,"station_id":"ce4bh4p2rcd13ifvqe1g","pricing_plan_id":"cebpf4jnsgd1na2vs0mg"},{"bike_id":"3040963e-cb55-4f22-8455-0b0bce678a7c","system_id":"levelo_inurba_marseille","lat":43.2901,"lon":5.381269,"is_reserved":false,"is_disabled":false,"rental_uris":{"android":"levelo://app?vid=3040963e-cb55-4f22-8455-0b0bce678a7c","ios":"levelo://app?vid=3040963e-cb55-4f22-8455-0b0bce678a7c"},"vehicle_type_id":"4","last_reported":1723482443,"current_range_meters":800,"station_id":"ce4bh4p2rcd13ifvqe1g","pricing_plan_id":"cebpf4jnsgd1na2vs0mg"},{"bike_id":"f49e4836-9698-45d9-8332-b1fcb5ccf1f8","system_id":"levelo_inurba_marseille","lat":43.28856,"lon":5.358371,"is_reserved":false,"is_disabled":false,"rental_uris":{"android":"levelo://app?vid=f49e4836-9698-45d9-8332-b1fcb5ccf1f8","ios":"levelo://app?vid=f49e4836-9698-45d9-8332-b1fcb5ccf1f8"},"vehicle_type_id":"4","last_reported":1723482443,"current_range_meters":0,"station_id":"ce4bhb12rcd13ifvqem0","pricing_plan_id":"cebpf4jnsgd1na2vs0mg"},{"bike_id":"a020669e-13d1-404a-807a-8fbdc754aaf7","system_id":"levelo_inurba_marseille","lat":43.28856,"lon":5.358371,"is_reserved":false,"is_disabled":false,"rental_uris":{"android":"levelo://app?vid=a020669e-13d1-404a-807a-8fbdc754aaf7","ios":"levelo://app?vid=a020669e-13d1-404a-807a-8fbdc754aaf7"},"vehicle_type_id":"4","last_reported":1723482443,"current_range_meters":11600,"station_id":"ce4bhb12rcd13ifvqem0","pricing_plan_id":"cebpf4jnsgd1na2vs0mg"},{"bike_id":"23f43546-a3cd-416b-b846-e32a8dddb5ba","system_id":"levelo_inurba_marseille","lat":43.28856,"lon":5.358371,"is_reserved":false,"is_disabled":false,"rental_uris":{"android":"levelo://app?vid=23f43546-a3cd-416b-b846-e32a8dddb5ba","ios":"levelo://app?vid=23f43546-a3cd-416b-b846-e32a8dddb5ba"},"vehicle_type_id":"4","last_reported":1723482443,"current_range_meters":10400,"station_id":"ce4bhb12rcd13ifvqem0","pricing_plan_id":"cebpf4jnsgd1na2vs0mg"},{"bike_id":"26f56302-5844-4561-8cb7-1ad0bbaee048","system_id":"levelo_inurba_marseille","lat":43.28856,"lon":5.358371,"is_reserved":false,"is_disabled":false,"rental_uris":{"android":"levelo://app?vid=26f56302-5844-4561-8cb7-1ad0bbaee048","ios":"levelo://app?vid=26f56302-5844-4561-8cb7-1ad0bbaee048"},"vehicle_type_id":"4","last_reported":1723482443,"current_range_meters":18400,"station_id":"ce4bhb12rcd13ifvqem0","pricing_plan_id":"cebpf4jnsgd1na2vs0mg"},{"bike_id":"c821ecaa-a21e-45d0-8832-48253e1b3c1d","system_id":"levelo_inurba_marseille","lat":43.28856,"lon":5.358371,"is_reserved":false,"is_disabled":false,"rental_uris":{"android":"levelo://app?vid=c821ecaa-a21e-45d0-8832-48253e1b3c1d","ios":"levelo://app?vid=c821ecaa-a21e-45d0-8832-48253e1b3c1d"},"vehicle_type_id":"4","last_reported":1723482443,"current_range_meters":24000,"station_id":"ce4bhb12rcd13ifvqem0","pricing_plan_id":"cebpf4jnsgd1na2vs0mg"},{"bike_id":"1d58744f-d3d6-4b81-8a3a-024815b9a75d","system_id":"levelo_inurba_marseille","lat":43.28856,"lon":5.358371,"is_reserved":false,"is_disabled":false,"rental_uris":{"android":"levelo://app?vid=1d58744f-d3d6-4b81-8a3a-024815b9a75d","ios":"levelo://app?vid=1d58744f-d3d6-4b81-8a3a-024815b9a75d"},"vehicle_type_id":"4","last_reported":1723482443,"current_range_meters":3600,"station_id":"ce4bhb12rcd13ifvqem0","pricing_plan_id":"cebpf4jnsgd1na2vs0mg"},{"bike_id":"e337dd8b-0b20-4e85-a31f-fce643fd23b7","system_id":"levelo_inurba_marseille","lat":43.28856,"lon":5.358371,"is_reserved":false,"is_disabled":false,"rental_uris":{"android":"levelo://app?vid=e337dd8b-0b20-4e85-a31f-fce643fd23b7","ios":"levelo://app?vid=e337dd8b-0b20-4e85-a31f-fce643fd23b7"},"vehicle_type_id":"4","last_reported":1723482443,"current_range_meters":26000,"station_id":"ce4bhb12rcd13ifvqem0","pricing_plan_id":"cebpf4jnsgd1na2vs0mg"},{"bike_id":"ac75d8e5-5139-4e43-a64e-51e7994c2517","system_id":"levelo_inurba_marseille","lat":43.337444,"lon":5.374475,"is_reserved":false,"is_disabled":false,"rental_uris":{"android":"levelo://app?vid=ac75d8e5-5139-4e43-a64e-51e7994c2517","ios":"levelo://app?vid=ac75d8e5-5139-4e43-a64e-51e7994c2517"},"vehicle_type_id":"3","last_reported":1723482443,"current_range_meters":24800,"station_id":"","pricing_plan_id":"cebpf4jnsgd1na2vs0mg"},{"bike_id":"43f21911-683d-4ba4-93d3-8a7e20e1c78c","system_id":"levelo_inurba_marseille","lat":43.337465,"lon":5.374563,"is_reserved":false,"is_disabled":false,"rental_uris":{"android":"levelo://app?vid=43f21911-683d-4ba4-93d3-8a7e20e1c78c","ios":"levelo://app?vid=43f21911-683d-4ba4-93d3-8a7e20e1c78c"},"vehicle_type_id":"4","last_reported":1723482443,"current_range_meters":24000,"station_id":"","pricing_plan_id":"cebpf4jnsgd1na2vs0mg"},{"bike_id":"6086599c-14e6-492d-8b53-d8808720b8a6","system_id":"levelo_inurba_marseille","lat":43.287839,"lon":5.373678,"is_reserved":false,"is_disabled":false,"rental_uris":{"android":"levelo://app?vid=6086599c-14e6-492d-8b53-d8808720b8a6","ios":"levelo://app?vid=6086599c-14e6-492d-8b53-d8808720b8a6"},"vehicle_type_id":"4","last_reported":1723482443,"current_range_meters":8400,"station_id":"","pricing_plan_id":"cebpf4jnsgd1na2vs0mg"},{"bike_id":"7b9e8744-1a62-4d79-83e6-366501021f18","system_id":"levelo_inurba_marseille","lat":43.33755,"lon":5.37444,"is_reserved":false,"is_disabled":false,"rental_uris":{"android":"levelo://app?vid=7b9e8744-1a62-4d79-83e6-366501021f18","ios":"levelo://app?vid=7b9e8744-1a62-4d79-83e6-366501021f18"},"vehicle_type_id":"4","last_reported":1723482443,"current_range_meters":31200,"station_id":"","pricing_plan_id":"cebpf4jnsgd1na2vs0mg"},{"bike_id":"50503b1c-23de-412c-8bb5-4f40012a64e8","system_id":"levelo_inurba_marseille","lat":43.33757,"lon":5.37442,"is_reserved":false,"is_disabled":false,"rental_uris":{"android":"levelo://app?vid=50503b1c-23de-412c-8bb5-4f40012a64e8","ios":"levelo://app?vid=50503b1c-23de-412c-8bb5-4f40012a64e8"},"vehicle_type_id":"4","last_reported":1723482443,"current_range_meters":24800,"station_id":"","pricing_plan_id":"cebpf4jnsgd1na2vs0mg"},{"bike_id":"1ece39e8-5ec5-465b-b0d5-bdea3554c74d","system_id":"levelo_inurba_marseille","lat":43.33758,"lon":5.374523,"is_reserved":false,"is_disabled":false,"rental_uris":{"android":"levelo://app?vid=1ece39e8-5ec5-465b-b0d5-bdea3554c74d","ios":"levelo://app?vid=1ece39e8-5ec5-465b-b0d5-bdea3554c74d"},"vehicle_type_id":"4","last_reported":1723482443,"current_range_meters":16000,"station_id":"","pricing_plan_id":"cebpf4jnsgd1na2vs0mg"},{"bike_id":"fd13a3a8-2162-4f1b-8e72-3dbc1bf903c4","system_id":"levelo_inurba_marseille","lat":43.306412,"lon":5.401035,"is_reserved":false,"is_disabled":false,"rental_uris":{"android":"levelo://app?vid=fd13a3a8-2162-4f1b-8e72-3dbc1bf903c4","ios":"levelo://app?vid=fd13a3a8-2162-4f1b-8e72-3dbc1bf903c4"},"vehicle_type_id":"4","last_reported":1723482443,"current_range_meters":2400,"station_id":"ce4bh112rcd13ifvqda0","pricing_plan_id":"cebpf4jnsgd1na2vs0mg"},{"bike_id":"b2d6b700-be3e-4c27-ab3b-d1fbb5513dee","system_id":"levelo_inurba_marseille","lat":43.33769,"lon":5.37468,"is_reserved":false,"is_disabled":false,"rental_uris":{"android":"levelo://app?vid=b2d6b700-be3e-4c27-ab3b-d1fbb5513dee","ios":"levelo://app?vid=b2d6b700-be3e-4c27-ab3b-d1fbb5513dee"},"vehicle_type_id":"4","last_reported":1723482443,"current_range_meters":27200,"station_id":"","pricing_plan_id":"cebpf4jnsgd1na2vs0mg"},{"bike_id":"22d23e81-d601-4c76-9973-e595fa549c3b","system_id":"levelo_inurba_marseille","lat":43.33769,"lon":5.37477,"is_reserved":false,"is_disabled":false,"rental_uris":{"android":"levelo://app?vid=22d23e81-d601-4c76-9973-e595fa549c3b","ios":"levelo://app?vid=22d23e81-d601-4c76-9973-e595fa549c3b"},"vehicle_type_id":"4","last_reported":1723482443,"current_range_meters":1600,"station_id":"","pricing_plan_id":"cebpf4jnsgd1na2vs0mg"},{"bike_id":"a0eeb4a3-6ae3-44c3-8527-155da571cd64","system_id":"levelo_inurba_marseille","lat":43.3377,"lon":5.37475,"is_reserved":false,"is_disabled":false,"rental_uris":{"android":"levelo://app?vid=a0eeb4a3-6ae3-44c3-8527-155da571cd64","ios":"levelo://app?vid=a0eeb4a3-6ae3-44c3-8527-155da571cd64"},"vehicle_type_id":"4","last_reported":1723482443,"current_range_meters":23200,"station_id":"","pricing_plan_id":"cebpf4jnsgd1na2vs0mg"},{"bike_id":"ace12e57-f66f-4efa-96db-c6aa50a829e9","system_id":"levelo_inurba_marseille","lat":43.33773,"lon":5.37477,"is_reserved":false,"is_disabled":false,"rental_uris":{"android":"levelo://app?vid=ace12e57-f66f-4efa-96db-c6aa50a829e9","ios":"levelo://app?vid=ace12e57-f66f-4efa-96db-c6aa50a829e9"},"vehicle_type_id":"4","last_reported":1723482443,"current_range_meters":19600,"station_id":"","pricing_plan_id":"cebpf4jnsgd1na2vs0mg"},{"bike_id":"8580717d-eb3f-4f14-b031-ffa8a147d520","system_id":"levelo_inurba_marseille","lat":43.33776,"lon":5.37482,"is_reserved":false,"is_disabled":false,"rental_uris":{"android":"levelo://app?vid=8580717d-eb3f-4f14-b031-ffa8a147d520","ios":"levelo://app?vid=8580717d-eb3f-4f14-b031-ffa8a147d520"},"vehicle_type_id":"4","last_reported":1723482443,"current_range_meters":15600,"station_id":"","pricing_plan_id":"cebpf4jnsgd1na2vs0mg"},{"bike_id":"58b3c142-69be-4e28-8a4d-77d8112ebca4","system_id":"levelo_inurba_marseille","lat":43.301117,"lon":5.398795,"is_reserved":false,"is_disabled":false,"rental_uris":{"android":"levelo://app?vid=58b3c142-69be-4e28-8a4d-77d8112ebca4","ios":"levelo://app?vid=58b3c142-69be-4e28-8a4d-77d8112ebca4"},"vehicle_type_id":"4","last_reported":1723482443,"current_range_meters":11200,"station_id":"ce4bh0h2rcd13ifvqd40","pricing_plan_id":"cebpf4jnsgd1na2vs0mg"},{"bike_id":"59be8423-9fe0-435d-a27e-a9b6b6fd2f50","system_id":"levelo_inurba_marseille","lat":43.301117,"lon":5.398795,"is_reserved":false,"is_disabled":false,"rental_uris":{"android":"levelo://app?vid=59be8423-9fe0-435d-a27e-a9b6b6fd2f50","ios":"levelo://app?vid=59be8423-9fe0-435d-a27e-a9b6b6fd2f50"},"vehicle_type_id":"4","last_reported":1723482443,"current_range_meters":400,"station_id":"ce4bh0h2rcd13ifvqd40","pricing_plan_id":"cebpf4jnsgd1na2vs0mg"},{"bike_id":"ebd3ac9b-4be6-41c3-8ec9-5baeedc1dfad","system_id":"levelo_inurba_marseille","lat":43.301117,"lon":5.398795,"is_reserved":false,"is_disabled":false,"rental_uris":{"android":"levelo://app?vid=ebd3ac9b-4be6-41c3-8ec9-5baeedc1dfad","ios":"levelo://app?vid=ebd3ac9b-4be6-41c3-8ec9-5baeedc1dfad"},"vehicle_type_id":"4","last_reported":1723482443,"current_range_meters":0,"station_id":"ce4bh0h2rcd13ifvqd40","pricing_plan_id":"cebpf4jnsgd1na2vs0mg"},{"bike_id":"b9114623-9cf0-4c5b-a25a-c82a2f5fbe44","system_id":"levelo_inurba_marseille","lat":43.33888,"lon":5.36605,"is_reserved":false,"is_disabled":false,"rental_uris":{"android":"levelo://app?vid=b9114623-9cf0-4c5b-a25a-c82a2f5fbe44","ios":"levelo://app?vid=b9114623-9cf0-4c5b-a25a-c82a2f5fbe44"},"vehicle_type_id":"4","last_reported":1723482443,"current_range_meters":4400,"station_id":"","pricing_plan_id":"cebpf4jnsgd1na2vs0mg"},{"bike_id":"1bc624b9-5107-42ed-b1be-e02c46228341","system_id":"levelo_inurba_marseille","lat":43.298681,"lon":5.397225,"is_reserved":false,"is_disabled":false,"rental_uris":{"android":"levelo://app?vid=1bc624b9-5107-42ed-b1be-e02c46228341","ios":"levelo://app?vid=1bc624b9-5107-42ed-b1be-e02c46228341"},"vehicle_type_id":"4","last_reported":1723482443,"current_range_meters":0,"station_id":"ce4bh0h2rcd13ifvqd50","pricing_plan_id":"cebpf4jnsgd1na2vs0mg"},{"bike_id":"ff3c4035-8cf6-45b8-9549-13d865fb6af4","system_id":"levelo_inurba_marseille","lat":43.286961,"lon":5.373785,"is_reserved":false,"is_disabled":false,"rental_uris":{"android":"levelo://app?vid=ff3c4035-8cf6-45b8-9549-13d865fb6af4","ios":"levelo://app?vid=ff3c4035-8cf6-45b8-9549-13d865fb6af4"},"vehicle_type_id":"4","last_reported":1723482443,"current_range_meters":5600,"station_id":"ce4bh3p2rcd13ifvqdq0","pricing_plan_id":"cebpf4jnsgd1na2vs0mg"},{"bike_id":"334fdb1b-71d8-4035-8371-05d71fedbd94","system_id":"levelo_inurba_marseille","lat":43.286591,"lon":5.363346,"is_reserved":false,"is_disabled":false,"rental_uris":{"android":"levelo://app?vid=334fdb1b-71d8-4035-8371-05d71fedbd94","ios":"levelo://app?vid=334fdb1b-71d8-4035-8371-05d71fedbd94"},"vehicle_type_id":"4","last_reported":1723482443,"current_range_meters":9200,"station_id":"ce4bhah2rcd13ifvqej0","pricing_plan_id":"cebpf4jnsgd1na2vs0mg"},{"bike_id":"84c8d1a7-a61a-4dbe-ba8b-ff6a56fbe33c","system_id":"levelo_inurba_marseille","lat":43.28662,"lon":5.36351,"is_reserved":false,"is_disabled":false,"rental_uris":{"android":"levelo://app?vid=84c8d1a7-a61a-4dbe-ba8b-ff6a56fbe33c","ios":"levelo://app?vid=84c8d1a7-a61a-4dbe-ba8b-ff6a56fbe33c"},"vehicle_type_id":"4","last_reported":1723482443,"current_range_meters":18400,"station_id":"ce4bhah2rcd13ifvqej0","pricing_plan_id":"cebpf4jnsgd1na2vs0mg"},{"bike_id":"e95eccd5-04de-45d9-98ad-db09a5ac75d9","system_id":"levelo_inurba_marseille","lat":43.28658,"lon":5.36348,"is_reserved":false,"is_disabled":false,"rental_uris":{"android":"levelo://app?vid=e95eccd5-04de-45d9-98ad-db09a5ac75d9","ios":"levelo://app?vid=e95eccd5-04de-45d9-98ad-db09a5ac75d9"},"vehicle_type_id":"4","last_reported":1723482443,"current_range_meters":22400,"station_id":"ce4bhah2rcd13ifvqej0","pricing_plan_id":"cebpf4jnsgd1na2vs0mg"},{"bike_id":"dbd3bad8-eab3-4128-8559-8331c524c0ec","system_id":"levelo_inurba_marseille","lat":43.289253,"lon":5.383985,"is_reserved":false,"is_disabled":false,"rental_uris":{"android":"levelo://app?vid=dbd3bad8-eab3-4128-8559-8331c524c0ec","ios":"levelo://app?vid=dbd3bad8-eab3-4128-8559-8331c524c0ec"},"vehicle_type_id":"4","last_reported":1723482443,"current_range_meters":0,"station_id":"ce4bh612rcd13ifvqe6g","pricing_plan_id":"cebpf4jnsgd1na2vs0mg"},{"bike_id":"32879a20-03dd-4a8b-aa5c-6eee2d23a84a","system_id":"levelo_inurba_marseille","lat":43.3026,"lon":5.40068,"is_reserved":false,"is_disabled":false,"rental_uris":{"android":"levelo://app?vid=32879a20-03dd-4a8b-aa5c-6eee2d23a84a","ios":"levelo://app?vid=32879a20-03dd-4a8b-aa5c-6eee2d23a84a"},"vehicle_type_id":"4","last_reported":1723482443,"current_range_meters":400,"station_id":"ce4bgvh2rcd13ifvqcs0","pricing_plan_id":"cebpf4jnsgd1na2vs0mg"},{"bike_id":"b60c8dd4-4b63-4590-9cbe-a5d4ce572296","system_id":"levelo_inurba_marseille","lat":43.290336,"lon":5.386425,"is_reserved":false,"is_disabled":false,"rental_uris":{"android":"levelo://app?vid=b60c8dd4-4b63-4590-9cbe-a5d4ce572296","ios":"levelo://app?vid=b60c8dd4-4b63-4590-9cbe-a5d4ce572296"},"vehicle_type_id":"4","last_reported":1723482443,"current_range_meters":0,"station_id":"ce4bh4p2rcd13ifvqe0g","pricing_plan_id":"cebpf4jnsgd1na2vs0mg"},{"bike_id":"90403c79-2468-40b7-9234-fb0c96b5b440","system_id":"levelo_inurba_marseille","lat":43.302759,"lon":5.400793,"is_reserved":false,"is_disabled":false,"rental_uris":{"android":"levelo://app?vid=90403c79-2468-40b7-9234-fb0c96b5b440","ios":"levelo://app?vid=90403c79-2468-40b7-9234-fb0c96b5b440"},"vehicle_type_id":"4","last_reported":1723482443,"current_range_meters":0,"station_id":"ce4bgvh2rcd13ifvqcs0","pricing_plan_id":"cebpf4jnsgd1na2vs0mg"},{"bike_id":"ab2a41f1-2ff7-42f9-a6ac-3d4387795f54","system_id":"levelo_inurba_marseille","lat":43.319179,"lon":5.407725,"is_reserved":false,"is_disabled":false,"rental_uris":{"android":"levelo://app?vid=ab2a41f1-2ff7-42f9-a6ac-3d4387795f54","ios":"levelo://app?vid=ab2a41f1-2ff7-42f9-a6ac-3d4387795f54"},"vehicle_type_id":"4","last_reported":1723482443,"current_range_meters":15600,"station_id":"ce4bhq12rcd13ifvqhig","pricing_plan_id":"cebpf4jnsgd1na2vs0mg"},{"bike_id":"ca5809bb-5cb4-4e57-ab06-a3cd116a1a84","system_id":"levelo_inurba_marseille","lat":43.31693,"lon":5.40474,"is_reserved":false,"is_disabled":false,"rental_uris":{"android":"levelo://app?vid=ca5809bb-5cb4-4e57-ab06-a3cd116a1a84","ios":"levelo://app?vid=ca5809bb-5cb4-4e57-ab06-a3cd116a1a84"},"vehicle_type_id":"4","last_reported":1723482443,"current_range_meters":31600,"station_id":"ce4bh012rcd13ifvqd00","pricing_plan_id":"cebpf4jnsgd1na2vs0mg"},{"bike_id":"0d8a2b5a-a2b4-4449-b738-0d32f99acede","system_id":"levelo_inurba_marseille","lat":43.316828,"lon":5.404723,"is_reserved":false,"is_disabled":false,"rental_uris":{"android":"levelo://app?vid=0d8a2b5a-a2b4-4449-b738-0d32f99acede","ios":"levelo://app?vid=0d8a2b5a-a2b4-4449-b738-0d32f99acede"},"vehicle_type_id":"4","last_reported":1723482443,"current_range_meters":24400,"station_id":"ce4bh012rcd13ifvqd00","pricing_plan_id":"cebpf4jnsgd1na2vs0mg"},{"bike_id":"61d0e43f-698d-49ed-ad48-c29f72415fdb","system_id":"levelo_inurba_marseille","lat":43.29199,"lon":5.39334,"is_reserved":false,"is_disabled":false,"rental_uris":{"android":"levelo://app?vid=61d0e43f-698d-49ed-ad48-c29f72415fdb","ios":"levelo://app?vid=61d0e43f-698d-49ed-ad48-c29f72415fdb"},"vehicle_type_id":"4","last_reported":1723482443,"current_range_meters":800,"station_id":"ce4bh192rcd13ifvqdd0","pricing_plan_id":"cebpf4jnsgd1na2vs0mg"},{"bike_id":"941eb859-0aa2-47ca-ac6c-1e2fde13dbf2","system_id":"levelo_inurba_marseille","lat":43.284538,"lon":5.358657,"is_reserved":false,"is_disabled":false,"rental_uris":{"android":"levelo://app?vid=941eb859-0aa2-47ca-ac6c-1e2fde13dbf2","ios":"levelo://app?vid=941eb859-0aa2-47ca-ac6c-1e2fde13dbf2"},"vehicle_type_id":"4","last_reported":1723482443,"current_range_meters":24000,"station_id":"ce4bhah2rcd13ifvqei0","pricing_plan_id":"cebpf4jnsgd1na2vs0mg"},{"bike_id":"a3365ead-c9b5-41f9-ac85-cd1b4c553678","system_id":"levelo_inurba_marseille","lat":43.284538,"lon":5.358657,"is_reserved":false,"is_disabled":false,"rental_uris":{"android":"levelo://app?vid=a3365ead-c9b5-41f9-ac85-cd1b4c553678","ios":"levelo://app?vid=a3365ead-c9b5-41f9-ac85-cd1b4c553678"},"vehicle_type_id":"4","last_reported":1723482443,"current_range_meters":8400,"station_id":"ce4bhah2rcd13ifvqei0","pricing_plan_id":"cebpf4jnsgd1na2vs0mg"},{"bike_id":"b1b29396-fad5-483a-84eb-29b823349746","system_id":"levelo_inurba_marseille","lat":43.28462,"lon":5.35891,"is_reserved":false,"is_disabled":false,"rental_uris":{"android":"levelo://app?vid=b1b29396-fad5-483a-84eb-29b823349746","ios":"levelo://app?vid=b1b29396-fad5-483a-84eb-29b823349746"},"vehicle_type_id":"4","last_reported":1723482443,"current_range_meters":0,"station_id":"ce4bhah2rcd13ifvqei0","pricing_plan_id":"cebpf4jnsgd1na2vs0mg"},{"bike_id":"2a9b143c-7c58-4d32-a68a-2d81a691c00f","system_id":"levelo_inurba_marseille","lat":43.284538,"lon":5.358657,"is_reserved":false,"is_disabled":false,"rental_uris":{"android":"levelo://app?vid=2a9b143c-7c58-4d32-a68a-2d81a691c00f","ios":"levelo://app?vid=2a9b143c-7c58-4d32-a68a-2d81a691c00f"},"vehicle_type_id":"4","last_reported":1723482443,"current_range_meters":5200,"station_id":"ce4bhah2rcd13ifvqei0","pricing_plan_id":"cebpf4jnsgd1na2vs0mg"},{"bike_id":"ca007998-4327-4b68-9d72-7ba46987a467","system_id":"levelo_inurba_marseille","lat":43.284538,"lon":5.358657,"is_reserved":false,"is_disabled":false,"rental_uris":{"android":"levelo://app?vid=ca007998-4327-4b68-9d72-7ba46987a467","ios":"levelo://app?vid=ca007998-4327-4b68-9d72-7ba46987a467"},"vehicle_type_id":"4","last_reported":1723482443,"current_range_meters":24400,"station_id":"ce4bhah2rcd13ifvqei0","pricing_plan_id":"cebpf4jnsgd1na2vs0mg"},{"bike_id":"995cc298-ee8b-4236-9be7-acd3137c57ab","system_id":"levelo_inurba_marseille","lat":43.284538,"lon":5.358657,"is_reserved":false,"is_disabled":false,"rental_uris":{"android":"levelo://app?vid=995cc298-ee8b-4236-9be7-acd3137c57ab","ios":"levelo://app?vid=995cc298-ee8b-4236-9be7-acd3137c57ab"},"vehicle_type_id":"4","last_reported":1723482443,"current_range_meters":6800,"station_id":"ce4bhah2rcd13ifvqei0","pricing_plan_id":"cebpf4jnsgd1na2vs0mg"},{"bike_id":"069f3941-7fac-4f2c-a407-88633674b4fb","system_id":"levelo_inurba_marseille","lat":43.284534,"lon":5.358662,"is_reserved":false,"is_disabled":false,"rental_uris":{"android":"levelo://app?vid=069f3941-7fac-4f2c-a407-88633674b4fb","ios":"levelo://app?vid=069f3941-7fac-4f2c-a407-88633674b4fb"},"vehicle_type_id":"4","last_reported":1723482443,"current_range_meters":25200,"station_id":"ce4bhah2rcd13ifvqei0","pricing_plan_id":"cebpf4jnsgd1na2vs0mg"},{"bike_id":"07509b70-4a83-4094-94da-0f118c55bc12","system_id":"levelo_inurba_marseille","lat":43.28458,"lon":5.35887,"is_reserved":false,"is_disabled":false,"rental_uris":{"android":"levelo://app?vid=07509b70-4a83-4094-94da-0f118c55bc12","ios":"levelo://app?vid=07509b70-4a83-4094-94da-0f118c55bc12"},"vehicle_type_id":"4","last_reported":1723482443,"current_range_meters":0,"station_id":"ce4bhah2rcd13ifvqei0","pricing_plan_id":"cebpf4jnsgd1na2vs0mg"},{"bike_id":"46da9e02-9b61-45a7-bfaa-e294f316f6c3","system_id":"levelo_inurba_marseille","lat":43.284534,"lon":5.358662,"is_reserved":false,"is_disabled":false,"rental_uris":{"android":"levelo://app?vid=46da9e02-9b61-45a7-bfaa-e294f316f6c3","ios":"levelo://app?vid=46da9e02-9b61-45a7-bfaa-e294f316f6c3"},"vehicle_type_id":"4","last_reported":1723482443,"current_range_meters":25600,"station_id":"ce4bhah2rcd13ifvqei0","pricing_plan_id":"cebpf4jnsgd1na2vs0mg"},{"bike_id":"8c2c3811-d756-4287-8ac4-943af98b8440","system_id":"levelo_inurba_marseille","lat":43.284534,"lon":5.358662,"is_reserved":false,"is_disabled":false,"rental_uris":{"android":"levelo://app?vid=8c2c3811-d756-4287-8ac4-943af98b8440","ios":"levelo://app?vid=8c2c3811-d756-4287-8ac4-943af98b8440"},"vehicle_type_id":"4","last_reported":1723482443,"current_range_meters":8800,"station_id":"ce4bhah2rcd13ifvqei0","pricing_plan_id":"cebpf4jnsgd1na2vs0mg"},{"bike_id":"653bb8b0-ba3b-4668-b99f-7879f382374d","system_id":"levelo_inurba_marseille","lat":43.284534,"lon":5.358662,"is_reserved":false,"is_disabled":false,"rental_uris":{"android":"levelo://app?vid=653bb8b0-ba3b-4668-b99f-7879f382374d","ios":"levelo://app?vid=653bb8b0-ba3b-4668-b99f-7879f382374d"},"vehicle_type_id":"4","last_reported":1723482443,"current_range_meters":4400,"station_id":"ce4bhah2rcd13ifvqei0","pricing_plan_id":"cebpf4jnsgd1na2vs0mg"},{"bike_id":"0ab381bf-e108-4e66-a0dd-e2e1c9836df9","system_id":"levelo_inurba_marseille","lat":43.294314,"lon":5.397498,"is_reserved":false,"is_disabled":false,"rental_uris":{"android":"levelo://app?vid=0ab381bf-e108-4e66-a0dd-e2e1c9836df9","ios":"levelo://app?vid=0ab381bf-e108-4e66-a0dd-e2e1c9836df9"},"vehicle_type_id":"4","last_reported":1723482443,"current_range_meters":0,"station_id":"ce4bh3h2rcd13ifvqdo0","pricing_plan_id":"cebpf4jnsgd1na2vs0mg"},{"bike_id":"e5754585-588c-4658-94b8-f88177605599","system_id":"levelo_inurba_marseille","lat":43.294314,"lon":5.397498,"is_reserved":false,"is_disabled":false,"rental_uris":{"android":"levelo://app?vid=e5754585-588c-4658-94b8-f88177605599","ios":"levelo://app?vid=e5754585-588c-4658-94b8-f88177605599"},"vehicle_type_id":"4","last_reported":1723482443,"current_range_meters":7200,"station_id":"ce4bh3h2rcd13ifvqdo0","pricing_plan_id":"cebpf4jnsgd1na2vs0mg"},{"bike_id":"57b43d3b-0ec6-427d-a72a-9ff8714f6f06","system_id":"levelo_inurba_marseille","lat":43.2862,"lon":5.35102,"is_reserved":false,"is_disabled":false,"rental_uris":{"android":"levelo://app?vid=57b43d3b-0ec6-427d-a72a-9ff8714f6f06","ios":"levelo://app?vid=57b43d3b-0ec6-427d-a72a-9ff8714f6f06"},"vehicle_type_id":"4","last_reported":1723482443,"current_range_meters":11200,"station_id":"ce4bhch2rcd13ifvqeug","pricing_plan_id":"cebpf4jnsgd1na2vs0mg"},{"bike_id":"e3fb8fc1-0d4d-4e3d-a2dd-a97cccdb89eb","system_id":"levelo_inurba_marseille","lat":43.28618,"lon":5.35106,"is_reserved":false,"is_disabled":false,"rental_uris":{"android":"levelo://app?vid=e3fb8fc1-0d4d-4e3d-a2dd-a97cccdb89eb","ios":"levelo://app?vid=e3fb8fc1-0d4d-4e3d-a2dd-a97cccdb89eb"},"vehicle_type_id":"4","last_reported":1723482443,"current_range_meters":15200,"station_id":"ce4bhch2rcd13ifvqeug","pricing_plan_id":"cebpf4jnsgd1na2vs0mg"},{"bike_id":"6bf1ffa5-9c19-419e-9d5f-adee9e78f396","system_id":"levelo_inurba_marseille","lat":43.28619,"lon":5.35102,"is_reserved":false,"is_disabled":false,"rental_uris":{"android":"levelo://app?vid=6bf1ffa5-9c19-419e-9d5f-adee9e78f396","ios":"levelo://app?vid=6bf1ffa5-9c19-419e-9d5f-adee9e78f396"},"vehicle_type_id":"4","last_reported":1723482443,"current_range_meters":30400,"station_id":"ce4bhch2rcd13ifvqeug","pricing_plan_id":"cebpf4jnsgd1na2vs0mg"},{"bike_id":"2fa8dea9-1ae9-466c-89ab-d7b783409cc8","system_id":"levelo_inurba_marseille","lat":43.28616,"lon":5.3511,"is_reserved":false,"is_disabled":false,"rental_uris":{"android":"levelo://app?vid=2fa8dea9-1ae9-466c-89ab-d7b783409cc8","ios":"levelo://app?vid=2fa8dea9-1ae9-466c-89ab-d7b783409cc8"},"vehicle_type_id":"4","last_reported":1723482443,"current_range_meters":0,"station_id":"ce4bhch2rcd13ifvqeug","pricing_plan_id":"cebpf4jnsgd1na2vs0mg"},{"bike_id":"65b1023f-a0d0-485b-9312-7c740e98a1f2","system_id":"levelo_inurba_marseille","lat":43.28619,"lon":5.351,"is_reserved":false,"is_disabled":false,"rental_uris":{"android":"levelo://app?vid=65b1023f-a0d0-485b-9312-7c740e98a1f2","ios":"levelo://app?vid=65b1023f-a0d0-485b-9312-7c740e98a1f2"},"vehicle_type_id":"4","last_reported":1723482443,"current_range_meters":16400,"station_id":"ce4bhch2rcd13ifvqeug","pricing_plan_id":"cebpf4jnsgd1na2vs0mg"},{"bike_id":"82952700-fb2e-4d27-ad22-2503e62d3ceb","system_id":"levelo_inurba_marseille","lat":43.28617,"lon":5.35106,"is_reserved":false,"is_disabled":false,"rental_uris":{"android":"levelo://app?vid=82952700-fb2e-4d27-ad22-2503e62d3ceb","ios":"levelo://app?vid=82952700-fb2e-4d27-ad22-2503e62d3ceb"},"vehicle_type_id":"4","last_reported":1723482443,"current_range_meters":0,"station_id":"ce4bhch2rcd13ifvqeug","pricing_plan_id":"cebpf4jnsgd1na2vs0mg"},{"bike_id":"02cb82cf-0443-4eb0-9ad1-dbeb9ae949e5","system_id":"levelo_inurba_marseille","lat":43.285856,"lon":5.350771,"is_reserved":false,"is_disabled":false,"rental_uris":{"android":"levelo://app?vid=02cb82cf-0443-4eb0-9ad1-dbeb9ae949e5","ios":"levelo://app?vid=02cb82cf-0443-4eb0-9ad1-dbeb9ae949e5"},"vehicle_type_id":"4","last_reported":1723482443,"current_range_meters":9200,"station_id":"ce4bhch2rcd13ifvqeug","pricing_plan_id":"cebpf4jnsgd1na2vs0mg"},{"bike_id":"3b898424-548a-4979-b06f-b9a77fa16aa2","system_id":"levelo_inurba_marseille","lat":43.28616,"lon":5.35106,"is_reserved":false,"is_disabled":false,"rental_uris":{"android":"levelo://app?vid=3b898424-548a-4979-b06f-b9a77fa16aa2","ios":"levelo://app?vid=3b898424-548a-4979-b06f-b9a77fa16aa2"},"vehicle_type_id":"4","last_reported":1723482443,"current_range_meters":8800,"station_id":"ce4bhch2rcd13ifvqeug","pricing_plan_id":"cebpf4jnsgd1na2vs0mg"},{"bike_id":"a71149ac-fda5-45ad-a16a-85923503ec5a","system_id":"levelo_inurba_marseille","lat":43.28616,"lon":5.35106,"is_reserved":false,"is_disabled":false,"rental_uris":{"android":"levelo://app?vid=a71149ac-fda5-45ad-a16a-85923503ec5a","ios":"levelo://app?vid=a71149ac-fda5-45ad-a16a-85923503ec5a"},"vehicle_type_id":"4","last_reported":1723482443,"current_range_meters":4000,"station_id":"ce4bhch2rcd13ifvqeug","pricing_plan_id":"cebpf4jnsgd1na2vs0mg"},{"bike_id":"fc0af50b-d5d6-463d-88e9-82c34e1d4ea8","system_id":"levelo_inurba_marseille","lat":43.28616,"lon":5.35106,"is_reserved":false,"is_disabled":false,"rental_uris":{"android":"levelo://app?vid=fc0af50b-d5d6-463d-88e9-82c34e1d4ea8","ios":"levelo://app?vid=fc0af50b-d5d6-463d-88e9-82c34e1d4ea8"},"vehicle_type_id":"4","last_reported":1723482443,"current_range_meters":800,"station_id":"ce4bhch2rcd13ifvqeug","pricing_plan_id":"cebpf4jnsgd1na2vs0mg"},{"bike_id":"b6fe31e1-6bc0-452a-94b3-b5cefc132235","system_id":"levelo_inurba_marseille","lat":43.28614,"lon":5.3511,"is_reserved":false,"is_disabled":false,"rental_uris":{"android":"levelo://app?vid=b6fe31e1-6bc0-452a-94b3-b5cefc132235","ios":"levelo://app?vid=b6fe31e1-6bc0-452a-94b3-b5cefc132235"},"vehicle_type_id":"4","last_reported":1723482443,"current_range_meters":26000,"station_id":"ce4bhch2rcd13ifvqeug","pricing_plan_id":"cebpf4jnsgd1na2vs0mg"},{"bike_id":"6b1a5c78-777e-4031-8966-7c38a4389c8b","system_id":"levelo_inurba_marseille","lat":43.28615,"lon":5.35106,"is_reserved":false,"is_disabled":false,"rental_uris":{"android":"levelo://app?vid=6b1a5c78-777e-4031-8966-7c38a4389c8b","ios":"levelo://app?vid=6b1a5c78-777e-4031-8966-7c38a4389c8b"},"vehicle_type_id":"4","last_reported":1723482443,"current_range_meters":12000,"station_id":"ce4bhch2rcd13ifvqeug","pricing_plan_id":"cebpf4jnsgd1na2vs0mg"},{"bike_id":"1648d454-afd6-4c1f-8428-8bb3d44e508c","system_id":"levelo_inurba_marseille","lat":43.28615,"lon":5.35105,"is_reserved":false,"is_disabled":false,"rental_uris":{"android":"levelo://app?vid=1648d454-afd6-4c1f-8428-8bb3d44e508c","ios":"levelo://app?vid=1648d454-afd6-4c1f-8428-8bb3d44e508c"},"vehicle_type_id":"4","last_reported":1723482443,"current_range_meters":2800,"station_id":"ce4bhch2rcd13ifvqeug","pricing_plan_id":"cebpf4jnsgd1na2vs0mg"},{"bike_id":"d8d7479f-84db-49ad-a90d-b44a7029a415","system_id":"levelo_inurba_marseille","lat":43.28616,"lon":5.35101,"is_reserved":false,"is_disabled":false,"rental_uris":{"android":"levelo://app?vid=d8d7479f-84db-49ad-a90d-b44a7029a415","ios":"levelo://app?vid=d8d7479f-84db-49ad-a90d-b44a7029a415"},"vehicle_type_id":"4","last_reported":1723482443,"current_range_meters":20000,"station_id":"ce4bhch2rcd13ifvqeug","pricing_plan_id":"cebpf4jnsgd1na2vs0mg"},{"bike_id":"bdc712cc-ddfe-4c5f-b949-dae6e94eae53","system_id":"levelo_inurba_marseille","lat":43.28614,"lon":5.35106,"is_reserved":false,"is_disabled":false,"rental_uris":{"android":"levelo://app?vid=bdc712cc-ddfe-4c5f-b949-dae6e94eae53","ios":"levelo://app?vid=bdc712cc-ddfe-4c5f-b949-dae6e94eae53"},"vehicle_type_id":"4","last_reported":1723482443,"current_range_meters":3200,"station_id":"ce4bhch2rcd13ifvqeug","pricing_plan_id":"cebpf4jnsgd1na2vs0mg"},{"bike_id":"d8e7cf79-fd60-4393-96ab-7c4603649e3c","system_id":"levelo_inurba_marseille","lat":43.28615,"lon":5.35101,"is_reserved":false,"is_disabled":false,"rental_uris":{"android":"levelo://app?vid=d8e7cf79-fd60-4393-96ab-7c4603649e3c","ios":"levelo://app?vid=d8e7cf79-fd60-4393-96ab-7c4603649e3c"},"vehicle_type_id":"4","last_reported":1723482443,"current_range_meters":29200,"station_id":"ce4bhch2rcd13ifvqeug","pricing_plan_id":"cebpf4jnsgd1na2vs0mg"},{"bike_id":"b1f22960-7f22-4092-b650-3f08dc7e7822","system_id":"levelo_inurba_marseille","lat":43.28615,"lon":5.351,"is_reserved":false,"is_disabled":false,"rental_uris":{"android":"levelo://app?vid=b1f22960-7f22-4092-b650-3f08dc7e7822","ios":"levelo://app?vid=b1f22960-7f22-4092-b650-3f08dc7e7822"},"vehicle_type_id":"4","last_reported":1723482443,"current_range_meters":23200,"station_id":"ce4bhch2rcd13ifvqeug","pricing_plan_id":"cebpf4jnsgd1na2vs0mg"},{"bike_id":"a43cfd1e-b922-48c9-9003-97ea397fee1c","system_id":"levelo_inurba_marseille","lat":43.28613,"lon":5.35103,"is_reserved":false,"is_disabled":false,"rental_uris":{"android":"levelo://app?vid=a43cfd1e-b922-48c9-9003-97ea397fee1c","ios":"levelo://app?vid=a43cfd1e-b922-48c9-9003-97ea397fee1c"},"vehicle_type_id":"4","last_reported":1723482443,"current_range_meters":27600,"station_id":"ce4bhch2rcd13ifvqeug","pricing_plan_id":"cebpf4jnsgd1na2vs0mg"},{"bike_id":"7aacfd1d-fbf4-435a-a8b8-fbeb26cdecb5","system_id":"levelo_inurba_marseille","lat":43.28613,"lon":5.35102,"is_reserved":false,"is_disabled":false,"rental_uris":{"android":"levelo://app?vid=7aacfd1d-fbf4-435a-a8b8-fbeb26cdecb5","ios":"levelo://app?vid=7aacfd1d-fbf4-435a-a8b8-fbeb26cdecb5"},"vehicle_type_id":"4","last_reported":1723482443,"current_range_meters":10000,"station_id":"ce4bhch2rcd13ifvqeug","pricing_plan_id":"cebpf4jnsgd1na2vs0mg"},{"bike_id":"7ebc00bd-c4af-4407-bf88-ecbbc3355d05","system_id":"levelo_inurba_marseille","lat":43.28612,"lon":5.35105,"is_reserved":false,"is_disabled":false,"rental_uris":{"android":"levelo://app?vid=7ebc00bd-c4af-4407-bf88-ecbbc3355d05","ios":"levelo://app?vid=7ebc00bd-c4af-4407-bf88-ecbbc3355d05"},"vehicle_type_id":"4","last_reported":1723482443,"current_range_meters":22800,"station_id":"ce4bhch2rcd13ifvqeug","pricing_plan_id":"cebpf4jnsgd1na2vs0mg"},{"bike_id":"ed846375-54ae-4598-9dc3-e4af459c6935","system_id":"levelo_inurba_marseille","lat":43.295748,"lon":5.37522,"is_reserved":false,"is_disabled":false,"rental_uris":{"android":"levelo://app?vid=ed846375-54ae-4598-9dc3-e4af459c6935","ios":"levelo://app?vid=ed846375-54ae-4598-9dc3-e4af459c6935"},"vehicle_type_id":"4","last_reported":1723482443,"current_range_meters":30800,"station_id":"ce4bgh92rcd13ifvqb50","pricing_plan_id":"cebpf4jnsgd1na2vs0mg"},{"bike_id":"e64aac66-751d-452a-a489-4553cb372801","system_id":"levelo_inurba_marseille","lat":43.283998,"lon":5.375062,"is_reserved":false,"is_disabled":false,"rental_uris":{"android":"levelo://app?vid=e64aac66-751d-452a-a489-4553cb372801","ios":"levelo://app?vid=e64aac66-751d-452a-a489-4553cb372801"},"vehicle_type_id":"4","last_reported":1723482443,"current_range_meters":0,"station_id":"ce4bh412rcd13ifvqds0","pricing_plan_id":"cebpf4jnsgd1na2vs0mg"},{"bike_id":"28471b9c-a72f-46b4-84f1-e05922dcd31a","system_id":"levelo_inurba_marseille","lat":43.28405,"lon":5.37503,"is_reserved":false,"is_disabled":false,"rental_uris":{"android":"levelo://app?vid=28471b9c-a72f-46b4-84f1-e05922dcd31a","ios":"levelo://app?vid=28471b9c-a72f-46b4-84f1-e05922dcd31a"},"vehicle_type_id":"4","last_reported":1723482443,"current_range_meters":14000,"station_id":"ce4bh412rcd13ifvqds0","pricing_plan_id":"cebpf4jnsgd1na2vs0mg"},{"bike_id":"6ac2810d-b3af-4bf1-bd60-40aebf5a8f25","system_id":"levelo_inurba_marseille","lat":43.28404,"lon":5.37502,"is_reserved":false,"is_disabled":false,"rental_uris":{"android":"levelo://app?vid=6ac2810d-b3af-4bf1-bd60-40aebf5a8f25","ios":"levelo://app?vid=6ac2810d-b3af-4bf1-bd60-40aebf5a8f25"},"vehicle_type_id":"4","last_reported":1723482443,"current_range_meters":18400,"station_id":"ce4bh412rcd13ifvqds0","pricing_plan_id":"cebpf4jnsgd1na2vs0mg"},{"bike_id":"2b019f4f-b9ca-4290-9f03-7507545caa9b","system_id":"levelo_inurba_marseille","lat":43.286595,"lon":5.386795,"is_reserved":false,"is_disabled":false,"rental_uris":{"android":"levelo://app?vid=2b019f4f-b9ca-4290-9f03-7507545caa9b","ios":"levelo://app?vid=2b019f4f-b9ca-4290-9f03-7507545caa9b"},"vehicle_type_id":"4","last_reported":1723482443,"current_range_meters":2400,"station_id":"ce4bh492rcd13ifvqdug","pricing_plan_id":"cebpf4jnsgd1na2vs0mg"},{"bike_id":"e5185f7e-a1c1-4749-922f-4996e3bd72f4","system_id":"levelo_inurba_marseille","lat":43.28665,"lon":5.386658,"is_reserved":false,"is_disabled":false,"rental_uris":{"android":"levelo://app?vid=e5185f7e-a1c1-4749-922f-4996e3bd72f4","ios":"levelo://app?vid=e5185f7e-a1c1-4749-922f-4996e3bd72f4"},"vehicle_type_id":"4","last_reported":1723482443,"current_range_meters":0,"station_id":"ce4bh492rcd13ifvqdug","pricing_plan_id":"cebpf4jnsgd1na2vs0mg"},{"bike_id":"f65c40ee-0225-4b70-b1b2-407c6f592b47","system_id":"levelo_inurba_marseille","lat":43.28662,"lon":5.38663,"is_reserved":false,"is_disabled":false,"rental_uris":{"android":"levelo://app?vid=f65c40ee-0225-4b70-b1b2-407c6f592b47","ios":"levelo://app?vid=f65c40ee-0225-4b70-b1b2-407c6f592b47"},"vehicle_type_id":"4","last_reported":1723482443,"current_range_meters":17200,"station_id":"","pricing_plan_id":"cebpf4jnsgd1na2vs0mg"},{"bike_id":"3f857a98-eaf1-4a28-bd18-72f1ef5414b6","system_id":"levelo_inurba_marseille","lat":43.323464,"lon":5.406297,"is_reserved":false,"is_disabled":false,"rental_uris":{"android":"levelo://app?vid=3f857a98-eaf1-4a28-bd18-72f1ef5414b6","ios":"levelo://app?vid=3f857a98-eaf1-4a28-bd18-72f1ef5414b6"},"vehicle_type_id":"4","last_reported":1723482443,"current_range_meters":1600,"station_id":"ce4bhq92rcd13ifvqhjg","pricing_plan_id":"cebpf4jnsgd1na2vs0mg"},{"bike_id":"078fa0fc-fb63-4a37-8f1f-08ae2b3e2b79","system_id":"levelo_inurba_marseille","lat":43.284787,"lon":5.384116,"is_reserved":false,"is_disabled":false,"rental_uris":{"android":"levelo://app?vid=078fa0fc-fb63-4a37-8f1f-08ae2b3e2b79","ios":"levelo://app?vid=078fa0fc-fb63-4a37-8f1f-08ae2b3e2b79"},"vehicle_type_id":"4","last_reported":1723482443,"current_range_meters":16800,"station_id":"ce4bh512rcd13ifvqe3g","pricing_plan_id":"cebpf4jnsgd1na2vs0mg"},{"bike_id":"f79482a7-0d34-4f6e-9a2b-8c618e637f29","system_id":"levelo_inurba_marseille","lat":43.284787,"lon":5.384116,"is_reserved":false,"is_disabled":false,"rental_uris":{"android":"levelo://app?vid=f79482a7-0d34-4f6e-9a2b-8c618e637f29","ios":"levelo://app?vid=f79482a7-0d34-4f6e-9a2b-8c618e637f29"},"vehicle_type_id":"4","last_reported":1723482443,"current_range_meters":0,"station_id":"ce4bh512rcd13ifvqe3g","pricing_plan_id":"cebpf4jnsgd1na2vs0mg"},{"bike_id":"434e4488-c20f-4470-8997-12de954b567a","system_id":"levelo_inurba_marseille","lat":43.284787,"lon":5.384116,"is_reserved":false,"is_disabled":false,"rental_uris":{"android":"levelo://app?vid=434e4488-c20f-4470-8997-12de954b567a","ios":"levelo://app?vid=434e4488-c20f-4470-8997-12de954b567a"},"vehicle_type_id":"4","last_reported":1723482443,"current_range_meters":0,"station_id":"ce4bh512rcd13ifvqe3g","pricing_plan_id":"cebpf4jnsgd1na2vs0mg"},{"bike_id":"392ee58d-a58b-417f-96aa-9e4743d63052","system_id":"levelo_inurba_marseille","lat":43.28852,"lon":5.39318,"is_reserved":false,"is_disabled":false,"rental_uris":{"android":"levelo://app?vid=392ee58d-a58b-417f-96aa-9e4743d63052","ios":"levelo://app?vid=392ee58d-a58b-417f-96aa-9e4743d63052"},"vehicle_type_id":"4","last_reported":1723482443,"current_range_meters":8000,"station_id":"ce4bh2p2rcd13ifvqdi0","pricing_plan_id":"cebpf4jnsgd1na2vs0mg"},{"bike_id":"9770ab9d-4be3-4745-8c71-dcc214d5220e","system_id":"levelo_inurba_marseille","lat":43.28854,"lon":5.393265,"is_reserved":false,"is_disabled":false,"rental_uris":{"android":"levelo://app?vid=9770ab9d-4be3-4745-8c71-dcc214d5220e","ios":"levelo://app?vid=9770ab9d-4be3-4745-8c71-dcc214d5220e"},"vehicle_type_id":"4","last_reported":1723482443,"current_range_meters":0,"station_id":"ce4bh2p2rcd13ifvqdi0","pricing_plan_id":"cebpf4jnsgd1na2vs0mg"},{"bike_id":"bc981738-b0c9-41b4-a78c-fc11af86d877","system_id":"levelo_inurba_marseille","lat":43.2937,"lon":5.40053,"is_reserved":false,"is_disabled":false,"rental_uris":{"android":"levelo://app?vid=bc981738-b0c9-41b4-a78c-fc11af86d877","ios":"levelo://app?vid=bc981738-b0c9-41b4-a78c-fc11af86d877"},"vehicle_type_id":"4","last_reported":1723482443,"current_range_meters":0,"station_id":"","pricing_plan_id":"cebpf4jnsgd1na2vs0mg"},{"bike_id":"ec277c36-17c2-4f61-aaa4-1a15d985bc80","system_id":"levelo_inurba_marseille","lat":43.283498,"lon":5.380948,"is_reserved":false,"is_disabled":false,"rental_uris":{"android":"levelo://app?vid=ec277c36-17c2-4f61-aaa4-1a15d985bc80","ios":"levelo://app?vid=ec277c36-17c2-4f61-aaa4-1a15d985bc80"},"vehicle_type_id":"4","last_reported":1723482443,"current_range_meters":18000,"station_id":"ce4bh412rcd13ifvqdr0","pricing_plan_id":"cebpf4jnsgd1na2vs0mg"},{"bike_id":"9418dbe6-2b8d-4b0b-a6c3-620cccd21fe7","system_id":"levelo_inurba_marseille","lat":43.28428,"lon":5.349917,"is_reserved":false,"is_disabled":false,"rental_uris":{"android":"levelo://app?vid=9418dbe6-2b8d-4b0b-a6c3-620cccd21fe7","ios":"levelo://app?vid=9418dbe6-2b8d-4b0b-a6c3-620cccd21fe7"},"vehicle_type_id":"4","last_reported":1723482443,"current_range_meters":11600,"station_id":"ce4bhbh2rcd13ifvqepg","pricing_plan_id":"cebpf4jnsgd1na2vs0mg"},{"bike_id":"6b31ac96-16c3-4e0c-bd94-66a6d272a83e","system_id":"levelo_inurba_marseille","lat":43.284255,"lon":5.34995,"is_reserved":false,"is_disabled":false,"rental_uris":{"android":"levelo://app?vid=6b31ac96-16c3-4e0c-bd94-66a6d272a83e","ios":"levelo://app?vid=6b31ac96-16c3-4e0c-bd94-66a6d272a83e"},"vehicle_type_id":"4","last_reported":1723482443,"current_range_meters":13600,"station_id":"ce4bhbh2rcd13ifvqepg","pricing_plan_id":"cebpf4jnsgd1na2vs0mg"},{"bike_id":"a0d119d7-c451-4bef-a3f2-d4771140221e","system_id":"levelo_inurba_marseille","lat":43.28426,"lon":5.34993,"is_reserved":false,"is_disabled":false,"rental_uris":{"android":"levelo://app?vid=a0d119d7-c451-4bef-a3f2-d4771140221e","ios":"levelo://app?vid=a0d119d7-c451-4bef-a3f2-d4771140221e"},"vehicle_type_id":"4","last_reported":1723482443,"current_range_meters":22800,"station_id":"ce4bhbh2rcd13ifvqepg","pricing_plan_id":"cebpf4jnsgd1na2vs0mg"},{"bike_id":"1a3c8867-d4f1-48c7-adfd-687d14dd9209","system_id":"levelo_inurba_marseille","lat":43.28426,"lon":5.34988,"is_reserved":false,"is_disabled":false,"rental_uris":{"android":"levelo://app?vid=1a3c8867-d4f1-48c7-adfd-687d14dd9209","ios":"levelo://app?vid=1a3c8867-d4f1-48c7-adfd-687d14dd9209"},"vehicle_type_id":"4","last_reported":1723482443,"current_range_meters":31200,"station_id":"ce4bhbh2rcd13ifvqepg","pricing_plan_id":"cebpf4jnsgd1na2vs0mg"},{"bike_id":"c62924b0-5f54-4a9b-8ae3-4e0b7727f806","system_id":"levelo_inurba_marseille","lat":43.28426,"lon":5.34988,"is_reserved":false,"is_disabled":false,"rental_uris":{"android":"levelo://app?vid=c62924b0-5f54-4a9b-8ae3-4e0b7727f806","ios":"levelo://app?vid=c62924b0-5f54-4a9b-8ae3-4e0b7727f806"},"vehicle_type_id":"4","last_reported":1723482443,"current_range_meters":12000,"station_id":"ce4bhbh2rcd13ifvqepg","pricing_plan_id":"cebpf4jnsgd1na2vs0mg"},{"bike_id":"b13eef3c-58fe-418e-8ff5-2aa5c73a69f8","system_id":"levelo_inurba_marseille","lat":43.28423,"lon":5.34997,"is_reserved":false,"is_disabled":false,"rental_uris":{"android":"levelo://app?vid=b13eef3c-58fe-418e-8ff5-2aa5c73a69f8","ios":"levelo://app?vid=b13eef3c-58fe-418e-8ff5-2aa5c73a69f8"},