{"last_updated":1727968137,"ttl":60,"version":"2.2","data":{"bikes":[{"bike_id":"18588757-cdc7-4164-b275-329b63991fa8","system_id":"levelo_inurba_marseille","lat":43.28621,"lon":5.35095,"is_reserved":false,"is_disabled":false,"rental_uris":{"android":"levelo://app?vid=18588757-cdc7-4164-b275-329b63991fa8","ios":"levelo://app?vid=18588757-cdc7-4164-b275-329b63991fa8"},"vehicle_type_id":"4","last_reported":1727968137,"current_range_meters":28800,"station_id":"ce4bhch2rcd13ifvqeug","pricing_plan_id":"cebpf4jnsgd1na2vs0mg"},{"bike_id":"dfa316ed-31fe-4eb7-ae98-3312a562d760","system_id":"levelo_inurba_marseille","lat":43.27183,"lon":5.40989,"is_reserved":false,"is_disabled":false,"rental_uris":{"android":"levelo://app?vid=dfa316ed-31fe-4eb7-ae98-3312a562d760","ios":"levelo://app?vid=dfa316ed-31fe-4eb7-ae98-3312a562d760"},"vehicle_type_id":"4","last_reported":1727968137,"current_range_meters":35200,"station_id":"ce4bhl12rcd13ifvqgf0","pricing_plan_id":"cebpf4jnsgd1na2vs0mg"},{"bike_id":"b01ae42f-95c5-4024-85fa-0e1f16193566","system_id":"levelo_inurba_marseille","lat":43.31106,"lon":5.37775,"is_reserved":false,"is_disabled":false,"rental_uris":{"android":"levelo://app?vid=b01ae42f-95c5-4024-85fa-0e1f16193566","ios":"levelo://app?vid=b01ae42f-95c5-4024-85fa-0e1f16193566"},"vehicle_type_id":"4","last_reported":1727968137,"current_range_meters":31200,"station_id":"ce4bgt92rcd13ifvqcg0","pricing_plan_id":"cebpf4jnsgd1na2vs0mg"},{"bike_id":"756088e4-bd38-4606-aa6f-cbbf1461af00","system_id":"levelo_inurba_marseille","lat":43.22934,"lon":5.35376,"is_reserved":false,"is_disabled":false,"rental_uris":{"android":"levelo://app?vid=756088e4-bd38-4606-aa6f-cbbf1461af00","ios":"levelo://app?vid=756088e4-bd38-4606-aa6f-cbbf1461af00"},"vehicle_type_id":"4","last_reported":1727968137,"current_range_meters":18000,"station_id":"cpo3532slgdg3j2ikp40","pricing_plan_id":"cebpf4jnsgd1na2vs0mg"},{"bike_id":"55284b84-83c5-4b2c-928e-9a74cd123c12","system_id":"levelo_inurba_marseille","lat":43.28076,"lon":5.39651,"is_reserved":false,"is_disabled":false,"rental_uris":{"android":"levelo://app?vid=55284b84-83c5-4b2c-928e-9a74cd123c12","ios":"levelo://app?vid=55284b84-83c5-4b2c-928e-9a74cd123c12"},"vehicle_type_id":"4","last_reported":1727968137,"current_range_meters":39200,"station_id":"ce4bho12rcd13ifvqh2g","pricing_plan_id":"cebpf4jnsgd1na2vs0mg"},{"bike_id":"ff89b7e6-8dbb-4502-ae6b-954b46feae02","system_id":"levelo_inurba_marseille","lat":43.25005,"lon":5.38914,"is_reserved":false,"is_disabled":false,"rental_uris":{"android":"levelo://app?vid=ff89b7e6-8dbb-4502-ae6b-954b46feae02","ios":"levelo://app?vid=ff89b7e6-8dbb-4502-ae6b-954b46feae02"},"vehicle_type_id":"4","last_reported":1727968137,"current_range_meters":36800,"station_id":"ce4bhgp2rcd13ifvqfd0","pricing_plan_id":"cebpf4jnsgd1na2vs0mg"},{"bike_id":"bc41810d-3fc6-4e9c-bcc1-3b1d7bce3ce2","system_id":"levelo_inurba_marseille","lat":43.23183,"lon":5.39979,"is_reserved":false,"is_disabled":false,"rental_uris":{"android":"levelo://app?vid=bc41810d-3fc6-4e9c-bcc1-3b1d7bce3ce2","ios":"levelo://app?vid=bc41810d-3fc6-4e9c-bcc1-3b1d7bce3ce2"},"vehicle_type_id":"4","last_reported":1727968137,"current_range_meters":24000,"station_id":"ce4bhn12rcd13ifvqgqg","pricing_plan_id":"cebpf4jnsgd1na2vs0mg"},{"bike_id":"4b6721b8-1a28-4ce5-a9fa-1b893f7f0ac0","system_id":"levelo_inurba_marseille","lat":43.32475,"lon":5.3656,"is_reserved":false,"is_disabled":false,"rental_uris":{"android":"levelo://app?vid=4b6721b8-1a28-4ce5-a9fa-1b893f7f0ac0","ios":"levelo://app?vid=4b6721b8-1a28-4ce5-a9fa-1b893f7f0ac0"},"vehicle_type_id":"4","last_reported":1727968137,"current_range_meters":38800,"station_id":"ce4bhs12rcd13ifvqhvg","pricing_plan_id":"cebpf4jnsgd1na2vs0mg"},{"bike_id":"60a8ccad-8a0d-4446-868a-1dc51a2a06b0","system_id":"levelo_inurba_marseille","lat":43.29028,"lon":5.38127,"is_reserved":false,"is_disabled":false,"rental_uris":{"android":"levelo://app?vid=60a8ccad-8a0d-4446-868a-1dc51a2a06b0","ios":"levelo://app?vid=60a8ccad-8a0d-4446-868a-1dc51a2a06b0"},"vehicle_type_id":"4","last_reported":1727968137,"current_range_meters":3200,"station_id":"ce4bh4p2rcd13ifvqe1g","pricing_plan_id":"cebpf4jnsgd1na2vs0mg"},{"bike_id":"efe1b3df-66b4-4f24-a660-d395b2595cf2","system_id":"levelo_inurba_marseille","lat":43.24179,"lon":5.39732,"is_reserved":false,"is_disabled":false,"rental_uris":{"android":"levelo://app?vid=efe1b3df-66b4-4f24-a660-d395b2595cf2","ios":"levelo://app?vid=efe1b3df-66b4-4f24-a660-d395b2595cf2"},"vehicle_type_id":"4","last_reported":1727968137,"current_range_meters":20000,"station_id":"ce4bhn12rcd13ifvqgpg","pricing_plan_id":"cebpf4jnsgd1na2vs0mg"},{"bike_id":"8d5bef3c-0301-4499-9ab9-e7a7545093b5","system_id":"levelo_inurba_marseille","lat":43.27807,"lon":5.40711,"is_reserved":false,"is_disabled":false,"rental_uris":{"android":"levelo://app?vid=8d5bef3c-0301-4499-9ab9-e7a7545093b5","ios":"levelo://app?vid=8d5bef3c-0301-4499-9ab9-e7a7545093b5"},"vehicle_type_id":"4","last_reported":1727968137,"current_range_meters":8000,"station_id":"ce4bhnh2rcd13ifvqgtg","pricing_plan_id":"cebpf4jnsgd1na2vs0mg"},{"bike_id":"28958329-8868-4da4-a454-69b94718dcb1","system_id":"levelo_inurba_marseille","lat":43.3078,"lon":5.37646,"is_reserved":false,"is_disabled":false,"rental_uris":{"android":"levelo://app?vid=28958329-8868-4da4-a454-69b94718dcb1","ios":"levelo://app?vid=28958329-8868-4da4-a454-69b94718dcb1"},"vehicle_type_id":"4","last_reported":1727968137,"current_range_meters":38800,"station_id":"ce4bgv92rcd13ifvqcq0","pricing_plan_id":"cebpf4jnsgd1na2vs0mg"},{"bike_id":"7dd9111d-71ef-4ae5-bdea-3c06cca6fa59","system_id":"levelo_inurba_marseille","lat":43.26773,"lon":5.39418,"is_reserved":false,"is_disabled":false,"rental_uris":{"android":"levelo://app?vid=7dd9111d-71ef-4ae5-bdea-3c06cca6fa59","ios":"levelo://app?vid=7dd9111d-71ef-4ae5-bdea-3c06cca6fa59"},"vehicle_type_id":"4","last_reported":1727968137,"current_range_meters":31200,"station_id":"ce4bhh12rcd13ifvqfg0","pricing_plan_id":"cebpf4jnsgd1na2vs0mg"},{"bike_id":"c5fecbe0-5846-476b-9414-9b2f28eb6319","system_id":"levelo_inurba_marseille","lat":43.24651,"lon":5.38893,"is_reserved":false,"is_disabled":false,"rental_uris":{"android":"levelo://app?vid=c5fecbe0-5846-476b-9414-9b2f28eb6319","ios":"levelo://app?vid=c5fecbe0-5846-476b-9414-9b2f28eb6319"},"vehicle_type_id":"4","last_reported":1727968137,"current_range_meters":19600,"station_id":"ce4bhg12rcd13ifvqf60","pricing_plan_id":"cebpf4jnsgd1na2vs0mg"},{"bike_id":"00411a3f-977b-4a5e-a064-0b34d5d1c69d","system_id":"levelo_inurba_marseille","lat":43.25863,"lon":5.39899,"is_reserved":false,"is_disabled":false,"rental_uris":{"android":"levelo://app?vid=00411a3f-977b-4a5e-a064-0b34d5d1c69d","ios":"levelo://app?vid=00411a3f-977b-4a5e-a064-0b34d5d1c69d"},"vehicle_type_id":"4","last_reported":1727968137,"current_range_meters":32000,"station_id":"ce4bhl92rcd13ifvqghg","pricing_plan_id":"cebpf4jnsgd1na2vs0mg"},{"bike_id":"0d85dad1-cd4b-43e6-bec7-f20cb70cbe4f","system_id":"levelo_inurba_marseille","lat":43.25578,"lon":5.38237,"is_reserved":false,"is_disabled":false,"rental_uris":{"android":"levelo://app?vid=0d85dad1-cd4b-43e6-bec7-f20cb70cbe4f","ios":"levelo://app?vid=0d85dad1-cd4b-43e6-bec7-f20cb70cbe4f"},"vehicle_type_id":"4","last_reported":1727968137,"current_range_meters":20000,"station_id":"ce4bhih2rcd13ifvqfs0","pricing_plan_id":"cebpf4jnsgd1na2vs0mg"},{"bike_id":"89f432c5-7161-4a6b-9029-4b77b3dc64b5","system_id":"levelo_inurba_marseille","lat":43.25716,"lon":5.41115,"is_reserved":false,"is_disabled":false,"rental_uris":{"android":"levelo://app?vid=89f432c5-7161-4a6b-9029-4b77b3dc64b5","ios":"levelo://app?vid=89f432c5-7161-4a6b-9029-4b77b3dc64b5"},"vehicle_type_id":"4","last_reported":1727968137,"current_range_meters":4000,"station_id":"ce4bhkp2rcd13ifvqgd0","pricing_plan_id":"cebpf4jnsgd1na2vs0mg"},{"bike_id":"97c413f0-0499-425d-bfab-2f45162826bf","system_id":"levelo_inurba_marseille","lat":43.25495,"lon":5.3765,"is_reserved":false,"is_disabled":false,"rental_uris":{"android":"levelo://app?vid=97c413f0-0499-425d-bfab-2f45162826bf","ios":"levelo://app?vid=97c413f0-0499-425d-bfab-2f45162826bf"},"vehicle_type_id":"4","last_reported":1727968137,"current_range_meters":35600,"station_id":"ce4bhh12rcd13ifvqff0","pricing_plan_id":"cebpf4jnsgd1na2vs0mg"},{"bike_id":"643f735f-8804-407d-980f-efe2e086117a","system_id":"levelo_inurba_marseille","lat":43.28453,"lon":5.3589,"is_reserved":false,"is_disabled":false,"rental_uris":{"android":"levelo://app?vid=643f735f-8804-407d-980f-efe2e086117a","ios":"levelo://app?vid=643f735f-8804-407d-980f-efe2e086117a"},"vehicle_type_id":"4","last_reported":1727968137,"current_range_meters":24800,"station_id":"ce4bhah2rcd13ifvqei0","pricing_plan_id":"cebpf4jnsgd1na2vs0mg"},{"bike_id":"348571c2-5d32-4f15-9980-7c837c202b3f","system_id":"levelo_inurba_marseille","lat":43.24641,"lon":5.38904,"is_reserved":false,"is_disabled":false,"rental_uris":{"android":"levelo://app?vid=348571c2-5d32-4f15-9980-7c837c202b3f","ios":"levelo://app?vid=348571c2-5d32-4f15-9980-7c837c202b3f"},"vehicle_type_id":"4","last_reported":1727968137,"current_range_meters":35600,"station_id":"ce4bhg12rcd13ifvqf60","pricing_plan_id":"cebpf4jnsgd1na2vs0mg"},{"bike_id":"b8f978ab-e6c1-4b47-9ec7-8dc1deeba180","system_id":"levelo_inurba_marseille","lat":43.31272,"lon":5.40166,"is_reserved":false,"is_disabled":false,"rental_uris":{"android":"levelo://app?vid=b8f978ab-e6c1-4b47-9ec7-8dc1deeba180","ios":"levelo://app?vid=b8f978ab-e6c1-4b47-9ec7-8dc1deeba180"},"vehicle_type_id":"4","last_reported":1727968137,"current_range_meters":14400,"station_id":"ce4bh092rcd13ifvqd30","pricing_plan_id":"cebpf4jnsgd1na2vs0mg"},{"bike_id":"7930dd3d-cde3-4cc2-bb90-1652e03e1c5f","system_id":"levelo_inurba_marseille","lat":43.31352,"lon":5.385,"is_reserved":false,"is_disabled":false,"rental_uris":{"android":"levelo://app?vid=7930dd3d-cde3-4cc2-bb90-1652e03e1c5f","ios":"levelo://app?vid=7930dd3d-cde3-4cc2-bb90-1652e03e1c5f"},"vehicle_type_id":"4","last_reported":1727968137,"current_range_meters":28000,"station_id":"ce4bgt92rcd13ifvqcf0","pricing_plan_id":"cebpf4jnsgd1na2vs0mg"},{"bike_id":"37b140a2-92a7-49a4-ad98-e81fefefab2b","system_id":"levelo_inurba_marseille","lat":43.25113,"lon":5.40324,"is_reserved":false,"is_disabled":false,"rental_uris":{"android":"levelo://app?vid=37b140a2-92a7-49a4-ad98-e81fefefab2b","ios":"levelo://app?vid=37b140a2-92a7-49a4-ad98-e81fefefab2b"},"vehicle_type_id":"4","last_reported":1727968137,"current_range_meters":21600,"station_id":"ce4bhlh2rcd13ifvqgig","pricing_plan_id":"cebpf4jnsgd1na2vs0mg"},{"bike_id":"fcb03e6a-f0bb-40ff-8005-e9a59f130826","system_id":"levelo_inurba_marseille","lat":43.28461,"lon":5.35879,"is_reserved":false,"is_disabled":false,"rental_uris":{"android":"levelo://app?vid=fcb03e6a-f0bb-40ff-8005-e9a59f130826","ios":"levelo://app?vid=fcb03e6a-f0bb-40ff-8005-e9a59f130826"},"vehicle_type_id":"4","last_reported":1727968137,"current_range_meters":19200,"station_id":"ce4bhah2rcd13ifvqei0","pricing_plan_id":"cebpf4jnsgd1na2vs0mg"},{"bike_id":"56287f66-1668-4a5d-b3e1-733e18339fb8","system_id":"levelo_inurba_marseille","lat":43.32365,"lon":5.38884,"is_reserved":false,"is_disabled":false,"rental_uris":{"android":"levelo://app?vid=56287f66-1668-4a5d-b3e1-733e18339fb8","ios":"levelo://app?vid=56287f66-1668-4a5d-b3e1-733e18339fb8"},"vehicle_type_id":"4","last_reported":1727968137,"current_range_meters":29600,"station_id":"ce4bhqp2rcd13ifvqhog","pricing_plan_id":"cebpf4jnsgd1na2vs0mg"},{"bike_id":"b73551f1-4737-42f3-8efd-5f2fca843848","system_id":"levelo_inurba_marseille","lat":43.29893,"lon":5.43671,"is_reserved":false,"is_disabled":false,"rental_uris":{"android":"levelo://app?vid=b73551f1-4737-42f3-8efd-5f2fca843848","ios":"levelo://app?vid=b73551f1-4737-42f3-8efd-5f2fca843848"},"vehicle_type_id":"4","last_reported":1727968137,"current_range_meters":22000,"station_id":"ce4bhpp2rcd13ifvqhfg","pricing_plan_id":"cebpf4jnsgd1na2vs0mg"},{"bike_id":"dadfb47d-4dea-4f42-bacc-8c350a15e8ac","system_id":"levelo_inurba_marseille","lat":43.26198,"lon":5.37459,"is_reserved":false,"is_disabled":false,"rental_uris":{"android":"levelo://app?vid=dadfb47d-4dea-4f42-bacc-8c350a15e8ac","ios":"levelo://app?vid=dadfb47d-4dea-4f42-bacc-8c350a15e8ac"},"vehicle_type_id":"4","last_reported":1727968137,"current_range_meters":10000,"station_id":"ce4bhgp2rcd13ifvqfc0","pricing_plan_id":"cebpf4jnsgd1na2vs0mg"},{"bike_id":"0ab90f6d-4412-499d-b748-1cb0f53cdaab","system_id":"levelo_inurba_marseille","lat":43.25086,"lon":5.39522,"is_reserved":false,"is_disabled":false,"rental_uris":{"android":"levelo://app?vid=0ab90f6d-4412-499d-b748-1cb0f53cdaab","ios":"levelo://app?vid=0ab90f6d-4412-499d-b748-1cb0f53cdaab"},"vehicle_type_id":"4","last_reported":1727968137,"current_range_meters":31200,"station_id":"ce4bhm12rcd13ifvqgkg","pricing_plan_id":"cebpf4jnsgd1na2vs0mg"},{"bike_id":"a0feab16-2f1f-4214-9058-21d8b9b7774f","system_id":"levelo_inurba_marseille","lat":43.27994,"lon":5.4096,"is_reserved":false,"is_disabled":false,"rental_uris":{"android":"levelo://app?vid=a0feab16-2f1f-4214-9058-21d8b9b7774f","ios":"levelo://app?vid=a0feab16-2f1f-4214-9058-21d8b9b7774f"},"vehicle_type_id":"4","last_reported":1727968137,"current_range_meters":15200,"station_id":"","pricing_plan_id":"cebpf4jnsgd1na2vs0mg"},{"bike_id":"3758dcda-4ff6-43bf-a73a-b1ae6d70b0c8","system_id":"levelo_inurba_marseille","lat":43.31994,"lon":5.38153,"is_reserved":false,"is_disabled":false,"rental_uris":{"android":"levelo://app?vid=3758dcda-4ff6-43bf-a73a-b1ae6d70b0c8","ios":"levelo://app?vid=3758dcda-4ff6-43bf-a73a-b1ae6d70b0c8"},"vehicle_type_id":"4","last_reported":1727968137,"current_range_meters":38800,"station_id":"ce4bhr12rcd13ifvqhpg","pricing_plan_id":"cebpf4jnsgd1na2vs0mg"},{"bike_id":"0d38caac-4e1b-4bc6-8634-fba8549655ca","system_id":"levelo_inurba_marseille","lat":43.32113,"lon":5.36771,"is_reserved":false,"is_disabled":false,"rental_uris":{"android":"levelo://app?vid=0d38caac-4e1b-4bc6-8634-fba8549655ca","ios":"levelo://app?vid=0d38caac-4e1b-4bc6-8634-fba8549655ca"},"vehicle_type_id":"4","last_reported":1727968137,"current_range_meters":36400,"station_id":"ce4bhrh2rcd13ifvqhug","pricing_plan_id":"cebpf4jnsgd1na2vs0mg"},{"bike_id":"133464c2-43c3-4b45-a7a1-f966a6c79f4e","system_id":"levelo_inurba_marseille","lat":43.2466,"lon":5.38165,"is_reserved":false,"is_disabled":false,"rental_uris":{"android":"levelo://app?vid=133464c2-43c3-4b45-a7a1-f966a6c79f4e","ios":"levelo://app?vid=133464c2-43c3-4b45-a7a1-f966a6c79f4e"},"vehicle_type_id":"4","last_reported":1727968137,"current_range_meters":10000,"station_id":"ce4bhih2rcd13ifvqfr0","pricing_plan_id":"cebpf4jnsgd1na2vs0mg"},{"bike_id":"a426f48e-817c-45c0-bbba-2fbea1347f7c","system_id":"levelo_inurba_marseille","lat":43.27808,"lon":5.40711,"is_reserved":false,"is_disabled":false,"rental_uris":{"android":"levelo://app?vid=a426f48e-817c-45c0-bbba-2fbea1347f7c","ios":"levelo://app?vid=a426f48e-817c-45c0-bbba-2fbea1347f7c"},"vehicle_type_id":"4","last_reported":1727968137,"current_range_meters":38800,"station_id":"ce4bhnh2rcd13ifvqgtg","pricing_plan_id":"cebpf4jnsgd1na2vs0mg"},{"bike_id":"c1bc0415-1c8c-4b6c-8bef-eace0ace38e9","system_id":"levelo_inurba_marseille","lat":43.29788,"lon":5.38091,"is_reserved":false,"is_disabled":false,"rental_uris":{"android":"levelo://app?vid=c1bc0415-1c8c-4b6c-8bef-eace0ace38e9","ios":"levelo://app?vid=c1bc0415-1c8c-4b6c-8bef-eace0ace38e9"},"vehicle_type_id":"4","last_reported":1727968137,"current_range_meters":38800,"station_id":"ce4bgip2rcd13ifvqbb0","pricing_plan_id":"cebpf4jnsgd1na2vs0mg"},{"bike_id":"d9d3e382-5784-429c-8f1c-5aa1b7366303","system_id":"levelo_inurba_marseille","lat":43.30183,"lon":5.3662,"is_reserved":false,"is_disabled":false,"rental_uris":{"android":"levelo://app?vid=d9d3e382-5784-429c-8f1c-5aa1b7366303","ios":"levelo://app?vid=d9d3e382-5784-429c-8f1c-5aa1b7366303"},"vehicle_type_id":"4","last_reported":1727968137,"current_range_meters":16800,"station_id":"ce4bgrh2rcd13ifvqc8g","pricing_plan_id":"cebpf4jnsgd1na2vs0mg"},{"bike_id":"a8bf1dfd-f673-4ec9-a8db-7491ddf9e2dc","system_id":"levelo_inurba_marseille","lat":43.2794,"lon":5.41042,"is_reserved":false,"is_disabled":false,"rental_uris":{"android":"levelo://app?vid=a8bf1dfd-f673-4ec9-a8db-7491ddf9e2dc","ios":"levelo://app?vid=a8bf1dfd-f673-4ec9-a8db-7491ddf9e2dc"},"vehicle_type_id":"4","last_reported":1727968137,"current_range_meters":32000,"station_id":"ce4bhnp2rcd13ifvqh0g","pricing_plan_id":"cebpf4jnsgd1na2vs0mg"},{"bike_id":"aa613776-5e9c-4ec3-96a1-45753c3eee0d","system_id":"levelo_inurba_marseille","lat":43.30201,"lon":5.39474,"is_reserved":false,"is_disabled":false,"rental_uris":{"android":"levelo://app?vid=aa613776-5e9c-4ec3-96a1-45753c3eee0d","ios":"levelo://app?vid=aa613776-5e9c-4ec3-96a1-45753c3eee0d"},"vehicle_type_id":"4","last_reported":1727968137,"current_range_meters":39200,"station_id":"ce4bh0p2rcd13ifvqd70","pricing_plan_id":"cebpf4jnsgd1na2vs0mg"},{"bike_id":"499cb64c-6fb8-4407-89d8-a118e3c5c28d","system_id":"levelo_inurba_marseille","lat":43.27988,"lon":5.40018,"is_reserved":false,"is_disabled":false,"rental_uris":{"android":"levelo://app?vid=499cb64c-6fb8-4407-89d8-a118e3c5c28d","ios":"levelo://app?vid=499cb64c-6fb8-4407-89d8-a118e3c5c28d"},"vehicle_type_id":"4","last_reported":1727968137,"current_range_meters":19600,"station_id":"ce4bho92rcd13ifvqh4g","pricing_plan_id":"cebpf4jnsgd1na2vs0mg"},{"bike_id":"8d6bf164-29e6-4f3f-8dbe-8843b5260193","system_id":"levelo_inurba_marseille","lat":43.31757,"lon":5.39011,"is_reserved":false,"is_disabled":false,"rental_uris":{"android":"levelo://app?vid=8d6bf164-29e6-4f3f-8dbe-8843b5260193","ios":"levelo://app?vid=8d6bf164-29e6-4f3f-8dbe-8843b5260193"},"vehicle_type_id":"4","last_reported":1727968137,"current_range_meters":4400,"station_id":"ce4bhqp2rcd13ifvqhng","pricing_plan_id":"cebpf4jnsgd1na2vs0mg"},{"bike_id":"ad9d6e94-a639-469e-9892-0c7fed511f97","system_id":"levelo_inurba_marseille","lat":43.26554,"lon":5.37287,"is_reserved":false,"is_disabled":false,"rental_uris":{"android":"levelo://app?vid=ad9d6e94-a639-469e-9892-0c7fed511f97","ios":"levelo://app?vid=ad9d6e94-a639-469e-9892-0c7fed511f97"},"vehicle_type_id":"4","last_reported":1727968137,"current_range_meters":20400,"station_id":"ce4bhg12rcd13ifvqf70","pricing_plan_id":"cebpf4jnsgd1na2vs0mg"},{"bike_id":"48ea0961-66bc-4efa-aa39-f02aec2679f4","system_id":"levelo_inurba_marseille","lat":43.325458,"lon":5.414247,"is_reserved":false,"is_disabled":false,"rental_uris":{"android":"levelo://app?vid=48ea0961-66bc-4efa-aa39-f02aec2679f4","ios":"levelo://app?vid=48ea0961-66bc-4efa-aa39-f02aec2679f4"},"vehicle_type_id":"4","last_reported":1727968137,"current_range_meters":36000,"station_id":"ce4bhq12rcd13ifvqhhg","pricing_plan_id":"cebpf4jnsgd1na2vs0mg"},{"bike_id":"3e2daf70-0524-4e71-8de4-0ed4b5df5a53","system_id":"levelo_inurba_marseille","lat":43.25499,"lon":5.37645,"is_reserved":false,"is_disabled":false,"rental_uris":{"android":"levelo://app?vid=3e2daf70-0524-4e71-8de4-0ed4b5df5a53","ios":"levelo://app?vid=3e2daf70-0524-4e71-8de4-0ed4b5df5a53"},"vehicle_type_id":"4","last_reported":1727968137,"current_range_meters":22800,"station_id":"ce4bhh12rcd13ifvqff0","pricing_plan_id":"cebpf4jnsgd1na2vs0mg"},{"bike_id":"76f567d4-1967-4cea-af8b-fd617ffaec8d","system_id":"levelo_inurba_marseille","lat":43.282776,"lon":5.35068,"is_reserved":false,"is_disabled":false,"rental_uris":{"android":"levelo://app?vid=76f567d4-1967-4cea-af8b-fd617ffaec8d","ios":"levelo://app?vid=76f567d4-1967-4cea-af8b-fd617ffaec8d"},"vehicle_type_id":"4","last_reported":1727968137,"current_range_meters":27200,"station_id":"ce4bhbp2rcd13ifvqerg","pricing_plan_id":"cebpf4jnsgd1na2vs0mg"},{"bike_id":"34f592f1-50de-43ec-8f45-60c7b8e4911f","system_id":"levelo_inurba_marseille","lat":43.27372,"lon":5.36249,"is_reserved":false,"is_disabled":false,"rental_uris":{"android":"levelo://app?vid=34f592f1-50de-43ec-8f45-60c7b8e4911f","ios":"levelo://app?vid=34f592f1-50de-43ec-8f45-60c7b8e4911f"},"vehicle_type_id":"4","last_reported":1727968137,"current_range_meters":34000,"station_id":"ce4bhbh2rcd13ifvqeo0","pricing_plan_id":"cebpf4jnsgd1na2vs0mg"},{"bike_id":"7bfb5721-baf3-4893-bbf9-7c8112a113a1","system_id":"levelo_inurba_marseille","lat":43.27985,"lon":5.40014,"is_reserved":false,"is_disabled":false,"rental_uris":{"android":"levelo://app?vid=7bfb5721-baf3-4893-bbf9-7c8112a113a1","ios":"levelo://app?vid=7bfb5721-baf3-4893-bbf9-7c8112a113a1"},"vehicle_type_id":"4","last_reported":1727968137,"current_range_meters":33600,"station_id":"ce4bho92rcd13ifvqh4g","pricing_plan_id":"cebpf4jnsgd1na2vs0mg"},{"bike_id":"d7fdf571-837e-4938-b69c-761cf715f760","system_id":"levelo_inurba_marseille","lat":43.32543,"lon":5.4144,"is_reserved":false,"is_disabled":false,"rental_uris":{"android":"levelo://app?vid=d7fdf571-837e-4938-b69c-761cf715f760","ios":"levelo://app?vid=d7fdf571-837e-4938-b69c-761cf715f760"},"vehicle_type_id":"4","last_reported":1727968137,"current_range_meters":38800,"station_id":"ce4bhq12rcd13ifvqhhg","pricing_plan_id":"cebpf4jnsgd1na2vs0mg"},{"bike_id":"62323952-57c8-4ad6-b36c-8b3545db8986","system_id":"levelo_inurba_marseille","lat":43.29298,"lon":5.3717,"is_reserved":false,"is_disabled":false,"rental_uris":{"android":"levelo://app?vid=62323952-57c8-4ad6-b36c-8b3545db8986","ios":"levelo://app?vid=62323952-57c8-4ad6-b36c-8b3545db8986"},"vehicle_type_id":"4","last_reported":1727968137,"current_range_meters":38000,"station_id":"ce4bgh92rcd13ifvqb40","pricing_plan_id":"cebpf4jnsgd1na2vs0mg"},{"bike_id":"9317e60c-2ad6-43fc-b670-89ba278c0139","system_id":"levelo_inurba_marseille","lat":43.28982,"lon":5.3783,"is_reserved":false,"is_disabled":false,"rental_uris":{"android":"levelo://app?vid=9317e60c-2ad6-43fc-b670-89ba278c0139","ios":"levelo://app?vid=9317e60c-2ad6-43fc-b670-89ba278c0139"},"vehicle_type_id":"4","last_reported":1727968137,"current_range_meters":18800,"station_id":"ce4bh9p2rcd13ifvqed0","pricing_plan_id":"cebpf4jnsgd1na2vs0mg"},{"bike_id":"817c9a23-cf0f-4867-8488-477e32c13792","system_id":"levelo_inurba_marseille","lat":43.24667,"lon":5.38164,"is_reserved":false,"is_disabled":false,"rental_uris":{"android":"levelo://app?vid=817c9a23-cf0f-4867-8488-477e32c13792","ios":"levelo://app?vid=817c9a23-cf0f-4867-8488-477e32c13792"},"vehicle_type_id":"4","last_reported":1727968137,"current_range_meters":26000,"station_id":"ce4bhih2rcd13ifvqfr0","pricing_plan_id":"cebpf4jnsgd1na2vs0mg"},{"bike_id":"e4a7a264-1c2a-4ab7-a671-cf103ef7bfd5","system_id":"levelo_inurba_marseille","lat":43.29527,"lon":5.38545,"is_reserved":false,"is_disabled":false,"rental_uris":{"android":"levelo://app?vid=e4a7a264-1c2a-4ab7-a671-cf103ef7bfd5","ios":"levelo://app?vid=e4a7a264-1c2a-4ab7-a671-cf103ef7bfd5"},"vehicle_type_id":"4","last_reported":1727968137,"current_range_meters":8800,"station_id":"ce4bgih2rcd13ifvqba0","pricing_plan_id":"cebpf4jnsgd1na2vs0mg"},{"bike_id":"4d7b92bd-fb4a-4851-9d74-ec38fbbbdb1b","system_id":"levelo_inurba_marseille","lat":43.337444,"lon":5.374475,"is_reserved":false,"is_disabled":false,"rental_uris":{"android":"levelo://app?vid=4d7b92bd-fb4a-4851-9d74-ec38fbbbdb1b","ios":"levelo://app?vid=4d7b92bd-fb4a-4851-9d74-ec38fbbbdb1b"},"vehicle_type_id":"4","last_reported":1727968137,"current_range_meters":36000,"station_id":"","pricing_plan_id":"cebpf4jnsgd1na2vs0mg"},{"bike_id":"dc972874-4297-4af0-8716-41505e4ef91d","system_id":"levelo_inurba_marseille","lat":43.32479,"lon":5.36554,"is_reserved":false,"is_disabled":false,"rental_uris":{"android":"levelo://app?vid=dc972874-4297-4af0-8716-41505e4ef91d","ios":"levelo://app?vid=dc972874-4297-4af0-8716-41505e4ef91d"},"vehicle_type_id":"4","last_reported":1727968137,"current_range_meters":27600,"station_id":"ce4bhs12rcd13ifvqhvg","pricing_plan_id":"cebpf4jnsgd1na2vs0mg"},{"bike_id":"48d03c70-6c29-4934-aef5-2d85d0b2b09d","system_id":"levelo_inurba_marseille","lat":43.23063,"lon":5.3549,"is_reserved":false,"is_disabled":false,"rental_uris":{"android":"levelo://app?vid=48d03c70-6c29-4934-aef5-2d85d0b2b09d","ios":"levelo://app?vid=48d03c70-6c29-4934-aef5-2d85d0b2b09d"},"vehicle_type_id":"4","last_reported":1727968137,"current_range_meters":21600,"station_id":"cpo3342slgdg3j2ifvpg","pricing_plan_id":"cebpf4jnsgd1na2vs0mg"},{"bike_id":"66dd71e3-2734-488b-86dd-9577bd89504e","system_id":"levelo_inurba_marseille","lat":43.29627,"lon":5.40593,"is_reserved":false,"is_disabled":false,"rental_uris":{"android":"levelo://app?vid=66dd71e3-2734-488b-86dd-9577bd89504e","ios":"levelo://app?vid=66dd71e3-2734-488b-86dd-9577bd89504e"},"vehicle_type_id":"4","last_reported":1727968137,"current_range_meters":3600,"station_id":"ce4bh0h2rcd13ifvqd60","pricing_plan_id":"cebpf4jnsgd1na2vs0mg"},{"bike_id":"8403fd36-25cb-41a8-8e6e-b8b92f3346ef","system_id":"levelo_inurba_marseille","lat":43.30317,"lon":5.36892,"is_reserved":false,"is_disabled":false,"rental_uris":{"android":"levelo://app?vid=8403fd36-25cb-41a8-8e6e-b8b92f3346ef","ios":"levelo://app?vid=8403fd36-25cb-41a8-8e6e-b8b92f3346ef"},"vehicle_type_id":"4","last_reported":1727968137,"current_range_meters":30000,"station_id":"ce4bgqh2rcd13ifvqc5g","pricing_plan_id":"cebpf4jnsgd1na2vs0mg"},{"bike_id":"7601070d-d811-48a7-9691-9d1b5ec3619e","system_id":"levelo_inurba_marseille","lat":43.22932,"lon":5.35374,"is_reserved":false,"is_disabled":false,"rental_uris":{"android":"levelo://app?vid=7601070d-d811-48a7-9691-9d1b5ec3619e","ios":"levelo://app?vid=7601070d-d811-48a7-9691-9d1b5ec3619e"},"vehicle_type_id":"4","last_reported":1727968137,"current_range_meters":19200,"station_id":"cpo3532slgdg3j2ikp40","pricing_plan_id":"cebpf4jnsgd1na2vs0mg"},{"bike_id":"d7db08aa-cc45-4ef8-ac0c-cd2100497c50","system_id":"levelo_inurba_marseille","lat":43.25494,"lon":5.37647,"is_reserved":false,"is_disabled":false,"rental_uris":{"android":"levelo://app?vid=d7db08aa-cc45-4ef8-ac0c-cd2100497c50","ios":"levelo://app?vid=d7db08aa-cc45-4ef8-ac0c-cd2100497c50"},"vehicle_type_id":"4","last_reported":1727968137,"current_range_meters":23200,"station_id":"ce4bhh12rcd13ifvqff0","pricing_plan_id":"cebpf4jnsgd1na2vs0mg"},{"bike_id":"5072baee-2dd6-4744-899e-2ba9dfcb872d","system_id":"levelo_inurba_marseille","lat":43.301108,"lon":5.391318,"is_reserved":false,"is_disabled":false,"rental_uris":{"android":"levelo://app?vid=5072baee-2dd6-4744-899e-2ba9dfcb872d","ios":"levelo://app?vid=5072baee-2dd6-4744-899e-2ba9dfcb872d"},"vehicle_type_id":"4","last_reported":1727968137,"current_range_meters":25600,"station_id":"ce4bh192rcd13ifvqdb0","pricing_plan_id":"cebpf4jnsgd1na2vs0mg"},{"bike_id":"d29d17e6-ff99-4080-aacb-01580bfe085b","system_id":"levelo_inurba_marseille","lat":43.278137,"lon":5.407252,"is_reserved":false,"is_disabled":false,"rental_uris":{"android":"levelo://app?vid=d29d17e6-ff99-4080-aacb-01580bfe085b","ios":"levelo://app?vid=d29d17e6-ff99-4080-aacb-01580bfe085b"},"vehicle_type_id":"4","last_reported":1727968137,"current_range_meters":12800,"station_id":"ce4bhnh2rcd13ifvqgtg","pricing_plan_id":"cebpf4jnsgd1na2vs0mg"},{"bike_id":"7d28508b-4b61-4de3-9ed4-a95896183e3c","system_id":"levelo_inurba_marseille","lat":43.2991,"lon":5.38114,"is_reserved":false,"is_disabled":false,"rental_uris":{"android":"levelo://app?vid=7d28508b-4b61-4de3-9ed4-a95896183e3c","ios":"levelo://app?vid=7d28508b-4b61-4de3-9ed4-a95896183e3c"},"vehicle_type_id":"4","last_reported":1727968137,"current_range_meters":4800,"station_id":"ce4bgj12rcd13ifvqbc0","pricing_plan_id":"cebpf4jnsgd1na2vs0mg"},{"bike_id":"74877eaa-458e-4fa3-8fdb-c0cb6076638b","system_id":"levelo_inurba_marseille","lat":43.27367,"lon":5.36253,"is_reserved":false,"is_disabled":false,"rental_uris":{"android":"levelo://app?vid=74877eaa-458e-4fa3-8fdb-c0cb6076638b","ios":"levelo://app?vid=74877eaa-458e-4fa3-8fdb-c0cb6076638b"},"vehicle_type_id":"4","last_reported":1727968137,"current_range_meters":20800,"station_id":"ce4bhbh2rcd13ifvqeo0","pricing_plan_id":"cebpf4jnsgd1na2vs0mg"},{"bike_id":"1c21e555-363c-49ea-97da-5c6e5f3cb6ff","system_id":"levelo_inurba_marseille","lat":43.23971,"lon":5.36629,"is_reserved":false,"is_disabled":false,"rental_uris":{"android":"levelo://app?vid=1c21e555-363c-49ea-97da-5c6e5f3cb6ff","ios":"levelo://app?vid=1c21e555-363c-49ea-97da-5c6e5f3cb6ff"},"vehicle_type_id":"4","last_reported":1727968137,"current_range_meters":16400,"station_id":"ce4bhi12rcd13ifvqfp0","pricing_plan_id":"cebpf4jnsgd1na2vs0mg"},{"bike_id":"fd872ba7-9877-4e67-9269-d8995abba644","system_id":"levelo_inurba_marseille","lat":43.22935,"lon":5.35375,"is_reserved":false,"is_disabled":false,"rental_uris":{"android":"levelo://app?vid=fd872ba7-9877-4e67-9269-d8995abba644","ios":"levelo://app?vid=fd872ba7-9877-4e67-9269-d8995abba644"},"vehicle_type_id":"4","last_reported":1727968137,"current_range_meters":24800,"station_id":"cpo3532slgdg3j2ikp40","pricing_plan_id":"cebpf4jnsgd1na2vs0mg"},{"bike_id":"23f160de-c956-4d0f-a8e6-5f1c37b5c8ed","system_id":"levelo_inurba_marseille","lat":43.29279,"lon":5.40115,"is_reserved":false,"is_disabled":false,"rental_uris":{"android":"levelo://app?vid=23f160de-c956-4d0f-a8e6-5f1c37b5c8ed","ios":"levelo://app?vid=23f160de-c956-4d0f-a8e6-5f1c37b5c8ed"},"vehicle_type_id":"4","last_reported":1727968137,"current_range_meters":8000,"station_id":"ce4bh312rcd13ifvqdk0","pricing_plan_id":"cebpf4jnsgd1na2vs0mg"},{"bike_id":"2e69c441-4648-42d3-9932-b5c7ffc57eba","system_id":"levelo_inurba_marseille","lat":43.27839,"lon":5.39211,"is_reserved":false,"is_disabled":false,"rental_uris":{"android":"levelo://app?vid=2e69c441-4648-42d3-9932-b5c7ffc57eba","ios":"levelo://app?vid=2e69c441-4648-42d3-9932-b5c7ffc57eba"},"vehicle_type_id":"4","last_reported":1727968137,"current_range_meters":34000,"station_id":"ce4bhjp2rcd13ifvqga0","pricing_plan_id":"cebpf4jnsgd1na2vs0mg"},{"bike_id":"d607576f-d2ad-40a5-a7bd-d511c1de9e90","system_id":"levelo_inurba_marseille","lat":43.29775,"lon":5.37108,"is_reserved":false,"is_disabled":false,"rental_uris":{"android":"levelo://app?vid=d607576f-d2ad-40a5-a7bd-d511c1de9e90","ios":"levelo://app?vid=d607576f-d2ad-40a5-a7bd-d511c1de9e90"},"vehicle_type_id":"4","last_reported":1727968137,"current_range_meters":8400,"station_id":"ce4bgop2rcd13ifvqc1g","pricing_plan_id":"cebpf4jnsgd1na2vs0mg"},{"bike_id":"812c5ad5-7480-400d-8aa8-4d4f6db76526","system_id":"levelo_inurba_marseille","lat":43.28664,"lon":5.36344,"is_reserved":false,"is_disabled":false,"rental_uris":{"android":"levelo://app?vid=812c5ad5-7480-400d-8aa8-4d4f6db76526","ios":"levelo://app?vid=812c5ad5-7480-400d-8aa8-4d4f6db76526"},"vehicle_type_id":"4","last_reported":1727968137,"current_range_meters":19200,"station_id":"ce4bhah2rcd13ifvqej0","pricing_plan_id":"cebpf4jnsgd1na2vs0mg"},{"bike_id":"cb69d8d2-0eb2-4f6a-bef2-7c5657ef91a4","system_id":"levelo_inurba_marseille","lat":43.24658,"lon":5.38167,"is_reserved":false,"is_disabled":false,"rental_uris":{"android":"levelo://app?vid=cb69d8d2-0eb2-4f6a-bef2-7c5657ef91a4","ios":"levelo://app?vid=cb69d8d2-0eb2-4f6a-bef2-7c5657ef91a4"},"vehicle_type_id":"4","last_reported":1727968137,"current_range_meters":22400,"station_id":"ce4bhih2rcd13ifvqfr0","pricing_plan_id":"cebpf4jnsgd1na2vs0mg"},{"bike_id":"8b3c50f3-8b90-4fdf-925b-419cef19e8bf","system_id":"levelo_inurba_marseille","lat":43.26934,"lon":5.40251,"is_reserved":false,"is_disabled":false,"rental_uris":{"android":"levelo://app?vid=8b3c50f3-8b90-4fdf-925b-419cef19e8bf","ios":"levelo://app?vid=8b3c50f3-8b90-4fdf-925b-419cef19e8bf"},"vehicle_type_id":"4","last_reported":1727968137,"current_range_meters":10800,"station_id":"cjm6bp8fraef2m0cb0m0","pricing_plan_id":"cebpf4jnsgd1na2vs0mg"},{"bike_id":"49875482-9d14-425b-a176-02c2f169e98e","system_id":"levelo_inurba_marseille","lat":43.28691,"lon":5.39983,"is_reserved":false,"is_disabled":false,"rental_uris":{"android":"levelo://app?vid=49875482-9d14-425b-a176-02c2f169e98e","ios":"levelo://app?vid=49875482-9d14-425b-a176-02c2f169e98e"},"vehicle_type_id":"4","last_reported":1727968137,"current_range_meters":800,"station_id":"ce4bho92rcd13ifvqh3g","pricing_plan_id":"cebpf4jnsgd1na2vs0mg"},{"bike_id":"6d0d276e-84f5-4be9-866f-014221c64725","system_id":"levelo_inurba_marseille","lat":43.29554,"lon":5.42288,"is_reserved":false,"is_disabled":false,"rental_uris":{"android":"levelo://app?vid=6d0d276e-84f5-4be9-866f-014221c64725","ios":"levelo://app?vid=6d0d276e-84f5-4be9-866f-014221c64725"},"vehicle_type_id":"4","last_reported":1727968137,"current_range_meters":38000,"station_id":"ce4bhph2rcd13ifvqhdg","pricing_plan_id":"cebpf4jnsgd1na2vs0mg"},{"bike_id":"a7e3d66a-6c42-4232-917c-31610116f8ad","system_id":"levelo_inurba_marseille","lat":43.29527,"lon":5.38547,"is_reserved":false,"is_disabled":false,"rental_uris":{"android":"levelo://app?vid=a7e3d66a-6c42-4232-917c-31610116f8ad","ios":"levelo://app?vid=a7e3d66a-6c42-4232-917c-31610116f8ad"},"vehicle_type_id":"4","last_reported":1727968137,"current_range_meters":9200,"station_id":"ce4bgih2rcd13ifvqba0","pricing_plan_id":"cebpf4jnsgd1na2vs0mg"},{"bike_id":"0f53c290-ccde-436e-93da-5e6799c490b6","system_id":"levelo_inurba_marseille","lat":43.31755,"lon":5.39022,"is_reserved":false,"is_disabled":false,"rental_uris":{"android":"levelo://app?vid=0f53c290-ccde-436e-93da-5e6799c490b6","ios":"levelo://app?vid=0f53c290-ccde-436e-93da-5e6799c490b6"},"vehicle_type_id":"4","last_reported":1727968137,"current_range_meters":16800,"station_id":"ce4bhqp2rcd13ifvqhng","pricing_plan_id":"cebpf4jnsgd1na2vs0mg"},{"bike_id":"4d1ce5f0-c216-43de-a0a8-4641f529cc40","system_id":"levelo_inurba_marseille","lat":43.30936,"lon":5.40144,"is_reserved":false,"is_disabled":false,"rental_uris":{"android":"levelo://app?vid=4d1ce5f0-c216-43de-a0a8-4641f529cc40","ios":"levelo://app?vid=4d1ce5f0-c216-43de-a0a8-4641f529cc40"},"vehicle_type_id":"4","last_reported":1727968137,"current_range_meters":30000,"station_id":"ce4bgvp2rcd13ifvqct0","pricing_plan_id":"cebpf4jnsgd1na2vs0mg"},{"bike_id":"2b58fe52-cecf-4d77-847f-b40d2ae6cb7d","system_id":"levelo_inurba_marseille","lat":43.31358,"lon":5.36714,"is_reserved":false,"is_disabled":false,"rental_uris":{"android":"levelo://app?vid=2b58fe52-cecf-4d77-847f-b40d2ae6cb7d","ios":"levelo://app?vid=2b58fe52-cecf-4d77-847f-b40d2ae6cb7d"},"vehicle_type_id":"4","last_reported":1727968137,"current_range_meters":4000,"station_id":"ce4bgr92rcd13ifvqc6g","pricing_plan_id":"cebpf4jnsgd1na2vs0mg"},{"bike_id":"efcf964a-28ef-4eae-9342-3b86cfe57d18","system_id":"levelo_inurba_marseille","lat":43.31222,"lon":5.3685,"is_reserved":false,"is_disabled":false,"rental_uris":{"android":"levelo://app?vid=efcf964a-28ef-4eae-9342-3b86cfe57d18","ios":"levelo://app?vid=efcf964a-28ef-4eae-9342-3b86cfe57d18"},"vehicle_type_id":"4","last_reported":1727968137,"current_range_meters":36800,"station_id":"ce4bgl92rcd13ifvqbq0","pricing_plan_id":"cebpf4jnsgd1na2vs0mg"},{"bike_id":"a09db98e-1d2e-4775-ae65-92f0f8ca2f2a","system_id":"levelo_inurba_marseille","lat":43.32335,"lon":5.40623,"is_reserved":false,"is_disabled":false,"rental_uris":{"android":"levelo://app?vid=a09db98e-1d2e-4775-ae65-92f0f8ca2f2a","ios":"levelo://app?vid=a09db98e-1d2e-4775-ae65-92f0f8ca2f2a"},"vehicle_type_id":"4","last_reported":1727968137,"current_range_meters":20000,"station_id":"ce4bhq92rcd13ifvqhjg","pricing_plan_id":"cebpf4jnsgd1na2vs0mg"},{"bike_id":"92b5c022-a316-4370-85f1-cd9056a17cee","system_id":"levelo_inurba_marseille","lat":43.29859,"lon":5.39735,"is_reserved":false,"is_disabled":false,"rental_uris":{"android":"levelo://app?vid=92b5c022-a316-4370-85f1-cd9056a17cee","ios":"levelo://app?vid=92b5c022-a316-4370-85f1-cd9056a17cee"},"vehicle_type_id":"4","last_reported":1727968137,"current_range_meters":16800,"station_id":"ce4bh0h2rcd13ifvqd50","pricing_plan_id":"cebpf4jnsgd1na2vs0mg"},{"bike_id":"6216069b-2786-451f-9334-1b3561804332","system_id":"levelo_inurba_marseille","lat":43.30928,"lon":5.40145,"is_reserved":false,"is_disabled":false,"rental_uris":{"android":"levelo://app?vid=6216069b-2786-451f-9334-1b3561804332","ios":"levelo://app?vid=6216069b-2786-451f-9334-1b3561804332"},"vehicle_type_id":"4","last_reported":1727968137,"current_range_meters":22400,"station_id":"ce4bgvp2rcd13ifvqct0","pricing_plan_id":"cebpf4jnsgd1na2vs0mg"},{"bike_id":"725b5e65-4258-468b-8062-c6d2ccf3734d","system_id":"levelo_inurba_marseille","lat":43.2318,"lon":5.39989,"is_reserved":false,"is_disabled":false,"rental_uris":{"android":"levelo://app?vid=725b5e65-4258-468b-8062-c6d2ccf3734d","ios":"levelo://app?vid=725b5e65-4258-468b-8062-c6d2ccf3734d"},"vehicle_type_id":"4","last_reported":1727968137,"current_range_meters":28400,"station_id":"ce4bhn12rcd13ifvqgqg","pricing_plan_id":"cebpf4jnsgd1na2vs0mg"},{"bike_id":"8be05048-e3d9-495f-b256-5843a165f0a1","system_id":"levelo_inurba_marseille","lat":43.31365,"lon":5.38505,"is_reserved":false,"is_disabled":false,"rental_uris":{"android":"levelo://app?vid=8be05048-e3d9-495f-b256-5843a165f0a1","ios":"levelo://app?vid=8be05048-e3d9-495f-b256-5843a165f0a1"},"vehicle_type_id":"4","last_reported":1727968137,"current_range_meters":38800,"station_id":"ce4bgt92rcd13ifvqcf0","pricing_plan_id":"cebpf4jnsgd1na2vs0mg"},{"bike_id":"f505a6fc-aa5e-497d-b995-51f29911a519","system_id":"levelo_inurba_marseille","lat":43.3054,"lon":5.38437,"is_reserved":false,"is_disabled":false,"rental_uris":{"android":"levelo://app?vid=f505a6fc-aa5e-497d-b995-51f29911a519","ios":"levelo://app?vid=f505a6fc-aa5e-497d-b995-51f29911a519"},"vehicle_type_id":"4","last_reported":1727968137,"current_range_meters":4800,"station_id":"ce4bgg92rcd13ifvqb30","pricing_plan_id":"cebpf4jnsgd1na2vs0mg"},{"bike_id":"e44502b0-d116-4ce4-a193-03a1baab11e0","system_id":"levelo_inurba_marseille","lat":43.30528,"lon":5.38415,"is_reserved":false,"is_disabled":false,"rental_uris":{"android":"levelo://app?vid=e44502b0-d116-4ce4-a193-03a1baab11e0","ios":"levelo://app?vid=e44502b0-d116-4ce4-a193-03a1baab11e0"},"vehicle_type_id":"4","last_reported":1727968137,"current_range_meters":26800,"station_id":"ce4bgg92rcd13ifvqb30","pricing_plan_id":"cebpf4jnsgd1na2vs0mg"},{"bike_id":"53c6fe7a-c5f0-4c29-bdb6-08c6c7db5c71","system_id":"levelo_inurba_marseille","lat":43.32109,"lon":5.36776,"is_reserved":false,"is_disabled":false,"rental_uris":{"android":"levelo://app?vid=53c6fe7a-c5f0-4c29-bdb6-08c6c7db5c71","ios":"levelo://app?vid=53c6fe7a-c5f0-4c29-bdb6-08c6c7db5c71"},"vehicle_type_id":"4","last_reported":1727968137,"current_range_meters":9600,"station_id":"ce4bhrh2rcd13ifvqhug","pricing_plan_id":"cebpf4jnsgd1na2vs0mg"},{"bike_id":"c8aeb9ef-8b83-4e73-b7e1-186ddf654d6d","system_id":"levelo_inurba_marseille","lat":43.30798,"lon":5.38148,"is_reserved":false,"is_disabled":false,"rental_uris":{"android":"levelo://app?vid=c8aeb9ef-8b83-4e73-b7e1-186ddf654d6d","ios":"levelo://app?vid=c8aeb9ef-8b83-4e73-b7e1-186ddf654d6d"},"vehicle_type_id":"4","last_reported":1727968137,"current_range_meters":33200,"station_id":"ce4bgt12rcd13ifvqce0","pricing_plan_id":"cebpf4jnsgd1na2vs0mg"},{"bike_id":"adecef41-35f2-4cc6-9668-ca1ec4e37f32","system_id":"levelo_inurba_marseille","lat":43.26192,"lon":5.37937,"is_reserved":false,"is_disabled":false,"rental_uris":{"android":"levelo://app?vid=adecef41-35f2-4cc6-9668-ca1ec4e37f32","ios":"levelo://app?vid=adecef41-35f2-4cc6-9668-ca1ec4e37f32"},"vehicle_type_id":"4","last_reported":1727968137,"current_range_meters":34800,"station_id":"ce4bhjp2rcd13ifvqg90","pricing_plan_id":"cebpf4jnsgd1na2vs0mg"},{"bike_id":"6ce60676-3f86-4aaa-a5df-572436c32ad4","system_id":"levelo_inurba_marseille","lat":43.23191,"lon":5.35546,"is_reserved":false,"is_disabled":false,"rental_uris":{"android":"levelo://app?vid=6ce60676-3f86-4aaa-a5df-572436c32ad4","ios":"levelo://app?vid=6ce60676-3f86-4aaa-a5df-572436c32ad4"},"vehicle_type_id":"4","last_reported":1727968137,"current_range_meters":19600,"station_id":"ce4bhu92rcd13ifvqi70","pricing_plan_id":"cebpf4jnsgd1na2vs0mg"},{"bike_id":"db529dbd-a157-4db6-ab56-5a5e47145cac","system_id":"levelo_inurba_marseille","lat":43.25502,"lon":5.37646,"is_reserved":false,"is_disabled":false,"rental_uris":{"android":"levelo://app?vid=db529dbd-a157-4db6-ab56-5a5e47145cac","ios":"levelo://app?vid=db529dbd-a157-4db6-ab56-5a5e47145cac"},"vehicle_type_id":"4","last_reported":1727968137,"current_range_meters":38800,"station_id":"ce4bhh12rcd13ifvqff0","pricing_plan_id":"cebpf4jnsgd1na2vs0mg"},{"bike_id":"dee6229e-26d0-4d7e-9236-92ea7c2f2755","system_id":"levelo_inurba_marseille","lat":43.29624,"lon":5.37152,"is_reserved":false,"is_disabled":false,"rental_uris":{"android":"levelo://app?vid=dee6229e-26d0-4d7e-9236-92ea7c2f2755","ios":"levelo://app?vid=dee6229e-26d0-4d7e-9236-92ea7c2f2755"},"vehicle_type_id":"4","last_reported":1727968137,"current_range_meters":39200,"station_id":"ce4bgnh2rcd13ifvqc0g","pricing_plan_id":"cebpf4jnsgd1na2vs0mg"},{"bike_id":"67379eee-fa7d-4063-9287-5fdaf1731f2f","system_id":"levelo_inurba_marseille","lat":43.31271,"lon":5.4017,"is_reserved":false,"is_disabled":false,"rental_uris":{"android":"levelo://app?vid=67379eee-fa7d-4063-9287-5fdaf1731f2f","ios":"levelo://app?vid=67379eee-fa7d-4063-9287-5fdaf1731f2f"},"vehicle_type_id":"4","last_reported":1727968137,"current_range_meters":38800,"station_id":"ce4bh092rcd13ifvqd30","pricing_plan_id":"cebpf4jnsgd1na2vs0mg"},{"bike_id":"f622e222-d833-4e40-b74c-7ee9244dd810","system_id":"levelo_inurba_marseille","lat":43.266802,"lon":5.382693,"is_reserved":false,"is_disabled":false,"rental_uris":{"android":"levelo://app?vid=f622e222-d833-4e40-b74c-7ee9244dd810","ios":"levelo://app?vid=f622e222-d833-4e40-b74c-7ee9244dd810"},"vehicle_type_id":"4","last_reported":1727968137,"current_range_meters":38400,"station_id":"ce4bhhp2rcd13ifvqfm0","pricing_plan_id":"cebpf4jnsgd1na2vs0mg"},{"bike_id":"72012b7e-df38-4163-9000-3258a062b8c5","system_id":"levelo_inurba_marseille","lat":43.28412,"lon":5.34976,"is_reserved":false,"is_disabled":false,"rental_uris":{"android":"levelo://app?vid=72012b7e-df38-4163-9000-3258a062b8c5","ios":"levelo://app?vid=72012b7e-df38-4163-9000-3258a062b8c5"},"vehicle_type_id":"4","last_reported":1727968137,"current_range_meters":28000,"station_id":"ce4bhbh2rcd13ifvqepg","pricing_plan_id":"cebpf4jnsgd1na2vs0mg"},{"bike_id":"0066c6b0-1057-4400-85b9-4677ce2f8905","system_id":"levelo_inurba_marseille","lat":43.29842,"lon":5.36261,"is_reserved":false,"is_disabled":false,"rental_uris":{"android":"levelo://app?vid=0066c6b0-1057-4400-85b9-4677ce2f8905","ios":"levelo://app?vid=0066c6b0-1057-4400-85b9-4677ce2f8905"},"vehicle_type_id":"4","last_reported":1727968137,"current_range_meters":16000,"station_id":"ce4bgpp2rcd13ifvqc3g","pricing_plan_id":"cebpf4jnsgd1na2vs0mg"},{"bike_id":"70a6e5d9-f7dc-45fe-93de-dcba5cdbc45d","system_id":"levelo_inurba_marseille","lat":43.28613,"lon":5.35108,"is_reserved":false,"is_disabled":false,"rental_uris":{"android":"levelo://app?vid=70a6e5d9-f7dc-45fe-93de-dcba5cdbc45d","ios":"levelo://app?vid=70a6e5d9-f7dc-45fe-93de-dcba5cdbc45d"},"vehicle_type_id":"4","last_reported":1727968137,"current_range_meters":6000,"station_id":"ce4bhch2rcd13ifvqeug","pricing_plan_id":"cebpf4jnsgd1na2vs0mg"},{"bike_id":"e6324d82-a00d-4ac7-b4d3-567315cd04e5","system_id":"levelo_inurba_marseille","lat":43.24973,"lon":5.38807,"is_reserved":false,"is_disabled":false,"rental_uris":{"android":"levelo://app?vid=e6324d82-a00d-4ac7-b4d3-567315cd04e5","ios":"levelo://app?vid=e6324d82-a00d-4ac7-b4d3-567315cd04e5"},"vehicle_type_id":"4","last_reported":1727968137,"current_range_meters":25200,"station_id":"","pricing_plan_id":"cebpf4jnsgd1na2vs0mg"},{"bike_id":"8248727e-2887-458d-a7c2-eda729f4788a","system_id":"levelo_inurba_marseille","lat":43.30795,"lon":5.38152,"is_reserved":false,"is_disabled":false,"rental_uris":{"android":"levelo://app?vid=8248727e-2887-458d-a7c2-eda729f4788a","ios":"levelo://app?vid=8248727e-2887-458d-a7c2-eda729f4788a"},"vehicle_type_id":"4","last_reported":1727968137,"current_range_meters":35600,"station_id":"ce4bgt12rcd13ifvqce0","pricing_plan_id":"cebpf4jnsgd1na2vs0mg"},{"bike_id":"7b2c7c50-c95e-4812-bfbc-36c6ac4ed1e8","system_id":"levelo_inurba_marseille","lat":43.27618,"lon":5.36119,"is_reserved":false,"is_disabled":false,"rental_uris":{"android":"levelo://app?vid=7b2c7c50-c95e-4812-bfbc-36c6ac4ed1e8","ios":"levelo://app?vid=7b2c7c50-c95e-4812-bfbc-36c6ac4ed1e8"},"vehicle_type_id":"4","last_reported":1727968137,"current_range_meters":38800,"station_id":"ce4bgj92rcd13ifvqbe0","pricing_plan_id":"cebpf4jnsgd1na2vs0mg"},{"bike_id":"70befefb-860e-4f75-9daf-f615e69245b1","system_id":"levelo_inurba_marseille","lat":43.29981,"lon":5.37175,"is_reserved":false,"is_disabled":false,"rental_uris":{"android":"levelo://app?vid=70befefb-860e-4f75-9daf-f615e69245b1","ios":"levelo://app?vid=70befefb-860e-4f75-9daf-f615e69245b1"},"vehicle_type_id":"4","last_reported":1727968137,"current_range_meters":35200,"station_id":"ce4bgr92rcd13ifvqc7g","pricing_plan_id":"cebpf4jnsgd1na2vs0mg"},{"bike_id":"83669933-d1bb-48b0-9dcf-b3752fb264b9","system_id":"levelo_inurba_marseille","lat":43.309174,"lon":5.372054,"is_reserved":false,"is_disabled":false,"rental_uris":{"android":"levelo://app?vid=83669933-d1bb-48b0-9dcf-b3752fb264b9","ios":"levelo://app?vid=83669933-d1bb-48b0-9dcf-b3752fb264b9"},"vehicle_type_id":"4","last_reported":1727968137,"current_range_meters":14800,"station_id":"ce4bguh2rcd13ifvqckg","pricing_plan_id":"cebpf4jnsgd1na2vs0mg"},{"bike_id":"c8e4ff73-620c-4248-92f7-758d5098242c","system_id":"levelo_inurba_marseille","lat":43.22928,"lon":5.35376,"is_reserved":false,"is_disabled":false,"rental_uris":{"android":"levelo://app?vid=c8e4ff73-620c-4248-92f7-758d5098242c","ios":"levelo://app?vid=c8e4ff73-620c-4248-92f7-758d5098242c"},"vehicle_type_id":"4","last_reported":1727968137,"current_range_meters":27200,"station_id":"cpo3532slgdg3j2ikp40","pricing_plan_id":"cebpf4jnsgd1na2vs0mg"},{"bike_id":"da902bad-86bb-4239-9b68-6f5a7a44ed03","system_id":"levelo_inurba_marseille","lat":43.28616,"lon":5.351,"is_reserved":false,"is_disabled":false,"rental_uris":{"android":"levelo://app?vid=da902bad-86bb-4239-9b68-6f5a7a44ed03","ios":"levelo://app?vid=da902bad-86bb-4239-9b68-6f5a7a44ed03"},"vehicle_type_id":"4","last_reported":1727968137,"current_range_meters":21600,"station_id":"ce4bhch2rcd13ifvqeug","pricing_plan_id":"cebpf4jnsgd1na2vs0mg"},{"bike_id":"c51a2957-97fb-4723-81de-2bff36c2b86d","system_id":"levelo_inurba_marseille","lat":43.291687,"lon":5.371555,"is_reserved":false,"is_disabled":false,"rental_uris":{"android":"levelo://app?vid=c51a2957-97fb-4723-81de-2bff36c2b86d","ios":"levelo://app?vid=c51a2957-97fb-4723-81de-2bff36c2b86d"},"vehicle_type_id":"4","last_reported":1727968137,"current_range_meters":21600,"station_id":"ce4bha92rcd13ifvqeh0","pricing_plan_id":"cebpf4jnsgd1na2vs0mg"},{"bike_id":"df19166c-ecb8-4c24-b5fd-04013749e810","system_id":"levelo_inurba_marseille","lat":43.2396,"lon":5.36627,"is_reserved":false,"is_disabled":false,"rental_uris":{"android":"levelo://app?vid=df19166c-ecb8-4c24-b5fd-04013749e810","ios":"levelo://app?vid=df19166c-ecb8-4c24-b5fd-04013749e810"},"vehicle_type_id":"4","last_reported":1727968137,"current_range_meters":6000,"station_id":"ce4bhi12rcd13ifvqfp0","pricing_plan_id":"cebpf4jnsgd1na2vs0mg"},{"bike_id":"067e3d6c-5b20-4318-8794-45953ef51520","system_id":"levelo_inurba_marseille","lat":43.23179,"lon":5.39987,"is_reserved":false,"is_disabled":false,"rental_uris":{"android":"levelo://app?vid=067e3d6c-5b20-4318-8794-45953ef51520","ios":"levelo://app?vid=067e3d6c-5b20-4318-8794-45953ef51520"},"vehicle_type_id":"4","last_reported":1727968137,"current_range_meters":14400,"station_id":"ce4bhn12rcd13ifvqgqg","pricing_plan_id":"cebpf4jnsgd1na2vs0mg"},{"bike_id":"bea5b572-4899-441a-b180-1d9e0f43a004","system_id":"levelo_inurba_marseille","lat":43.298829,"lon":5.389033,"is_reserved":false,"is_disabled":false,"rental_uris":{"android":"levelo://app?vid=bea5b572-4899-441a-b180-1d9e0f43a004","ios":"levelo://app?vid=bea5b572-4899-441a-b180-1d9e0f43a004"},"vehicle_type_id":"4","last_reported":1727968137,"current_range_meters":34800,"station_id":"ce4bh392rcd13ifvqdl0","pricing_plan_id":"cebpf4jnsgd1na2vs0mg"},{"bike_id":"9111912f-5f92-4e01-9623-79e0ea71aff6","system_id":"levelo_inurba_marseille","lat":43.32285,"lon":5.38276,"is_reserved":false,"is_disabled":false,"rental_uris":{"android":"levelo://app?vid=9111912f-5f92-4e01-9623-79e0ea71aff6","ios":"levelo://app?vid=9111912f-5f92-4e01-9623-79e0ea71aff6"},"vehicle_type_id":"4","last_reported":1727968137,"current_range_meters":26000,"station_id":"ce4bhr12rcd13ifvqhqg","pricing_plan_id":"cebpf4jnsgd1na2vs0mg"},{"bike_id":"5e14e01f-50d7-475b-b822-655f83117d48","system_id":"levelo_inurba_marseille","lat":43.25496,"lon":5.37649,"is_reserved":false,"is_disabled":false,"rental_uris":{"android":"levelo://app?vid=5e14e01f-50d7-475b-b822-655f83117d48","ios":"levelo://app?vid=5e14e01f-50d7-475b-b822-655f83117d48"},"vehicle_type_id":"4","last_reported":1727968137,"current_range_meters":34800,"station_id":"ce4bhh12rcd13ifvqff0","pricing_plan_id":"cebpf4jnsgd1na2vs0mg"},{"bike_id":"279deea5-d960-4cac-a348-cfd072a8fdd8","system_id":"levelo_inurba_marseille","lat":43.30906,"lon":5.36855,"is_reserved":false,"is_disabled":false,"rental_uris":{"android":"levelo://app?vid=279deea5-d960-4cac-a348-cfd072a8fdd8","ios":"levelo://app?vid=279deea5-d960-4cac-a348-cfd072a8fdd8"},"vehicle_type_id":"4","last_reported":1727968137,"current_range_meters":30000,"station_id":"ce4bgn92rcd13ifvqbvg","pricing_plan_id":"cebpf4jnsgd1na2vs0mg"},{"bike_id":"279905d2-31cb-4375-9057-1a2156283393","system_id":"levelo_inurba_marseille","lat":43.284,"lon":5.34986,"is_reserved":false,"is_disabled":false,"rental_uris":{"android":"levelo://app?vid=279905d2-31cb-4375-9057-1a2156283393","ios":"levelo://app?vid=279905d2-31cb-4375-9057-1a2156283393"},"vehicle_type_id":"4","last_reported":1727968137,"current_range_meters":33600,"station_id":"ce4bhbh2rcd13ifvqepg","pricing_plan_id":"cebpf4jnsgd1na2vs0mg"},{"bike_id":"cabc093f-ec94-41a1-ae10-1342e4e0b47e","system_id":"levelo_inurba_marseille","lat":43.26933,"lon":5.38906,"is_reserved":false,"is_disabled":false,"rental_uris":{"android":"levelo://app?vid=cabc093f-ec94-41a1-ae10-1342e4e0b47e","ios":"levelo://app?vid=cabc093f-ec94-41a1-ae10-1342e4e0b47e"},"vehicle_type_id":"4","last_reported":1727968137,"current_range_meters":27600,"station_id":"ce4bhhh2rcd13ifvqfl0","pricing_plan_id":"cebpf4jnsgd1na2vs0mg"},{"bike_id":"7899f832-eafe-40ae-a038-3a57e7f79451","system_id":"levelo_inurba_marseille","lat":43.303009,"lon":5.392218,"is_reserved":false,"is_disabled":false,"rental_uris":{"android":"levelo://app?vid=7899f832-eafe-40ae-a038-3a57e7f79451","ios":"levelo://app?vid=7899f832-eafe-40ae-a038-3a57e7f79451"},"vehicle_type_id":"4","last_reported":1727968137,"current_range_meters":12000,"station_id":"ce4bgkh2rcd13ifvqbk0","pricing_plan_id":"cebpf4jnsgd1na2vs0mg"},{"bike_id":"e61056d1-9737-4365-a245-e089563da881","system_id":"levelo_inurba_marseille","lat":43.24663,"lon":5.38162,"is_reserved":false,"is_disabled":false,"rental_uris":{"android":"levelo://app?vid=e61056d1-9737-4365-a245-e089563da881","ios":"levelo://app?vid=e61056d1-9737-4365-a245-e089563da881"},"vehicle_type_id":"4","last_reported":1727968137,"current_range_meters":22400,"station_id":"ce4bhih2rcd13ifvqfr0","pricing_plan_id":"cebpf4jnsgd1na2vs0mg"},{"bike_id":"30e2f0ec-0394-406c-8829-fe660566e51a","system_id":"levelo_inurba_marseille","lat":43.27811,"lon":5.40713,"is_reserved":false,"is_disabled":false,"rental_uris":{"android":"levelo://app?vid=30e2f0ec-0394-406c-8829-fe660566e51a","ios":"levelo://app?vid=30e2f0ec-0394-406c-8829-fe660566e51a"},"vehicle_type_id":"4","last_reported":1727968137,"current_range_meters":38800,"station_id":"ce4bhnh2rcd13ifvqgtg","pricing_plan_id":"cebpf4jnsgd1na2vs0mg"},{"bike_id":"4a258a1c-e2e9-4984-a6e0-5a2d591e6aad","system_id":"levelo_inurba_marseille","lat":43.24662,"lon":5.38161,"is_reserved":false,"is_disabled":false,"rental_uris":{"android":"levelo://app?vid=4a258a1c-e2e9-4984-a6e0-5a2d591e6aad","ios":"levelo://app?vid=4a258a1c-e2e9-4984-a6e0-5a2d591e6aad"},"vehicle_type_id":"4","last_reported":1727968137,"current_range_meters":7200,"station_id":"ce4bhih2rcd13ifvqfr0","pricing_plan_id":"cebpf4jnsgd1na2vs0mg"},{"bike_id":"638ea2d4-cb56-475a-9712-21b4df19cbce","system_id":"levelo_inurba_marseille","lat":43.31756,"lon":5.39014,"is_reserved":false,"is_disabled":false,"rental_uris":{"android":"levelo://app?vid=638ea2d4-cb56-475a-9712-21b4df19cbce","ios":"levelo://app?vid=638ea2d4-cb56-475a-9712-21b4df19cbce"},"vehicle_type_id":"4","last_reported":1727968137,"current_range_meters":32800,"station_id":"ce4bhqp2rcd13ifvqhng","pricing_plan_id":"cebpf4jnsgd1na2vs0mg"},{"bike_id":"4f69c4e4-4aab-4ccb-88ff-64579ae1a72c","system_id":"levelo_inurba_marseille","lat":43.2417,"lon":5.39718,"is_reserved":false,"is_disabled":false,"rental_uris":{"android":"levelo://app?vid=4f69c4e4-4aab-4ccb-88ff-64579ae1a72c","ios":"levelo://app?vid=4f69c4e4-4aab-4ccb-88ff-64579ae1a72c"},"vehicle_type_id":"4","last_reported":1727968137,"current_range_meters":12000,"station_id":"ce4bhn12rcd13ifvqgpg","pricing_plan_id":"cebpf4jnsgd1na2vs0mg"},{"bike_id":"7b90d071-bbd1-4203-a899-e836a3d4ed7d","system_id":"levelo_inurba_marseille","lat":43.28071,"lon":5.39648,"is_reserved":false,"is_disabled":false,"rental_uris":{"android":"levelo://app?vid=7b90d071-bbd1-4203-a899-e836a3d4ed7d","ios":"levelo://app?vid=7b90d071-bbd1-4203-a899-e836a3d4ed7d"},"vehicle_type_id":"4","last_reported":1727968137,"current_range_meters":30800,"station_id":"ce4bho12rcd13ifvqh2g","pricing_plan_id":"cebpf4jnsgd1na2vs0mg"},{"bike_id":"dc086a08-bc01-4a19-b785-58f21f6829ae","system_id":"levelo_inurba_marseille","lat":43.25498,"lon":5.37653,"is_reserved":false,"is_disabled":false,"rental_uris":{"android":"levelo://app?vid=dc086a08-bc01-4a19-b785-58f21f6829ae","ios":"levelo://app?vid=dc086a08-bc01-4a19-b785-58f21f6829ae"},"vehicle_type_id":"4","last_reported":1727968137,"current_range_meters":11600,"station_id":"ce4bhh12rcd13ifvqff0","pricing_plan_id":"cebpf4jnsgd1na2vs0mg"},{"bike_id":"e690ed13-32d4-4cc3-821d-4783773c830f","system_id":"levelo_inurba_marseille","lat":43.29929,"lon":5.36537,"is_reserved":false,"is_disabled":false,"rental_uris":{"android":"levelo://app?vid=e690ed13-32d4-4cc3-821d-4783773c830f","ios":"levelo://app?vid=e690ed13-32d4-4cc3-821d-4783773c830f"},"vehicle_type_id":"4","last_reported":1727968137,"current_range_meters":19200,"station_id":"ce4bgm92rcd13ifvqbr0","pricing_plan_id":"cebpf4jnsgd1na2vs0mg"},{"bike_id":"23fcd5dc-52e3-40b6-b601-8da82c35b64a","system_id":"levelo_inurba_marseille","lat":43.23197,"lon":5.35551,"is_reserved":false,"is_disabled":false,"rental_uris":{"android":"levelo://app?vid=23fcd5dc-52e3-40b6-b601-8da82c35b64a","ios":"levelo://app?vid=23fcd5dc-52e3-40b6-b601-8da82c35b64a"},"vehicle_type_id":"4","last_reported":1727968137,"current_range_meters":36800,"station_id":"ce4bhu92rcd13ifvqi70","pricing_plan_id":"cebpf4jnsgd1na2vs0mg"},{"bike_id":"5557cc7e-0e3a-44b7-ad30-88f741f1245c","system_id":"levelo_inurba_marseille","lat":43.28694,"lon":5.39979,"is_reserved":false,"is_disabled":false,"rental_uris":{"android":"levelo://app?vid=5557cc7e-0e3a-44b7-ad30-88f741f1245c","ios":"levelo://app?vid=5557cc7e-0e3a-44b7-ad30-88f741f1245c"},"vehicle_type_id":"4","last_reported":1727968137,"current_range_meters":12000,"station_id":"ce4bho92rcd13ifvqh3g","pricing_plan_id":"cebpf4jnsgd1na2vs0mg"},{"bike_id":"4709932d-f786-4100-b1c2-774001df8614","system_id":"levelo_inurba_marseille","lat":43.27943,"lon":5.41057,"is_reserved":false,"is_disabled":false,"rental_uris":{"android":"levelo://app?vid=4709932d-f786-4100-b1c2-774001df8614","ios":"levelo://app?vid=4709932d-f786-4100-b1c2-774001df8614"},"vehicle_type_id":"4","last_reported":1727968137,"current_range_meters":24400,"station_id":"ce4bhnp2rcd13ifvqh0g","pricing_plan_id":"cebpf4jnsgd1na2vs0mg"},{"bike_id":"d2495bf5-7120-4a41-b7ca-5d5d82505e61","system_id":"levelo_inurba_marseille","lat":43.31221,"lon":5.36861,"is_reserved":false,"is_disabled":false,"rental_uris":{"android":"levelo://app?vid=d2495bf5-7120-4a41-b7ca-5d5d82505e61","ios":"levelo://app?vid=d2495bf5-7120-4a41-b7ca-5d5d82505e61"},"vehicle_type_id":"4","last_reported":1727968137,"current_range_meters":39200,"station_id":"ce4bgl92rcd13ifvqbq0","pricing_plan_id":"cebpf4jnsgd1na2vs0mg"},{"bike_id":"b24231f8-95d8-4cc5-bf21-d4c03ee83041","system_id":"levelo_inurba_marseille","lat":43.31218,"lon":5.36844,"is_reserved":false,"is_disabled":false,"rental_uris":{"android":"levelo://app?vid=b24231f8-95d8-4cc5-bf21-d4c03ee83041","ios":"levelo://app?vid=b24231f8-95d8-4cc5-bf21-d4c03ee83041"},"vehicle_type_id":"4","last_reported":1727968137,"current_range_meters":3200,"station_id":"ce4bgl92rcd13ifvqbq0","pricing_plan_id":"cebpf4jnsgd1na2vs0mg"},{"bike_id":"c5bf6c57-7703-4962-bea8-fc52f0c9311e","system_id":"levelo_inurba_marseille","lat":43.27807,"lon":5.40706,"is_reserved":false,"is_disabled":false,"rental_uris":{"android":"levelo://app?vid=c5bf6c57-7703-4962-bea8-fc52f0c9311e","ios":"levelo://app?vid=c5bf6c57-7703-4962-bea8-fc52f0c9311e"},"vehicle_type_id":"4","last_reported":1727968137,"current_range_meters":30400,"station_id":"ce4bhnh2rcd13ifvqgtg","pricing_plan_id":"cebpf4jnsgd1na2vs0mg"},{"bike_id":"38ccb47c-cec4-440c-a317-244788fef8a1","system_id":"levelo_inurba_marseille","lat":43.23957,"lon":5.36637,"is_reserved":false,"is_disabled":false,"rental_uris":{"android":"levelo://app?vid=38ccb47c-cec4-440c-a317-244788fef8a1","ios":"levelo://app?vid=38ccb47c-cec4-440c-a317-244788fef8a1"},"vehicle_type_id":"4","last_reported":1727968137,"current_range_meters":30800,"station_id":"ce4bhi12rcd13ifvqfp0","pricing_plan_id":"cebpf4jnsgd1na2vs0mg"},{"bike_id":"a4bbbbd7-6caf-4754-8ce8-7fea21309f71","system_id":"levelo_inurba_marseille","lat":43.29708,"lon":5.36617,"is_reserved":false,"is_disabled":false,"rental_uris":{"android":"levelo://app?vid=a4bbbbd7-6caf-4754-8ce8-7fea21309f71","ios":"levelo://app?vid=a4bbbbd7-6caf-4754-8ce8-7fea21309f71"},"vehicle_type_id":"4","last_reported":1727968137,"current_range_meters":38400,"station_id":"ce4bgn12rcd13ifvqbt0","pricing_plan_id":"cebpf4jnsgd1na2vs0mg"},{"bike_id":"6f618680-da85-463a-83ac-1b68d2d9ec6d","system_id":"levelo_inurba_marseille","lat":43.30082,"lon":5.3906,"is_reserved":false,"is_disabled":false,"rental_uris":{"android":"levelo://app?vid=6f618680-da85-463a-83ac-1b68d2d9ec6d","ios":"levelo://app?vid=6f618680-da85-463a-83ac-1b68d2d9ec6d"},"vehicle_type_id":"4","last_reported":1727968137,"current_range_meters":30800,"station_id":"ce4bh192rcd13ifvqdb0","pricing_plan_id":"cebpf4jnsgd1na2vs0mg"},{"bike_id":"f6fb4332-457c-409e-aa21-ccf8206748e0","system_id":"levelo_inurba_marseille","lat":43.26556,"lon":5.37286,"is_reserved":false,"is_disabled":false,"rental_uris":{"android":"levelo://app?vid=f6fb4332-457c-409e-aa21-ccf8206748e0","ios":"levelo://app?vid=f6fb4332-457c-409e-aa21-ccf8206748e0"},"vehicle_type_id":"4","last_reported":1727968137,"current_range_meters":8800,"station_id":"ce4bhg12rcd13ifvqf70","pricing_plan_id":"cebpf4jnsgd1na2vs0mg"},{"bike_id":"d9513a24-3235-43a7-b9a5-1c5cfe37603f","system_id":"levelo_inurba_marseille","lat":43.23059,"lon":5.3549,"is_reserved":false,"is_disabled":false,"rental_uris":{"android":"levelo://app?vid=d9513a24-3235-43a7-b9a5-1c5cfe37603f","ios":"levelo://app?vid=d9513a24-3235-43a7-b9a5-1c5cfe37603f"},"vehicle_type_id":"4","last_reported":1727968137,"current_range_meters":29600,"station_id":"cpo3342slgdg3j2ifvpg","pricing_plan_id":"cebpf4jnsgd1na2vs0mg"},{"bike_id":"b682ca0d-867a-4506-83f8-46b1ea52891a","system_id":"levelo_inurba_marseille","lat":43.28936,"lon":5.36635,"is_reserved":false,"is_disabled":false,"rental_uris":{"android":"levelo://app?vid=b682ca0d-867a-4506-83f8-46b1ea52891a","ios":"levelo://app?vid=b682ca0d-867a-4506-83f8-46b1ea52891a"},"vehicle_type_id":"4","last_reported":1727968137,"current_range_meters":9200,"station_id":"ce4bhap2rcd13ifvqek0","pricing_plan_id":"cebpf4jnsgd1na2vs0mg"},{"bike_id":"cc9ee83c-0508-432f-a299-a151480b6999","system_id":"levelo_inurba_marseille","lat":43.2936,"lon":5.37835,"is_reserved":false,"is_disabled":false,"rental_uris":{"android":"levelo://app?vid=cc9ee83c-0508-432f-a299-a151480b6999","ios":"levelo://app?vid=cc9ee83c-0508-432f-a299-a151480b6999"},"vehicle_type_id":"4","last_reported":1727968137,"current_range_meters":28800,"station_id":"ce4bgjh2rcd13ifvqbf0","pricing_plan_id":"cebpf4jnsgd1na2vs0mg"},{"bike_id":"eb47d9d0-e352-49de-bcc1-50f23038b9e0","system_id":"levelo_inurba_marseille","lat":43.2572,"lon":5.4111,"is_reserved":false,"is_disabled":false,"rental_uris":{"android":"levelo://app?vid=eb47d9d0-e352-49de-bcc1-50f23038b9e0","ios":"levelo://app?vid=eb47d9d0-e352-49de-bcc1-50f23038b9e0"},"vehicle_type_id":"4","last_reported":1727968137,"current_range_meters":28400,"station_id":"ce4bhkp2rcd13ifvqgd0","pricing_plan_id":"cebpf4jnsgd1na2vs0mg"},{"bike_id":"a708ebc0-4f82-4a4e-9e98-7f62a0a800d9","system_id":"levelo_inurba_marseille","lat":43.29597,"lon":5.38099,"is_reserved":false,"is_disabled":false,"rental_uris":{"android":"levelo://app?vid=a708ebc0-4f82-4a4e-9e98-7f62a0a800d9","ios":"levelo://app?vid=a708ebc0-4f82-4a4e-9e98-7f62a0a800d9"},"vehicle_type_id":"4","last_reported":1727968137,"current_range_meters":23200,"station_id":"ce4bgl12rcd13ifvqbo0","pricing_plan_id":"cebpf4jnsgd1na2vs0mg"},{"bike_id":"cf2f556e-3991-4e9e-a3c9-d55a0202bac2","system_id":"levelo_inurba_marseille","lat":43.26025,"lon":5.37547,"is_reserved":false,"is_disabled":false,"rental_uris":{"android":"levelo://app?vid=cf2f556e-3991-4e9e-a3c9-d55a0202bac2","ios":"levelo://app?vid=cf2f556e-3991-4e9e-a3c9-d55a0202bac2"},"vehicle_type_id":"4","last_reported":1727968137,"current_range_meters":21600,"station_id":"ce4bhgh2rcd13ifvqfa0","pricing_plan_id":"cebpf4jnsgd1na2vs0mg"},{"bike_id":"118c3b12-a012-407e-85ea-ab4b342edbfb","system_id":"levelo_inurba_marseille","lat":43.25087,"lon":5.39524,"is_reserved":false,"is_disabled":false,"rental_uris":{"android":"levelo://app?vid=118c3b12-a012-407e-85ea-ab4b342edbfb","ios":"levelo://app?vid=118c3b12-a012-407e-85ea-ab4b342edbfb"},"vehicle_type_id":"4","last_reported":1727968137,"current_range_meters":20000,"station_id":"ce4bhm12rcd13ifvqgkg","pricing_plan_id":"cebpf4jnsgd1na2vs0mg"},{"bike_id":"701cc04c-fea8-4cb3-9d96-c52bacf14f6b","system_id":"levelo_inurba_marseille","lat":43.24386,"lon":5.37064,"is_reserved":false,"is_disabled":false,"rental_uris":{"android":"levelo://app?vid=701cc04c-fea8-4cb3-9d96-c52bacf14f6b","ios":"levelo://app?vid=701cc04c-fea8-4cb3-9d96-c52bacf14f6b"},"vehicle_type_id":"4","last_reported":1727968137,"current_range_meters":18800,"station_id":"ce4bhhh2rcd13ifvqfk0","pricing_plan_id":"cebpf4jnsgd1na2vs0mg"},{"bike_id":"198216f1-b10b-422c-b569-e6c58b5d0361","system_id":"levelo_inurba_marseille","lat":43.26558,"lon":5.37281,"is_reserved":false,"is_disabled":false,"rental_uris":{"android":"levelo://app?vid=198216f1-b10b-422c-b569-e6c58b5d0361","ios":"levelo://app?vid=198216f1-b10b-422c-b569-e6c58b5d0361"},"vehicle_type_id":"4","last_reported":1727968137,"current_range_meters":27200,"station_id":"ce4bhg12rcd13ifvqf70","pricing_plan_id":"cebpf4jnsgd1na2vs0mg"},{"bike_id":"bf350af7-240b-496c-b3ec-12524d843077","system_id":"levelo_inurba_marseille","lat":43.26193,"lon":5.3745,"is_reserved":false,"is_disabled":false,"rental_uris":{"android":"levelo://app?vid=bf350af7-240b-496c-b3ec-12524d843077","ios":"levelo://app?vid=bf350af7-240b-496c-b3ec-12524d843077"},"vehicle_type_id":"4","last_reported":1727968137,"current_range_meters":38800,"station_id":"ce4bhgp2rcd13ifvqfc0","pricing_plan_id":"cebpf4jnsgd1na2vs0mg"},{"bike_id":"2e0fa271-d58c-43dc-9af1-d629c19cacf9","system_id":"levelo_inurba_marseille","lat":43.28442,"lon":5.39203,"is_reserved":false,"is_disabled":false,"rental_uris":{"android":"levelo://app?vid=2e0fa271-d58c-43dc-9af1-d629c19cacf9","ios":"levelo://app?vid=2e0fa271-d58c-43dc-9af1-d629c19cacf9"},"vehicle_type_id":"4","last_reported":1727968137,"current_range_meters":10000,"station_id":"ce4bhoh2rcd13ifvqh5g","pricing_plan_id":"cebpf4jnsgd1na2vs0mg"},{"bike_id":"eee1dc5a-9ffe-417d-a588-57898aac93ea","system_id":"levelo_inurba_marseille","lat":43.28078,"lon":5.39659,"is_reserved":false,"is_disabled":false,"rental_uris":{"android":"levelo://app?vid=eee1dc5a-9ffe-417d-a588-57898aac93ea","ios":"levelo://app?vid=eee1dc5a-9ffe-417d-a588-57898aac93ea"},"vehicle_type_id":"4","last_reported":1727968137,"current_range_meters":24800,"station_id":"ce4bho12rcd13ifvqh2g","pricing_plan_id":"cebpf4jnsgd1na2vs0mg"},{"bike_id":"1430add3-d4f9-4c53-8101-19290ecfc468","system_id":"levelo_inurba_marseille","lat":43.29838,"lon":5.36269,"is_reserved":false,"is_disabled":false,"rental_uris":{"android":"levelo://app?vid=1430add3-d4f9-4c53-8101-19290ecfc468","ios":"levelo://app?vid=1430add3-d4f9-4c53-8101-19290ecfc468"},"vehicle_type_id":"4","last_reported":1727968137,"current_range_meters":14400,"station_id":"ce4bgpp2rcd13ifvqc3g","pricing_plan_id":"cebpf4jnsgd1na2vs0mg"},{"bike_id":"1123f66a-c17f-4d0e-8a27-17d6dcb51c46","system_id":"levelo_inurba_marseille","lat":43.26213,"lon":5.37442,"is_reserved":false,"is_disabled":false,"rental_uris":{"android":"levelo://app?vid=1123f66a-c17f-4d0e-8a27-17d6dcb51c46","ios":"levelo://app?vid=1123f66a-c17f-4d0e-8a27-17d6dcb51c46"},"vehicle_type_id":"4","last_reported":1727968137,"current_range_meters":23200,"station_id":"ce4bhgp2rcd13ifvqfc0","pricing_plan_id":"cebpf4jnsgd1na2vs0mg"},{"bike_id":"96b9453f-a7be-42c0-a6ff-b340287e7ff4","system_id":"levelo_inurba_marseille","lat":43.28452,"lon":5.35892,"is_reserved":false,"is_disabled":false,"rental_uris":{"android":"levelo://app?vid=96b9453f-a7be-42c0-a6ff-b340287e7ff4","ios":"levelo://app?vid=96b9453f-a7be-42c0-a6ff-b340287e7ff4"},"vehicle_type_id":"4","last_reported":1727968137,"current_range_meters":11200,"station_id":"ce4bhah2rcd13ifvqei0","pricing_plan_id":"cebpf4jnsgd1na2vs0mg"},{"bike_id":"8e73ccbf-c591-4323-9de3-4225828eda50","system_id":"levelo_inurba_marseille","lat":43.29206,"lon":5.35922,"is_reserved":false,"is_disabled":false,"rental_uris":{"android":"levelo://app?vid=8e73ccbf-c591-4323-9de3-4225828eda50","ios":"levelo://app?vid=8e73ccbf-c591-4323-9de3-4225828eda50"},"vehicle_type_id":"4","last_reported":1727968137,"current_range_meters":5600,"station_id":"","pricing_plan_id":"cebpf4jnsgd1na2vs0mg"},{"bike_id":"5139c77e-abe4-4831-a65c-4bf4247f1ac4","system_id":"levelo_inurba_marseille","lat":43.26195,"lon":5.37449,"is_reserved":false,"is_disabled":false,"rental_uris":{"android":"levelo://app?vid=5139c77e-abe4-4831-a65c-4bf4247f1ac4","ios":"levelo://app?vid=5139c77e-abe4-4831-a65c-4bf4247f1ac4"},"vehicle_type_id":"4","last_reported":1727968137,"current_range_meters":25600,"station_id":"ce4bhgp2rcd13ifvqfc0","pricing_plan_id":"cebpf4jnsgd1na2vs0mg"},{"bike_id":"d4ca3cb7-3285-4e3b-9f6a-2440127c81f8","system_id":"levelo_inurba_marseille","lat":43.31714,"lon":5.3775,"is_reserved":false,"is_disabled":false,"rental_uris":{"android":"levelo://app?vid=d4ca3cb7-3285-4e3b-9f6a-2440127c81f8","ios":"levelo://app?vid=d4ca3cb7-3285-4e3b-9f6a-2440127c81f8"},"vehicle_type_id":"4","last_reported":1727968137,"current_range_meters":39200,"station_id":"ce4bgth2rcd13ifvqch0","pricing_plan_id":"cebpf4jnsgd1na2vs0mg"},{"bike_id":"845b201b-ff07-4853-a7df-5e332f54d819","system_id":"levelo_inurba_marseille","lat":43.2509,"lon":5.39521,"is_reserved":false,"is_disabled":false,"rental_uris":{"android":"levelo://app?vid=845b201b-ff07-4853-a7df-5e332f54d819","ios":"levelo://app?vid=845b201b-ff07-4853-a7df-5e332f54d819"},"vehicle_type_id":"4","last_reported":1727968137,"current_range_meters":36000,"station_id":"ce4bhm12rcd13ifvqgkg","pricing_plan_id":"cebpf4jnsgd1na2vs0mg"},{"bike_id":"54d852c7-a1e7-48ff-9e26-8b01e3210fa2","system_id":"levelo_inurba_marseille","lat":43.28264,"lon":5.3506,"is_reserved":false,"is_disabled":false,"rental_uris":{"android":"levelo://app?vid=54d852c7-a1e7-48ff-9e26-8b01e3210fa2","ios":"levelo://app?vid=54d852c7-a1e7-48ff-9e26-8b01e3210fa2"},"vehicle_type_id":"4","last_reported":1727968137,"current_range_meters":9200,"station_id":"ce4bhbh2rcd13ifvqepg","pricing_plan_id":"cebpf4jnsgd1na2vs0mg"},{"bike_id":"0ba25c9b-fca3-45dd-b364-f0d6a9f77ae9","system_id":"levelo_inurba_marseille","lat":43.28436,"lon":5.39185,"is_reserved":false,"is_disabled":false,"rental_uris":{"android":"levelo://app?vid=0ba25c9b-fca3-45dd-b364-f0d6a9f77ae9","ios":"levelo://app?vid=0ba25c9b-fca3-45dd-b364-f0d6a9f77ae9"},"vehicle_type_id":"4","last_reported":1727968137,"current_range_meters":38400,"station_id":"ce4bhoh2rcd13ifvqh5g","pricing_plan_id":"cebpf4jnsgd1na2vs0mg"},{"bike_id":"e037eabf-4d4f-4d5b-8f1a-a74e2be708c6","system_id":"levelo_inurba_marseille","lat":43.26554,"lon":5.37289,"is_reserved":false,"is_disabled":false,"rental_uris":{"android":"levelo://app?vid=e037eabf-4d4f-4d5b-8f1a-a74e2be708c6","ios":"levelo://app?vid=e037eabf-4d4f-4d5b-8f1a-a74e2be708c6"},"vehicle_type_id":"4","last_reported":1727968137,"current_range_meters":35600,"station_id":"ce4bhg12rcd13ifvqf70","pricing_plan_id":"cebpf4jnsgd1na2vs0mg"},{"bike_id":"ec8a83de-f64f-46e9-8ae9-e57828ed67c3","system_id":"levelo_inurba_marseille","lat":43.29687,"lon":5.37287,"is_reserved":false,"is_disabled":false,"rental_uris":{"android":"levelo://app?vid=ec8a83de-f64f-46e9-8ae9-e57828ed67c3","ios":"levelo://app?vid=ec8a83de-f64f-46e9-8ae9-e57828ed67c3"},"vehicle_type_id":"4","last_reported":1727968137,"current_range_meters":28800,"station_id":"ce4bgk12rcd13ifvqbj0","pricing_plan_id":"cebpf4jnsgd1na2vs0mg"},{"bike_id":"32b23614-d333-4fa3-ad5d-26ac347211d5","system_id":"levelo_inurba_marseille","lat":43.31538,"lon":5.38025,"is_reserved":false,"is_disabled":false,"rental_uris":{"android":"levelo://app?vid=32b23614-d333-4fa3-ad5d-26ac347211d5","ios":"levelo://app?vid=32b23614-d333-4fa3-ad5d-26ac347211d5"},"vehicle_type_id":"4","last_reported":1727968137,"current_range_meters":8000,"station_id":"ce4bhsp2rcd13ifvqi50","pricing_plan_id":"cebpf4jnsgd1na2vs0mg"},{"bike_id":"ce04286b-7a25-4a78-b854-2280ab894302","system_id":"levelo_inurba_marseille","lat":43.25107,"lon":5.40329,"is_reserved":false,"is_disabled":false,"rental_uris":{"android":"levelo://app?vid=ce04286b-7a25-4a78-b854-2280ab894302","ios":"levelo://app?vid=ce04286b-7a25-4a78-b854-2280ab894302"},"vehicle_type_id":"4","last_reported":1727968137,"current_range_meters":8000,"station_id":"ce4bhlh2rcd13ifvqgig","pricing_plan_id":"cebpf4jnsgd1na2vs0mg"},{"bike_id":"3e5ffc14-7517-429a-b9f9-45fea3600a93","system_id":"levelo_inurba_marseille","lat":43.29265,"lon":5.38437,"is_reserved":false,"is_disabled":false,"rental_uris":{"android":"levelo://app?vid=3e5ffc14-7517-429a-b9f9-45fea3600a93","ios":"levelo://app?vid=3e5ffc14-7517-429a-b9f9-45fea3600a93"},"vehicle_type_id":"4","last_reported":1727968137,"current_range_meters":2800,"station_id":"ce4bh692rcd13ifvqea0","pricing_plan_id":"cebpf4jnsgd1na2vs0mg"},{"bike_id":"5084d4e8-22d7-4248-aec8-4997331ff1e0","system_id":"levelo_inurba_marseille","lat":43.22926,"lon":5.35378,"is_reserved":false,"is_disabled":false,"rental_uris":{"android":"levelo://app?vid=5084d4e8-22d7-4248-aec8-4997331ff1e0","ios":"levelo://app?vid=5084d4e8-22d7-4248-aec8-4997331ff1e0"},"vehicle_type_id":"4","last_reported":1727968137,"current_range_meters":34000,"station_id":"cpo3532slgdg3j2ikp40","pricing_plan_id":"cebpf4jnsgd1na2vs0mg"},{"bike_id":"17774e5e-4ca1-4447-afa9-8f03dd4b5e12","system_id":"levelo_inurba_marseille","lat":43.26194,"lon":5.37448,"is_reserved":false,"is_disabled":false,"rental_uris":{"android":"levelo://app?vid=17774e5e-4ca1-4447-afa9-8f03dd4b5e12","ios":"levelo://app?vid=17774e5e-4ca1-4447-afa9-8f03dd4b5e12"},"vehicle_type_id":"4","last_reported":1727968137,"current_range_meters":8400,"station_id":"ce4bhgp2rcd13ifvqfc0","pricing_plan_id":"cebpf4jnsgd1na2vs0mg"},{"bike_id":"88abccf9-c65f-43fb-80d7-ce3f5117c5d4","system_id":"levelo_inurba_marseille","lat":43.23181,"lon":5.39983,"is_reserved":false,"is_disabled":false,"rental_uris":{"android":"levelo://app?vid=88abccf9-c65f-43fb-80d7-ce3f5117c5d4","ios":"levelo://app?vid=88abccf9-c65f-43fb-80d7-ce3f5117c5d4"},"vehicle_type_id":"4","last_reported":1727968137,"current_range_meters":36800,"station_id":"ce4bhn12rcd13ifvqgqg","pricing_plan_id":"cebpf4jnsgd1na2vs0mg"},{"bike_id":"72874289-d55b-4589-a58d-5439d0347367","system_id":"levelo_inurba_marseille","lat":43.29984,"lon":5.3718,"is_reserved":false,"is_disabled":false,"rental_uris":{"android":"levelo://app?vid=72874289-d55b-4589-a58d-5439d0347367","ios":"levelo://app?vid=72874289-d55b-4589-a58d-5439d0347367"},"vehicle_type_id":"4","last_reported":1727968137,"current_range_meters":36800,"station_id":"ce4bgr92rcd13ifvqc7g","pricing_plan_id":"cebpf4jnsgd1na2vs0mg"},{"bike_id":"4cf3f948-c37b-4a15-a4d1-f3ebfbdf4644","system_id":"levelo_inurba_marseille","lat":43.27363,"lon":5.36262,"is_reserved":false,"is_disabled":false,"rental_uris":{"android":"levelo://app?vid=4cf3f948-c37b-4a15-a4d1-f3ebfbdf4644","ios":"levelo://app?vid=4cf3f948-c37b-4a15-a4d1-f3ebfbdf4644"},"vehicle_type_id":"4","last_reported":1727968137,"current_range_meters":31200,"station_id":"ce4bhbh2rcd13ifvqeo0","pricing_plan_id":"cebpf4jnsgd1na2vs0mg"},{"bike_id":"d87c6f5a-da3b-4e48-8268-b3c931123d3e","system_id":"levelo_inurba_marseille","lat":43.27978,"lon":5.40039,"is_reserved":false,"is_disabled":false,"rental_uris":{"android":"levelo://app?vid=d87c6f5a-da3b-4e48-8268-b3c931123d3e","ios":"levelo://app?vid=d87c6f5a-da3b-4e48-8268-b3c931123d3e"},"vehicle_type_id":"4","last_reported":1727968137,"current_range_meters":11200,"station_id":"ce4bho92rcd13ifvqh4g","pricing_plan_id":"cebpf4jnsgd1na2vs0mg"},{"bike_id":"05662129-7f24-4845-8846-890b52d14eca","system_id":"levelo_inurba_marseille","lat":43.31068,"lon":5.38355,"is_reserved":false,"is_disabled":false,"rental_uris":{"android":"levelo://app?vid=05662129-7f24-4845-8846-890b52d14eca","ios":"levelo://app?vid=05662129-7f24-4845-8846-890b52d14eca"},"vehicle_type_id":"4","last_reported":1727968137,"current_range_meters":11200,"station_id":"ce4bgv92rcd13ifvqcr0","pricing_plan_id":"cebpf4jnsgd1na2vs0mg"},{"bike_id":"f95d571d-2d6d-4cfe-a4cf-97c1ee64af90","system_id":"levelo_inurba_marseille","lat":43.27953,"lon":5.41039,"is_reserved":false,"is_disabled":false,"rental_uris":{"android":"levelo://app?vid=f95d571d-2d6d-4cfe-a4cf-97c1ee64af90","ios":"levelo://app?vid=f95d571d-2d6d-4cfe-a4cf-97c1ee64af90"},"vehicle_type_id":"4","last_reported":1727968137,"current_range_meters":27600,"station_id":"ce4bhnp2rcd13ifvqh0g","pricing_plan_id":"cebpf4jnsgd1na2vs0mg"},{"bike_id":"735e37ad-6998-4045-9fc6-8ede80a6dc10","system_id":"levelo_inurba_marseille","lat":43.2904,"lon":5.37572,"is_reserved":false,"is_disabled":false,"rental_uris":{"android":"levelo://app?vid=735e37ad-6998-4045-9fc6-8ede80a6dc10","ios":"levelo://app?vid=735e37ad-6998-4045-9fc6-8ede80a6dc10"},"vehicle_type_id":"4","last_reported":1727968137,"current_range_meters":11600,"station_id":"ce4bh692rcd13ifvqe90","pricing_plan_id":"cebpf4jnsgd1na2vs0mg"},{"bike_id":"795866be-d8e0-46fd-8087-450446bab873","system_id":"levelo_inurba_marseille","lat":43.23067,"lon":5.35489,"is_reserved":false,"is_disabled":false,"rental_uris":{"android":"levelo://app?vid=795866be-d8e0-46fd-8087-450446bab873","ios":"levelo://app?vid=795866be-d8e0-46fd-8087-450446bab873"},"vehicle_type_id":"4","last_reported":1727968137,"current_range_meters":27200,"station_id":"cpo3342slgdg3j2ifvpg","pricing_plan_id":"cebpf4jnsgd1na2vs0mg"},{"bike_id":"00177c29-ca99-487a-9aff-f0699e35ea4e","system_id":"levelo_inurba_marseille","lat":43.29577,"lon":5.36735,"is_reserved":false,"is_disabled":false,"rental_uris":{"android":"levelo://app?vid=00177c29-ca99-487a-9aff-f0699e35ea4e","ios":"levelo://app?vid=00177c29-ca99-487a-9aff-f0699e35ea4e"},"vehicle_type_id":"4","last_reported":1727968137,"current_range_meters":18800,"station_id":"ce4bgph2rcd13ifvqc2g","pricing_plan_id":"cebpf4jnsgd1na2vs0mg"},{"bike_id":"d5bb6f90-3ba4-47c0-a8cb-c12dba57f39c","system_id":"levelo_inurba_marseille","lat":43.291,"lon":5.3813,"is_reserved":false,"is_disabled":false,"rental_uris":{"android":"levelo://app?vid=d5bb6f90-3ba4-47c0-a8cb-c12dba57f39c","ios":"levelo://app?vid=d5bb6f90-3ba4-47c0-a8cb-c12dba57f39c"},"vehicle_type_id":"4","last_reported":1727968137,"current_range_meters":25600,"station_id":"ce4bh512rcd13ifvqe2g","pricing_plan_id":"cebpf4jnsgd1na2vs0mg"},{"bike_id":"b412a961-2241-4072-b3d5-bd91862a39d3","system_id":"levelo_inurba_marseille","lat":43.28613,"lon":5.35111,"is_reserved":false,"is_disabled":false,"rental_uris":{"android":"levelo://app?vid=b412a961-2241-4072-b3d5-bd91862a39d3","ios":"levelo://app?vid=b412a961-2241-4072-b3d5-bd91862a39d3"},"vehicle_type_id":"4","last_reported":1727968137,"current_range_meters":37600,"station_id":"ce4bhch2rcd13ifvqeug","pricing_plan_id":"cebpf4jnsgd1na2vs0mg"},{"bike_id":"eb136262-6592-499e-a8b3-5c19e418717b","system_id":"levelo_inurba_marseille","lat":43.27213,"lon":5.39181,"is_reserved":false,"is_disabled":false,"rental_uris":{"android":"levelo://app?vid=eb136262-6592-499e-a8b3-5c19e418717b","ios":"levelo://app?vid=eb136262-6592-499e-a8b3-5c19e418717b"},"vehicle_type_id":"4","last_reported":1727968137,"current_range_meters":21600,"station_id":"ce4bhhp2rcd13ifvqfm0","pricing_plan_id":"cebpf4jnsgd1na2vs0mg"},{"bike_id":"4314aa0d-7b2c-4ba0-ac7f-3fc279667043","system_id":"levelo_inurba_marseille","lat":43.27205,"lon":5.39183,"is_reserved":false,"is_disabled":false,"rental_uris":{"android":"levelo://app?vid=4314aa0d-7b2c-4ba0-ac7f-3fc279667043","ios":"levelo://app?vid=4314aa0d-7b2c-4ba0-ac7f-3fc279667043"},"vehicle_type_id":"4","last_reported":1727968137,"current_range_meters":9600,"station_id":"ce4bhhp2rcd13ifvqfm0","pricing_plan_id":"cebpf4jnsgd1na2vs0mg"},{"bike_id":"3b9cf38c-5235-41ba-98c4-2477c5644fd9","system_id":"levelo_inurba_marseille","lat":43.2962,"lon":5.37153,"is_reserved":false,"is_disabled":false,"rental_uris":{"android":"levelo://app?vid=3b9cf38c-5235-41ba-98c4-2477c5644fd9","ios":"levelo://app?vid=3b9cf38c-5235-41ba-98c4-2477c5644fd9"},"vehicle_type_id":"4","last_reported":1727968137,"current_range_meters":18000,"station_id":"ce4bgnh2rcd13ifvqc0g","pricing_plan_id":"cebpf4jnsgd1na2vs0mg"},{"bike_id":"1c1be912-8b3b-47ce-839e-f4771b167b98","system_id":"levelo_inurba_marseille","lat":43.29022,"lon":5.3813,"is_reserved":false,"is_disabled":false,"rental_uris":{"android":"levelo://app?vid=1c1be912-8b3b-47ce-839e-f4771b167b98","ios":"levelo://app?vid=1c1be912-8b3b-47ce-839e-f4771b167b98"},"vehicle_type_id":"4","last_reported":1727968137,"current_range_meters":20000,"station_id":"ce4bh4p2rcd13ifvqe1g","pricing_plan_id":"cebpf4jnsgd1na2vs0mg"},{"bike_id":"64bd957e-b978-44cb-a85c-928d627d24ec","system_id":"levelo_inurba_marseille","lat":43.35738,"lon":5.35886,"is_reserved":false,"is_disabled":false,"rental_uris":{"android":"levelo://app?vid=64bd957e-b978-44cb-a85c-928d627d24ec","ios":"levelo://app?vid=64bd957e-b978-44cb-a85c-928d627d24ec"},"vehicle_type_id":"4","last_reported":1727968137,"current_range_meters":11600,"station_id":"","pricing_plan_id":"cebpf4jnsgd1na2vs0mg"},{"bike_id":"907d4a75-6f41-41f7-a686-62ccde4ef534","system_id":"levelo_inurba_marseille","lat":43.23194,"lon":5.35545,"is_reserved":false,"is_disabled":false,"rental_uris":{"android":"levelo://app?vid=907d4a75-6f41-41f7-a686-62ccde4ef534","ios":"levelo://app?vid=907d4a75-6f41-41f7-a686-62ccde4ef534"},"vehicle_type_id":"4","last_reported":1727968137,"current_range_meters":36800,"station_id":"ce4bhu92rcd13ifvqi70","pricing_plan_id":"cebpf4jnsgd1na2vs0mg"},{"bike_id":"9eecd779-c6c0-4e07-ac55-d8d18d2fd278","system_id":"levelo_inurba_marseille","lat":43.27993,"lon":5.40013,"is_reserved":false,"is_disabled":false,"rental_uris":{"android":"levelo://app?vid=9eecd779-c6c0-4e07-ac55-d8d18d2fd278","ios":"levelo://app?vid=9eecd779-c6c0-4e07-ac55-d8d18d2fd278"},"vehicle_type_id":"4","last_reported":1727968137,"current_range_meters":24800,"station_id":"ce4bho92rcd13ifvqh4g","pricing_plan_id":"cebpf4jnsgd1na2vs0mg"},{"bike_id":"8c50190d-bb75-45f9-803e-1f68da9c10b5","system_id":"levelo_inurba_marseille","lat":43.29516,"lon":5.3903,"is_reserved":false,"is_disabled":false,"rental_uris":{"android":"levelo://app?vid=8c50190d-bb75-45f9-803e-1f68da9c10b5","ios":"levelo://app?vid=8c50190d-bb75-45f9-803e-1f68da9c10b5"},"vehicle_type_id":"4","last_reported":1727968137,"current_range_meters":2000,"station_id":"ce4bh3p2rcd13ifvqdp0","pricing_plan_id":"cebpf4jnsgd1na2vs0mg"},{"bike_id":"4d03afb8-e1c8-4bda-87f2-b7c24ff2db2a","system_id":"levelo_inurba_marseille","lat":43.28927,"lon":5.38392,"is_reserved":false,"is_disabled":false,"rental_uris":{"android":"levelo://app?vid=4d03afb8-e1c8-4bda-87f2-b7c24ff2db2a","ios":"levelo://app?vid=4d03afb8-e1c8-4bda-87f2-b7c24ff2db2a"},"vehicle_type_id":"4","last_reported":1727968137,"current_range_meters":8000,"station_id":"ce4bh612rcd13ifvqe6g","pricing_plan_id":"cebpf4jnsgd1na2vs0mg"},{"bike_id":"8b237e51-3b82-4a73-949b-e714b5254ca1","system_id":"levelo_inurba_marseille","lat":43.27619,"lon":5.36109,"is_reserved":false,"is_disabled":false,"rental_uris":{"android":"levelo://app?vid=8b237e51-3b82-4a73-949b-e714b5254ca1","ios":"levelo://app?vid=8b237e51-3b82-4a73-949b-e714b5254ca1"},"vehicle_type_id":"4","last_reported":1727968137,"current_range_meters":22400,"station_id":"ce4bgj92rcd13ifvqbe0","pricing_plan_id":"cebpf4jnsgd1na2vs0mg"},{"bike_id":"39d040a4-e73d-458d-9153-7403b54dd846","system_id":"levelo_inurba_marseille","lat":43.27206,"lon":5.39181,"is_reserved":false,"is_disabled":false,"rental_uris":{"android":"levelo://app?vid=39d040a4-e73d-458d-9153-7403b54dd846","ios":"levelo://app?vid=39d040a4-e73d-458d-9153-7403b54dd846"},"vehicle_type_id":"4","last_reported":1727968137,"current_range_meters":27600,"station_id":"ce4bhhp2rcd13ifvqfm0","pricing_plan_id":"cebpf4jnsgd1na2vs0mg"},{"bike_id":"0f971758-4afe-4438-bed5-2c6c461120fd","system_id":"levelo_inurba_marseille","lat":43.29875,"lon":5.38907,"is_reserved":false,"is_disabled":false,"rental_uris":{"android":"levelo://app?vid=0f971758-4afe-4438-bed5-2c6c461120fd","ios":"levelo://app?vid=0f971758-4afe-4438-bed5-2c6c461120fd"},"vehicle_type_id":"4","last_reported":1727968137,"current_range_meters":10000,"station_id":"ce4bh392rcd13ifvqdl0","pricing_plan_id":"cebpf4jnsgd1na2vs0mg"},{"bike_id":"e08bd701-b7a3-4b27-a902-0c34ff1bce68","system_id":"levelo_inurba_marseille","lat":43.3031,"lon":5.36909,"is_reserved":false,"is_disabled":false,"rental_uris":{"android":"levelo://app?vid=e08bd701-b7a3-4b27-a902-0c34ff1bce68","ios":"levelo://app?vid=e08bd701-b7a3-4b27-a902-0c34ff1bce68"},"vehicle_type_id":"4","last_reported":1727968137,"current_range_meters":2800,"station_id":"ce4bgqh2rcd13ifvqc5g","pricing_plan_id":"cebpf4jnsgd1na2vs0mg"},{"bike_id":"a0a6bc1c-ca3c-4a34-82a0-b9fbcb50dea0","system_id":"levelo_inurba_marseille","lat":43.23182,"lon":5.39986,"is_reserved":false,"is_disabled":false,"rental_uris":{"android":"levelo://app?vid=a0a6bc1c-ca3c-4a34-82a0-b9fbcb50dea0","ios":"levelo://app?vid=a0a6bc1c-ca3c-4a34-82a0-b9fbcb50dea0"},"vehicle_type_id":"4","last_reported":1727968137,"current_range_meters":24800,"station_id":"ce4bhn12rcd13ifvqgqg","pricing_plan_id":"cebpf4jnsgd1na2vs0mg"},{"bike_id":"1a617508-12e6-4b9a-96c4-ab16b682f7c8","system_id":"levelo_inurba_marseille","lat":43.31701,"lon":5.37753,"is_reserved":false,"is_disabled":false,"rental_uris":{"android":"levelo://app?vid=1a617508-12e6-4b9a-96c4-ab16b682f7c8","ios":"levelo://app?vid=1a617508-12e6-4b9a-96c4-ab16b682f7c8"},"vehicle_type_id":"4","last_reported":1727968137,"current_range_meters":31200,"station_id":"ce4bgth2rcd13ifvqch0","pricing_plan_id":"cebpf4jnsgd1na2vs0mg"},{"bike_id":"b5acc57b-5f11-4b7a-9f9e-62a9792e6d78","system_id":"levelo_inurba_marseille","lat":43.30426,"lon":5.36669,"is_reserved":false,"is_disabled":false,"rental_uris":{"android":"levelo://app?vid=b5acc57b-5f11-4b7a-9f9e-62a9792e6d78","ios":"levelo://app?vid=b5acc57b-5f11-4b7a-9f9e-62a9792e6d78"},"vehicle_type_id":"4","last_reported":1727968137,"current_range_meters":8400,"station_id":"ce4bgrp2rcd13ifvqc9g","pricing_plan_id":"cebpf4jnsgd1na2vs0mg"},{"bike_id":"6d679b6b-38e0-4f37-8caf-d0dfb3677fc5","system_id":"levelo_inurba_marseille","lat":43.22932,"lon":5.35379,"is_reserved":false,"is_disabled":false,"rental_uris":{"android":"levelo://app?vid=6d679b6b-38e0-4f37-8caf-d0dfb3677fc5","ios":"levelo://app?vid=6d679b6b-38e0-4f37-8caf-d0dfb3677fc5"},"vehicle_type_id":"4","last_reported":1727968137,"current_range_meters":32800,"station_id":"cpo3532slgdg3j2ikp40","pricing_plan_id":"cebpf4jnsgd1na2vs0mg"},{"bike_id":"f0ed8c34-724d-442e-9c56-228a206952af","system_id":"levelo_inurba_marseille","lat":43.31995,"lon":5.38152,"is_reserved":false,"is_disabled":false,"rental_uris":{"android":"levelo://app?vid=f0ed8c34-724d-442e-9c56-228a206952af","ios":"levelo://app?vid=f0ed8c34-724d-442e-9c56-228a206952af"},"vehicle_type_id":"4","last_reported":1727968137,"current_range_meters":38000,"station_id":"ce4bhr12rcd13ifvqhpg","pricing_plan_id":"cebpf4jnsgd1na2vs0mg"},{"bike_id":"cbdaef61-cd85-490c-a46f-f1668b37771b","system_id":"levelo_inurba_marseille","lat":43.25085,"lon":5.39523,"is_reserved":false,"is_disabled":false,"rental_uris":{"android":"levelo://app?vid=cbdaef61-cd85-490c-a46f-f1668b37771b","ios":"levelo://app?vid=cbdaef61-cd85-490c-a46f-f1668b37771b"},"vehicle_type_id":"4","last_reported":1727968137,"current_range_meters":19200,"station_id":"ce4bhm12rcd13ifvqgkg","pricing_plan_id":"cebpf4jnsgd1na2vs0mg"},{"bike_id":"e0b720ab-5843-49ef-970a-1edfe4c76603","system_id":"levelo_inurba_marseille","lat":43.25861,"lon":5.39895,"is_reserved":false,"is_disabled":false,"rental_uris":{"android":"levelo://app?vid=e0b720ab-5843-49ef-970a-1edfe4c76603","ios":"levelo://app?vid=e0b720ab-5843-49ef-970a-1edfe4c76603"},"vehicle_type_id":"4","last_reported":1727968137,"current_range_meters":11200,"station_id":"ce4bhl92rcd13ifvqghg","pricing_plan_id":"cebpf4jnsgd1na2vs0mg"},{"bike_id":"98cfe31a-14bb-40ef-b2c0-b81dd8219c45","system_id":"levelo_inurba_marseille","lat":43.27998,"lon":5.40026,"is_reserved":false,"is_disabled":false,"rental_uris":{"android":"levelo://app?vid=98cfe31a-14bb-40ef-b2c0-b81dd8219c45","ios":"levelo://app?vid=98cfe31a-14bb-40ef-b2c0-b81dd8219c45"},"vehicle_type_id":"4","last_reported":1727968137,"current_range_meters":29600,"station_id":"ce4bho92rcd13ifvqh4g","pricing_plan_id":"cebpf4jnsgd1na2vs0mg"},{"bike_id":"7cecb45f-88bd-4c5c-b8df-f037b413969f","system_id":"levelo_inurba_marseille","lat":43.28456,"lon":5.35884,"is_reserved":false,"is_disabled":false,"rental_uris":{"android":"levelo://app?vid=7cecb45f-88bd-4c5c-b8df-f037b413969f","ios":"levelo://app?vid=7cecb45f-88bd-4c5c-b8df-f037b413969f"},"vehicle_type_id":"4","last_reported":1727968137,"current_range_meters":24000,"station_id":"ce4bhah2rcd13ifvqei0","pricing_plan_id":"cebpf4jnsgd1na2vs0mg"},{"bike_id":"42715632-e225-47f3-813c-9451f24e5700","system_id":"levelo_inurba_marseille","lat":43.23188,"lon":5.35552,"is_reserved":false,"is_disabled":false,"rental_uris":{"android":"levelo://app?vid=42715632-e225-47f3-813c-9451f24e5700","ios":"levelo://app?vid=42715632-e225-47f3-813c-9451f24e5700"},"vehicle_type_id":"4","last_reported":1727968137,"current_range_meters":25600,"station_id":"ce4bhu92rcd13ifvqi70","pricing_plan_id":"cebpf4jnsgd1na2vs0mg"},{"bike_id":"25ca3c60-5f4e-4a56-89d6-37c550aeea85","system_id":"levelo_inurba_marseille","lat":43.3172,"lon":5.42391,"is_reserved":false,"is_disabled":false,"rental_uris":{"android":"levelo://app?vid=25ca3c60-5f4e-4a56-89d6-37c550aeea85","ios":"levelo://app?vid=25ca3c60-5f4e-4a56-89d6-37c550aeea85"},"vehicle_type_id":"4","last_reported":1727968137,"current_range_meters":2000,"station_id":"ce4bhp92rcd13ifvqhbg","pricing_plan_id":"cebpf4jnsgd1na2vs0mg"},{"bike_id":"d42f01b5-8432-4fed-a08a-1a56743f54c2","system_id":"levelo_inurba_marseille","lat":43.2737,"lon":5.36244,"is_reserved":false,"is_disabled":false,"rental_uris":{"android":"levelo://app?vid=d42f01b5-8432-4fed-a08a-1a56743f54c2","ios":"levelo://app?vid=d42f01b5-8432-4fed-a08a-1a56743f54c2"},"vehicle_type_id":"4","last_reported":1727968137,"current_range_meters":10000,"station_id":"ce4bhbh2rcd13ifvqeo0","pricing_plan_id":"cebpf4jnsgd1na2vs0mg"},{"bike_id":"3713d476-7636-47f7-95d3-8fbe178b48f6","system_id":"levelo_inurba_marseille","lat":43.25859,"lon":5.39904,"is_reserved":false,"is_disabled":false,"rental_uris":{"android":"levelo://app?vid=3713d476-7636-47f7-95d3-8fbe178b48f6","ios":"levelo://app?vid=3713d476-7636-47f7-95d3-8fbe178b48f6"},"vehicle_type_id":"4","last_reported":1727968137,"current_range_meters":19200,"station_id":"ce4bhl92rcd13ifvqghg","pricing_plan_id":"cebpf4jnsgd1na2vs0mg"},{"bike_id":"1fffcc09-0099-41e5-a507-e29bba1a2869","system_id":"levelo_inurba_marseille","lat":43.32603,"lon":5.41031,"is_reserved":false,"is_disabled":false,"rental_uris":{"android":"levelo://app?vid=1fffcc09-0099-41e5-a507-e29bba1a2869","ios":"levelo://app?vid=1fffcc09-0099-41e5-a507-e29bba1a2869"},"vehicle_type_id":"4","last_reported":1727968137,"current_range_meters":37600,"station_id":"ce4bhpp2rcd13ifvqhgg","pricing_plan_id":"cebpf4jnsgd1na2vs0mg"},{"bike_id":"2ce3680e-bce5-4e5a-8b7e-a4a896b7d4e1","system_id":"levelo_inurba_marseille","lat":43.26025,"lon":5.37553,"is_reserved":false,"is_disabled":false,"rental_uris":{"android":"levelo://app?vid=2ce3680e-bce5-4e5a-8b7e-a4a896b7d4e1","ios":"levelo://app?vid=2ce3680e-bce5-4e5a-8b7e-a4a896b7d4e1"},"vehicle_type_id":"4","last_reported":1727968137,"current_range_meters":29600,"station_id":"ce4bhgh2rcd13ifvqfa0","pricing_plan_id":"cebpf4jnsgd1na2vs0mg"},{"bike_id":"14915386-9d83-4615-9d7b-c087c834beda","system_id":"levelo_inurba_marseille","lat":43.30355,"lon":5.41876,"is_reserved":false,"is_disabled":false,"rental_uris":{"android":"levelo://app?vid=14915386-9d83-4615-9d7b-c087c834beda","ios":"levelo://app?vid=14915386-9d83-4615-9d7b-c087c834beda"},"vehicle_type_id":"4","last_reported":1727968137,"current_range_meters":15200,"station_id":"ce4bhop2rcd13ifvqh7g","pricing_plan_id":"cebpf4jnsgd1na2vs0mg"},{"bike_id":"18d8c418-2b69-4149-a5a0-807a664a8a64","system_id":"levelo_inurba_marseille","lat":43.276093,"lon":5.361064,"is_reserved":false,"is_disabled":false,"rental_uris":{"android":"levelo://app?vid=18d8c418-2b69-4149-a5a0-807a664a8a64","ios":"levelo://app?vid=18d8c418-2b69-4149-a5a0-807a664a8a64"},"vehicle_type_id":"4","last_reported":1727968137,"current_range_meters":6400,"station_id":"ce4bgj92rcd13ifvqbe0","pricing_plan_id":"cebpf4jnsgd1na2vs0mg"},{"bike_id":"407fd691-23d6-4bd2-b40a-edf6fd18cdda","system_id":"levelo_inurba_marseille","lat":43.28412,"lon":5.34996,"is_reserved":false,"is_disabled":false,"rental_uris":{"android":"levelo://app?vid=407fd691-23d6-4bd2-b40a-edf6fd18cdda","ios":"levelo://app?vid=407fd691-23d6-4bd2-b40a-edf6fd18cdda"},"vehicle_type_id":"4","last_reported":1727968137,"current_range_meters":33600,"station_id":"ce4bhbh2rcd13ifvqepg","pricing_plan_id":"cebpf4jnsgd1na2vs0mg"},{"bike_id":"f6f69906-df2a-42be-abfb-a71747207831","system_id":"levelo_inurba_marseille","lat":43.2737,"lon":5.3625,"is_reserved":false,"is_disabled":false,"rental_uris":{"android":"levelo://app?vid=f6f69906-df2a-42be-abfb-a71747207831","ios":"levelo://app?vid=f6f69906-df2a-42be-abfb-a71747207831"},"vehicle_type_id":"4","last_reported":1727968137,"current_range_meters":34000,"station_id":"ce4bhbh2rcd13ifvqeo0","pricing_plan_id":"cebpf4jnsgd1na2vs0mg"},{"bike_id":"77a1a18b-cc4c-41f5-8e88-04b8e0996048","system_id":"levelo_inurba_marseille","lat":43.25493,"lon":5.3765,"is_reserved":false,"is_disabled":false,"rental_uris":{"android":"levelo://app?vid=77a1a18b-cc4c-41f5-8e88-04b8e0996048","ios":"levelo://app?vid=77a1a18b-cc4c-41f5-8e88-04b8e0996048"},"vehicle_type_id":"4","last_reported":1727968137,"current_range_meters":9200,"station_id":"ce4bhh12rcd13ifvqff0","pricing_plan_id":"cebpf4jnsgd1na2vs0mg"},{"bike_id":"06ad658d-8308-4c1d-843d-11cf8fc1151e","system_id":"levelo_inurba_marseille","lat":43.26498,"lon":5.39542,"is_reserved":false,"is_disabled":false,"rental_uris":{"android":"levelo://app?vid=06ad658d-8308-4c1d-843d-11cf8fc1151e","ios":"levelo://app?vid=06ad658d-8308-4c1d-843d-11cf8fc1151e"},"vehicle_type_id":"4","last_reported":1727968137,"current_range_meters":38800,"station_id":"ce4bhi12rcd13ifvqfq0","pricing_plan_id":"cebpf4jnsgd1na2vs0mg"},{"bike_id":"8d51ed8e-d02c-486a-af7c-e563e5e333bb","system_id":"levelo_inurba_marseille","lat":43.29841,"lon":5.36261,"is_reserved":false,"is_disabled":false,"rental_uris":{"android":"levelo://app?vid=8d51ed8e-d02c-486a-af7c-e563e5e333bb","ios":"levelo://app?vid=8d51ed8e-d02c-486a-af7c-e563e5e333bb"},"vehicle_type_id":"4","last_reported":1727968137,"current_range_meters":38800,"station_id":"ce4bgpp2rcd13ifvqc3g","pricing_plan_id":"cebpf4jnsgd1na2vs0mg"},{"bike_id":"c7423c26-5f92-4138-ba93-e42994450e46","system_id":"levelo_inurba_marseille","lat":43.30799,"lon":5.38158,"is_reserved":false,"is_disabled":false,"rental_uris":{"android":"levelo://app?vid=c7423c26-5f92-4138-ba93-e42994450e46","ios":"levelo://app?vid=c7423c26-5f92-4138-ba93-e42994450e46"},"vehicle_type_id":"4","last_reported":1727968137,"current_range_meters":28400,"station_id":"ce4bgt12rcd13ifvqce0","pricing_plan_id":"cebpf4jnsgd1na2vs0mg"},{"bike_id":"7dea0697-5280-49ce-98bb-122bd20e16fc","system_id":"levelo_inurba_marseille","lat":43.3055,"lon":5.36701,"is_reserved":false,"is_disabled":false,"rental_uris":{"android":"levelo://app?vid=7dea0697-5280-49ce-98bb-122bd20e16fc","ios":"levelo://app?vid=7dea0697-5280-49ce-98bb-122bd20e16fc"},"vehicle_type_id":"4","last_reported":1727968137,"current_range_meters":19600,"station_id":"ce4bgrp2rcd13ifvqc9g","pricing_plan_id":"cebpf4jnsgd1na2vs0mg"},{"bike_id":"2ad80933-d74d-4d4c-b1f4-2f447df1163e","system_id":"levelo_inurba_marseille","lat":43.30308,"lon":5.39215,"is_reserved":false,"is_disabled":false,"rental_uris":{"android":"levelo://app?vid=2ad80933-d74d-4d4c-b1f4-2f447df1163e","ios":"levelo://app?vid=2ad80933-d74d-4d4c-b1f4-2f447df1163e"},"vehicle_type_id":"4","last_reported":1727968137,"current_range_meters":24800,"station_id":"","pricing_plan_id":"cebpf4jnsgd1na2vs0mg"},{"bike_id":"c47e0e48-c339-4138-9bbb-6c2a94243711","system_id":"levelo_inurba_marseille","lat":43.25086,"lon":5.39517,"is_reserved":false,"is_disabled":false,"rental_uris":{"android":"levelo://app?vid=c47e0e48-c339-4138-9bbb-6c2a94243711","ios":"levelo://app?vid=c47e0e48-c339-4138-9bbb-6c2a94243711"},"vehicle_type_id":"4","last_reported":1727968137,"current_range_meters":38800,"station_id":"ce4bhm12rcd13ifvqgkg","pricing_plan_id":"cebpf4jnsgd1na2vs0mg"},{"bike_id":"96ffa90f-820e-4f46-8594-e17a1828da96","system_id":"levelo_inurba_marseille","lat":43.26783,"lon":5.39417,"is_reserved":false,"is_disabled":false,"rental_uris":{"android":"levelo://app?vid=96ffa90f-820e-4f46-8594-e17a1828da96","ios":"levelo://app?vid=96ffa90f-820e-4f46-8594-e17a1828da96"},"vehicle_type_id":"4","last_reported":1727968137,"current_range_meters":26800,"station_id":"ce4bhh12rcd13ifvqfg0","pricing_plan_id":"cebpf4jnsgd1na2vs0mg"},{"bike_id":"05d2f4df-bf8e-47e0-8951-2cd1bba07e8e","system_id":"levelo_inurba_marseille","lat":43.2962,"lon":5.37153,"is_reserved":false,"is_disabled":false,"rental_uris":{"android":"levelo://app?vid=05d2f4df-bf8e-47e0-8951-2cd1bba07e8e","ios":"levelo://app?vid=05d2f4df-bf8e-47e0-8951-2cd1bba07e8e"},"vehicle_type_id":"4","last_reported":1727968137,"current_range_meters":14400,"station_id":"ce4bgnh2rcd13ifvqc0g","pricing_plan_id":"cebpf4jnsgd1na2vs0mg"},{"bike_id":"f127aaff-6609-4f16-8ba0-64500990d923","system_id":"levelo_inurba_marseille","lat":43.27949,"lon":5.4105,"is_reserved":false,"is_disabled":false,"rental_uris":{"android":"levelo://app?vid=f127aaff-6609-4f16-8ba0-64500990d923","ios":"levelo://app?vid=f127aaff-6609-4f16-8ba0-64500990d923"},"vehicle_type_id":"4","last_reported":1727968137,"current_range_meters":35200,"station_id":"ce4bhnp2rcd13ifvqh0g","pricing_plan_id":"cebpf4jnsgd1na2vs0mg"},{"bike_id":"acc9b148-7c17-413f-884e-3202aba7a94c","system_id":"levelo_inurba_marseille","lat":43.33022,"lon":5.39043,"is_reserved":false,"is_disabled":false,"rental_uris":{"android":"levelo://app?vid=acc9b148-7c17-413f-884e-3202aba7a94c","ios":"levelo://app?vid=acc9b148-7c17-413f-884e-3202aba7a94c"},"vehicle_type_id":"4","last_reported":1727968137,"current_range_meters":31200,"station_id":"ce4bhr92rcd13ifvqhrg","pricing_plan_id":"cebpf4jnsgd1na2vs0mg"},{"bike_id":"75f981bd-5acf-473a-ab56-e402d5562fa8","system_id":"levelo_inurba_marseille","lat":43.2984,"lon":5.36259,"is_reserved":false,"is_disabled":false,"rental_uris":{"android":"levelo://app?vid=75f981bd-5acf-473a-ab56-e402d5562fa8","ios":"levelo://app?vid=75f981bd-5acf-473a-ab56-e402d5562fa8"},"vehicle_type_id":"4","last_reported":1727968137,"current_range_meters":24800,"station_id":"ce4bgpp2rcd13ifvqc3g","pricing_plan_id":"cebpf4jnsgd1na2vs0mg"},{"bike_id":"46f548bc-6a04-4e92-8a25-6aa196b784c3","system_id":"levelo_inurba_marseille","lat":43.24165,"lon":5.36403,"is_reserved":false,"is_disabled":false,"rental_uris":{"android":"levelo://app?vid=46f548bc-6a04-4e92-8a25-6aa196b784c3","ios":"levelo://app?vid=46f548bc-6a04-4e92-8a25-6aa196b784c3"},"vehicle_type_id":"4","last_reported":1727968137,"current_range_meters":34000,"station_id":"cpo36qri1sfpv3e86is0","pricing_plan_id":"cebpf4jnsgd1na2vs0mg"},{"bike_id":"402b57fe-8d3d-4a8c-ad9d-ce7a4fcc208e","system_id":"levelo_inurba_marseille","lat":43.25489,"lon":5.37653,"is_reserved":false,"is_disabled":false,"rental_uris":{"android":"levelo://app?vid=402b57fe-8d3d-4a8c-ad9d-ce7a4fcc208e","ios":"levelo://app?vid=402b57fe-8d3d-4a8c-ad9d-ce7a4fcc208e"},"vehicle_type_id":"4","last_reported":1727968137,"current_range_meters":28800,"station_id":"ce4bhh12rcd13ifvqff0","pricing_plan_id":"cebpf4jnsgd1na2vs0mg"},{"bike_id":"c363bdd3-e364-4cfa-bafa-63da6e6a59df","system_id":"levelo_inurba_marseille","lat":43.27064,"lon":5.42268,"is_reserved":false,"is_disabled":false,"rental_uris":{"android":"levelo://app?vid=c363bdd3-e364-4cfa-bafa-63da6e6a59df","ios":"levelo://app?vid=c363bdd3-e364-4cfa-bafa-63da6e6a59df"},"vehicle_type_id":"4","last_reported":1727968137,"current_range_meters":28800,"station_id":"ce4bhk92rcd13ifvqgb0","pricing_plan_id":"cebpf4jnsgd1na2vs0mg"},{"bike_id":"c5aab0aa-714e-4ad0-bd1b-bfe4a3ec9c98","system_id":"levelo_inurba_marseille","lat":43.28442,"lon":5.39201,"is_reserved":false,"is_disabled":false,"rental_uris":{"android":"levelo://app?vid=c5aab0aa-714e-4ad0-bd1b-bfe4a3ec9c98","ios":"levelo://app?vid=c5aab0aa-714e-4ad0-bd1b-bfe4a3ec9c98"},"vehicle_type_id":"4","last_reported":1727968137,"current_range_meters":3600,"station_id":"ce4bhoh2rcd13ifvqh5g","pricing_plan_id":"cebpf4jnsgd1na2vs0mg"},{"bike_id":"866a79bb-9e21-42ea-b410-dbae959d1c1d","system_id":"levelo_inurba_marseille","lat":43.28419,"lon":5.34989,"is_reserved":false,"is_disabled":false,"rental_uris":{"android":"levelo://app?vid=866a79bb-9e21-42ea-b410-dbae959d1c1d","ios":"levelo://app?vid=866a79bb-9e21-42ea-b410-dbae959d1c1d"},"vehicle_type_id":"4","last_reported":1727968137,"current_range_meters":38800,"station_id":"ce4bhbh2rcd13ifvqepg","pricing_plan_id":"cebpf4jnsgd1na2vs0mg"},{"bike_id":"b170bbea-d78b-4285-8517-a99b0a2ca83b","system_id":"levelo_inurba_marseille","lat":43.26557,"lon":5.37288,"is_reserved":false,"is_disabled":false,"rental_uris":{"android":"levelo://app?vid=b170bbea-d78b-4285-8517-a99b0a2ca83b","ios":"levelo://app?vid=b170bbea-d78b-4285-8517-a99b0a2ca83b"},"vehicle_type_id":"4","last_reported":1727968137,"current_range_meters":35600,"station_id":"ce4bhg12rcd13ifvqf70","pricing_plan_id":"cebpf4jnsgd1na2vs0mg"},{"bike_id":"e5497868-1f04-4ea3-809b-03efd433df96","system_id":"levelo_inurba_marseille","lat":43.29273,"lon":5.36849,"is_reserved":false,"is_disabled":false,"rental_uris":{"android":"levelo://app?vid=e5497868-1f04-4ea3-809b-03efd433df96","ios":"levelo://app?vid=e5497868-1f04-4ea3-809b-03efd433df96"},"vehicle_type_id":"4","last_reported":1727968137,"current_range_meters":34000,"station_id":"ce4bhbp2rcd13ifvqesg","pricing_plan_id":"cebpf4jnsgd1na2vs0mg"},