{"last_updated":1692634091,"ttl":30,"version":"2.2","data":{"bikes":[{"bike_id":"c9e6efea-75f2-49f1-915b-3e66230b306d","system_id":"levelo_inurba_marseille","lat":43.312239,"lon":5.368562,"is_reserved":false,"is_disabled":false,"rental_uris":{"android":"levelo://app?vid=c9e6efea-75f2-49f1-915b-3e66230b306d","ios":"levelo://app?vid=c9e6efea-75f2-49f1-915b-3e66230b306d"},"vehicle_type_id":"4","last_reported":1692634091,"current_range_meters":24000,"station_id":"ce4bgl92rcd13ifvqbq0","pricing_plan_id":"free"},{"bike_id":"f22ca441-4e4e-4660-b824-b2f46943e54d","system_id":"levelo_inurba_marseille","lat":43.312239,"lon":5.368562,"is_reserved":false,"is_disabled":false,"rental_uris":{"android":"levelo://app?vid=f22ca441-4e4e-4660-b824-b2f46943e54d","ios":"levelo://app?vid=f22ca441-4e4e-4660-b824-b2f46943e54d"},"vehicle_type_id":"4","last_reported":1692634091,"current_range_meters":31200,"station_id":"ce4bgl92rcd13ifvqbq0","pricing_plan_id":"free"},{"bike_id":"e12e57da-e3f7-4f92-afbb-e1683ef4f622","system_id":"levelo_inurba_marseille","lat":43.312239,"lon":5.368562,"is_reserved":false,"is_disabled":false,"rental_uris":{"android":"levelo://app?vid=e12e57da-e3f7-4f92-afbb-e1683ef4f622","ios":"levelo://app?vid=e12e57da-e3f7-4f92-afbb-e1683ef4f622"},"vehicle_type_id":"4","last_reported":1692634091,"current_range_meters":21600,"station_id":"ce4bgl92rcd13ifvqbq0","pricing_plan_id":"free"},{"bike_id":"45d03b7d-964c-4419-8b0f-12eb5263eb1d","system_id":"levelo_inurba_marseille","lat":43.31376,"lon":5.37617,"is_reserved":false,"is_disabled":false,"rental_uris":{"android":"levelo://app?vid=45d03b7d-964c-4419-8b0f-12eb5263eb1d","ios":"levelo://app?vid=45d03b7d-964c-4419-8b0f-12eb5263eb1d"},"vehicle_type_id":"4","last_reported":1692634091,"current_range_meters":9200,"station_id":"","pricing_plan_id":"free"},{"bike_id":"bda0e298-3a03-4454-8749-8b80a1cf599f","system_id":"levelo_inurba_marseille","lat":43.305706,"lon":5.365654,"is_reserved":false,"is_disabled":false,"rental_uris":{"android":"levelo://app?vid=bda0e298-3a03-4454-8749-8b80a1cf599f","ios":"levelo://app?vid=bda0e298-3a03-4454-8749-8b80a1cf599f"},"vehicle_type_id":"4","last_reported":1692634091,"current_range_meters":22000,"station_id":"ce4bgs12rcd13ifvqcag","pricing_plan_id":"free"},{"bike_id":"3d279b87-cc49-443a-89cf-c28ef98bc64e","system_id":"levelo_inurba_marseille","lat":43.305706,"lon":5.365654,"is_reserved":false,"is_disabled":false,"rental_uris":{"android":"levelo://app?vid=3d279b87-cc49-443a-89cf-c28ef98bc64e","ios":"levelo://app?vid=3d279b87-cc49-443a-89cf-c28ef98bc64e"},"vehicle_type_id":"4","last_reported":1692634091,"current_range_meters":17600,"station_id":"ce4bgs12rcd13ifvqcag","pricing_plan_id":"free"},{"bike_id":"9fbe6e18-d192-44c2-98b5-cafb68b41aa4","system_id":"levelo_inurba_marseille","lat":43.30537,"lon":5.36524,"is_reserved":false,"is_disabled":false,"rental_uris":{"android":"levelo://app?vid=9fbe6e18-d192-44c2-98b5-cafb68b41aa4","ios":"levelo://app?vid=9fbe6e18-d192-44c2-98b5-cafb68b41aa4"},"vehicle_type_id":"4","last_reported":1692634091,"current_range_meters":31600,"station_id":"ce4bgs12rcd13ifvqcag","pricing_plan_id":"free"},{"bike_id":"798c839e-52be-45de-89e4-03e1531c7411","system_id":"levelo_inurba_marseille","lat":43.31119,"lon":5.37761,"is_reserved":false,"is_disabled":false,"rental_uris":{"android":"levelo://app?vid=798c839e-52be-45de-89e4-03e1531c7411","ios":"levelo://app?vid=798c839e-52be-45de-89e4-03e1531c7411"},"vehicle_type_id":"4","last_reported":1692634091,"current_range_meters":2400,"station_id":"ce4bgt92rcd13ifvqcg0","pricing_plan_id":"free"},{"bike_id":"16b78517-b021-4a0f-804d-ba352469ac32","system_id":"levelo_inurba_marseille","lat":43.31704,"lon":5.37737,"is_reserved":false,"is_disabled":false,"rental_uris":{"android":"levelo://app?vid=16b78517-b021-4a0f-804d-ba352469ac32","ios":"levelo://app?vid=16b78517-b021-4a0f-804d-ba352469ac32"},"vehicle_type_id":"4","last_reported":1692634091,"current_range_meters":30000,"station_id":"ce4bgth2rcd13ifvqch0","pricing_plan_id":"free"},{"bike_id":"3f76f2fa-48fc-43dc-9b64-1b006c5e7d4e","system_id":"levelo_inurba_marseille","lat":43.317075,"lon":5.377367,"is_reserved":false,"is_disabled":false,"rental_uris":{"android":"levelo://app?vid=3f76f2fa-48fc-43dc-9b64-1b006c5e7d4e","ios":"levelo://app?vid=3f76f2fa-48fc-43dc-9b64-1b006c5e7d4e"},"vehicle_type_id":"4","last_reported":1692634091,"current_range_meters":28000,"station_id":"ce4bgth2rcd13ifvqch0","pricing_plan_id":"free"},{"bike_id":"5227d055-50fc-4e1d-ab29-4a9bc6198dfa","system_id":"levelo_inurba_marseille","lat":43.30306,"lon":5.36878,"is_reserved":false,"is_disabled":false,"rental_uris":{"android":"levelo://app?vid=5227d055-50fc-4e1d-ab29-4a9bc6198dfa","ios":"levelo://app?vid=5227d055-50fc-4e1d-ab29-4a9bc6198dfa"},"vehicle_type_id":"4","last_reported":1692634091,"current_range_meters":0,"station_id":"ce4bgqh2rcd13ifvqc5g","pricing_plan_id":"free"},{"bike_id":"98baefb0-d5a1-49a6-836f-3598468fa56d","system_id":"levelo_inurba_marseille","lat":43.31535,"lon":5.38023,"is_reserved":false,"is_disabled":false,"rental_uris":{"android":"levelo://app?vid=98baefb0-d5a1-49a6-836f-3598468fa56d","ios":"levelo://app?vid=98baefb0-d5a1-49a6-836f-3598468fa56d"},"vehicle_type_id":"4","last_reported":1692634091,"current_range_meters":12800,"station_id":"ce4bhsp2rcd13ifvqi50","pricing_plan_id":"free"},{"bike_id":"39598f08-7ff2-45aa-86fa-1912416406b6","system_id":"levelo_inurba_marseille","lat":43.31526,"lon":5.38034,"is_reserved":false,"is_disabled":false,"rental_uris":{"android":"levelo://app?vid=39598f08-7ff2-45aa-86fa-1912416406b6","ios":"levelo://app?vid=39598f08-7ff2-45aa-86fa-1912416406b6"},"vehicle_type_id":"4","last_reported":1692634091,"current_range_meters":0,"station_id":"ce4bhsp2rcd13ifvqi50","pricing_plan_id":"free"},{"bike_id":"c0baba88-a966-4576-81eb-ee9924bcba65","system_id":"levelo_inurba_marseille","lat":43.31533,"lon":5.38034,"is_reserved":false,"is_disabled":false,"rental_uris":{"android":"levelo://app?vid=c0baba88-a966-4576-81eb-ee9924bcba65","ios":"levelo://app?vid=c0baba88-a966-4576-81eb-ee9924bcba65"},"vehicle_type_id":"4","last_reported":1692634091,"current_range_meters":19200,"station_id":"ce4bhsp2rcd13ifvqi50","pricing_plan_id":"free"},{"bike_id":"e7452ebf-16dc-4f46-b5f4-b6aac02a4016","system_id":"levelo_inurba_marseille","lat":43.31533,"lon":5.38039,"is_reserved":false,"is_disabled":false,"rental_uris":{"android":"levelo://app?vid=e7452ebf-16dc-4f46-b5f4-b6aac02a4016","ios":"levelo://app?vid=e7452ebf-16dc-4f46-b5f4-b6aac02a4016"},"vehicle_type_id":"4","last_reported":1692634091,"current_range_meters":12000,"station_id":"ce4bhsp2rcd13ifvqi50","pricing_plan_id":"free"},{"bike_id":"cca0c17b-98b3-4969-a97c-bdd715cd2ef2","system_id":"levelo_inurba_marseille","lat":43.304606,"lon":5.379026,"is_reserved":false,"is_disabled":false,"rental_uris":{"android":"levelo://app?vid=cca0c17b-98b3-4969-a97c-bdd715cd2ef2","ios":"levelo://app?vid=cca0c17b-98b3-4969-a97c-bdd715cd2ef2"},"vehicle_type_id":"4","last_reported":1692634091,"current_range_meters":3600,"station_id":"ce4bgup2rcd13ifvqcn0","pricing_plan_id":"free"},{"bike_id":"70f8befb-a53c-4b5c-9cb7-56515d461019","system_id":"levelo_inurba_marseille","lat":43.302784,"lon":5.377158,"is_reserved":false,"is_disabled":false,"rental_uris":{"android":"levelo://app?vid=70f8befb-a53c-4b5c-9cb7-56515d461019","ios":"levelo://app?vid=70f8befb-a53c-4b5c-9cb7-56515d461019"},"vehicle_type_id":"4","last_reported":1692634091,"current_range_meters":23200,"station_id":"ce4bguh2rcd13ifvqcj0","pricing_plan_id":"free"},{"bike_id":"0ecf91e7-a610-4b4a-ad45-dd37d1727f2f","system_id":"levelo_inurba_marseille","lat":43.30145,"lon":5.37426,"is_reserved":false,"is_disabled":false,"rental_uris":{"android":"levelo://app?vid=0ecf91e7-a610-4b4a-ad45-dd37d1727f2f","ios":"levelo://app?vid=0ecf91e7-a610-4b4a-ad45-dd37d1727f2f"},"vehicle_type_id":"4","last_reported":1692634091,"current_range_meters":25200,"station_id":"ce4bgs92rcd13ifvqcc0","pricing_plan_id":"free"},{"bike_id":"ef37f8fe-19d1-440d-8938-bd3b5c7eb906","system_id":"levelo_inurba_marseille","lat":43.313571,"lon":5.384829,"is_reserved":false,"is_disabled":false,"rental_uris":{"android":"levelo://app?vid=ef37f8fe-19d1-440d-8938-bd3b5c7eb906","ios":"levelo://app?vid=ef37f8fe-19d1-440d-8938-bd3b5c7eb906"},"vehicle_type_id":"4","last_reported":1692634091,"current_range_meters":3600,"station_id":"ce4bgt92rcd13ifvqcf0","pricing_plan_id":"free"},{"bike_id":"a6da593c-da06-4cb5-9fed-b256fb00c466","system_id":"levelo_inurba_marseille","lat":43.313571,"lon":5.384829,"is_reserved":false,"is_disabled":false,"rental_uris":{"android":"levelo://app?vid=a6da593c-da06-4cb5-9fed-b256fb00c466","ios":"levelo://app?vid=a6da593c-da06-4cb5-9fed-b256fb00c466"},"vehicle_type_id":"4","last_reported":1692634091,"current_range_meters":800,"station_id":"ce4bgt92rcd13ifvqcf0","pricing_plan_id":"free"},{"bike_id":"f0be8489-0ce7-4b6a-9e54-1944c8ced1a7","system_id":"levelo_inurba_marseille","lat":43.299724,"lon":5.371829,"is_reserved":false,"is_disabled":false,"rental_uris":{"android":"levelo://app?vid=f0be8489-0ce7-4b6a-9e54-1944c8ced1a7","ios":"levelo://app?vid=f0be8489-0ce7-4b6a-9e54-1944c8ced1a7"},"vehicle_type_id":"4","last_reported":1692634091,"current_range_meters":4000,"station_id":"ce4bgr92rcd13ifvqc7g","pricing_plan_id":"free"},{"bike_id":"e9297c30-8c4c-4d0b-84a0-42099759f341","system_id":"levelo_inurba_marseille","lat":43.29973,"lon":5.37184,"is_reserved":false,"is_disabled":false,"rental_uris":{"android":"levelo://app?vid=e9297c30-8c4c-4d0b-84a0-42099759f341","ios":"levelo://app?vid=e9297c30-8c4c-4d0b-84a0-42099759f341"},"vehicle_type_id":"4","last_reported":1692634091,"current_range_meters":2400,"station_id":"ce4bgr92rcd13ifvqc7g","pricing_plan_id":"free"},{"bike_id":"95dc9ecf-047e-4c3a-bb12-a5676cb36ad4","system_id":"levelo_inurba_marseille","lat":43.3216,"lon":5.38166,"is_reserved":false,"is_disabled":false,"rental_uris":{"android":"levelo://app?vid=95dc9ecf-047e-4c3a-bb12-a5676cb36ad4","ios":"levelo://app?vid=95dc9ecf-047e-4c3a-bb12-a5676cb36ad4"},"vehicle_type_id":"4","last_reported":1692634091,"current_range_meters":10800,"station_id":"","pricing_plan_id":"free"},{"bike_id":"b1d70a39-ed88-4ba3-bcc4-5a9b414a8170","system_id":"levelo_inurba_marseille","lat":43.31173,"lon":5.38709,"is_reserved":false,"is_disabled":false,"rental_uris":{"android":"levelo://app?vid=b1d70a39-ed88-4ba3-bcc4-5a9b414a8170","ios":"levelo://app?vid=b1d70a39-ed88-4ba3-bcc4-5a9b414a8170"},"vehicle_type_id":"4","last_reported":1692634091,"current_range_meters":31200,"station_id":"ce4bgv12rcd13ifvqcp0","pricing_plan_id":"free"},{"bike_id":"8c1cc6b4-f6a6-4e60-a03a-2a6fae2ea366","system_id":"levelo_inurba_marseille","lat":43.311722,"lon":5.387247,"is_reserved":false,"is_disabled":false,"rental_uris":{"android":"levelo://app?vid=8c1cc6b4-f6a6-4e60-a03a-2a6fae2ea366","ios":"levelo://app?vid=8c1cc6b4-f6a6-4e60-a03a-2a6fae2ea366"},"vehicle_type_id":"4","last_reported":1692634091,"current_range_meters":27600,"station_id":"ce4bgv12rcd13ifvqcp0","pricing_plan_id":"free"},{"bike_id":"8c15a79f-9ae7-412b-b39b-7dd7e7fc66b9","system_id":"levelo_inurba_marseille","lat":43.31176,"lon":5.38713,"is_reserved":false,"is_disabled":false,"rental_uris":{"android":"levelo://app?vid=8c15a79f-9ae7-412b-b39b-7dd7e7fc66b9","ios":"levelo://app?vid=8c15a79f-9ae7-412b-b39b-7dd7e7fc66b9"},"vehicle_type_id":"4","last_reported":1692634091,"current_range_meters":31200,"station_id":"ce4bgv12rcd13ifvqcp0","pricing_plan_id":"free"},{"bike_id":"60f07e60-4960-4140-bd66-059c39eff124","system_id":"levelo_inurba_marseille","lat":43.31167,"lon":5.38714,"is_reserved":false,"is_disabled":false,"rental_uris":{"android":"levelo://app?vid=60f07e60-4960-4140-bd66-059c39eff124","ios":"levelo://app?vid=60f07e60-4960-4140-bd66-059c39eff124"},"vehicle_type_id":"4","last_reported":1692634091,"current_range_meters":31200,"station_id":"ce4bgv12rcd13ifvqcp0","pricing_plan_id":"free"},{"bike_id":"b885f463-e8c5-42cc-902f-7152167ce1c7","system_id":"levelo_inurba_marseille","lat":43.29915,"lon":5.37499,"is_reserved":false,"is_disabled":false,"rental_uris":{"android":"levelo://app?vid=b885f463-e8c5-42cc-902f-7152167ce1c7","ios":"levelo://app?vid=b885f463-e8c5-42cc-902f-7152167ce1c7"},"vehicle_type_id":"4","last_reported":1692634091,"current_range_meters":28800,"station_id":"ce4bgjh2rcd13ifvqbg0","pricing_plan_id":"free"},{"bike_id":"48773837-8a01-4137-95bb-600dc54ff51e","system_id":"levelo_inurba_marseille","lat":43.32293,"lon":5.38258,"is_reserved":false,"is_disabled":false,"rental_uris":{"android":"levelo://app?vid=48773837-8a01-4137-95bb-600dc54ff51e","ios":"levelo://app?vid=48773837-8a01-4137-95bb-600dc54ff51e"},"vehicle_type_id":"4","last_reported":1692634091,"current_range_meters":31200,"station_id":"ce4bhr12rcd13ifvqhqg","pricing_plan_id":"free"},{"bike_id":"eb70974a-c524-46d9-b5be-026bf2b9f1f4","system_id":"levelo_inurba_marseille","lat":43.32824,"lon":5.36687,"is_reserved":false,"is_disabled":false,"rental_uris":{"android":"levelo://app?vid=eb70974a-c524-46d9-b5be-026bf2b9f1f4","ios":"levelo://app?vid=eb70974a-c524-46d9-b5be-026bf2b9f1f4"},"vehicle_type_id":"4","last_reported":1692634091,"current_range_meters":25200,"station_id":"ce4bhs92rcd13ifvqi0g","pricing_plan_id":"free"},{"bike_id":"97897afe-9902-4c43-9f19-d17acb314f86","system_id":"levelo_inurba_marseille","lat":43.32824,"lon":5.36673,"is_reserved":false,"is_disabled":false,"rental_uris":{"android":"levelo://app?vid=97897afe-9902-4c43-9f19-d17acb314f86","ios":"levelo://app?vid=97897afe-9902-4c43-9f19-d17acb314f86"},"vehicle_type_id":"4","last_reported":1692634091,"current_range_meters":22000,"station_id":"ce4bhs92rcd13ifvqi0g","pricing_plan_id":"free"},{"bike_id":"5b8e48f9-77d7-46c4-8853-5410f28c6930","system_id":"levelo_inurba_marseille","lat":43.32825,"lon":5.36679,"is_reserved":false,"is_disabled":false,"rental_uris":{"android":"levelo://app?vid=5b8e48f9-77d7-46c4-8853-5410f28c6930","ios":"levelo://app?vid=5b8e48f9-77d7-46c4-8853-5410f28c6930"},"vehicle_type_id":"4","last_reported":1692634091,"current_range_meters":30000,"station_id":"ce4bhs92rcd13ifvqi0g","pricing_plan_id":"free"},{"bike_id":"98647f47-5187-42cd-8802-93c51d8c232d","system_id":"levelo_inurba_marseille","lat":43.328269,"lon":5.36677,"is_reserved":false,"is_disabled":false,"rental_uris":{"android":"levelo://app?vid=98647f47-5187-42cd-8802-93c51d8c232d","ios":"levelo://app?vid=98647f47-5187-42cd-8802-93c51d8c232d"},"vehicle_type_id":"4","last_reported":1692634091,"current_range_meters":8800,"station_id":"ce4bhs92rcd13ifvqi0g","pricing_plan_id":"free"},{"bike_id":"fd6db2c3-48eb-4aff-9c39-32c2e49d01ed","system_id":"levelo_inurba_marseille","lat":43.32827,"lon":5.36677,"is_reserved":false,"is_disabled":false,"rental_uris":{"android":"levelo://app?vid=fd6db2c3-48eb-4aff-9c39-32c2e49d01ed","ios":"levelo://app?vid=fd6db2c3-48eb-4aff-9c39-32c2e49d01ed"},"vehicle_type_id":"4","last_reported":1692634091,"current_range_meters":23200,"station_id":"ce4bhs92rcd13ifvqi0g","pricing_plan_id":"free"},{"bike_id":"853e5f2a-04f9-4353-a7e9-c7a96efd0b48","system_id":"levelo_inurba_marseille","lat":43.32828,"lon":5.36676,"is_reserved":false,"is_disabled":false,"rental_uris":{"android":"levelo://app?vid=853e5f2a-04f9-4353-a7e9-c7a96efd0b48","ios":"levelo://app?vid=853e5f2a-04f9-4353-a7e9-c7a96efd0b48"},"vehicle_type_id":"4","last_reported":1692634091,"current_range_meters":21200,"station_id":"ce4bhs92rcd13ifvqi0g","pricing_plan_id":"free"},{"bike_id":"c7e961d5-230f-4d8f-bad1-026546c8c1ba","system_id":"levelo_inurba_marseille","lat":43.32829,"lon":5.36679,"is_reserved":false,"is_disabled":false,"rental_uris":{"android":"levelo://app?vid=c7e961d5-230f-4d8f-bad1-026546c8c1ba","ios":"levelo://app?vid=c7e961d5-230f-4d8f-bad1-026546c8c1ba"},"vehicle_type_id":"4","last_reported":1692634091,"current_range_meters":18000,"station_id":"ce4bhs92rcd13ifvqi0g","pricing_plan_id":"free"},{"bike_id":"5bbef7a0-1325-4f1f-9b42-d044170d6e83","system_id":"levelo_inurba_marseille","lat":43.32829,"lon":5.36678,"is_reserved":false,"is_disabled":false,"rental_uris":{"android":"levelo://app?vid=5bbef7a0-1325-4f1f-9b42-d044170d6e83","ios":"levelo://app?vid=5bbef7a0-1325-4f1f-9b42-d044170d6e83"},"vehicle_type_id":"4","last_reported":1692634091,"current_range_meters":6400,"station_id":"ce4bhs92rcd13ifvqi0g","pricing_plan_id":"free"},{"bike_id":"693b7c50-ec4a-4c19-8146-c32ca6a50962","system_id":"levelo_inurba_marseille","lat":43.3283,"lon":5.36686,"is_reserved":false,"is_disabled":false,"rental_uris":{"android":"levelo://app?vid=693b7c50-ec4a-4c19-8146-c32ca6a50962","ios":"levelo://app?vid=693b7c50-ec4a-4c19-8146-c32ca6a50962"},"vehicle_type_id":"4","last_reported":1692634091,"current_range_meters":29600,"station_id":"ce4bhs92rcd13ifvqi0g","pricing_plan_id":"free"},{"bike_id":"4c6c1221-0539-4c92-b6c8-75c96bd6858f","system_id":"levelo_inurba_marseille","lat":43.3283,"lon":5.36676,"is_reserved":false,"is_disabled":false,"rental_uris":{"android":"levelo://app?vid=4c6c1221-0539-4c92-b6c8-75c96bd6858f","ios":"levelo://app?vid=4c6c1221-0539-4c92-b6c8-75c96bd6858f"},"vehicle_type_id":"4","last_reported":1692634091,"current_range_meters":18800,"station_id":"ce4bhs92rcd13ifvqi0g","pricing_plan_id":"free"},{"bike_id":"acbd9ce9-3f5e-4d79-92f1-0e9dcf940928","system_id":"levelo_inurba_marseille","lat":43.32831,"lon":5.36683,"is_reserved":false,"is_disabled":false,"rental_uris":{"android":"levelo://app?vid=acbd9ce9-3f5e-4d79-92f1-0e9dcf940928","ios":"levelo://app?vid=acbd9ce9-3f5e-4d79-92f1-0e9dcf940928"},"vehicle_type_id":"4","last_reported":1692634091,"current_range_meters":25600,"station_id":"ce4bhs92rcd13ifvqi0g","pricing_plan_id":"free"},{"bike_id":"5294138b-9bb9-4604-b9d8-3b40ea6fb703","system_id":"levelo_inurba_marseille","lat":43.32832,"lon":5.36675,"is_reserved":false,"is_disabled":false,"rental_uris":{"android":"levelo://app?vid=5294138b-9bb9-4604-b9d8-3b40ea6fb703","ios":"levelo://app?vid=5294138b-9bb9-4604-b9d8-3b40ea6fb703"},"vehicle_type_id":"4","last_reported":1692634091,"current_range_meters":22800,"station_id":"ce4bhs92rcd13ifvqi0g","pricing_plan_id":"free"},{"bike_id":"4cbec067-4527-483a-818d-69c4afd2ea31","system_id":"levelo_inurba_marseille","lat":43.32833,"lon":5.36679,"is_reserved":false,"is_disabled":false,"rental_uris":{"android":"levelo://app?vid=4cbec067-4527-483a-818d-69c4afd2ea31","ios":"levelo://app?vid=4cbec067-4527-483a-818d-69c4afd2ea31"},"vehicle_type_id":"4","last_reported":1692634091,"current_range_meters":13200,"station_id":"ce4bhs92rcd13ifvqi0g","pricing_plan_id":"free"},{"bike_id":"8796765b-3a7f-40eb-bfbe-792b3f8c31af","system_id":"levelo_inurba_marseille","lat":43.297163,"lon":5.365866,"is_reserved":false,"is_disabled":false,"rental_uris":{"android":"levelo://app?vid=8796765b-3a7f-40eb-bfbe-792b3f8c31af","ios":"levelo://app?vid=8796765b-3a7f-40eb-bfbe-792b3f8c31af"},"vehicle_type_id":"4","last_reported":1692634091,"current_range_meters":24000,"station_id":"ce4bgn12rcd13ifvqbt0","pricing_plan_id":"free"},{"bike_id":"dd789220-e7b5-42c1-b9dc-dc4243148021","system_id":"levelo_inurba_marseille","lat":43.297163,"lon":5.365866,"is_reserved":false,"is_disabled":false,"rental_uris":{"android":"levelo://app?vid=dd789220-e7b5-42c1-b9dc-dc4243148021","ios":"levelo://app?vid=dd789220-e7b5-42c1-b9dc-dc4243148021"},"vehicle_type_id":"4","last_reported":1692634091,"current_range_meters":31200,"station_id":"ce4bgn12rcd13ifvqbt0","pricing_plan_id":"free"},{"bike_id":"bb155e93-116e-494a-9911-2df351c7dae8","system_id":"levelo_inurba_marseille","lat":43.296129,"lon":5.370777,"is_reserved":false,"is_disabled":false,"rental_uris":{"android":"levelo://app?vid=bb155e93-116e-494a-9911-2df351c7dae8","ios":"levelo://app?vid=bb155e93-116e-494a-9911-2df351c7dae8"},"vehicle_type_id":"4","last_reported":1692634091,"current_range_meters":28400,"station_id":"ce4bgnh2rcd13ifvqc0g","pricing_plan_id":"free"},{"bike_id":"d3139180-8ba9-4c91-b6e4-8baae3c22113","system_id":"levelo_inurba_marseille","lat":43.296131,"lon":5.370773,"is_reserved":false,"is_disabled":false,"rental_uris":{"android":"levelo://app?vid=d3139180-8ba9-4c91-b6e4-8baae3c22113","ios":"levelo://app?vid=d3139180-8ba9-4c91-b6e4-8baae3c22113"},"vehicle_type_id":"4","last_reported":1692634091,"current_range_meters":31200,"station_id":"ce4bgnh2rcd13ifvqc0g","pricing_plan_id":"free"},{"bike_id":"68914e65-d050-4f96-87b6-04c982d40cae","system_id":"levelo_inurba_marseille","lat":43.317557,"lon":5.390173,"is_reserved":false,"is_disabled":false,"rental_uris":{"android":"levelo://app?vid=68914e65-d050-4f96-87b6-04c982d40cae","ios":"levelo://app?vid=68914e65-d050-4f96-87b6-04c982d40cae"},"vehicle_type_id":"4","last_reported":1692634091,"current_range_meters":18800,"station_id":"ce4bhqp2rcd13ifvqhng","pricing_plan_id":"free"},{"bike_id":"2e9b467a-933f-4ba1-92e6-50e1d989f258","system_id":"levelo_inurba_marseille","lat":43.31759,"lon":5.39014,"is_reserved":false,"is_disabled":false,"rental_uris":{"android":"levelo://app?vid=2e9b467a-933f-4ba1-92e6-50e1d989f258","ios":"levelo://app?vid=2e9b467a-933f-4ba1-92e6-50e1d989f258"},"vehicle_type_id":"4","last_reported":1692634091,"current_range_meters":12800,"station_id":"ce4bhqp2rcd13ifvqhng","pricing_plan_id":"free"},{"bike_id":"2c93ce6f-c5e1-4ec9-9941-ebb7469bb8f2","system_id":"levelo_inurba_marseille","lat":43.31754,"lon":5.39016,"is_reserved":false,"is_disabled":false,"rental_uris":{"android":"levelo://app?vid=2c93ce6f-c5e1-4ec9-9941-ebb7469bb8f2","ios":"levelo://app?vid=2c93ce6f-c5e1-4ec9-9941-ebb7469bb8f2"},"vehicle_type_id":"4","last_reported":1692634091,"current_range_meters":18400,"station_id":"ce4bhqp2rcd13ifvqhng","pricing_plan_id":"free"},{"bike_id":"b99a8368-ca74-4352-91a1-a135a44b3e75","system_id":"levelo_inurba_marseille","lat":43.317557,"lon":5.390173,"is_reserved":false,"is_disabled":false,"rental_uris":{"android":"levelo://app?vid=b99a8368-ca74-4352-91a1-a135a44b3e75","ios":"levelo://app?vid=b99a8368-ca74-4352-91a1-a135a44b3e75"},"vehicle_type_id":"4","last_reported":1692634091,"current_range_meters":31200,"station_id":"ce4bhqp2rcd13ifvqhng","pricing_plan_id":"free"},{"bike_id":"d79ac143-3344-41a1-a945-ab2fde7729ed","system_id":"levelo_inurba_marseille","lat":43.31754,"lon":5.3902,"is_reserved":false,"is_disabled":false,"rental_uris":{"android":"levelo://app?vid=d79ac143-3344-41a1-a945-ab2fde7729ed","ios":"levelo://app?vid=d79ac143-3344-41a1-a945-ab2fde7729ed"},"vehicle_type_id":"4","last_reported":1692634091,"current_range_meters":9600,"station_id":"ce4bhqp2rcd13ifvqhng","pricing_plan_id":"free"},{"bike_id":"ee25c531-7489-4af7-897f-fbd501101add","system_id":"levelo_inurba_marseille","lat":43.31756,"lon":5.39021,"is_reserved":false,"is_disabled":false,"rental_uris":{"android":"levelo://app?vid=ee25c531-7489-4af7-897f-fbd501101add","ios":"levelo://app?vid=ee25c531-7489-4af7-897f-fbd501101add"},"vehicle_type_id":"4","last_reported":1692634091,"current_range_meters":28000,"station_id":"ce4bhqp2rcd13ifvqhng","pricing_plan_id":"free"},{"bike_id":"07f13e9e-ef8f-4f0b-a6cc-8cabbf97e9a5","system_id":"levelo_inurba_marseille","lat":43.317557,"lon":5.390173,"is_reserved":false,"is_disabled":false,"rental_uris":{"android":"levelo://app?vid=07f13e9e-ef8f-4f0b-a6cc-8cabbf97e9a5","ios":"levelo://app?vid=07f13e9e-ef8f-4f0b-a6cc-8cabbf97e9a5"},"vehicle_type_id":"4","last_reported":1692634091,"current_range_meters":31200,"station_id":"ce4bhqp2rcd13ifvqhng","pricing_plan_id":"free"},{"bike_id":"982c10ba-43a5-4da2-bea5-f45853dd1c9e","system_id":"levelo_inurba_marseille","lat":43.2952,"lon":5.36369,"is_reserved":false,"is_disabled":false,"rental_uris":{"android":"levelo://app?vid=982c10ba-43a5-4da2-bea5-f45853dd1c9e","ios":"levelo://app?vid=982c10ba-43a5-4da2-bea5-f45853dd1c9e"},"vehicle_type_id":"4","last_reported":1692634091,"current_range_meters":9200,"station_id":"","pricing_plan_id":"free"},{"bike_id":"0b4748b8-2872-4cfc-a106-abfa882e1861","system_id":"levelo_inurba_marseille","lat":43.298037,"lon":5.381066,"is_reserved":false,"is_disabled":false,"rental_uris":{"android":"levelo://app?vid=0b4748b8-2872-4cfc-a106-abfa882e1861","ios":"levelo://app?vid=0b4748b8-2872-4cfc-a106-abfa882e1861"},"vehicle_type_id":"4","last_reported":1692634091,"current_range_meters":0,"station_id":"ce4bgip2rcd13ifvqbb0","pricing_plan_id":"free"},{"bike_id":"a4df99ce-0488-49dd-a888-94686f562e88","system_id":"levelo_inurba_marseille","lat":43.295748,"lon":5.37522,"is_reserved":false,"is_disabled":false,"rental_uris":{"android":"levelo://app?vid=a4df99ce-0488-49dd-a888-94686f562e88","ios":"levelo://app?vid=a4df99ce-0488-49dd-a888-94686f562e88"},"vehicle_type_id":"4","last_reported":1692634091,"current_range_meters":27200,"station_id":"ce4bgh92rcd13ifvqb50","pricing_plan_id":"free"},{"bike_id":"58b3c301-0f33-4c79-be58-0e33db474cfe","system_id":"levelo_inurba_marseille","lat":43.29633,"lon":5.37766,"is_reserved":false,"is_disabled":false,"rental_uris":{"android":"levelo://app?vid=58b3c301-0f33-4c79-be58-0e33db474cfe","ios":"levelo://app?vid=58b3c301-0f33-4c79-be58-0e33db474cfe"},"vehicle_type_id":"4","last_reported":1692634091,"current_range_meters":16400,"station_id":"ce4bgi92rcd13ifvqb90","pricing_plan_id":"free"},{"bike_id":"00883cd9-a56a-4720-bb55-237d0136a4a1","system_id":"levelo_inurba_marseille","lat":43.32365,"lon":5.38881,"is_reserved":false,"is_disabled":false,"rental_uris":{"android":"levelo://app?vid=00883cd9-a56a-4720-bb55-237d0136a4a1","ios":"levelo://app?vid=00883cd9-a56a-4720-bb55-237d0136a4a1"},"vehicle_type_id":"4","last_reported":1692634091,"current_range_meters":18400,"station_id":"ce4bhqp2rcd13ifvqhog","pricing_plan_id":"free"},{"bike_id":"69ce525b-6520-451a-a3a4-5f2a2456a3ba","system_id":"levelo_inurba_marseille","lat":43.293009,"lon":5.374584,"is_reserved":false,"is_disabled":false,"rental_uris":{"android":"levelo://app?vid=69ce525b-6520-451a-a3a4-5f2a2456a3ba","ios":"levelo://app?vid=69ce525b-6520-451a-a3a4-5f2a2456a3ba"},"vehicle_type_id":"4","last_reported":1692634091,"current_range_meters":800,"station_id":"ce4bgi12rcd13ifvqb70","pricing_plan_id":"free"},{"bike_id":"38fef587-7cc5-4800-b069-87b8f296a10a","system_id":"levelo_inurba_marseille","lat":43.293009,"lon":5.374584,"is_reserved":false,"is_disabled":false,"rental_uris":{"android":"levelo://app?vid=38fef587-7cc5-4800-b069-87b8f296a10a","ios":"levelo://app?vid=38fef587-7cc5-4800-b069-87b8f296a10a"},"vehicle_type_id":"4","last_reported":1692634091,"current_range_meters":31200,"station_id":"ce4bgi12rcd13ifvqb70","pricing_plan_id":"free"},{"bike_id":"52270aee-53fe-4b05-b3b9-ca37f9339066","system_id":"levelo_inurba_marseille","lat":43.305994,"lon":5.393687,"is_reserved":false,"is_disabled":false,"rental_uris":{"android":"levelo://app?vid=52270aee-53fe-4b05-b3b9-ca37f9339066","ios":"levelo://app?vid=52270aee-53fe-4b05-b3b9-ca37f9339066"},"vehicle_type_id":"4","last_reported":1692634091,"current_range_meters":22800,"station_id":"ce4bh0p2rcd13ifvqd80","pricing_plan_id":"free"},{"bike_id":"0724f352-a262-45b7-9b71-9a09ff17d945","system_id":"levelo_inurba_marseille","lat":43.30298,"lon":5.39211,"is_reserved":false,"is_disabled":false,"rental_uris":{"android":"levelo://app?vid=0724f352-a262-45b7-9b71-9a09ff17d945","ios":"levelo://app?vid=0724f352-a262-45b7-9b71-9a09ff17d945"},"vehicle_type_id":"4","last_reported":1692634091,"current_range_meters":14800,"station_id":"ce4bgkh2rcd13ifvqbk0","pricing_plan_id":"free"},{"bike_id":"13809c2e-3160-4e1d-927e-b63fe8e3c7b7","system_id":"levelo_inurba_marseille","lat":43.292663,"lon":5.376389,"is_reserved":false,"is_disabled":false,"rental_uris":{"android":"levelo://app?vid=13809c2e-3160-4e1d-927e-b63fe8e3c7b7","ios":"levelo://app?vid=13809c2e-3160-4e1d-927e-b63fe8e3c7b7"},"vehicle_type_id":"4","last_reported":1692634091,"current_range_meters":23200,"station_id":"ce4bgi12rcd13ifvqb80","pricing_plan_id":"free"},{"bike_id":"d79eeef0-f8e1-446c-8043-eb5446d7c705","system_id":"levelo_inurba_marseille","lat":43.30898,"lon":5.396475,"is_reserved":false,"is_disabled":false,"rental_uris":{"android":"levelo://app?vid=d79eeef0-f8e1-446c-8043-eb5446d7c705","ios":"levelo://app?vid=d79eeef0-f8e1-446c-8043-eb5446d7c705"},"vehicle_type_id":"4","last_reported":1692634091,"current_range_meters":9200,"station_id":"ce4bh012rcd13ifvqcv0","pricing_plan_id":"free"},{"bike_id":"a684c60b-c38c-46de-89dc-a89f7705c714","system_id":"levelo_inurba_marseille","lat":43.290624,"lon":5.359245,"is_reserved":false,"is_disabled":false,"rental_uris":{"android":"levelo://app?vid=a684c60b-c38c-46de-89dc-a89f7705c714","ios":"levelo://app?vid=a684c60b-c38c-46de-89dc-a89f7705c714"},"vehicle_type_id":"4","last_reported":1692634091,"current_range_meters":8400,"station_id":"ce4bha92rcd13ifvqeg0","pricing_plan_id":"free"},{"bike_id":"ac103ba8-9737-4c5b-ba07-e516bc32774f","system_id":"levelo_inurba_marseille","lat":43.28948,"lon":5.36635,"is_reserved":false,"is_disabled":false,"rental_uris":{"android":"levelo://app?vid=ac103ba8-9737-4c5b-ba07-e516bc32774f","ios":"levelo://app?vid=ac103ba8-9737-4c5b-ba07-e516bc32774f"},"vehicle_type_id":"4","last_reported":1692634091,"current_range_meters":21600,"station_id":"ce4bhap2rcd13ifvqek0","pricing_plan_id":"free"},{"bike_id":"de0e203e-de41-439a-ba33-6a2a610a6683","system_id":"levelo_inurba_marseille","lat":43.304296,"lon":5.397513,"is_reserved":false,"is_disabled":false,"rental_uris":{"android":"levelo://app?vid=de0e203e-de41-439a-ba33-6a2a610a6683","ios":"levelo://app?vid=de0e203e-de41-439a-ba33-6a2a610a6683"},"vehicle_type_id":"4","last_reported":1692634091,"current_range_meters":9200,"station_id":"ce4bh092rcd13ifvqd20","pricing_plan_id":"free"},{"bike_id":"5036c72a-6252-47f4-a9fb-50fd514d506a","system_id":"levelo_inurba_marseille","lat":43.3304,"lon":5.3892,"is_reserved":false,"is_disabled":false,"rental_uris":{"android":"levelo://app?vid=5036c72a-6252-47f4-a9fb-50fd514d506a","ios":"levelo://app?vid=5036c72a-6252-47f4-a9fb-50fd514d506a"},"vehicle_type_id":"4","last_reported":1692634091,"current_range_meters":14400,"station_id":"ce4bhr92rcd13ifvqhrg","pricing_plan_id":"free"},{"bike_id":"86eac789-1e56-496d-abfa-705e29d378c7","system_id":"levelo_inurba_marseille","lat":43.33047,"lon":5.38912,"is_reserved":false,"is_disabled":false,"rental_uris":{"android":"levelo://app?vid=86eac789-1e56-496d-abfa-705e29d378c7","ios":"levelo://app?vid=86eac789-1e56-496d-abfa-705e29d378c7"},"vehicle_type_id":"4","last_reported":1692634091,"current_range_meters":22400,"station_id":"ce4bhr92rcd13ifvqhrg","pricing_plan_id":"free"},{"bike_id":"c65152a1-dca7-4ee4-9864-308587d5ed74","system_id":"levelo_inurba_marseille","lat":43.33041,"lon":5.38922,"is_reserved":false,"is_disabled":false,"rental_uris":{"android":"levelo://app?vid=c65152a1-dca7-4ee4-9864-308587d5ed74","ios":"levelo://app?vid=c65152a1-dca7-4ee4-9864-308587d5ed74"},"vehicle_type_id":"4","last_reported":1692634091,"current_range_meters":14800,"station_id":"ce4bhr92rcd13ifvqhrg","pricing_plan_id":"free"},{"bike_id":"de450cac-4370-4660-9455-3e94463307a2","system_id":"levelo_inurba_marseille","lat":43.33042,"lon":5.38922,"is_reserved":false,"is_disabled":false,"rental_uris":{"android":"levelo://app?vid=de450cac-4370-4660-9455-3e94463307a2","ios":"levelo://app?vid=de450cac-4370-4660-9455-3e94463307a2"},"vehicle_type_id":"4","last_reported":1692634091,"current_range_meters":30400,"station_id":"ce4bhr92rcd13ifvqhrg","pricing_plan_id":"free"},{"bike_id":"708f7f21-b221-4c14-94b6-b5d8e3289350","system_id":"levelo_inurba_marseille","lat":43.33045,"lon":5.38923,"is_reserved":false,"is_disabled":false,"rental_uris":{"android":"levelo://app?vid=708f7f21-b221-4c14-94b6-b5d8e3289350","ios":"levelo://app?vid=708f7f21-b221-4c14-94b6-b5d8e3289350"},"vehicle_type_id":"4","last_reported":1692634091,"current_range_meters":13600,"station_id":"ce4bhr92rcd13ifvqhrg","pricing_plan_id":"free"},{"bike_id":"43826a7a-c6ab-448e-ac9b-fcc467553e31","system_id":"levelo_inurba_marseille","lat":43.290995,"lon":5.381361,"is_reserved":false,"is_disabled":false,"rental_uris":{"android":"levelo://app?vid=43826a7a-c6ab-448e-ac9b-fcc467553e31","ios":"levelo://app?vid=43826a7a-c6ab-448e-ac9b-fcc467553e31"},"vehicle_type_id":"4","last_reported":1692634091,"current_range_meters":20800,"station_id":"ce4bh512rcd13ifvqe2g","pricing_plan_id":"free"},{"bike_id":"af42185e-1c74-402a-8e35-15662e46ff8a","system_id":"levelo_inurba_marseille","lat":43.295169,"lon":5.390426,"is_reserved":false,"is_disabled":false,"rental_uris":{"android":"levelo://app?vid=af42185e-1c74-402a-8e35-15662e46ff8a","ios":"levelo://app?vid=af42185e-1c74-402a-8e35-15662e46ff8a"},"vehicle_type_id":"4","last_reported":1692634091,"current_range_meters":19600,"station_id":"ce4bh3p2rcd13ifvqdp0","pricing_plan_id":"free"},{"bike_id":"f64854fc-071c-47d4-a96c-e2f160b801f4","system_id":"levelo_inurba_marseille","lat":43.309371,"lon":5.401449,"is_reserved":false,"is_disabled":false,"rental_uris":{"android":"levelo://app?vid=f64854fc-071c-47d4-a96c-e2f160b801f4","ios":"levelo://app?vid=f64854fc-071c-47d4-a96c-e2f160b801f4"},"vehicle_type_id":"4","last_reported":1692634091,"current_range_meters":4400,"station_id":"ce4bgvp2rcd13ifvqct0","pricing_plan_id":"free"},{"bike_id":"1ceb10cd-f34b-4ab3-8dfd-bdb1caaacda6","system_id":"levelo_inurba_marseille","lat":43.309371,"lon":5.401449,"is_reserved":false,"is_disabled":false,"rental_uris":{"android":"levelo://app?vid=1ceb10cd-f34b-4ab3-8dfd-bdb1caaacda6","ios":"levelo://app?vid=1ceb10cd-f34b-4ab3-8dfd-bdb1caaacda6"},"vehicle_type_id":"4","last_reported":1692634091,"current_range_meters":0,"station_id":"ce4bgvp2rcd13ifvqct0","pricing_plan_id":"free"},{"bike_id":"f21aed81-c0e7-4dfc-a179-cca279b8528b","system_id":"levelo_inurba_marseille","lat":43.290336,"lon":5.386425,"is_reserved":false,"is_disabled":false,"rental_uris":{"android":"levelo://app?vid=f21aed81-c0e7-4dfc-a179-cca279b8528b","ios":"levelo://app?vid=f21aed81-c0e7-4dfc-a179-cca279b8528b"},"vehicle_type_id":"4","last_reported":1692634091,"current_range_meters":20000,"station_id":"ce4bh4p2rcd13ifvqe0g","pricing_plan_id":"free"},{"bike_id":"6f164617-9b1d-4e01-816d-9582ee01c172","system_id":"levelo_inurba_marseille","lat":43.30644,"lon":5.40076,"is_reserved":false,"is_disabled":false,"rental_uris":{"android":"levelo://app?vid=6f164617-9b1d-4e01-816d-9582ee01c172","ios":"levelo://app?vid=6f164617-9b1d-4e01-816d-9582ee01c172"},"vehicle_type_id":"4","last_reported":1692634091,"current_range_meters":27600,"station_id":"ce4bh112rcd13ifvqda0","pricing_plan_id":"free"},{"bike_id":"70bfce13-7cf4-4b06-b223-61a6ca7a500c","system_id":"levelo_inurba_marseille","lat":43.301117,"lon":5.398795,"is_reserved":false,"is_disabled":false,"rental_uris":{"android":"levelo://app?vid=70bfce13-7cf4-4b06-b223-61a6ca7a500c","ios":"levelo://app?vid=70bfce13-7cf4-4b06-b223-61a6ca7a500c"},"vehicle_type_id":"4","last_reported":1692634091,"current_range_meters":12000,"station_id":"ce4bh0h2rcd13ifvqd40","pricing_plan_id":"free"},{"bike_id":"24efa024-989b-47ec-ad74-9e55365c301d","system_id":"levelo_inurba_marseille","lat":43.298681,"lon":5.397225,"is_reserved":false,"is_disabled":false,"rental_uris":{"android":"levelo://app?vid=24efa024-989b-47ec-ad74-9e55365c301d","ios":"levelo://app?vid=24efa024-989b-47ec-ad74-9e55365c301d"},"vehicle_type_id":"4","last_reported":1692634091,"current_range_meters":30000,"station_id":"ce4bh0h2rcd13ifvqd50","pricing_plan_id":"free"},{"bike_id":"d49b9768-5590-44d1-8d30-7ea7512f4740","system_id":"levelo_inurba_marseille","lat":43.286961,"lon":5.373785,"is_reserved":false,"is_disabled":false,"rental_uris":{"android":"levelo://app?vid=d49b9768-5590-44d1-8d30-7ea7512f4740","ios":"levelo://app?vid=d49b9768-5590-44d1-8d30-7ea7512f4740"},"vehicle_type_id":"4","last_reported":1692634091,"current_range_meters":27200,"station_id":"ce4bh3p2rcd13ifvqdq0","pricing_plan_id":"free"},{"bike_id":"393a94d8-1fcf-4df9-9eaf-4d2db7c45be1","system_id":"levelo_inurba_marseille","lat":43.286591,"lon":5.363346,"is_reserved":false,"is_disabled":false,"rental_uris":{"android":"levelo://app?vid=393a94d8-1fcf-4df9-9eaf-4d2db7c45be1","ios":"levelo://app?vid=393a94d8-1fcf-4df9-9eaf-4d2db7c45be1"},"vehicle_type_id":"4","last_reported":1692634091,"current_range_meters":5600,"station_id":"ce4bhah2rcd13ifvqej0","pricing_plan_id":"free"},{"bike_id":"75199276-b705-4ad7-b6a9-49aeaa84628a","system_id":"levelo_inurba_marseille","lat":43.28658,"lon":5.36359,"is_reserved":false,"is_disabled":false,"rental_uris":{"android":"levelo://app?vid=75199276-b705-4ad7-b6a9-49aeaa84628a","ios":"levelo://app?vid=75199276-b705-4ad7-b6a9-49aeaa84628a"},"vehicle_type_id":"4","last_reported":1692634091,"current_range_meters":30400,"station_id":"ce4bhah2rcd13ifvqej0","pricing_plan_id":"free"},{"bike_id":"686074de-70a4-4a11-ac77-e34b8a882d17","system_id":"levelo_inurba_marseille","lat":43.295196,"lon":5.39397,"is_reserved":false,"is_disabled":false,"rental_uris":{"android":"levelo://app?vid=686074de-70a4-4a11-ac77-e34b8a882d17","ios":"levelo://app?vid=686074de-70a4-4a11-ac77-e34b8a882d17"},"vehicle_type_id":"4","last_reported":1692634091,"current_range_meters":1600,"station_id":"ce4bh292rcd13ifvqdf0","pricing_plan_id":"free"},{"bike_id":"d2c6b8cf-1cfa-4520-8fa2-ad18385bbb08","system_id":"levelo_inurba_marseille","lat":43.286039,"lon":5.370681,"is_reserved":false,"is_disabled":false,"rental_uris":{"android":"levelo://app?vid=d2c6b8cf-1cfa-4520-8fa2-ad18385bbb08","ios":"levelo://app?vid=d2c6b8cf-1cfa-4520-8fa2-ad18385bbb08"},"vehicle_type_id":"4","last_reported":1692634091,"current_range_meters":9600,"station_id":"ce4bht12rcd13ifvqi60","pricing_plan_id":"free"},{"bike_id":"c28ce3c5-3ab3-4201-8ec5-28e2ad1df686","system_id":"levelo_inurba_marseille","lat":43.28593,"lon":5.37176,"is_reserved":false,"is_disabled":false,"rental_uris":{"android":"levelo://app?vid=c28ce3c5-3ab3-4201-8ec5-28e2ad1df686","ios":"levelo://app?vid=c28ce3c5-3ab3-4201-8ec5-28e2ad1df686"},"vehicle_type_id":"4","last_reported":1692634091,"current_range_meters":8000,"station_id":"ce4bht12rcd13ifvqi60","pricing_plan_id":"free"},{"bike_id":"9b0ec6be-7265-4cbd-bf76-14760986535e","system_id":"levelo_inurba_marseille","lat":43.287184,"lon":5.37937,"is_reserved":false,"is_disabled":false,"rental_uris":{"android":"levelo://app?vid=9b0ec6be-7265-4cbd-bf76-14760986535e","ios":"levelo://app?vid=9b0ec6be-7265-4cbd-bf76-14760986535e"},"vehicle_type_id":"4","last_reported":1692634091,"current_range_meters":12400,"station_id":"ce4bh9p2rcd13ifvqec0","pricing_plan_id":"free"},{"bike_id":"022ff589-c685-4cc1-8046-c5bfd27a8f4b","system_id":"levelo_inurba_marseille","lat":43.31647,"lon":5.40433,"is_reserved":false,"is_disabled":false,"rental_uris":{"android":"levelo://app?vid=022ff589-c685-4cc1-8046-c5bfd27a8f4b","ios":"levelo://app?vid=022ff589-c685-4cc1-8046-c5bfd27a8f4b"},"vehicle_type_id":"4","last_reported":1692634091,"current_range_meters":18000,"station_id":"ce4bh012rcd13ifvqd00","pricing_plan_id":"free"},{"bike_id":"b6260803-61cd-4c6d-aef3-c59c0bfd3a55","system_id":"levelo_inurba_marseille","lat":43.31663,"lon":5.404341,"is_reserved":false,"is_disabled":false,"rental_uris":{"android":"levelo://app?vid=b6260803-61cd-4c6d-aef3-c59c0bfd3a55","ios":"levelo://app?vid=b6260803-61cd-4c6d-aef3-c59c0bfd3a55"},"vehicle_type_id":"4","last_reported":1692634091,"current_range_meters":22800,"station_id":"","pricing_plan_id":"free"},{"bike_id":"e83f4401-6880-4d91-a13f-854d4a47cbe1","system_id":"levelo_inurba_marseille","lat":43.316517,"lon":5.404375,"is_reserved":false,"is_disabled":false,"rental_uris":{"android":"levelo://app?vid=e83f4401-6880-4d91-a13f-854d4a47cbe1","ios":"levelo://app?vid=e83f4401-6880-4d91-a13f-854d4a47cbe1"},"vehicle_type_id":"4","last_reported":1692634091,"current_range_meters":16000,"station_id":"ce4bh012rcd13ifvqd00","pricing_plan_id":"free"},{"bike_id":"7da9e437-1e79-4b5f-9ab0-65254ac17dd7","system_id":"levelo_inurba_marseille","lat":43.31647,"lon":5.40443,"is_reserved":false,"is_disabled":false,"rental_uris":{"android":"levelo://app?vid=7da9e437-1e79-4b5f-9ab0-65254ac17dd7","ios":"levelo://app?vid=7da9e437-1e79-4b5f-9ab0-65254ac17dd7"},"vehicle_type_id":"4","last_reported":1692634091,"current_range_meters":16800,"station_id":"ce4bh012rcd13ifvqd00","pricing_plan_id":"free"},{"bike_id":"a2b57bdf-a058-4d22-bad3-55b07db70537","system_id":"levelo_inurba_marseille","lat":43.28731,"lon":5.35205,"is_reserved":false,"is_disabled":false,"rental_uris":{"android":"levelo://app?vid=a2b57bdf-a058-4d22-bad3-55b07db70537","ios":"levelo://app?vid=a2b57bdf-a058-4d22-bad3-55b07db70537"},"vehicle_type_id":"4","last_reported":1692634091,"current_range_meters":6000,"station_id":"","pricing_plan_id":"free"},{"bike_id":"4e98d970-e6a3-4433-87aa-83d1d64b4e80","system_id":"levelo_inurba_marseille","lat":43.291994,"lon":5.392907,"is_reserved":false,"is_disabled":false,"rental_uris":{"android":"levelo://app?vid=4e98d970-e6a3-4433-87aa-83d1d64b4e80","ios":"levelo://app?vid=4e98d970-e6a3-4433-87aa-83d1d64b4e80"},"vehicle_type_id":"4","last_reported":1692634091,"current_range_meters":17600,"station_id":"ce4bh192rcd13ifvqdd0","pricing_plan_id":"free"},{"bike_id":"b3d5519b-eca4-431e-8648-0024c7977578","system_id":"levelo_inurba_marseille","lat":43.291994,"lon":5.392907,"is_reserved":false,"is_disabled":false,"rental_uris":{"android":"levelo://app?vid=b3d5519b-eca4-431e-8648-0024c7977578","ios":"levelo://app?vid=b3d5519b-eca4-431e-8648-0024c7977578"},"vehicle_type_id":"4","last_reported":1692634091,"current_range_meters":20400,"station_id":"ce4bh192rcd13ifvqdd0","pricing_plan_id":"free"},{"bike_id":"d8a30a4d-e76e-479a-bf49-65205ea40ccd","system_id":"levelo_inurba_marseille","lat":43.284538,"lon":5.358657,"is_reserved":false,"is_disabled":false,"rental_uris":{"android":"levelo://app?vid=d8a30a4d-e76e-479a-bf49-65205ea40ccd","ios":"levelo://app?vid=d8a30a4d-e76e-479a-bf49-65205ea40ccd"},"vehicle_type_id":"4","last_reported":1692634091,"current_range_meters":22800,"station_id":"ce4bhah2rcd13ifvqei0","pricing_plan_id":"free"},{"bike_id":"02fcb7ca-e540-4f7e-8d6d-aa7a5ca978b1","system_id":"levelo_inurba_marseille","lat":43.284538,"lon":5.358657,"is_reserved":false,"is_disabled":false,"rental_uris":{"android":"levelo://app?vid=02fcb7ca-e540-4f7e-8d6d-aa7a5ca978b1","ios":"levelo://app?vid=02fcb7ca-e540-4f7e-8d6d-aa7a5ca978b1"},"vehicle_type_id":"4","last_reported":1692634091,"current_range_meters":25600,"station_id":"ce4bhah2rcd13ifvqei0","pricing_plan_id":"free"},{"bike_id":"93e136af-2130-432c-be0b-e1858cb767f7","system_id":"levelo_inurba_marseille","lat":43.284538,"lon":5.358657,"is_reserved":false,"is_disabled":false,"rental_uris":{"android":"levelo://app?vid=93e136af-2130-432c-be0b-e1858cb767f7","ios":"levelo://app?vid=93e136af-2130-432c-be0b-e1858cb767f7"},"vehicle_type_id":"4","last_reported":1692634091,"current_range_meters":26000,"station_id":"ce4bhah2rcd13ifvqei0","pricing_plan_id":"free"},{"bike_id":"ab7600b5-bb99-44cb-8642-c257946ca990","system_id":"levelo_inurba_marseille","lat":43.284538,"lon":5.358657,"is_reserved":false,"is_disabled":false,"rental_uris":{"android":"levelo://app?vid=ab7600b5-bb99-44cb-8642-c257946ca990","ios":"levelo://app?vid=ab7600b5-bb99-44cb-8642-c257946ca990"},"vehicle_type_id":"4","last_reported":1692634091,"current_range_meters":800,"station_id":"ce4bhah2rcd13ifvqei0","pricing_plan_id":"free"},{"bike_id":"24866126-beea-44de-bbba-77f5be917552","system_id":"levelo_inurba_marseille","lat":43.2862,"lon":5.35103,"is_reserved":false,"is_disabled":false,"rental_uris":{"android":"levelo://app?vid=24866126-beea-44de-bbba-77f5be917552","ios":"levelo://app?vid=24866126-beea-44de-bbba-77f5be917552"},"vehicle_type_id":"4","last_reported":1692634091,"current_range_meters":0,"station_id":"ce4bhch2rcd13ifvqeug","pricing_plan_id":"free"},{"bike_id":"35eec3a1-aa54-4990-8eb4-78e6c0dd24d0","system_id":"levelo_inurba_marseille","lat":43.28619,"lon":5.35101,"is_reserved":false,"is_disabled":false,"rental_uris":{"android":"levelo://app?vid=35eec3a1-aa54-4990-8eb4-78e6c0dd24d0","ios":"levelo://app?vid=35eec3a1-aa54-4990-8eb4-78e6c0dd24d0"},"vehicle_type_id":"4","last_reported":1692634091,"current_range_meters":23600,"station_id":"ce4bhch2rcd13ifvqeug","pricing_plan_id":"free"},{"bike_id":"5b4feb08-4f6c-469c-8200-6b634a4461d8","system_id":"levelo_inurba_marseille","lat":43.28619,"lon":5.35098,"is_reserved":false,"is_disabled":false,"rental_uris":{"android":"levelo://app?vid=5b4feb08-4f6c-469c-8200-6b634a4461d8","ios":"levelo://app?vid=5b4feb08-4f6c-469c-8200-6b634a4461d8"},"vehicle_type_id":"4","last_reported":1692634091,"current_range_meters":0,"station_id":"ce4bhch2rcd13ifvqeug","pricing_plan_id":"free"},{"bike_id":"5e603d29-0f80-4300-9376-4e6f772b3979","system_id":"levelo_inurba_marseille","lat":43.28421,"lon":5.37504,"is_reserved":false,"is_disabled":false,"rental_uris":{"android":"levelo://app?vid=5e603d29-0f80-4300-9376-4e6f772b3979","ios":"levelo://app?vid=5e603d29-0f80-4300-9376-4e6f772b3979"},"vehicle_type_id":"4","last_reported":1692634091,"current_range_meters":27200,"station_id":"ce4bh412rcd13ifvqds0","pricing_plan_id":"free"},{"bike_id":"2363d3b5-6c15-401a-a59c-ee80bd4af927","system_id":"levelo_inurba_marseille","lat":43.28415,"lon":5.37522,"is_reserved":false,"is_disabled":false,"rental_uris":{"android":"levelo://app?vid=2363d3b5-6c15-401a-a59c-ee80bd4af927","ios":"levelo://app?vid=2363d3b5-6c15-401a-a59c-ee80bd4af927"},"vehicle_type_id":"4","last_reported":1692634091,"current_range_meters":12800,"station_id":"ce4bh412rcd13ifvqds0","pricing_plan_id":"free"},{"bike_id":"395d9a29-d4de-4378-ac36-ffb4ab1b95b1","system_id":"levelo_inurba_marseille","lat":43.284046,"lon":5.375125,"is_reserved":false,"is_disabled":false,"rental_uris":{"android":"levelo://app?vid=395d9a29-d4de-4378-ac36-ffb4ab1b95b1","ios":"levelo://app?vid=395d9a29-d4de-4378-ac36-ffb4ab1b95b1"},"vehicle_type_id":"4","last_reported":1692634091,"current_range_meters":26400,"station_id":"ce4bh412rcd13ifvqds0","pricing_plan_id":"free"},{"bike_id":"c1a39996-c790-43bd-9638-2f641ebb5aef","system_id":"levelo_inurba_marseille","lat":43.286595,"lon":5.386795,"is_reserved":false,"is_disabled":false,"rental_uris":{"android":"levelo://app?vid=c1a39996-c790-43bd-9638-2f641ebb5aef","ios":"levelo://app?vid=c1a39996-c790-43bd-9638-2f641ebb5aef"},"vehicle_type_id":"4","last_reported":1692634091,"current_range_meters":14400,"station_id":"ce4bh492rcd13ifvqdug","pricing_plan_id":"free"},{"bike_id":"79ae07f7-3d9b-456b-927e-8e880eafedba","system_id":"levelo_inurba_marseille","lat":43.32552,"lon":5.40401,"is_reserved":false,"is_disabled":false,"rental_uris":{"android":"levelo://app?vid=79ae07f7-3d9b-456b-927e-8e880eafedba","ios":"levelo://app?vid=79ae07f7-3d9b-456b-927e-8e880eafedba"},"vehicle_type_id":"4","last_reported":1692634091,"current_range_meters":2000,"station_id":"","pricing_plan_id":"free"},{"bike_id":"2b3f06e0-8f2d-4133-9563-f19f57fe46e5","system_id":"levelo_inurba_marseille","lat":43.33718,"lon":5.39181,"is_reserved":false,"is_disabled":false,"rental_uris":{"android":"levelo://app?vid=2b3f06e0-8f2d-4133-9563-f19f57fe46e5","ios":"levelo://app?vid=2b3f06e0-8f2d-4133-9563-f19f57fe46e5"},"vehicle_type_id":"4","last_reported":1692634091,"current_range_meters":24400,"station_id":"ce4bhr92rcd13ifvqhsg","pricing_plan_id":"free"},{"bike_id":"17105054-6fd8-493b-b0be-1ed88688055c","system_id":"levelo_inurba_marseille","lat":43.337168,"lon":5.391825,"is_reserved":false,"is_disabled":false,"rental_uris":{"android":"levelo://app?vid=17105054-6fd8-493b-b0be-1ed88688055c","ios":"levelo://app?vid=17105054-6fd8-493b-b0be-1ed88688055c"},"vehicle_type_id":"4","last_reported":1692634091,"current_range_meters":20800,"station_id":"ce4bhr92rcd13ifvqhsg","pricing_plan_id":"free"},{"bike_id":"cb97d7f6-ab64-4d52-b2f3-b33486c80b80","system_id":"levelo_inurba_marseille","lat":43.33725,"lon":5.39184,"is_reserved":false,"is_disabled":false,"rental_uris":{"android":"levelo://app?vid=cb97d7f6-ab64-4d52-b2f3-b33486c80b80","ios":"levelo://app?vid=cb97d7f6-ab64-4d52-b2f3-b33486c80b80"},"vehicle_type_id":"4","last_reported":1692634091,"current_range_meters":8000,"station_id":"ce4bhr92rcd13ifvqhsg","pricing_plan_id":"free"},{"bike_id":"965ec19a-bc0e-4a80-bc8a-6670e4ab8329","system_id":"levelo_inurba_marseille","lat":43.33727,"lon":5.39184,"is_reserved":false,"is_disabled":false,"rental_uris":{"android":"levelo://app?vid=965ec19a-bc0e-4a80-bc8a-6670e4ab8329","ios":"levelo://app?vid=965ec19a-bc0e-4a80-bc8a-6670e4ab8329"},"vehicle_type_id":"4","last_reported":1692634091,"current_range_meters":18400,"station_id":"ce4bhr92rcd13ifvqhsg","pricing_plan_id":"free"},{"bike_id":"70ae6c0f-b740-404b-8c98-15e6360db731","system_id":"levelo_inurba_marseille","lat":43.323464,"lon":5.406297,"is_reserved":false,"is_disabled":false,"rental_uris":{"android":"levelo://app?vid=70ae6c0f-b740-404b-8c98-15e6360db731","ios":"levelo://app?vid=70ae6c0f-b740-404b-8c98-15e6360db731"},"vehicle_type_id":"4","last_reported":1692634091,"current_range_meters":22000,"station_id":"ce4bhq92rcd13ifvqhjg","pricing_plan_id":"free"},{"bike_id":"81207e02-e329-4cea-9b6c-33ba9c0267d2","system_id":"levelo_inurba_marseille","lat":43.284787,"lon":5.384116,"is_reserved":false,"is_disabled":false,"rental_uris":{"android":"levelo://app?vid=81207e02-e329-4cea-9b6c-33ba9c0267d2","ios":"levelo://app?vid=81207e02-e329-4cea-9b6c-33ba9c0267d2"},"vehicle_type_id":"4","last_reported":1692634091,"current_range_meters":31200,"station_id":"ce4bh512rcd13ifvqe3g","pricing_plan_id":"free"},{"bike_id":"561a2ebc-74fa-4331-abb5-b09141782854","system_id":"levelo_inurba_marseille","lat":43.284217,"lon":5.349697,"is_reserved":false,"is_disabled":false,"rental_uris":{"android":"levelo://app?vid=561a2ebc-74fa-4331-abb5-b09141782854","ios":"levelo://app?vid=561a2ebc-74fa-4331-abb5-b09141782854"},"vehicle_type_id":"4","last_reported":1692634091,"current_range_meters":17600,"station_id":"ce4bhbh2rcd13ifvqepg","pricing_plan_id":"free"},{"bike_id":"ea25200e-fe83-4526-a103-f4168f4b7a47","system_id":"levelo_inurba_marseille","lat":43.284217,"lon":5.349697,"is_reserved":false,"is_disabled":false,"rental_uris":{"android":"levelo://app?vid=ea25200e-fe83-4526-a103-f4168f4b7a47","ios":"levelo://app?vid=ea25200e-fe83-4526-a103-f4168f4b7a47"},"vehicle_type_id":"4","last_reported":1692634091,"current_range_meters":0,"station_id":"ce4bhbh2rcd13ifvqepg","pricing_plan_id":"free"},{"bike_id":"252ae517-2936-4526-82e2-9b26c5bb050d","system_id":"levelo_inurba_marseille","lat":43.284217,"lon":5.349697,"is_reserved":false,"is_disabled":false,"rental_uris":{"android":"levelo://app?vid=252ae517-2936-4526-82e2-9b26c5bb050d","ios":"levelo://app?vid=252ae517-2936-4526-82e2-9b26c5bb050d"},"vehicle_type_id":"4","last_reported":1692634091,"current_range_meters":13200,"station_id":"ce4bhbh2rcd13ifvqepg","pricing_plan_id":"free"},{"bike_id":"dbe01606-0d1e-4afd-9950-384df2ddb610","system_id":"levelo_inurba_marseille","lat":43.284219,"lon":5.3497,"is_reserved":false,"is_disabled":false,"rental_uris":{"android":"levelo://app?vid=dbe01606-0d1e-4afd-9950-384df2ddb610","ios":"levelo://app?vid=dbe01606-0d1e-4afd-9950-384df2ddb610"},"vehicle_type_id":"4","last_reported":1692634091,"current_range_meters":31200,"station_id":"ce4bhbh2rcd13ifvqepg","pricing_plan_id":"free"},{"bike_id":"fd1bc6b0-fe7f-4f07-8e6b-9d9d94031d71","system_id":"levelo_inurba_marseille","lat":43.284217,"lon":5.349697,"is_reserved":false,"is_disabled":false,"rental_uris":{"android":"levelo://app?vid=fd1bc6b0-fe7f-4f07-8e6b-9d9d94031d71","ios":"levelo://app?vid=fd1bc6b0-fe7f-4f07-8e6b-9d9d94031d71"},"vehicle_type_id":"4","last_reported":1692634091,"current_range_meters":11200,"station_id":"ce4bhbh2rcd13ifvqepg","pricing_plan_id":"free"},{"bike_id":"d2975400-7e77-4c12-bc01-ef3582448b2f","system_id":"levelo_inurba_marseille","lat":43.284217,"lon":5.349697,"is_reserved":false,"is_disabled":false,"rental_uris":{"android":"levelo://app?vid=d2975400-7e77-4c12-bc01-ef3582448b2f","ios":"levelo://app?vid=d2975400-7e77-4c12-bc01-ef3582448b2f"},"vehicle_type_id":"4","last_reported":1692634091,"current_range_meters":9200,"station_id":"ce4bhbh2rcd13ifvqepg","pricing_plan_id":"free"},{"bike_id":"ddec25ab-236e-448c-9a31-bb3fa655c745","system_id":"levelo_inurba_marseille","lat":43.284219,"lon":5.3497,"is_reserved":false,"is_disabled":false,"rental_uris":{"android":"levelo://app?vid=ddec25ab-236e-448c-9a31-bb3fa655c745","ios":"levelo://app?vid=ddec25ab-236e-448c-9a31-bb3fa655c745"},"vehicle_type_id":"4","last_reported":1692634091,"current_range_meters":31200,"station_id":"ce4bhbh2rcd13ifvqepg","pricing_plan_id":"free"},{"bike_id":"68f8479d-2c17-4c63-9e73-28cb205cd23a","system_id":"levelo_inurba_marseille","lat":43.28425,"lon":5.34974,"is_reserved":false,"is_disabled":false,"rental_uris":{"android":"levelo://app?vid=68f8479d-2c17-4c63-9e73-28cb205cd23a","ios":"levelo://app?vid=68f8479d-2c17-4c63-9e73-28cb205cd23a"},"vehicle_type_id":"4","last_reported":1692634091,"current_range_meters":21600,"station_id":"ce4bhbh2rcd13ifvqepg","pricing_plan_id":"free"},{"bike_id":"b6433c5c-5caf-476c-bbbd-891c661cc63b","system_id":"levelo_inurba_marseille","lat":43.284219,"lon":5.3497,"is_reserved":false,"is_disabled":false,"rental_uris":{"android":"levelo://app?vid=b6433c5c-5caf-476c-bbbd-891c661cc63b","ios":"levelo://app?vid=b6433c5c-5caf-476c-bbbd-891c661cc63b"},"vehicle_type_id":"4","last_reported":1692634091,"current_range_meters":31200,"station_id":"ce4bhbh2rcd13ifvqepg","pricing_plan_id":"free"},{"bike_id":"4be49e3a-2b1c-4a4a-8874-644b2f3fda89","system_id":"levelo_inurba_marseille","lat":43.284219,"lon":5.3497,"is_reserved":false,"is_disabled":false,"rental_uris":{"android":"levelo://app?vid=4be49e3a-2b1c-4a4a-8874-644b2f3fda89","ios":"levelo://app?vid=4be49e3a-2b1c-4a4a-8874-644b2f3fda89"},"vehicle_type_id":"4","last_reported":1692634091,"current_range_meters":15200,"station_id":"ce4bhbh2rcd13ifvqepg","pricing_plan_id":"free"},{"bike_id":"ba36448b-9be9-4745-9747-7dc0107210fc","system_id":"levelo_inurba_marseille","lat":43.28419,"lon":5.34988,"is_reserved":false,"is_disabled":false,"rental_uris":{"android":"levelo://app?vid=ba36448b-9be9-4745-9747-7dc0107210fc","ios":"levelo://app?vid=ba36448b-9be9-4745-9747-7dc0107210fc"},"vehicle_type_id":"4","last_reported":1692634091,"current_range_meters":12800,"station_id":"ce4bhbh2rcd13ifvqepg","pricing_plan_id":"free"},{"bike_id":"6dd2cbf0-f4a9-4031-9e0f-e10c53b3c426","system_id":"levelo_inurba_marseille","lat":43.284217,"lon":5.349697,"is_reserved":false,"is_disabled":false,"rental_uris":{"android":"levelo://app?vid=6dd2cbf0-f4a9-4031-9e0f-e10c53b3c426","ios":"levelo://app?vid=6dd2cbf0-f4a9-4031-9e0f-e10c53b3c426"},"vehicle_type_id":"4","last_reported":1692634091,"current_range_meters":4000,"station_id":"ce4bhbh2rcd13ifvqepg","pricing_plan_id":"free"},{"bike_id":"9d554851-33ac-4c1f-abad-8fe34b892984","system_id":"levelo_inurba_marseille","lat":43.28417,"lon":5.34991,"is_reserved":false,"is_disabled":false,"rental_uris":{"android":"levelo://app?vid=9d554851-33ac-4c1f-abad-8fe34b892984","ios":"levelo://app?vid=9d554851-33ac-4c1f-abad-8fe34b892984"},"vehicle_type_id":"4","last_reported":1692634091,"current_range_meters":30000,"station_id":"ce4bhbh2rcd13ifvqepg","pricing_plan_id":"free"},{"bike_id":"b14bf781-e814-41c1-8087-85dc1ae6b8c4","system_id":"levelo_inurba_marseille","lat":43.284219,"lon":5.3497,"is_reserved":false,"is_disabled":false,"rental_uris":{"android":"levelo://app?vid=b14bf781-e814-41c1-8087-85dc1ae6b8c4","ios":"levelo://app?vid=b14bf781-e814-41c1-8087-85dc1ae6b8c4"},"vehicle_type_id":"4","last_reported":1692634091,"current_range_meters":31600,"station_id":"ce4bhbh2rcd13ifvqepg","pricing_plan_id":"free"},{"bike_id":"961176cc-fa20-44b4-a131-c3167350c112","system_id":"levelo_inurba_marseille","lat":43.28415,"lon":5.34991,"is_reserved":false,"is_disabled":false,"rental_uris":{"android":"levelo://app?vid=961176cc-fa20-44b4-a131-c3167350c112","ios":"levelo://app?vid=961176cc-fa20-44b4-a131-c3167350c112"},"vehicle_type_id":"4","last_reported":1692634091,"current_range_meters":12800,"station_id":"ce4bhbh2rcd13ifvqepg","pricing_plan_id":"free"},{"bike_id":"e3add8d3-0d87-45b1-a140-ee83a610cf1b","system_id":"levelo_inurba_marseille","lat":43.28415,"lon":5.34988,"is_reserved":false,"is_disabled":false,"rental_uris":{"android":"levelo://app?vid=e3add8d3-0d87-45b1-a140-ee83a610cf1b","ios":"levelo://app?vid=e3add8d3-0d87-45b1-a140-ee83a610cf1b"},"vehicle_type_id":"4","last_reported":1692634091,"current_range_meters":6800,"station_id":"ce4bhbh2rcd13ifvqepg","pricing_plan_id":"free"},{"bike_id":"cb24dd4e-f105-4064-a5b2-431f0c78596b","system_id":"levelo_inurba_marseille","lat":43.284217,"lon":5.349697,"is_reserved":false,"is_disabled":false,"rental_uris":{"android":"levelo://app?vid=cb24dd4e-f105-4064-a5b2-431f0c78596b","ios":"levelo://app?vid=cb24dd4e-f105-4064-a5b2-431f0c78596b"},"vehicle_type_id":"4","last_reported":1692634091,"current_range_meters":22000,"station_id":"ce4bhbh2rcd13ifvqepg","pricing_plan_id":"free"},{"bike_id":"89c96caf-e2f2-4b40-a403-8ad58ac97d5c","system_id":"levelo_inurba_marseille","lat":43.284217,"lon":5.349697,"is_reserved":false,"is_disabled":false,"rental_uris":{"android":"levelo://app?vid=89c96caf-e2f2-4b40-a403-8ad58ac97d5c","ios":"levelo://app?vid=89c96caf-e2f2-4b40-a403-8ad58ac97d5c"},"vehicle_type_id":"4","last_reported":1692634091,"current_range_meters":5200,"station_id":"ce4bhbh2rcd13ifvqepg","pricing_plan_id":"free"},{"bike_id":"170e1fe4-d80b-4868-9ac2-ed795529626f","system_id":"levelo_inurba_marseille","lat":43.284219,"lon":5.3497,"is_reserved":false,"is_disabled":false,"rental_uris":{"android":"levelo://app?vid=170e1fe4-d80b-4868-9ac2-ed795529626f","ios":"levelo://app?vid=170e1fe4-d80b-4868-9ac2-ed795529626f"},"vehicle_type_id":"4","last_reported":1692634091,"current_range_meters":31200,"station_id":"ce4bhbh2rcd13ifvqepg","pricing_plan_id":"free"},{"bike_id":"de440e7e-84a2-4f37-9efc-49647904b382","system_id":"levelo_inurba_marseille","lat":43.28413,"lon":5.34988,"is_reserved":false,"is_disabled":false,"rental_uris":{"android":"levelo://app?vid=de440e7e-84a2-4f37-9efc-49647904b382","ios":"levelo://app?vid=de440e7e-84a2-4f37-9efc-49647904b382"},"vehicle_type_id":"4","last_reported":1692634091,"current_range_meters":12400,"station_id":"ce4bhbh2rcd13ifvqepg","pricing_plan_id":"free"},{"bike_id":"cd9808e1-2d52-4983-8984-8067efbe3b29","system_id":"levelo_inurba_marseille","lat":43.28416,"lon":5.34977,"is_reserved":false,"is_disabled":false,"rental_uris":{"android":"levelo://app?vid=cd9808e1-2d52-4983-8984-8067efbe3b29","ios":"levelo://app?vid=cd9808e1-2d52-4983-8984-8067efbe3b29"},"vehicle_type_id":"4","last_reported":1692634091,"current_range_meters":7600,"station_id":"ce4bhbh2rcd13ifvqepg","pricing_plan_id":"free"},{"bike_id":"9b3ac268-1b0e-44ba-8b02-ee981462d152","system_id":"levelo_inurba_marseille","lat":43.284217,"lon":5.349697,"is_reserved":false,"is_disabled":false,"rental_uris":{"android":"levelo://app?vid=9b3ac268-1b0e-44ba-8b02-ee981462d152","ios":"levelo://app?vid=9b3ac268-1b0e-44ba-8b02-ee981462d152"},"vehicle_type_id":"4","last_reported":1692634091,"current_range_meters":13600,"station_id":"ce4bhbh2rcd13ifvqepg","pricing_plan_id":"free"},{"bike_id":"7087af9d-dd10-4f3a-9400-8cce993dca76","system_id":"levelo_inurba_marseille","lat":43.284217,"lon":5.349697,"is_reserved":false,"is_disabled":false,"rental_uris":{"android":"levelo://app?vid=7087af9d-dd10-4f3a-9400-8cce993dca76","ios":"levelo://app?vid=7087af9d-dd10-4f3a-9400-8cce993dca76"},"vehicle_type_id":"4","last_reported":1692634091,"current_range_meters":18800,"station_id":"ce4bhbh2rcd13ifvqepg","pricing_plan_id":"free"},{"bike_id":"41c2bb3b-1529-4932-9ee8-6822ccddc5d0","system_id":"levelo_inurba_marseille","lat":43.2841,"lon":5.34986,"is_reserved":false,"is_disabled":false,"rental_uris":{"android":"levelo://app?vid=41c2bb3b-1529-4932-9ee8-6822ccddc5d0","ios":"levelo://app?vid=41c2bb3b-1529-4932-9ee8-6822ccddc5d0"},"vehicle_type_id":"4","last_reported":1692634091,"current_range_meters":31200,"station_id":"ce4bhbh2rcd13ifvqepg","pricing_plan_id":"free"},{"bike_id":"c27ecd15-e943-42c9-901d-0bc54c093e66","system_id":"levelo_inurba_marseille","lat":43.284217,"lon":5.349697,"is_reserved":false,"is_disabled":false,"rental_uris":{"android":"levelo://app?vid=c27ecd15-e943-42c9-901d-0bc54c093e66","ios":"levelo://app?vid=c27ecd15-e943-42c9-901d-0bc54c093e66"},"vehicle_type_id":"4","last_reported":1692634091,"current_range_meters":25200,"station_id":"ce4bhbh2rcd13ifvqepg","pricing_plan_id":"free"},{"bike_id":"f50aca5f-cf5b-4020-925f-826a2e34874f","system_id":"levelo_inurba_marseille","lat":43.289363,"lon":5.396322,"is_reserved":false,"is_disabled":false,"rental_uris":{"android":"levelo://app?vid=f50aca5f-cf5b-4020-925f-826a2e34874f","ios":"levelo://app?vid=f50aca5f-cf5b-4020-925f-826a2e34874f"},"vehicle_type_id":"4","last_reported":1692634091,"current_range_meters":31200,"station_id":"ce4bh3h2rcd13ifvqdn0","pricing_plan_id":"free"},{"bike_id":"5cec26ac-344f-432b-af34-450b75305b9b","system_id":"levelo_inurba_marseille","lat":43.2928,"lon":5.40124,"is_reserved":false,"is_disabled":false,"rental_uris":{"android":"levelo://app?vid=5cec26ac-344f-432b-af34-450b75305b9b","ios":"levelo://app?vid=5cec26ac-344f-432b-af34-450b75305b9b"},"vehicle_type_id":"4","last_reported":1692634091,"current_range_meters":31200,"station_id":"ce4bh312rcd13ifvqdk0","pricing_plan_id":"free"},{"bike_id":"a2936c39-27a4-4f8c-8b9a-5c9afcb313bc","system_id":"levelo_inurba_marseille","lat":43.28294,"lon":5.35086,"is_reserved":false,"is_disabled":false,"rental_uris":{"android":"levelo://app?vid=a2936c39-27a4-4f8c-8b9a-5c9afcb313bc","ios":"levelo://app?vid=a2936c39-27a4-4f8c-8b9a-5c9afcb313bc"},"vehicle_type_id":"4","last_reported":1692634091,"current_range_meters":14400,"station_id":"ce4bhbp2rcd13ifvqerg","pricing_plan_id":"free"},{"bike_id":"c6df123c-c8cf-44c8-b5ae-a69c77b9fcde","system_id":"levelo_inurba_marseille","lat":43.28291,"lon":5.35086,"is_reserved":false,"is_disabled":false,"rental_uris":{"android":"levelo://app?vid=c6df123c-c8cf-44c8-b5ae-a69c77b9fcde","ios":"levelo://app?vid=c6df123c-c8cf-44c8-b5ae-a69c77b9fcde"},"vehicle_type_id":"4","last_reported":1692634091,"current_range_meters":19200,"station_id":"ce4bhbp2rcd13ifvqerg","pricing_plan_id":"free"},{"bike_id":"0747453f-ece3-4e98-99ea-ce61381ba3a8","system_id":"levelo_inurba_marseille","lat":43.28292,"lon":5.35082,"is_reserved":false,"is_disabled":false,"rental_uris":{"android":"levelo://app?vid=0747453f-ece3-4e98-99ea-ce61381ba3a8","ios":"levelo://app?vid=0747453f-ece3-4e98-99ea-ce61381ba3a8"},"vehicle_type_id":"4","last_reported":1692634091,"current_range_meters":31200,"station_id":"ce4bhbp2rcd13ifvqerg","pricing_plan_id":"free"},{"bike_id":"55751480-fd3a-4a56-a6f2-9c5224efb8b7","system_id":"levelo_inurba_marseille","lat":43.28287,"lon":5.35088,"is_reserved":false,"is_disabled":false,"rental_uris":{"android":"levelo://app?vid=55751480-fd3a-4a56-a6f2-9c5224efb8b7","ios":"levelo://app?vid=55751480-fd3a-4a56-a6f2-9c5224efb8b7"},"vehicle_type_id":"4","last_reported":1692634091,"current_range_meters":20400,"station_id":"ce4bhbp2rcd13ifvqerg","pricing_plan_id":"free"},{"bike_id":"d6e30829-5ddb-4986-b357-39519611bba9","system_id":"levelo_inurba_marseille","lat":43.28288,"lon":5.35084,"is_reserved":false,"is_disabled":false,"rental_uris":{"android":"levelo://app?vid=d6e30829-5ddb-4986-b357-39519611bba9","ios":"levelo://app?vid=d6e30829-5ddb-4986-b357-39519611bba9"},"vehicle_type_id":"4","last_reported":1692634091,"current_range_meters":25200,"station_id":"ce4bhbp2rcd13ifvqerg","pricing_plan_id":"free"},{"bike_id":"4be1ee8b-191b-46dd-88fc-1f7360a9c1f4","system_id":"levelo_inurba_marseille","lat":43.28288,"lon":5.35083,"is_reserved":false,"is_disabled":false,"rental_uris":{"android":"levelo://app?vid=4be1ee8b-191b-46dd-88fc-1f7360a9c1f4","ios":"levelo://app?vid=4be1ee8b-191b-46dd-88fc-1f7360a9c1f4"},"vehicle_type_id":"4","last_reported":1692634091,"current_range_meters":13600,"station_id":"ce4bhbp2rcd13ifvqerg","pricing_plan_id":"free"},{"bike_id":"728c291b-81f8-4a4d-980d-1a6cca35e478","system_id":"levelo_inurba_marseille","lat":43.282754,"lon":5.350519,"is_reserved":false,"is_disabled":false,"rental_uris":{"android":"levelo://app?vid=728c291b-81f8-4a4d-980d-1a6cca35e478","ios":"levelo://app?vid=728c291b-81f8-4a4d-980d-1a6cca35e478"},"vehicle_type_id":"4","last_reported":1692634091,"current_range_meters":28400,"station_id":"ce4bhbp2rcd13ifvqerg","pricing_plan_id":"free"},{"bike_id":"23c0c05d-86d0-4b20-9130-647cc21a8ae5","system_id":"levelo_inurba_marseille","lat":43.28282,"lon":5.35084,"is_reserved":false,"is_disabled":false,"rental_uris":{"android":"levelo://app?vid=23c0c05d-86d0-4b20-9130-647cc21a8ae5","ios":"levelo://app?vid=23c0c05d-86d0-4b20-9130-647cc21a8ae5"},"vehicle_type_id":"4","last_reported":1692634091,"current_range_meters":11200,"station_id":"ce4bhbp2rcd13ifvqerg","pricing_plan_id":"free"},{"bike_id":"0d8a9861-47a4-48ae-8f92-9a6311b924a9","system_id":"levelo_inurba_marseille","lat":43.28282,"lon":5.35082,"is_reserved":false,"is_disabled":false,"rental_uris":{"android":"levelo://app?vid=0d8a9861-47a4-48ae-8f92-9a6311b924a9","ios":"levelo://app?vid=0d8a9861-47a4-48ae-8f92-9a6311b924a9"},"vehicle_type_id":"4","last_reported":1692634091,"current_range_meters":30400,"station_id":"ce4bhbp2rcd13ifvqerg","pricing_plan_id":"free"},{"bike_id":"83749760-9456-4fc5-b2a3-f81939c7bf3d","system_id":"levelo_inurba_marseille","lat":43.28285,"lon":5.35069,"is_reserved":false,"is_disabled":false,"rental_uris":{"android":"levelo://app?vid=83749760-9456-4fc5-b2a3-f81939c7bf3d","ios":"levelo://app?vid=83749760-9456-4fc5-b2a3-f81939c7bf3d"},"vehicle_type_id":"4","last_reported":1692634091,"current_range_meters":12800,"station_id":"ce4bhbp2rcd13ifvqerg","pricing_plan_id":"free"},{"bike_id":"1233c2de-a554-4733-ad4c-abf1a9006846","system_id":"levelo_inurba_marseille","lat":43.2828,"lon":5.35085,"is_reserved":false,"is_disabled":false,"rental_uris":{"android":"levelo://app?vid=1233c2de-a554-4733-ad4c-abf1a9006846","ios":"levelo://app?vid=1233c2de-a554-4733-ad4c-abf1a9006846"},"vehicle_type_id":"4","last_reported":1692634091,"current_range_meters":20400,"station_id":"ce4bhbp2rcd13ifvqerg","pricing_plan_id":"free"},{"bike_id":"65cf76c1-01bc-4c82-91e9-6291c2a8382b","system_id":"levelo_inurba_marseille","lat":43.28283,"lon":5.35073,"is_reserved":false,"is_disabled":false,"rental_uris":{"android":"levelo://app?vid=65cf76c1-01bc-4c82-91e9-6291c2a8382b","ios":"levelo://app?vid=65cf76c1-01bc-4c82-91e9-6291c2a8382b"},"vehicle_type_id":"4","last_reported":1692634091,"current_range_meters":11200,"station_id":"ce4bhbp2rcd13ifvqerg","pricing_plan_id":"free"},{"bike_id":"91bd5462-c1b8-4b66-8503-45ba88315462","system_id":"levelo_inurba_marseille","lat":43.282744,"lon":5.350533,"is_reserved":false,"is_disabled":false,"rental_uris":{"android":"levelo://app?vid=91bd5462-c1b8-4b66-8503-45ba88315462","ios":"levelo://app?vid=91bd5462-c1b8-4b66-8503-45ba88315462"},"vehicle_type_id":"4","last_reported":1692634091,"current_range_meters":20400,"station_id":"ce4bhbp2rcd13ifvqerg","pricing_plan_id":"free"},{"bike_id":"0cdf3157-ae00-44e9-a335-0fbb5431ea03","system_id":"levelo_inurba_marseille","lat":43.28279,"lon":5.35075,"is_reserved":false,"is_disabled":false,"rental_uris":{"android":"levelo://app?vid=0cdf3157-ae00-44e9-a335-0fbb5431ea03","ios":"levelo://app?vid=0cdf3157-ae00-44e9-a335-0fbb5431ea03"},"vehicle_type_id":"4","last_reported":1692634091,"current_range_meters":26000,"station_id":"ce4bhbp2rcd13ifvqerg","pricing_plan_id":"free"},{"bike_id":"4e64f514-84a0-4e1c-a0ee-9bd00d133462","system_id":"levelo_inurba_marseille","lat":43.282744,"lon":5.350533,"is_reserved":false,"is_disabled":false,"rental_uris":{"android":"levelo://app?vid=4e64f514-84a0-4e1c-a0ee-9bd00d133462","ios":"levelo://app?vid=4e64f514-84a0-4e1c-a0ee-9bd00d133462"},"vehicle_type_id":"4","last_reported":1692634091,"current_range_meters":25600,"station_id":"ce4bhbp2rcd13ifvqerg","pricing_plan_id":"free"},{"bike_id":"1877c733-1e88-48f8-b40e-ba3c91297f23","system_id":"levelo_inurba_marseille","lat":43.282744,"lon":5.350533,"is_reserved":false,"is_disabled":false,"rental_uris":{"android":"levelo://app?vid=1877c733-1e88-48f8-b40e-ba3c91297f23","ios":"levelo://app?vid=1877c733-1e88-48f8-b40e-ba3c91297f23"},"vehicle_type_id":"4","last_reported":1692634091,"current_range_meters":10000,"station_id":"ce4bhbp2rcd13ifvqerg","pricing_plan_id":"free"},{"bike_id":"88940920-727e-47f8-bee6-24feedff1167","system_id":"levelo_inurba_marseille","lat":43.282744,"lon":5.350533,"is_reserved":false,"is_disabled":false,"rental_uris":{"android":"levelo://app?vid=88940920-727e-47f8-bee6-24feedff1167","ios":"levelo://app?vid=88940920-727e-47f8-bee6-24feedff1167"},"vehicle_type_id":"4","last_reported":1692634091,"current_range_meters":30000,"station_id":"ce4bhbp2rcd13ifvqerg","pricing_plan_id":"free"},{"bike_id":"3f537818-6ffb-4e5e-bb6f-db42ef3e6481","system_id":"levelo_inurba_marseille","lat":43.28276,"lon":5.35075,"is_reserved":false,"is_disabled":false,"rental_uris":{"android":"levelo://app?vid=3f537818-6ffb-4e5e-bb6f-db42ef3e6481","ios":"levelo://app?vid=3f537818-6ffb-4e5e-bb6f-db42ef3e6481"},"vehicle_type_id":"4","last_reported":1692634091,"current_range_meters":31200,"station_id":"ce4bhbp2rcd13ifvqerg","pricing_plan_id":"free"},{"bike_id":"89ec6284-bb44-4c49-b024-6bd9e96ee57c","system_id":"levelo_inurba_marseille","lat":43.28278,"lon":5.35068,"is_reserved":false,"is_disabled":false,"rental_uris":{"android":"levelo://app?vid=89ec6284-bb44-4c49-b024-6bd9e96ee57c","ios":"levelo://app?vid=89ec6284-bb44-4c49-b024-6bd9e96ee57c"},"vehicle_type_id":"4","last_reported":1692634091,"current_range_meters":14000,"station_id":"ce4bhbp2rcd13ifvqerg","pricing_plan_id":"free"},{"bike_id":"f152c606-0323-462d-9f96-d938de6df51a","system_id":"levelo_inurba_marseille","lat":43.28274,"lon":5.35079,"is_reserved":false,"is_disabled":false,"rental_uris":{"android":"levelo://app?vid=f152c606-0323-462d-9f96-d938de6df51a","ios":"levelo://app?vid=f152c606-0323-462d-9f96-d938de6df51a"},"vehicle_type_id":"4","last_reported":1692634091,"current_range_meters":31200,"station_id":"ce4bhbp2rcd13ifvqerg","pricing_plan_id":"free"},{"bike_id":"7f5d95f0-deab-4ee5-96e2-e44cd26b7a9f","system_id":"levelo_inurba_marseille","lat":43.282754,"lon":5.350519,"is_reserved":false,"is_disabled":false,"rental_uris":{"android":"levelo://app?vid=7f5d95f0-deab-4ee5-96e2-e44cd26b7a9f","ios":"levelo://app?vid=7f5d95f0-deab-4ee5-96e2-e44cd26b7a9f"},"vehicle_type_id":"4","last_reported":1692634091,"current_range_meters":31200,"station_id":"ce4bhbp2rcd13ifvqerg","pricing_plan_id":"free"},{"bike_id":"69e586f7-9c42-45a5-ae52-87f7e102516c","system_id":"levelo_inurba_marseille","lat":43.28273,"lon":5.35075,"is_reserved":false,"is_disabled":false,"rental_uris":{"android":"levelo://app?vid=69e586f7-9c42-45a5-ae52-87f7e102516c","ios":"levelo://app?vid=69e586f7-9c42-45a5-ae52-87f7e102516c"},"vehicle_type_id":"4","last_reported":1692634091,"current_range_meters":15200,"station_id":"ce4bhbp2rcd13ifvqerg","pricing_plan_id":"free"},{"bike_id":"c3e3f7e7-f923-4fa9-90e1-64c07a8b0b23","system_id":"levelo_inurba_marseille","lat":43.28272,"lon":5.35078,"is_reserved":false,"is_disabled":false,"rental_uris":{"android":"levelo://app?vid=c3e3f7e7-f923-4fa9-90e1-64c07a8b0b23","ios":"levelo://app?vid=c3e3f7e7-f923-4fa9-90e1-64c07a8b0b23"},"vehicle_type_id":"4","last_reported":1692634091,"current_range_meters":21200,"station_id":"ce4bhbp2rcd13ifvqerg","pricing_plan_id":"free"},{"bike_id":"5b0a6ac3-5e6b-4586-b728-81e730f986bb","system_id":"levelo_inurba_marseille","lat":43.28271,"lon":5.35081,"is_reserved":false,"is_disabled":false,"rental_uris":{"android":"levelo://app?vid=5b0a6ac3-5e6b-4586-b728-81e730f986bb","ios":"levelo://app?vid=5b0a6ac3-5e6b-4586-b728-81e730f986bb"},"vehicle_type_id":"4","last_reported":1692634091,"current_range_meters":18000,"station_id":"ce4bhbp2rcd13ifvqerg","pricing_plan_id":"free"},{"bike_id":"fd5f9376-5c2f-4459-996e-ee90424570b9","system_id":"levelo_inurba_marseille","lat":43.28275,"lon":5.35066,"is_reserved":false,"is_disabled":false,"rental_uris":{"android":"levelo://app?vid=fd5f9376-5c2f-4459-996e-ee90424570b9","ios":"levelo://app?vid=fd5f9376-5c2f-4459-996e-ee90424570b9"},"vehicle_type_id":"4","last_reported":1692634091,"current_range_meters":0,"station_id":"ce4bhbp2rcd13ifvqerg","pricing_plan_id":"free"},{"bike_id":"9c8c830b-aa6e-46a3-bd7f-d45a180b48f8","system_id":"levelo_inurba_marseille","lat":43.28275,"lon":5.35062,"is_reserved":false,"is_disabled":false,"rental_uris":{"android":"levelo://app?vid=9c8c830b-aa6e-46a3-bd7f-d45a180b48f8","ios":"levelo://app?vid=9c8c830b-aa6e-46a3-bd7f-d45a180b48f8"},"vehicle_type_id":"4","last_reported":1692634091,"current_range_meters":4400,"station_id":"ce4bhbp2rcd13ifvqerg","pricing_plan_id":"free"},{"bike_id":"7c18eed0-4874-4076-9534-8c2d6f7c1d66","system_id":"levelo_inurba_marseille","lat":43.282744,"lon":5.350533,"is_reserved":false,"is_disabled":false,"rental_uris":{"android":"levelo://app?vid=7c18eed0-4874-4076-9534-8c2d6f7c1d66","ios":"levelo://app?vid=7c18eed0-4874-4076-9534-8c2d6f7c1d66"},"vehicle_type_id":"4","last_reported":1692634091,"current_range_meters":31200,"station_id":"ce4bhbp2rcd13ifvqerg","pricing_plan_id":"free"},{"bike_id":"fe0b17e6-32d2-4331-ab72-e88c4403aa9b","system_id":"levelo_inurba_marseille","lat":43.28274,"lon":5.3506,"is_reserved":false,"is_disabled":false,"rental_uris":{"android":"levelo://app?vid=fe0b17e6-32d2-4331-ab72-e88c4403aa9b","ios":"levelo://app?vid=fe0b17e6-32d2-4331-ab72-e88c4403aa9b"},"vehicle_type_id":"4","last_reported":1692634091,"current_range_meters":16800,"station_id":"ce4bhbp2rcd13ifvqerg","pricing_plan_id":"free"},{"bike_id":"11f4e064-eb88-4a2b-817f-7738670b1d28","system_id":"levelo_inurba_marseille","lat":43.282744,"lon":5.350533,"is_reserved":false,"is_disabled":false,"rental_uris":{"android":"levelo://app?vid=11f4e064-eb88-4a2b-817f-7738670b1d28","ios":"levelo://app?vid=11f4e064-eb88-4a2b-817f-7738670b1d28"},"vehicle_type_id":"4","last_reported":1692634091,"current_range_meters":21600,"station_id":"ce4bhbp2rcd13ifvqerg","pricing_plan_id":"free"},{"bike_id":"d96e3d06-974c-4cc2-8e15-6e65f0839fd1","system_id":"levelo_inurba_marseille","lat":43.28273,"lon":5.35062,"is_reserved":false,"is_disabled":false,"rental_uris":{"android":"levelo://app?vid=d96e3d06-974c-4cc2-8e15-6e65f0839fd1","ios":"levelo://app?vid=d96e3d06-974c-4cc2-8e15-6e65f0839fd1"},"vehicle_type_id":"4","last_reported":1692634091,"current_range_meters":15600,"station_id":"ce4bhbp2rcd13ifvqerg","pricing_plan_id":"free"},{"bike_id":"9e78380f-4805-4553-896d-642329d465f8","system_id":"levelo_inurba_marseille","lat":43.282744,"lon":5.350533,"is_reserved":false,"is_disabled":false,"rental_uris":{"android":"levelo://app?vid=9e78380f-4805-4553-896d-642329d465f8","ios":"levelo://app?vid=9e78380f-4805-4553-896d-642329d465f8"},"vehicle_type_id":"4","last_reported":1692634091,"current_range_meters":22800,"station_id":"ce4bhbp2rcd13ifvqerg","pricing_plan_id":"free"},{"bike_id":"c3b00a8f-63e9-4a0d-a809-f58c91a69086","system_id":"levelo_inurba_marseille","lat":43.282744,"lon":5.350533,"is_reserved":false,"is_disabled":false,"rental_uris":{"android":"levelo://app?vid=c3b00a8f-63e9-4a0d-a809-f58c91a69086","ios":"levelo://app?vid=c3b00a8f-63e9-4a0d-a809-f58c91a69086"},"vehicle_type_id":"4","last_reported":1692634091,"current_range_meters":21600,"station_id":"ce4bhbp2rcd13ifvqerg","pricing_plan_id":"free"},{"bike_id":"9a391968-472f-468b-9a67-d7fd6cf4ec6f","system_id":"levelo_inurba_marseille","lat":43.28271,"lon":5.3506,"is_reserved":false,"is_disabled":false,"rental_uris":{"android":"levelo://app?vid=9a391968-472f-468b-9a67-d7fd6cf4ec6f","ios":"levelo://app?vid=9a391968-472f-468b-9a67-d7fd6cf4ec6f"},"vehicle_type_id":"4","last_reported":1692634091,"current_range_meters":21200,"station_id":"ce4bhbp2rcd13ifvqerg","pricing_plan_id":"free"},{"bike_id":"46c8999b-3161-43c6-bb3c-4fb373ebc533","system_id":"levelo_inurba_marseille","lat":43.282744,"lon":5.350533,"is_reserved":false,"is_disabled":false,"rental_uris":{"android":"levelo://app?vid=46c8999b-3161-43c6-bb3c-4fb373ebc533","ios":"levelo://app?vid=46c8999b-3161-43c6-bb3c-4fb373ebc533"},"vehicle_type_id":"4","last_reported":1692634091,"current_range_meters":22800,"station_id":"ce4bhbp2rcd13ifvqerg","pricing_plan_id":"free"},{"bike_id":"869273b8-3dd6-4b4e-9a9a-53160317a4fd","system_id":"levelo_inurba_marseille","lat":43.28269,"lon":5.35063,"is_reserved":false,"is_disabled":false,"rental_uris":{"android":"levelo://app?vid=869273b8-3dd6-4b4e-9a9a-53160317a4fd","ios":"levelo://app?vid=869273b8-3dd6-4b4e-9a9a-53160317a4fd"},"vehicle_type_id":"4","last_reported":1692634091,"current_range_meters":16000,"station_id":"ce4bhbp2rcd13ifvqerg","pricing_plan_id":"free"},{"bike_id":"13214087-ccff-4c20-a082-31c1e9966f35","system_id":"levelo_inurba_marseille","lat":43.28269,"lon":5.35061,"is_reserved":false,"is_disabled":false,"rental_uris":{"android":"levelo://app?vid=13214087-ccff-4c20-a082-31c1e9966f35","ios":"levelo://app?vid=13214087-ccff-4c20-a082-31c1e9966f35"},"vehicle_type_id":"4","last_reported":1692634091,"current_range_meters":22400,"station_id":"ce4bhbp2rcd13ifvqerg","pricing_plan_id":"free"},{"bike_id":"6cc1e53a-4ef3-42c2-8fea-adcb1ac7facf","system_id":"levelo_inurba_marseille","lat":43.282744,"lon":5.350533,"is_reserved":false,"is_disabled":false,"rental_uris":{"android":"levelo://app?vid=6cc1e53a-4ef3-42c2-8fea-adcb1ac7facf","ios":"levelo://app?vid=6cc1e53a-4ef3-42c2-8fea-adcb1ac7facf"},"vehicle_type_id":"4","last_reported":1692634091,"current_range_meters":10000,"station_id":"ce4bhbp2rcd13ifvqerg","pricing_plan_id":"free"},{"bike_id":"1fcb68d2-30a5-4465-a39f-a72a8513d9c0","system_id":"levelo_inurba_marseille","lat":43.28263,"lon":5.3508,"is_reserved":false,"is_disabled":false,"rental_uris":{"android":"levelo://app?vid=1fcb68d2-30a5-4465-a39f-a72a8513d9c0","ios":"levelo://app?vid=1fcb68d2-30a5-4465-a39f-a72a8513d9c0"},"vehicle_type_id":"4","last_reported":1692634091,"current_range_meters":20800,"station_id":"ce4bhbp2rcd13ifvqerg","pricing_plan_id":"free"},{"bike_id":"dd6d6938-b0ad-4994-a797-dd7a8e1ab9fe","system_id":"levelo_inurba_marseille","lat":43.28265,"lon":5.35072,"is_reserved":false,"is_disabled":false,"rental_uris":{"android":"levelo://app?vid=dd6d6938-b0ad-4994-a797-dd7a8e1ab9fe","ios":"levelo://app?vid=dd6d6938-b0ad-4994-a797-dd7a8e1ab9fe"},"vehicle_type_id":"4","last_reported":1692634091,"current_range_meters":16400,"station_id":"ce4bhbp2rcd13ifvqerg","pricing_plan_id":"free"},{"bike_id":"ffce1e2f-e5bd-4597-8aa6-7ef9c2b878c2","system_id":"levelo_inurba_marseille","lat":43.28267,"lon":5.35065,"is_reserved":false,"is_disabled":false,"rental_uris":{"android":"levelo://app?vid=ffce1e2f-e5bd-4597-8aa6-7ef9c2b878c2","ios":"levelo://app?vid=ffce1e2f-e5bd-4597-8aa6-7ef9c2b878c2"},"vehicle_type_id":"4","last_reported":1692634091,"current_range_meters":18800,"station_id":"ce4bhbp2rcd13ifvqerg","pricing_plan_id":"free"},{"bike_id":"5583ecb8-471b-4cc7-8baf-1e81f00b20b3","system_id":"levelo_inurba_marseille","lat":43.28264,"lon":5.35072,"is_reserved":false,"is_disabled":false,"rental_uris":{"android":"levelo://app?vid=5583ecb8-471b-4cc7-8baf-1e81f00b20b3","ios":"levelo://app?vid=5583ecb8-471b-4cc7-8baf-1e81f00b20b3"},"vehicle_type_id":"4","last_reported":1692634091,"current_range_meters":28400,"station_id":"ce4bhbp2rcd13ifvqerg","pricing_plan_id":"free"},{"bike_id":"a1f0501f-bba8-4726-b1f4-8d8c69a081f8","system_id":"levelo_inurba_marseille","lat":43.28263,"lon":5.35073,"is_reserved":false,"is_disabled":false,"rental_uris":{"android":"levelo://app?vid=a1f0501f-bba8-4726-b1f4-8d8c69a081f8","ios":"levelo://app?vid=a1f0501f-bba8-4726-b1f4-8d8c69a081f8"},"vehicle_type_id":"4","last_reported":1692634091,"current_range_meters":26000,"station_id":"ce4bhbp2rcd13ifvqerg","pricing_plan_id":"free"},{"bike_id":"dd5c5b3a-92d1-4d73-9a75-a4a899227d41","system_id":"levelo_inurba_marseille","lat":43.28266,"lon":5.3506,"is_reserved":false,"is_disabled":false,"rental_uris":{"android":"levelo://app?vid=dd5c5b3a-92d1-4d73-9a75-a4a899227d41","ios":"levelo://app?vid=dd5c5b3a-92d1-4d73-9a75-a4a899227d41"},"vehicle_type_id":"4","last_reported":1692634091,"current_range_meters":11200,"station_id":"ce4bhbp2rcd13ifvqerg","pricing_plan_id":"free"},{"bike_id":"2c7e05f9-0861-43f7-976d-a54378d65df2","system_id":"levelo_inurba_marseille","lat":43.28263,"lon":5.35069,"is_reserved":false,"is_disabled":false,"rental_uris":{"android":"levelo://app?vid=2c7e05f9-0861-43f7-976d-a54378d65df2","ios":"levelo://app?vid=2c7e05f9-0861-43f7-976d-a54378d65df2"},"vehicle_type_id":"4","last_reported":1692634091,"current_range_meters":16800,"station_id":"ce4bhbp2rcd13ifvqerg","pricing_plan_id":"free"},{"bike_id":"69049b97-96db-495e-aa9d-6c4f48c381ef","system_id":"levelo_inurba_marseille","lat":43.28262,"lon":5.35072,"is_reserved":false,"is_disabled":false,"rental_uris":{"android":"levelo://app?vid=69049b97-96db-495e-aa9d-6c4f48c381ef","ios":"levelo://app?vid=69049b97-96db-495e-aa9d-6c4f48c381ef"},"vehicle_type_id":"4","last_reported":1692634091,"current_range_meters":23200,"station_id":"ce4bhbp2rcd13ifvqerg","pricing_plan_id":"free"},{"bike_id":"9f5ac395-afc7-4aff-9973-5fc77b1f6ac4","system_id":"levelo_inurba_marseille","lat":43.28263,"lon":5.35067,"is_reserved":false,"is_disabled":false,"rental_uris":{"android":"levelo://app?vid=9f5ac395-afc7-4aff-9973-5fc77b1f6ac4","ios":"levelo://app?vid=9f5ac395-afc7-4aff-9973-5fc77b1f6ac4"},"vehicle_type_id":"4","last_reported":1692634091,"current_range_meters":24400,"station_id":"ce4bhbp2rcd13ifvqerg","pricing_plan_id":"free"},{"bike_id":"8bba2c57-42fe-4760-a7ec-a96ed8d4c190","system_id":"levelo_inurba_marseille","lat":43.282744,"lon":5.350533,"is_reserved":false,"is_disabled":false,"rental_uris":{"android":"levelo://app?vid=8bba2c57-42fe-4760-a7ec-a96ed8d4c190","ios":"levelo://app?vid=8bba2c57-42fe-4760-a7ec-a96ed8d4c190"},"vehicle_type_id":"4","last_reported":1692634091,"current_range_meters":17600,"station_id":"ce4bhbp2rcd13ifvqerg","pricing_plan_id":"free"},{"bike_id":"060cc88d-c6bf-44fb-89eb-3217ddccd6f4","system_id":"levelo_inurba_marseille","lat":43.28262,"lon":5.35068,"is_reserved":false,"is_disabled":false,"rental_uris":{"android":"levelo://app?vid=060cc88d-c6bf-44fb-89eb-3217ddccd6f4","ios":"levelo://app?vid=060cc88d-c6bf-44fb-89eb-3217ddccd6f4"},"vehicle_type_id":"4","last_reported":1692634091,"current_range_meters":23200,"station_id":"ce4bhbp2rcd13ifvqerg","pricing_plan_id":"free"},{"bike_id":"525c8fac-53ea-4dc8-8a40-4a63419b68a2","system_id":"levelo_inurba_marseille","lat":43.28265,"lon":5.35056,"is_reserved":false,"is_disabled":false,"rental_uris":{"android":"levelo://app?vid=525c8fac-53ea-4dc8-8a40-4a63419b68a2","ios":"levelo://app?vid=525c8fac-53ea-4dc8-8a40-4a63419b68a2"},"vehicle_type_id":"4","last_reported":1692634091,"current_range_meters":31200,"station_id":"ce4bhbp2rcd13ifvqerg","pricing_plan_id":"free"},{"bike_id":"e8ac5996-a70b-4df1-8a97-3a645574b22b","system_id":"levelo_inurba_marseille","lat":43.28264,"lon":5.35056,"is_reserved":false,"is_disabled":false,"rental_uris":{"android":"levelo://app?vid=e8ac5996-a70b-4df1-8a97-3a645574b22b","ios":"levelo://app?vid=e8ac5996-a70b-4df1-8a97-3a645574b22b"},"vehicle_type_id":"4","last_reported":1692634091,"current_range_meters":13600,"station_id":"ce4bhbp2rcd13ifvqerg","pricing_plan_id":"free"},{"bike_id":"1f9ed3da-3e62-4f6b-9182-d538393d09b1","system_id":"levelo_inurba_marseille","lat":43.28259,"lon":5.35071,"is_reserved":false,"is_disabled":false,"rental_uris":{"android":"levelo://app?vid=1f9ed3da-3e62-4f6b-9182-d538393d09b1","ios":"levelo://app?vid=1f9ed3da-3e62-4f6b-9182-d538393d09b1"},"vehicle_type_id":"4","last_reported":1692634091,"current_range_meters":18400,"station_id":"ce4bhbp2rcd13ifvqerg","pricing_plan_id":"free"},{"bike_id":"04dbfaf3-f69f-41f7-b7f2-fa98d7bbe6da","system_id":"levelo_inurba_marseille","lat":43.2826,"lon":5.35066,"is_reserved":false,"is_disabled":false,"rental_uris":{"android":"levelo://app?vid=04dbfaf3-f69f-41f7-b7f2-fa98d7bbe6da","ios":"levelo://app?vid=04dbfaf3-f69f-41f7-b7f2-fa98d7bbe6da"},"vehicle_type_id":"4","last_reported":1692634091,"current_range_meters":23200,"station_id":"ce4bhbp2rcd13ifvqerg","pricing_plan_id":"free"},{"bike_id":"84ac2ce7-ed2d-407f-bf82-f6b7e5cdcfe0","system_id":"levelo_inurba_marseille","lat":43.28258,"lon":5.35068,"is_reserved":false,"is_disabled":false,"rental_uris":{"android":"levelo://app?vid=84ac2ce7-ed2d-407f-bf82-f6b7e5cdcfe0","ios":"levelo://app?vid=84ac2ce7-ed2d-407f-bf82-f6b7e5cdcfe0"},"vehicle_type_id":"4","last_reported":1692634091,"current_range_meters":20800,"station_id":"ce4bhbp2rcd13ifvqerg","pricing_plan_id":"free"},{"bike_id":"9f46cfde-4f76-4076-bade-5765c2d3d473","system_id":"levelo_inurba_marseille","lat":43.28039,"lon":5.369297,"is_reserved":false,"is_disabled":false,"rental_uris":{"android":"levelo://app?vid=9f46cfde-4f76-4076-bade-5765c2d3d473","ios":"levelo://app?vid=9f46cfde-4f76-4076-bade-5765c2d3d473"},"vehicle_type_id":"4","last_reported":1692634091,"current_range_meters":31200,"station_id":"ce4bha12rcd13ifvqef0","pricing_plan_id":"free"},{"bike_id":"2517cafd-e76e-4af7-871b-8f1bb47c4fa6","system_id":"levelo_inurba_marseille","lat":43.281044,"lon":5.378308,"is_reserved":false,"is_disabled":false,"rental_uris":{"android":"levelo://app?vid=2517cafd-e76e-4af7-871b-8f1bb47c4fa6","ios":"levelo://app?vid=2517cafd-e76e-4af7-871b-8f1bb47c4fa6"},"vehicle_type_id":"4","last_reported":1692634091,"current_range_meters":23200,"station_id":"ce4bha12rcd13ifvqee0","pricing_plan_id":"free"},{"bike_id":"f5486b6c-dd2c-4ff5-8a2e-d798d536fe90","system_id":"levelo_inurba_marseille","lat":43.284462,"lon":5.392121,"is_reserved":false,"is_disabled":false,"rental_uris":{"android":"levelo://app?vid=f5486b6c-dd2c-4ff5-8a2e-d798d536fe90","ios":"levelo://app?vid=f5486b6c-dd2c-4ff5-8a2e-d798d536fe90"},"vehicle_type_id":"4","last_reported":1692634091,"current_range_meters":19200,"station_id":"ce4bhoh2rcd13ifvqh5g","pricing_plan_id":"free"},{"bike_id":"fc14255b-04c1-4792-b8fe-234ae8790419","system_id":"levelo_inurba_marseille","lat":43.284462,"lon":5.392121,"is_reserved":false,"is_disabled":false,"rental_uris":{"android":"levelo://app?vid=fc14255b-04c1-4792-b8fe-234ae8790419","ios":"levelo://app?vid=fc14255b-04c1-4792-b8fe-234ae8790419"},"vehicle_type_id":"4","last_reported":1692634091,"current_range_meters":20000,"station_id":"ce4bhoh2rcd13ifvqh5g","pricing_plan_id":"free"},{"bike_id":"f8ef4f78-badc-40d1-a4a9-077301466e56","system_id":"levelo_inurba_marseille","lat":43.32662,"lon":5.40978,"is_reserved":false,"is_disabled":false,"rental_uris":{"android":"levelo://app?vid=f8ef4f78-badc-40d1-a4a9-077301466e56","ios":"levelo://app?vid=f8ef4f78-badc-40d1-a4a9-077301466e56"},"vehicle_type_id":"4","last_reported":1692634091,"current_range_meters":4800,"station_id":"ce4bhpp2rcd13ifvqhgg","pricing_plan_id":"free"},{"bike_id":"52f1c692-3728-48b0-9152-45a7026b6894","system_id":"levelo_inurba_marseille","lat":43.32655,"lon":5.40995,"is_reserved":false,"is_disabled":false,"rental_uris":{"android":"levelo://app?vid=52f1c692-3728-48b0-9152-45a7026b6894","ios":"levelo://app?vid=52f1c692-3728-48b0-9152-45a7026b6894"},"vehicle_type_id":"4","last_reported":1692634091,"current_range_meters":27600,"station_id":"ce4bhpp2rcd13ifvqhgg","pricing_plan_id":"free"},{"bike_id":"98ed81c1-d567-4fc5-aeb2-dbe76283fa86","system_id":"levelo_inurba_marseille","lat":43.32654,"lon":5.40997,"is_reserved":false,"is_disabled":false,"rental_uris":{"android":"levelo://app?vid=98ed81c1-d567-4fc5-aeb2-dbe76283fa86","ios":"levelo://app?vid=98ed81c1-d567-4fc5-aeb2-dbe76283fa86"},"vehicle_type_id":"4","last_reported":1692634091,"current_range_meters":20400,"station_id":"ce4bhpp2rcd13ifvqhgg","pricing_plan_id":"free"},{"bike_id":"b11ca1b2-673a-4d47-9252-7589fe81dd0a","system_id":"levelo_inurba_marseille","lat":43.326614,"lon":5.409959,"is_reserved":false,"is_disabled":false,"rental_uris":{"android":"levelo://app?vid=b11ca1b2-673a-4d47-9252-7589fe81dd0a","ios":"levelo://app?vid=b11ca1b2-673a-4d47-9252-7589fe81dd0a"},"vehicle_type_id":"4","last_reported":1692634091,"current_range_meters":20000,"station_id":"ce4bhpp2rcd13ifvqhgg","pricing_plan_id":"free"},{"bike_id":"e513927b-5cd6-43e8-8126-a851316047dd","system_id":"levelo_inurba_marseille","lat":43.287154,"lon":5.399979,"is_reserved":false,"is_disabled":false,"rental_uris":{"android":"levelo://app?vid=e513927b-5cd6-43e8-8126-a851316047dd","ios":"levelo://app?vid=e513927b-5cd6-43e8-8126-a851316047dd"},"vehicle_type_id":"4","last_reported":1692634091,"current_range_meters":5600,"station_id":"ce4bho92rcd13ifvqh3g","pricing_plan_id":"free"},{"bike_id":"4a31bab5-6bf1-4d94-b24b-e83ed3d67f04","system_id":"levelo_inurba_marseille","lat":43.287154,"lon":5.399979,"is_reserved":false,"is_disabled":false,"rental_uris":{"android":"levelo://app?vid=4a31bab5-6bf1-4d94-b24b-e83ed3d67f04","ios":"levelo://app?vid=4a31bab5-6bf1-4d94-b24b-e83ed3d67f04"},"vehicle_type_id":"4","last_reported":1692634091,"current_range_meters":22400,"station_id":"ce4bho92rcd13ifvqh3g","pricing_plan_id":"free"},{"bike_id":"bacf4d3b-f929-4941-8c3c-9d1de4294f0d","system_id":"levelo_inurba_marseille","lat":43.287154,"lon":5.399979,"is_reserved":false,"is_disabled":false,"rental_uris":{"android":"levelo://app?vid=bacf4d3b-f929-4941-8c3c-9d1de4294f0d","ios":"levelo://app?vid=bacf4d3b-f929-4941-8c3c-9d1de4294f0d"},"vehicle_type_id":"4","last_reported":1692634091,"current_range_meters":21600,"station_id":"ce4bho92rcd13ifvqh3g","pricing_plan_id":"free"},{"bike_id":"4a14c4b0-6256-4b4a-9017-829fe624c304","system_id":"levelo_inurba_marseille","lat":43.320045,"lon":5.415048,"is_reserved":false,"is_disabled":false,"rental_uris":{"android":"levelo://app?vid=4a14c4b0-6256-4b4a-9017-829fe624c304","ios":"levelo://app?vid=4a14c4b0-6256-4b4a-9017-829fe624c304"},"vehicle_type_id":"4","last_reported":1692634091,"current_range_meters":31200,"station_id":"ce4bhq92rcd13ifvqhkg","pricing_plan_id":"free"},{"bike_id":"31d90328-f4e8-4c24-8f41-1edb31efea7b","system_id":"levelo_inurba_marseille","lat":43.320045,"lon":5.415046,"is_reserved":false,"is_disabled":false,"rental_uris":{"android":"levelo://app?vid=31d90328-f4e8-4c24-8f41-1edb31efea7b","ios":"levelo://app?vid=31d90328-f4e8-4c24-8f41-1edb31efea7b"},"vehicle_type_id":"4","last_reported":1692634091,"current_range_meters":31600,"station_id":"ce4bhq92rcd13ifvqhkg","pricing_plan_id":"free"},{"bike_id":"90ca71ad-a942-4ec8-88e1-8a1c4d6a0b69","system_id":"levelo_inurba_marseille","lat":43.320045,"lon":5.415046,"is_reserved":false,"is_disabled":false,"rental_uris":{"android":"levelo://app?vid=90ca71ad-a942-4ec8-88e1-8a1c4d6a0b69","ios":"levelo://app?vid=90ca71ad-a942-4ec8-88e1-8a1c4d6a0b69"},"vehicle_type_id":"4","last_reported":1692634091,"current_range_meters":31600,"station_id":"ce4bhq92rcd13ifvqhkg","pricing_plan_id":"free"},{"bike_id":"349955f8-b21c-46f5-8ff0-f5a4da685e45","system_id":"levelo_inurba_marseille","lat":43.320045,"lon":5.415046,"is_reserved":false,"is_disabled":false,"rental_uris":{"android":"levelo://app?vid=349955f8-b21c-46f5-8ff0-f5a4da685e45","ios":"levelo://app?vid=349955f8-b21c-46f5-8ff0-f5a4da685e45"},"vehicle_type_id":"4","last_reported":1692634091,"current_range_meters":31200,"station_id":"ce4bhq92rcd13ifvqhkg","pricing_plan_id":"free"},{"bike_id":"e0441e40-adcd-4e53-b038-44f4a2137467","system_id":"levelo_inurba_marseille","lat":43.320045,"lon":5.415046,"is_reserved":false,"is_disabled":false,"rental_uris":{"android":"levelo://app?vid=e0441e40-adcd-4e53-b038-44f4a2137467","ios":"levelo://app?vid=e0441e40-adcd-4e53-b038-44f4a2137467"},"vehicle_type_id":"4","last_reported":1692634091,"current_range_meters":30400,"station_id":"ce4bhq92rcd13ifvqhkg","pricing_plan_id":"free"},{"bike_id":"457b75f2-5966-42f2-a956-fa668d18cd17","system_id":"levelo_inurba_marseille","lat":43.320045,"lon":5.415046,"is_reserved":false,"is_disabled":false,"rental_uris":{"android":"levelo://app?vid=457b75f2-5966-42f2-a956-fa668d18cd17","ios":"levelo://app?vid=457b75f2-5966-42f2-a956-fa668d18cd17"},"vehicle_type_id":"4","last_reported":1692634091,"current_range_meters":31600,"station_id":"ce4bhq92rcd13ifvqhkg","pricing_plan_id":"free"},{"bike_id":"a52d797f-8cf3-4a87-8b66-13ba158a0103","system_id":"levelo_inurba_marseille","lat":43.320045,"lon":5.415046,"is_reserved":false,"is_disabled":false,"rental_uris":{"android":"levelo://app?vid=a52d797f-8cf3-4a87-8b66-13ba158a0103","ios":"levelo://app?vid=a52d797f-8cf3-4a87-8b66-13ba158a0103"},"vehicle_type_id":"4","last_reported":1692634091,"current_range_meters":19200,"station_id":"ce4bhq92rcd13ifvqhkg","pricing_plan_id":"free"},{"bike_id":"877344ba-293c-4f08-a369-400196bfc89e","system_id":"levelo_inurba_marseille","lat":43.320045,"lon":5.415046,"is_reserved":false,"is_disabled":false,"rental_uris":{"android":"levelo://app?vid=877344ba-293c-4f08-a369-400196bfc89e","ios":"levelo://app?vid=877344ba-293c-4f08-a369-400196bfc89e"},"vehicle_type_id":"4","last_reported":1692634091,"current_range_meters":31200,"station_id":"ce4bhq92rcd13ifvqhkg","pricing_plan_id":"free"},{"bike_id":"ada7cc69-ba8a-4cf9-ae3d-d1301c795c86","system_id":"levelo_inurba_marseille","lat":43.320045,"lon":5.415046,"is_reserved":false,"is_disabled":false,"rental_uris":{"android":"levelo://app?vid=ada7cc69-ba8a-4cf9-ae3d-d1301c795c86","ios":"levelo://app?vid=ada7cc69-ba8a-4cf9-ae3d-d1301c795c86"},"vehicle_type_id":"4","last_reported":1692634091,"current_range_meters":17600,"station_id":"ce4bhq92rcd13ifvqhkg","pricing_plan_id":"free"},{"bike_id":"4d1c5a92-ad48-4a1d-90ad-ed2a465505a7","system_id":"levelo_inurba_marseille","lat":43.320045,"lon":5.415048,"is_reserved":false,"is_disabled":false,"rental_uris":{"android":"levelo://app?vid=4d1c5a92-ad48-4a1d-90ad-ed2a465505a7","ios":"levelo://app?vid=4d1c5a92-ad48-4a1d-90ad-ed2a465505a7"},"vehicle_type_id":"4","last_reported":1692634091,"current_range_meters":31200,"station_id":"ce4bhq92rcd13ifvqhkg","pricing_plan_id":"free"},{"bike_id":"c327718a-8fe6-4791-a349-aba0f8f94e82","system_id":"levelo_inurba_marseille","lat":43.279742,"lon":5.38744,"is_reserved":false,"is_disabled":false,"rental_uris":{"android":"levelo://app?vid=c327718a-8fe6-4791-a349-aba0f8f94e82","ios":"levelo://app?vid=c327718a-8fe6-4791-a349-aba0f8f94e82"},"vehicle_type_id":"4","last_reported":1692634091,"current_range_meters":26000,"station_id":"ce4bhg12rcd13ifvqf80","pricing_plan_id":"free"},{"bike_id":"c854a6ad-9bf5-4f00-9f0b-93ddd78c4527","system_id":"levelo_inurba_marseille","lat":43.320045,"lon":5.415048,"is_reserved":false,"is_disabled":false,"rental_uris":{"android":"levelo://app?vid=c854a6ad-9bf5-4f00-9f0b-93ddd78c4527","ios":"levelo://app?vid=c854a6ad-9bf5-4f00-9f0b-93ddd78c4527"},"vehicle_type_id":"4","last_reported":1692634091,"current_range_meters":31200,"station_id":"ce4bhq92rcd13ifvqhkg","pricing_plan_id":"free"},{"bike_id":"1a7250d6-a113-47af-8fae-4370afb948bd","system_id":"levelo_inurba_marseille","lat":43.32048,"lon":5.41563,"is_reserved":false,"is_disabled":false,"rental_uris":{"android":"levelo://app?vid=1a7250d6-a113-47af-8fae-4370afb948bd","ios":"levelo://app?vid=1a7250d6-a113-47af-8fae-4370afb948bd"},"vehicle_type_id":"4","last_reported":1692634091,"current_range_meters":9600,"station_id":"ce4bhq92rcd13ifvqhkg","pricing_plan_id":"free"},{"bike_id":"a6dffeed-e5db-4806-b149-0cf2f7d1fd46","system_id":"levelo_inurba_marseille","lat":43.32539,"lon":5.41423,"is_reserved":false,"is_disabled":false,"rental_uris":{"android":"levelo://app?vid=a6dffeed-e5db-4806-b149-0cf2f7d1fd46","ios":"levelo://app?vid=a6dffeed-e5db-4806-b149-0cf2f7d1fd46"},"vehicle_type_id":"4","last_reported":1692634091,"current_range_meters":22400,"station_id":"ce4bhq12rcd13ifvqhhg","pricing_plan_id":"free"},{"bike_id":"094a69f2-33a7-4db4-8dae-698181ec89b5","system_id":"levelo_inurba_marseille","lat":43.325233,"lon":5.414318,"is_reserved":false,"is_disabled":false,"rental_uris":{"android":"levelo://app?vid=094a69f2-33a7-4db4-8dae-698181ec89b5","ios":"levelo://app?vid=094a69f2-33a7-4db4-8dae-698181ec89b5"},"vehicle_type_id":"4","last_reported":1692634091,"current_range_meters":31200,"station_id":"ce4bhq12rcd13ifvqhhg","pricing_plan_id":"free"},{"bike_id":"452b7a74-55d8-4254-ad5f-8533bb2a425d","system_id":"levelo_inurba_marseille","lat":43.27622,"lon":5.3612,"is_reserved":false,"is_disabled":false,"rental_uris":{"android":"levelo://app?vid=452b7a74-55d8-4254-ad5f-8533bb2a425d","ios":"levelo://app?vid=452b7a74-55d8-4254-ad5f-8533bb2a425d"},"vehicle_type_id":"4","last_reported":1692634091,"current_range_meters":31200,"station_id":"ce4bgj92rcd13ifvqbe0","pricing_plan_id":"free"},{"bike_id":"b0661674-c3ec-43ad-b9da-780c7d1f70c2","system_id":"levelo_inurba_marseille","lat":43.27618,"lon":5.361009,"is_reserved":false,"is_disabled":false,"rental_uris":{"android":"levelo://app?vid=b0661674-c3ec-43ad-b9da-780c7d1f70c2","ios":"levelo://app?vid=b0661674-c3ec-43ad-b9da-780c7d1f70c2"},"vehicle_type_id":"4","last_reported":1692634091,"current_range_meters":31200,"station_id":"ce4bgj92rcd13ifvqbe0","pricing_plan_id":"free"},{"bike_id":"f2de4a11-98ab-4e73-8ca7-7b281b25e066","system_id":"levelo_inurba_marseille","lat":43.2762,"lon":5.36116,"is_reserved":false,"is_disabled":false,"rental_uris":{"android":"levelo://app?vid=f2de4a11-98ab-4e73-8ca7-7b281b25e066","ios":"levelo://app?vid=f2de4a11-98ab-4e73-8ca7-7b281b25e066"},"vehicle_type_id":"4","last_reported":1692634091,"current_range_meters":5600,"station_id":"ce4bgj92rcd13ifvqbe0","pricing_plan_id":"free"},{"bike_id":"a515b31b-9a32-4f97-b3ff-ad1089e30ef3","system_id":"levelo_inurba_marseille","lat":43.27621,"lon":5.36103,"is_reserved":false,"is_disabled":false,"rental_uris":{"android":"levelo://app?vid=a515b31b-9a32-4f97-b3ff-ad1089e30ef3","ios":"levelo://app?vid=a515b31b-9a32-4f97-b3ff-ad1089e30ef3"},"vehicle_type_id":"4","last_reported":1692634091,"current_range_meters":29200,"station_id":"ce4bgj92rcd13ifvqbe0","pricing_plan_id":"free"},{"bike_id":"ebd94bee-a74f-47bf-811a-e0ae1560b7fc","system_id":"levelo_inurba_marseille","lat":43.27619,"lon":5.36109,"is_reserved":false,"is_disabled":false,"rental_uris":{"android":"levelo://app?vid=ebd94bee-a74f-47bf-811a-e0ae1560b7fc","ios":"levelo://app?vid=ebd94bee-a74f-47bf-811a-e0ae1560b7fc"},"vehicle_type_id":"4","last_reported":1692634091,"current_range_meters":12800,"station_id":"ce4bgj92rcd13ifvqbe0","pricing_plan_id":"free"},{"bike_id":"de2eef3f-1efd-48a8-9eaa-74da78f4b159","system_id":"levelo_inurba_marseille","lat":43.27614,"lon":5.36113,"is_reserved":false,"is_disabled":false,"rental_uris":{"android":"levelo://app?vid=de2eef3f-1efd-48a8-9eaa-74da78f4b159","ios":"levelo://app?vid=de2eef3f-1efd-48a8-9eaa-74da78f4b159"},"vehicle_type_id":"4","last_reported":1692634091,"current_range_meters":17600,"station_id":"ce4bgj92rcd13ifvqbe0","pricing_plan_id":"free"},{"bike_id":"df016312-ffe1-4d03-8e64-42e502faae05","system_id":"levelo_inurba_marseille","lat":43.27613,"lon":5.36112,"is_reserved":false,"is_disabled":false,"rental_uris":{"android":"levelo://app?vid=df016312-ffe1-4d03-8e64-42e502faae05","ios":"levelo://app?vid=df016312-ffe1-4d03-8e64-42e502faae05"},"vehicle_type_id":"4","last_reported":1692634091,"current_range_meters":31200,"station_id":"ce4bgj92rcd13ifvqbe0","pricing_plan_id":"free"},{"bike_id":"5818ba17-9781-4b61-84fc-09f215eff594","system_id":"levelo_inurba_marseille","lat":43.276179,"lon":5.361009,"is_reserved":false,"is_disabled":false,"rental_uris":{"android":"levelo://app?vid=5818ba17-9781-4b61-84fc-09f215eff594","ios":"levelo://app?vid=5818ba17-9781-4b61-84fc-09f215eff594"},"vehicle_type_id":"4","last_reported":1692634091,"current_range_meters":19200,"station_id":"ce4bgj92rcd13ifvqbe0","pricing_plan_id":"free"},