{"last_updated":1745864063,"ttl":60,"version":"2.2","data":{"bikes":[{"bike_id":"1ade4759-231a-4240-b622-547135606375","system_id":"levelo_inurba_marseille","lat":43.28702,"lon":5.39985,"is_reserved":false,"is_disabled":false,"rental_uris":{"android":"levelo://app?vid=1ade4759-231a-4240-b622-547135606375","ios":"levelo://app?vid=1ade4759-231a-4240-b622-547135606375"},"vehicle_type_id":"4","last_reported":1745864063,"current_range_meters":2800,"station_id":"ce4bho92rcd13ifvqh3g","pricing_plan_id":"cebpf4jnsgd1na2vs0mg"},{"bike_id":"85d2952e-07b6-4a49-a3fe-e1c7ffe8ff71","system_id":"levelo_inurba_marseille","lat":43.31278,"lon":5.40167,"is_reserved":false,"is_disabled":false,"rental_uris":{"android":"levelo://app?vid=85d2952e-07b6-4a49-a3fe-e1c7ffe8ff71","ios":"levelo://app?vid=85d2952e-07b6-4a49-a3fe-e1c7ffe8ff71"},"vehicle_type_id":"4","last_reported":1745864063,"current_range_meters":2000,"station_id":"ce4bh092rcd13ifvqd30","pricing_plan_id":"cebpf4jnsgd1na2vs0mg"},{"bike_id":"52309b9c-c141-4bd9-926b-579ac44c4c8c","system_id":"levelo_inurba_marseille","lat":43.28711,"lon":5.37949,"is_reserved":false,"is_disabled":false,"rental_uris":{"android":"levelo://app?vid=52309b9c-c141-4bd9-926b-579ac44c4c8c","ios":"levelo://app?vid=52309b9c-c141-4bd9-926b-579ac44c4c8c"},"vehicle_type_id":"4","last_reported":1745864063,"current_range_meters":2800,"station_id":"ce4bh9p2rcd13ifvqec0","pricing_plan_id":"cebpf4jnsgd1na2vs0mg"},{"bike_id":"deea5109-a4a5-4106-90fe-48386a08c0fd","system_id":"levelo_inurba_marseille","lat":43.29419,"lon":5.38625,"is_reserved":false,"is_disabled":false,"rental_uris":{"android":"levelo://app?vid=deea5109-a4a5-4106-90fe-48386a08c0fd","ios":"levelo://app?vid=deea5109-a4a5-4106-90fe-48386a08c0fd"},"vehicle_type_id":"4","last_reported":1745864063,"current_range_meters":2800,"station_id":"ce4bh2h2rcd13ifvqdh0","pricing_plan_id":"cebpf4jnsgd1na2vs0mg"},{"bike_id":"5c4226f8-3f8f-4ea3-9b39-552f2f9ecc49","system_id":"levelo_inurba_marseille","lat":43.31357,"lon":5.38489,"is_reserved":false,"is_disabled":false,"rental_uris":{"android":"levelo://app?vid=5c4226f8-3f8f-4ea3-9b39-552f2f9ecc49","ios":"levelo://app?vid=5c4226f8-3f8f-4ea3-9b39-552f2f9ecc49"},"vehicle_type_id":"4","last_reported":1745864063,"current_range_meters":3600,"station_id":"ce4bgt92rcd13ifvqcf0","pricing_plan_id":"cebpf4jnsgd1na2vs0mg"},{"bike_id":"38616102-e421-46bd-b3b5-337aaf6a043e","system_id":"levelo_inurba_marseille","lat":43.28435,"lon":5.39198,"is_reserved":false,"is_disabled":false,"rental_uris":{"android":"levelo://app?vid=38616102-e421-46bd-b3b5-337aaf6a043e","ios":"levelo://app?vid=38616102-e421-46bd-b3b5-337aaf6a043e"},"vehicle_type_id":"4","last_reported":1745864063,"current_range_meters":3600,"station_id":"ce4bhoh2rcd13ifvqh5g","pricing_plan_id":"cebpf4jnsgd1na2vs0mg"},{"bike_id":"0fa79c3d-135c-4046-82fb-36ad0eb530d8","system_id":"levelo_inurba_marseille","lat":43.3117,"lon":5.38717,"is_reserved":false,"is_disabled":false,"rental_uris":{"android":"levelo://app?vid=0fa79c3d-135c-4046-82fb-36ad0eb530d8","ios":"levelo://app?vid=0fa79c3d-135c-4046-82fb-36ad0eb530d8"},"vehicle_type_id":"4","last_reported":1745864063,"current_range_meters":3600,"station_id":"ce4bgv12rcd13ifvqcp0","pricing_plan_id":"cebpf4jnsgd1na2vs0mg"},{"bike_id":"74677f28-3596-4c5b-98de-ba4120a70f9d","system_id":"levelo_inurba_marseille","lat":43.25636,"lon":5.41191,"is_reserved":false,"is_disabled":false,"rental_uris":{"android":"levelo://app?vid=74677f28-3596-4c5b-98de-ba4120a70f9d","ios":"levelo://app?vid=74677f28-3596-4c5b-98de-ba4120a70f9d"},"vehicle_type_id":"4","last_reported":1745864063,"current_range_meters":3600,"station_id":"","pricing_plan_id":"cebpf4jnsgd1na2vs0mg"},{"bike_id":"0d7839b9-d505-452e-8a2e-a8d0df52eb2e","system_id":"levelo_inurba_marseille","lat":43.30884,"lon":5.39642,"is_reserved":false,"is_disabled":false,"rental_uris":{"android":"levelo://app?vid=0d7839b9-d505-452e-8a2e-a8d0df52eb2e","ios":"levelo://app?vid=0d7839b9-d505-452e-8a2e-a8d0df52eb2e"},"vehicle_type_id":"4","last_reported":1745864063,"current_range_meters":4000,"station_id":"ce4bh012rcd13ifvqcv0","pricing_plan_id":"cebpf4jnsgd1na2vs0mg"},{"bike_id":"717097a9-cc89-4583-b4e2-0cdef7b2d279","system_id":"levelo_inurba_marseille","lat":43.31997,"lon":5.38156,"is_reserved":false,"is_disabled":false,"rental_uris":{"android":"levelo://app?vid=717097a9-cc89-4583-b4e2-0cdef7b2d279","ios":"levelo://app?vid=717097a9-cc89-4583-b4e2-0cdef7b2d279"},"vehicle_type_id":"4","last_reported":1745864063,"current_range_meters":4000,"station_id":"ce4bhr12rcd13ifvqhpg","pricing_plan_id":"cebpf4jnsgd1na2vs0mg"},{"bike_id":"45deb0cd-fd01-439c-9171-622b8bb2c716","system_id":"levelo_inurba_marseille","lat":43.25,"lon":5.38924,"is_reserved":false,"is_disabled":false,"rental_uris":{"android":"levelo://app?vid=45deb0cd-fd01-439c-9171-622b8bb2c716","ios":"levelo://app?vid=45deb0cd-fd01-439c-9171-622b8bb2c716"},"vehicle_type_id":"4","last_reported":1745864063,"current_range_meters":4000,"station_id":"ce4bhgp2rcd13ifvqfd0","pricing_plan_id":"cebpf4jnsgd1na2vs0mg"},{"bike_id":"b873d965-0337-4ce9-bbd1-520001b4695a","system_id":"levelo_inurba_marseille","lat":43.294186,"lon":5.386236,"is_reserved":false,"is_disabled":false,"rental_uris":{"android":"levelo://app?vid=b873d965-0337-4ce9-bbd1-520001b4695a","ios":"levelo://app?vid=b873d965-0337-4ce9-bbd1-520001b4695a"},"vehicle_type_id":"4","last_reported":1745864063,"current_range_meters":4000,"station_id":"ce4bh2h2rcd13ifvqdh0","pricing_plan_id":"cebpf4jnsgd1na2vs0mg"},{"bike_id":"db3b11cf-8b66-468f-8198-da06bff712c7","system_id":"levelo_inurba_marseille","lat":43.28271,"lon":5.35066,"is_reserved":false,"is_disabled":false,"rental_uris":{"android":"levelo://app?vid=db3b11cf-8b66-468f-8198-da06bff712c7","ios":"levelo://app?vid=db3b11cf-8b66-468f-8198-da06bff712c7"},"vehicle_type_id":"4","last_reported":1745864063,"current_range_meters":4000,"station_id":"ce4bhbp2rcd13ifvqerg","pricing_plan_id":"cebpf4jnsgd1na2vs0mg"},{"bike_id":"973c7e4d-7908-4c57-bc44-f76ad6f35842","system_id":"levelo_inurba_marseille","lat":43.29533,"lon":5.38542,"is_reserved":false,"is_disabled":false,"rental_uris":{"android":"levelo://app?vid=973c7e4d-7908-4c57-bc44-f76ad6f35842","ios":"levelo://app?vid=973c7e4d-7908-4c57-bc44-f76ad6f35842"},"vehicle_type_id":"4","last_reported":1745864063,"current_range_meters":4400,"station_id":"ce4bgih2rcd13ifvqba0","pricing_plan_id":"cebpf4jnsgd1na2vs0mg"},{"bike_id":"b9022854-efe3-4bc0-8b29-6580553b1d4b","system_id":"levelo_inurba_marseille","lat":43.26943,"lon":5.40256,"is_reserved":false,"is_disabled":false,"rental_uris":{"android":"levelo://app?vid=b9022854-efe3-4bc0-8b29-6580553b1d4b","ios":"levelo://app?vid=b9022854-efe3-4bc0-8b29-6580553b1d4b"},"vehicle_type_id":"4","last_reported":1745864063,"current_range_meters":4400,"station_id":"cjm6bp8fraef2m0cb0m0","pricing_plan_id":"cebpf4jnsgd1na2vs0mg"},{"bike_id":"47657c56-21bc-41e0-abb9-4955db00b907","system_id":"levelo_inurba_marseille","lat":43.28366,"lon":5.38635,"is_reserved":false,"is_disabled":false,"rental_uris":{"android":"levelo://app?vid=47657c56-21bc-41e0-abb9-4955db00b907","ios":"levelo://app?vid=47657c56-21bc-41e0-abb9-4955db00b907"},"vehicle_type_id":"4","last_reported":1745864063,"current_range_meters":4400,"station_id":"ce4bh492rcd13ifvqdvg","pricing_plan_id":"cebpf4jnsgd1na2vs0mg"},{"bike_id":"a2a86ca1-65c9-460e-91d0-7de99ed83b62","system_id":"levelo_inurba_marseille","lat":43.26552,"lon":5.37291,"is_reserved":false,"is_disabled":true,"rental_uris":{"android":"levelo://app?vid=a2a86ca1-65c9-460e-91d0-7de99ed83b62","ios":"levelo://app?vid=a2a86ca1-65c9-460e-91d0-7de99ed83b62"},"vehicle_type_id":"4","last_reported":1745864063,"current_range_meters":4400,"station_id":"ce4bhg12rcd13ifvqf70","pricing_plan_id":"cebpf4jnsgd1na2vs0mg"},{"bike_id":"727bdf60-4e17-47ec-a55f-e529c4ba42f0","system_id":"levelo_inurba_marseille","lat":43.269366,"lon":5.402529,"is_reserved":false,"is_disabled":false,"rental_uris":{"android":"levelo://app?vid=727bdf60-4e17-47ec-a55f-e529c4ba42f0","ios":"levelo://app?vid=727bdf60-4e17-47ec-a55f-e529c4ba42f0"},"vehicle_type_id":"4","last_reported":1745864063,"current_range_meters":4400,"station_id":"cjm6bp8fraef2m0cb0m0","pricing_plan_id":"cebpf4jnsgd1na2vs0mg"},{"bike_id":"c571b7de-db23-48d1-80ac-ab1a6a338c70","system_id":"levelo_inurba_marseille","lat":43.31997,"lon":5.38136,"is_reserved":false,"is_disabled":false,"rental_uris":{"android":"levelo://app?vid=c571b7de-db23-48d1-80ac-ab1a6a338c70","ios":"levelo://app?vid=c571b7de-db23-48d1-80ac-ab1a6a338c70"},"vehicle_type_id":"4","last_reported":1745864063,"current_range_meters":4400,"station_id":"ce4bhr12rcd13ifvqhpg","pricing_plan_id":"cebpf4jnsgd1na2vs0mg"},{"bike_id":"87f123c4-0adc-4ba8-8649-74e2c508ef05","system_id":"levelo_inurba_marseille","lat":43.265596,"lon":5.372909,"is_reserved":false,"is_disabled":false,"rental_uris":{"android":"levelo://app?vid=87f123c4-0adc-4ba8-8649-74e2c508ef05","ios":"levelo://app?vid=87f123c4-0adc-4ba8-8649-74e2c508ef05"},"vehicle_type_id":"4","last_reported":1745864063,"current_range_meters":4800,"station_id":"ce4bhg12rcd13ifvqf70","pricing_plan_id":"cebpf4jnsgd1na2vs0mg"},{"bike_id":"5471f91b-ce0e-46c9-bc61-ad3e6235c5c7","system_id":"levelo_inurba_marseille","lat":43.30884,"lon":5.39646,"is_reserved":false,"is_disabled":false,"rental_uris":{"android":"levelo://app?vid=5471f91b-ce0e-46c9-bc61-ad3e6235c5c7","ios":"levelo://app?vid=5471f91b-ce0e-46c9-bc61-ad3e6235c5c7"},"vehicle_type_id":"4","last_reported":1745864063,"current_range_meters":4800,"station_id":"ce4bh012rcd13ifvqcv0","pricing_plan_id":"cebpf4jnsgd1na2vs0mg"},{"bike_id":"4f048808-d622-441c-ac6f-d47a297eb3e2","system_id":"levelo_inurba_marseille","lat":43.29421,"lon":5.38616,"is_reserved":false,"is_disabled":false,"rental_uris":{"android":"levelo://app?vid=4f048808-d622-441c-ac6f-d47a297eb3e2","ios":"levelo://app?vid=4f048808-d622-441c-ac6f-d47a297eb3e2"},"vehicle_type_id":"4","last_reported":1745864063,"current_range_meters":4800,"station_id":"ce4bh2h2rcd13ifvqdh0","pricing_plan_id":"cebpf4jnsgd1na2vs0mg"},{"bike_id":"cdfb02bb-4666-49d9-ab72-54edbe42be78","system_id":"levelo_inurba_marseille","lat":43.28268,"lon":5.35064,"is_reserved":false,"is_disabled":false,"rental_uris":{"android":"levelo://app?vid=cdfb02bb-4666-49d9-ab72-54edbe42be78","ios":"levelo://app?vid=cdfb02bb-4666-49d9-ab72-54edbe42be78"},"vehicle_type_id":"4","last_reported":1745864063,"current_range_meters":4400,"station_id":"ce4bhbp2rcd13ifvqerg","pricing_plan_id":"cebpf4jnsgd1na2vs0mg"},{"bike_id":"e68fcf9f-c754-4b51-ab82-7a6916a7693b","system_id":"levelo_inurba_marseille","lat":43.28157,"lon":5.42637,"is_reserved":false,"is_disabled":false,"rental_uris":{"android":"levelo://app?vid=e68fcf9f-c754-4b51-ab82-7a6916a7693b","ios":"levelo://app?vid=e68fcf9f-c754-4b51-ab82-7a6916a7693b"},"vehicle_type_id":"4","last_reported":1745864063,"current_range_meters":4800,"station_id":"ce4bhnh2rcd13ifvqgug","pricing_plan_id":"cebpf4jnsgd1na2vs0mg"},{"bike_id":"f07dc51c-b3b7-445d-8cad-47e1561e27ac","system_id":"levelo_inurba_marseille","lat":43.33005,"lon":5.38209,"is_reserved":false,"is_disabled":false,"rental_uris":{"android":"levelo://app?vid=f07dc51c-b3b7-445d-8cad-47e1561e27ac","ios":"levelo://app?vid=f07dc51c-b3b7-445d-8cad-47e1561e27ac"},"vehicle_type_id":"4","last_reported":1745864063,"current_range_meters":4800,"station_id":"","pricing_plan_id":"cebpf4jnsgd1na2vs0mg"},{"bike_id":"dca9188c-c549-4dd1-99e4-6c05179e172a","system_id":"levelo_inurba_marseille","lat":43.28923,"lon":5.38405,"is_reserved":false,"is_disabled":false,"rental_uris":{"android":"levelo://app?vid=dca9188c-c549-4dd1-99e4-6c05179e172a","ios":"levelo://app?vid=dca9188c-c549-4dd1-99e4-6c05179e172a"},"vehicle_type_id":"4","last_reported":1745864063,"current_range_meters":5600,"station_id":"ce4bh612rcd13ifvqe6g","pricing_plan_id":"cebpf4jnsgd1na2vs0mg"},{"bike_id":"61ffaa74-f23c-450f-a9ee-eb45d749f9a5","system_id":"levelo_inurba_marseille","lat":43.24664,"lon":5.3816,"is_reserved":false,"is_disabled":false,"rental_uris":{"android":"levelo://app?vid=61ffaa74-f23c-450f-a9ee-eb45d749f9a5","ios":"levelo://app?vid=61ffaa74-f23c-450f-a9ee-eb45d749f9a5"},"vehicle_type_id":"4","last_reported":1745864063,"current_range_meters":5600,"station_id":"ce4bhih2rcd13ifvqfr0","pricing_plan_id":"cebpf4jnsgd1na2vs0mg"},{"bike_id":"f47a96d1-431c-4d68-8603-7f7960a029e3","system_id":"levelo_inurba_marseille","lat":43.29909,"lon":5.38147,"is_reserved":false,"is_disabled":false,"rental_uris":{"android":"levelo://app?vid=f47a96d1-431c-4d68-8603-7f7960a029e3","ios":"levelo://app?vid=f47a96d1-431c-4d68-8603-7f7960a029e3"},"vehicle_type_id":"4","last_reported":1745864063,"current_range_meters":5600,"station_id":"ce4bgj12rcd13ifvqbc0","pricing_plan_id":"cebpf4jnsgd1na2vs0mg"},{"bike_id":"ef5a622e-aa0a-4359-b3fd-ef466748c455","system_id":"levelo_inurba_marseille","lat":43.231905,"lon":5.355536,"is_reserved":false,"is_disabled":false,"rental_uris":{"android":"levelo://app?vid=ef5a622e-aa0a-4359-b3fd-ef466748c455","ios":"levelo://app?vid=ef5a622e-aa0a-4359-b3fd-ef466748c455"},"vehicle_type_id":"4","last_reported":1745864063,"current_range_meters":5600,"station_id":"ce4bhu92rcd13ifvqi70","pricing_plan_id":"cebpf4jnsgd1na2vs0mg"},{"bike_id":"f604607f-a1e2-4bbd-b747-450760093aca","system_id":"levelo_inurba_marseille","lat":43.29902,"lon":5.43649,"is_reserved":false,"is_disabled":false,"rental_uris":{"android":"levelo://app?vid=f604607f-a1e2-4bbd-b747-450760093aca","ios":"levelo://app?vid=f604607f-a1e2-4bbd-b747-450760093aca"},"vehicle_type_id":"4","last_reported":1745864063,"current_range_meters":6000,"station_id":"ce4bhpp2rcd13ifvqhfg","pricing_plan_id":"cebpf4jnsgd1na2vs0mg"},{"bike_id":"d9cd1294-5d0b-43d3-9258-deda946961d1","system_id":"levelo_inurba_marseille","lat":43.22536,"lon":5.34774,"is_reserved":false,"is_disabled":true,"rental_uris":{"android":"levelo://app?vid=d9cd1294-5d0b-43d3-9258-deda946961d1","ios":"levelo://app?vid=d9cd1294-5d0b-43d3-9258-deda946961d1"},"vehicle_type_id":"4","last_reported":1745864063,"current_range_meters":6000,"station_id":"st_cvj5dfep6f1abm77gieg","pricing_plan_id":"cebpf4jnsgd1na2vs0mg"},{"bike_id":"cbec0076-95d0-4f8f-8339-66de29997492","system_id":"levelo_inurba_marseille","lat":43.25575,"lon":5.38226,"is_reserved":false,"is_disabled":false,"rental_uris":{"android":"levelo://app?vid=cbec0076-95d0-4f8f-8339-66de29997492","ios":"levelo://app?vid=cbec0076-95d0-4f8f-8339-66de29997492"},"vehicle_type_id":"4","last_reported":1745864063,"current_range_meters":6000,"station_id":"ce4bhih2rcd13ifvqfs0","pricing_plan_id":"cebpf4jnsgd1na2vs0mg"},{"bike_id":"5862c7f3-add0-4ce8-b15c-f00e644b993c","system_id":"levelo_inurba_marseille","lat":43.29517,"lon":5.39051,"is_reserved":false,"is_disabled":false,"rental_uris":{"android":"levelo://app?vid=5862c7f3-add0-4ce8-b15c-f00e644b993c","ios":"levelo://app?vid=5862c7f3-add0-4ce8-b15c-f00e644b993c"},"vehicle_type_id":"4","last_reported":1745864063,"current_range_meters":6000,"station_id":"ce4bh3p2rcd13ifvqdp0","pricing_plan_id":"cebpf4jnsgd1na2vs0mg"},{"bike_id":"9d7d9db9-d3ae-4f82-9eb0-2deaf922d9ba","system_id":"levelo_inurba_marseille","lat":43.28611,"lon":5.35101,"is_reserved":false,"is_disabled":false,"rental_uris":{"android":"levelo://app?vid=9d7d9db9-d3ae-4f82-9eb0-2deaf922d9ba","ios":"levelo://app?vid=9d7d9db9-d3ae-4f82-9eb0-2deaf922d9ba"},"vehicle_type_id":"4","last_reported":1745864063,"current_range_meters":6000,"station_id":"","pricing_plan_id":"cebpf4jnsgd1na2vs0mg"},{"bike_id":"5a5ed409-5fa3-46e3-ba0b-83f2227524b9","system_id":"levelo_inurba_marseille","lat":43.25589,"lon":5.38211,"is_reserved":false,"is_disabled":false,"rental_uris":{"android":"levelo://app?vid=5a5ed409-5fa3-46e3-ba0b-83f2227524b9","ios":"levelo://app?vid=5a5ed409-5fa3-46e3-ba0b-83f2227524b9"},"vehicle_type_id":"4","last_reported":1745864063,"current_range_meters":6400,"station_id":"ce4bhih2rcd13ifvqfs0","pricing_plan_id":"cebpf4jnsgd1na2vs0mg"},{"bike_id":"a972ce4c-1efb-4a84-8d57-2fa6a130e82d","system_id":"levelo_inurba_marseille","lat":43.30199,"lon":5.36621,"is_reserved":false,"is_disabled":false,"rental_uris":{"android":"levelo://app?vid=a972ce4c-1efb-4a84-8d57-2fa6a130e82d","ios":"levelo://app?vid=a972ce4c-1efb-4a84-8d57-2fa6a130e82d"},"vehicle_type_id":"4","last_reported":1745864063,"current_range_meters":10000,"station_id":"ce4bgrh2rcd13ifvqc8g","pricing_plan_id":"cebpf4jnsgd1na2vs0mg"},{"bike_id":"e1ef7779-f616-4090-9537-0dbbd9412472","system_id":"levelo_inurba_marseille","lat":43.24546,"lon":5.39522,"is_reserved":false,"is_disabled":false,"rental_uris":{"android":"levelo://app?vid=e1ef7779-f616-4090-9537-0dbbd9412472","ios":"levelo://app?vid=e1ef7779-f616-4090-9537-0dbbd9412472"},"vehicle_type_id":"4","last_reported":1745864063,"current_range_meters":6400,"station_id":"ce4bhlp2rcd13ifvqgjg","pricing_plan_id":"cebpf4jnsgd1na2vs0mg"},{"bike_id":"b07e66e3-411a-43bc-a892-224d0faf0693","system_id":"levelo_inurba_marseille","lat":43.27814,"lon":5.40693,"is_reserved":false,"is_disabled":false,"rental_uris":{"android":"levelo://app?vid=b07e66e3-411a-43bc-a892-224d0faf0693","ios":"levelo://app?vid=b07e66e3-411a-43bc-a892-224d0faf0693"},"vehicle_type_id":"4","last_reported":1745864063,"current_range_meters":6400,"station_id":"ce4bhnh2rcd13ifvqgtg","pricing_plan_id":"cebpf4jnsgd1na2vs0mg"},{"bike_id":"91559d40-e5ec-4b09-aee0-3dda98bb0b91","system_id":"levelo_inurba_marseille","lat":43.29699,"lon":5.36992,"is_reserved":false,"is_disabled":false,"rental_uris":{"android":"levelo://app?vid=91559d40-e5ec-4b09-aee0-3dda98bb0b91","ios":"levelo://app?vid=91559d40-e5ec-4b09-aee0-3dda98bb0b91"},"vehicle_type_id":"4","last_reported":1745864063,"current_range_meters":6800,"station_id":"","pricing_plan_id":"cebpf4jnsgd1na2vs0mg"},{"bike_id":"8ae79fb7-0582-444e-8dab-1d22e31e0f2e","system_id":"levelo_inurba_marseille","lat":43.23951,"lon":5.36643,"is_reserved":false,"is_disabled":false,"rental_uris":{"android":"levelo://app?vid=8ae79fb7-0582-444e-8dab-1d22e31e0f2e","ios":"levelo://app?vid=8ae79fb7-0582-444e-8dab-1d22e31e0f2e"},"vehicle_type_id":"4","last_reported":1745864063,"current_range_meters":6800,"station_id":"ce4bhi12rcd13ifvqfp0","pricing_plan_id":"cebpf4jnsgd1na2vs0mg"},{"bike_id":"5cf37c7e-c3ed-4a02-b872-ba1b00adc3b4","system_id":"levelo_inurba_marseille","lat":43.2465,"lon":5.38942,"is_reserved":false,"is_disabled":false,"rental_uris":{"android":"levelo://app?vid=5cf37c7e-c3ed-4a02-b872-ba1b00adc3b4","ios":"levelo://app?vid=5cf37c7e-c3ed-4a02-b872-ba1b00adc3b4"},"vehicle_type_id":"4","last_reported":1745864063,"current_range_meters":6800,"station_id":"ce4bhg12rcd13ifvqf60","pricing_plan_id":"cebpf4jnsgd1na2vs0mg"},{"bike_id":"476d5457-f8ed-4790-ba4f-941ab585cf7b","system_id":"levelo_inurba_marseille","lat":43.266663,"lon":5.372464,"is_reserved":false,"is_disabled":false,"rental_uris":{"android":"levelo://app?vid=476d5457-f8ed-4790-ba4f-941ab585cf7b","ios":"levelo://app?vid=476d5457-f8ed-4790-ba4f-941ab585cf7b"},"vehicle_type_id":"4","last_reported":1745864063,"current_range_meters":6800,"station_id":"ce4bhb12rcd13ifvqel0","pricing_plan_id":"cebpf4jnsgd1na2vs0mg"},{"bike_id":"8d38b2b6-0732-40bb-ac18-2e6bde0b1452","system_id":"levelo_inurba_marseille","lat":43.31819,"lon":5.37373,"is_reserved":false,"is_disabled":false,"rental_uris":{"android":"levelo://app?vid=8d38b2b6-0732-40bb-ac18-2e6bde0b1452","ios":"levelo://app?vid=8d38b2b6-0732-40bb-ac18-2e6bde0b1452"},"vehicle_type_id":"4","last_reported":1745864063,"current_range_meters":7200,"station_id":"","pricing_plan_id":"cebpf4jnsgd1na2vs0mg"},{"bike_id":"fb511a7c-3cee-4eb5-91f8-52dd69716b84","system_id":"levelo_inurba_marseille","lat":43.28702,"lon":5.37402,"is_reserved":false,"is_disabled":false,"rental_uris":{"android":"levelo://app?vid=fb511a7c-3cee-4eb5-91f8-52dd69716b84","ios":"levelo://app?vid=fb511a7c-3cee-4eb5-91f8-52dd69716b84"},"vehicle_type_id":"4","last_reported":1745864063,"current_range_meters":7200,"station_id":"ce4bh3p2rcd13ifvqdq0","pricing_plan_id":"cebpf4jnsgd1na2vs0mg"},{"bike_id":"2170e8a2-0b50-454a-a8c3-90edc68a4e7f","system_id":"levelo_inurba_marseille","lat":43.22934,"lon":5.35385,"is_reserved":false,"is_disabled":false,"rental_uris":{"android":"levelo://app?vid=2170e8a2-0b50-454a-a8c3-90edc68a4e7f","ios":"levelo://app?vid=2170e8a2-0b50-454a-a8c3-90edc68a4e7f"},"vehicle_type_id":"4","last_reported":1745864063,"current_range_meters":7200,"station_id":"cpo3532slgdg3j2ikp40","pricing_plan_id":"cebpf4jnsgd1na2vs0mg"},{"bike_id":"4f65a322-8575-4fcf-9be4-b0ed30c109c4","system_id":"levelo_inurba_marseille","lat":43.28724,"lon":5.36089,"is_reserved":false,"is_disabled":false,"rental_uris":{"android":"levelo://app?vid=4f65a322-8575-4fcf-9be4-b0ed30c109c4","ios":"levelo://app?vid=4f65a322-8575-4fcf-9be4-b0ed30c109c4"},"vehicle_type_id":"4","last_reported":1745864063,"current_range_meters":6800,"station_id":"cki0cbj6b192h4jlfktg","pricing_plan_id":"cebpf4jnsgd1na2vs0mg"},{"bike_id":"d0977a0f-2d30-4082-b359-eeb36a72c48d","system_id":"levelo_inurba_marseille","lat":43.29571,"lon":5.39982,"is_reserved":false,"is_disabled":false,"rental_uris":{"android":"levelo://app?vid=d0977a0f-2d30-4082-b359-eeb36a72c48d","ios":"levelo://app?vid=d0977a0f-2d30-4082-b359-eeb36a72c48d"},"vehicle_type_id":"4","last_reported":1745864063,"current_range_meters":7200,"station_id":"ce4bh312rcd13ifvqdj0","pricing_plan_id":"cebpf4jnsgd1na2vs0mg"},{"bike_id":"bd7f100a-2f9d-4b38-a531-83e93002322b","system_id":"levelo_inurba_marseille","lat":43.29313,"lon":5.37177,"is_reserved":false,"is_disabled":false,"rental_uris":{"android":"levelo://app?vid=bd7f100a-2f9d-4b38-a531-83e93002322b","ios":"levelo://app?vid=bd7f100a-2f9d-4b38-a531-83e93002322b"},"vehicle_type_id":"4","last_reported":1745864063,"current_range_meters":8000,"station_id":"ce4bgh92rcd13ifvqb40","pricing_plan_id":"cebpf4jnsgd1na2vs0mg"},{"bike_id":"d2ed3067-a186-4def-ba9f-b180fd60a91a","system_id":"levelo_inurba_marseille","lat":43.29603,"lon":5.3812,"is_reserved":false,"is_disabled":false,"rental_uris":{"android":"levelo://app?vid=d2ed3067-a186-4def-ba9f-b180fd60a91a","ios":"levelo://app?vid=d2ed3067-a186-4def-ba9f-b180fd60a91a"},"vehicle_type_id":"4","last_reported":1745864063,"current_range_meters":8000,"station_id":"ce4bgl12rcd13ifvqbo0","pricing_plan_id":"cebpf4jnsgd1na2vs0mg"},{"bike_id":"4141a4ac-c499-4bea-ac60-899e617d90d3","system_id":"levelo_inurba_marseille","lat":43.244145,"lon":5.37079,"is_reserved":false,"is_disabled":false,"rental_uris":{"android":"levelo://app?vid=4141a4ac-c499-4bea-ac60-899e617d90d3","ios":"levelo://app?vid=4141a4ac-c499-4bea-ac60-899e617d90d3"},"vehicle_type_id":"4","last_reported":1745864063,"current_range_meters":8000,"station_id":"ce4bhhh2rcd13ifvqfk0","pricing_plan_id":"cebpf4jnsgd1na2vs0mg"},{"bike_id":"f6a617cd-1e0e-4198-816b-7517769e463c","system_id":"levelo_inurba_marseille","lat":43.29568,"lon":5.39986,"is_reserved":false,"is_disabled":false,"rental_uris":{"android":"levelo://app?vid=f6a617cd-1e0e-4198-816b-7517769e463c","ios":"levelo://app?vid=f6a617cd-1e0e-4198-816b-7517769e463c"},"vehicle_type_id":"4","last_reported":1745864063,"current_range_meters":8000,"station_id":"ce4bh312rcd13ifvqdj0","pricing_plan_id":"cebpf4jnsgd1na2vs0mg"},{"bike_id":"4ba984dd-628b-4b61-862b-6c70e60e3c15","system_id":"levelo_inurba_marseille","lat":43.29572,"lon":5.37524,"is_reserved":false,"is_disabled":false,"rental_uris":{"android":"levelo://app?vid=4ba984dd-628b-4b61-862b-6c70e60e3c15","ios":"levelo://app?vid=4ba984dd-628b-4b61-862b-6c70e60e3c15"},"vehicle_type_id":"4","last_reported":1745864063,"current_range_meters":8000,"station_id":"ce4bgh92rcd13ifvqb50","pricing_plan_id":"cebpf4jnsgd1na2vs0mg"},{"bike_id":"3f89252c-6c16-4ca3-9544-be51ebf02527","system_id":"levelo_inurba_marseille","lat":43.31377,"lon":5.38482,"is_reserved":false,"is_disabled":false,"rental_uris":{"android":"levelo://app?vid=3f89252c-6c16-4ca3-9544-be51ebf02527","ios":"levelo://app?vid=3f89252c-6c16-4ca3-9544-be51ebf02527"},"vehicle_type_id":"4","last_reported":1745864063,"current_range_meters":8000,"station_id":"ce4bgt92rcd13ifvqcf0","pricing_plan_id":"cebpf4jnsgd1na2vs0mg"},{"bike_id":"a4c8a335-745b-4d95-97e0-7bac3cb18549","system_id":"levelo_inurba_marseille","lat":43.28147,"lon":5.39863,"is_reserved":false,"is_disabled":false,"rental_uris":{"android":"levelo://app?vid=a4c8a335-745b-4d95-97e0-7bac3cb18549","ios":"levelo://app?vid=a4c8a335-745b-4d95-97e0-7bac3cb18549"},"vehicle_type_id":"4","last_reported":1745864063,"current_range_meters":8000,"station_id":"","pricing_plan_id":"cebpf4jnsgd1na2vs0mg"},{"bike_id":"1db14274-463d-4180-bece-00dba6656848","system_id":"levelo_inurba_marseille","lat":43.23965,"lon":5.36618,"is_reserved":false,"is_disabled":false,"rental_uris":{"android":"levelo://app?vid=1db14274-463d-4180-bece-00dba6656848","ios":"levelo://app?vid=1db14274-463d-4180-bece-00dba6656848"},"vehicle_type_id":"4","last_reported":1745864063,"current_range_meters":8000,"station_id":"ce4bhi12rcd13ifvqfp0","pricing_plan_id":"cebpf4jnsgd1na2vs0mg"},{"bike_id":"51c1adc9-7cd7-4ffb-971e-7b36309eb47d","system_id":"levelo_inurba_marseille","lat":43.31056,"lon":5.36698,"is_reserved":false,"is_disabled":false,"rental_uris":{"android":"levelo://app?vid=51c1adc9-7cd7-4ffb-971e-7b36309eb47d","ios":"levelo://app?vid=51c1adc9-7cd7-4ffb-971e-7b36309eb47d"},"vehicle_type_id":"4","last_reported":1745864063,"current_range_meters":8000,"station_id":"","pricing_plan_id":"cebpf4jnsgd1na2vs0mg"},{"bike_id":"59f6b8a5-9a4d-4f93-882c-fa6684eb7537","system_id":"levelo_inurba_marseille","lat":43.27677,"lon":5.38898,"is_reserved":false,"is_disabled":true,"rental_uris":{"android":"levelo://app?vid=59f6b8a5-9a4d-4f93-882c-fa6684eb7537","ios":"levelo://app?vid=59f6b8a5-9a4d-4f93-882c-fa6684eb7537"},"vehicle_type_id":"4","last_reported":1745864063,"current_range_meters":8400,"station_id":"ce4bhi12rcd13ifvqfo0","pricing_plan_id":"cebpf4jnsgd1na2vs0mg"},{"bike_id":"ae170dfe-cb7d-4f13-8845-a38e4d473bcf","system_id":"levelo_inurba_marseille","lat":43.29843,"lon":5.36274,"is_reserved":false,"is_disabled":false,"rental_uris":{"android":"levelo://app?vid=ae170dfe-cb7d-4f13-8845-a38e4d473bcf","ios":"levelo://app?vid=ae170dfe-cb7d-4f13-8845-a38e4d473bcf"},"vehicle_type_id":"4","last_reported":1745864063,"current_range_meters":8400,"station_id":"ce4bgpp2rcd13ifvqc3g","pricing_plan_id":"cebpf4jnsgd1na2vs0mg"},{"bike_id":"f2a24a37-0e15-494f-af1d-85704734c482","system_id":"levelo_inurba_marseille","lat":43.25578,"lon":5.38227,"is_reserved":false,"is_disabled":false,"rental_uris":{"android":"levelo://app?vid=f2a24a37-0e15-494f-af1d-85704734c482","ios":"levelo://app?vid=f2a24a37-0e15-494f-af1d-85704734c482"},"vehicle_type_id":"4","last_reported":1745864063,"current_range_meters":8400,"station_id":"ce4bhih2rcd13ifvqfs0","pricing_plan_id":"cebpf4jnsgd1na2vs0mg"},{"bike_id":"c11a38ad-182e-4945-9631-ced6feec6d24","system_id":"levelo_inurba_marseille","lat":43.312206,"lon":5.368468,"is_reserved":false,"is_disabled":false,"rental_uris":{"android":"levelo://app?vid=c11a38ad-182e-4945-9631-ced6feec6d24","ios":"levelo://app?vid=c11a38ad-182e-4945-9631-ced6feec6d24"},"vehicle_type_id":"4","last_reported":1745864063,"current_range_meters":8400,"station_id":"ce4bgl92rcd13ifvqbq0","pricing_plan_id":"cebpf4jnsgd1na2vs0mg"},{"bike_id":"490b1461-2186-454e-b1c7-6b7e225853bc","system_id":"levelo_inurba_marseille","lat":43.26553,"lon":5.3729,"is_reserved":false,"is_disabled":false,"rental_uris":{"android":"levelo://app?vid=490b1461-2186-454e-b1c7-6b7e225853bc","ios":"levelo://app?vid=490b1461-2186-454e-b1c7-6b7e225853bc"},"vehicle_type_id":"4","last_reported":1745864063,"current_range_meters":8400,"station_id":"ce4bhg12rcd13ifvqf70","pricing_plan_id":"cebpf4jnsgd1na2vs0mg"},{"bike_id":"1b74c122-4b9e-459d-9d56-19e849052660","system_id":"levelo_inurba_marseille","lat":43.31075,"lon":5.38348,"is_reserved":false,"is_disabled":false,"rental_uris":{"android":"levelo://app?vid=1b74c122-4b9e-459d-9d56-19e849052660","ios":"levelo://app?vid=1b74c122-4b9e-459d-9d56-19e849052660"},"vehicle_type_id":"4","last_reported":1745864063,"current_range_meters":8800,"station_id":"ce4bgv92rcd13ifvqcr0","pricing_plan_id":"cebpf4jnsgd1na2vs0mg"},{"bike_id":"2d1ff491-e39a-4fd3-8518-cf43fa2e71cf","system_id":"levelo_inurba_marseille","lat":43.28854,"lon":5.35851,"is_reserved":false,"is_disabled":false,"rental_uris":{"android":"levelo://app?vid=2d1ff491-e39a-4fd3-8518-cf43fa2e71cf","ios":"levelo://app?vid=2d1ff491-e39a-4fd3-8518-cf43fa2e71cf"},"vehicle_type_id":"4","last_reported":1745864063,"current_range_meters":8800,"station_id":"ce4bhb12rcd13ifvqem0","pricing_plan_id":"cebpf4jnsgd1na2vs0mg"},{"bike_id":"c1ef8637-261d-43fc-9edb-f4efca755f41","system_id":"levelo_inurba_marseille","lat":43.271738,"lon":5.409919,"is_reserved":false,"is_disabled":false,"rental_uris":{"android":"levelo://app?vid=c1ef8637-261d-43fc-9edb-f4efca755f41","ios":"levelo://app?vid=c1ef8637-261d-43fc-9edb-f4efca755f41"},"vehicle_type_id":"4","last_reported":1745864063,"current_range_meters":8800,"station_id":"ce4bhl12rcd13ifvqgf0","pricing_plan_id":"cebpf4jnsgd1na2vs0mg"},{"bike_id":"679a1104-bb2f-4313-81ae-490e909d7dd6","system_id":"levelo_inurba_marseille","lat":43.29594,"lon":5.37725,"is_reserved":false,"is_disabled":true,"rental_uris":{"android":"levelo://app?vid=679a1104-bb2f-4313-81ae-490e909d7dd6","ios":"levelo://app?vid=679a1104-bb2f-4313-81ae-490e909d7dd6"},"vehicle_type_id":"4","last_reported":1745864063,"current_range_meters":8800,"station_id":"ce4bgi92rcd13ifvqb90","pricing_plan_id":"cebpf4jnsgd1na2vs0mg"},{"bike_id":"6a160ac1-234f-4d96-81cd-f7418664b57e","system_id":"levelo_inurba_marseille","lat":43.231503,"lon":5.437136,"is_reserved":false,"is_disabled":false,"rental_uris":{"android":"levelo://app?vid=6a160ac1-234f-4d96-81cd-f7418664b57e","ios":"levelo://app?vid=6a160ac1-234f-4d96-81cd-f7418664b57e"},"vehicle_type_id":"4","last_reported":1745864063,"current_range_meters":8800,"station_id":"ce4bhmp2rcd13ifvqgog","pricing_plan_id":"cebpf4jnsgd1na2vs0mg"},{"bike_id":"e0fe11ff-3615-47db-8f84-f7a3a3e04b01","system_id":"levelo_inurba_marseille","lat":43.24073,"lon":5.37761,"is_reserved":false,"is_disabled":false,"rental_uris":{"android":"levelo://app?vid=e0fe11ff-3615-47db-8f84-f7a3a3e04b01","ios":"levelo://app?vid=e0fe11ff-3615-47db-8f84-f7a3a3e04b01"},"vehicle_type_id":"4","last_reported":1745864063,"current_range_meters":8800,"station_id":"ce4bhnp2rcd13ifvqgvg","pricing_plan_id":"cebpf4jnsgd1na2vs0mg"},{"bike_id":"2f63c1b8-067b-416f-8330-e8645a71dd02","system_id":"levelo_inurba_marseille","lat":43.28561,"lon":5.39495,"is_reserved":false,"is_disabled":false,"rental_uris":{"android":"levelo://app?vid=2f63c1b8-067b-416f-8330-e8645a71dd02","ios":"levelo://app?vid=2f63c1b8-067b-416f-8330-e8645a71dd02"},"vehicle_type_id":"4","last_reported":1745864063,"current_range_meters":8800,"station_id":"ce4bh292rcd13ifvqdg0","pricing_plan_id":"cebpf4jnsgd1na2vs0mg"},{"bike_id":"af4f0c69-e62d-4155-b1d1-a67b45271ae1","system_id":"levelo_inurba_marseille","lat":43.24729,"lon":5.41162,"is_reserved":false,"is_disabled":false,"rental_uris":{"android":"levelo://app?vid=af4f0c69-e62d-4155-b1d1-a67b45271ae1","ios":"levelo://app?vid=af4f0c69-e62d-4155-b1d1-a67b45271ae1"},"vehicle_type_id":"4","last_reported":1745864063,"current_range_meters":9200,"station_id":"","pricing_plan_id":"cebpf4jnsgd1na2vs0mg"},{"bike_id":"a7276c1c-710f-4116-aac8-e5f770005623","system_id":"levelo_inurba_marseille","lat":43.31179,"lon":5.38706,"is_reserved":false,"is_disabled":false,"rental_uris":{"android":"levelo://app?vid=a7276c1c-710f-4116-aac8-e5f770005623","ios":"levelo://app?vid=a7276c1c-710f-4116-aac8-e5f770005623"},"vehicle_type_id":"4","last_reported":1745864063,"current_range_meters":9200,"station_id":"ce4bgv12rcd13ifvqcp0","pricing_plan_id":"cebpf4jnsgd1na2vs0mg"},{"bike_id":"37462fd3-bd44-40e0-8a59-f04677802edf","system_id":"levelo_inurba_marseille","lat":43.24668,"lon":5.38153,"is_reserved":false,"is_disabled":false,"rental_uris":{"android":"levelo://app?vid=37462fd3-bd44-40e0-8a59-f04677802edf","ios":"levelo://app?vid=37462fd3-bd44-40e0-8a59-f04677802edf"},"vehicle_type_id":"4","last_reported":1745864063,"current_range_meters":9200,"station_id":"ce4bhih2rcd13ifvqfr0","pricing_plan_id":"cebpf4jnsgd1na2vs0mg"},{"bike_id":"18c0b098-f6b3-4ee5-94a4-aebad284eae5","system_id":"levelo_inurba_marseille","lat":43.30902,"lon":5.37189,"is_reserved":false,"is_disabled":false,"rental_uris":{"android":"levelo://app?vid=18c0b098-f6b3-4ee5-94a4-aebad284eae5","ios":"levelo://app?vid=18c0b098-f6b3-4ee5-94a4-aebad284eae5"},"vehicle_type_id":"4","last_reported":1745864063,"current_range_meters":8800,"station_id":"ce4bguh2rcd13ifvqckg","pricing_plan_id":"cebpf4jnsgd1na2vs0mg"},{"bike_id":"59d51828-b8df-4ada-909d-edfc8f075d88","system_id":"levelo_inurba_marseille","lat":43.2902,"lon":5.38649,"is_reserved":false,"is_disabled":false,"rental_uris":{"android":"levelo://app?vid=59d51828-b8df-4ada-909d-edfc8f075d88","ios":"levelo://app?vid=59d51828-b8df-4ada-909d-edfc8f075d88"},"vehicle_type_id":"4","last_reported":1745864063,"current_range_meters":9200,"station_id":"ce4bh4p2rcd13ifvqe0g","pricing_plan_id":"cebpf4jnsgd1na2vs0mg"},{"bike_id":"8319fb7b-0ce5-4739-8424-792dc923db95","system_id":"levelo_inurba_marseille","lat":43.301375,"lon":5.387813,"is_reserved":false,"is_disabled":false,"rental_uris":{"android":"levelo://app?vid=8319fb7b-0ce5-4739-8424-792dc923db95","ios":"levelo://app?vid=8319fb7b-0ce5-4739-8424-792dc923db95"},"vehicle_type_id":"4","last_reported":1745864063,"current_range_meters":9200,"station_id":"","pricing_plan_id":"cebpf4jnsgd1na2vs0mg"},{"bike_id":"38453b31-7905-493a-b4df-fb7f702f2226","system_id":"levelo_inurba_marseille","lat":43.30188,"lon":5.36623,"is_reserved":false,"is_disabled":false,"rental_uris":{"android":"levelo://app?vid=38453b31-7905-493a-b4df-fb7f702f2226","ios":"levelo://app?vid=38453b31-7905-493a-b4df-fb7f702f2226"},"vehicle_type_id":"4","last_reported":1745864063,"current_range_meters":8800,"station_id":"ce4bgrh2rcd13ifvqc8g","pricing_plan_id":"cebpf4jnsgd1na2vs0mg"},{"bike_id":"57a41005-dba4-4995-a65d-3cc07a95ba9a","system_id":"levelo_inurba_marseille","lat":43.302,"lon":5.39479,"is_reserved":false,"is_disabled":true,"rental_uris":{"android":"levelo://app?vid=57a41005-dba4-4995-a65d-3cc07a95ba9a","ios":"levelo://app?vid=57a41005-dba4-4995-a65d-3cc07a95ba9a"},"vehicle_type_id":"4","last_reported":1745864063,"current_range_meters":9200,"station_id":"ce4bh0p2rcd13ifvqd70","pricing_plan_id":"cebpf4jnsgd1na2vs0mg"},{"bike_id":"d6178e0d-4e27-463b-a752-8700e5f92f42","system_id":"levelo_inurba_marseille","lat":43.28567,"lon":5.39499,"is_reserved":false,"is_disabled":false,"rental_uris":{"android":"levelo://app?vid=d6178e0d-4e27-463b-a752-8700e5f92f42","ios":"levelo://app?vid=d6178e0d-4e27-463b-a752-8700e5f92f42"},"vehicle_type_id":"4","last_reported":1745864063,"current_range_meters":9600,"station_id":"ce4bh292rcd13ifvqdg0","pricing_plan_id":"cebpf4jnsgd1na2vs0mg"},{"bike_id":"a7163810-2fee-4f07-bc17-d96aabf9a498","system_id":"levelo_inurba_marseille","lat":43.30797,"lon":5.43542,"is_reserved":false,"is_disabled":false,"rental_uris":{"android":"levelo://app?vid=a7163810-2fee-4f07-bc17-d96aabf9a498","ios":"levelo://app?vid=a7163810-2fee-4f07-bc17-d96aabf9a498"},"vehicle_type_id":"4","last_reported":1745864063,"current_range_meters":9600,"station_id":"ce4bhph2rcd13ifvqheg","pricing_plan_id":"cebpf4jnsgd1na2vs0mg"},{"bike_id":"53a0e966-a90b-47a9-acd9-6e267ffef2a8","system_id":"levelo_inurba_marseille","lat":43.30644,"lon":5.401,"is_reserved":false,"is_disabled":false,"rental_uris":{"android":"levelo://app?vid=53a0e966-a90b-47a9-acd9-6e267ffef2a8","ios":"levelo://app?vid=53a0e966-a90b-47a9-acd9-6e267ffef2a8"},"vehicle_type_id":"4","last_reported":1745864063,"current_range_meters":9600,"station_id":"ce4bh112rcd13ifvqda0","pricing_plan_id":"cebpf4jnsgd1na2vs0mg"},{"bike_id":"20c4a211-768a-4bbe-8723-9e9071897261","system_id":"levelo_inurba_marseille","lat":43.29525,"lon":5.38531,"is_reserved":false,"is_disabled":false,"rental_uris":{"android":"levelo://app?vid=20c4a211-768a-4bbe-8723-9e9071897261","ios":"levelo://app?vid=20c4a211-768a-4bbe-8723-9e9071897261"},"vehicle_type_id":"4","last_reported":1745864063,"current_range_meters":12800,"station_id":"ce4bgih2rcd13ifvqba0","pricing_plan_id":"cebpf4jnsgd1na2vs0mg"},{"bike_id":"3ce9c577-095e-437d-a882-29590c2baf47","system_id":"levelo_inurba_marseille","lat":43.31243,"lon":5.36922,"is_reserved":false,"is_disabled":false,"rental_uris":{"android":"levelo://app?vid=3ce9c577-095e-437d-a882-29590c2baf47","ios":"levelo://app?vid=3ce9c577-095e-437d-a882-29590c2baf47"},"vehicle_type_id":"4","last_reported":1745864063,"current_range_meters":9600,"station_id":"ce4bgl92rcd13ifvqbq0","pricing_plan_id":"cebpf4jnsgd1na2vs0mg"},{"bike_id":"32eca611-111c-4689-bb0d-8c20e0341828","system_id":"levelo_inurba_marseille","lat":43.2558,"lon":5.38222,"is_reserved":false,"is_disabled":false,"rental_uris":{"android":"levelo://app?vid=32eca611-111c-4689-bb0d-8c20e0341828","ios":"levelo://app?vid=32eca611-111c-4689-bb0d-8c20e0341828"},"vehicle_type_id":"4","last_reported":1745864063,"current_range_meters":10000,"station_id":"ce4bhih2rcd13ifvqfs0","pricing_plan_id":"cebpf4jnsgd1na2vs0mg"},{"bike_id":"8f175103-22e6-46d7-a266-99adb487f971","system_id":"levelo_inurba_marseille","lat":43.25585,"lon":5.38232,"is_reserved":false,"is_disabled":false,"rental_uris":{"android":"levelo://app?vid=8f175103-22e6-46d7-a266-99adb487f971","ios":"levelo://app?vid=8f175103-22e6-46d7-a266-99adb487f971"},"vehicle_type_id":"4","last_reported":1745864063,"current_range_meters":10000,"station_id":"ce4bhih2rcd13ifvqfs0","pricing_plan_id":"cebpf4jnsgd1na2vs0mg"},{"bike_id":"9c37c604-0d0d-43ab-8b53-c0bc2d01ffa2","system_id":"levelo_inurba_marseille","lat":43.28459,"lon":5.35875,"is_reserved":false,"is_disabled":false,"rental_uris":{"android":"levelo://app?vid=9c37c604-0d0d-43ab-8b53-c0bc2d01ffa2","ios":"levelo://app?vid=9c37c604-0d0d-43ab-8b53-c0bc2d01ffa2"},"vehicle_type_id":"4","last_reported":1745864063,"current_range_meters":12000,"station_id":"ce4bhah2rcd13ifvqei0","pricing_plan_id":"cebpf4jnsgd1na2vs0mg"},{"bike_id":"d38d985e-d694-4554-b759-756004511f6d","system_id":"levelo_inurba_marseille","lat":43.30199,"lon":5.36628,"is_reserved":false,"is_disabled":false,"rental_uris":{"android":"levelo://app?vid=d38d985e-d694-4554-b759-756004511f6d","ios":"levelo://app?vid=d38d985e-d694-4554-b759-756004511f6d"},"vehicle_type_id":"4","last_reported":1745864063,"current_range_meters":10000,"station_id":"ce4bgrh2rcd13ifvqc8g","pricing_plan_id":"cebpf4jnsgd1na2vs0mg"},{"bike_id":"1cf63bd9-d13d-4781-8167-f45afc711709","system_id":"levelo_inurba_marseille","lat":43.26227,"lon":5.40449,"is_reserved":false,"is_disabled":false,"rental_uris":{"android":"levelo://app?vid=1cf63bd9-d13d-4781-8167-f45afc711709","ios":"levelo://app?vid=1cf63bd9-d13d-4781-8167-f45afc711709"},"vehicle_type_id":"4","last_reported":1745864063,"current_range_meters":10000,"station_id":"ce4bhmh2rcd13ifvqgmg","pricing_plan_id":"cebpf4jnsgd1na2vs0mg"},{"bike_id":"f980fd99-6846-4cc6-8c10-1ac7648c21f9","system_id":"levelo_inurba_marseille","lat":43.24077,"lon":5.37755,"is_reserved":false,"is_disabled":false,"rental_uris":{"android":"levelo://app?vid=f980fd99-6846-4cc6-8c10-1ac7648c21f9","ios":"levelo://app?vid=f980fd99-6846-4cc6-8c10-1ac7648c21f9"},"vehicle_type_id":"4","last_reported":1745864063,"current_range_meters":10000,"station_id":"ce4bhnp2rcd13ifvqgvg","pricing_plan_id":"cebpf4jnsgd1na2vs0mg"},{"bike_id":"05145c84-b9e3-47c2-91f6-efba0dd3a65c","system_id":"levelo_inurba_marseille","lat":43.25017,"lon":5.3891,"is_reserved":false,"is_disabled":true,"rental_uris":{"android":"levelo://app?vid=05145c84-b9e3-47c2-91f6-efba0dd3a65c","ios":"levelo://app?vid=05145c84-b9e3-47c2-91f6-efba0dd3a65c"},"vehicle_type_id":"4","last_reported":1745864063,"current_range_meters":10000,"station_id":"ce4bhgp2rcd13ifvqfd0","pricing_plan_id":"cebpf4jnsgd1na2vs0mg"},{"bike_id":"7eb132e4-4803-45a1-81e1-cf5288d7b444","system_id":"levelo_inurba_marseille","lat":43.30096,"lon":5.39068,"is_reserved":false,"is_disabled":false,"rental_uris":{"android":"levelo://app?vid=7eb132e4-4803-45a1-81e1-cf5288d7b444","ios":"levelo://app?vid=7eb132e4-4803-45a1-81e1-cf5288d7b444"},"vehicle_type_id":"4","last_reported":1745864063,"current_range_meters":10000,"station_id":"ce4bh192rcd13ifvqdb0","pricing_plan_id":"cebpf4jnsgd1na2vs0mg"},{"bike_id":"fa00cedd-0c15-4c90-9e9d-de1e42abe10d","system_id":"levelo_inurba_marseille","lat":43.27374,"lon":5.36259,"is_reserved":false,"is_disabled":false,"rental_uris":{"android":"levelo://app?vid=fa00cedd-0c15-4c90-9e9d-de1e42abe10d","ios":"levelo://app?vid=fa00cedd-0c15-4c90-9e9d-de1e42abe10d"},"vehicle_type_id":"4","last_reported":1745864063,"current_range_meters":10800,"station_id":"ce4bhbh2rcd13ifvqeo0","pricing_plan_id":"cebpf4jnsgd1na2vs0mg"},{"bike_id":"ce2acb9b-3791-4000-822d-c542d629429b","system_id":"levelo_inurba_marseille","lat":43.26119,"lon":5.41466,"is_reserved":false,"is_disabled":false,"rental_uris":{"android":"levelo://app?vid=ce2acb9b-3791-4000-822d-c542d629429b","ios":"levelo://app?vid=ce2acb9b-3791-4000-822d-c542d629429b"},"vehicle_type_id":"4","last_reported":1745864063,"current_range_meters":10800,"station_id":"","pricing_plan_id":"cebpf4jnsgd1na2vs0mg"},{"bike_id":"e7a17ea6-830e-4ab6-9c40-e64b3dfd56fc","system_id":"levelo_inurba_marseille","lat":43.30215,"lon":5.39463,"is_reserved":false,"is_disabled":false,"rental_uris":{"android":"levelo://app?vid=e7a17ea6-830e-4ab6-9c40-e64b3dfd56fc","ios":"levelo://app?vid=e7a17ea6-830e-4ab6-9c40-e64b3dfd56fc"},"vehicle_type_id":"4","last_reported":1745864063,"current_range_meters":10800,"station_id":"ce4bh0p2rcd13ifvqd70","pricing_plan_id":"cebpf4jnsgd1na2vs0mg"},{"bike_id":"514594c1-6c1f-42dd-88be-89f2251f5819","system_id":"levelo_inurba_marseille","lat":43.281777,"lon":5.385869,"is_reserved":false,"is_disabled":false,"rental_uris":{"android":"levelo://app?vid=514594c1-6c1f-42dd-88be-89f2251f5819","ios":"levelo://app?vid=514594c1-6c1f-42dd-88be-89f2251f5819"},"vehicle_type_id":"4","last_reported":1745864063,"current_range_meters":10800,"station_id":"ce4bhi12rcd13ifvqfq0","pricing_plan_id":"cebpf4jnsgd1na2vs0mg"},{"bike_id":"900006cd-4ca8-4340-9b3d-a55f3eb4f0da","system_id":"levelo_inurba_marseille","lat":43.2808,"lon":5.39654,"is_reserved":false,"is_disabled":false,"rental_uris":{"android":"levelo://app?vid=900006cd-4ca8-4340-9b3d-a55f3eb4f0da","ios":"levelo://app?vid=900006cd-4ca8-4340-9b3d-a55f3eb4f0da"},"vehicle_type_id":"4","last_reported":1745864063,"current_range_meters":11200,"station_id":"ce4bho12rcd13ifvqh2g","pricing_plan_id":"cebpf4jnsgd1na2vs0mg"},{"bike_id":"86d158fc-3a8a-441c-b19b-0e98d35271ef","system_id":"levelo_inurba_marseille","lat":43.29839,"lon":5.36265,"is_reserved":false,"is_disabled":false,"rental_uris":{"android":"levelo://app?vid=86d158fc-3a8a-441c-b19b-0e98d35271ef","ios":"levelo://app?vid=86d158fc-3a8a-441c-b19b-0e98d35271ef"},"vehicle_type_id":"4","last_reported":1745864063,"current_range_meters":11200,"station_id":"ce4bgpp2rcd13ifvqc3g","pricing_plan_id":"cebpf4jnsgd1na2vs0mg"},{"bike_id":"c79b24af-5cb4-438c-b98e-fad541d6a728","system_id":"levelo_inurba_marseille","lat":43.28608,"lon":5.37067,"is_reserved":false,"is_disabled":false,"rental_uris":{"android":"levelo://app?vid=c79b24af-5cb4-438c-b98e-fad541d6a728","ios":"levelo://app?vid=c79b24af-5cb4-438c-b98e-fad541d6a728"},"vehicle_type_id":"4","last_reported":1745864063,"current_range_meters":11200,"station_id":"ce4bht12rcd13ifvqi60","pricing_plan_id":"cebpf4jnsgd1na2vs0mg"},{"bike_id":"278f8025-9a3e-471d-b91e-a1b9c210b464","system_id":"levelo_inurba_marseille","lat":43.29804,"lon":5.38132,"is_reserved":false,"is_disabled":false,"rental_uris":{"android":"levelo://app?vid=278f8025-9a3e-471d-b91e-a1b9c210b464","ios":"levelo://app?vid=278f8025-9a3e-471d-b91e-a1b9c210b464"},"vehicle_type_id":"4","last_reported":1745864063,"current_range_meters":11200,"station_id":"ce4bgip2rcd13ifvqbb0","pricing_plan_id":"cebpf4jnsgd1na2vs0mg"},{"bike_id":"4e4a5a82-ef77-42e3-abcb-96339172871a","system_id":"levelo_inurba_marseille","lat":43.25581,"lon":5.38224,"is_reserved":false,"is_disabled":false,"rental_uris":{"android":"levelo://app?vid=4e4a5a82-ef77-42e3-abcb-96339172871a","ios":"levelo://app?vid=4e4a5a82-ef77-42e3-abcb-96339172871a"},"vehicle_type_id":"4","last_reported":1745864063,"current_range_meters":11200,"station_id":"ce4bhih2rcd13ifvqfs0","pricing_plan_id":"cebpf4jnsgd1na2vs0mg"},{"bike_id":"c1080708-6c01-408e-8f6f-f4334104fef8","system_id":"levelo_inurba_marseille","lat":43.28473,"lon":5.38574,"is_reserved":false,"is_disabled":false,"rental_uris":{"android":"levelo://app?vid=c1080708-6c01-408e-8f6f-f4334104fef8","ios":"levelo://app?vid=c1080708-6c01-408e-8f6f-f4334104fef8"},"vehicle_type_id":"4","last_reported":1745864063,"current_range_meters":11200,"station_id":"ce4bh8p2rcd13ifvqeb0","pricing_plan_id":"cebpf4jnsgd1na2vs0mg"},{"bike_id":"8fae950b-d6cb-49df-8ac4-90c9a2055e02","system_id":"levelo_inurba_marseille","lat":43.28078,"lon":5.39661,"is_reserved":false,"is_disabled":false,"rental_uris":{"android":"levelo://app?vid=8fae950b-d6cb-49df-8ac4-90c9a2055e02","ios":"levelo://app?vid=8fae950b-d6cb-49df-8ac4-90c9a2055e02"},"vehicle_type_id":"4","last_reported":1745864063,"current_range_meters":11200,"station_id":"ce4bho12rcd13ifvqh2g","pricing_plan_id":"cebpf4jnsgd1na2vs0mg"},{"bike_id":"e5b4b90d-e268-4de2-98f4-f6d0513f8801","system_id":"levelo_inurba_marseille","lat":43.26542,"lon":5.422,"is_reserved":false,"is_disabled":false,"rental_uris":{"android":"levelo://app?vid=e5b4b90d-e268-4de2-98f4-f6d0513f8801","ios":"levelo://app?vid=e5b4b90d-e268-4de2-98f4-f6d0513f8801"},"vehicle_type_id":"4","last_reported":1745864063,"current_range_meters":11600,"station_id":"","pricing_plan_id":"cebpf4jnsgd1na2vs0mg"},{"bike_id":"8181d28f-5328-4613-8382-4ac501ef0ce3","system_id":"levelo_inurba_marseille","lat":43.31566,"lon":5.38937,"is_reserved":false,"is_disabled":false,"rental_uris":{"android":"levelo://app?vid=8181d28f-5328-4613-8382-4ac501ef0ce3","ios":"levelo://app?vid=8181d28f-5328-4613-8382-4ac501ef0ce3"},"vehicle_type_id":"4","last_reported":1745864063,"current_range_meters":11200,"station_id":"","pricing_plan_id":"cebpf4jnsgd1na2vs0mg"},{"bike_id":"aeda446a-ec80-439a-aa9d-0bd0acdc9cc7","system_id":"levelo_inurba_marseille","lat":43.30294,"lon":5.36885,"is_reserved":false,"is_disabled":false,"rental_uris":{"android":"levelo://app?vid=aeda446a-ec80-439a-aa9d-0bd0acdc9cc7","ios":"levelo://app?vid=aeda446a-ec80-439a-aa9d-0bd0acdc9cc7"},"vehicle_type_id":"4","last_reported":1745864063,"current_range_meters":11200,"station_id":"ce4bgqh2rcd13ifvqc5g","pricing_plan_id":"cebpf4jnsgd1na2vs0mg"},{"bike_id":"0ddcd500-3a71-48d0-8194-7d4c2938c75d","system_id":"levelo_inurba_marseille","lat":43.32449,"lon":5.36504,"is_reserved":false,"is_disabled":false,"rental_uris":{"android":"levelo://app?vid=0ddcd500-3a71-48d0-8194-7d4c2938c75d","ios":"levelo://app?vid=0ddcd500-3a71-48d0-8194-7d4c2938c75d"},"vehicle_type_id":"4","last_reported":1745864063,"current_range_meters":11600,"station_id":"ce4bhs12rcd13ifvqhvg","pricing_plan_id":"cebpf4jnsgd1na2vs0mg"},{"bike_id":"d5fdf34a-f8d0-4d2e-bdb3-2a90f4a1bd62","system_id":"levelo_inurba_marseille","lat":43.26929,"lon":5.38914,"is_reserved":false,"is_disabled":false,"rental_uris":{"android":"levelo://app?vid=d5fdf34a-f8d0-4d2e-bdb3-2a90f4a1bd62","ios":"levelo://app?vid=d5fdf34a-f8d0-4d2e-bdb3-2a90f4a1bd62"},"vehicle_type_id":"4","last_reported":1745864063,"current_range_meters":11600,"station_id":"ce4bhhh2rcd13ifvqfl0","pricing_plan_id":"cebpf4jnsgd1na2vs0mg"},{"bike_id":"ecb19269-14da-4ecc-84e9-b531f60ff956","system_id":"levelo_inurba_marseille","lat":43.31215,"lon":5.36875,"is_reserved":false,"is_disabled":false,"rental_uris":{"android":"levelo://app?vid=ecb19269-14da-4ecc-84e9-b531f60ff956","ios":"levelo://app?vid=ecb19269-14da-4ecc-84e9-b531f60ff956"},"vehicle_type_id":"4","last_reported":1745864063,"current_range_meters":11600,"station_id":"ce4bgl92rcd13ifvqbq0","pricing_plan_id":"cebpf4jnsgd1na2vs0mg"},{"bike_id":"3566469e-5adf-4ae7-9fad-25ede3e08c1b","system_id":"levelo_inurba_marseille","lat":43.292624,"lon":5.384228,"is_reserved":false,"is_disabled":true,"rental_uris":{"android":"levelo://app?vid=3566469e-5adf-4ae7-9fad-25ede3e08c1b","ios":"levelo://app?vid=3566469e-5adf-4ae7-9fad-25ede3e08c1b"},"vehicle_type_id":"4","last_reported":1745864063,"current_range_meters":11600,"station_id":"ce4bh692rcd13ifvqea0","pricing_plan_id":"cebpf4jnsgd1na2vs0mg"},{"bike_id":"86c0598b-4818-471f-9a8b-081ecdc96572","system_id":"levelo_inurba_marseille","lat":43.25582,"lon":5.38218,"is_reserved":false,"is_disabled":false,"rental_uris":{"android":"levelo://app?vid=86c0598b-4818-471f-9a8b-081ecdc96572","ios":"levelo://app?vid=86c0598b-4818-471f-9a8b-081ecdc96572"},"vehicle_type_id":"4","last_reported":1745864063,"current_range_meters":12000,"station_id":"ce4bhih2rcd13ifvqfs0","pricing_plan_id":"cebpf4jnsgd1na2vs0mg"},{"bike_id":"4a059a2d-b3a6-4e0b-9fd3-b714abc8d3bb","system_id":"levelo_inurba_marseille","lat":43.31985,"lon":5.38141,"is_reserved":false,"is_disabled":true,"rental_uris":{"android":"levelo://app?vid=4a059a2d-b3a6-4e0b-9fd3-b714abc8d3bb","ios":"levelo://app?vid=4a059a2d-b3a6-4e0b-9fd3-b714abc8d3bb"},"vehicle_type_id":"4","last_reported":1745864063,"current_range_meters":12000,"station_id":"ce4bhr12rcd13ifvqhpg","pricing_plan_id":"cebpf4jnsgd1na2vs0mg"},{"bike_id":"f8527f98-9dba-4767-9c49-2ee5632fd2af","system_id":"levelo_inurba_marseille","lat":43.27871,"lon":5.40703,"is_reserved":false,"is_disabled":true,"rental_uris":{"android":"levelo://app?vid=f8527f98-9dba-4767-9c49-2ee5632fd2af","ios":"levelo://app?vid=f8527f98-9dba-4767-9c49-2ee5632fd2af"},"vehicle_type_id":"4","last_reported":1745864063,"current_range_meters":12000,"station_id":"","pricing_plan_id":"cebpf4jnsgd1na2vs0mg"},{"bike_id":"7ea9a7dc-a10a-4580-9dce-a22081fe9e4b","system_id":"levelo_inurba_marseille","lat":43.30804,"lon":5.4354,"is_reserved":false,"is_disabled":false,"rental_uris":{"android":"levelo://app?vid=7ea9a7dc-a10a-4580-9dce-a22081fe9e4b","ios":"levelo://app?vid=7ea9a7dc-a10a-4580-9dce-a22081fe9e4b"},"vehicle_type_id":"4","last_reported":1745864063,"current_range_meters":12000,"station_id":"ce4bhph2rcd13ifvqheg","pricing_plan_id":"cebpf4jnsgd1na2vs0mg"},{"bike_id":"c68e30a7-30b1-4d8b-aa93-792ecb85ccc8","system_id":"levelo_inurba_marseille","lat":43.29571,"lon":5.39979,"is_reserved":false,"is_disabled":false,"rental_uris":{"android":"levelo://app?vid=c68e30a7-30b1-4d8b-aa93-792ecb85ccc8","ios":"levelo://app?vid=c68e30a7-30b1-4d8b-aa93-792ecb85ccc8"},"vehicle_type_id":"4","last_reported":1745864063,"current_range_meters":11600,"station_id":"ce4bh312rcd13ifvqdj0","pricing_plan_id":"cebpf4jnsgd1na2vs0mg"},{"bike_id":"dacbba50-691c-4c1b-8e2b-35e4dc6754f9","system_id":"levelo_inurba_marseille","lat":43.23959,"lon":5.36625,"is_reserved":false,"is_disabled":false,"rental_uris":{"android":"levelo://app?vid=dacbba50-691c-4c1b-8e2b-35e4dc6754f9","ios":"levelo://app?vid=dacbba50-691c-4c1b-8e2b-35e4dc6754f9"},"vehicle_type_id":"4","last_reported":1745864063,"current_range_meters":12400,"station_id":"ce4bhi12rcd13ifvqfp0","pricing_plan_id":"cebpf4jnsgd1na2vs0mg"},{"bike_id":"f979f8f3-0ec9-405f-adda-e4d461dc927d","system_id":"levelo_inurba_marseille","lat":43.27909,"lon":5.38004,"is_reserved":false,"is_disabled":false,"rental_uris":{"android":"levelo://app?vid=f979f8f3-0ec9-405f-adda-e4d461dc927d","ios":"levelo://app?vid=f979f8f3-0ec9-405f-adda-e4d461dc927d"},"vehicle_type_id":"4","last_reported":1745864063,"current_range_meters":14000,"station_id":"ce4bhf92rcd13ifvqf50","pricing_plan_id":"cebpf4jnsgd1na2vs0mg"},{"bike_id":"53d37080-83e7-4995-834c-698e472572f1","system_id":"levelo_inurba_marseille","lat":43.31055,"lon":5.38348,"is_reserved":false,"is_disabled":false,"rental_uris":{"android":"levelo://app?vid=53d37080-83e7-4995-834c-698e472572f1","ios":"levelo://app?vid=53d37080-83e7-4995-834c-698e472572f1"},"vehicle_type_id":"4","last_reported":1745864063,"current_range_meters":12400,"station_id":"ce4bgv92rcd13ifvqcr0","pricing_plan_id":"cebpf4jnsgd1na2vs0mg"},{"bike_id":"ab4612c3-85f5-4cb4-9ce2-46373d9c1c69","system_id":"levelo_inurba_marseille","lat":43.25777,"lon":5.3862,"is_reserved":false,"is_disabled":false,"rental_uris":{"android":"levelo://app?vid=ab4612c3-85f5-4cb4-9ce2-46373d9c1c69","ios":"levelo://app?vid=ab4612c3-85f5-4cb4-9ce2-46373d9c1c69"},"vehicle_type_id":"4","last_reported":1745864063,"current_range_meters":12400,"station_id":"","pricing_plan_id":"cebpf4jnsgd1na2vs0mg"},{"bike_id":"066e70d8-2466-42a3-857e-11bd6f2a5f42","system_id":"levelo_inurba_marseille","lat":43.28717,"lon":5.36079,"is_reserved":false,"is_disabled":false,"rental_uris":{"android":"levelo://app?vid=066e70d8-2466-42a3-857e-11bd6f2a5f42","ios":"levelo://app?vid=066e70d8-2466-42a3-857e-11bd6f2a5f42"},"vehicle_type_id":"4","last_reported":1745864063,"current_range_meters":12000,"station_id":"cki0cbj6b192h4jlfktg","pricing_plan_id":"cebpf4jnsgd1na2vs0mg"},{"bike_id":"011653b7-9ac5-4020-bac8-f2643b6f4f30","system_id":"levelo_inurba_marseille","lat":43.30324,"lon":5.40432,"is_reserved":false,"is_disabled":false,"rental_uris":{"android":"levelo://app?vid=011653b7-9ac5-4020-bac8-f2643b6f4f30","ios":"levelo://app?vid=011653b7-9ac5-4020-bac8-f2643b6f4f30"},"vehicle_type_id":"4","last_reported":1745864063,"current_range_meters":12800,"station_id":"ce4bh012rcd13ifvqd10","pricing_plan_id":"cebpf4jnsgd1na2vs0mg"},{"bike_id":"e5e6a904-39d2-418c-bdc1-962762aa36c1","system_id":"levelo_inurba_marseille","lat":43.23966,"lon":5.36629,"is_reserved":false,"is_disabled":false,"rental_uris":{"android":"levelo://app?vid=e5e6a904-39d2-418c-bdc1-962762aa36c1","ios":"levelo://app?vid=e5e6a904-39d2-418c-bdc1-962762aa36c1"},"vehicle_type_id":"4","last_reported":1745864063,"current_range_meters":12800,"station_id":"ce4bhi12rcd13ifvqfp0","pricing_plan_id":"cebpf4jnsgd1na2vs0mg"},{"bike_id":"ab5d8f85-73be-4e5b-aff8-034baadd53eb","system_id":"levelo_inurba_marseille","lat":43.2791,"lon":5.38021,"is_reserved":false,"is_disabled":false,"rental_uris":{"android":"levelo://app?vid=ab5d8f85-73be-4e5b-aff8-034baadd53eb","ios":"levelo://app?vid=ab5d8f85-73be-4e5b-aff8-034baadd53eb"},"vehicle_type_id":"4","last_reported":1745864063,"current_range_meters":12800,"station_id":"ce4bhf92rcd13ifvqf50","pricing_plan_id":"cebpf4jnsgd1na2vs0mg"},{"bike_id":"72ab39d5-4be9-4c08-ab02-7d5bd997a63a","system_id":"levelo_inurba_marseille","lat":43.26801,"lon":5.40267,"is_reserved":false,"is_disabled":false,"rental_uris":{"android":"levelo://app?vid=72ab39d5-4be9-4c08-ab02-7d5bd997a63a","ios":"levelo://app?vid=72ab39d5-4be9-4c08-ab02-7d5bd997a63a"},"vehicle_type_id":"4","last_reported":1745864063,"current_range_meters":13600,"station_id":"ce501612rcd8frsf0b60","pricing_plan_id":"cebpf4jnsgd1na2vs0mg"},{"bike_id":"e96d8efd-164d-4384-9ebd-eaaca9a4dea0","system_id":"levelo_inurba_marseille","lat":43.29556,"lon":5.42291,"is_reserved":false,"is_disabled":false,"rental_uris":{"android":"levelo://app?vid=e96d8efd-164d-4384-9ebd-eaaca9a4dea0","ios":"levelo://app?vid=e96d8efd-164d-4384-9ebd-eaaca9a4dea0"},"vehicle_type_id":"4","last_reported":1745864063,"current_range_meters":13600,"station_id":"ce4bhph2rcd13ifvqhdg","pricing_plan_id":"cebpf4jnsgd1na2vs0mg"},{"bike_id":"a6c80b0c-536c-4a45-884f-2e1d125500ab","system_id":"levelo_inurba_marseille","lat":43.2251,"lon":5.34783,"is_reserved":false,"is_disabled":false,"rental_uris":{"android":"levelo://app?vid=a6c80b0c-536c-4a45-884f-2e1d125500ab","ios":"levelo://app?vid=a6c80b0c-536c-4a45-884f-2e1d125500ab"},"vehicle_type_id":"4","last_reported":1745864063,"current_range_meters":13600,"station_id":"st_cvj5dfep6f1abm77gieg","pricing_plan_id":"cebpf4jnsgd1na2vs0mg"},{"bike_id":"fb2cebdb-300a-474a-b1d4-08184915098e","system_id":"levelo_inurba_marseille","lat":43.23967,"lon":5.36637,"is_reserved":false,"is_disabled":false,"rental_uris":{"android":"levelo://app?vid=fb2cebdb-300a-474a-b1d4-08184915098e","ios":"levelo://app?vid=fb2cebdb-300a-474a-b1d4-08184915098e"},"vehicle_type_id":"4","last_reported":1745864063,"current_range_meters":13600,"station_id":"ce4bhi12rcd13ifvqfp0","pricing_plan_id":"cebpf4jnsgd1na2vs0mg"},{"bike_id":"a273dd95-99e2-4bb8-bee8-19cb9b13f516","system_id":"levelo_inurba_marseille","lat":43.29895,"lon":5.43665,"is_reserved":false,"is_disabled":false,"rental_uris":{"android":"levelo://app?vid=a273dd95-99e2-4bb8-bee8-19cb9b13f516","ios":"levelo://app?vid=a273dd95-99e2-4bb8-bee8-19cb9b13f516"},"vehicle_type_id":"4","last_reported":1745864063,"current_range_meters":13600,"station_id":"ce4bhpp2rcd13ifvqhfg","pricing_plan_id":"cebpf4jnsgd1na2vs0mg"},{"bike_id":"fe7b5508-35ed-4250-869a-e7f3d33f3470","system_id":"levelo_inurba_marseille","lat":43.27207,"lon":5.39183,"is_reserved":false,"is_disabled":false,"rental_uris":{"android":"levelo://app?vid=fe7b5508-35ed-4250-869a-e7f3d33f3470","ios":"levelo://app?vid=fe7b5508-35ed-4250-869a-e7f3d33f3470"},"vehicle_type_id":"4","last_reported":1745864063,"current_range_meters":13600,"station_id":"ce4bhhp2rcd13ifvqfm0","pricing_plan_id":"cebpf4jnsgd1na2vs0mg"},{"bike_id":"a9e73118-aca0-4279-a09d-0250c87a2cbd","system_id":"levelo_inurba_marseille","lat":43.25118,"lon":5.40308,"is_reserved":false,"is_disabled":false,"rental_uris":{"android":"levelo://app?vid=a9e73118-aca0-4279-a09d-0250c87a2cbd","ios":"levelo://app?vid=a9e73118-aca0-4279-a09d-0250c87a2cbd"},"vehicle_type_id":"4","last_reported":1745864063,"current_range_meters":13600,"station_id":"ce4bhlh2rcd13ifvqgig","pricing_plan_id":"cebpf4jnsgd1na2vs0mg"},{"bike_id":"6b88ae52-4470-4609-9540-2ec7e9358c2c","system_id":"levelo_inurba_marseille","lat":43.23964,"lon":5.36645,"is_reserved":false,"is_disabled":false,"rental_uris":{"android":"levelo://app?vid=6b88ae52-4470-4609-9540-2ec7e9358c2c","ios":"levelo://app?vid=6b88ae52-4470-4609-9540-2ec7e9358c2c"},"vehicle_type_id":"4","last_reported":1745864063,"current_range_meters":14000,"station_id":"ce4bhi12rcd13ifvqfp0","pricing_plan_id":"cebpf4jnsgd1na2vs0mg"},{"bike_id":"0152c1f9-7fe0-4ca8-baa7-28760592a88b","system_id":"levelo_inurba_marseille","lat":43.25121,"lon":5.40321,"is_reserved":false,"is_disabled":false,"rental_uris":{"android":"levelo://app?vid=0152c1f9-7fe0-4ca8-baa7-28760592a88b","ios":"levelo://app?vid=0152c1f9-7fe0-4ca8-baa7-28760592a88b"},"vehicle_type_id":"4","last_reported":1745864063,"current_range_meters":14000,"station_id":"ce4bhlh2rcd13ifvqgig","pricing_plan_id":"cebpf4jnsgd1na2vs0mg"},{"bike_id":"7f79e85d-a27a-4c73-86bf-3025c15a2c03","system_id":"levelo_inurba_marseille","lat":43.2862,"lon":5.35096,"is_reserved":false,"is_disabled":false,"rental_uris":{"android":"levelo://app?vid=7f79e85d-a27a-4c73-86bf-3025c15a2c03","ios":"levelo://app?vid=7f79e85d-a27a-4c73-86bf-3025c15a2c03"},"vehicle_type_id":"4","last_reported":1745864063,"current_range_meters":14000,"station_id":"ce4bhch2rcd13ifvqeug","pricing_plan_id":"cebpf4jnsgd1na2vs0mg"},{"bike_id":"d92ea7a1-cc61-45da-bf12-4d80ca680290","system_id":"levelo_inurba_marseille","lat":43.29269,"lon":5.40114,"is_reserved":false,"is_disabled":false,"rental_uris":{"android":"levelo://app?vid=d92ea7a1-cc61-45da-bf12-4d80ca680290","ios":"levelo://app?vid=d92ea7a1-cc61-45da-bf12-4d80ca680290"},"vehicle_type_id":"4","last_reported":1745864063,"current_range_meters":14400,"station_id":"ce4bh312rcd13ifvqdk0","pricing_plan_id":"cebpf4jnsgd1na2vs0mg"},{"bike_id":"f8d1c659-445d-452a-80d2-96bc895a4709","system_id":"levelo_inurba_marseille","lat":43.28443,"lon":5.39188,"is_reserved":false,"is_disabled":false,"rental_uris":{"android":"levelo://app?vid=f8d1c659-445d-452a-80d2-96bc895a4709","ios":"levelo://app?vid=f8d1c659-445d-452a-80d2-96bc895a4709"},"vehicle_type_id":"4","last_reported":1745864063,"current_range_meters":14000,"station_id":"ce4bhoh2rcd13ifvqh5g","pricing_plan_id":"cebpf4jnsgd1na2vs0mg"},{"bike_id":"e4f4c742-f36a-4b23-98b3-65887db2e8ed","system_id":"levelo_inurba_marseille","lat":43.29373,"lon":5.37841,"is_reserved":false,"is_disabled":false,"rental_uris":{"android":"levelo://app?vid=e4f4c742-f36a-4b23-98b3-65887db2e8ed","ios":"levelo://app?vid=e4f4c742-f36a-4b23-98b3-65887db2e8ed"},"vehicle_type_id":"4","last_reported":1745864063,"current_range_meters":14400,"station_id":"ce4bgjh2rcd13ifvqbf0","pricing_plan_id":"cebpf4jnsgd1na2vs0mg"},{"bike_id":"139062d1-6b92-4971-a08a-d6a2398b8b63","system_id":"levelo_inurba_marseille","lat":43.27827,"lon":5.39202,"is_reserved":false,"is_disabled":false,"rental_uris":{"android":"levelo://app?vid=139062d1-6b92-4971-a08a-d6a2398b8b63","ios":"levelo://app?vid=139062d1-6b92-4971-a08a-d6a2398b8b63"},"vehicle_type_id":"4","last_reported":1745864063,"current_range_meters":14400,"station_id":"ce4bhjp2rcd13ifvqga0","pricing_plan_id":"cebpf4jnsgd1na2vs0mg"},{"bike_id":"f771a545-16b0-41dd-b3bf-3d33a3b0b762","system_id":"levelo_inurba_marseille","lat":43.32337,"lon":5.40621,"is_reserved":false,"is_disabled":false,"rental_uris":{"android":"levelo://app?vid=f771a545-16b0-41dd-b3bf-3d33a3b0b762","ios":"levelo://app?vid=f771a545-16b0-41dd-b3bf-3d33a3b0b762"},"vehicle_type_id":"4","last_reported":1745864063,"current_range_meters":14400,"station_id":"ce4bhq92rcd13ifvqhjg","pricing_plan_id":"cebpf4jnsgd1na2vs0mg"},{"bike_id":"b3da7448-854a-4cff-86cc-386dbf40cc30","system_id":"levelo_inurba_marseille","lat":43.31246,"lon":5.3814,"is_reserved":false,"is_disabled":false,"rental_uris":{"android":"levelo://app?vid=b3da7448-854a-4cff-86cc-386dbf40cc30","ios":"levelo://app?vid=b3da7448-854a-4cff-86cc-386dbf40cc30"},"vehicle_type_id":"4","last_reported":1745864063,"current_range_meters":14800,"station_id":"","pricing_plan_id":"cebpf4jnsgd1na2vs0mg"},{"bike_id":"3be45669-b144-4101-88a7-e5fcd508ba20","system_id":"levelo_inurba_marseille","lat":43.27377,"lon":5.36255,"is_reserved":false,"is_disabled":false,"rental_uris":{"android":"levelo://app?vid=3be45669-b144-4101-88a7-e5fcd508ba20","ios":"levelo://app?vid=3be45669-b144-4101-88a7-e5fcd508ba20"},"vehicle_type_id":"4","last_reported":1745864063,"current_range_meters":14800,"station_id":"ce4bhbh2rcd13ifvqeo0","pricing_plan_id":"cebpf4jnsgd1na2vs0mg"},{"bike_id":"c4486daa-4693-4002-983f-06ec0d251cba","system_id":"levelo_inurba_marseille","lat":43.29966,"lon":5.38497,"is_reserved":false,"is_disabled":false,"rental_uris":{"android":"levelo://app?vid=c4486daa-4693-4002-983f-06ec0d251cba","ios":"levelo://app?vid=c4486daa-4693-4002-983f-06ec0d251cba"},"vehicle_type_id":"4","last_reported":1745864063,"current_range_meters":14800,"station_id":"ce4bgj92rcd13ifvqbd0","pricing_plan_id":"cebpf4jnsgd1na2vs0mg"},{"bike_id":"6900d9c6-0594-4121-b75b-f87ea102cadc","system_id":"levelo_inurba_marseille","lat":43.2844,"lon":5.39182,"is_reserved":false,"is_disabled":false,"rental_uris":{"android":"levelo://app?vid=6900d9c6-0594-4121-b75b-f87ea102cadc","ios":"levelo://app?vid=6900d9c6-0594-4121-b75b-f87ea102cadc"},"vehicle_type_id":"4","last_reported":1745864063,"current_range_meters":14800,"station_id":"ce4bhoh2rcd13ifvqh5g","pricing_plan_id":"cebpf4jnsgd1na2vs0mg"},{"bike_id":"9173922a-f107-41af-a094-25f7cf17a35b","system_id":"levelo_inurba_marseille","lat":43.24072,"lon":5.37755,"is_reserved":false,"is_disabled":true,"rental_uris":{"android":"levelo://app?vid=9173922a-f107-41af-a094-25f7cf17a35b","ios":"levelo://app?vid=9173922a-f107-41af-a094-25f7cf17a35b"},"vehicle_type_id":"4","last_reported":1745864063,"current_range_meters":14800,"station_id":"ce4bhnp2rcd13ifvqgvg","pricing_plan_id":"cebpf4jnsgd1na2vs0mg"},{"bike_id":"084259b5-00e0-4be5-be40-455b89ef3783","system_id":"levelo_inurba_marseille","lat":43.30419,"lon":5.41291,"is_reserved":false,"is_disabled":false,"rental_uris":{"android":"levelo://app?vid=084259b5-00e0-4be5-be40-455b89ef3783","ios":"levelo://app?vid=084259b5-00e0-4be5-be40-455b89ef3783"},"vehicle_type_id":"4","last_reported":1745864063,"current_range_meters":14800,"station_id":"ce4bhop2rcd13ifvqh8g","pricing_plan_id":"cebpf4jnsgd1na2vs0mg"},{"bike_id":"8328fcf7-e7c1-4ab2-9672-3807178f6937","system_id":"levelo_inurba_marseille","lat":43.246703,"lon":5.38159,"is_reserved":false,"is_disabled":false,"rental_uris":{"android":"levelo://app?vid=8328fcf7-e7c1-4ab2-9672-3807178f6937","ios":"levelo://app?vid=8328fcf7-e7c1-4ab2-9672-3807178f6937"},"vehicle_type_id":"4","last_reported":1745864063,"current_range_meters":14800,"station_id":"ce4bhih2rcd13ifvqfr0","pricing_plan_id":"cebpf4jnsgd1na2vs0mg"},{"bike_id":"88f30ca8-0676-4ca8-8f6e-784414b264d6","system_id":"levelo_inurba_marseille","lat":43.29002,"lon":5.35621,"is_reserved":false,"is_disabled":false,"rental_uris":{"android":"levelo://app?vid=88f30ca8-0676-4ca8-8f6e-784414b264d6","ios":"levelo://app?vid=88f30ca8-0676-4ca8-8f6e-784414b264d6"},"vehicle_type_id":"4","last_reported":1745864063,"current_range_meters":14400,"station_id":"ce4bhb92rcd13ifvqen0","pricing_plan_id":"cebpf4jnsgd1na2vs0mg"},{"bike_id":"a17dfbc6-c24a-4f6f-a28a-8c7675d89f62","system_id":"levelo_inurba_marseille","lat":43.30416,"lon":5.4128,"is_reserved":false,"is_disabled":true,"rental_uris":{"android":"levelo://app?vid=a17dfbc6-c24a-4f6f-a28a-8c7675d89f62","ios":"levelo://app?vid=a17dfbc6-c24a-4f6f-a28a-8c7675d89f62"},"vehicle_type_id":"4","last_reported":1745864063,"current_range_meters":14800,"station_id":"ce4bhop2rcd13ifvqh8g","pricing_plan_id":"cebpf4jnsgd1na2vs0mg"},{"bike_id":"de78db63-6f36-4d9e-921b-0d0394b3cfeb","system_id":"levelo_inurba_marseille","lat":43.28659,"lon":5.36356,"is_reserved":false,"is_disabled":false,"rental_uris":{"android":"levelo://app?vid=de78db63-6f36-4d9e-921b-0d0394b3cfeb","ios":"levelo://app?vid=de78db63-6f36-4d9e-921b-0d0394b3cfeb"},"vehicle_type_id":"4","last_reported":1745864063,"current_range_meters":14800,"station_id":"ce4bhah2rcd13ifvqej0","pricing_plan_id":"cebpf4jnsgd1na2vs0mg"},{"bike_id":"28894e81-ede6-4351-84e3-e6b48081a345","system_id":"levelo_inurba_marseille","lat":43.33434,"lon":5.40055,"is_reserved":false,"is_disabled":false,"rental_uris":{"android":"levelo://app?vid=28894e81-ede6-4351-84e3-e6b48081a345","ios":"levelo://app?vid=28894e81-ede6-4351-84e3-e6b48081a345"},"vehicle_type_id":"4","last_reported":1745864063,"current_range_meters":15200,"station_id":"","pricing_plan_id":"cebpf4jnsgd1na2vs0mg"},{"bike_id":"64b4a0f6-eb4e-4a58-a49c-c2fdffc72cda","system_id":"levelo_inurba_marseille","lat":43.27552,"lon":5.38447,"is_reserved":false,"is_disabled":true,"rental_uris":{"android":"levelo://app?vid=64b4a0f6-eb4e-4a58-a49c-c2fdffc72cda","ios":"levelo://app?vid=64b4a0f6-eb4e-4a58-a49c-c2fdffc72cda"},"vehicle_type_id":"4","last_reported":1745864063,"current_range_meters":15200,"station_id":"ce4bhh92rcd13ifvqfi0","pricing_plan_id":"cebpf4jnsgd1na2vs0mg"},{"bike_id":"f7de7479-45c0-4c25-bdd1-a2c17c0f8b8f","system_id":"levelo_inurba_marseille","lat":43.23959,"lon":5.3665,"is_reserved":false,"is_disabled":false,"rental_uris":{"android":"levelo://app?vid=f7de7479-45c0-4c25-bdd1-a2c17c0f8b8f","ios":"levelo://app?vid=f7de7479-45c0-4c25-bdd1-a2c17c0f8b8f"},"vehicle_type_id":"4","last_reported":1745864063,"current_range_meters":15200,"station_id":"ce4bhi12rcd13ifvqfp0","pricing_plan_id":"cebpf4jnsgd1na2vs0mg"},{"bike_id":"16e751fc-1a6c-4177-af7e-5bd4d3eb3cd1","system_id":"levelo_inurba_marseille","lat":43.29264,"lon":5.38434,"is_reserved":false,"is_disabled":false,"rental_uris":{"android":"levelo://app?vid=16e751fc-1a6c-4177-af7e-5bd4d3eb3cd1","ios":"levelo://app?vid=16e751fc-1a6c-4177-af7e-5bd4d3eb3cd1"},"vehicle_type_id":"4","last_reported":1745864063,"current_range_meters":15200,"station_id":"ce4bh692rcd13ifvqea0","pricing_plan_id":"cebpf4jnsgd1na2vs0mg"},{"bike_id":"34eb21e4-a5ef-463a-82f5-c09e57beb5cb","system_id":"levelo_inurba_marseille","lat":43.30092,"lon":5.39078,"is_reserved":false,"is_disabled":false,"rental_uris":{"android":"levelo://app?vid=34eb21e4-a5ef-463a-82f5-c09e57beb5cb","ios":"levelo://app?vid=34eb21e4-a5ef-463a-82f5-c09e57beb5cb"},"vehicle_type_id":"4","last_reported":1745864063,"current_range_meters":15200,"station_id":"ce4bh192rcd13ifvqdb0","pricing_plan_id":"cebpf4jnsgd1na2vs0mg"},{"bike_id":"6a36ad42-8dd9-4fbf-a862-dff1212cae00","system_id":"levelo_inurba_marseille","lat":43.313,"lon":5.36836,"is_reserved":false,"is_disabled":false,"rental_uris":{"android":"levelo://app?vid=6a36ad42-8dd9-4fbf-a862-dff1212cae00","ios":"levelo://app?vid=6a36ad42-8dd9-4fbf-a862-dff1212cae00"},"vehicle_type_id":"4","last_reported":1745864063,"current_range_meters":16000,"station_id":"","pricing_plan_id":"cebpf4jnsgd1na2vs0mg"},{"bike_id":"b3d7cca2-7d35-4030-8d40-4a8257616573","system_id":"levelo_inurba_marseille","lat":43.22514,"lon":5.3478,"is_reserved":false,"is_disabled":false,"rental_uris":{"android":"levelo://app?vid=b3d7cca2-7d35-4030-8d40-4a8257616573","ios":"levelo://app?vid=b3d7cca2-7d35-4030-8d40-4a8257616573"},"vehicle_type_id":"4","last_reported":1745864063,"current_range_meters":16000,"station_id":"st_cvj5dfep6f1abm77gieg","pricing_plan_id":"cebpf4jnsgd1na2vs0mg"},{"bike_id":"45d2704c-c5bd-4512-bdfa-32f77ec3d698","system_id":"levelo_inurba_marseille","lat":43.29267,"lon":5.40118,"is_reserved":false,"is_disabled":false,"rental_uris":{"android":"levelo://app?vid=45d2704c-c5bd-4512-bdfa-32f77ec3d698","ios":"levelo://app?vid=45d2704c-c5bd-4512-bdfa-32f77ec3d698"},"vehicle_type_id":"4","last_reported":1745864063,"current_range_meters":16000,"station_id":"ce4bh312rcd13ifvqdk0","pricing_plan_id":"cebpf4jnsgd1na2vs0mg"},{"bike_id":"d58e03bb-19b9-469a-bcd7-0c3ce91d40b5","system_id":"levelo_inurba_marseille","lat":43.213405,"lon":5.349638,"is_reserved":false,"is_disabled":false,"rental_uris":{"android":"levelo://app?vid=d58e03bb-19b9-469a-bcd7-0c3ce91d40b5","ios":"levelo://app?vid=d58e03bb-19b9-469a-bcd7-0c3ce91d40b5"},"vehicle_type_id":"4","last_reported":1745864063,"current_range_meters":16000,"station_id":"","pricing_plan_id":"cebpf4jnsgd1na2vs0mg"},{"bike_id":"923f8501-7d40-44db-85bf-a51b2ea797ac","system_id":"levelo_inurba_marseille","lat":43.26949,"lon":5.4026,"is_reserved":false,"is_disabled":true,"rental_uris":{"android":"levelo://app?vid=923f8501-7d40-44db-85bf-a51b2ea797ac","ios":"levelo://app?vid=923f8501-7d40-44db-85bf-a51b2ea797ac"},"vehicle_type_id":"4","last_reported":1745864063,"current_range_meters":16000,"station_id":"cjm6bp8fraef2m0cb0m0","pricing_plan_id":"cebpf4jnsgd1na2vs0mg"},{"bike_id":"461930cd-6440-41cc-b74f-d184df9e94d2","system_id":"levelo_inurba_marseille","lat":43.25077,"lon":5.39514,"is_reserved":false,"is_disabled":false,"rental_uris":{"android":"levelo://app?vid=461930cd-6440-41cc-b74f-d184df9e94d2","ios":"levelo://app?vid=461930cd-6440-41cc-b74f-d184df9e94d2"},"vehicle_type_id":"4","last_reported":1745864063,"current_range_meters":16000,"station_id":"ce4bhm12rcd13ifvqgkg","pricing_plan_id":"cebpf4jnsgd1na2vs0mg"},{"bike_id":"a4e9b155-d7d4-4ac4-8bb2-8757ba802215","system_id":"levelo_inurba_marseille","lat":43.29598,"lon":5.3811,"is_reserved":false,"is_disabled":false,"rental_uris":{"android":"levelo://app?vid=a4e9b155-d7d4-4ac4-8bb2-8757ba802215","ios":"levelo://app?vid=a4e9b155-d7d4-4ac4-8bb2-8757ba802215"},"vehicle_type_id":"4","last_reported":1745864063,"current_range_meters":16400,"station_id":"","pricing_plan_id":"cebpf4jnsgd1na2vs0mg"},{"bike_id":"b7ca510d-1171-4ecc-996c-224d46372e70","system_id":"levelo_inurba_marseille","lat":43.32366,"lon":5.38884,"is_reserved":false,"is_disabled":false,"rental_uris":{"android":"levelo://app?vid=b7ca510d-1171-4ecc-996c-224d46372e70","ios":"levelo://app?vid=b7ca510d-1171-4ecc-996c-224d46372e70"},"vehicle_type_id":"4","last_reported":1745864063,"current_range_meters":16400,"station_id":"ce4bhqp2rcd13ifvqhog","pricing_plan_id":"cebpf4jnsgd1na2vs0mg"},{"bike_id":"a640b5aa-9396-4827-8f57-dd7ffd2f1a84","system_id":"levelo_inurba_marseille","lat":43.29776,"lon":5.381,"is_reserved":false,"is_disabled":true,"rental_uris":{"android":"levelo://app?vid=a640b5aa-9396-4827-8f57-dd7ffd2f1a84","ios":"levelo://app?vid=a640b5aa-9396-4827-8f57-dd7ffd2f1a84"},"vehicle_type_id":"4","last_reported":1745864063,"current_range_meters":16400,"station_id":"ce4bgip2rcd13ifvqbb0","pricing_plan_id":"cebpf4jnsgd1na2vs0mg"},{"bike_id":"a958bd06-9a50-497e-aef9-55e910bf12d1","system_id":"levelo_inurba_marseille","lat":43.2993,"lon":5.38111,"is_reserved":false,"is_disabled":true,"rental_uris":{"android":"levelo://app?vid=a958bd06-9a50-497e-aef9-55e910bf12d1","ios":"levelo://app?vid=a958bd06-9a50-497e-aef9-55e910bf12d1"},"vehicle_type_id":"4","last_reported":1745864063,"current_range_meters":16400,"station_id":"ce4bgj12rcd13ifvqbc0","pricing_plan_id":"cebpf4jnsgd1na2vs0mg"},{"bike_id":"5d12ee4a-52f1-4f1a-af38-ad7a19a5a489","system_id":"levelo_inurba_marseille","lat":43.30551,"lon":5.36539,"is_reserved":false,"is_disabled":true,"rental_uris":{"android":"levelo://app?vid=5d12ee4a-52f1-4f1a-af38-ad7a19a5a489","ios":"levelo://app?vid=5d12ee4a-52f1-4f1a-af38-ad7a19a5a489"},"vehicle_type_id":"4","last_reported":1745864063,"current_range_meters":16400,"station_id":"ce4bgs12rcd13ifvqcag","pricing_plan_id":"cebpf4jnsgd1na2vs0mg"},{"bike_id":"1c71dd62-5c1a-42e0-8da7-81eceebfb73e","system_id":"levelo_inurba_marseille","lat":43.21184,"lon":5.35072,"is_reserved":false,"is_disabled":false,"rental_uris":{"android":"levelo://app?vid=1c71dd62-5c1a-42e0-8da7-81eceebfb73e","ios":"levelo://app?vid=1c71dd62-5c1a-42e0-8da7-81eceebfb73e"},"vehicle_type_id":"4","last_reported":1745864063,"current_range_meters":16400,"station_id":"st_cvj6sg6p6f1abm77japg","pricing_plan_id":"cebpf4jnsgd1na2vs0mg"},{"bike_id":"7961a001-dd23-4d21-97f8-a43e3829cbb0","system_id":"levelo_inurba_marseille","lat":43.25086,"lon":5.40334,"is_reserved":false,"is_disabled":false,"rental_uris":{"android":"levelo://app?vid=7961a001-dd23-4d21-97f8-a43e3829cbb0","ios":"levelo://app?vid=7961a001-dd23-4d21-97f8-a43e3829cbb0"},"vehicle_type_id":"4","last_reported":1745864063,"current_range_meters":15200,"station_id":"ce4bhlh2rcd13ifvqgig","pricing_plan_id":"cebpf4jnsgd1na2vs0mg"},{"bike_id":"a927ad15-b129-4085-9072-8cc54f2c8cf2","system_id":"levelo_inurba_marseille","lat":43.29584,"lon":5.36743,"is_reserved":false,"is_disabled":false,"rental_uris":{"android":"levelo://app?vid=a927ad15-b129-4085-9072-8cc54f2c8cf2","ios":"levelo://app?vid=a927ad15-b129-4085-9072-8cc54f2c8cf2"},"vehicle_type_id":"4","last_reported":1745864063,"current_range_meters":16400,"station_id":"","pricing_plan_id":"cebpf4jnsgd1na2vs0mg"},{"bike_id":"1946eb44-0410-4268-86dc-28ee477e76eb","system_id":"levelo_inurba_marseille","lat":43.30323,"lon":5.40437,"is_reserved":false,"is_disabled":false,"rental_uris":{"android":"levelo://app?vid=1946eb44-0410-4268-86dc-28ee477e76eb","ios":"levelo://app?vid=1946eb44-0410-4268-86dc-28ee477e76eb"},"vehicle_type_id":"4","last_reported":1745864063,"current_range_meters":16800,"station_id":"ce4bh012rcd13ifvqd10","pricing_plan_id":"cebpf4jnsgd1na2vs0mg"},{"bike_id":"1b82c59a-e4a8-45fe-9b75-1d2ccb677688","system_id":"levelo_inurba_marseille","lat":43.23965,"lon":5.36631,"is_reserved":false,"is_disabled":false,"rental_uris":{"android":"levelo://app?vid=1b82c59a-e4a8-45fe-9b75-1d2ccb677688","ios":"levelo://app?vid=1b82c59a-e4a8-45fe-9b75-1d2ccb677688"},"vehicle_type_id":"4","last_reported":1745864063,"current_range_meters":16800,"station_id":"ce4bhi12rcd13ifvqfp0","pricing_plan_id":"cebpf4jnsgd1na2vs0mg"},{"bike_id":"d62ddf27-5b02-45fd-bd0c-48edab448e0e","system_id":"levelo_inurba_marseille","lat":43.32367,"lon":5.38894,"is_reserved":false,"is_disabled":false,"rental_uris":{"android":"levelo://app?vid=d62ddf27-5b02-45fd-bd0c-48edab448e0e","ios":"levelo://app?vid=d62ddf27-5b02-45fd-bd0c-48edab448e0e"},"vehicle_type_id":"4","last_reported":1745864063,"current_range_meters":16800,"station_id":"ce4bhqp2rcd13ifvqhog","pricing_plan_id":"cebpf4jnsgd1na2vs0mg"},{"bike_id":"63432491-f358-4baa-a4f0-9a9d8d4456dc","system_id":"levelo_inurba_marseille","lat":43.29037,"lon":5.35922,"is_reserved":false,"is_disabled":false,"rental_uris":{"android":"levelo://app?vid=63432491-f358-4baa-a4f0-9a9d8d4456dc","ios":"levelo://app?vid=63432491-f358-4baa-a4f0-9a9d8d4456dc"},"vehicle_type_id":"4","last_reported":1745864063,"current_range_meters":16800,"station_id":"ce4bha92rcd13ifvqeg0","pricing_plan_id":"cebpf4jnsgd1na2vs0mg"},{"bike_id":"90ec756e-7d75-44ae-9837-bcc6f8c453df","system_id":"levelo_inurba_marseille","lat":43.23191,"lon":5.35559,"is_reserved":false,"is_disabled":false,"rental_uris":{"android":"levelo://app?vid=90ec756e-7d75-44ae-9837-bcc6f8c453df","ios":"levelo://app?vid=90ec756e-7d75-44ae-9837-bcc6f8c453df"},"vehicle_type_id":"4","last_reported":1745864063,"current_range_meters":16800,"station_id":"ce4bhu92rcd13ifvqi70","pricing_plan_id":"cebpf4jnsgd1na2vs0mg"},{"bike_id":"888538ce-4dc3-4f2e-8404-8ea4d633e1aa","system_id":"levelo_inurba_marseille","lat":43.26183,"lon":5.37449,"is_reserved":false,"is_disabled":true,"rental_uris":{"android":"levelo://app?vid=888538ce-4dc3-4f2e-8404-8ea4d633e1aa","ios":"levelo://app?vid=888538ce-4dc3-4f2e-8404-8ea4d633e1aa"},"vehicle_type_id":"4","last_reported":1745864063,"current_range_meters":16800,"station_id":"ce4bhgp2rcd13ifvqfc0","pricing_plan_id":"cebpf4jnsgd1na2vs0mg"},{"bike_id":"63bb9165-9603-422d-9417-aca4d3487d82","system_id":"levelo_inurba_marseille","lat":43.29052,"lon":5.35922,"is_reserved":false,"is_disabled":false,"rental_uris":{"android":"levelo://app?vid=63bb9165-9603-422d-9417-aca4d3487d82","ios":"levelo://app?vid=63bb9165-9603-422d-9417-aca4d3487d82"},"vehicle_type_id":"4","last_reported":1745864063,"current_range_meters":16400,"station_id":"ce4bha92rcd13ifvqeg0","pricing_plan_id":"cebpf4jnsgd1na2vs0mg"},{"bike_id":"83719664-236d-40a1-a9cd-9754a7d3c5d2","system_id":"levelo_inurba_marseille","lat":43.28265,"lon":5.35062,"is_reserved":false,"is_disabled":false,"rental_uris":{"android":"levelo://app?vid=83719664-236d-40a1-a9cd-9754a7d3c5d2","ios":"levelo://app?vid=83719664-236d-40a1-a9cd-9754a7d3c5d2"},"vehicle_type_id":"4","last_reported":1745864063,"current_range_meters":17200,"station_id":"ce4bhbp2rcd13ifvqerg","pricing_plan_id":"cebpf4jnsgd1na2vs0mg"},{"bike_id":"489415b8-9254-45c1-b00c-e7554d56755c","system_id":"levelo_inurba_marseille","lat":43.24537,"lon":5.41205,"is_reserved":false,"is_disabled":false,"rental_uris":{"android":"levelo://app?vid=489415b8-9254-45c1-b00c-e7554d56755c","ios":"levelo://app?vid=489415b8-9254-45c1-b00c-e7554d56755c"},"vehicle_type_id":"4","last_reported":1745864063,"current_range_meters":17200,"station_id":"","pricing_plan_id":"cebpf4jnsgd1na2vs0mg"},{"bike_id":"9366d0f7-d227-4995-badb-e85de9ed01d7","system_id":"levelo_inurba_marseille","lat":43.31701,"lon":5.37796,"is_reserved":false,"is_disabled":true,"rental_uris":{"android":"levelo://app?vid=9366d0f7-d227-4995-badb-e85de9ed01d7","ios":"levelo://app?vid=9366d0f7-d227-4995-badb-e85de9ed01d7"},"vehicle_type_id":"4","last_reported":1745864063,"current_range_meters":17200,"station_id":"ce4bgth2rcd13ifvqch0","pricing_plan_id":"cebpf4jnsgd1na2vs0mg"},{"bike_id":"00876a2e-6ff0-4dcb-ba4f-870a85b98823","system_id":"levelo_inurba_marseille","lat":43.30878,"lon":5.39639,"is_reserved":false,"is_disabled":false,"rental_uris":{"android":"levelo://app?vid=00876a2e-6ff0-4dcb-ba4f-870a85b98823","ios":"levelo://app?vid=00876a2e-6ff0-4dcb-ba4f-870a85b98823"},"vehicle_type_id":"4","last_reported":1745864063,"current_range_meters":17200,"station_id":"ce4bh012rcd13ifvqcv0","pricing_plan_id":"cebpf4jnsgd1na2vs0mg"},{"bike_id":"e52adead-88ee-4230-b049-c4de72f20934","system_id":"levelo_inurba_marseille","lat":43.27374,"lon":5.36255,"is_reserved":false,"is_disabled":false,"rental_uris":{"android":"levelo://app?vid=e52adead-88ee-4230-b049-c4de72f20934","ios":"levelo://app?vid=e52adead-88ee-4230-b049-c4de72f20934"},"vehicle_type_id":"4","last_reported":1745864063,"current_range_meters":17200,"station_id":"ce4bhbh2rcd13ifvqeo0","pricing_plan_id":"cebpf4jnsgd1na2vs0mg"},{"bike_id":"70fbc956-14ce-4f94-8c06-1dcde704840a","system_id":"levelo_inurba_marseille","lat":43.27664,"lon":5.38923,"is_reserved":false,"is_disabled":true,"rental_uris":{"android":"levelo://app?vid=70fbc956-14ce-4f94-8c06-1dcde704840a","ios":"levelo://app?vid=70fbc956-14ce-4f94-8c06-1dcde704840a"},"vehicle_type_id":"4","last_reported":1745864063,"current_range_meters":17600,"station_id":"ce4bhi12rcd13ifvqfo0","pricing_plan_id":"cebpf4jnsgd1na2vs0mg"},{"bike_id":"206bb421-16d8-4870-80ee-75ca2212b863","system_id":"levelo_inurba_marseille","lat":43.31095,"lon":5.42427,"is_reserved":false,"is_disabled":false,"rental_uris":{"android":"levelo://app?vid=206bb421-16d8-4870-80ee-75ca2212b863","ios":"levelo://app?vid=206bb421-16d8-4870-80ee-75ca2212b863"},"vehicle_type_id":"4","last_reported":1745864063,"current_range_meters":17200,"station_id":"ce4bhp92rcd13ifvqhag","pricing_plan_id":"cebpf4jnsgd1na2vs0mg"},{"bike_id":"5de15ba7-d7d7-48b5-986c-929fa9ea34e5","system_id":"levelo_inurba_marseille","lat":43.27562,"lon":5.38437,"is_reserved":false,"is_disabled":false,"rental_uris":{"android":"levelo://app?vid=5de15ba7-d7d7-48b5-986c-929fa9ea34e5","ios":"levelo://app?vid=5de15ba7-d7d7-48b5-986c-929fa9ea34e5"},"vehicle_type_id":"4","last_reported":1745864063,"current_range_meters":17200,"station_id":"ce4bhh92rcd13ifvqfi0","pricing_plan_id":"cebpf4jnsgd1na2vs0mg"},{"bike_id":"cfdbbfdc-3480-404d-908b-4db64a2559b4","system_id":"levelo_inurba_marseille","lat":43.25715,"lon":5.41113,"is_reserved":false,"is_disabled":false,"rental_uris":{"android":"levelo://app?vid=cfdbbfdc-3480-404d-908b-4db64a2559b4","ios":"levelo://app?vid=cfdbbfdc-3480-404d-908b-4db64a2559b4"},"vehicle_type_id":"4","last_reported":1745864063,"current_range_meters":17600,"station_id":"ce4bhkp2rcd13ifvqgd0","pricing_plan_id":"cebpf4jnsgd1na2vs0mg"},{"bike_id":"43b99648-dd30-49ff-8af5-913587948039","system_id":"levelo_inurba_marseille","lat":43.282745,"lon":5.350835,"is_reserved":false,"is_disabled":false,"rental_uris":{"android":"levelo://app?vid=43b99648-dd30-49ff-8af5-913587948039","ios":"levelo://app?vid=43b99648-dd30-49ff-8af5-913587948039"},"vehicle_type_id":"4","last_reported":1745864063,"current_range_meters":18000,"station_id":"ce4bhbp2rcd13ifvqerg","pricing_plan_id":"cebpf4jnsgd1na2vs0mg"},{"bike_id":"d17649fc-2258-46f8-8a0a-a07db3570030","system_id":"levelo_inurba_marseille","lat":43.24068,"lon":5.37767,"is_reserved":false,"is_disabled":false,"rental_uris":{"android":"levelo://app?vid=d17649fc-2258-46f8-8a0a-a07db3570030","ios":"levelo://app?vid=d17649fc-2258-46f8-8a0a-a07db3570030"},"vehicle_type_id":"4","last_reported":1745864063,"current_range_meters":18000,"station_id":"ce4bhnp2rcd13ifvqgvg","pricing_plan_id":"cebpf4jnsgd1na2vs0mg"},{"bike_id":"de85e79f-b7a5-4ffc-b3d0-b0db10f81b55","system_id":"levelo_inurba_marseille","lat":43.27839,"lon":5.392,"is_reserved":false,"is_disabled":false,"rental_uris":{"android":"levelo://app?vid=de85e79f-b7a5-4ffc-b3d0-b0db10f81b55","ios":"levelo://app?vid=de85e79f-b7a5-4ffc-b3d0-b0db10f81b55"},"vehicle_type_id":"4","last_reported":1745864063,"current_range_meters":17600,"station_id":"ce4bhjp2rcd13ifvqga0","pricing_plan_id":"cebpf4jnsgd1na2vs0mg"},{"bike_id":"f0704f59-7f10-4759-8132-059a5bb21f12","system_id":"levelo_inurba_marseille","lat":43.30642,"lon":5.40105,"is_reserved":false,"is_disabled":false,"rental_uris":{"android":"levelo://app?vid=f0704f59-7f10-4759-8132-059a5bb21f12","ios":"levelo://app?vid=f0704f59-7f10-4759-8132-059a5bb21f12"},"vehicle_type_id":"4","last_reported":1745864063,"current_range_meters":18000,"station_id":"ce4bh112rcd13ifvqda0","pricing_plan_id":"cebpf4jnsgd1na2vs0mg"},{"bike_id":"909c9310-beb4-461b-af6b-bc33acf90ec9","system_id":"levelo_inurba_marseille","lat":43.21752,"lon":5.34602,"is_reserved":false,"is_disabled":false,"rental_uris":{"android":"levelo://app?vid=909c9310-beb4-461b-af6b-bc33acf90ec9","ios":"levelo://app?vid=909c9310-beb4-461b-af6b-bc33acf90ec9"},"vehicle_type_id":"4","last_reported":1745864063,"current_range_meters":18800,"station_id":"st_cvj6r9ubvosntc0bgbag","pricing_plan_id":"cebpf4jnsgd1na2vs0mg"},{"bike_id":"93dd7cd8-84af-4136-a130-96398fed1daa","system_id":"levelo_inurba_marseille","lat":43.30328,"lon":5.40428,"is_reserved":false,"is_disabled":false,"rental_uris":{"android":"levelo://app?vid=93dd7cd8-84af-4136-a130-96398fed1daa","ios":"levelo://app?vid=93dd7cd8-84af-4136-a130-96398fed1daa"},"vehicle_type_id":"4","last_reported":1745864063,"current_range_meters":18800,"station_id":"ce4bh012rcd13ifvqd10","pricing_plan_id":"cebpf4jnsgd1na2vs0mg"},{"bike_id":"f2767d80-3386-4982-807a-22cd66be53c9","system_id":"levelo_inurba_marseille","lat":43.30896,"lon":5.36846,"is_reserved":false,"is_disabled":false,"rental_uris":{"android":"levelo://app?vid=f2767d80-3386-4982-807a-22cd66be53c9","ios":"levelo://app?vid=f2767d80-3386-4982-807a-22cd66be53c9"},"vehicle_type_id":"4","last_reported":1745864063,"current_range_meters":18800,"station_id":"ce4bgn92rcd13ifvqbvg","pricing_plan_id":"cebpf4jnsgd1na2vs0mg"},{"bike_id":"ab566342-f92c-435a-a238-04939b89345b","system_id":"levelo_inurba_marseille","lat":43.296075,"lon":5.381097,"is_reserved":false,"is_disabled":true,"rental_uris":{"android":"levelo://app?vid=ab566342-f92c-435a-a238-04939b89345b","ios":"levelo://app?vid=ab566342-f92c-435a-a238-04939b89345b"},"vehicle_type_id":"4","last_reported":1745864063,"current_range_meters":18800,"station_id":"ce4bgl12rcd13ifvqbo0","pricing_plan_id":"cebpf4jnsgd1na2vs0mg"},{"bike_id":"4f793177-3c41-4f88-96d3-b9a7ceb41fe6","system_id":"levelo_inurba_marseille","lat":43.32367,"lon":5.38865,"is_reserved":false,"is_disabled":false,"rental_uris":{"android":"levelo://app?vid=4f793177-3c41-4f88-96d3-b9a7ceb41fe6","ios":"levelo://app?vid=4f793177-3c41-4f88-96d3-b9a7ceb41fe6"},"vehicle_type_id":"4","last_reported":1745864063,"current_range_meters":18800,"station_id":"ce4bhqp2rcd13ifvqhog","pricing_plan_id":"cebpf4jnsgd1na2vs0mg"},{"bike_id":"9781e215-b956-499a-8673-e29418669b54","system_id":"levelo_inurba_marseille","lat":43.24387,"lon":5.37054,"is_reserved":false,"is_disabled":false,"rental_uris":{"android":"levelo://app?vid=9781e215-b956-499a-8673-e29418669b54","ios":"levelo://app?vid=9781e215-b956-499a-8673-e29418669b54"},"vehicle_type_id":"4","last_reported":1745864063,"current_range_meters":18800,"station_id":"ce4bhhh2rcd13ifvqfk0","pricing_plan_id":"cebpf4jnsgd1na2vs0mg"},{"bike_id":"fe91386c-5c8b-4e97-8441-1312e6455598","system_id":"levelo_inurba_marseille","lat":43.273675,"lon":5.362471,"is_reserved":false,"is_disabled":false,"rental_uris":{"android":"levelo://app?vid=fe91386c-5c8b-4e97-8441-1312e6455598","ios":"levelo://app?vid=fe91386c-5c8b-4e97-8441-1312e6455598"},"vehicle_type_id":"4","last_reported":1745864063,"current_range_meters":19200,"station_id":"ce4bhbh2rcd13ifvqeo0","pricing_plan_id":"cebpf4jnsgd1na2vs0mg"},{"bike_id":"d5bcaa38-e142-4c16-be8f-f84303a7c28a","system_id":"levelo_inurba_marseille","lat":43.27998,"lon":5.41672,"is_reserved":false,"is_disabled":true,"rental_uris":{"android":"levelo://app?vid=d5bcaa38-e142-4c16-be8f-f84303a7c28a","ios":"levelo://app?vid=d5bcaa38-e142-4c16-be8f-f84303a7c28a"},"vehicle_type_id":"4","last_reported":1745864063,"current_range_meters":19200,"station_id":"ce4bho12rcd13ifvqh1g","pricing_plan_id":"cebpf4jnsgd1na2vs0mg"},{"bike_id":"a7301a4f-0b24-4d61-b558-f31190eb44c7","system_id":"levelo_inurba_marseille","lat":43.30899,"lon":5.36846,"is_reserved":false,"is_disabled":false,"rental_uris":{"android":"levelo://app?vid=a7301a4f-0b24-4d61-b558-f31190eb44c7","ios":"levelo://app?vid=a7301a4f-0b24-4d61-b558-f31190eb44c7"},"vehicle_type_id":"4","last_reported":1745864063,"current_range_meters":19200,"station_id":"ce4bgn92rcd13ifvqbvg","pricing_plan_id":"cebpf4jnsgd1na2vs0mg"},{"bike_id":"1ff7221b-8e1e-4dce-9e57-4aed861ca4b9","system_id":"levelo_inurba_marseille","lat":43.33199,"lon":5.3863,"is_reserved":false,"is_disabled":false,"rental_uris":{"android":"levelo://app?vid=1ff7221b-8e1e-4dce-9e57-4aed861ca4b9","ios":"levelo://app?vid=1ff7221b-8e1e-4dce-9e57-4aed861ca4b9"},"vehicle_type_id":"4","last_reported":1745864063,"current_range_meters":19600,"station_id":"","pricing_plan_id":"cebpf4jnsgd1na2vs0mg"},{"bike_id":"07693e24-7000-4fd3-8fe1-8644dd3f1e08","system_id":"levelo_inurba_marseille","lat":43.274027,"lon":5.389567,"is_reserved":false,"is_disabled":false,"rental_uris":{"android":"levelo://app?vid=07693e24-7000-4fd3-8fe1-8644dd3f1e08","ios":"levelo://app?vid=07693e24-7000-4fd3-8fe1-8644dd3f1e08"},"vehicle_type_id":"4","last_reported":1745864063,"current_range_meters":19200,"station_id":"","pricing_plan_id":"cebpf4jnsgd1na2vs0mg"},{"bike_id":"4eddd23d-5133-497d-a972-de13dae1bfa4","system_id":"levelo_inurba_marseille","lat":43.289302,"lon":5.366614,"is_reserved":false,"is_disabled":false,"rental_uris":{"android":"levelo://app?vid=4eddd23d-5133-497d-a972-de13dae1bfa4","ios":"levelo://app?vid=4eddd23d-5133-497d-a972-de13dae1bfa4"},"vehicle_type_id":"4","last_reported":1745864063,"current_range_meters":19600,"station_id":"ce4bhap2rcd13ifvqek0","pricing_plan_id":"cebpf4jnsgd1na2vs0mg"},{"bike_id":"ae50c1de-8c80-4ad2-a1d9-2fbb08d50e7b","system_id":"levelo_inurba_marseille","lat":43.25712,"lon":5.41112,"is_reserved":false,"is_disabled":true,"rental_uris":{"android":"levelo://app?vid=ae50c1de-8c80-4ad2-a1d9-2fbb08d50e7b","ios":"levelo://app?vid=ae50c1de-8c80-4ad2-a1d9-2fbb08d50e7b"},"vehicle_type_id":"4","last_reported":1745864063,"current_range_meters":19600,"station_id":"ce4bhkp2rcd13ifvqgd0","pricing_plan_id":"cebpf4jnsgd1na2vs0mg"},{"bike_id":"6028b1e6-7384-438e-b3bf-95af60bd192e","system_id":"levelo_inurba_marseille","lat":43.31533,"lon":5.38027,"is_reserved":false,"is_disabled":false,"rental_uris":{"android":"levelo://app?vid=6028b1e6-7384-438e-b3bf-95af60bd192e","ios":"levelo://app?vid=6028b1e6-7384-438e-b3bf-95af60bd192e"},"vehicle_type_id":"4","last_reported":1745864063,"current_range_meters":19600,"station_id":"ce4bhsp2rcd13ifvqi50","pricing_plan_id":"cebpf4jnsgd1na2vs0mg"},{"bike_id":"3ba7aba6-530a-4716-9896-1bd9e5ca9282","system_id":"levelo_inurba_marseille","lat":43.311268,"lon":5.377837,"is_reserved":false,"is_disabled":false,"rental_uris":{"android":"levelo://app?vid=3ba7aba6-530a-4716-9896-1bd9e5ca9282","ios":"levelo://app?vid=3ba7aba6-530a-4716-9896-1bd9e5ca9282"},"vehicle_type_id":"4","last_reported":1745864063,"current_range_meters":19600,"station_id":"ce4bgt92rcd13ifvqcg0","pricing_plan_id":"cebpf4jnsgd1na2vs0mg"},{"bike_id":"98713e70-a1f0-4f31-9ed9-13f04608c125","system_id":"levelo_inurba_marseille","lat":43.28276,"lon":5.3507,"is_reserved":false,"is_disabled":false,"rental_uris":{"android":"levelo://app?vid=98713e70-a1f0-4f31-9ed9-13f04608c125","ios":"levelo://app?vid=98713e70-a1f0-4f31-9ed9-13f04608c125"},"vehicle_type_id":"4","last_reported":1745864063,"current_range_meters":19600,"station_id":"ce4bhbp2rcd13ifvqerg","pricing_plan_id":"cebpf4jnsgd1na2vs0mg"},{"bike_id":"7986af39-a96c-4b3e-bc7d-e8893b71bea7","system_id":"levelo_inurba_marseille","lat":43.28731,"lon":5.36075,"is_reserved":false,"is_disabled":false,"rental_uris":{"android":"levelo://app?vid=7986af39-a96c-4b3e-bc7d-e8893b71bea7","ios":"levelo://app?vid=7986af39-a96c-4b3e-bc7d-e8893b71bea7"},"vehicle_type_id":"4","last_reported":1745864063,"current_range_meters":19600,"station_id":"cki0cbj6b192h4jlfktg","pricing_plan_id":"cebpf4jnsgd1na2vs0mg"},{"bike_id":"9048a988-1cb8-4aa3-ab23-aeb571c1efe3","system_id":"levelo_inurba_marseille","lat":43.241594,"lon":5.364034,"is_reserved":false,"is_disabled":false,"rental_uris":{"android":"levelo://app?vid=9048a988-1cb8-4aa3-ab23-aeb571c1efe3","ios":"levelo://app?vid=9048a988-1cb8-4aa3-ab23-aeb571c1efe3"},"vehicle_type_id":"4","last_reported":1745864063,"current_range_meters":19600,"station_id":"cpo36qri1sfpv3e86is0","pricing_plan_id":"cebpf4jnsgd1na2vs0mg"},{"bike_id":"8caeec76-a9df-4d89-9be1-7d537dbb98ea","system_id":"levelo_inurba_marseille","lat":43.30934,"lon":5.40149,"is_reserved":false,"is_disabled":false,"rental_uris":{"android":"levelo://app?vid=8caeec76-a9df-4d89-9be1-7d537dbb98ea","ios":"levelo://app?vid=8caeec76-a9df-4d89-9be1-7d537dbb98ea"},"vehicle_type_id":"4","last_reported":1745864063,"current_range_meters":19600,"station_id":"ce4bgvp2rcd13ifvqct0","pricing_plan_id":"cebpf4jnsgd1na2vs0mg"},{"bike_id":"21569612-d95e-493f-a385-5f06c6307343","system_id":"levelo_inurba_marseille","lat":43.304606,"lon":5.378987,"is_reserved":false,"is_disabled":false,"rental_uris":{"android":"levelo://app?vid=21569612-d95e-493f-a385-5f06c6307343","ios":"levelo://app?vid=21569612-d95e-493f-a385-5f06c6307343"},"vehicle_type_id":"4","last_reported":1745864063,"current_range_meters":20000,"station_id":"ce4bgup2rcd13ifvqcn0","pricing_plan_id":"cebpf4jnsgd1na2vs0mg"},{"bike_id":"30e585b6-a1a7-4d47-a9c6-d0ac4b00d0db","system_id":"levelo_inurba_marseille","lat":43.32114,"lon":5.36769,"is_reserved":false,"is_disabled":false,"rental_uris":{"android":"levelo://app?vid=30e585b6-a1a7-4d47-a9c6-d0ac4b00d0db","ios":"levelo://app?vid=30e585b6-a1a7-4d47-a9c6-d0ac4b00d0db"},"vehicle_type_id":"4","last_reported":1745864063,"current_range_meters":20000,"station_id":"ce4bhrh2rcd13ifvqhug","pricing_plan_id":"cebpf4jnsgd1na2vs0mg"},{"bike_id":"32db904d-3b93-4859-a27e-3e9be41748c9","system_id":"levelo_inurba_marseille","lat":43.27888,"lon":5.40611,"is_reserved":false,"is_disabled":false,"rental_uris":{"android":"levelo://app?vid=32db904d-3b93-4859-a27e-3e9be41748c9","ios":"levelo://app?vid=32db904d-3b93-4859-a27e-3e9be41748c9"},"vehicle_type_id":"4","last_reported":1745864063,"current_range_meters":20000,"station_id":"ce4bhnh2rcd13ifvqgtg","pricing_plan_id":"cebpf4jnsgd1na2vs0mg"},{"bike_id":"b8708a4a-85c5-47f3-a56a-c201aaba55e6","system_id":"levelo_inurba_marseille","lat":43.29367,"lon":5.3784,"is_reserved":false,"is_disabled":false,"rental_uris":{"android":"levelo://app?vid=b8708a4a-85c5-47f3-a56a-c201aaba55e6","ios":"levelo://app?vid=b8708a4a-85c5-47f3-a56a-c201aaba55e6"},"vehicle_type_id":"4","last_reported":1745864063,"current_range_meters":20000,"station_id":"ce4bgjh2rcd13ifvqbf0","pricing_plan_id":"cebpf4jnsgd1na2vs0mg"},{"bike_id":"62ea5d5b-ee6f-42b7-9cd0-c945fcac7364","system_id":"levelo_inurba_marseille","lat":43.30816,"lon":5.43557,"is_reserved":false,"is_disabled":false,"rental_uris":{"android":"levelo://app?vid=62ea5d5b-ee6f-42b7-9cd0-c945fcac7364","ios":"levelo://app?vid=62ea5d5b-ee6f-42b7-9cd0-c945fcac7364"},"vehicle_type_id":"4","last_reported":1745864063,"current_range_meters":20400,"station_id":"ce4bhph2rcd13ifvqheg","pricing_plan_id":"cebpf4jnsgd1na2vs0mg"},{"bike_id":"0c7ac352-2121-4f62-8ea0-a6932a4366a5","system_id":"levelo_inurba_marseille","lat":43.27063,"lon":5.42277,"is_reserved":false,"is_disabled":false,"rental_uris":{"android":"levelo://app?vid=0c7ac352-2121-4f62-8ea0-a6932a4366a5","ios":"levelo://app?vid=0c7ac352-2121-4f62-8ea0-a6932a4366a5"},"vehicle_type_id":"4","last_reported":1745864063,"current_range_meters":20000,"station_id":"ce4bhk92rcd13ifvqgb0","pricing_plan_id":"cebpf4jnsgd1na2vs0mg"},{"bike_id":"d5e2002c-6d10-437a-8414-ceb23a291b4d","system_id":"levelo_inurba_marseille","lat":43.308,"lon":5.37636,"is_reserved":false,"is_disabled":false,"rental_uris":{"android":"levelo://app?vid=d5e2002c-6d10-437a-8414-ceb23a291b4d","ios":"levelo://app?vid=d5e2002c-6d10-437a-8414-ceb23a291b4d"},"vehicle_type_id":"4","last_reported":1745864063,"current_range_meters":19200,"station_id":"ce4bgv92rcd13ifvqcq0","pricing_plan_id":"cebpf4jnsgd1na2vs0mg"},{"bike_id":"50b5da2f-3a79-425d-9a03-6248036b4ea9","system_id":"levelo_inurba_marseille","lat":43.25093,"lon":5.39526,"is_reserved":false,"is_disabled":false,"rental_uris":{"android":"levelo://app?vid=50b5da2f-3a79-425d-9a03-6248036b4ea9","ios":"levelo://app?vid=50b5da2f-3a79-425d-9a03-6248036b4ea9"},"vehicle_type_id":"4","last_reported":1745864063,"current_range_meters":20000,"station_id":"ce4bhm12rcd13ifvqgkg","pricing_plan_id":"cebpf4jnsgd1na2vs0mg"},{"bike_id":"95a3f7ea-73c7-47bc-a12d-934fdf61fd1e","system_id":"levelo_inurba_marseille","lat":43.24804,"lon":5.37457,"is_reserved":false,"is_disabled":false,"rental_uris":{"android":"levelo://app?vid=95a3f7ea-73c7-47bc-a12d-934fdf61fd1e","ios":"levelo://app?vid=95a3f7ea-73c7-47bc-a12d-934fdf61fd1e"},"vehicle_type_id":"4","last_reported":1745864063,"current_range_meters":19600,"station_id":"ce4bhgh2rcd13ifvqfb0","pricing_plan_id":"cebpf4jnsgd1na2vs0mg"},{"bike_id":"61144dfe-675f-4e9a-9e34-e211c9859fc4","system_id":"levelo_inurba_marseille","lat":43.25077,"lon":5.39515,"is_reserved":false,"is_disabled":false,"rental_uris":{"android":"levelo://app?vid=61144dfe-675f-4e9a-9e34-e211c9859fc4","ios":"levelo://app?vid=61144dfe-675f-4e9a-9e34-e211c9859fc4"},"vehicle_type_id":"4","last_reported":1745864063,"current_range_meters":20000,"station_id":"ce4bhm12rcd13ifvqgkg","pricing_plan_id":"cebpf4jnsgd1na2vs0mg"},{"bike_id":"54e6c4c7-8c51-4479-b6cb-e04b308078a1","system_id":"levelo_inurba_marseille","lat":43.25575,"lon":5.38242,"is_reserved":false,"is_disabled":false,"rental_uris":{"android":"levelo://app?vid=54e6c4c7-8c51-4479-b6cb-e04b308078a1","ios":"levelo://app?vid=54e6c4c7-8c51-4479-b6cb-e04b308078a1"},"vehicle_type_id":"4","last_reported":1745864063,"current_range_meters":20000,"station_id":"ce4bhih2rcd13ifvqfs0","pricing_plan_id":"cebpf4jnsgd1na2vs0mg"},{"bike_id":"ae2f5ee9-f574-446c-b0f1-3387947241da","system_id":"levelo_inurba_marseille","lat":43.29625,"lon":5.406,"is_reserved":false,"is_disabled":false,"rental_uris":{"android":"levelo://app?vid=ae2f5ee9-f574-446c-b0f1-3387947241da","ios":"levelo://app?vid=ae2f5ee9-f574-446c-b0f1-3387947241da"},"vehicle_type_id":"4","last_reported":1745864063,"current_range_meters":20400,"station_id":"ce4bh0h2rcd13ifvqd60","pricing_plan_id":"cebpf4jnsgd1na2vs0mg"},{"bike_id":"b29430ba-5a20-4969-9161-127d31bea805","system_id":"levelo_inurba_marseille","lat":43.291748,"lon":5.371561,"is_reserved":false,"is_disabled":false,"rental_uris":{"android":"levelo://app?vid=b29430ba-5a20-4969-9161-127d31bea805","ios":"levelo://app?vid=b29430ba-5a20-4969-9161-127d31bea805"},"vehicle_type_id":"4","last_reported":1745864063,"current_range_meters":20400,"station_id":"ce4bha92rcd13ifvqeh0","pricing_plan_id":"cebpf4jnsgd1na2vs0mg"},{"bike_id":"e902df82-3f4e-4be2-82fa-374a8ba1fc49","system_id":"levelo_inurba_marseille","lat":43.29968,"lon":5.39777,"is_reserved":false,"is_disabled":false,"rental_uris":{"android":"levelo://app?vid=e902df82-3f4e-4be2-82fa-374a8ba1fc49","ios":"levelo://app?vid=e902df82-3f4e-4be2-82fa-374a8ba1fc49"},"vehicle_type_id":"4","last_reported":1745864063,"current_range_meters":20400,"station_id":"","pricing_plan_id":"cebpf4jnsgd1na2vs0mg"},{"bike_id":"b400b635-ddfb-4fc0-8874-f9394f1d48a5","system_id":"levelo_inurba_marseille","lat":43.284546,"lon":5.35889,"is_reserved":false,"is_disabled":false,"rental_uris":{"android":"levelo://app?vid=b400b635-ddfb-4fc0-8874-f9394f1d48a5","ios":"levelo://app?vid=b400b635-ddfb-4fc0-8874-f9394f1d48a5"},"vehicle_type_id":"4","last_reported":1745864063,"current_range_meters":20400,"station_id":"ce4bhah2rcd13ifvqei0","pricing_plan_id":"cebpf4jnsgd1na2vs0mg"},{"bike_id":"a26094a2-3168-47a8-b4f2-f54006a9f646","system_id":"levelo_inurba_marseille","lat":43.28264,"lon":5.35084,"is_reserved":false,"is_disabled":false,"rental_uris":{"android":"levelo://app?vid=a26094a2-3168-47a8-b4f2-f54006a9f646","ios":"levelo://app?vid=a26094a2-3168-47a8-b4f2-f54006a9f646"},"vehicle_type_id":"4","last_reported":1745864063,"current_range_meters":20400,"station_id":"ce4bhbp2rcd13ifvqerg","pricing_plan_id":"cebpf4jnsgd1na2vs0mg"},{"bike_id":"ec86ebaf-6874-4922-a603-0ca835ca2934","system_id":"levelo_inurba_marseille","lat":43.29451,"lon":5.39736,"is_reserved":false,"is_disabled":false,"rental_uris":{"android":"levelo://app?vid=ec86ebaf-6874-4922-a603-0ca835ca2934","ios":"levelo://app?vid=ec86ebaf-6874-4922-a603-0ca835ca2934"},