{"last_updated":1745943177,"ttl":60,"version":"2.2","data":{"bikes":[{"bike_id":"1dd37f18-7e8e-4826-8507-c9018fe80e2e","system_id":"levelo_inurba_marseille","lat":43.29576,"lon":5.36746,"is_reserved":false,"is_disabled":false,"rental_uris":{"android":"levelo://app?vid=1dd37f18-7e8e-4826-8507-c9018fe80e2e","ios":"levelo://app?vid=1dd37f18-7e8e-4826-8507-c9018fe80e2e"},"vehicle_type_id":"4","last_reported":1745943177,"current_range_meters":2800,"station_id":"ce4bgph2rcd13ifvqc2g","pricing_plan_id":"cebpf4jnsgd1na2vs0mg"},{"bike_id":"61e69a65-0f83-4353-96c3-63dac3afbe3c","system_id":"levelo_inurba_marseille","lat":43.28408,"lon":5.37507,"is_reserved":false,"is_disabled":false,"rental_uris":{"android":"levelo://app?vid=61e69a65-0f83-4353-96c3-63dac3afbe3c","ios":"levelo://app?vid=61e69a65-0f83-4353-96c3-63dac3afbe3c"},"vehicle_type_id":"4","last_reported":1745943177,"current_range_meters":2800,"station_id":"ce4bh412rcd13ifvqds0","pricing_plan_id":"cebpf4jnsgd1na2vs0mg"},{"bike_id":"29114ae1-27c0-4ade-8629-d09f2c8c8808","system_id":"levelo_inurba_marseille","lat":43.31497,"lon":5.37308,"is_reserved":false,"is_disabled":false,"rental_uris":{"android":"levelo://app?vid=29114ae1-27c0-4ade-8629-d09f2c8c8808","ios":"levelo://app?vid=29114ae1-27c0-4ade-8629-d09f2c8c8808"},"vehicle_type_id":"4","last_reported":1745943177,"current_range_meters":2000,"station_id":"ce4bgt12rcd13ifvqcd0","pricing_plan_id":"cebpf4jnsgd1na2vs0mg"},{"bike_id":"c0fa1e13-65d2-42ee-93ae-e1a397eb2987","system_id":"levelo_inurba_marseille","lat":43.27379,"lon":5.36257,"is_reserved":false,"is_disabled":false,"rental_uris":{"android":"levelo://app?vid=c0fa1e13-65d2-42ee-93ae-e1a397eb2987","ios":"levelo://app?vid=c0fa1e13-65d2-42ee-93ae-e1a397eb2987"},"vehicle_type_id":"4","last_reported":1745943177,"current_range_meters":2800,"station_id":"ce4bhbh2rcd13ifvqeo0","pricing_plan_id":"cebpf4jnsgd1na2vs0mg"},{"bike_id":"30013f89-fc47-447f-83b8-a0a73c87c5f0","system_id":"levelo_inurba_marseille","lat":43.26526,"lon":5.37286,"is_reserved":false,"is_disabled":false,"rental_uris":{"android":"levelo://app?vid=30013f89-fc47-447f-83b8-a0a73c87c5f0","ios":"levelo://app?vid=30013f89-fc47-447f-83b8-a0a73c87c5f0"},"vehicle_type_id":"4","last_reported":1745943177,"current_range_meters":2800,"station_id":"","pricing_plan_id":"cebpf4jnsgd1na2vs0mg"},{"bike_id":"c2a5b975-8b23-468b-a841-b81f24edfe7a","system_id":"levelo_inurba_marseille","lat":43.24394,"lon":5.37039,"is_reserved":false,"is_disabled":true,"rental_uris":{"android":"levelo://app?vid=c2a5b975-8b23-468b-a841-b81f24edfe7a","ios":"levelo://app?vid=c2a5b975-8b23-468b-a841-b81f24edfe7a"},"vehicle_type_id":"4","last_reported":1745943177,"current_range_meters":2800,"station_id":"ce4bhhh2rcd13ifvqfk0","pricing_plan_id":"cebpf4jnsgd1na2vs0mg"},{"bike_id":"3d87d070-e505-4ab9-993c-2aa2b708c575","system_id":"levelo_inurba_marseille","lat":43.27921,"lon":5.39581,"is_reserved":false,"is_disabled":false,"rental_uris":{"android":"levelo://app?vid=3d87d070-e505-4ab9-993c-2aa2b708c575","ios":"levelo://app?vid=3d87d070-e505-4ab9-993c-2aa2b708c575"},"vehicle_type_id":"4","last_reported":1745943177,"current_range_meters":2800,"station_id":"ce4bhf92rcd13ifvqf40","pricing_plan_id":"cebpf4jnsgd1na2vs0mg"},{"bike_id":"325a49e7-e168-4b18-ab55-14a3228c9b4e","system_id":"levelo_inurba_marseille","lat":43.290076,"lon":5.356184,"is_reserved":false,"is_disabled":false,"rental_uris":{"android":"levelo://app?vid=325a49e7-e168-4b18-ab55-14a3228c9b4e","ios":"levelo://app?vid=325a49e7-e168-4b18-ab55-14a3228c9b4e"},"vehicle_type_id":"4","last_reported":1745943177,"current_range_meters":2800,"station_id":"ce4bhb92rcd13ifvqen0","pricing_plan_id":"cebpf4jnsgd1na2vs0mg"},{"bike_id":"a4c8a335-745b-4d95-97e0-7bac3cb18549","system_id":"levelo_inurba_marseille","lat":43.28115,"lon":5.39875,"is_reserved":false,"is_disabled":false,"rental_uris":{"android":"levelo://app?vid=a4c8a335-745b-4d95-97e0-7bac3cb18549","ios":"levelo://app?vid=a4c8a335-745b-4d95-97e0-7bac3cb18549"},"vehicle_type_id":"4","last_reported":1745943177,"current_range_meters":2800,"station_id":"","pricing_plan_id":"cebpf4jnsgd1na2vs0mg"},{"bike_id":"59ea5405-d3e3-4c43-a35a-41fc0cf20ad3","system_id":"levelo_inurba_marseille","lat":43.284122,"lon":5.349778,"is_reserved":false,"is_disabled":false,"rental_uris":{"android":"levelo://app?vid=59ea5405-d3e3-4c43-a35a-41fc0cf20ad3","ios":"levelo://app?vid=59ea5405-d3e3-4c43-a35a-41fc0cf20ad3"},"vehicle_type_id":"4","last_reported":1745943177,"current_range_meters":2800,"station_id":"","pricing_plan_id":"cebpf4jnsgd1na2vs0mg"},{"bike_id":"e288c1b9-de3d-40c0-ac27-e03c9556d880","system_id":"levelo_inurba_marseille","lat":43.29267,"lon":5.409413,"is_reserved":false,"is_disabled":true,"rental_uris":{"android":"levelo://app?vid=e288c1b9-de3d-40c0-ac27-e03c9556d880","ios":"levelo://app?vid=e288c1b9-de3d-40c0-ac27-e03c9556d880"},"vehicle_type_id":"4","last_reported":1745943177,"current_range_meters":3200,"station_id":"ce4bh192rcd13ifvqdc0","pricing_plan_id":"cebpf4jnsgd1na2vs0mg"},{"bike_id":"a0c281c7-32c4-49db-9b16-c39cc577253e","system_id":"levelo_inurba_marseille","lat":43.28264,"lon":5.35059,"is_reserved":false,"is_disabled":false,"rental_uris":{"android":"levelo://app?vid=a0c281c7-32c4-49db-9b16-c39cc577253e","ios":"levelo://app?vid=a0c281c7-32c4-49db-9b16-c39cc577253e"},"vehicle_type_id":"4","last_reported":1745943177,"current_range_meters":3200,"station_id":"ce4bhbp2rcd13ifvqerg","pricing_plan_id":"cebpf4jnsgd1na2vs0mg"},{"bike_id":"98764e84-174b-4011-ad83-a888cf080f9f","system_id":"levelo_inurba_marseille","lat":43.27303,"lon":5.39033,"is_reserved":false,"is_disabled":false,"rental_uris":{"android":"levelo://app?vid=98764e84-174b-4011-ad83-a888cf080f9f","ios":"levelo://app?vid=98764e84-174b-4011-ad83-a888cf080f9f"},"vehicle_type_id":"4","last_reported":1745943177,"current_range_meters":3200,"station_id":"ce4bhgp2rcd13ifvqfe0","pricing_plan_id":"cebpf4jnsgd1na2vs0mg"},{"bike_id":"b697142e-2899-40e3-96d7-996d83484354","system_id":"levelo_inurba_marseille","lat":43.290498,"lon":5.355983,"is_reserved":false,"is_disabled":false,"rental_uris":{"android":"levelo://app?vid=b697142e-2899-40e3-96d7-996d83484354","ios":"levelo://app?vid=b697142e-2899-40e3-96d7-996d83484354"},"vehicle_type_id":"4","last_reported":1745943177,"current_range_meters":3600,"station_id":"ce4bhb92rcd13ifvqen0","pricing_plan_id":"cebpf4jnsgd1na2vs0mg"},{"bike_id":"b074df25-1480-42dc-99c2-6520e935a38b","system_id":"levelo_inurba_marseille","lat":43.29265,"lon":5.38437,"is_reserved":false,"is_disabled":false,"rental_uris":{"android":"levelo://app?vid=b074df25-1480-42dc-99c2-6520e935a38b","ios":"levelo://app?vid=b074df25-1480-42dc-99c2-6520e935a38b"},"vehicle_type_id":"4","last_reported":1745943177,"current_range_meters":3600,"station_id":"ce4bh692rcd13ifvqea0","pricing_plan_id":"cebpf4jnsgd1na2vs0mg"},{"bike_id":"6d0e1085-4108-4204-b031-15b2ecff01fd","system_id":"levelo_inurba_marseille","lat":43.28639,"lon":5.35096,"is_reserved":false,"is_disabled":false,"rental_uris":{"android":"levelo://app?vid=6d0e1085-4108-4204-b031-15b2ecff01fd","ios":"levelo://app?vid=6d0e1085-4108-4204-b031-15b2ecff01fd"},"vehicle_type_id":"4","last_reported":1745943177,"current_range_meters":4000,"station_id":"ce4bhch2rcd13ifvqeug","pricing_plan_id":"cebpf4jnsgd1na2vs0mg"},{"bike_id":"5c3d2c3b-5346-41f9-8ac3-b4113570ceab","system_id":"levelo_inurba_marseille","lat":43.30426,"lon":5.39754,"is_reserved":false,"is_disabled":false,"rental_uris":{"android":"levelo://app?vid=5c3d2c3b-5346-41f9-8ac3-b4113570ceab","ios":"levelo://app?vid=5c3d2c3b-5346-41f9-8ac3-b4113570ceab"},"vehicle_type_id":"4","last_reported":1745943177,"current_range_meters":4000,"station_id":"ce4bh092rcd13ifvqd20","pricing_plan_id":"cebpf4jnsgd1na2vs0mg"},{"bike_id":"b1040775-cdbd-4461-a120-155006f740eb","system_id":"levelo_inurba_marseille","lat":43.21202,"lon":5.35063,"is_reserved":false,"is_disabled":false,"rental_uris":{"android":"levelo://app?vid=b1040775-cdbd-4461-a120-155006f740eb","ios":"levelo://app?vid=b1040775-cdbd-4461-a120-155006f740eb"},"vehicle_type_id":"4","last_reported":1745943177,"current_range_meters":4000,"station_id":"st_cvj6sg6p6f1abm77japg","pricing_plan_id":"cebpf4jnsgd1na2vs0mg"},{"bike_id":"6a154181-2f99-4e22-ab83-bdd320654fc7","system_id":"levelo_inurba_marseille","lat":43.29267,"lon":5.37625,"is_reserved":false,"is_disabled":false,"rental_uris":{"android":"levelo://app?vid=6a154181-2f99-4e22-ab83-bdd320654fc7","ios":"levelo://app?vid=6a154181-2f99-4e22-ab83-bdd320654fc7"},"vehicle_type_id":"4","last_reported":1745943177,"current_range_meters":4000,"station_id":"ce4bgi12rcd13ifvqb80","pricing_plan_id":"cebpf4jnsgd1na2vs0mg"},{"bike_id":"0beb6aae-0175-482f-aab2-35899d57d393","system_id":"levelo_inurba_marseille","lat":43.28612,"lon":5.35104,"is_reserved":false,"is_disabled":false,"rental_uris":{"android":"levelo://app?vid=0beb6aae-0175-482f-aab2-35899d57d393","ios":"levelo://app?vid=0beb6aae-0175-482f-aab2-35899d57d393"},"vehicle_type_id":"4","last_reported":1745943177,"current_range_meters":4000,"station_id":"ce4bhch2rcd13ifvqeug","pricing_plan_id":"cebpf4jnsgd1na2vs0mg"},{"bike_id":"2607154a-de4a-49c9-b88f-070219f583c6","system_id":"levelo_inurba_marseille","lat":43.27384,"lon":5.36257,"is_reserved":false,"is_disabled":false,"rental_uris":{"android":"levelo://app?vid=2607154a-de4a-49c9-b88f-070219f583c6","ios":"levelo://app?vid=2607154a-de4a-49c9-b88f-070219f583c6"},"vehicle_type_id":"4","last_reported":1745943177,"current_range_meters":4000,"station_id":"ce4bhbh2rcd13ifvqeo0","pricing_plan_id":"cebpf4jnsgd1na2vs0mg"},{"bike_id":"adfc5b17-f093-4879-bd2e-0970cb50d72c","system_id":"levelo_inurba_marseille","lat":43.24996,"lon":5.38931,"is_reserved":false,"is_disabled":false,"rental_uris":{"android":"levelo://app?vid=adfc5b17-f093-4879-bd2e-0970cb50d72c","ios":"levelo://app?vid=adfc5b17-f093-4879-bd2e-0970cb50d72c"},"vehicle_type_id":"4","last_reported":1745943177,"current_range_meters":4000,"station_id":"ce4bhgp2rcd13ifvqfd0","pricing_plan_id":"cebpf4jnsgd1na2vs0mg"},{"bike_id":"537f26b4-f38c-4314-aec5-a795207603d2","system_id":"levelo_inurba_marseille","lat":43.29524,"lon":5.39404,"is_reserved":false,"is_disabled":false,"rental_uris":{"android":"levelo://app?vid=537f26b4-f38c-4314-aec5-a795207603d2","ios":"levelo://app?vid=537f26b4-f38c-4314-aec5-a795207603d2"},"vehicle_type_id":"4","last_reported":1745943177,"current_range_meters":4000,"station_id":"ce4bh292rcd13ifvqdf0","pricing_plan_id":"cebpf4jnsgd1na2vs0mg"},{"bike_id":"f6fdb7cd-5261-44cc-b6d2-291f83de6a4f","system_id":"levelo_inurba_marseille","lat":43.31065,"lon":5.38344,"is_reserved":false,"is_disabled":false,"rental_uris":{"android":"levelo://app?vid=f6fdb7cd-5261-44cc-b6d2-291f83de6a4f","ios":"levelo://app?vid=f6fdb7cd-5261-44cc-b6d2-291f83de6a4f"},"vehicle_type_id":"4","last_reported":1745943177,"current_range_meters":4400,"station_id":"ce4bgv92rcd13ifvqcr0","pricing_plan_id":"cebpf4jnsgd1na2vs0mg"},{"bike_id":"67470219-adc6-4a6a-aecb-58815687565a","system_id":"levelo_inurba_marseille","lat":43.28726,"lon":5.37942,"is_reserved":false,"is_disabled":false,"rental_uris":{"android":"levelo://app?vid=67470219-adc6-4a6a-aecb-58815687565a","ios":"levelo://app?vid=67470219-adc6-4a6a-aecb-58815687565a"},"vehicle_type_id":"4","last_reported":1745943177,"current_range_meters":4400,"station_id":"ce4bh9p2rcd13ifvqec0","pricing_plan_id":"cebpf4jnsgd1na2vs0mg"},{"bike_id":"26deac1f-c435-40bc-9469-9ae0b266bb77","system_id":"levelo_inurba_marseille","lat":43.30223,"lon":5.38448,"is_reserved":false,"is_disabled":false,"rental_uris":{"android":"levelo://app?vid=26deac1f-c435-40bc-9469-9ae0b266bb77","ios":"levelo://app?vid=26deac1f-c435-40bc-9469-9ae0b266bb77"},"vehicle_type_id":"4","last_reported":1745943177,"current_range_meters":4400,"station_id":"","pricing_plan_id":"cebpf4jnsgd1na2vs0mg"},{"bike_id":"883039f2-3b37-4c8c-8f51-488dfa6c9c9f","system_id":"levelo_inurba_marseille","lat":43.2867,"lon":5.38684,"is_reserved":false,"is_disabled":false,"rental_uris":{"android":"levelo://app?vid=883039f2-3b37-4c8c-8f51-488dfa6c9c9f","ios":"levelo://app?vid=883039f2-3b37-4c8c-8f51-488dfa6c9c9f"},"vehicle_type_id":"4","last_reported":1745943177,"current_range_meters":4800,"station_id":"ce4bh492rcd13ifvqdug","pricing_plan_id":"cebpf4jnsgd1na2vs0mg"},{"bike_id":"0f9bf44c-ad8d-40fa-a1f3-1675510a3f35","system_id":"levelo_inurba_marseille","lat":43.28439,"lon":5.34996,"is_reserved":false,"is_disabled":false,"rental_uris":{"android":"levelo://app?vid=0f9bf44c-ad8d-40fa-a1f3-1675510a3f35","ios":"levelo://app?vid=0f9bf44c-ad8d-40fa-a1f3-1675510a3f35"},"vehicle_type_id":"4","last_reported":1745943177,"current_range_meters":4800,"station_id":"ce4bhbh2rcd13ifvqepg","pricing_plan_id":"cebpf4jnsgd1na2vs0mg"},{"bike_id":"bf5d0a8d-3d6f-4b93-ae5a-47b6c67fd993","system_id":"levelo_inurba_marseille","lat":43.24389,"lon":5.37056,"is_reserved":false,"is_disabled":false,"rental_uris":{"android":"levelo://app?vid=bf5d0a8d-3d6f-4b93-ae5a-47b6c67fd993","ios":"levelo://app?vid=bf5d0a8d-3d6f-4b93-ae5a-47b6c67fd993"},"vehicle_type_id":"4","last_reported":1745943177,"current_range_meters":4800,"station_id":"ce4bhhh2rcd13ifvqfk0","pricing_plan_id":"cebpf4jnsgd1na2vs0mg"},{"bike_id":"cf380c1e-39c1-42f7-a34f-573b7b5f66ed","system_id":"levelo_inurba_marseille","lat":43.31718,"lon":5.42393,"is_reserved":false,"is_disabled":false,"rental_uris":{"android":"levelo://app?vid=cf380c1e-39c1-42f7-a34f-573b7b5f66ed","ios":"levelo://app?vid=cf380c1e-39c1-42f7-a34f-573b7b5f66ed"},"vehicle_type_id":"4","last_reported":1745943177,"current_range_meters":4800,"station_id":"ce4bhp92rcd13ifvqhbg","pricing_plan_id":"cebpf4jnsgd1na2vs0mg"},{"bike_id":"10baf2db-d437-4273-978a-d40970cee559","system_id":"levelo_inurba_marseille","lat":43.27625,"lon":5.36114,"is_reserved":false,"is_disabled":false,"rental_uris":{"android":"levelo://app?vid=10baf2db-d437-4273-978a-d40970cee559","ios":"levelo://app?vid=10baf2db-d437-4273-978a-d40970cee559"},"vehicle_type_id":"4","last_reported":1745943177,"current_range_meters":4800,"station_id":"ce4bgj92rcd13ifvqbe0","pricing_plan_id":"cebpf4jnsgd1na2vs0mg"},{"bike_id":"2df36325-00e8-4af8-b6e8-957ac68673ea","system_id":"levelo_inurba_marseille","lat":43.28157,"lon":5.42644,"is_reserved":false,"is_disabled":false,"rental_uris":{"android":"levelo://app?vid=2df36325-00e8-4af8-b6e8-957ac68673ea","ios":"levelo://app?vid=2df36325-00e8-4af8-b6e8-957ac68673ea"},"vehicle_type_id":"4","last_reported":1745943177,"current_range_meters":4800,"station_id":"ce4bhnh2rcd13ifvqgug","pricing_plan_id":"cebpf4jnsgd1na2vs0mg"},{"bike_id":"110d42e0-e455-49c3-ba2f-a13b1f51573a","system_id":"levelo_inurba_marseille","lat":43.29655,"lon":5.41189,"is_reserved":false,"is_disabled":false,"rental_uris":{"android":"levelo://app?vid=110d42e0-e455-49c3-ba2f-a13b1f51573a","ios":"levelo://app?vid=110d42e0-e455-49c3-ba2f-a13b1f51573a"},"vehicle_type_id":"4","last_reported":1745943177,"current_range_meters":5600,"station_id":"","pricing_plan_id":"cebpf4jnsgd1na2vs0mg"},{"bike_id":"bf05d069-2ec5-4246-9d82-6d6f716d8264","system_id":"levelo_inurba_marseille","lat":43.24163,"lon":5.3641,"is_reserved":false,"is_disabled":false,"rental_uris":{"android":"levelo://app?vid=bf05d069-2ec5-4246-9d82-6d6f716d8264","ios":"levelo://app?vid=bf05d069-2ec5-4246-9d82-6d6f716d8264"},"vehicle_type_id":"4","last_reported":1745943177,"current_range_meters":5600,"station_id":"cpo36qri1sfpv3e86is0","pricing_plan_id":"cebpf4jnsgd1na2vs0mg"},{"bike_id":"abe70359-5e86-4f19-8b21-0ab69a30ee50","system_id":"levelo_inurba_marseille","lat":43.27918,"lon":5.38005,"is_reserved":false,"is_disabled":false,"rental_uris":{"android":"levelo://app?vid=abe70359-5e86-4f19-8b21-0ab69a30ee50","ios":"levelo://app?vid=abe70359-5e86-4f19-8b21-0ab69a30ee50"},"vehicle_type_id":"4","last_reported":1745943177,"current_range_meters":4800,"station_id":"ce4bhf92rcd13ifvqf50","pricing_plan_id":"cebpf4jnsgd1na2vs0mg"},{"bike_id":"0d034cce-f0d4-48ac-9b8e-0ecf61d736f0","system_id":"levelo_inurba_marseille","lat":43.28617,"lon":5.35107,"is_reserved":false,"is_disabled":false,"rental_uris":{"android":"levelo://app?vid=0d034cce-f0d4-48ac-9b8e-0ecf61d736f0","ios":"levelo://app?vid=0d034cce-f0d4-48ac-9b8e-0ecf61d736f0"},"vehicle_type_id":"4","last_reported":1745943177,"current_range_meters":5600,"station_id":"ce4bhch2rcd13ifvqeug","pricing_plan_id":"cebpf4jnsgd1na2vs0mg"},{"bike_id":"23bc9010-ca1c-457c-bda3-9af8aaef2a29","system_id":"levelo_inurba_marseille","lat":43.28099,"lon":5.37834,"is_reserved":false,"is_disabled":false,"rental_uris":{"android":"levelo://app?vid=23bc9010-ca1c-457c-bda3-9af8aaef2a29","ios":"levelo://app?vid=23bc9010-ca1c-457c-bda3-9af8aaef2a29"},"vehicle_type_id":"4","last_reported":1745943177,"current_range_meters":5600,"station_id":"ce4bha12rcd13ifvqee0","pricing_plan_id":"cebpf4jnsgd1na2vs0mg"},{"bike_id":"a927ad15-b129-4085-9072-8cc54f2c8cf2","system_id":"levelo_inurba_marseille","lat":43.321016,"lon":5.3678,"is_reserved":false,"is_disabled":false,"rental_uris":{"android":"levelo://app?vid=a927ad15-b129-4085-9072-8cc54f2c8cf2","ios":"levelo://app?vid=a927ad15-b129-4085-9072-8cc54f2c8cf2"},"vehicle_type_id":"4","last_reported":1745943177,"current_range_meters":5600,"station_id":"","pricing_plan_id":"cebpf4jnsgd1na2vs0mg"},{"bike_id":"af4f0c69-e62d-4155-b1d1-a67b45271ae1","system_id":"levelo_inurba_marseille","lat":43.24753,"lon":5.41186,"is_reserved":false,"is_disabled":false,"rental_uris":{"android":"levelo://app?vid=af4f0c69-e62d-4155-b1d1-a67b45271ae1","ios":"levelo://app?vid=af4f0c69-e62d-4155-b1d1-a67b45271ae1"},"vehicle_type_id":"4","last_reported":1745943177,"current_range_meters":6000,"station_id":"","pricing_plan_id":"cebpf4jnsgd1na2vs0mg"},{"bike_id":"bafa5097-1425-46ef-8ac7-401959d21fa8","system_id":"levelo_inurba_marseille","lat":43.28718,"lon":5.37937,"is_reserved":false,"is_disabled":true,"rental_uris":{"android":"levelo://app?vid=bafa5097-1425-46ef-8ac7-401959d21fa8","ios":"levelo://app?vid=bafa5097-1425-46ef-8ac7-401959d21fa8"},"vehicle_type_id":"4","last_reported":1745943177,"current_range_meters":6000,"station_id":"ce4bh9p2rcd13ifvqec0","pricing_plan_id":"cebpf4jnsgd1na2vs0mg"},{"bike_id":"b3904e8e-3be8-4700-8616-25e4274c5318","system_id":"levelo_inurba_marseille","lat":43.29199,"lon":5.35795,"is_reserved":false,"is_disabled":true,"rental_uris":{"android":"levelo://app?vid=b3904e8e-3be8-4700-8616-25e4274c5318","ios":"levelo://app?vid=b3904e8e-3be8-4700-8616-25e4274c5318"},"vehicle_type_id":"4","last_reported":1745943177,"current_range_meters":6000,"station_id":"ce4bhb12rcd13ifvqel0","pricing_plan_id":"cebpf4jnsgd1na2vs0mg"},{"bike_id":"a7ac3f18-5a00-4a30-9051-cee017e6e7c3","system_id":"levelo_inurba_marseille","lat":43.23179,"lon":5.39988,"is_reserved":false,"is_disabled":false,"rental_uris":{"android":"levelo://app?vid=a7ac3f18-5a00-4a30-9051-cee017e6e7c3","ios":"levelo://app?vid=a7ac3f18-5a00-4a30-9051-cee017e6e7c3"},"vehicle_type_id":"4","last_reported":1745943177,"current_range_meters":6000,"station_id":"ce4bhn12rcd13ifvqgqg","pricing_plan_id":"cebpf4jnsgd1na2vs0mg"},{"bike_id":"495f902b-2e37-4d7b-b656-7396e75a1b7a","system_id":"levelo_inurba_marseille","lat":43.29025,"lon":5.38643,"is_reserved":false,"is_disabled":false,"rental_uris":{"android":"levelo://app?vid=495f902b-2e37-4d7b-b656-7396e75a1b7a","ios":"levelo://app?vid=495f902b-2e37-4d7b-b656-7396e75a1b7a"},"vehicle_type_id":"4","last_reported":1745943177,"current_range_meters":6000,"station_id":"ce4bh4p2rcd13ifvqe0g","pricing_plan_id":"cebpf4jnsgd1na2vs0mg"},{"bike_id":"133e98ca-a637-43af-beee-07f3367b7713","system_id":"levelo_inurba_marseille","lat":43.323376,"lon":5.406262,"is_reserved":false,"is_disabled":false,"rental_uris":{"android":"levelo://app?vid=133e98ca-a637-43af-beee-07f3367b7713","ios":"levelo://app?vid=133e98ca-a637-43af-beee-07f3367b7713"},"vehicle_type_id":"4","last_reported":1745943177,"current_range_meters":6800,"station_id":"ce4bhq92rcd13ifvqhjg","pricing_plan_id":"cebpf4jnsgd1na2vs0mg"},{"bike_id":"2f7e4a41-6a1d-4c0a-ab91-1e74dabf0032","system_id":"levelo_inurba_marseille","lat":43.32288,"lon":5.38256,"is_reserved":false,"is_disabled":false,"rental_uris":{"android":"levelo://app?vid=2f7e4a41-6a1d-4c0a-ab91-1e74dabf0032","ios":"levelo://app?vid=2f7e4a41-6a1d-4c0a-ab91-1e74dabf0032"},"vehicle_type_id":"4","last_reported":1745943177,"current_range_meters":6400,"station_id":"ce4bhr12rcd13ifvqhqg","pricing_plan_id":"cebpf4jnsgd1na2vs0mg"},{"bike_id":"0b1288d6-34a7-4613-bf32-a4d7083535cd","system_id":"levelo_inurba_marseille","lat":43.28423,"lon":5.37518,"is_reserved":false,"is_disabled":false,"rental_uris":{"android":"levelo://app?vid=0b1288d6-34a7-4613-bf32-a4d7083535cd","ios":"levelo://app?vid=0b1288d6-34a7-4613-bf32-a4d7083535cd"},"vehicle_type_id":"4","last_reported":1745943177,"current_range_meters":6800,"station_id":"ce4bh412rcd13ifvqds0","pricing_plan_id":"cebpf4jnsgd1na2vs0mg"},{"bike_id":"42c4271d-0e0b-4e2b-9086-4ec4f985d06e","system_id":"levelo_inurba_marseille","lat":43.28268,"lon":5.35065,"is_reserved":false,"is_disabled":false,"rental_uris":{"android":"levelo://app?vid=42c4271d-0e0b-4e2b-9086-4ec4f985d06e","ios":"levelo://app?vid=42c4271d-0e0b-4e2b-9086-4ec4f985d06e"},"vehicle_type_id":"4","last_reported":1745943177,"current_range_meters":6800,"station_id":"ce4bhbp2rcd13ifvqerg","pricing_plan_id":"cebpf4jnsgd1na2vs0mg"},{"bike_id":"5c7b7cf2-6ad3-4476-8e48-4b0c2e018300","system_id":"levelo_inurba_marseille","lat":43.28663,"lon":5.36351,"is_reserved":false,"is_disabled":false,"rental_uris":{"android":"levelo://app?vid=5c7b7cf2-6ad3-4476-8e48-4b0c2e018300","ios":"levelo://app?vid=5c7b7cf2-6ad3-4476-8e48-4b0c2e018300"},"vehicle_type_id":"4","last_reported":1745943177,"current_range_meters":6800,"station_id":"ce4bhah2rcd13ifvqej0","pricing_plan_id":"cebpf4jnsgd1na2vs0mg"},{"bike_id":"a392215b-0ead-4157-8f7f-0eae987d11da","system_id":"levelo_inurba_marseille","lat":43.27375,"lon":5.36259,"is_reserved":false,"is_disabled":false,"rental_uris":{"android":"levelo://app?vid=a392215b-0ead-4157-8f7f-0eae987d11da","ios":"levelo://app?vid=a392215b-0ead-4157-8f7f-0eae987d11da"},"vehicle_type_id":"4","last_reported":1745943177,"current_range_meters":7200,"station_id":"ce4bhbh2rcd13ifvqeo0","pricing_plan_id":"cebpf4jnsgd1na2vs0mg"},{"bike_id":"daa9fbcb-da10-4e6c-b51c-3acd9525dd77","system_id":"levelo_inurba_marseille","lat":43.27371,"lon":5.3623,"is_reserved":false,"is_disabled":false,"rental_uris":{"android":"levelo://app?vid=daa9fbcb-da10-4e6c-b51c-3acd9525dd77","ios":"levelo://app?vid=daa9fbcb-da10-4e6c-b51c-3acd9525dd77"},"vehicle_type_id":"4","last_reported":1745943177,"current_range_meters":7200,"station_id":"ce4bhbh2rcd13ifvqeo0","pricing_plan_id":"cebpf4jnsgd1na2vs0mg"},{"bike_id":"935207da-41f5-49b0-bbaf-460ac771c5ea","system_id":"levelo_inurba_marseille","lat":43.27383,"lon":5.3626,"is_reserved":false,"is_disabled":false,"rental_uris":{"android":"levelo://app?vid=935207da-41f5-49b0-bbaf-460ac771c5ea","ios":"levelo://app?vid=935207da-41f5-49b0-bbaf-460ac771c5ea"},"vehicle_type_id":"4","last_reported":1745943177,"current_range_meters":7200,"station_id":"ce4bhbh2rcd13ifvqeo0","pricing_plan_id":"cebpf4jnsgd1na2vs0mg"},{"bike_id":"cadee814-6236-4e9c-902b-ab633df6bc36","system_id":"levelo_inurba_marseille","lat":43.287,"lon":5.37376,"is_reserved":false,"is_disabled":false,"rental_uris":{"android":"levelo://app?vid=cadee814-6236-4e9c-902b-ab633df6bc36","ios":"levelo://app?vid=cadee814-6236-4e9c-902b-ab633df6bc36"},"vehicle_type_id":"4","last_reported":1745943177,"current_range_meters":7200,"station_id":"ce4bh3p2rcd13ifvqdq0","pricing_plan_id":"cebpf4jnsgd1na2vs0mg"},{"bike_id":"8bdebbdf-1224-4478-aac4-06cf243fdd87","system_id":"levelo_inurba_marseille","lat":43.27073,"lon":5.42279,"is_reserved":false,"is_disabled":false,"rental_uris":{"android":"levelo://app?vid=8bdebbdf-1224-4478-aac4-06cf243fdd87","ios":"levelo://app?vid=8bdebbdf-1224-4478-aac4-06cf243fdd87"},"vehicle_type_id":"4","last_reported":1745943177,"current_range_meters":6800,"station_id":"ce4bhk92rcd13ifvqgb0","pricing_plan_id":"cebpf4jnsgd1na2vs0mg"},{"bike_id":"01d9efa4-1b1b-4382-b518-590484aba0e9","system_id":"levelo_inurba_marseille","lat":43.29076,"lon":5.37164,"is_reserved":false,"is_disabled":false,"rental_uris":{"android":"levelo://app?vid=01d9efa4-1b1b-4382-b518-590484aba0e9","ios":"levelo://app?vid=01d9efa4-1b1b-4382-b518-590484aba0e9"},"vehicle_type_id":"4","last_reported":1745943177,"current_range_meters":7200,"station_id":"ce4bh5p2rcd13ifvqe4g","pricing_plan_id":"cebpf4jnsgd1na2vs0mg"},{"bike_id":"1a52bc4b-6ad1-4ee0-802b-3a4808706608","system_id":"levelo_inurba_marseille","lat":43.25579,"lon":5.3824,"is_reserved":false,"is_disabled":false,"rental_uris":{"android":"levelo://app?vid=1a52bc4b-6ad1-4ee0-802b-3a4808706608","ios":"levelo://app?vid=1a52bc4b-6ad1-4ee0-802b-3a4808706608"},"vehicle_type_id":"4","last_reported":1745943177,"current_range_meters":7200,"station_id":"ce4bhih2rcd13ifvqfs0","pricing_plan_id":"cebpf4jnsgd1na2vs0mg"},{"bike_id":"c1689488-3314-440a-bb58-e1caa2c32dd8","system_id":"levelo_inurba_marseille","lat":43.28615,"lon":5.35104,"is_reserved":false,"is_disabled":false,"rental_uris":{"android":"levelo://app?vid=c1689488-3314-440a-bb58-e1caa2c32dd8","ios":"levelo://app?vid=c1689488-3314-440a-bb58-e1caa2c32dd8"},"vehicle_type_id":"4","last_reported":1745943177,"current_range_meters":8000,"station_id":"ce4bhch2rcd13ifvqeug","pricing_plan_id":"cebpf4jnsgd1na2vs0mg"},{"bike_id":"e5b4b90d-e268-4de2-98f4-f6d0513f8801","system_id":"levelo_inurba_marseille","lat":43.26577,"lon":5.42192,"is_reserved":false,"is_disabled":false,"rental_uris":{"android":"levelo://app?vid=e5b4b90d-e268-4de2-98f4-f6d0513f8801","ios":"levelo://app?vid=e5b4b90d-e268-4de2-98f4-f6d0513f8801"},"vehicle_type_id":"4","last_reported":1745943177,"current_range_meters":8000,"station_id":"","pricing_plan_id":"cebpf4jnsgd1na2vs0mg"},{"bike_id":"6a8e13df-cd04-4a52-b66a-21a596b18ca2","system_id":"levelo_inurba_marseille","lat":43.24384,"lon":5.37057,"is_reserved":false,"is_disabled":false,"rental_uris":{"android":"levelo://app?vid=6a8e13df-cd04-4a52-b66a-21a596b18ca2","ios":"levelo://app?vid=6a8e13df-cd04-4a52-b66a-21a596b18ca2"},"vehicle_type_id":"4","last_reported":1745943177,"current_range_meters":8000,"station_id":"ce4bhhh2rcd13ifvqfk0","pricing_plan_id":"cebpf4jnsgd1na2vs0mg"},{"bike_id":"5edffa19-7bd6-4c9c-a2e8-3b389d4d7736","system_id":"levelo_inurba_marseille","lat":43.2995,"lon":5.413501,"is_reserved":false,"is_disabled":false,"rental_uris":{"android":"levelo://app?vid=5edffa19-7bd6-4c9c-a2e8-3b389d4d7736","ios":"levelo://app?vid=5edffa19-7bd6-4c9c-a2e8-3b389d4d7736"},"vehicle_type_id":"4","last_reported":1745943177,"current_range_meters":8000,"station_id":"ce4bhp12rcd13ifvqh9g","pricing_plan_id":"cebpf4jnsgd1na2vs0mg"},{"bike_id":"57b30b06-f743-4cf3-95c0-b855a922a14b","system_id":"levelo_inurba_marseille","lat":43.24157,"lon":5.36412,"is_reserved":false,"is_disabled":false,"rental_uris":{"android":"levelo://app?vid=57b30b06-f743-4cf3-95c0-b855a922a14b","ios":"levelo://app?vid=57b30b06-f743-4cf3-95c0-b855a922a14b"},"vehicle_type_id":"4","last_reported":1745943177,"current_range_meters":8000,"station_id":"cpo36qri1sfpv3e86is0","pricing_plan_id":"cebpf4jnsgd1na2vs0mg"},{"bike_id":"5e4e72ca-621e-496d-9cae-bd43184ac4af","system_id":"levelo_inurba_marseille","lat":43.28618,"lon":5.35106,"is_reserved":false,"is_disabled":false,"rental_uris":{"android":"levelo://app?vid=5e4e72ca-621e-496d-9cae-bd43184ac4af","ios":"levelo://app?vid=5e4e72ca-621e-496d-9cae-bd43184ac4af"},"vehicle_type_id":"4","last_reported":1745943177,"current_range_meters":8400,"station_id":"ce4bhch2rcd13ifvqeug","pricing_plan_id":"cebpf4jnsgd1na2vs0mg"},{"bike_id":"8e1767fb-0588-473b-9b1a-887853c93c04","system_id":"levelo_inurba_marseille","lat":43.26551,"lon":5.37319,"is_reserved":false,"is_disabled":false,"rental_uris":{"android":"levelo://app?vid=8e1767fb-0588-473b-9b1a-887853c93c04","ios":"levelo://app?vid=8e1767fb-0588-473b-9b1a-887853c93c04"},"vehicle_type_id":"4","last_reported":1745943177,"current_range_meters":8400,"station_id":"ce4bhg12rcd13ifvqf70","pricing_plan_id":"cebpf4jnsgd1na2vs0mg"},{"bike_id":"5b7bfbe9-ca1f-436c-bd1d-5edc820441b4","system_id":"levelo_inurba_marseille","lat":43.26214,"lon":5.37444,"is_reserved":false,"is_disabled":false,"rental_uris":{"android":"levelo://app?vid=5b7bfbe9-ca1f-436c-bd1d-5edc820441b4","ios":"levelo://app?vid=5b7bfbe9-ca1f-436c-bd1d-5edc820441b4"},"vehicle_type_id":"4","last_reported":1745943177,"current_range_meters":8400,"station_id":"ce4bhgp2rcd13ifvqfc0","pricing_plan_id":"cebpf4jnsgd1na2vs0mg"},{"bike_id":"ac836239-34e2-4712-be38-60718cd3aa70","system_id":"levelo_inurba_marseille","lat":43.29886,"lon":5.38905,"is_reserved":false,"is_disabled":false,"rental_uris":{"android":"levelo://app?vid=ac836239-34e2-4712-be38-60718cd3aa70","ios":"levelo://app?vid=ac836239-34e2-4712-be38-60718cd3aa70"},"vehicle_type_id":"4","last_reported":1745943177,"current_range_meters":8400,"station_id":"ce4bh392rcd13ifvqdl0","pricing_plan_id":"cebpf4jnsgd1na2vs0mg"},{"bike_id":"f5aded10-0e57-483a-af65-7debf0e75a48","system_id":"levelo_inurba_marseille","lat":43.32727,"lon":5.3925,"is_reserved":false,"is_disabled":false,"rental_uris":{"android":"levelo://app?vid=f5aded10-0e57-483a-af65-7debf0e75a48","ios":"levelo://app?vid=f5aded10-0e57-483a-af65-7debf0e75a48"},"vehicle_type_id":"4","last_reported":1745943177,"current_range_meters":3200,"station_id":"","pricing_plan_id":"cebpf4jnsgd1na2vs0mg"},{"bike_id":"6ae23634-3a5b-41cc-bd90-d0d1c1723e60","system_id":"levelo_inurba_marseille","lat":43.31166,"lon":5.38726,"is_reserved":false,"is_disabled":false,"rental_uris":{"android":"levelo://app?vid=6ae23634-3a5b-41cc-bd90-d0d1c1723e60","ios":"levelo://app?vid=6ae23634-3a5b-41cc-bd90-d0d1c1723e60"},"vehicle_type_id":"4","last_reported":1745943177,"current_range_meters":8800,"station_id":"ce4bgv12rcd13ifvqcp0","pricing_plan_id":"cebpf4jnsgd1na2vs0mg"},{"bike_id":"73caf621-d0ae-4f64-96e8-171f413b088a","system_id":"levelo_inurba_marseille","lat":43.24661,"lon":5.38167,"is_reserved":false,"is_disabled":false,"rental_uris":{"android":"levelo://app?vid=73caf621-d0ae-4f64-96e8-171f413b088a","ios":"levelo://app?vid=73caf621-d0ae-4f64-96e8-171f413b088a"},"vehicle_type_id":"4","last_reported":1745943177,"current_range_meters":8800,"station_id":"ce4bhih2rcd13ifvqfr0","pricing_plan_id":"cebpf4jnsgd1na2vs0mg"},{"bike_id":"9b8b5593-6840-45aa-9a72-66addbedb796","system_id":"levelo_inurba_marseille","lat":43.27425,"lon":5.39418,"is_reserved":false,"is_disabled":false,"rental_uris":{"android":"levelo://app?vid=9b8b5593-6840-45aa-9a72-66addbedb796","ios":"levelo://app?vid=9b8b5593-6840-45aa-9a72-66addbedb796"},"vehicle_type_id":"4","last_reported":1745943177,"current_range_meters":8800,"station_id":"ce4bhdp2rcd13ifvqf20","pricing_plan_id":"cebpf4jnsgd1na2vs0mg"},{"bike_id":"453f2d93-a605-49bf-a04a-fff26111eb14","system_id":"levelo_inurba_marseille","lat":43.27379,"lon":5.36255,"is_reserved":false,"is_disabled":false,"rental_uris":{"android":"levelo://app?vid=453f2d93-a605-49bf-a04a-fff26111eb14","ios":"levelo://app?vid=453f2d93-a605-49bf-a04a-fff26111eb14"},"vehicle_type_id":"4","last_reported":1745943177,"current_range_meters":8800,"station_id":"ce4bhbh2rcd13ifvqeo0","pricing_plan_id":"cebpf4jnsgd1na2vs0mg"},{"bike_id":"96ecdf7b-ab5a-4b7a-802e-1b0e3e7c7586","system_id":"levelo_inurba_marseille","lat":43.29066,"lon":5.37146,"is_reserved":false,"is_disabled":false,"rental_uris":{"android":"levelo://app?vid=96ecdf7b-ab5a-4b7a-802e-1b0e3e7c7586","ios":"levelo://app?vid=96ecdf7b-ab5a-4b7a-802e-1b0e3e7c7586"},"vehicle_type_id":"4","last_reported":1745943177,"current_range_meters":8800,"station_id":"ce4bh5p2rcd13ifvqe4g","pricing_plan_id":"cebpf4jnsgd1na2vs0mg"},{"bike_id":"5a827100-0ef2-49ce-9f50-c304b34527eb","system_id":"levelo_inurba_marseille","lat":43.32365,"lon":5.3889,"is_reserved":false,"is_disabled":false,"rental_uris":{"android":"levelo://app?vid=5a827100-0ef2-49ce-9f50-c304b34527eb","ios":"levelo://app?vid=5a827100-0ef2-49ce-9f50-c304b34527eb"},"vehicle_type_id":"4","last_reported":1745943177,"current_range_meters":8400,"station_id":"ce4bhqp2rcd13ifvqhog","pricing_plan_id":"cebpf4jnsgd1na2vs0mg"},{"bike_id":"09d68f44-90e7-4d28-b790-c2b23f4c845a","system_id":"levelo_inurba_marseille","lat":43.29196,"lon":5.35804,"is_reserved":false,"is_disabled":false,"rental_uris":{"android":"levelo://app?vid=09d68f44-90e7-4d28-b790-c2b23f4c845a","ios":"levelo://app?vid=09d68f44-90e7-4d28-b790-c2b23f4c845a"},"vehicle_type_id":"4","last_reported":1745943177,"current_range_meters":9200,"station_id":"ce4bhb12rcd13ifvqel0","pricing_plan_id":"cebpf4jnsgd1na2vs0mg"},{"bike_id":"9830ffbf-8059-40c0-8be0-b226b6661fe2","system_id":"levelo_inurba_marseille","lat":43.26213,"lon":5.37463,"is_reserved":false,"is_disabled":false,"rental_uris":{"android":"levelo://app?vid=9830ffbf-8059-40c0-8be0-b226b6661fe2","ios":"levelo://app?vid=9830ffbf-8059-40c0-8be0-b226b6661fe2"},"vehicle_type_id":"4","last_reported":1745943177,"current_range_meters":9200,"station_id":"ce4bhgp2rcd13ifvqfc0","pricing_plan_id":"cebpf4jnsgd1na2vs0mg"},{"bike_id":"c447f42d-0271-42e7-9b32-ac3449540ffb","system_id":"levelo_inurba_marseille","lat":43.24394,"lon":5.37055,"is_reserved":false,"is_disabled":false,"rental_uris":{"android":"levelo://app?vid=c447f42d-0271-42e7-9b32-ac3449540ffb","ios":"levelo://app?vid=c447f42d-0271-42e7-9b32-ac3449540ffb"},"vehicle_type_id":"4","last_reported":1745943177,"current_range_meters":9200,"station_id":"ce4bhhh2rcd13ifvqfk0","pricing_plan_id":"cebpf4jnsgd1na2vs0mg"},{"bike_id":"5836a6ba-325a-41e2-92c0-3359d340dd3d","system_id":"levelo_inurba_marseille","lat":43.29192,"lon":5.35791,"is_reserved":false,"is_disabled":true,"rental_uris":{"android":"levelo://app?vid=5836a6ba-325a-41e2-92c0-3359d340dd3d","ios":"levelo://app?vid=5836a6ba-325a-41e2-92c0-3359d340dd3d"},"vehicle_type_id":"4","last_reported":1745943177,"current_range_meters":9600,"station_id":"ce4bhb12rcd13ifvqel0","pricing_plan_id":"cebpf4jnsgd1na2vs0mg"},{"bike_id":"920192e3-1852-4c38-a6a2-770caab973ac","system_id":"levelo_inurba_marseille","lat":43.23189,"lon":5.39978,"is_reserved":false,"is_disabled":false,"rental_uris":{"android":"levelo://app?vid=920192e3-1852-4c38-a6a2-770caab973ac","ios":"levelo://app?vid=920192e3-1852-4c38-a6a2-770caab973ac"},"vehicle_type_id":"4","last_reported":1745943177,"current_range_meters":9600,"station_id":"ce4bhn12rcd13ifvqgqg","pricing_plan_id":"cebpf4jnsgd1na2vs0mg"},{"bike_id":"e35ef5cb-cefe-4bc6-83dc-e9e6db4f4f5e","system_id":"levelo_inurba_marseille","lat":43.29049,"lon":5.35903,"is_reserved":false,"is_disabled":false,"rental_uris":{"android":"levelo://app?vid=e35ef5cb-cefe-4bc6-83dc-e9e6db4f4f5e","ios":"levelo://app?vid=e35ef5cb-cefe-4bc6-83dc-e9e6db4f4f5e"},"vehicle_type_id":"4","last_reported":1745943177,"current_range_meters":9600,"station_id":"ce4bha92rcd13ifvqeg0","pricing_plan_id":"cebpf4jnsgd1na2vs0mg"},{"bike_id":"cfa7dd96-49e9-4983-a315-0c6d42b3be2f","system_id":"levelo_inurba_marseille","lat":43.28104,"lon":5.37837,"is_reserved":false,"is_disabled":false,"rental_uris":{"android":"levelo://app?vid=cfa7dd96-49e9-4983-a315-0c6d42b3be2f","ios":"levelo://app?vid=cfa7dd96-49e9-4983-a315-0c6d42b3be2f"},"vehicle_type_id":"4","last_reported":1745943177,"current_range_meters":9600,"station_id":"ce4bha12rcd13ifvqee0","pricing_plan_id":"cebpf4jnsgd1na2vs0mg"},{"bike_id":"15e21529-6419-422f-8ae8-a321bdc6c0f5","system_id":"levelo_inurba_marseille","lat":43.26226,"lon":5.37439,"is_reserved":false,"is_disabled":false,"rental_uris":{"android":"levelo://app?vid=15e21529-6419-422f-8ae8-a321bdc6c0f5","ios":"levelo://app?vid=15e21529-6419-422f-8ae8-a321bdc6c0f5"},"vehicle_type_id":"4","last_reported":1745943177,"current_range_meters":9600,"station_id":"ce4bhgp2rcd13ifvqfc0","pricing_plan_id":"cebpf4jnsgd1na2vs0mg"},{"bike_id":"28894e81-ede6-4351-84e3-e6b48081a345","system_id":"levelo_inurba_marseille","lat":43.33447,"lon":5.40045,"is_reserved":false,"is_disabled":false,"rental_uris":{"android":"levelo://app?vid=28894e81-ede6-4351-84e3-e6b48081a345","ios":"levelo://app?vid=28894e81-ede6-4351-84e3-e6b48081a345"},"vehicle_type_id":"4","last_reported":1745943177,"current_range_meters":10000,"station_id":"","pricing_plan_id":"cebpf4jnsgd1na2vs0mg"},{"bike_id":"9675813c-0279-4057-b897-4887ef259e13","system_id":"levelo_inurba_marseille","lat":43.28611,"lon":5.35112,"is_reserved":false,"is_disabled":false,"rental_uris":{"android":"levelo://app?vid=9675813c-0279-4057-b897-4887ef259e13","ios":"levelo://app?vid=9675813c-0279-4057-b897-4887ef259e13"},"vehicle_type_id":"4","last_reported":1745943177,"current_range_meters":10000,"station_id":"ce4bhch2rcd13ifvqeug","pricing_plan_id":"cebpf4jnsgd1na2vs0mg"},{"bike_id":"1e2125e8-1ef7-4c96-ae95-711f7965b412","system_id":"levelo_inurba_marseille","lat":43.28598,"lon":5.35141,"is_reserved":false,"is_disabled":false,"rental_uris":{"android":"levelo://app?vid=1e2125e8-1ef7-4c96-ae95-711f7965b412","ios":"levelo://app?vid=1e2125e8-1ef7-4c96-ae95-711f7965b412"},"vehicle_type_id":"4","last_reported":1745943177,"current_range_meters":10000,"station_id":"ce4bhch2rcd13ifvqeug","pricing_plan_id":"cebpf4jnsgd1na2vs0mg"},{"bike_id":"36609c8f-1883-467c-9698-c5700ae0aab2","system_id":"levelo_inurba_marseille","lat":43.27393,"lon":5.36273,"is_reserved":false,"is_disabled":false,"rental_uris":{"android":"levelo://app?vid=36609c8f-1883-467c-9698-c5700ae0aab2","ios":"levelo://app?vid=36609c8f-1883-467c-9698-c5700ae0aab2"},"vehicle_type_id":"4","last_reported":1745943177,"current_range_meters":10000,"station_id":"ce4bhbh2rcd13ifvqeo0","pricing_plan_id":"cebpf4jnsgd1na2vs0mg"},{"bike_id":"9ed68aa3-0d98-4eab-b3e1-361d64548f5b","system_id":"levelo_inurba_marseille","lat":43.24384,"lon":5.37063,"is_reserved":false,"is_disabled":false,"rental_uris":{"android":"levelo://app?vid=9ed68aa3-0d98-4eab-b3e1-361d64548f5b","ios":"levelo://app?vid=9ed68aa3-0d98-4eab-b3e1-361d64548f5b"},"vehicle_type_id":"4","last_reported":1745943177,"current_range_meters":10000,"station_id":"ce4bhhh2rcd13ifvqfk0","pricing_plan_id":"cebpf4jnsgd1na2vs0mg"},{"bike_id":"0abf35e7-c67e-46e8-a92f-9ca6bff342c7","system_id":"levelo_inurba_marseille","lat":43.28415,"lon":5.34983,"is_reserved":false,"is_disabled":false,"rental_uris":{"android":"levelo://app?vid=0abf35e7-c67e-46e8-a92f-9ca6bff342c7","ios":"levelo://app?vid=0abf35e7-c67e-46e8-a92f-9ca6bff342c7"},"vehicle_type_id":"4","last_reported":1745943177,"current_range_meters":10000,"station_id":"ce4bhbh2rcd13ifvqepg","pricing_plan_id":"cebpf4jnsgd1na2vs0mg"},{"bike_id":"cb0c2ac5-addd-4c5c-82e2-178b9c41c26f","system_id":"levelo_inurba_marseille","lat":43.2883,"lon":5.35856,"is_reserved":false,"is_disabled":false,"rental_uris":{"android":"levelo://app?vid=cb0c2ac5-addd-4c5c-82e2-178b9c41c26f","ios":"levelo://app?vid=cb0c2ac5-addd-4c5c-82e2-178b9c41c26f"},"vehicle_type_id":"4","last_reported":1745943177,"current_range_meters":10800,"station_id":"ce4bhb12rcd13ifvqem0","pricing_plan_id":"cebpf4jnsgd1na2vs0mg"},{"bike_id":"c48b470d-d331-434e-94ae-4d44b05a6b8d","system_id":"levelo_inurba_marseille","lat":43.30132,"lon":5.386,"is_reserved":false,"is_disabled":false,"rental_uris":{"android":"levelo://app?vid=c48b470d-d331-434e-94ae-4d44b05a6b8d","ios":"levelo://app?vid=c48b470d-d331-434e-94ae-4d44b05a6b8d"},"vehicle_type_id":"4","last_reported":1745943177,"current_range_meters":10800,"station_id":"","pricing_plan_id":"cebpf4jnsgd1na2vs0mg"},{"bike_id":"2eefc610-ce63-4eb2-ab28-dcb3d53943a8","system_id":"levelo_inurba_marseille","lat":43.27812,"lon":5.40709,"is_reserved":false,"is_disabled":false,"rental_uris":{"android":"levelo://app?vid=2eefc610-ce63-4eb2-ab28-dcb3d53943a8","ios":"levelo://app?vid=2eefc610-ce63-4eb2-ab28-dcb3d53943a8"},"vehicle_type_id":"4","last_reported":1745943177,"current_range_meters":10000,"station_id":"ce4bhnh2rcd13ifvqgtg","pricing_plan_id":"cebpf4jnsgd1na2vs0mg"},{"bike_id":"7ec3e452-6836-48b2-a473-a7add9a0e801","system_id":"levelo_inurba_marseille","lat":43.27376,"lon":5.3626,"is_reserved":false,"is_disabled":false,"rental_uris":{"android":"levelo://app?vid=7ec3e452-6836-48b2-a473-a7add9a0e801","ios":"levelo://app?vid=7ec3e452-6836-48b2-a473-a7add9a0e801"},"vehicle_type_id":"4","last_reported":1745943177,"current_range_meters":10800,"station_id":"ce4bhbh2rcd13ifvqeo0","pricing_plan_id":"cebpf4jnsgd1na2vs0mg"},{"bike_id":"b0f4d069-7578-4cb2-a524-8e2168e3e809","system_id":"levelo_inurba_marseille","lat":43.307942,"lon":5.376603,"is_reserved":false,"is_disabled":false,"rental_uris":{"android":"levelo://app?vid=b0f4d069-7578-4cb2-a524-8e2168e3e809","ios":"levelo://app?vid=b0f4d069-7578-4cb2-a524-8e2168e3e809"},"vehicle_type_id":"4","last_reported":1745943177,"current_range_meters":10000,"station_id":"ce4bgv92rcd13ifvqcq0","pricing_plan_id":"cebpf4jnsgd1na2vs0mg"},{"bike_id":"9915278b-e824-4d54-826e-c12bc0794885","system_id":"levelo_inurba_marseille","lat":43.28414,"lon":5.34996,"is_reserved":false,"is_disabled":false,"rental_uris":{"android":"levelo://app?vid=9915278b-e824-4d54-826e-c12bc0794885","ios":"levelo://app?vid=9915278b-e824-4d54-826e-c12bc0794885"},"vehicle_type_id":"4","last_reported":1745943177,"current_range_meters":10800,"station_id":"ce4bhbh2rcd13ifvqepg","pricing_plan_id":"cebpf4jnsgd1na2vs0mg"},{"bike_id":"ad906124-abe6-4bd1-b48d-47034c06012e","system_id":"levelo_inurba_marseille","lat":43.28421,"lon":5.34978,"is_reserved":false,"is_disabled":false,"rental_uris":{"android":"levelo://app?vid=ad906124-abe6-4bd1-b48d-47034c06012e","ios":"levelo://app?vid=ad906124-abe6-4bd1-b48d-47034c06012e"},"vehicle_type_id":"4","last_reported":1745943177,"current_range_meters":10800,"station_id":"ce4bhbh2rcd13ifvqepg","pricing_plan_id":"cebpf4jnsgd1na2vs0mg"},{"bike_id":"84ad3337-6bc9-4c9f-8e14-1f98704995ae","system_id":"levelo_inurba_marseille","lat":43.29031,"lon":5.35908,"is_reserved":false,"is_disabled":false,"rental_uris":{"android":"levelo://app?vid=84ad3337-6bc9-4c9f-8e14-1f98704995ae","ios":"levelo://app?vid=84ad3337-6bc9-4c9f-8e14-1f98704995ae"},"vehicle_type_id":"4","last_reported":1745943177,"current_range_meters":10800,"station_id":"ce4bha92rcd13ifvqeg0","pricing_plan_id":"cebpf4jnsgd1na2vs0mg"},{"bike_id":"a4e908cc-ce4b-4ed0-9d8d-022b2dd7de70","system_id":"levelo_inurba_marseille","lat":43.229318,"lon":5.3538,"is_reserved":false,"is_disabled":false,"rental_uris":{"android":"levelo://app?vid=a4e908cc-ce4b-4ed0-9d8d-022b2dd7de70","ios":"levelo://app?vid=a4e908cc-ce4b-4ed0-9d8d-022b2dd7de70"},"vehicle_type_id":"4","last_reported":1745943177,"current_range_meters":11200,"station_id":"cpo3532slgdg3j2ikp40","pricing_plan_id":"cebpf4jnsgd1na2vs0mg"},{"bike_id":"308a0858-7782-4816-8962-95080a2043e4","system_id":"levelo_inurba_marseille","lat":43.284073,"lon":5.375119,"is_reserved":false,"is_disabled":false,"rental_uris":{"android":"levelo://app?vid=308a0858-7782-4816-8962-95080a2043e4","ios":"levelo://app?vid=308a0858-7782-4816-8962-95080a2043e4"},"vehicle_type_id":"4","last_reported":1745943177,"current_range_meters":11200,"station_id":"ce4bh412rcd13ifvqds0","pricing_plan_id":"cebpf4jnsgd1na2vs0mg"},{"bike_id":"bf5d9f3c-c0b8-4915-a5cb-f904635433b9","system_id":"levelo_inurba_marseille","lat":43.29905,"lon":5.38142,"is_reserved":false,"is_disabled":false,"rental_uris":{"android":"levelo://app?vid=bf5d9f3c-c0b8-4915-a5cb-f904635433b9","ios":"levelo://app?vid=bf5d9f3c-c0b8-4915-a5cb-f904635433b9"},"vehicle_type_id":"4","last_reported":1745943177,"current_range_meters":11600,"station_id":"ce4bgj12rcd13ifvqbc0","pricing_plan_id":"cebpf4jnsgd1na2vs0mg"},{"bike_id":"bd93d1c5-a074-41de-9fb6-802e402eab4b","system_id":"levelo_inurba_marseille","lat":43.28614,"lon":5.35107,"is_reserved":false,"is_disabled":false,"rental_uris":{"android":"levelo://app?vid=bd93d1c5-a074-41de-9fb6-802e402eab4b","ios":"levelo://app?vid=bd93d1c5-a074-41de-9fb6-802e402eab4b"},"vehicle_type_id":"4","last_reported":1745943177,"current_range_meters":11600,"station_id":"ce4bhch2rcd13ifvqeug","pricing_plan_id":"cebpf4jnsgd1na2vs0mg"},{"bike_id":"95801eb5-9ba0-44f5-ab65-008610f583f0","system_id":"levelo_inurba_marseille","lat":43.33023,"lon":5.39046,"is_reserved":false,"is_disabled":false,"rental_uris":{"android":"levelo://app?vid=95801eb5-9ba0-44f5-ab65-008610f583f0","ios":"levelo://app?vid=95801eb5-9ba0-44f5-ab65-008610f583f0"},"vehicle_type_id":"4","last_reported":1745943177,"current_range_meters":11600,"station_id":"ce4bhr92rcd13ifvqhrg","pricing_plan_id":"cebpf4jnsgd1na2vs0mg"},{"bike_id":"7039a895-77b1-4f87-895f-fa9fd9e285a9","system_id":"levelo_inurba_marseille","lat":43.28618,"lon":5.35108,"is_reserved":false,"is_disabled":false,"rental_uris":{"android":"levelo://app?vid=7039a895-77b1-4f87-895f-fa9fd9e285a9","ios":"levelo://app?vid=7039a895-77b1-4f87-895f-fa9fd9e285a9"},"vehicle_type_id":"4","last_reported":1745943177,"current_range_meters":11600,"station_id":"ce4bhch2rcd13ifvqeug","pricing_plan_id":"cebpf4jnsgd1na2vs0mg"},{"bike_id":"a312ea05-db37-46ac-8989-47b837f58bbc","system_id":"levelo_inurba_marseille","lat":43.2971,"lon":5.37703,"is_reserved":false,"is_disabled":false,"rental_uris":{"android":"levelo://app?vid=a312ea05-db37-46ac-8989-47b837f58bbc","ios":"levelo://app?vid=a312ea05-db37-46ac-8989-47b837f58bbc"},"vehicle_type_id":"4","last_reported":1745943177,"current_range_meters":11600,"station_id":"ce4bgkh2rcd13ifvqbl0","pricing_plan_id":"cebpf4jnsgd1na2vs0mg"},{"bike_id":"bcbdece9-18a4-4ced-8494-9c131639e5f6","system_id":"levelo_inurba_marseille","lat":43.26119,"lon":5.41467,"is_reserved":false,"is_disabled":false,"rental_uris":{"android":"levelo://app?vid=bcbdece9-18a4-4ced-8494-9c131639e5f6","ios":"levelo://app?vid=bcbdece9-18a4-4ced-8494-9c131639e5f6"},"vehicle_type_id":"4","last_reported":1745943177,"current_range_meters":11600,"station_id":"","pricing_plan_id":"cebpf4jnsgd1na2vs0mg"},{"bike_id":"00a0736b-2737-43fa-a64d-85afd9d5b797","system_id":"levelo_inurba_marseille","lat":43.29265,"lon":5.40908,"is_reserved":false,"is_disabled":false,"rental_uris":{"android":"levelo://app?vid=00a0736b-2737-43fa-a64d-85afd9d5b797","ios":"levelo://app?vid=00a0736b-2737-43fa-a64d-85afd9d5b797"},"vehicle_type_id":"4","last_reported":1745943177,"current_range_meters":11600,"station_id":"ce4bh192rcd13ifvqdc0","pricing_plan_id":"cebpf4jnsgd1na2vs0mg"},{"bike_id":"db579c55-f9db-4587-b614-c4b84792a0a3","system_id":"levelo_inurba_marseille","lat":43.25003,"lon":5.38923,"is_reserved":false,"is_disabled":false,"rental_uris":{"android":"levelo://app?vid=db579c55-f9db-4587-b614-c4b84792a0a3","ios":"levelo://app?vid=db579c55-f9db-4587-b614-c4b84792a0a3"},"vehicle_type_id":"4","last_reported":1745943177,"current_range_meters":11600,"station_id":"ce4bhgp2rcd13ifvqfd0","pricing_plan_id":"cebpf4jnsgd1na2vs0mg"},{"bike_id":"b4c6cca8-2e10-4fc8-a0ad-ad89366af1a1","system_id":"levelo_inurba_marseille","lat":43.23069,"lon":5.3549,"is_reserved":false,"is_disabled":false,"rental_uris":{"android":"levelo://app?vid=b4c6cca8-2e10-4fc8-a0ad-ad89366af1a1","ios":"levelo://app?vid=b4c6cca8-2e10-4fc8-a0ad-ad89366af1a1"},"vehicle_type_id":"4","last_reported":1745943177,"current_range_meters":12000,"station_id":"cpo3342slgdg3j2ifvpg","pricing_plan_id":"cebpf4jnsgd1na2vs0mg"},{"bike_id":"8663b10c-1e24-428c-bec4-66fabeba84de","system_id":"levelo_inurba_marseille","lat":43.29226,"lon":5.36083,"is_reserved":false,"is_disabled":false,"rental_uris":{"android":"levelo://app?vid=8663b10c-1e24-428c-bec4-66fabeba84de","ios":"levelo://app?vid=8663b10c-1e24-428c-bec4-66fabeba84de"},"vehicle_type_id":"4","last_reported":1745943177,"current_range_meters":12400,"station_id":"","pricing_plan_id":"cebpf4jnsgd1na2vs0mg"},{"bike_id":"4041a354-aa53-400a-9b07-141ef82dcae7","system_id":"levelo_inurba_marseille","lat":43.30212,"lon":5.39469,"is_reserved":false,"is_disabled":false,"rental_uris":{"android":"levelo://app?vid=4041a354-aa53-400a-9b07-141ef82dcae7","ios":"levelo://app?vid=4041a354-aa53-400a-9b07-141ef82dcae7"},"vehicle_type_id":"4","last_reported":1745943177,"current_range_meters":12000,"station_id":"ce4bh0p2rcd13ifvqd70","pricing_plan_id":"cebpf4jnsgd1na2vs0mg"},{"bike_id":"f6afadf8-e6ff-4c7a-8692-5caf68fd0b71","system_id":"levelo_inurba_marseille","lat":43.2293,"lon":5.35362,"is_reserved":false,"is_disabled":true,"rental_uris":{"android":"levelo://app?vid=f6afadf8-e6ff-4c7a-8692-5caf68fd0b71","ios":"levelo://app?vid=f6afadf8-e6ff-4c7a-8692-5caf68fd0b71"},"vehicle_type_id":"4","last_reported":1745943177,"current_range_meters":12000,"station_id":"cpo3532slgdg3j2ikp40","pricing_plan_id":"cebpf4jnsgd1na2vs0mg"},{"bike_id":"fe0c4d1a-9874-47df-b868-a5e70081d8ce","system_id":"levelo_inurba_marseille","lat":43.22935,"lon":5.3539,"is_reserved":false,"is_disabled":false,"rental_uris":{"android":"levelo://app?vid=fe0c4d1a-9874-47df-b868-a5e70081d8ce","ios":"levelo://app?vid=fe0c4d1a-9874-47df-b868-a5e70081d8ce"},"vehicle_type_id":"4","last_reported":1745943177,"current_range_meters":12000,"station_id":"cpo3532slgdg3j2ikp40","pricing_plan_id":"cebpf4jnsgd1na2vs0mg"},{"bike_id":"da372aef-ef78-4026-9938-0ec42a94a9e1","system_id":"levelo_inurba_marseille","lat":43.29899,"lon":5.3813,"is_reserved":false,"is_disabled":false,"rental_uris":{"android":"levelo://app?vid=da372aef-ef78-4026-9938-0ec42a94a9e1","ios":"levelo://app?vid=da372aef-ef78-4026-9938-0ec42a94a9e1"},"vehicle_type_id":"4","last_reported":1745943177,"current_range_meters":12000,"station_id":"ce4bgj12rcd13ifvqbc0","pricing_plan_id":"cebpf4jnsgd1na2vs0mg"},{"bike_id":"77c59250-8359-4942-8c07-a9c82964e824","system_id":"levelo_inurba_marseille","lat":43.28469,"lon":5.35893,"is_reserved":false,"is_disabled":true,"rental_uris":{"android":"levelo://app?vid=77c59250-8359-4942-8c07-a9c82964e824","ios":"levelo://app?vid=77c59250-8359-4942-8c07-a9c82964e824"},"vehicle_type_id":"4","last_reported":1745943177,"current_range_meters":12400,"station_id":"ce4bhah2rcd13ifvqei0","pricing_plan_id":"cebpf4jnsgd1na2vs0mg"},{"bike_id":"726f15c7-21f6-46be-a1a9-b8aec4db26f9","system_id":"levelo_inurba_marseille","lat":43.25589,"lon":5.38244,"is_reserved":false,"is_disabled":false,"rental_uris":{"android":"levelo://app?vid=726f15c7-21f6-46be-a1a9-b8aec4db26f9","ios":"levelo://app?vid=726f15c7-21f6-46be-a1a9-b8aec4db26f9"},"vehicle_type_id":"4","last_reported":1745943177,"current_range_meters":12400,"station_id":"ce4bhih2rcd13ifvqfs0","pricing_plan_id":"cebpf4jnsgd1na2vs0mg"},{"bike_id":"780cce11-83a8-412b-9ac5-56a550403116","system_id":"levelo_inurba_marseille","lat":43.26555,"lon":5.37303,"is_reserved":false,"is_disabled":false,"rental_uris":{"android":"levelo://app?vid=780cce11-83a8-412b-9ac5-56a550403116","ios":"levelo://app?vid=780cce11-83a8-412b-9ac5-56a550403116"},"vehicle_type_id":"4","last_reported":1745943177,"current_range_meters":12400,"station_id":"ce4bhg12rcd13ifvqf70","pricing_plan_id":"cebpf4jnsgd1na2vs0mg"},{"bike_id":"3a72a7e4-cbc8-471f-99d3-4a5eeeeb67a2","system_id":"levelo_inurba_marseille","lat":43.29789,"lon":5.39349,"is_reserved":false,"is_disabled":false,"rental_uris":{"android":"levelo://app?vid=3a72a7e4-cbc8-471f-99d3-4a5eeeeb67a2","ios":"levelo://app?vid=3a72a7e4-cbc8-471f-99d3-4a5eeeeb67a2"},"vehicle_type_id":"4","last_reported":1745943177,"current_range_meters":12400,"station_id":"chh1huq6cuj3fo74tm60","pricing_plan_id":"cebpf4jnsgd1na2vs0mg"},{"bike_id":"06b23fcf-d155-46c0-acd2-5b59645454ea","system_id":"levelo_inurba_marseille","lat":43.28486,"lon":5.38439,"is_reserved":false,"is_disabled":true,"rental_uris":{"android":"levelo://app?vid=06b23fcf-d155-46c0-acd2-5b59645454ea","ios":"levelo://app?vid=06b23fcf-d155-46c0-acd2-5b59645454ea"},"vehicle_type_id":"4","last_reported":1745943177,"current_range_meters":12800,"station_id":"ce4bh512rcd13ifvqe3g","pricing_plan_id":"cebpf4jnsgd1na2vs0mg"},{"bike_id":"24874d25-6733-4544-ad71-9df2fa772748","system_id":"levelo_inurba_marseille","lat":43.2861,"lon":5.35106,"is_reserved":false,"is_disabled":false,"rental_uris":{"android":"levelo://app?vid=24874d25-6733-4544-ad71-9df2fa772748","ios":"levelo://app?vid=24874d25-6733-4544-ad71-9df2fa772748"},"vehicle_type_id":"4","last_reported":1745943177,"current_range_meters":12800,"station_id":"ce4bhch2rcd13ifvqeug","pricing_plan_id":"cebpf4jnsgd1na2vs0mg"},{"bike_id":"15986514-71dd-4d97-95f6-9805916c5049","system_id":"levelo_inurba_marseille","lat":43.33798,"lon":5.37428,"is_reserved":false,"is_disabled":false,"rental_uris":{"android":"levelo://app?vid=15986514-71dd-4d97-95f6-9805916c5049","ios":"levelo://app?vid=15986514-71dd-4d97-95f6-9805916c5049"},"vehicle_type_id":"4","last_reported":1745943177,"current_range_meters":12800,"station_id":"","pricing_plan_id":"cebpf4jnsgd1na2vs0mg"},{"bike_id":"489415b8-9254-45c1-b00c-e7554d56755c","system_id":"levelo_inurba_marseille","lat":43.245238,"lon":5.412171,"is_reserved":false,"is_disabled":false,"rental_uris":{"android":"levelo://app?vid=489415b8-9254-45c1-b00c-e7554d56755c","ios":"levelo://app?vid=489415b8-9254-45c1-b00c-e7554d56755c"},"vehicle_type_id":"4","last_reported":1745943177,"current_range_meters":13600,"station_id":"","pricing_plan_id":"cebpf4jnsgd1na2vs0mg"},{"bike_id":"2d303286-1748-405f-b5c7-c9d6c2ec111c","system_id":"levelo_inurba_marseille","lat":43.243959,"lon":5.370457,"is_reserved":false,"is_disabled":false,"rental_uris":{"android":"levelo://app?vid=2d303286-1748-405f-b5c7-c9d6c2ec111c","ios":"levelo://app?vid=2d303286-1748-405f-b5c7-c9d6c2ec111c"},"vehicle_type_id":"4","last_reported":1745943177,"current_range_meters":13600,"station_id":"ce4bhhh2rcd13ifvqfk0","pricing_plan_id":"cebpf4jnsgd1na2vs0mg"},{"bike_id":"e27c9434-7cad-426a-accf-7de8131c5123","system_id":"levelo_inurba_marseille","lat":43.28623,"lon":5.35099,"is_reserved":false,"is_disabled":false,"rental_uris":{"android":"levelo://app?vid=e27c9434-7cad-426a-accf-7de8131c5123","ios":"levelo://app?vid=e27c9434-7cad-426a-accf-7de8131c5123"},"vehicle_type_id":"4","last_reported":1745943177,"current_range_meters":13600,"station_id":"ce4bhch2rcd13ifvqeug","pricing_plan_id":"cebpf4jnsgd1na2vs0mg"},{"bike_id":"cc672fa2-11c0-49cb-b529-5958640e8fa2","system_id":"levelo_inurba_marseille","lat":43.25725,"lon":5.41108,"is_reserved":false,"is_disabled":false,"rental_uris":{"android":"levelo://app?vid=cc672fa2-11c0-49cb-b529-5958640e8fa2","ios":"levelo://app?vid=cc672fa2-11c0-49cb-b529-5958640e8fa2"},"vehicle_type_id":"4","last_reported":1745943177,"current_range_meters":13600,"station_id":"ce4bhkp2rcd13ifvqgd0","pricing_plan_id":"cebpf4jnsgd1na2vs0mg"},{"bike_id":"071a671b-fb53-468b-ba8f-96ef79b57233","system_id":"levelo_inurba_marseille","lat":43.3235,"lon":5.36727,"is_reserved":false,"is_disabled":false,"rental_uris":{"android":"levelo://app?vid=071a671b-fb53-468b-ba8f-96ef79b57233","ios":"levelo://app?vid=071a671b-fb53-468b-ba8f-96ef79b57233"},"vehicle_type_id":"4","last_reported":1745943177,"current_range_meters":13600,"station_id":"ce4bhsh2rcd13ifvqi2g","pricing_plan_id":"cebpf4jnsgd1na2vs0mg"},{"bike_id":"6491d966-0961-4856-9edb-6f2e78a41f3a","system_id":"levelo_inurba_marseille","lat":43.33028,"lon":5.39044,"is_reserved":false,"is_disabled":false,"rental_uris":{"android":"levelo://app?vid=6491d966-0961-4856-9edb-6f2e78a41f3a","ios":"levelo://app?vid=6491d966-0961-4856-9edb-6f2e78a41f3a"},"vehicle_type_id":"4","last_reported":1745943177,"current_range_meters":13600,"station_id":"ce4bhr92rcd13ifvqhrg","pricing_plan_id":"cebpf4jnsgd1na2vs0mg"},{"bike_id":"c90ec160-214a-4a4a-af59-fe03704aa436","system_id":"levelo_inurba_marseille","lat":43.29913,"lon":5.38155,"is_reserved":false,"is_disabled":false,"rental_uris":{"android":"levelo://app?vid=c90ec160-214a-4a4a-af59-fe03704aa436","ios":"levelo://app?vid=c90ec160-214a-4a4a-af59-fe03704aa436"},"vehicle_type_id":"4","last_reported":1745943177,"current_range_meters":14000,"station_id":"ce4bgj12rcd13ifvqbc0","pricing_plan_id":"cebpf4jnsgd1na2vs0mg"},{"bike_id":"b6abee5a-9feb-4555-9185-501ceab5ed12","system_id":"levelo_inurba_marseille","lat":43.27976,"lon":5.41659,"is_reserved":false,"is_disabled":false,"rental_uris":{"android":"levelo://app?vid=b6abee5a-9feb-4555-9185-501ceab5ed12","ios":"levelo://app?vid=b6abee5a-9feb-4555-9185-501ceab5ed12"},"vehicle_type_id":"4","last_reported":1745943177,"current_range_meters":14000,"station_id":"ce4bho12rcd13ifvqh1g","pricing_plan_id":"cebpf4jnsgd1na2vs0mg"},{"bike_id":"8a459f56-05a2-444a-8585-112184bf789c","system_id":"levelo_inurba_marseille","lat":43.30308,"lon":5.39194,"is_reserved":false,"is_disabled":false,"rental_uris":{"android":"levelo://app?vid=8a459f56-05a2-444a-8585-112184bf789c","ios":"levelo://app?vid=8a459f56-05a2-444a-8585-112184bf789c"},"vehicle_type_id":"4","last_reported":1745943177,"current_range_meters":16000,"station_id":"ce4bgkh2rcd13ifvqbk0","pricing_plan_id":"cebpf4jnsgd1na2vs0mg"},{"bike_id":"28a604ef-98c1-4aff-ab31-a10d3a8eae96","system_id":"levelo_inurba_marseille","lat":43.29527,"lon":5.37464,"is_reserved":false,"is_disabled":true,"rental_uris":{"android":"levelo://app?vid=28a604ef-98c1-4aff-ab31-a10d3a8eae96","ios":"levelo://app?vid=28a604ef-98c1-4aff-ab31-a10d3a8eae96"},"vehicle_type_id":"4","last_reported":1745943177,"current_range_meters":14000,"station_id":"ce4bgkp2rcd13ifvqbmg","pricing_plan_id":"cebpf4jnsgd1na2vs0mg"},{"bike_id":"dec64bba-3051-48fa-9d00-0fe1430126c1","system_id":"levelo_inurba_marseille","lat":43.28673,"lon":5.38654,"is_reserved":false,"is_disabled":false,"rental_uris":{"android":"levelo://app?vid=dec64bba-3051-48fa-9d00-0fe1430126c1","ios":"levelo://app?vid=dec64bba-3051-48fa-9d00-0fe1430126c1"},"vehicle_type_id":"4","last_reported":1745943177,"current_range_meters":14400,"station_id":"ce4bh492rcd13ifvqdug","pricing_plan_id":"cebpf4jnsgd1na2vs0mg"},{"bike_id":"5e4838f0-2626-4df3-a60f-458b4371cc04","system_id":"levelo_inurba_marseille","lat":43.31274,"lon":5.40177,"is_reserved":false,"is_disabled":false,"rental_uris":{"android":"levelo://app?vid=5e4838f0-2626-4df3-a60f-458b4371cc04","ios":"levelo://app?vid=5e4838f0-2626-4df3-a60f-458b4371cc04"},"vehicle_type_id":"4","last_reported":1745943177,"current_range_meters":14400,"station_id":"ce4bh092rcd13ifvqd30","pricing_plan_id":"cebpf4jnsgd1na2vs0mg"},{"bike_id":"eaccf65c-a8d3-4d49-9a53-1a125432922c","system_id":"levelo_inurba_marseille","lat":43.28857,"lon":5.35859,"is_reserved":false,"is_disabled":false,"rental_uris":{"android":"levelo://app?vid=eaccf65c-a8d3-4d49-9a53-1a125432922c","ios":"levelo://app?vid=eaccf65c-a8d3-4d49-9a53-1a125432922c"},"vehicle_type_id":"4","last_reported":1745943177,"current_range_meters":14400,"station_id":"ce4bhb12rcd13ifvqem0","pricing_plan_id":"cebpf4jnsgd1na2vs0mg"},{"bike_id":"ddf42e2f-5ba3-456f-b6b9-71a4fb220f7c","system_id":"levelo_inurba_marseille","lat":43.2175,"lon":5.34603,"is_reserved":false,"is_disabled":false,"rental_uris":{"android":"levelo://app?vid=ddf42e2f-5ba3-456f-b6b9-71a4fb220f7c","ios":"levelo://app?vid=ddf42e2f-5ba3-456f-b6b9-71a4fb220f7c"},"vehicle_type_id":"4","last_reported":1745943177,"current_range_meters":14400,"station_id":"","pricing_plan_id":"cebpf4jnsgd1na2vs0mg"},{"bike_id":"5b69ebdf-e55e-40e1-93b7-04c10b716507","system_id":"levelo_inurba_marseille","lat":43.24394,"lon":5.37056,"is_reserved":false,"is_disabled":false,"rental_uris":{"android":"levelo://app?vid=5b69ebdf-e55e-40e1-93b7-04c10b716507","ios":"levelo://app?vid=5b69ebdf-e55e-40e1-93b7-04c10b716507"},"vehicle_type_id":"4","last_reported":1745943177,"current_range_meters":14400,"station_id":"ce4bhhh2rcd13ifvqfk0","pricing_plan_id":"cebpf4jnsgd1na2vs0mg"},{"bike_id":"1c062491-d73c-4401-b53e-c034c94cd88b","system_id":"levelo_inurba_marseille","lat":43.30796,"lon":5.38162,"is_reserved":false,"is_disabled":false,"rental_uris":{"android":"levelo://app?vid=1c062491-d73c-4401-b53e-c034c94cd88b","ios":"levelo://app?vid=1c062491-d73c-4401-b53e-c034c94cd88b"},"vehicle_type_id":"4","last_reported":1745943177,"current_range_meters":14000,"station_id":"ce4bgt12rcd13ifvqce0","pricing_plan_id":"cebpf4jnsgd1na2vs0mg"},{"bike_id":"acb987e1-64fe-46f5-898a-e0a889967a2d","system_id":"levelo_inurba_marseille","lat":43.28411,"lon":5.34989,"is_reserved":false,"is_disabled":false,"rental_uris":{"android":"levelo://app?vid=acb987e1-64fe-46f5-898a-e0a889967a2d","ios":"levelo://app?vid=acb987e1-64fe-46f5-898a-e0a889967a2d"},"vehicle_type_id":"4","last_reported":1745943177,"current_range_meters":14400,"station_id":"ce4bhbh2rcd13ifvqepg","pricing_plan_id":"cebpf4jnsgd1na2vs0mg"},{"bike_id":"954288f9-5c8d-4dcb-a25c-22001d9115d8","system_id":"levelo_inurba_marseille","lat":43.24549,"lon":5.39521,"is_reserved":false,"is_disabled":false,"rental_uris":{"android":"levelo://app?vid=954288f9-5c8d-4dcb-a25c-22001d9115d8","ios":"levelo://app?vid=954288f9-5c8d-4dcb-a25c-22001d9115d8"},"vehicle_type_id":"4","last_reported":1745943177,"current_range_meters":14400,"station_id":"ce4bhlp2rcd13ifvqgjg","pricing_plan_id":"cebpf4jnsgd1na2vs0mg"},{"bike_id":"3a9bd96a-1d84-454e-b55b-a4ef583e3749","system_id":"levelo_inurba_marseille","lat":43.26704,"lon":5.38257,"is_reserved":false,"is_disabled":true,"rental_uris":{"android":"levelo://app?vid=3a9bd96a-1d84-454e-b55b-a4ef583e3749","ios":"levelo://app?vid=3a9bd96a-1d84-454e-b55b-a4ef583e3749"},"vehicle_type_id":"4","last_reported":1745943177,"current_range_meters":14400,"station_id":"ce4bhg92rcd13ifvqf90","pricing_plan_id":"cebpf4jnsgd1na2vs0mg"},{"bike_id":"1cb3da76-f497-49e4-a8a6-5a0629444d60","system_id":"levelo_inurba_marseille","lat":43.29959,"lon":5.36711,"is_reserved":false,"is_disabled":false,"rental_uris":{"android":"levelo://app?vid=1cb3da76-f497-49e4-a8a6-5a0629444d60","ios":"levelo://app?vid=1cb3da76-f497-49e4-a8a6-5a0629444d60"},"vehicle_type_id":"4","last_reported":1745943177,"current_range_meters":14800,"station_id":"","pricing_plan_id":"cebpf4jnsgd1na2vs0mg"},{"bike_id":"05091a91-fc03-470c-9db3-f828e73a95c9","system_id":"levelo_inurba_marseille","lat":43.29265,"lon":5.40877,"is_reserved":false,"is_disabled":false,"rental_uris":{"android":"levelo://app?vid=05091a91-fc03-470c-9db3-f828e73a95c9","ios":"levelo://app?vid=05091a91-fc03-470c-9db3-f828e73a95c9"},"vehicle_type_id":"4","last_reported":1745943177,"current_range_meters":14800,"station_id":"ce4bh192rcd13ifvqdc0","pricing_plan_id":"cebpf4jnsgd1na2vs0mg"},{"bike_id":"11d5d43a-e812-47f7-b832-2e1a60e860f7","system_id":"levelo_inurba_marseille","lat":43.27386,"lon":5.36277,"is_reserved":false,"is_disabled":false,"rental_uris":{"android":"levelo://app?vid=11d5d43a-e812-47f7-b832-2e1a60e860f7","ios":"levelo://app?vid=11d5d43a-e812-47f7-b832-2e1a60e860f7"},"vehicle_type_id":"4","last_reported":1745943177,"current_range_meters":14800,"station_id":"ce4bhbh2rcd13ifvqeo0","pricing_plan_id":"cebpf4jnsgd1na2vs0mg"},{"bike_id":"91419b51-a87b-438c-9e3a-9cc8bd0db318","system_id":"levelo_inurba_marseille","lat":43.32088,"lon":5.36848,"is_reserved":false,"is_disabled":false,"rental_uris":{"android":"levelo://app?vid=91419b51-a87b-438c-9e3a-9cc8bd0db318","ios":"levelo://app?vid=91419b51-a87b-438c-9e3a-9cc8bd0db318"},"vehicle_type_id":"4","last_reported":1745943177,"current_range_meters":15200,"station_id":"","pricing_plan_id":"cebpf4jnsgd1na2vs0mg"},{"bike_id":"0accb378-fc0e-4661-8944-f3dcbac51347","system_id":"levelo_inurba_marseille","lat":43.21751,"lon":5.34599,"is_reserved":false,"is_disabled":false,"rental_uris":{"android":"levelo://app?vid=0accb378-fc0e-4661-8944-f3dcbac51347","ios":"levelo://app?vid=0accb378-fc0e-4661-8944-f3dcbac51347"},"vehicle_type_id":"4","last_reported":1745943177,"current_range_meters":15200,"station_id":"","pricing_plan_id":"cebpf4jnsgd1na2vs0mg"},{"bike_id":"ef765e78-c9c3-4e41-a9cc-82c24902819f","system_id":"levelo_inurba_marseille","lat":43.29199,"lon":5.35814,"is_reserved":false,"is_disabled":false,"rental_uris":{"android":"levelo://app?vid=ef765e78-c9c3-4e41-a9cc-82c24902819f","ios":"levelo://app?vid=ef765e78-c9c3-4e41-a9cc-82c24902819f"},"vehicle_type_id":"4","last_reported":1745943177,"current_range_meters":14800,"station_id":"ce4bhb12rcd13ifvqel0","pricing_plan_id":"cebpf4jnsgd1na2vs0mg"},{"bike_id":"6a58353e-291d-4b35-bc29-dfc9dd68db07","system_id":"levelo_inurba_marseille","lat":43.29726,"lon":5.36486,"is_reserved":false,"is_disabled":false,"rental_uris":{"android":"levelo://app?vid=6a58353e-291d-4b35-bc29-dfc9dd68db07","ios":"levelo://app?vid=6a58353e-291d-4b35-bc29-dfc9dd68db07"},"vehicle_type_id":"4","last_reported":1745943177,"current_range_meters":16000,"station_id":"","pricing_plan_id":"cebpf4jnsgd1na2vs0mg"},{"bike_id":"a8680f62-8914-4b56-9e78-2865e46ef62c","system_id":"levelo_inurba_marseille","lat":43.3014,"lon":5.39871,"is_reserved":false,"is_disabled":true,"rental_uris":{"android":"levelo://app?vid=a8680f62-8914-4b56-9e78-2865e46ef62c","ios":"levelo://app?vid=a8680f62-8914-4b56-9e78-2865e46ef62c"},"vehicle_type_id":"4","last_reported":1745943177,"current_range_meters":16000,"station_id":"ce4bh0h2rcd13ifvqd40","pricing_plan_id":"cebpf4jnsgd1na2vs0mg"},{"bike_id":"4022097a-7c88-4f5e-93a0-45c376a117c3","system_id":"levelo_inurba_marseille","lat":43.3081,"lon":5.43522,"is_reserved":false,"is_disabled":false,"rental_uris":{"android":"levelo://app?vid=4022097a-7c88-4f5e-93a0-45c376a117c3","ios":"levelo://app?vid=4022097a-7c88-4f5e-93a0-45c376a117c3"},"vehicle_type_id":"4","last_reported":1745943177,"current_range_meters":15200,"station_id":"ce4bhph2rcd13ifvqheg","pricing_plan_id":"cebpf4jnsgd1na2vs0mg"},{"bike_id":"24878184-890a-48d3-b83b-192b1de8f2c2","system_id":"levelo_inurba_marseille","lat":43.24661,"lon":5.3816,"is_reserved":false,"is_disabled":false,"rental_uris":{"android":"levelo://app?vid=24878184-890a-48d3-b83b-192b1de8f2c2","ios":"levelo://app?vid=24878184-890a-48d3-b83b-192b1de8f2c2"},"vehicle_type_id":"4","last_reported":1745943177,"current_range_meters":16400,"station_id":"ce4bhih2rcd13ifvqfr0","pricing_plan_id":"cebpf4jnsgd1na2vs0mg"},{"bike_id":"e86d5800-28cc-4ee7-9747-9aba927bedfd","system_id":"levelo_inurba_marseille","lat":43.27829,"lon":5.40786,"is_reserved":false,"is_disabled":false,"rental_uris":{"android":"levelo://app?vid=e86d5800-28cc-4ee7-9747-9aba927bedfd","ios":"levelo://app?vid=e86d5800-28cc-4ee7-9747-9aba927bedfd"},"vehicle_type_id":"4","last_reported":1745943177,"current_range_meters":16400,"station_id":"ce4bhnh2rcd13ifvqgtg","pricing_plan_id":"cebpf4jnsgd1na2vs0mg"},{"bike_id":"19bc52c3-74db-454f-9839-b056878a7608","system_id":"levelo_inurba_marseille","lat":43.26691,"lon":5.38283,"is_reserved":false,"is_disabled":true,"rental_uris":{"android":"levelo://app?vid=19bc52c3-74db-454f-9839-b056878a7608","ios":"levelo://app?vid=19bc52c3-74db-454f-9839-b056878a7608"},"vehicle_type_id":"4","last_reported":1745943177,"current_range_meters":16400,"station_id":"ce4bhg92rcd13ifvqf90","pricing_plan_id":"cebpf4jnsgd1na2vs0mg"},{"bike_id":"082b9684-3f56-40c9-8b09-07c1f9fcad8c","system_id":"levelo_inurba_marseille","lat":43.2762,"lon":5.36112,"is_reserved":false,"is_disabled":false,"rental_uris":{"android":"levelo://app?vid=082b9684-3f56-40c9-8b09-07c1f9fcad8c","ios":"levelo://app?vid=082b9684-3f56-40c9-8b09-07c1f9fcad8c"},"vehicle_type_id":"4","last_reported":1745943177,"current_range_meters":16400,"station_id":"ce4bgj92rcd13ifvqbe0","pricing_plan_id":"cebpf4jnsgd1na2vs0mg"},{"bike_id":"4958d449-c7d8-4d41-b08d-ff11ddaaee41","system_id":"levelo_inurba_marseille","lat":43.28274,"lon":5.350632,"is_reserved":false,"is_disabled":false,"rental_uris":{"android":"levelo://app?vid=4958d449-c7d8-4d41-b08d-ff11ddaaee41","ios":"levelo://app?vid=4958d449-c7d8-4d41-b08d-ff11ddaaee41"},"vehicle_type_id":"4","last_reported":1745943177,"current_range_meters":16400,"station_id":"ce4bhbp2rcd13ifvqerg","pricing_plan_id":"cebpf4jnsgd1na2vs0mg"},{"bike_id":"fc16ae4f-bcf2-4222-92a6-c8128641c88e","system_id":"levelo_inurba_marseille","lat":43.3236,"lon":5.36761,"is_reserved":false,"is_disabled":false,"rental_uris":{"android":"levelo://app?vid=fc16ae4f-bcf2-4222-92a6-c8128641c88e","ios":"levelo://app?vid=fc16ae4f-bcf2-4222-92a6-c8128641c88e"},"vehicle_type_id":"4","last_reported":1745943177,"current_range_meters":16400,"station_id":"ce4bhsh2rcd13ifvqi2g","pricing_plan_id":"cebpf4jnsgd1na2vs0mg"},{"bike_id":"4b52c573-05e9-47be-be05-7ab975c643a5","system_id":"levelo_inurba_marseille","lat":43.230667,"lon":5.354893,"is_reserved":false,"is_disabled":false,"rental_uris":{"android":"levelo://app?vid=4b52c573-05e9-47be-be05-7ab975c643a5","ios":"levelo://app?vid=4b52c573-05e9-47be-be05-7ab975c643a5"},"vehicle_type_id":"4","last_reported":1745943177,"current_range_meters":16400,"station_id":"cpo3342slgdg3j2ifvpg","pricing_plan_id":"cebpf4jnsgd1na2vs0mg"},{"bike_id":"6922331e-1fee-4fce-b36c-e27731d34e96","system_id":"levelo_inurba_marseille","lat":43.2572,"lon":5.41113,"is_reserved":false,"is_disabled":false,"rental_uris":{"android":"levelo://app?vid=6922331e-1fee-4fce-b36c-e27731d34e96","ios":"levelo://app?vid=6922331e-1fee-4fce-b36c-e27731d34e96"},"vehicle_type_id":"4","last_reported":1745943177,"current_range_meters":16400,"station_id":"ce4bhkp2rcd13ifvqgd0","pricing_plan_id":"cebpf4jnsgd1na2vs0mg"},{"bike_id":"2f2ee64f-49ef-489b-ae79-fba23835c12d","system_id":"levelo_inurba_marseille","lat":43.28622,"lon":5.35097,"is_reserved":false,"is_disabled":false,"rental_uris":{"android":"levelo://app?vid=2f2ee64f-49ef-489b-ae79-fba23835c12d","ios":"levelo://app?vid=2f2ee64f-49ef-489b-ae79-fba23835c12d"},"vehicle_type_id":"4","last_reported":1745943177,"current_range_meters":16800,"station_id":"ce4bhch2rcd13ifvqeug","pricing_plan_id":"cebpf4jnsgd1na2vs0mg"},{"bike_id":"12c1d4c8-ddf6-4e47-b21a-de4ec03500c6","system_id":"levelo_inurba_marseille","lat":43.23197,"lon":5.35554,"is_reserved":false,"is_disabled":false,"rental_uris":{"android":"levelo://app?vid=12c1d4c8-ddf6-4e47-b21a-de4ec03500c6","ios":"levelo://app?vid=12c1d4c8-ddf6-4e47-b21a-de4ec03500c6"},"vehicle_type_id":"4","last_reported":1745943177,"current_range_meters":16400,"station_id":"ce4bhu92rcd13ifvqi70","pricing_plan_id":"cebpf4jnsgd1na2vs0mg"},{"bike_id":"ac5bebcc-7db3-406b-a289-37feae9c0e98","system_id":"levelo_inurba_marseille","lat":43.29257,"lon":5.40903,"is_reserved":false,"is_disabled":false,"rental_uris":{"android":"levelo://app?vid=ac5bebcc-7db3-406b-a289-37feae9c0e98","ios":"levelo://app?vid=ac5bebcc-7db3-406b-a289-37feae9c0e98"},"vehicle_type_id":"4","last_reported":1745943177,"current_range_meters":16800,"station_id":"ce4bh192rcd13ifvqdc0","pricing_plan_id":"cebpf4jnsgd1na2vs0mg"},{"bike_id":"e961e720-845a-4c49-9c9a-684bc2419fe9","system_id":"levelo_inurba_marseille","lat":43.269577,"lon":5.386223,"is_reserved":false,"is_disabled":false,"rental_uris":{"android":"levelo://app?vid=e961e720-845a-4c49-9c9a-684bc2419fe9","ios":"levelo://app?vid=e961e720-845a-4c49-9c9a-684bc2419fe9"},"vehicle_type_id":"4","last_reported":1745943177,"current_range_meters":16400,"station_id":"ce4bhh92rcd13ifvqfh0","pricing_plan_id":"cebpf4jnsgd1na2vs0mg"},{"bike_id":"235b977d-489b-4080-958c-f3bd7d49ba03","system_id":"levelo_inurba_marseille","lat":43.28086,"lon":5.39653,"is_reserved":false,"is_disabled":false,"rental_uris":{"android":"levelo://app?vid=235b977d-489b-4080-958c-f3bd7d49ba03","ios":"levelo://app?vid=235b977d-489b-4080-958c-f3bd7d49ba03"},"vehicle_type_id":"4","last_reported":1745943177,"current_range_meters":17200,"station_id":"ce4bho12rcd13ifvqh2g","pricing_plan_id":"cebpf4jnsgd1na2vs0mg"},{"bike_id":"4fcd2ee6-f4ed-45d5-a91c-060ecd3ba673","system_id":"levelo_inurba_marseille","lat":43.26556,"lon":5.37284,"is_reserved":false,"is_disabled":false,"rental_uris":{"android":"levelo://app?vid=4fcd2ee6-f4ed-45d5-a91c-060ecd3ba673","ios":"levelo://app?vid=4fcd2ee6-f4ed-45d5-a91c-060ecd3ba673"},"vehicle_type_id":"4","last_reported":1745943177,"current_range_meters":17200,"station_id":"ce4bhg12rcd13ifvqf70","pricing_plan_id":"cebpf4jnsgd1na2vs0mg"},{"bike_id":"ada76a0d-a18c-4682-b6ad-0105f5731f0e","system_id":"levelo_inurba_marseille","lat":43.23961,"lon":5.36634,"is_reserved":false,"is_disabled":false,"rental_uris":{"android":"levelo://app?vid=ada76a0d-a18c-4682-b6ad-0105f5731f0e","ios":"levelo://app?vid=ada76a0d-a18c-4682-b6ad-0105f5731f0e"},"vehicle_type_id":"4","last_reported":1745943177,"current_range_meters":17200,"station_id":"ce4bhi12rcd13ifvqfp0","pricing_plan_id":"cebpf4jnsgd1na2vs0mg"},{"bike_id":"2318fc97-bb5d-4b10-9e6c-6326f99caaf5","system_id":"levelo_inurba_marseille","lat":43.27377,"lon":5.36257,"is_reserved":false,"is_disabled":false,"rental_uris":{"android":"levelo://app?vid=2318fc97-bb5d-4b10-9e6c-6326f99caaf5","ios":"levelo://app?vid=2318fc97-bb5d-4b10-9e6c-6326f99caaf5"},"vehicle_type_id":"4","last_reported":1745943177,"current_range_meters":17200,"station_id":"ce4bhbh2rcd13ifvqeo0","pricing_plan_id":"cebpf4jnsgd1na2vs0mg"},{"bike_id":"6a169abf-1300-4de6-9df8-f0c244509f77","system_id":"levelo_inurba_marseille","lat":43.21731,"lon":5.34655,"is_reserved":false,"is_disabled":false,"rental_uris":{"android":"levelo://app?vid=6a169abf-1300-4de6-9df8-f0c244509f77","ios":"levelo://app?vid=6a169abf-1300-4de6-9df8-f0c244509f77"},"vehicle_type_id":"4","last_reported":1745943177,"current_range_meters":17200,"station_id":"","pricing_plan_id":"cebpf4jnsgd1na2vs0mg"},{"bike_id":"e5e92a64-e709-4b1a-a9b1-cbffe85789ca","system_id":"levelo_inurba_marseille","lat":43.25527,"lon":5.38147,"is_reserved":false,"is_disabled":false,"rental_uris":{"android":"levelo://app?vid=e5e92a64-e709-4b1a-a9b1-cbffe85789ca","ios":"levelo://app?vid=e5e92a64-e709-4b1a-a9b1-cbffe85789ca"},"vehicle_type_id":"4","last_reported":1745943177,"current_range_meters":17200,"station_id":"","pricing_plan_id":"cebpf4jnsgd1na2vs0mg"},{"bike_id":"61978bd7-1cd6-4bee-b1bc-d79e64575465","system_id":"levelo_inurba_marseille","lat":43.30144,"lon":5.38071,"is_reserved":false,"is_disabled":false,"rental_uris":{"android":"levelo://app?vid=61978bd7-1cd6-4bee-b1bc-d79e64575465","ios":"levelo://app?vid=61978bd7-1cd6-4bee-b1bc-d79e64575465"},"vehicle_type_id":"4","last_reported":1745943177,"current_range_meters":18000,"station_id":"ce4bgjp2rcd13ifvqbh0","pricing_plan_id":"cebpf4jnsgd1na2vs0mg"},{"bike_id":"455dfde0-ee00-4454-8173-fd4da0f209e8","system_id":"levelo_inurba_marseille","lat":43.27368,"lon":5.36255,"is_reserved":false,"is_disabled":false,"rental_uris":{"android":"levelo://app?vid=455dfde0-ee00-4454-8173-fd4da0f209e8","ios":"levelo://app?vid=455dfde0-ee00-4454-8173-fd4da0f209e8"},"vehicle_type_id":"4","last_reported":1745943177,"current_range_meters":17600,"station_id":"ce4bhbh2rcd13ifvqeo0","pricing_plan_id":"cebpf4jnsgd1na2vs0mg"},{"bike_id":"58505bbd-07de-4b77-afe6-6ed045b4c50b","system_id":"levelo_inurba_marseille","lat":43.28268,"lon":5.35072,"is_reserved":false,"is_disabled":false,"rental_uris":{"android":"levelo://app?vid=58505bbd-07de-4b77-afe6-6ed045b4c50b","ios":"levelo://app?vid=58505bbd-07de-4b77-afe6-6ed045b4c50b"},"vehicle_type_id":"4","last_reported":1745943177,"current_range_meters":17600,"station_id":"ce4bhbp2rcd13ifvqerg","pricing_plan_id":"cebpf4jnsgd1na2vs0mg"},{"bike_id":"043d9a52-cf92-4481-a357-08030b51462c","system_id":"levelo_inurba_marseille","lat":43.286082,"lon":5.350898,"is_reserved":false,"is_disabled":false,"rental_uris":{"android":"levelo://app?vid=043d9a52-cf92-4481-a357-08030b51462c","ios":"levelo://app?vid=043d9a52-cf92-4481-a357-08030b51462c"},"vehicle_type_id":"4","last_reported":1745943177,"current_range_meters":17600,"station_id":"ce4bhch2rcd13ifvqeug","pricing_plan_id":"cebpf4jnsgd1na2vs0mg"},{"bike_id":"6be58d3d-4e62-4232-95c9-41328dcb3526","system_id":"levelo_inurba_marseille","lat":43.25498,"lon":5.37649,"is_reserved":false,"is_disabled":false,"rental_uris":{"android":"levelo://app?vid=6be58d3d-4e62-4232-95c9-41328dcb3526","ios":"levelo://app?vid=6be58d3d-4e62-4232-95c9-41328dcb3526"},"vehicle_type_id":"4","last_reported":1745943177,"current_range_meters":17600,"station_id":"ce4bhh12rcd13ifvqff0","pricing_plan_id":"cebpf4jnsgd1na2vs0mg"},{"bike_id":"4678f98c-9605-485e-9f52-d38650b7e3f9","system_id":"levelo_inurba_marseille","lat":43.32472,"lon":5.36587,"is_reserved":false,"is_disabled":false,"rental_uris":{"android":"levelo://app?vid=4678f98c-9605-485e-9f52-d38650b7e3f9","ios":"levelo://app?vid=4678f98c-9605-485e-9f52-d38650b7e3f9"},"vehicle_type_id":"4","last_reported":1745943177,"current_range_meters":17600,"station_id":"ce4bhs12rcd13ifvqhvg","pricing_plan_id":"cebpf4jnsgd1na2vs0mg"},{"bike_id":"ef17fbf3-37f0-4577-830f-4cbd77aad8ef","system_id":"levelo_inurba_marseille","lat":43.284108,"lon":5.349916,"is_reserved":false,"is_disabled":false,"rental_uris":{"android":"levelo://app?vid=ef17fbf3-37f0-4577-830f-4cbd77aad8ef","ios":"levelo://app?vid=ef17fbf3-37f0-4577-830f-4cbd77aad8ef"},"vehicle_type_id":"4","last_reported":1745943177,"current_range_meters":17600,"station_id":"ce4bhbh2rcd13ifvqepg","pricing_plan_id":"cebpf4jnsgd1na2vs0mg"},{"bike_id":"13270fb3-286c-4b24-b4da-5836bda19035","system_id":"levelo_inurba_marseille","lat":43.28401,"lon":5.34967,"is_reserved":false,"is_disabled":false,"rental_uris":{"android":"levelo://app?vid=13270fb3-286c-4b24-b4da-5836bda19035","ios":"levelo://app?vid=13270fb3-286c-4b24-b4da-5836bda19035"},"vehicle_type_id":"4","last_reported":1745943177,"current_range_meters":17600,"station_id":"ce4bhbh2rcd13ifvqepg","pricing_plan_id":"cebpf4jnsgd1na2vs0mg"},{"bike_id":"0c205c3e-d197-4ea9-9595-c98abe003315","system_id":"levelo_inurba_marseille","lat":43.28857,"lon":5.35848,"is_reserved":false,"is_disabled":false,"rental_uris":{"android":"levelo://app?vid=0c205c3e-d197-4ea9-9595-c98abe003315","ios":"levelo://app?vid=0c205c3e-d197-4ea9-9595-c98abe003315"},"vehicle_type_id":"4","last_reported":1745943177,"current_range_meters":18000,"station_id":"ce4bhb12rcd13ifvqem0","pricing_plan_id":"cebpf4jnsgd1na2vs0mg"},{"bike_id":"4284d4a1-3f10-41e9-9514-d4a9dff4fb69","system_id":"levelo_inurba_marseille","lat":43.27376,"lon":5.36254,"is_reserved":false,"is_disabled":false,"rental_uris":{"android":"levelo://app?vid=4284d4a1-3f10-41e9-9514-d4a9dff4fb69","ios":"levelo://app?vid=4284d4a1-3f10-41e9-9514-d4a9dff4fb69"},"vehicle_type_id":"4","last_reported":1745943177,"current_range_meters":18000,"station_id":"ce4bhbh2rcd13ifvqeo0","pricing_plan_id":"cebpf4jnsgd1na2vs0mg"},{"bike_id":"65857303-8b06-468e-aec5-bc9097ff8725","system_id":"levelo_inurba_marseille","lat":43.31155,"lon":5.39605,"is_reserved":false,"is_disabled":false,"rental_uris":{"android":"levelo://app?vid=65857303-8b06-468e-aec5-bc9097ff8725","ios":"levelo://app?vid=65857303-8b06-468e-aec5-bc9097ff8725"},"vehicle_type_id":"4","last_reported":1745943177,"current_range_meters":18000,"station_id":"ce4bgvp2rcd13ifvqcu0","pricing_plan_id":"cebpf4jnsgd1na2vs0mg"},{"bike_id":"7cb5cf69-00e5-4e8d-9279-54814f876b11","system_id":"levelo_inurba_marseille","lat":43.28159,"lon":5.42646,"is_reserved":false,"is_disabled":false,"rental_uris":{"android":"levelo://app?vid=7cb5cf69-00e5-4e8d-9279-54814f876b11","ios":"levelo://app?vid=7cb5cf69-00e5-4e8d-9279-54814f876b11"},"vehicle_type_id":"4","last_reported":1745943177,"current_range_meters":18000,"station_id":"ce4bhnh2rcd13ifvqgug","pricing_plan_id":"cebpf4jnsgd1na2vs0mg"},{"bike_id":"8ee40db6-9676-4cf5-9d93-743d487c4e3f","system_id":"levelo_inurba_marseille","lat":43.29258,"lon":5.38442,"is_reserved":false,"is_disabled":false,"rental_uris":{"android":"levelo://app?vid=8ee40db6-9676-4cf5-9d93-743d487c4e3f","ios":"levelo://app?vid=8ee40db6-9676-4cf5-9d93-743d487c4e3f"},"vehicle_type_id":"4","last_reported":1745943177,"current_range_meters":18000,"station_id":"ce4bh692rcd13ifvqea0","pricing_plan_id":"cebpf4jnsgd1na2vs0mg"},{"bike_id":"fce2c520-92d3-4d18-810b-8d643fc15a1a","system_id":"levelo_inurba_marseille","lat":43.23068,"lon":5.35492,"is_reserved":false,"is_disabled":false,"rental_uris":{"android":"levelo://app?vid=fce2c520-92d3-4d18-810b-8d643fc15a1a","ios":"levelo://app?vid=fce2c520-92d3-4d18-810b-8d643fc15a1a"},"vehicle_type_id":"4","last_reported":1745943177,"current_range_meters":18000,"station_id":"cpo3342slgdg3j2ifvpg","pricing_plan_id":"cebpf4jnsgd1na2vs0mg"},{"bike_id":"11b191f3-0eac-4ed9-a63a-f0d4071bf3f0","system_id":"levelo_inurba_marseille","lat":43.28152,"lon":5.42643,"is_reserved":false,"is_disabled":false,"rental_uris":{"android":"levelo://app?vid=11b191f3-0eac-4ed9-a63a-f0d4071bf3f0","ios":"levelo://app?vid=11b191f3-0eac-4ed9-a63a-f0d4071bf3f0"},"vehicle_type_id":"4","last_reported":1745943177,"current_range_meters":18800,"station_id":"ce4bhnh2rcd13ifvqgug","pricing_plan_id":"cebpf4jnsgd1na2vs0mg"},{"bike_id":"8da98bbd-629e-4ebd-88e4-9a106575cb5b","system_id":"levelo_inurba_marseille","lat":43.28415,"lon":5.34983,"is_reserved":false,"is_disabled":false,"rental_uris":{"android":"levelo://app?vid=8da98bbd-629e-4ebd-88e4-9a106575cb5b","ios":"levelo://app?vid=8da98bbd-629e-4ebd-88e4-9a106575cb5b"},"vehicle_type_id":"4","last_reported":1745943177,"current_range_meters":18800,"station_id":"ce4bhbh2rcd13ifvqepg","pricing_plan_id":"cebpf4jnsgd1na2vs0mg"},{"bike_id":"44b00a8d-24c0-4c7b-b220-961ce5597fd2","system_id":"levelo_inurba_marseille","lat":43.28611,"lon":5.35128,"is_reserved":false,"is_disabled":false,"rental_uris":{"android":"levelo://app?vid=44b00a8d-24c0-4c7b-b220-961ce5597fd2","ios":"levelo://app?vid=44b00a8d-24c0-4c7b-b220-961ce5597fd2"},"vehicle_type_id":"4","last_reported":1745943177,"current_range_meters":18800,"station_id":"ce4bhch2rcd13ifvqeug","pricing_plan_id":"cebpf4jnsgd1na2vs0mg"},{"bike_id":"d790bba5-0573-4c47-8999-23421e069bf8","system_id":"levelo_inurba_marseille","lat":43.239731,"lon":5.366314,"is_reserved":false,"is_disabled":false,"rental_uris":{"android":"levelo://app?vid=d790bba5-0573-4c47-8999-23421e069bf8","ios":"levelo://app?vid=d790bba5-0573-4c47-8999-23421e069bf8"},"vehicle_type_id":"4","last_reported":1745943177,"current_range_meters":18800,"station_id":"ce4bhi12rcd13ifvqfp0","pricing_plan_id":"cebpf4jnsgd1na2vs0mg"},{"bike_id":"67810a79-5654-43a8-a950-34205614418e","system_id":"levelo_inurba_marseille","lat":43.296011,"lon":5.380965,"is_reserved":false,"is_disabled":false,"rental_uris":{"android":"levelo://app?vid=67810a79-5654-43a8-a950-34205614418e","ios":"levelo://app?vid=67810a79-5654-43a8-a950-34205614418e"},"vehicle_type_id":"4","last_reported":1745943177,"current_range_meters":18800,"station_id":"ce4bgjh2rcd13ifvqbg0","pricing_plan_id":"cebpf4jnsgd1na2vs0mg"},{"bike_id":"86c2979e-8cf6-48ed-bdb1-835ff11e3adc","system_id":"levelo_inurba_marseille","lat":43.25379,"lon":5.4185,"is_reserved":false,"is_disabled":false,"rental_uris":{"android":"levelo://app?vid=86c2979e-8cf6-48ed-bdb1-835ff11e3adc","ios":"levelo://app?vid=86c2979e-8cf6-48ed-bdb1-835ff11e3adc"},"vehicle_type_id":"4","last_reported":1745943177,"current_range_meters":18800,"station_id":"","pricing_plan_id":"cebpf4jnsgd1na2vs0mg"},{"bike_id":"a1ad0b11-fe5c-47fe-adf9-07fef8e45298","system_id":"levelo_inurba_marseille","lat":43.27632,"lon":5.36097,"is_reserved":false,"is_disabled":false,"rental_uris":{"android":"levelo://app?vid=a1ad0b11-fe5c-47fe-adf9-07fef8e45298","ios":"levelo://app?vid=a1ad0b11-fe5c-47fe-adf9-07fef8e45298"},"vehicle_type_id":"4","last_reported":1745943177,"current_range_meters":18800,"station_id":"ce4bgj92rcd13ifvqbe0","pricing_plan_id":"cebpf4jnsgd1na2vs0mg"},{"bike_id":"cd820e3d-14c0-4e15-81ca-6b310804f84f","system_id":"levelo_inurba_marseille","lat":43.28418,"lon":5.34993,"is_reserved":false,"is_disabled":false,"rental_uris":{"android":"levelo://app?vid=cd820e3d-14c0-4e15-81ca-6b310804f84f","ios":"levelo://app?vid=cd820e3d-14c0-4e15-81ca-6b310804f84f"},"vehicle_type_id":"4","last_reported":1745943177,"current_range_meters":18800,"station_id":"ce4bhbh2rcd13ifvqepg","pricing_plan_id":"cebpf4jnsgd1na2vs0mg"},{"bike_id":"64ce655b-d2b8-41dd-96a7-b2f77425541d","system_id":"levelo_inurba_marseille","lat":43.28438,"lon":5.34997,"is_reserved":false,"is_disabled":false,"rental_uris":{"android":"levelo://app?vid=64ce655b-d2b8-41dd-96a7-b2f77425541d","ios":"levelo://app?vid=64ce655b-d2b8-41dd-96a7-b2f77425541d"},"vehicle_type_id":"4","last_reported":1745943177,"current_range_meters":18800,"station_id":"ce4bhbh2rcd13ifvqepg","pricing_plan_id":"cebpf4jnsgd1na2vs0mg"},{"bike_id":"08ea29c0-f38a-4098-a6f5-bfed6fff60f3","system_id":"levelo_inurba_marseille","lat":43.29776,"lon":5.3934,"is_reserved":false,"is_disabled":false,"rental_uris":{"android":"levelo://app?vid=08ea29c0-f38a-4098-a6f5-bfed6fff60f3","ios":"levelo://app?vid=08ea29c0-f38a-4098-a6f5-bfed6fff60f3"},"vehicle_type_id":"4","last_reported":1745943177,"current_range_meters":18800,"station_id":"chh1huq6cuj3fo74tm60","pricing_plan_id":"cebpf4jnsgd1na2vs0mg"},{"bike_id":"404f8bb0-e61e-473d-84e3-ad9a44a44b05","system_id":"levelo_inurba_marseille","lat":43.28415,"lon":5.34995,"is_reserved":false,"is_disabled":false,"rental_uris":{"android":"levelo://app?vid=404f8bb0-e61e-473d-84e3-ad9a44a44b05","ios":"levelo://app?vid=404f8bb0-e61e-473d-84e3-ad9a44a44b05"},"vehicle_type_id":"4","last_reported":1745943177,"current_range_meters":18800,"station_id":"ce4bhbh2rcd13ifvqepg","pricing_plan_id":"cebpf4jnsgd1na2vs0mg"},{"bike_id":"ab598095-8b36-495e-b9da-558ea3356258","system_id":"levelo_inurba_marseille","lat":43.30923,"lon":5.40139,"is_reserved":false,"is_disabled":false,"rental_uris":{"android":"levelo://app?vid=ab598095-8b36-495e-b9da-558ea3356258","ios":"levelo://app?vid=ab598095-8b36-495e-b9da-558ea3356258"},"vehicle_type_id":"4","last_reported":1745943177,"current_range_meters":19200,"station_id":"ce4bgvp2rcd13ifvqct0","pricing_plan_id":"cebpf4jnsgd1na2vs0mg"},{"bike_id":"548d04b9-e156-45ef-81fd-e307712ce992","system_id":"levelo_inurba_marseille","lat":43.286638,"lon":5.363501,"is_reserved":false,"is_disabled":false,"rental_uris":{"android":"levelo://app?vid=548d04b9-e156-45ef-81fd-e307712ce992","ios":"levelo://app?vid=548d04b9-e156-45ef-81fd-e307712ce992"},"vehicle_type_id":"4","last_reported":1745943177,"current_range_meters":19200,"station_id":"ce4bhah2rcd13ifvqej0","pricing_plan_id":"cebpf4jnsgd1na2vs0mg"},{"bike_id":"0c3026f9-92b9-415a-927c-6137e985645e","system_id":"levelo_inurba_marseille","lat":43.25498,"lon":5.37672,"is_reserved":false,"is_disabled":false,"rental_uris":{"android":"levelo://app?vid=0c3026f9-92b9-415a-927c-6137e985645e","ios":"levelo://app?vid=0c3026f9-92b9-415a-927c-6137e985645e"},"vehicle_type_id":"4","last_reported":1745943177,"current_range_meters":19200,"station_id":"ce4bhh12rcd13ifvqff0","pricing_plan_id":"cebpf4jnsgd1na2vs0mg"},{"bike_id":"07b15f4e-a8ed-4e78-8bf3-b976d097513a","system_id":"levelo_inurba_marseille","lat":43.298527,"lon":5.362851,"is_reserved":false,"is_disabled":false,"rental_uris":{"android":"levelo://app?vid=07b15f4e-a8ed-4e78-8bf3-b976d097513a","ios":"levelo://app?vid=07b15f4e-a8ed-4e78-8bf3-b976d097513a"},"vehicle_type_id":"4","last_reported":1745943177,"current_range_meters":19200,"station_id":"ce4bgpp2rcd13ifvqc3g","pricing_plan_id":"cebpf4jnsgd1na2vs0mg"},{"bike_id":"d27a714b-1265-4250-9e5a-daa09d03adbf","system_id":"levelo_inurba_marseille","lat":43.30522,"lon":5.36708,"is_reserved":false,"is_disabled":false,"rental_uris":{"android":"levelo://app?vid=d27a714b-1265-4250-9e5a-daa09d03adbf","ios":"levelo://app?vid=d27a714b-1265-4250-9e5a-daa09d03adbf"},"vehicle_type_id":"4","last_reported":1745943177,"current_range_meters":19200,"station_id":"ce4bgrp2rcd13ifvqc9g","pricing_plan_id":"cebpf4jnsgd1na2vs0mg"},{"bike_id":"c7c6d96d-7d71-48d5-aac1-91a93d3bcc9e","system_id":"levelo_inurba_marseille","lat":43.297925,"lon":5.370771,"is_reserved":false,"is_disabled":false,"rental_uris":{"android":"levelo://app?vid=c7c6d96d-7d71-48d5-aac1-91a93d3bcc9e","ios":"levelo://app?vid=c7c6d96d-7d71-48d5-aac1-91a93d3bcc9e"},"vehicle_type_id":"4","last_reported":1745943177,"current_range_meters":19200,"station_id":"ce4bgop2rcd13ifvqc1g","pricing_plan_id":"cebpf4jnsgd1na2vs0mg"},{"bike_id":"637f17b1-a980-4bc5-993d-9a9de04fb5bf","system_id":"levelo_inurba_marseille","lat":43.31686,"lon":5.36957,"is_reserved":false,"is_disabled":false,"rental_uris":{"android":"levelo://app?vid=637f17b1-a980-4bc5-993d-9a9de04fb5bf","ios":"levelo://app?vid=637f17b1-a980-4bc5-993d-9a9de04fb5bf"},"vehicle_type_id":"4","last_reported":1745943177,"current_range_meters":19600,"station_id":"","pricing_plan_id":"cebpf4jnsgd1na2vs0mg"},{"bike_id":"a33a99f1-2499-4466-8a20-94e1db48d19e","system_id":"levelo_inurba_marseille","lat":43.28426,"lon":5.35009,"is_reserved":false,"is_disabled":false,"rental_uris":{"android":"levelo://app?vid=a33a99f1-2499-4466-8a20-94e1db48d19e","ios":"levelo://app?vid=a33a99f1-2499-4466-8a20-94e1db48d19e"},"vehicle_type_id":"4","last_reported":1745943177,"current_range_meters":19600,"station_id":"ce4bhbh2rcd13ifvqepg","pricing_plan_id":"cebpf4jnsgd1na2vs0mg"},{"bike_id":"bbbf1d9c-9f3b-4fa2-9a70-e4940289f1d0","system_id":"levelo_inurba_marseille","lat":43.29256,"lon":5.40919,"is_reserved":false,"is_disabled":false,"rental_uris":{"android":"levelo://app?vid=bbbf1d9c-9f3b-4fa2-9a70-e4940289f1d0","ios":"levelo://app?vid=bbbf1d9c-9f3b-4fa2-9a70-e4940289f1d0"},"vehicle_type_id":"4","last_reported":1745943177,"current_range_meters":19600,"station_id":"ce4bh192rcd13ifvqdc0","pricing_plan_id":"cebpf4jnsgd1na2vs0mg"},{"bike_id":"b4df43af-d789-4d31-b874-2fb7b7365bb7","system_id":"levelo_inurba_marseille","lat":43.30819,"lon":5.43565,"is_reserved":false,"is_disabled":false,"rental_uris":{"android":"levelo://app?vid=b4df43af-d789-4d31-b874-2fb7b7365bb7","ios":"levelo://app?vid=b4df43af-d789-4d31-b874-2fb7b7365bb7"},"vehicle_type_id":"4","last_reported":1745943177,"current_range_meters":20000,"station_id":"ce4bhph2rcd13ifvqheg","pricing_plan_id":"cebpf4jnsgd1na2vs0mg"},{"bike_id":"9a227342-43a0-47eb-b08d-34e4ab71fe7d","system_id":"levelo_inurba_marseille","lat":43.29438,"lon":5.397463,"is_reserved":false,"is_disabled":false,"rental_uris":{"android":"levelo://app?vid=9a227342-43a0-47eb-b08d-34e4ab71fe7d","ios":"levelo://app?vid=9a227342-43a0-47eb-b08d-34e4ab71fe7d"},"vehicle_type_id":"4","last_reported":1745943177,"current_range_meters":20000,"station_id":"ce4bh3h2rcd13ifvqdo0","pricing_plan_id":"cebpf4jnsgd1na2vs0mg"},{"bike_id":"7940bc1b-eaa7-4f49-a435-46dc9391f6a1","system_id":"levelo_inurba_marseille","lat":43.21197,"lon":5.35072,"is_reserved":false,"is_disabled":false,"rental_uris":{"android":"levelo://app?vid=7940bc1b-eaa7-4f49-a435-46dc9391f6a1","ios":"levelo://app?vid=7940bc1b-eaa7-4f49-a435-46dc9391f6a1"},"vehicle_type_id":"4","last_reported":1745943177,"current_range_meters":20400,"station_id":"st_cvj6sg6p6f1abm77japg","pricing_plan_id":"cebpf4jnsgd1na2vs0mg"},{"bike_id":"b2ca022a-4b38-4d3a-9700-14a54f259604","system_id":"levelo_inurba_marseille","lat":43.25494,"lon":5.37653,"is_reserved":false,"is_disabled":false,"rental_uris":{"android":"levelo://app?vid=b2ca022a-4b38-4d3a-9700-14a54f259604","ios":"levelo://app?vid=b2ca022a-4b38-4d3a-9700-14a54f259604"},"vehicle_type_id":"4","last_reported":1745943177,"current_range_meters":20400,"station_id":"ce4bhh12rcd13ifvqff0","pricing_plan_id":"cebpf4jnsgd1na2vs0mg"},{"bike_id":"853260e8-24d5-4f25-adbc-bb937e85dd33","system_id":"levelo_inurba_marseille","lat":43.30797,"lon":5.43526,"is_reserved":false,"is_disabled":false,"rental_uris":{"android":"levelo://app?vid=853260e8-24d5-4f25-adbc-bb937e85dd33","ios":"levelo://app?vid=853260e8-24d5-4f25-adbc-bb937e85dd33"},"vehicle_type_id":"4","last_reported":1745943177,"current_range_meters":20400,"station_id":"ce4bhph2rcd13ifvqheg","pricing_plan_id":"cebpf4jnsgd1na2vs0mg"},{"bike_id":"690f3f58-4666-4a60-a239-8527b9739406","system_id":"levelo_inurba_marseille","lat":43.28156,"lon":5.42643,"is_reserved":false,"is_disabled":false,"rental_uris":{"android":"levelo://app?vid=690f3f58-4666-4a60-a239-8527b9739406","ios":"levelo://app?vid=690f3f58-4666-4a60-a239-8527b9739406"},"vehicle_type_id":"4","last_reported":1745943177,"current_range_meters":20400,"station_id":"ce4bhnh2rcd13ifvqgug","pricing_plan_id":"cebpf4jnsgd1na2vs0mg"},{"bike_id":"f980562a-b3f3-440f-be98-3ec6972e0bf2","system_id":"levelo_inurba_marseille","lat":43.28407,"lon":5.37508,"is_reserved":false,"is_disabled":false,"rental_uris":{"android":"levelo://app?vid=f980562a-b3f3-440f-be98-3ec6972e0bf2","ios":"levelo://app?vid=f980562a-b3f3-440f-be98-3ec6972e0bf2"},"vehicle_type_id":"4","last_reported":1745943177,"current_range_meters":21600,"station_id":"ce4bh412rcd13ifvqds0","pricing_plan_id":"cebpf4jnsgd1na2vs0mg"},{"bike_id":"16492f12-ede6-4f1a-8760-eaf0a4a7c925","system_id":"levelo_inurba_marseille","lat":43.31489,"lon":5.37308,"is_reserved":false,"is_disabled":false,"rental_uris":{"android":"levelo://app?vid=16492f12-ede6-4f1a-8760-eaf0a4a7c925","ios":"levelo://app?vid=16492f12-ede6-4f1a-8760-eaf0a4a7c925"},"vehicle_type_id":"4","last_reported":1745943177,"current_range_meters":21600,"station_id":"ce4bgt12rcd13ifvqcd0","pricing_plan_id":"cebpf4jnsgd1na2vs0mg"},{"bike_id":"94b6d140-1ea1-49a3-819c-5466488e5656","system_id":"levelo_inurba_marseille","lat":43.28635,"lon":5.35101,"is_reserved":false,"is_disabled":false,"rental_uris":{"android":"levelo://app?vid=94b6d140-1ea1-49a3-819c-5466488e5656","ios":"levelo://app?vid=94b6d140-1ea1-49a3-819c-5466488e5656"},"vehicle_type_id":"4","last_reported":1745943177,"current_range_meters":22000,"station_id":"ce4bhch2rcd13ifvqeug","pricing_plan_id":"cebpf4jnsgd1na2vs0mg"},{"bike_id":"a48b60a3-cea2-4acc-93e7-9135fa9a2434","system_id":"levelo_inurba_marseille","lat":43.29254,"lon":5.40909,"is_reserved":false,"is_disabled":false,"rental_uris":{"android":"levelo://app?vid=a48b60a3-cea2-4acc-93e7-9135fa9a2434","ios":"levelo://app?vid=a48b60a3-cea2-4acc-93e7-9135fa9a2434"},"vehicle_type_id":"4","last_reported":1745943177,"current_range_meters":22000,"station_id":"ce4bh192rcd13ifvqdc0","pricing_plan_id":"cebpf4jnsgd1na2vs0mg"},{"bike_id":"30ed7323-dddd-49fe-b626-9f0555d02b2a","system_id":"levelo_inurba_marseille","lat":43.30534,"lon":5.38433,"is_reserved":false,"is_disabled":false,"rental_uris":{"android":"levelo://app?vid=30ed7323-dddd-49fe-b626-9f0555d02b2a","ios":"levelo://app?vid=30ed7323-dddd-49fe-b626-9f0555d02b2a"},"vehicle_type_id":"4","last_reported":1745943177,"current_range_meters":22000,"station_id":"ce4bgg92rcd13ifvqb30","pricing_plan_id":"cebpf4jnsgd1na2vs0mg"},{"bike_id":"54790522-5c3b-434e-b2b0-3dff5e0274c9","system_id":"levelo_inurba_marseille","lat":43.30807,"lon":5.43528,"is_reserved":false,"is_disabled":false,"rental_uris":{"android":"levelo://app?vid=54790522-5c3b-434e-b2b0-3dff5e0274c9","ios":"levelo://app?vid=54790522-5c3b-434e-b2b0-3dff5e0274c9"},"vehicle_type_id":"4","last_reported":1745943177,"current_range_meters":22000,"station_id":"ce4bhph2rcd13ifvqheg","pricing_plan_id":"cebpf4jnsgd1na2vs0mg"},{"bike_id":"0554e4d2-a70a-4b5e-9b40-22a8e71e6ae1","system_id":"levelo_inurba_marseille","lat":43.24649,"lon":5.38889,"is_reserved":false,"is_disabled":false,"rental_uris":{"android":"levelo://app?vid=0554e4d2-a70a-4b5e-9b40-22a8e71e6ae1","ios":"levelo://app?vid=0554e4d2-a70a-4b5e-9b40-22a8e71e6ae1"},"vehicle_type_id":"4","last_reported":1745943177,"current_range_meters":22000,"station_id":"ce4bhg12rcd13ifvqf60","pricing_plan_id":"cebpf4jnsgd1na2vs0mg"},{"bike_id":"b3f1e25c-b02e-4fd8-80ac-c18f83ce4136","system_id":"levelo_inurba_marseille","lat":43.29528,"lon":5.39041,"is_reserved":false,"is_disabled":false,"rental_uris":{"android":"levelo://app?vid=b3f1e25c-b02e-4fd8-80ac-c18f83ce4136","ios":"levelo://app?vid=b3f1e25c-b02e-4fd8-80ac-c18f83ce4136"},"vehicle_type_id":"4","last_reported":1745943177,"current_range_meters":22000,"station_id":"ce4bh3p2rcd13ifvqdp0","pricing_plan_id":"cebpf4jnsgd1na2vs0mg"},{"bike_id":"7633a5e0-958c-4199-9a48-d7c1888fe16b","system_id":"levelo_inurba_marseille","lat":43.31163,"lon":5.38724,"is_reserved":false,"is_disabled":false,"rental_uris":{"android":"levelo://app?vid=7633a5e0-958c-4199-9a48-d7c1888fe16b","ios":"levelo://app?vid=7633a5e0-958c-4199-9a48-d7c1888fe16b"},"vehicle_type_id":"4","last_reported":1745943177,"current_range_meters":22400,"station_id":"ce4bgv12rcd13ifvqcp0","pricing_plan_id":"cebpf4jnsgd1na2vs0mg"},{"bike_id":"e707fdec-0255-44a1-92ae-6ca8049ad227","system_id":"levelo_inurba_marseille","lat":43.30799,"lon":5.38165,"is_reserved":false,"is_disabled":false,"rental_uris":{"android":"levelo://app?vid=e707fdec-0255-44a1-92ae-6ca8049ad227","ios":"levelo://app?vid=e707fdec-0255-44a1-92ae-6ca8049ad227"},"vehicle_type_id":"4","last_reported":1745943177,"current_range_meters":21600,"station_id":"ce4bgt12rcd13ifvqce0","pricing_plan_id":"cebpf4jnsgd1na2vs0mg"},{"bike_id":"5deaf082-13f1-4cad-8b6c-94d692762ccb","system_id":"levelo_inurba_marseille","lat":43.295088,"lon":5.374551,"is_reserved":false,"is_disabled":false,"rental_uris":{"android":"levelo://app?vid=5deaf082-13f1-4cad-8b6c-94d692762ccb","ios":"levelo://app?vid=5deaf082-13f1-4cad-8b6c-94d692762ccb"},"vehicle_type_id":"4","last_reported":1745943177,"current_range_meters":22400,"station_id":"ce4bgg92rcd13ifvqb30","pricing_plan_id":"cebpf4jnsgd1na2vs0mg"},{"bike_id":"4bf6b69b-e08a-490c-9b07-d13072b37d89","system_id":"levelo_inurba_marseille","lat":43.24167,"lon":5.36419,"is_reserved":false,"is_disabled":false,"rental_uris":{"android":"levelo://app?vid=4bf6b69b-e08a-490c-9b07-d13072b37d89","ios":"levelo://app?vid=4bf6b69b-e08a-490c-9b07-d13072b37d89"},"vehicle_type_id":"4","last_reported":1745943177,"current_range_meters":22800,"station_id":"cpo36qri1sfpv3e86is0","pricing_plan_id":"cebpf4jnsgd1na2vs0mg"},{"bike_id":"d24668ae-aa9d-4e6e-9740-2a9d1fdd6c9c","system_id":"levelo_inurba_marseille","lat":43.30386,"lon":5.3694,"is_reserved":false,"is_disabled":false,"rental_uris":{"android":"levelo://app?vid=d24668ae-aa9d-4e6e-9740-2a9d1fdd6c9c","ios":"levelo://app?vid=d24668ae-aa9d-4e6e-9740-2a9d1fdd6c9c"},"vehicle_type_id":"4","last_reported":1745943177,"current_range_meters":22800,"station_id":"","pricing_plan_id":"cebpf4jnsgd1na2vs0mg"},{"bike_id":"9a6d1a0d-0520-4c44-b0a9-74ddbe754418","system_id":"levelo_inurba_marseille","lat":43.27097,"lon":5.406948,"is_reserved":false,"is_disabled":false,"rental_uris":{"android":"levelo://app?vid=9a6d1a0d-0520-4c44-b0a9-74ddbe754418","ios":"levelo://app?vid=9a6d1a0d-0520-4c44-b0a9-74ddbe754418"},"vehicle_type_id":"4","last_reported":1745943177,"current_range_meters":22800,"station_id":"","pricing_plan_id":"cebpf4jnsgd1na2vs0mg"},{"bike_id":"2fa4cd30-8d8f-4950-a566-92f588a0f025","system_id":"levelo_inurba_marseille","lat":43.29913,"lon":5.37485,"is_reserved":false,"is_disabled":false,"rental_uris":{"android":"levelo://app?vid=2fa4cd30-8d8f-4950-a566-92f588a0f025","ios":"levelo://app?vid=2fa4cd30-8d8f-4950-a566-92f588a0f025"},"vehicle_type_id":"4","last_reported":1745943177,"current_range_meters":22800,"station_id":"ce4bgjh2rcd13ifvqbg0","pricing_plan_id":"cebpf4jnsgd1na2vs0mg"},{"bike_id":"412d630c-25c9-4fe6-8c48-fda2c85ad64a","system_id":"levelo_inurba_marseille","lat":43.29612,"lon":5.37706,"is_reserved":false,"is_disabled":true,"rental_uris":{"android":"levelo://app?vid=412d630c-25c9-4fe6-8c48-fda2c85ad64a","ios":"levelo://app?vid=412d630c-25c9-4fe6-8c48-fda2c85ad64a"},"vehicle_type_id":"4","last_reported":1745943177,"current_range_meters":22800,"station_id":"ce4bgi92rcd13ifvqb90","pricing_plan_id":"cebpf4jnsgd1na2vs0mg"},{"bike_id":"ac07cebd-eeb0-4e8f-9cf4-800065f43d08","system_id":"levelo_inurba_marseille","lat":43.267792,"lon":5.383597,"is_reserved":false,"is_disabled":false,"rental_uris":{"android":"levelo://app?vid=ac07cebd-eeb0-4e8f-9cf4-800065f43d08","ios":"levelo://app?vid=ac07cebd-eeb0-4e8f-9cf4-800065f43d08"},"vehicle_type_id":"4","last_reported":1745943177,"current_range_meters":23200,"station_id":"","pricing_plan_id":"cebpf4jnsgd1na2vs0mg"},{"bike_id":"2f417bf1-7a41-4556-9744-dcfdb7e46877","system_id":"levelo_inurba_marseille","lat":43.27376,"lon":5.36242,"is_reserved":false,"is_disabled":false,"rental_uris":{"android":"levelo://app?vid=2f417bf1-7a41-4556-9744-dcfdb7e46877","ios":"levelo://app?vid=2f417bf1-7a41-4556-9744-dcfdb7e46877"},"vehicle_type_id":"4","last_reported":1745943177,"current_range_meters":23200,"station_id":"ce4bhbh2rcd13ifvqeo0","pricing_plan_id":"cebpf4jnsgd1na2vs0mg"},