{"last_updated":1765974229,"ttl":60,"version":"2.2","data":{"bikes":[{"bike_id":"f2d98c1e-e7f4-47cd-97f9-e547a0fbfe8c","system_id":"levelo_inurba_marseille","lat":43.337444,"lon":5.374475,"is_reserved":false,"is_disabled":false,"rental_uris":{"android":"levelo://app?vid=f2d98c1e-e7f4-47cd-97f9-e547a0fbfe8c","ios":"levelo://app?vid=f2d98c1e-e7f4-47cd-97f9-e547a0fbfe8c"},"vehicle_type_id":"4","last_reported":1765974229,"current_range_meters":0,"station_id":"","pricing_plan_id":"cebpf4jnsgd1na2vs0mg"},{"bike_id":"79246e22-e0f8-447e-9683-d28810059979","system_id":"levelo_inurba_marseille","lat":43.337444,"lon":5.374475,"is_reserved":false,"is_disabled":false,"rental_uris":{"android":"levelo://app?vid=79246e22-e0f8-447e-9683-d28810059979","ios":"levelo://app?vid=79246e22-e0f8-447e-9683-d28810059979"},"vehicle_type_id":"4","last_reported":1765974229,"current_range_meters":0,"station_id":"","pricing_plan_id":"cebpf4jnsgd1na2vs0mg"},{"bike_id":"6d901562-db38-445e-ac8c-ddafe7632b18","system_id":"levelo_inurba_marseille","lat":43.337444,"lon":5.374475,"is_reserved":false,"is_disabled":false,"rental_uris":{"android":"levelo://app?vid=6d901562-db38-445e-ac8c-ddafe7632b18","ios":"levelo://app?vid=6d901562-db38-445e-ac8c-ddafe7632b18"},"vehicle_type_id":"4","last_reported":1765974229,"current_range_meters":0,"station_id":"","pricing_plan_id":"cebpf4jnsgd1na2vs0mg"},{"bike_id":"1084df32-4622-4d83-89ce-d5dda7807608","system_id":"levelo_inurba_marseille","lat":43.337444,"lon":5.374475,"is_reserved":false,"is_disabled":false,"rental_uris":{"android":"levelo://app?vid=1084df32-4622-4d83-89ce-d5dda7807608","ios":"levelo://app?vid=1084df32-4622-4d83-89ce-d5dda7807608"},"vehicle_type_id":"4","last_reported":1765974229,"current_range_meters":0,"station_id":"","pricing_plan_id":"cebpf4jnsgd1na2vs0mg"},{"bike_id":"a14771ed-1e54-4c17-9637-eecc8f53fd78","system_id":"levelo_inurba_marseille","lat":43.337444,"lon":5.374475,"is_reserved":false,"is_disabled":false,"rental_uris":{"android":"levelo://app?vid=a14771ed-1e54-4c17-9637-eecc8f53fd78","ios":"levelo://app?vid=a14771ed-1e54-4c17-9637-eecc8f53fd78"},"vehicle_type_id":"4","last_reported":1765974229,"current_range_meters":0,"station_id":"","pricing_plan_id":"cebpf4jnsgd1na2vs0mg"},{"bike_id":"2c571466-b6f3-48e2-9381-e2a8258cc9c5","system_id":"levelo_inurba_marseille","lat":43.337444,"lon":5.374475,"is_reserved":false,"is_disabled":false,"rental_uris":{"android":"levelo://app?vid=2c571466-b6f3-48e2-9381-e2a8258cc9c5","ios":"levelo://app?vid=2c571466-b6f3-48e2-9381-e2a8258cc9c5"},"vehicle_type_id":"4","last_reported":1765974229,"current_range_meters":0,"station_id":"","pricing_plan_id":"cebpf4jnsgd1na2vs0mg"},{"bike_id":"b97f09df-27b0-4e3e-8af9-6ce53b67b655","system_id":"levelo_inurba_marseille","lat":43.337444,"lon":5.374475,"is_reserved":false,"is_disabled":false,"rental_uris":{"android":"levelo://app?vid=b97f09df-27b0-4e3e-8af9-6ce53b67b655","ios":"levelo://app?vid=b97f09df-27b0-4e3e-8af9-6ce53b67b655"},"vehicle_type_id":"4","last_reported":1765974229,"current_range_meters":0,"station_id":"","pricing_plan_id":"cebpf4jnsgd1na2vs0mg"},{"bike_id":"ecd40b02-c8df-40ea-83b2-4de975a1fcf9","system_id":"levelo_inurba_marseille","lat":43.337444,"lon":5.374475,"is_reserved":false,"is_disabled":false,"rental_uris":{"android":"levelo://app?vid=ecd40b02-c8df-40ea-83b2-4de975a1fcf9","ios":"levelo://app?vid=ecd40b02-c8df-40ea-83b2-4de975a1fcf9"},"vehicle_type_id":"4","last_reported":1765974229,"current_range_meters":0,"station_id":"","pricing_plan_id":"cebpf4jnsgd1na2vs0mg"},{"bike_id":"3ff21444-9aaa-45d4-89ca-50a292beebb6","system_id":"levelo_inurba_marseille","lat":43.337444,"lon":5.374475,"is_reserved":false,"is_disabled":false,"rental_uris":{"android":"levelo://app?vid=3ff21444-9aaa-45d4-89ca-50a292beebb6","ios":"levelo://app?vid=3ff21444-9aaa-45d4-89ca-50a292beebb6"},"vehicle_type_id":"4","last_reported":1765974229,"current_range_meters":0,"station_id":"","pricing_plan_id":"cebpf4jnsgd1na2vs0mg"},{"bike_id":"49b39c2d-9c7c-4a0b-8893-296b59d0dca0","system_id":"levelo_inurba_marseille","lat":43.337444,"lon":5.374475,"is_reserved":false,"is_disabled":false,"rental_uris":{"android":"levelo://app?vid=49b39c2d-9c7c-4a0b-8893-296b59d0dca0","ios":"levelo://app?vid=49b39c2d-9c7c-4a0b-8893-296b59d0dca0"},"vehicle_type_id":"4","last_reported":1765974229,"current_range_meters":0,"station_id":"","pricing_plan_id":"cebpf4jnsgd1na2vs0mg"},{"bike_id":"03fa6e54-c418-4aa3-8186-b385f8aaf0f6","system_id":"levelo_inurba_marseille","lat":43.337444,"lon":5.374475,"is_reserved":false,"is_disabled":false,"rental_uris":{"android":"levelo://app?vid=03fa6e54-c418-4aa3-8186-b385f8aaf0f6","ios":"levelo://app?vid=03fa6e54-c418-4aa3-8186-b385f8aaf0f6"},"vehicle_type_id":"4","last_reported":1765974229,"current_range_meters":0,"station_id":"","pricing_plan_id":"cebpf4jnsgd1na2vs0mg"},{"bike_id":"d6b85c59-8715-43f6-a464-c15ac96deea2","system_id":"levelo_inurba_marseille","lat":43.337444,"lon":5.374475,"is_reserved":false,"is_disabled":false,"rental_uris":{"android":"levelo://app?vid=d6b85c59-8715-43f6-a464-c15ac96deea2","ios":"levelo://app?vid=d6b85c59-8715-43f6-a464-c15ac96deea2"},"vehicle_type_id":"4","last_reported":1765974229,"current_range_meters":0,"station_id":"","pricing_plan_id":"cebpf4jnsgd1na2vs0mg"},{"bike_id":"0520fee5-d3ce-4160-ae71-75b37c11ff97","system_id":"levelo_inurba_marseille","lat":43.337444,"lon":5.374475,"is_reserved":false,"is_disabled":false,"rental_uris":{"android":"levelo://app?vid=0520fee5-d3ce-4160-ae71-75b37c11ff97","ios":"levelo://app?vid=0520fee5-d3ce-4160-ae71-75b37c11ff97"},"vehicle_type_id":"4","last_reported":1765974229,"current_range_meters":0,"station_id":"","pricing_plan_id":"cebpf4jnsgd1na2vs0mg"},{"bike_id":"b310cf75-1f14-4717-80ac-6353171a57f1","system_id":"levelo_inurba_marseille","lat":43.337444,"lon":5.374475,"is_reserved":false,"is_disabled":false,"rental_uris":{"android":"levelo://app?vid=b310cf75-1f14-4717-80ac-6353171a57f1","ios":"levelo://app?vid=b310cf75-1f14-4717-80ac-6353171a57f1"},"vehicle_type_id":"4","last_reported":1765974229,"current_range_meters":0,"station_id":"","pricing_plan_id":"cebpf4jnsgd1na2vs0mg"},{"bike_id":"0284348f-f731-476e-9f47-f20f67d5bdc1","system_id":"levelo_inurba_marseille","lat":43.337444,"lon":5.374475,"is_reserved":false,"is_disabled":false,"rental_uris":{"android":"levelo://app?vid=0284348f-f731-476e-9f47-f20f67d5bdc1","ios":"levelo://app?vid=0284348f-f731-476e-9f47-f20f67d5bdc1"},"vehicle_type_id":"4","last_reported":1765974229,"current_range_meters":0,"station_id":"","pricing_plan_id":"cebpf4jnsgd1na2vs0mg"},{"bike_id":"4b6cb2e8-03e3-4ff3-94f3-c309ebbd4b85","system_id":"levelo_inurba_marseille","lat":43.337444,"lon":5.374475,"is_reserved":false,"is_disabled":false,"rental_uris":{"android":"levelo://app?vid=4b6cb2e8-03e3-4ff3-94f3-c309ebbd4b85","ios":"levelo://app?vid=4b6cb2e8-03e3-4ff3-94f3-c309ebbd4b85"},"vehicle_type_id":"4","last_reported":1765974229,"current_range_meters":0,"station_id":"","pricing_plan_id":"cebpf4jnsgd1na2vs0mg"},{"bike_id":"d120968c-1436-46f1-ac9a-bb3a70936847","system_id":"levelo_inurba_marseille","lat":43.337444,"lon":5.374475,"is_reserved":false,"is_disabled":false,"rental_uris":{"android":"levelo://app?vid=d120968c-1436-46f1-ac9a-bb3a70936847","ios":"levelo://app?vid=d120968c-1436-46f1-ac9a-bb3a70936847"},"vehicle_type_id":"4","last_reported":1765974229,"current_range_meters":0,"station_id":"","pricing_plan_id":"cebpf4jnsgd1na2vs0mg"},{"bike_id":"3c4c37ec-dd35-46fb-858b-671aa4f02aad","system_id":"levelo_inurba_marseille","lat":43.337444,"lon":5.374475,"is_reserved":false,"is_disabled":false,"rental_uris":{"android":"levelo://app?vid=3c4c37ec-dd35-46fb-858b-671aa4f02aad","ios":"levelo://app?vid=3c4c37ec-dd35-46fb-858b-671aa4f02aad"},"vehicle_type_id":"4","last_reported":1765974229,"current_range_meters":0,"station_id":"","pricing_plan_id":"cebpf4jnsgd1na2vs0mg"},{"bike_id":"968a2298-b8d9-4021-ad18-9931f56e8661","system_id":"levelo_inurba_marseille","lat":43.337444,"lon":5.374475,"is_reserved":false,"is_disabled":false,"rental_uris":{"android":"levelo://app?vid=968a2298-b8d9-4021-ad18-9931f56e8661","ios":"levelo://app?vid=968a2298-b8d9-4021-ad18-9931f56e8661"},"vehicle_type_id":"4","last_reported":1765974229,"current_range_meters":0,"station_id":"","pricing_plan_id":"cebpf4jnsgd1na2vs0mg"},{"bike_id":"ab543073-81e2-4ebf-b9b7-ae19d02c53cc","system_id":"levelo_inurba_marseille","lat":43.337444,"lon":5.374475,"is_reserved":false,"is_disabled":false,"rental_uris":{"android":"levelo://app?vid=ab543073-81e2-4ebf-b9b7-ae19d02c53cc","ios":"levelo://app?vid=ab543073-81e2-4ebf-b9b7-ae19d02c53cc"},"vehicle_type_id":"4","last_reported":1765974229,"current_range_meters":0,"station_id":"","pricing_plan_id":"cebpf4jnsgd1na2vs0mg"},{"bike_id":"cbc56821-822b-4fe3-a41e-1c6b5c417bbf","system_id":"levelo_inurba_marseille","lat":43.337444,"lon":5.374475,"is_reserved":false,"is_disabled":false,"rental_uris":{"android":"levelo://app?vid=cbc56821-822b-4fe3-a41e-1c6b5c417bbf","ios":"levelo://app?vid=cbc56821-822b-4fe3-a41e-1c6b5c417bbf"},"vehicle_type_id":"4","last_reported":1765974229,"current_range_meters":0,"station_id":"","pricing_plan_id":"cebpf4jnsgd1na2vs0mg"},{"bike_id":"320e2e07-0349-426d-ac46-dce6d038433c","system_id":"levelo_inurba_marseille","lat":43.337444,"lon":5.374475,"is_reserved":false,"is_disabled":false,"rental_uris":{"android":"levelo://app?vid=320e2e07-0349-426d-ac46-dce6d038433c","ios":"levelo://app?vid=320e2e07-0349-426d-ac46-dce6d038433c"},"vehicle_type_id":"4","last_reported":1765974229,"current_range_meters":0,"station_id":"","pricing_plan_id":"cebpf4jnsgd1na2vs0mg"},{"bike_id":"a2c093fd-cf14-43e3-a4b4-d1a996c8eafc","system_id":"levelo_inurba_marseille","lat":43.337444,"lon":5.374475,"is_reserved":false,"is_disabled":false,"rental_uris":{"android":"levelo://app?vid=a2c093fd-cf14-43e3-a4b4-d1a996c8eafc","ios":"levelo://app?vid=a2c093fd-cf14-43e3-a4b4-d1a996c8eafc"},"vehicle_type_id":"4","last_reported":1765974229,"current_range_meters":0,"station_id":"","pricing_plan_id":"cebpf4jnsgd1na2vs0mg"},{"bike_id":"36474865-2a28-4708-a71a-dea49e992b18","system_id":"levelo_inurba_marseille","lat":43.337444,"lon":5.374475,"is_reserved":false,"is_disabled":false,"rental_uris":{"android":"levelo://app?vid=36474865-2a28-4708-a71a-dea49e992b18","ios":"levelo://app?vid=36474865-2a28-4708-a71a-dea49e992b18"},"vehicle_type_id":"4","last_reported":1765974229,"current_range_meters":0,"station_id":"","pricing_plan_id":"cebpf4jnsgd1na2vs0mg"},{"bike_id":"105e5644-fb19-4296-8477-bbfd957fa7ca","system_id":"levelo_inurba_marseille","lat":43.337444,"lon":5.374475,"is_reserved":false,"is_disabled":false,"rental_uris":{"android":"levelo://app?vid=105e5644-fb19-4296-8477-bbfd957fa7ca","ios":"levelo://app?vid=105e5644-fb19-4296-8477-bbfd957fa7ca"},"vehicle_type_id":"4","last_reported":1765974229,"current_range_meters":0,"station_id":"","pricing_plan_id":"cebpf4jnsgd1na2vs0mg"},{"bike_id":"e2562091-e9d5-4cbe-a135-a86ed858bdff","system_id":"levelo_inurba_marseille","lat":43.337444,"lon":5.374475,"is_reserved":false,"is_disabled":false,"rental_uris":{"android":"levelo://app?vid=e2562091-e9d5-4cbe-a135-a86ed858bdff","ios":"levelo://app?vid=e2562091-e9d5-4cbe-a135-a86ed858bdff"},"vehicle_type_id":"4","last_reported":1765974229,"current_range_meters":0,"station_id":"","pricing_plan_id":"cebpf4jnsgd1na2vs0mg"},{"bike_id":"0cd1418a-0c8f-4520-a069-6111383ef718","system_id":"levelo_inurba_marseille","lat":43.337444,"lon":5.374475,"is_reserved":false,"is_disabled":false,"rental_uris":{"android":"levelo://app?vid=0cd1418a-0c8f-4520-a069-6111383ef718","ios":"levelo://app?vid=0cd1418a-0c8f-4520-a069-6111383ef718"},"vehicle_type_id":"4","last_reported":1765974229,"current_range_meters":0,"station_id":"","pricing_plan_id":"cebpf4jnsgd1na2vs0mg"},{"bike_id":"faa7fac3-5386-4819-9d71-fd08c2ea22ac","system_id":"levelo_inurba_marseille","lat":43.337444,"lon":5.374475,"is_reserved":false,"is_disabled":false,"rental_uris":{"android":"levelo://app?vid=faa7fac3-5386-4819-9d71-fd08c2ea22ac","ios":"levelo://app?vid=faa7fac3-5386-4819-9d71-fd08c2ea22ac"},"vehicle_type_id":"4","last_reported":1765974229,"current_range_meters":0,"station_id":"","pricing_plan_id":"cebpf4jnsgd1na2vs0mg"},{"bike_id":"655f0349-020e-490f-b41f-9a4effcec106","system_id":"levelo_inurba_marseille","lat":43.337444,"lon":5.374475,"is_reserved":false,"is_disabled":false,"rental_uris":{"android":"levelo://app?vid=655f0349-020e-490f-b41f-9a4effcec106","ios":"levelo://app?vid=655f0349-020e-490f-b41f-9a4effcec106"},"vehicle_type_id":"4","last_reported":1765974229,"current_range_meters":0,"station_id":"","pricing_plan_id":"cebpf4jnsgd1na2vs0mg"},{"bike_id":"3fa14bc5-f3d3-41f8-b29f-6e64025be7c9","system_id":"levelo_inurba_marseille","lat":43.337444,"lon":5.374475,"is_reserved":false,"is_disabled":false,"rental_uris":{"android":"levelo://app?vid=3fa14bc5-f3d3-41f8-b29f-6e64025be7c9","ios":"levelo://app?vid=3fa14bc5-f3d3-41f8-b29f-6e64025be7c9"},"vehicle_type_id":"4","last_reported":1765974229,"current_range_meters":0,"station_id":"","pricing_plan_id":"cebpf4jnsgd1na2vs0mg"},{"bike_id":"285d693a-bb17-4116-bb28-1983b8e2fafd","system_id":"levelo_inurba_marseille","lat":43.337444,"lon":5.374475,"is_reserved":false,"is_disabled":false,"rental_uris":{"android":"levelo://app?vid=285d693a-bb17-4116-bb28-1983b8e2fafd","ios":"levelo://app?vid=285d693a-bb17-4116-bb28-1983b8e2fafd"},"vehicle_type_id":"4","last_reported":1765974229,"current_range_meters":0,"station_id":"","pricing_plan_id":"cebpf4jnsgd1na2vs0mg"},{"bike_id":"b369e008-92d4-4488-8dbc-4336fe4bca6b","system_id":"levelo_inurba_marseille","lat":43.337444,"lon":5.374475,"is_reserved":false,"is_disabled":false,"rental_uris":{"android":"levelo://app?vid=b369e008-92d4-4488-8dbc-4336fe4bca6b","ios":"levelo://app?vid=b369e008-92d4-4488-8dbc-4336fe4bca6b"},"vehicle_type_id":"4","last_reported":1765974229,"current_range_meters":0,"station_id":"","pricing_plan_id":"cebpf4jnsgd1na2vs0mg"},{"bike_id":"39b3fa20-f1da-4365-8dbb-fb5ad6731681","system_id":"levelo_inurba_marseille","lat":43.337444,"lon":5.374475,"is_reserved":false,"is_disabled":false,"rental_uris":{"android":"levelo://app?vid=39b3fa20-f1da-4365-8dbb-fb5ad6731681","ios":"levelo://app?vid=39b3fa20-f1da-4365-8dbb-fb5ad6731681"},"vehicle_type_id":"4","last_reported":1765974229,"current_range_meters":0,"station_id":"","pricing_plan_id":"cebpf4jnsgd1na2vs0mg"},{"bike_id":"ca481ed1-7f3d-4913-9b55-b153e859dc9f","system_id":"levelo_inurba_marseille","lat":43.337444,"lon":5.374475,"is_reserved":false,"is_disabled":false,"rental_uris":{"android":"levelo://app?vid=ca481ed1-7f3d-4913-9b55-b153e859dc9f","ios":"levelo://app?vid=ca481ed1-7f3d-4913-9b55-b153e859dc9f"},"vehicle_type_id":"4","last_reported":1765974229,"current_range_meters":0,"station_id":"","pricing_plan_id":"cebpf4jnsgd1na2vs0mg"},{"bike_id":"0417f35d-870e-422d-aa2a-a53f537e99a8","system_id":"levelo_inurba_marseille","lat":43.337444,"lon":5.374475,"is_reserved":false,"is_disabled":false,"rental_uris":{"android":"levelo://app?vid=0417f35d-870e-422d-aa2a-a53f537e99a8","ios":"levelo://app?vid=0417f35d-870e-422d-aa2a-a53f537e99a8"},"vehicle_type_id":"4","last_reported":1765974229,"current_range_meters":0,"station_id":"","pricing_plan_id":"cebpf4jnsgd1na2vs0mg"},{"bike_id":"c9aa299e-3092-4744-84f5-e64fa5f090b6","system_id":"levelo_inurba_marseille","lat":43.31088,"lon":5.42426,"is_reserved":false,"is_disabled":false,"rental_uris":{"android":"levelo://app?vid=c9aa299e-3092-4744-84f5-e64fa5f090b6","ios":"levelo://app?vid=c9aa299e-3092-4744-84f5-e64fa5f090b6"},"vehicle_type_id":"4","last_reported":1765974229,"current_range_meters":2800,"station_id":"ce4bhp92rcd13ifvqhag","pricing_plan_id":"cebpf4jnsgd1na2vs0mg"},{"bike_id":"9e615aa4-3a49-4587-9b91-a8c090b94eac","system_id":"levelo_inurba_marseille","lat":43.2949,"lon":5.43308,"is_reserved":false,"is_disabled":false,"rental_uris":{"android":"levelo://app?vid=9e615aa4-3a49-4587-9b91-a8c090b94eac","ios":"levelo://app?vid=9e615aa4-3a49-4587-9b91-a8c090b94eac"},"vehicle_type_id":"4","last_reported":1765974229,"current_range_meters":2800,"station_id":"st_d3j5ugp08ojc73fj9d10","pricing_plan_id":"cebpf4jnsgd1na2vs0mg"},{"bike_id":"1082b0f8-7cbe-4fb5-8d15-0427855dfe20","system_id":"levelo_inurba_marseille","lat":43.27826,"lon":5.39194,"is_reserved":false,"is_disabled":false,"rental_uris":{"android":"levelo://app?vid=1082b0f8-7cbe-4fb5-8d15-0427855dfe20","ios":"levelo://app?vid=1082b0f8-7cbe-4fb5-8d15-0427855dfe20"},"vehicle_type_id":"4","last_reported":1765974229,"current_range_meters":2800,"station_id":"ce4bhjp2rcd13ifvqga0","pricing_plan_id":"cebpf4jnsgd1na2vs0mg"},{"bike_id":"be244a8e-c044-4097-ba9e-5106a1764882","system_id":"levelo_inurba_marseille","lat":43.32489,"lon":5.38309,"is_reserved":false,"is_disabled":false,"rental_uris":{"android":"levelo://app?vid=be244a8e-c044-4097-ba9e-5106a1764882","ios":"levelo://app?vid=be244a8e-c044-4097-ba9e-5106a1764882"},"vehicle_type_id":"4","last_reported":1765974229,"current_range_meters":2800,"station_id":"st_d4asgbiv49dc73anf9m0","pricing_plan_id":"cebpf4jnsgd1na2vs0mg"},{"bike_id":"b784b7b6-a138-455e-b716-da00fd108781","system_id":"levelo_inurba_marseille","lat":43.211927,"lon":5.350784,"is_reserved":false,"is_disabled":false,"rental_uris":{"android":"levelo://app?vid=b784b7b6-a138-455e-b716-da00fd108781","ios":"levelo://app?vid=b784b7b6-a138-455e-b716-da00fd108781"},"vehicle_type_id":"4","last_reported":1765974229,"current_range_meters":2800,"station_id":"","pricing_plan_id":"cebpf4jnsgd1na2vs0mg"},{"bike_id":"e4422ba6-3f5b-43e9-8aed-929212d686e6","system_id":"levelo_inurba_marseille","lat":43.337444,"lon":5.374475,"is_reserved":false,"is_disabled":false,"rental_uris":{"android":"levelo://app?vid=e4422ba6-3f5b-43e9-8aed-929212d686e6","ios":"levelo://app?vid=e4422ba6-3f5b-43e9-8aed-929212d686e6"},"vehicle_type_id":"4","last_reported":1765974229,"current_range_meters":2800,"station_id":"","pricing_plan_id":"cebpf4jnsgd1na2vs0mg"},{"bike_id":"92ad034b-9911-4dda-bfa7-71b0ef508d47","system_id":"levelo_inurba_marseille","lat":43.30535,"lon":5.38419,"is_reserved":false,"is_disabled":false,"rental_uris":{"android":"levelo://app?vid=92ad034b-9911-4dda-bfa7-71b0ef508d47","ios":"levelo://app?vid=92ad034b-9911-4dda-bfa7-71b0ef508d47"},"vehicle_type_id":"4","last_reported":1765974229,"current_range_meters":2800,"station_id":"ce4bgg92rcd13ifvqb30","pricing_plan_id":"cebpf4jnsgd1na2vs0mg"},{"bike_id":"8a97b375-d7d6-448d-a2a2-8a3aa71a13a5","system_id":"levelo_inurba_marseille","lat":43.29605,"lon":5.38106,"is_reserved":false,"is_disabled":false,"rental_uris":{"android":"levelo://app?vid=8a97b375-d7d6-448d-a2a2-8a3aa71a13a5","ios":"levelo://app?vid=8a97b375-d7d6-448d-a2a2-8a3aa71a13a5"},"vehicle_type_id":"4","last_reported":1765974229,"current_range_meters":3200,"station_id":"ce4bgl12rcd13ifvqbo0","pricing_plan_id":"cebpf4jnsgd1na2vs0mg"},{"bike_id":"d5c6fa74-6555-4e9a-b747-1273f1992163","system_id":"levelo_inurba_marseille","lat":43.30114,"lon":5.36528,"is_reserved":false,"is_disabled":false,"rental_uris":{"android":"levelo://app?vid=d5c6fa74-6555-4e9a-b747-1273f1992163","ios":"levelo://app?vid=d5c6fa74-6555-4e9a-b747-1273f1992163"},"vehicle_type_id":"4","last_reported":1765974229,"current_range_meters":3200,"station_id":"","pricing_plan_id":"cebpf4jnsgd1na2vs0mg"},{"bike_id":"1260ea6d-8756-41e3-a351-58e24682caf5","system_id":"levelo_inurba_marseille","lat":43.29095,"lon":5.37828,"is_reserved":false,"is_disabled":false,"rental_uris":{"android":"levelo://app?vid=1260ea6d-8756-41e3-a351-58e24682caf5","ios":"levelo://app?vid=1260ea6d-8756-41e3-a351-58e24682caf5"},"vehicle_type_id":"4","last_reported":1765974229,"current_range_meters":3200,"station_id":"","pricing_plan_id":"cebpf4jnsgd1na2vs0mg"},{"bike_id":"44979455-72a6-48fd-9acd-93763e6cabc6","system_id":"levelo_inurba_marseille","lat":43.30804,"lon":5.38143,"is_reserved":false,"is_disabled":false,"rental_uris":{"android":"levelo://app?vid=44979455-72a6-48fd-9acd-93763e6cabc6","ios":"levelo://app?vid=44979455-72a6-48fd-9acd-93763e6cabc6"},"vehicle_type_id":"4","last_reported":1765974229,"current_range_meters":3200,"station_id":"ce4bgt12rcd13ifvqce0","pricing_plan_id":"cebpf4jnsgd1na2vs0mg"},{"bike_id":"aa079d4a-c800-4d68-9601-67783bd8451a","system_id":"levelo_inurba_marseille","lat":43.2512,"lon":5.40313,"is_reserved":false,"is_disabled":false,"rental_uris":{"android":"levelo://app?vid=aa079d4a-c800-4d68-9601-67783bd8451a","ios":"levelo://app?vid=aa079d4a-c800-4d68-9601-67783bd8451a"},"vehicle_type_id":"4","last_reported":1765974229,"current_range_meters":3200,"station_id":"ce4bhlh2rcd13ifvqgig","pricing_plan_id":"cebpf4jnsgd1na2vs0mg"},{"bike_id":"41960acf-95f2-480d-b747-26077e74fcb4","system_id":"levelo_inurba_marseille","lat":43.3107,"lon":5.38358,"is_reserved":false,"is_disabled":false,"rental_uris":{"android":"levelo://app?vid=41960acf-95f2-480d-b747-26077e74fcb4","ios":"levelo://app?vid=41960acf-95f2-480d-b747-26077e74fcb4"},"vehicle_type_id":"4","last_reported":1765974229,"current_range_meters":3200,"station_id":"ce4bgv92rcd13ifvqcr0","pricing_plan_id":"cebpf4jnsgd1na2vs0mg"},{"bike_id":"420d57c8-35cd-47bd-a7a7-e6883b41d596","system_id":"levelo_inurba_marseille","lat":43.30137,"lon":5.3878,"is_reserved":false,"is_disabled":false,"rental_uris":{"android":"levelo://app?vid=420d57c8-35cd-47bd-a7a7-e6883b41d596","ios":"levelo://app?vid=420d57c8-35cd-47bd-a7a7-e6883b41d596"},"vehicle_type_id":"4","last_reported":1765974229,"current_range_meters":4000,"station_id":"ce4bghh2rcd13ifvqb60","pricing_plan_id":"cebpf4jnsgd1na2vs0mg"},{"bike_id":"ab3bcde8-b7d6-4d7d-aa16-b3dfb86c3758","system_id":"levelo_inurba_marseille","lat":43.245357,"lon":5.400072,"is_reserved":false,"is_disabled":false,"rental_uris":{"android":"levelo://app?vid=ab3bcde8-b7d6-4d7d-aa16-b3dfb86c3758","ios":"levelo://app?vid=ab3bcde8-b7d6-4d7d-aa16-b3dfb86c3758"},"vehicle_type_id":"4","last_reported":1765974229,"current_range_meters":4000,"station_id":"","pricing_plan_id":"cebpf4jnsgd1na2vs0mg"},{"bike_id":"898c346d-529c-4e0f-8239-ceba441cdccd","system_id":"levelo_inurba_marseille","lat":43.316035,"lon":5.379218,"is_reserved":false,"is_disabled":false,"rental_uris":{"android":"levelo://app?vid=898c346d-529c-4e0f-8239-ceba441cdccd","ios":"levelo://app?vid=898c346d-529c-4e0f-8239-ceba441cdccd"},"vehicle_type_id":"4","last_reported":1765974229,"current_range_meters":4000,"station_id":"","pricing_plan_id":"cebpf4jnsgd1na2vs0mg"},{"bike_id":"bf8c8deb-8aef-4a9b-be78-a6c58dca1741","system_id":"levelo_inurba_marseille","lat":43.26185,"lon":5.37472,"is_reserved":false,"is_disabled":false,"rental_uris":{"android":"levelo://app?vid=bf8c8deb-8aef-4a9b-be78-a6c58dca1741","ios":"levelo://app?vid=bf8c8deb-8aef-4a9b-be78-a6c58dca1741"},"vehicle_type_id":"4","last_reported":1765974229,"current_range_meters":4000,"station_id":"ce4bhgp2rcd13ifvqfc0","pricing_plan_id":"cebpf4jnsgd1na2vs0mg"},{"bike_id":"acdedd53-f888-41b7-84b4-51b7cbd8e58e","system_id":"levelo_inurba_marseille","lat":43.23136,"lon":5.43729,"is_reserved":false,"is_disabled":false,"rental_uris":{"android":"levelo://app?vid=acdedd53-f888-41b7-84b4-51b7cbd8e58e","ios":"levelo://app?vid=acdedd53-f888-41b7-84b4-51b7cbd8e58e"},"vehicle_type_id":"4","last_reported":1765974229,"current_range_meters":4000,"station_id":"ce4bhmp2rcd13ifvqgog","pricing_plan_id":"cebpf4jnsgd1na2vs0mg"},{"bike_id":"84149141-570d-4122-88bc-d3ea2109d03e","system_id":"levelo_inurba_marseille","lat":43.26187,"lon":5.37454,"is_reserved":false,"is_disabled":false,"rental_uris":{"android":"levelo://app?vid=84149141-570d-4122-88bc-d3ea2109d03e","ios":"levelo://app?vid=84149141-570d-4122-88bc-d3ea2109d03e"},"vehicle_type_id":"4","last_reported":1765974229,"current_range_meters":4000,"station_id":"ce4bhgp2rcd13ifvqfc0","pricing_plan_id":"cebpf4jnsgd1na2vs0mg"},{"bike_id":"ef8eb51a-c77d-4d0a-9e40-cdfc31329d05","system_id":"levelo_inurba_marseille","lat":43.31055,"lon":5.37176,"is_reserved":false,"is_disabled":false,"rental_uris":{"android":"levelo://app?vid=ef8eb51a-c77d-4d0a-9e40-cdfc31329d05","ios":"levelo://app?vid=ef8eb51a-c77d-4d0a-9e40-cdfc31329d05"},"vehicle_type_id":"4","last_reported":1765974229,"current_range_meters":4000,"station_id":"st_d4kl2rp97mjs73e7tdfg","pricing_plan_id":"cebpf4jnsgd1na2vs0mg"},{"bike_id":"557e344b-e1af-41fd-a710-4ae525101413","system_id":"levelo_inurba_marseille","lat":43.29089,"lon":5.38121,"is_reserved":false,"is_disabled":false,"rental_uris":{"android":"levelo://app?vid=557e344b-e1af-41fd-a710-4ae525101413","ios":"levelo://app?vid=557e344b-e1af-41fd-a710-4ae525101413"},"vehicle_type_id":"4","last_reported":1765974229,"current_range_meters":4400,"station_id":"","pricing_plan_id":"cebpf4jnsgd1na2vs0mg"},{"bike_id":"e2802248-2866-45d9-a3e1-8b292c32efc9","system_id":"levelo_inurba_marseille","lat":43.26551,"lon":5.37285,"is_reserved":false,"is_disabled":false,"rental_uris":{"android":"levelo://app?vid=e2802248-2866-45d9-a3e1-8b292c32efc9","ios":"levelo://app?vid=e2802248-2866-45d9-a3e1-8b292c32efc9"},"vehicle_type_id":"4","last_reported":1765974229,"current_range_meters":4400,"station_id":"ce4bhg12rcd13ifvqf70","pricing_plan_id":"cebpf4jnsgd1na2vs0mg"},{"bike_id":"ce7d4a69-7dee-4ed8-9cbb-8cbe94173c6f","system_id":"levelo_inurba_marseille","lat":43.299182,"lon":5.374828,"is_reserved":false,"is_disabled":false,"rental_uris":{"android":"levelo://app?vid=ce7d4a69-7dee-4ed8-9cbb-8cbe94173c6f","ios":"levelo://app?vid=ce7d4a69-7dee-4ed8-9cbb-8cbe94173c6f"},"vehicle_type_id":"4","last_reported":1765974229,"current_range_meters":4400,"station_id":"ce4bgjh2rcd13ifvqbg0","pricing_plan_id":"cebpf4jnsgd1na2vs0mg"},{"bike_id":"a94a7d8b-5fd7-4d2d-b3cf-685853a616c9","system_id":"levelo_inurba_marseille","lat":43.25497,"lon":5.37651,"is_reserved":false,"is_disabled":false,"rental_uris":{"android":"levelo://app?vid=a94a7d8b-5fd7-4d2d-b3cf-685853a616c9","ios":"levelo://app?vid=a94a7d8b-5fd7-4d2d-b3cf-685853a616c9"},"vehicle_type_id":"4","last_reported":1765974229,"current_range_meters":4800,"station_id":"ce4bhh12rcd13ifvqff0","pricing_plan_id":"cebpf4jnsgd1na2vs0mg"},{"bike_id":"ba229c40-b0d2-495c-b34e-6c696574a3e6","system_id":"levelo_inurba_marseille","lat":43.29511,"lon":5.39405,"is_reserved":false,"is_disabled":false,"rental_uris":{"android":"levelo://app?vid=ba229c40-b0d2-495c-b34e-6c696574a3e6","ios":"levelo://app?vid=ba229c40-b0d2-495c-b34e-6c696574a3e6"},"vehicle_type_id":"4","last_reported":1765974229,"current_range_meters":4800,"station_id":"ce4bh292rcd13ifvqdf0","pricing_plan_id":"cebpf4jnsgd1na2vs0mg"},{"bike_id":"7dfb7220-5d28-4295-8aeb-6f59ec946933","system_id":"levelo_inurba_marseille","lat":43.31359,"lon":5.38489,"is_reserved":false,"is_disabled":false,"rental_uris":{"android":"levelo://app?vid=7dfb7220-5d28-4295-8aeb-6f59ec946933","ios":"levelo://app?vid=7dfb7220-5d28-4295-8aeb-6f59ec946933"},"vehicle_type_id":"4","last_reported":1765974229,"current_range_meters":4800,"station_id":"ce4bgt92rcd13ifvqcf0","pricing_plan_id":"cebpf4jnsgd1na2vs0mg"},{"bike_id":"c11ecd87-0591-4d09-ad34-b5958eb60029","system_id":"levelo_inurba_marseille","lat":43.29371,"lon":5.37852,"is_reserved":false,"is_disabled":false,"rental_uris":{"android":"levelo://app?vid=c11ecd87-0591-4d09-ad34-b5958eb60029","ios":"levelo://app?vid=c11ecd87-0591-4d09-ad34-b5958eb60029"},"vehicle_type_id":"4","last_reported":1765974229,"current_range_meters":4800,"station_id":"ce4bgjh2rcd13ifvqbf0","pricing_plan_id":"cebpf4jnsgd1na2vs0mg"},{"bike_id":"6097b702-86dd-44e0-8919-4c813095e471","system_id":"levelo_inurba_marseille","lat":43.24178,"lon":5.39716,"is_reserved":false,"is_disabled":false,"rental_uris":{"android":"levelo://app?vid=6097b702-86dd-44e0-8919-4c813095e471","ios":"levelo://app?vid=6097b702-86dd-44e0-8919-4c813095e471"},"vehicle_type_id":"4","last_reported":1765974229,"current_range_meters":4800,"station_id":"ce4bhn12rcd13ifvqgpg","pricing_plan_id":"cebpf4jnsgd1na2vs0mg"},{"bike_id":"d855d67c-f294-4cea-b232-dbf1651f0261","system_id":"levelo_inurba_marseille","lat":43.29574,"lon":5.37505,"is_reserved":false,"is_disabled":false,"rental_uris":{"android":"levelo://app?vid=d855d67c-f294-4cea-b232-dbf1651f0261","ios":"levelo://app?vid=d855d67c-f294-4cea-b232-dbf1651f0261"},"vehicle_type_id":"4","last_reported":1765974229,"current_range_meters":5600,"station_id":"ce4bgh92rcd13ifvqb50","pricing_plan_id":"cebpf4jnsgd1na2vs0mg"},{"bike_id":"accc61cd-a4ae-4b75-ae0e-e20d42fff3d6","system_id":"levelo_inurba_marseille","lat":43.30647,"lon":5.40091,"is_reserved":false,"is_disabled":false,"rental_uris":{"android":"levelo://app?vid=accc61cd-a4ae-4b75-ae0e-e20d42fff3d6","ios":"levelo://app?vid=accc61cd-a4ae-4b75-ae0e-e20d42fff3d6"},"vehicle_type_id":"4","last_reported":1765974229,"current_range_meters":5600,"station_id":"ce4bh112rcd13ifvqda0","pricing_plan_id":"cebpf4jnsgd1na2vs0mg"},{"bike_id":"7c8c0e85-d94d-44cc-8d60-6e89ad193680","system_id":"levelo_inurba_marseille","lat":43.21732,"lon":5.34628,"is_reserved":false,"is_disabled":false,"rental_uris":{"android":"levelo://app?vid=7c8c0e85-d94d-44cc-8d60-6e89ad193680","ios":"levelo://app?vid=7c8c0e85-d94d-44cc-8d60-6e89ad193680"},"vehicle_type_id":"4","last_reported":1765974229,"current_range_meters":5600,"station_id":"st_cvj6r9ubvosntc0bgbag","pricing_plan_id":"cebpf4jnsgd1na2vs0mg"},{"bike_id":"31604729-dce0-4afc-8bb0-4695990fe115","system_id":"levelo_inurba_marseille","lat":43.297104,"lon":5.376987,"is_reserved":false,"is_disabled":true,"rental_uris":{"android":"levelo://app?vid=31604729-dce0-4afc-8bb0-4695990fe115","ios":"levelo://app?vid=31604729-dce0-4afc-8bb0-4695990fe115"},"vehicle_type_id":"4","last_reported":1765974229,"current_range_meters":5600,"station_id":"","pricing_plan_id":"cebpf4jnsgd1na2vs0mg"},{"bike_id":"5e98569f-e376-4a85-9e61-f7c25f8baa4e","system_id":"levelo_inurba_marseille","lat":43.28063,"lon":5.39667,"is_reserved":false,"is_disabled":false,"rental_uris":{"android":"levelo://app?vid=5e98569f-e376-4a85-9e61-f7c25f8baa4e","ios":"levelo://app?vid=5e98569f-e376-4a85-9e61-f7c25f8baa4e"},"vehicle_type_id":"4","last_reported":1765974229,"current_range_meters":5600,"station_id":"ce4bho12rcd13ifvqh2g","pricing_plan_id":"cebpf4jnsgd1na2vs0mg"},{"bike_id":"546ec6f5-aed9-497c-945c-baedec8500ad","system_id":"levelo_inurba_marseille","lat":43.28615,"lon":5.35107,"is_reserved":false,"is_disabled":false,"rental_uris":{"android":"levelo://app?vid=546ec6f5-aed9-497c-945c-baedec8500ad","ios":"levelo://app?vid=546ec6f5-aed9-497c-945c-baedec8500ad"},"vehicle_type_id":"4","last_reported":1765974229,"current_range_meters":6000,"station_id":"ce4bhch2rcd13ifvqeug","pricing_plan_id":"cebpf4jnsgd1na2vs0mg"},{"bike_id":"1c7287a2-f8a6-4c24-a098-4972ee445a61","system_id":"levelo_inurba_marseille","lat":43.27185,"lon":5.40996,"is_reserved":false,"is_disabled":false,"rental_uris":{"android":"levelo://app?vid=1c7287a2-f8a6-4c24-a098-4972ee445a61","ios":"levelo://app?vid=1c7287a2-f8a6-4c24-a098-4972ee445a61"},"vehicle_type_id":"4","last_reported":1765974229,"current_range_meters":6000,"station_id":"ce4bhl12rcd13ifvqgf0","pricing_plan_id":"cebpf4jnsgd1na2vs0mg"},{"bike_id":"11dccb17-651c-4258-91c0-33e4901b7965","system_id":"levelo_inurba_marseille","lat":43.26551,"lon":5.37286,"is_reserved":false,"is_disabled":false,"rental_uris":{"android":"levelo://app?vid=11dccb17-651c-4258-91c0-33e4901b7965","ios":"levelo://app?vid=11dccb17-651c-4258-91c0-33e4901b7965"},"vehicle_type_id":"4","last_reported":1765974229,"current_range_meters":6000,"station_id":"ce4bhg12rcd13ifvqf70","pricing_plan_id":"cebpf4jnsgd1na2vs0mg"},{"bike_id":"282fc6e0-8a0c-4c89-8492-74ba86199ae2","system_id":"levelo_inurba_marseille","lat":43.26498,"lon":5.395323,"is_reserved":false,"is_disabled":false,"rental_uris":{"android":"levelo://app?vid=282fc6e0-8a0c-4c89-8492-74ba86199ae2","ios":"levelo://app?vid=282fc6e0-8a0c-4c89-8492-74ba86199ae2"},"vehicle_type_id":"4","last_reported":1765974229,"current_range_meters":6000,"station_id":"ce4bhi12rcd13ifvqfq0","pricing_plan_id":"cebpf4jnsgd1na2vs0mg"},{"bike_id":"9fe9a33e-bf47-47e7-82a7-5dbdeee94111","system_id":"levelo_inurba_marseille","lat":43.3053,"lon":5.38436,"is_reserved":false,"is_disabled":true,"rental_uris":{"android":"levelo://app?vid=9fe9a33e-bf47-47e7-82a7-5dbdeee94111","ios":"levelo://app?vid=9fe9a33e-bf47-47e7-82a7-5dbdeee94111"},"vehicle_type_id":"4","last_reported":1765974229,"current_range_meters":6000,"station_id":"ce4bgg92rcd13ifvqb30","pricing_plan_id":"cebpf4jnsgd1na2vs0mg"},{"bike_id":"a06b10a9-e611-4d37-833c-8b968daf947b","system_id":"levelo_inurba_marseille","lat":43.2894,"lon":5.36638,"is_reserved":false,"is_disabled":false,"rental_uris":{"android":"levelo://app?vid=a06b10a9-e611-4d37-833c-8b968daf947b","ios":"levelo://app?vid=a06b10a9-e611-4d37-833c-8b968daf947b"},"vehicle_type_id":"4","last_reported":1765974229,"current_range_meters":6400,"station_id":"ce4bhap2rcd13ifvqek0","pricing_plan_id":"cebpf4jnsgd1na2vs0mg"},{"bike_id":"d0883a29-4f1e-4556-adff-d8df904dfcd8","system_id":"levelo_inurba_marseille","lat":43.29674,"lon":5.37291,"is_reserved":false,"is_disabled":false,"rental_uris":{"android":"levelo://app?vid=d0883a29-4f1e-4556-adff-d8df904dfcd8","ios":"levelo://app?vid=d0883a29-4f1e-4556-adff-d8df904dfcd8"},"vehicle_type_id":"4","last_reported":1765974229,"current_range_meters":6400,"station_id":"ce4bgk12rcd13ifvqbj0","pricing_plan_id":"cebpf4jnsgd1na2vs0mg"},{"bike_id":"b582b211-6fef-4d57-a2c6-bf26fe19ba64","system_id":"levelo_inurba_marseille","lat":43.2511,"lon":5.4032,"is_reserved":false,"is_disabled":false,"rental_uris":{"android":"levelo://app?vid=b582b211-6fef-4d57-a2c6-bf26fe19ba64","ios":"levelo://app?vid=b582b211-6fef-4d57-a2c6-bf26fe19ba64"},"vehicle_type_id":"4","last_reported":1765974229,"current_range_meters":6400,"station_id":"ce4bhlh2rcd13ifvqgig","pricing_plan_id":"cebpf4jnsgd1na2vs0mg"},{"bike_id":"77c41e37-20d2-45ca-9e95-7c818f03c9fd","system_id":"levelo_inurba_marseille","lat":43.288549,"lon":5.358458,"is_reserved":false,"is_disabled":false,"rental_uris":{"android":"levelo://app?vid=77c41e37-20d2-45ca-9e95-7c818f03c9fd","ios":"levelo://app?vid=77c41e37-20d2-45ca-9e95-7c818f03c9fd"},"vehicle_type_id":"4","last_reported":1765974229,"current_range_meters":6400,"station_id":"ce4bhb12rcd13ifvqem0","pricing_plan_id":"cebpf4jnsgd1na2vs0mg"},{"bike_id":"59c28b83-dc82-436b-84e4-9d9b4e83ac24","system_id":"levelo_inurba_marseille","lat":43.31157,"lon":5.39368,"is_reserved":false,"is_disabled":false,"rental_uris":{"android":"levelo://app?vid=59c28b83-dc82-436b-84e4-9d9b4e83ac24","ios":"levelo://app?vid=59c28b83-dc82-436b-84e4-9d9b4e83ac24"},"vehicle_type_id":"4","last_reported":1765974229,"current_range_meters":6400,"station_id":"","pricing_plan_id":"cebpf4jnsgd1na2vs0mg"},{"bike_id":"57961473-1339-4cc9-bcaf-d32315a5113c","system_id":"levelo_inurba_marseille","lat":43.31988,"lon":5.381502,"is_reserved":false,"is_disabled":false,"rental_uris":{"android":"levelo://app?vid=57961473-1339-4cc9-bcaf-d32315a5113c","ios":"levelo://app?vid=57961473-1339-4cc9-bcaf-d32315a5113c"},"vehicle_type_id":"4","last_reported":1765974229,"current_range_meters":6400,"station_id":"ce4bhr12rcd13ifvqhpg","pricing_plan_id":"cebpf4jnsgd1na2vs0mg"},{"bike_id":"2f9376d7-12fe-4c40-8324-bca614558fe2","system_id":"levelo_inurba_marseille","lat":43.29299,"lon":5.37459,"is_reserved":false,"is_disabled":false,"rental_uris":{"android":"levelo://app?vid=2f9376d7-12fe-4c40-8324-bca614558fe2","ios":"levelo://app?vid=2f9376d7-12fe-4c40-8324-bca614558fe2"},"vehicle_type_id":"4","last_reported":1765974229,"current_range_meters":6400,"station_id":"ce4bgi12rcd13ifvqb70","pricing_plan_id":"cebpf4jnsgd1na2vs0mg"},{"bike_id":"2376b79d-a532-43a5-8627-13ae10fb7598","system_id":"levelo_inurba_marseille","lat":43.29775,"lon":5.39329,"is_reserved":false,"is_disabled":false,"rental_uris":{"android":"levelo://app?vid=2376b79d-a532-43a5-8627-13ae10fb7598","ios":"levelo://app?vid=2376b79d-a532-43a5-8627-13ae10fb7598"},"vehicle_type_id":"4","last_reported":1765974229,"current_range_meters":6800,"station_id":"chh1huq6cuj3fo74tm60","pricing_plan_id":"cebpf4jnsgd1na2vs0mg"},{"bike_id":"45b68d22-0f4f-4471-9637-9b5f29ec235d","system_id":"levelo_inurba_marseille","lat":43.2958,"lon":5.36736,"is_reserved":false,"is_disabled":false,"rental_uris":{"android":"levelo://app?vid=45b68d22-0f4f-4471-9637-9b5f29ec235d","ios":"levelo://app?vid=45b68d22-0f4f-4471-9637-9b5f29ec235d"},"vehicle_type_id":"4","last_reported":1765974229,"current_range_meters":6800,"station_id":"ce4bgph2rcd13ifvqc2g","pricing_plan_id":"cebpf4jnsgd1na2vs0mg"},{"bike_id":"38f599ed-ccb6-42ce-8742-47c8e0108f8a","system_id":"levelo_inurba_marseille","lat":43.30658,"lon":5.4006,"is_reserved":false,"is_disabled":false,"rental_uris":{"android":"levelo://app?vid=38f599ed-ccb6-42ce-8742-47c8e0108f8a","ios":"levelo://app?vid=38f599ed-ccb6-42ce-8742-47c8e0108f8a"},"vehicle_type_id":"4","last_reported":1765974229,"current_range_meters":6800,"station_id":"ce4bh112rcd13ifvqda0","pricing_plan_id":"cebpf4jnsgd1na2vs0mg"},{"bike_id":"a203987b-5a3b-47be-bc21-cd08d8221147","system_id":"levelo_inurba_marseille","lat":43.284207,"lon":5.34998,"is_reserved":false,"is_disabled":false,"rental_uris":{"android":"levelo://app?vid=a203987b-5a3b-47be-bc21-cd08d8221147","ios":"levelo://app?vid=a203987b-5a3b-47be-bc21-cd08d8221147"},"vehicle_type_id":"4","last_reported":1765974229,"current_range_meters":6800,"station_id":"","pricing_plan_id":"cebpf4jnsgd1na2vs0mg"},{"bike_id":"b792217e-0bf5-4dd0-9471-a2b678717e80","system_id":"levelo_inurba_marseille","lat":43.25099,"lon":5.40478,"is_reserved":false,"is_disabled":false,"rental_uris":{"android":"levelo://app?vid=b792217e-0bf5-4dd0-9471-a2b678717e80","ios":"levelo://app?vid=b792217e-0bf5-4dd0-9471-a2b678717e80"},"vehicle_type_id":"4","last_reported":1765974229,"current_range_meters":6800,"station_id":"","pricing_plan_id":"cebpf4jnsgd1na2vs0mg"},{"bike_id":"49de0afc-34f2-42fb-a384-63b112c4f5f1","system_id":"levelo_inurba_marseille","lat":43.25864,"lon":5.399,"is_reserved":false,"is_disabled":false,"rental_uris":{"android":"levelo://app?vid=49de0afc-34f2-42fb-a384-63b112c4f5f1","ios":"levelo://app?vid=49de0afc-34f2-42fb-a384-63b112c4f5f1"},"vehicle_type_id":"4","last_reported":1765974229,"current_range_meters":6800,"station_id":"ce4bhl92rcd13ifvqghg","pricing_plan_id":"cebpf4jnsgd1na2vs0mg"},{"bike_id":"710029eb-b939-45e0-8d20-0bac081556e2","system_id":"levelo_inurba_marseille","lat":43.23212,"lon":5.35537,"is_reserved":false,"is_disabled":true,"rental_uris":{"android":"levelo://app?vid=710029eb-b939-45e0-8d20-0bac081556e2","ios":"levelo://app?vid=710029eb-b939-45e0-8d20-0bac081556e2"},"vehicle_type_id":"4","last_reported":1765974229,"current_range_meters":7200,"station_id":"ce4bhu92rcd13ifvqi70","pricing_plan_id":"cebpf4jnsgd1na2vs0mg"},{"bike_id":"367c9656-5780-4ef8-821d-91a14c1edd9e","system_id":"levelo_inurba_marseille","lat":43.26463,"lon":5.37373,"is_reserved":false,"is_disabled":false,"rental_uris":{"android":"levelo://app?vid=367c9656-5780-4ef8-821d-91a14c1edd9e","ios":"levelo://app?vid=367c9656-5780-4ef8-821d-91a14c1edd9e"},"vehicle_type_id":"4","last_reported":1765974229,"current_range_meters":7200,"station_id":"","pricing_plan_id":"cebpf4jnsgd1na2vs0mg"},{"bike_id":"500ccc04-45c0-4dae-a582-ca036f6f2898","system_id":"levelo_inurba_marseille","lat":43.337444,"lon":5.374475,"is_reserved":false,"is_disabled":false,"rental_uris":{"android":"levelo://app?vid=500ccc04-45c0-4dae-a582-ca036f6f2898","ios":"levelo://app?vid=500ccc04-45c0-4dae-a582-ca036f6f2898"},"vehicle_type_id":"4","last_reported":1765974229,"current_range_meters":7200,"station_id":"","pricing_plan_id":"cebpf4jnsgd1na2vs0mg"},{"bike_id":"8ea59344-8e19-4332-bfff-fd00b23aa2b1","system_id":"levelo_inurba_marseille","lat":43.2964,"lon":5.38075,"is_reserved":false,"is_disabled":true,"rental_uris":{"android":"levelo://app?vid=8ea59344-8e19-4332-bfff-fd00b23aa2b1","ios":"levelo://app?vid=8ea59344-8e19-4332-bfff-fd00b23aa2b1"},"vehicle_type_id":"4","last_reported":1765974229,"current_range_meters":7200,"station_id":"","pricing_plan_id":"cebpf4jnsgd1na2vs0mg"},{"bike_id":"7d5b868f-43d5-44d5-b06c-00f570660f22","system_id":"levelo_inurba_marseille","lat":43.24621,"lon":5.43155,"is_reserved":false,"is_disabled":true,"rental_uris":{"android":"levelo://app?vid=7d5b868f-43d5-44d5-b06c-00f570660f22","ios":"levelo://app?vid=7d5b868f-43d5-44d5-b06c-00f570660f22"},"vehicle_type_id":"4","last_reported":1765974229,"current_range_meters":7200,"station_id":"st_d2m6c4gdas8pm72e190g","pricing_plan_id":"cebpf4jnsgd1na2vs0mg"},{"bike_id":"0c1d01aa-39e8-4376-a172-b5877a2d9858","system_id":"levelo_inurba_marseille","lat":43.27335,"lon":5.39059,"is_reserved":false,"is_disabled":true,"rental_uris":{"android":"levelo://app?vid=0c1d01aa-39e8-4376-a172-b5877a2d9858","ios":"levelo://app?vid=0c1d01aa-39e8-4376-a172-b5877a2d9858"},"vehicle_type_id":"4","last_reported":1765974229,"current_range_meters":7200,"station_id":"ce4bhgp2rcd13ifvqfe0","pricing_plan_id":"cebpf4jnsgd1na2vs0mg"},{"bike_id":"dc1c66a1-ec6a-4a97-84f0-949967d8e557","system_id":"levelo_inurba_marseille","lat":43.310144,"lon":5.393428,"is_reserved":false,"is_disabled":false,"rental_uris":{"android":"levelo://app?vid=dc1c66a1-ec6a-4a97-84f0-949967d8e557","ios":"levelo://app?vid=dc1c66a1-ec6a-4a97-84f0-949967d8e557"},"vehicle_type_id":"4","last_reported":1765974229,"current_range_meters":7200,"station_id":"","pricing_plan_id":"cebpf4jnsgd1na2vs0mg"},{"bike_id":"f908fbc6-46cf-455e-ba0c-a4e247c14df3","system_id":"levelo_inurba_marseille","lat":43.2986,"lon":5.38922,"is_reserved":false,"is_disabled":false,"rental_uris":{"android":"levelo://app?vid=f908fbc6-46cf-455e-ba0c-a4e247c14df3","ios":"levelo://app?vid=f908fbc6-46cf-455e-ba0c-a4e247c14df3"},"vehicle_type_id":"4","last_reported":1765974229,"current_range_meters":7200,"station_id":"ce4bh392rcd13ifvqdl0","pricing_plan_id":"cebpf4jnsgd1na2vs0mg"},{"bike_id":"fe93db68-7013-4b29-95bf-b88030c3de24","system_id":"levelo_inurba_marseille","lat":43.30409,"lon":5.4129,"is_reserved":false,"is_disabled":false,"rental_uris":{"android":"levelo://app?vid=fe93db68-7013-4b29-95bf-b88030c3de24","ios":"levelo://app?vid=fe93db68-7013-4b29-95bf-b88030c3de24"},"vehicle_type_id":"4","last_reported":1765974229,"current_range_meters":7200,"station_id":"ce4bhop2rcd13ifvqh8g","pricing_plan_id":"cebpf4jnsgd1na2vs0mg"},{"bike_id":"f2bb075c-a4ca-4a7d-9548-444cf0978b1e","system_id":"levelo_inurba_marseille","lat":43.30434,"lon":5.37109,"is_reserved":false,"is_disabled":false,"rental_uris":{"android":"levelo://app?vid=f2bb075c-a4ca-4a7d-9548-444cf0978b1e","ios":"levelo://app?vid=f2bb075c-a4ca-4a7d-9548-444cf0978b1e"},"vehicle_type_id":"4","last_reported":1765974229,"current_range_meters":8000,"station_id":"","pricing_plan_id":"cebpf4jnsgd1na2vs0mg"},{"bike_id":"52a54e30-98ea-4cde-b62d-e76ff0fd87ba","system_id":"levelo_inurba_marseille","lat":43.274863,"lon":5.424416,"is_reserved":false,"is_disabled":true,"rental_uris":{"android":"levelo://app?vid=52a54e30-98ea-4cde-b62d-e76ff0fd87ba","ios":"levelo://app?vid=52a54e30-98ea-4cde-b62d-e76ff0fd87ba"},"vehicle_type_id":"4","last_reported":1765974229,"current_range_meters":8000,"station_id":"ce4bhn92rcd13ifvqgrg","pricing_plan_id":"cebpf4jnsgd1na2vs0mg"},{"bike_id":"947d774d-67e6-4d49-b954-e6fcea77c2b9","system_id":"levelo_inurba_marseille","lat":43.28461,"lon":5.35891,"is_reserved":false,"is_disabled":false,"rental_uris":{"android":"levelo://app?vid=947d774d-67e6-4d49-b954-e6fcea77c2b9","ios":"levelo://app?vid=947d774d-67e6-4d49-b954-e6fcea77c2b9"},"vehicle_type_id":"4","last_reported":1765974229,"current_range_meters":8000,"station_id":"ce4bhah2rcd13ifvqei0","pricing_plan_id":"cebpf4jnsgd1na2vs0mg"},{"bike_id":"13c76617-c732-4c1a-9ab9-74f52fecd6db","system_id":"levelo_inurba_marseille","lat":43.251031,"lon":5.403387,"is_reserved":false,"is_disabled":false,"rental_uris":{"android":"levelo://app?vid=13c76617-c732-4c1a-9ab9-74f52fecd6db","ios":"levelo://app?vid=13c76617-c732-4c1a-9ab9-74f52fecd6db"},"vehicle_type_id":"4","last_reported":1765974229,"current_range_meters":8000,"station_id":"ce4bhlh2rcd13ifvqgig","pricing_plan_id":"cebpf4jnsgd1na2vs0mg"},{"bike_id":"74443ae8-6ea0-4138-96d2-afd2f8c27e8b","system_id":"levelo_inurba_marseille","lat":43.26557,"lon":5.37286,"is_reserved":false,"is_disabled":false,"rental_uris":{"android":"levelo://app?vid=74443ae8-6ea0-4138-96d2-afd2f8c27e8b","ios":"levelo://app?vid=74443ae8-6ea0-4138-96d2-afd2f8c27e8b"},"vehicle_type_id":"4","last_reported":1765974229,"current_range_meters":8000,"station_id":"ce4bhg12rcd13ifvqf70","pricing_plan_id":"cebpf4jnsgd1na2vs0mg"},{"bike_id":"ea54944d-bb89-49f4-833f-77523f2426e4","system_id":"levelo_inurba_marseille","lat":43.27826,"lon":5.40698,"is_reserved":false,"is_disabled":true,"rental_uris":{"android":"levelo://app?vid=ea54944d-bb89-49f4-833f-77523f2426e4","ios":"levelo://app?vid=ea54944d-bb89-49f4-833f-77523f2426e4"},"vehicle_type_id":"4","last_reported":1765974229,"current_range_meters":8000,"station_id":"ce4bhnh2rcd13ifvqgtg","pricing_plan_id":"cebpf4jnsgd1na2vs0mg"},{"bike_id":"19776143-ecc0-4444-9a37-585bf2b5330d","system_id":"levelo_inurba_marseille","lat":43.309418,"lon":5.390371,"is_reserved":false,"is_disabled":false,"rental_uris":{"android":"levelo://app?vid=19776143-ecc0-4444-9a37-585bf2b5330d","ios":"levelo://app?vid=19776143-ecc0-4444-9a37-585bf2b5330d"},"vehicle_type_id":"4","last_reported":1765974229,"current_range_meters":8000,"station_id":"ce4bh3h2rcd13ifvqdo0","pricing_plan_id":"cebpf4jnsgd1na2vs0mg"},{"bike_id":"97c2606e-2fea-4da3-a5da-2e0d5a088898","system_id":"levelo_inurba_marseille","lat":43.26754,"lon":5.39448,"is_reserved":false,"is_disabled":false,"rental_uris":{"android":"levelo://app?vid=97c2606e-2fea-4da3-a5da-2e0d5a088898","ios":"levelo://app?vid=97c2606e-2fea-4da3-a5da-2e0d5a088898"},"vehicle_type_id":"4","last_reported":1765974229,"current_range_meters":8400,"station_id":"","pricing_plan_id":"cebpf4jnsgd1na2vs0mg"},{"bike_id":"d7279433-aa0f-42a1-a28c-7679f7aed23e","system_id":"levelo_inurba_marseille","lat":43.26798,"lon":5.401765,"is_reserved":false,"is_disabled":true,"rental_uris":{"android":"levelo://app?vid=d7279433-aa0f-42a1-a28c-7679f7aed23e","ios":"levelo://app?vid=d7279433-aa0f-42a1-a28c-7679f7aed23e"},"vehicle_type_id":"4","last_reported":1765974229,"current_range_meters":8400,"station_id":"ce501612rcd8frsf0b60","pricing_plan_id":"cebpf4jnsgd1na2vs0mg"},{"bike_id":"63c5ae71-d57b-48dd-a736-a5dbe74bf445","system_id":"levelo_inurba_marseille","lat":43.316791,"lon":5.375612,"is_reserved":false,"is_disabled":false,"rental_uris":{"android":"levelo://app?vid=63c5ae71-d57b-48dd-a736-a5dbe74bf445","ios":"levelo://app?vid=63c5ae71-d57b-48dd-a736-a5dbe74bf445"},"vehicle_type_id":"4","last_reported":1765974229,"current_range_meters":8400,"station_id":"","pricing_plan_id":"cebpf4jnsgd1na2vs0mg"},{"bike_id":"075753f2-03fc-482d-992a-1a659c9f27f8","system_id":"levelo_inurba_marseille","lat":43.28233,"lon":5.34899,"is_reserved":false,"is_disabled":false,"rental_uris":{"android":"levelo://app?vid=075753f2-03fc-482d-992a-1a659c9f27f8","ios":"levelo://app?vid=075753f2-03fc-482d-992a-1a659c9f27f8"},"vehicle_type_id":"4","last_reported":1765974229,"current_range_meters":8400,"station_id":"","pricing_plan_id":"cebpf4jnsgd1na2vs0mg"},{"bike_id":"cd47fde0-8abd-4eb8-9335-008bc345ca7e","system_id":"levelo_inurba_marseille","lat":43.29747,"lon":5.37654,"is_reserved":false,"is_disabled":true,"rental_uris":{"android":"levelo://app?vid=cd47fde0-8abd-4eb8-9335-008bc345ca7e","ios":"levelo://app?vid=cd47fde0-8abd-4eb8-9335-008bc345ca7e"},"vehicle_type_id":"4","last_reported":1765974229,"current_range_meters":8400,"station_id":"ce4bgkh2rcd13ifvqbl0","pricing_plan_id":"cebpf4jnsgd1na2vs0mg"},{"bike_id":"bdd1deec-1cae-44d8-b4f5-0b7326c3a7a3","system_id":"levelo_inurba_marseille","lat":43.29777,"lon":5.381217,"is_reserved":false,"is_disabled":true,"rental_uris":{"android":"levelo://app?vid=bdd1deec-1cae-44d8-b4f5-0b7326c3a7a3","ios":"levelo://app?vid=bdd1deec-1cae-44d8-b4f5-0b7326c3a7a3"},"vehicle_type_id":"4","last_reported":1765974229,"current_range_meters":8400,"station_id":"ce4bgip2rcd13ifvqbb0","pricing_plan_id":"cebpf4jnsgd1na2vs0mg"},{"bike_id":"00ec2c1e-b3f7-4b5e-bdb5-5e57cad42c4a","system_id":"levelo_inurba_marseille","lat":43.246426,"lon":5.433854,"is_reserved":false,"is_disabled":false,"rental_uris":{"android":"levelo://app?vid=00ec2c1e-b3f7-4b5e-bdb5-5e57cad42c4a","ios":"levelo://app?vid=00ec2c1e-b3f7-4b5e-bdb5-5e57cad42c4a"},"vehicle_type_id":"4","last_reported":1765974229,"current_range_meters":8400,"station_id":"ce4bhmp2rcd13ifvqgog","pricing_plan_id":"cebpf4jnsgd1na2vs0mg"},{"bike_id":"339d251b-5332-4901-aae2-eda8f9aa1d79","system_id":"levelo_inurba_marseille","lat":43.2706,"lon":5.42293,"is_reserved":false,"is_disabled":true,"rental_uris":{"android":"levelo://app?vid=339d251b-5332-4901-aae2-eda8f9aa1d79","ios":"levelo://app?vid=339d251b-5332-4901-aae2-eda8f9aa1d79"},"vehicle_type_id":"4","last_reported":1765974229,"current_range_meters":8400,"station_id":"ce4bhk92rcd13ifvqgb0","pricing_plan_id":"cebpf4jnsgd1na2vs0mg"},{"bike_id":"e6db636e-5539-4fb5-9c46-d08c10a1d252","system_id":"levelo_inurba_marseille","lat":43.29846,"lon":5.44067,"is_reserved":false,"is_disabled":false,"rental_uris":{"android":"levelo://app?vid=e6db636e-5539-4fb5-9c46-d08c10a1d252","ios":"levelo://app?vid=e6db636e-5539-4fb5-9c46-d08c10a1d252"},"vehicle_type_id":"4","last_reported":1765974229,"current_range_meters":8400,"station_id":"","pricing_plan_id":"cebpf4jnsgd1na2vs0mg"},{"bike_id":"6dd49a08-8571-42d1-8554-943a0e1e9605","system_id":"levelo_inurba_marseille","lat":43.30791,"lon":5.38159,"is_reserved":false,"is_disabled":false,"rental_uris":{"android":"levelo://app?vid=6dd49a08-8571-42d1-8554-943a0e1e9605","ios":"levelo://app?vid=6dd49a08-8571-42d1-8554-943a0e1e9605"},"vehicle_type_id":"4","last_reported":1765974229,"current_range_meters":8400,"station_id":"ce4bgt12rcd13ifvqce0","pricing_plan_id":"cebpf4jnsgd1na2vs0mg"},{"bike_id":"3250aed5-f365-489f-99fc-ac1e05f5fb91","system_id":"levelo_inurba_marseille","lat":43.29719,"lon":5.37691,"is_reserved":false,"is_disabled":false,"rental_uris":{"android":"levelo://app?vid=3250aed5-f365-489f-99fc-ac1e05f5fb91","ios":"levelo://app?vid=3250aed5-f365-489f-99fc-ac1e05f5fb91"},"vehicle_type_id":"4","last_reported":1765974229,"current_range_meters":8400,"station_id":"ce4bgkh2rcd13ifvqbl0","pricing_plan_id":"cebpf4jnsgd1na2vs0mg"},{"bike_id":"d695a1ef-8779-4c77-806c-6ab369be065b","system_id":"levelo_inurba_marseille","lat":43.29473,"lon":5.38306,"is_reserved":false,"is_disabled":false,"rental_uris":{"android":"levelo://app?vid=d695a1ef-8779-4c77-806c-6ab369be065b","ios":"levelo://app?vid=d695a1ef-8779-4c77-806c-6ab369be065b"},"vehicle_type_id":"4","last_reported":1765974229,"current_range_meters":8400,"station_id":"","pricing_plan_id":"cebpf4jnsgd1na2vs0mg"},{"bike_id":"29c5df7a-88e8-48a7-9a15-4d6ba5ac81aa","system_id":"levelo_inurba_marseille","lat":43.316845,"lon":5.424043,"is_reserved":false,"is_disabled":false,"rental_uris":{"android":"levelo://app?vid=29c5df7a-88e8-48a7-9a15-4d6ba5ac81aa","ios":"levelo://app?vid=29c5df7a-88e8-48a7-9a15-4d6ba5ac81aa"},"vehicle_type_id":"4","last_reported":1765974229,"current_range_meters":8400,"station_id":"ce4bhp92rcd13ifvqhbg","pricing_plan_id":"cebpf4jnsgd1na2vs0mg"},{"bike_id":"83ece866-4d31-4ea6-84d5-364a9af7de1d","system_id":"levelo_inurba_marseille","lat":43.28527,"lon":5.44132,"is_reserved":false,"is_disabled":false,"rental_uris":{"android":"levelo://app?vid=83ece866-4d31-4ea6-84d5-364a9af7de1d","ios":"levelo://app?vid=83ece866-4d31-4ea6-84d5-364a9af7de1d"},"vehicle_type_id":"4","last_reported":1765974229,"current_range_meters":8800,"station_id":"st_d3j3df2ikq2c7380ej80","pricing_plan_id":"cebpf4jnsgd1na2vs0mg"},{"bike_id":"417aa6b3-6e4f-4945-a047-82eacbf729d2","system_id":"levelo_inurba_marseille","lat":43.28527,"lon":5.44111,"is_reserved":false,"is_disabled":false,"rental_uris":{"android":"levelo://app?vid=417aa6b3-6e4f-4945-a047-82eacbf729d2","ios":"levelo://app?vid=417aa6b3-6e4f-4945-a047-82eacbf729d2"},"vehicle_type_id":"4","last_reported":1765974229,"current_range_meters":8800,"station_id":"st_d3j3df2ikq2c7380ej80","pricing_plan_id":"cebpf4jnsgd1na2vs0mg"},{"bike_id":"6dc459a1-c94a-4329-8855-1c74f141ad51","system_id":"levelo_inurba_marseille","lat":43.21196,"lon":5.35066,"is_reserved":false,"is_disabled":false,"rental_uris":{"android":"levelo://app?vid=6dc459a1-c94a-4329-8855-1c74f141ad51","ios":"levelo://app?vid=6dc459a1-c94a-4329-8855-1c74f141ad51"},"vehicle_type_id":"4","last_reported":1765974229,"current_range_meters":8800,"station_id":"st_cvj6sg6p6f1abm77japg","pricing_plan_id":"cebpf4jnsgd1na2vs0mg"},{"bike_id":"5d139e61-6583-4797-a5f6-cab0fb928c16","system_id":"levelo_inurba_marseille","lat":43.31693,"lon":5.40473,"is_reserved":false,"is_disabled":false,"rental_uris":{"android":"levelo://app?vid=5d139e61-6583-4797-a5f6-cab0fb928c16","ios":"levelo://app?vid=5d139e61-6583-4797-a5f6-cab0fb928c16"},"vehicle_type_id":"4","last_reported":1765974229,"current_range_meters":8800,"station_id":"ce4bh012rcd13ifvqd00","pricing_plan_id":"cebpf4jnsgd1na2vs0mg"},{"bike_id":"3424981f-6902-4a69-ad15-4d70653af2f1","system_id":"levelo_inurba_marseille","lat":43.25115,"lon":5.40334,"is_reserved":false,"is_disabled":false,"rental_uris":{"android":"levelo://app?vid=3424981f-6902-4a69-ad15-4d70653af2f1","ios":"levelo://app?vid=3424981f-6902-4a69-ad15-4d70653af2f1"},"vehicle_type_id":"4","last_reported":1765974229,"current_range_meters":8800,"station_id":"ce4bhlh2rcd13ifvqgig","pricing_plan_id":"cebpf4jnsgd1na2vs0mg"},{"bike_id":"30d8d0c6-7b7f-406d-a14b-c5dfa3223816","system_id":"levelo_inurba_marseille","lat":43.31494,"lon":5.37308,"is_reserved":false,"is_disabled":false,"rental_uris":{"android":"levelo://app?vid=30d8d0c6-7b7f-406d-a14b-c5dfa3223816","ios":"levelo://app?vid=30d8d0c6-7b7f-406d-a14b-c5dfa3223816"},"vehicle_type_id":"4","last_reported":1765974229,"current_range_meters":8800,"station_id":"ce4bgt12rcd13ifvqcd0","pricing_plan_id":"cebpf4jnsgd1na2vs0mg"},{"bike_id":"19f61f34-14f9-4ac1-9da5-6a325fd27e1e","system_id":"levelo_inurba_marseille","lat":43.33761,"lon":5.3743,"is_reserved":false,"is_disabled":false,"rental_uris":{"android":"levelo://app?vid=19f61f34-14f9-4ac1-9da5-6a325fd27e1e","ios":"levelo://app?vid=19f61f34-14f9-4ac1-9da5-6a325fd27e1e"},"vehicle_type_id":"4","last_reported":1765974229,"current_range_meters":8800,"station_id":"","pricing_plan_id":"cebpf4jnsgd1na2vs0mg"},{"bike_id":"cf9ce9e1-7406-4fae-b915-2df4ad5d42c9","system_id":"levelo_inurba_marseille","lat":43.23196,"lon":5.35555,"is_reserved":false,"is_disabled":false,"rental_uris":{"android":"levelo://app?vid=cf9ce9e1-7406-4fae-b915-2df4ad5d42c9","ios":"levelo://app?vid=cf9ce9e1-7406-4fae-b915-2df4ad5d42c9"},"vehicle_type_id":"4","last_reported":1765974229,"current_range_meters":8800,"station_id":"ce4bhu92rcd13ifvqi70","pricing_plan_id":"cebpf4jnsgd1na2vs0mg"},{"bike_id":"133e6eba-18a6-4671-af69-38979715dafd","system_id":"levelo_inurba_marseille","lat":43.30287,"lon":5.37698,"is_reserved":false,"is_disabled":false,"rental_uris":{"android":"levelo://app?vid=133e6eba-18a6-4671-af69-38979715dafd","ios":"levelo://app?vid=133e6eba-18a6-4671-af69-38979715dafd"},"vehicle_type_id":"4","last_reported":1765974229,"current_range_meters":8800,"station_id":"ce4bguh2rcd13ifvqcj0","pricing_plan_id":"cebpf4jnsgd1na2vs0mg"},{"bike_id":"5df24c51-16d5-45e3-91fa-aab635d4c6c5","system_id":"levelo_inurba_marseille","lat":43.21186,"lon":5.35071,"is_reserved":false,"is_disabled":false,"rental_uris":{"android":"levelo://app?vid=5df24c51-16d5-45e3-91fa-aab635d4c6c5","ios":"levelo://app?vid=5df24c51-16d5-45e3-91fa-aab635d4c6c5"},"vehicle_type_id":"4","last_reported":1765974229,"current_range_meters":8800,"station_id":"st_cvj6sg6p6f1abm77japg","pricing_plan_id":"cebpf4jnsgd1na2vs0mg"},{"bike_id":"37a77f8c-d08d-477f-baa6-5e0d275d099d","system_id":"levelo_inurba_marseille","lat":43.253422,"lon":5.421731,"is_reserved":false,"is_disabled":true,"rental_uris":{"android":"levelo://app?vid=37a77f8c-d08d-477f-baa6-5e0d275d099d","ios":"levelo://app?vid=37a77f8c-d08d-477f-baa6-5e0d275d099d"},"vehicle_type_id":"4","last_reported":1765974229,"current_range_meters":9200,"station_id":"st_d2m65c5bi1j21697t3ng","pricing_plan_id":"cebpf4jnsgd1na2vs0mg"},{"bike_id":"2a519edb-a27a-4b92-a2f7-99b065f8057d","system_id":"levelo_inurba_marseille","lat":43.29876,"lon":5.38911,"is_reserved":false,"is_disabled":false,"rental_uris":{"android":"levelo://app?vid=2a519edb-a27a-4b92-a2f7-99b065f8057d","ios":"levelo://app?vid=2a519edb-a27a-4b92-a2f7-99b065f8057d"},"vehicle_type_id":"4","last_reported":1765974229,"current_range_meters":9200,"station_id":"ce4bh392rcd13ifvqdl0","pricing_plan_id":"cebpf4jnsgd1na2vs0mg"},{"bike_id":"73b3a370-1d52-4258-9b5e-70fcd3bbed19","system_id":"levelo_inurba_marseille","lat":43.31176,"lon":5.36879,"is_reserved":false,"is_disabled":false,"rental_uris":{"android":"levelo://app?vid=73b3a370-1d52-4258-9b5e-70fcd3bbed19","ios":"levelo://app?vid=73b3a370-1d52-4258-9b5e-70fcd3bbed19"},"vehicle_type_id":"4","last_reported":1765974229,"current_range_meters":9200,"station_id":"","pricing_plan_id":"cebpf4jnsgd1na2vs0mg"},{"bike_id":"0b087a5f-afda-4e12-b359-62514c18f7d5","system_id":"levelo_inurba_marseille","lat":43.29583,"lon":5.36737,"is_reserved":false,"is_disabled":false,"rental_uris":{"android":"levelo://app?vid=0b087a5f-afda-4e12-b359-62514c18f7d5","ios":"levelo://app?vid=0b087a5f-afda-4e12-b359-62514c18f7d5"},"vehicle_type_id":"4","last_reported":1765974229,"current_range_meters":9200,"station_id":"ce4bgph2rcd13ifvqc2g","pricing_plan_id":"cebpf4jnsgd1na2vs0mg"},{"bike_id":"932d552e-6c1d-42e6-a3bc-137c0e7f6062","system_id":"levelo_inurba_marseille","lat":43.24638,"lon":5.43133,"is_reserved":false,"is_disabled":false,"rental_uris":{"android":"levelo://app?vid=932d552e-6c1d-42e6-a3bc-137c0e7f6062","ios":"levelo://app?vid=932d552e-6c1d-42e6-a3bc-137c0e7f6062"},"vehicle_type_id":"4","last_reported":1765974229,"current_range_meters":9200,"station_id":"st_d2m6c4gdas8pm72e190g","pricing_plan_id":"cebpf4jnsgd1na2vs0mg"},{"bike_id":"4767fc7a-bb5c-4cec-b352-b00b3b6afdf8","system_id":"levelo_inurba_marseille","lat":43.27681,"lon":5.38882,"is_reserved":false,"is_disabled":false,"rental_uris":{"android":"levelo://app?vid=4767fc7a-bb5c-4cec-b352-b00b3b6afdf8","ios":"levelo://app?vid=4767fc7a-bb5c-4cec-b352-b00b3b6afdf8"},"vehicle_type_id":"4","last_reported":1765974229,"current_range_meters":9200,"station_id":"ce4bhi12rcd13ifvqfo0","pricing_plan_id":"cebpf4jnsgd1na2vs0mg"},{"bike_id":"d94f9c13-584d-4f01-b025-38239622703e","system_id":"levelo_inurba_marseille","lat":43.301381,"lon":5.374125,"is_reserved":false,"is_disabled":false,"rental_uris":{"android":"levelo://app?vid=d94f9c13-584d-4f01-b025-38239622703e","ios":"levelo://app?vid=d94f9c13-584d-4f01-b025-38239622703e"},"vehicle_type_id":"4","last_reported":1765974229,"current_range_meters":9200,"station_id":"ce4bgs92rcd13ifvqcc0","pricing_plan_id":"cebpf4jnsgd1na2vs0mg"},{"bike_id":"977398ea-6b2d-4405-a171-1c2247c676a0","system_id":"levelo_inurba_marseille","lat":43.30286,"lon":5.37715,"is_reserved":false,"is_disabled":false,"rental_uris":{"android":"levelo://app?vid=977398ea-6b2d-4405-a171-1c2247c676a0","ios":"levelo://app?vid=977398ea-6b2d-4405-a171-1c2247c676a0"},"vehicle_type_id":"4","last_reported":1765974229,"current_range_meters":9200,"station_id":"ce4bguh2rcd13ifvqcj0","pricing_plan_id":"cebpf4jnsgd1na2vs0mg"},{"bike_id":"6105af7d-9218-4bcb-bc3e-06bce0af638a","system_id":"levelo_inurba_marseille","lat":43.30138,"lon":5.37418,"is_reserved":false,"is_disabled":false,"rental_uris":{"android":"levelo://app?vid=6105af7d-9218-4bcb-bc3e-06bce0af638a","ios":"levelo://app?vid=6105af7d-9218-4bcb-bc3e-06bce0af638a"},"vehicle_type_id":"4","last_reported":1765974229,"current_range_meters":9200,"station_id":"ce4bgs92rcd13ifvqcc0","pricing_plan_id":"cebpf4jnsgd1na2vs0mg"},{"bike_id":"52453080-1c61-475d-b934-89b27afa140f","system_id":"levelo_inurba_marseille","lat":43.30907,"lon":5.40155,"is_reserved":false,"is_disabled":false,"rental_uris":{"android":"levelo://app?vid=52453080-1c61-475d-b934-89b27afa140f","ios":"levelo://app?vid=52453080-1c61-475d-b934-89b27afa140f"},"vehicle_type_id":"4","last_reported":1765974229,"current_range_meters":9200,"station_id":"ce4bgvp2rcd13ifvqct0","pricing_plan_id":"cebpf4jnsgd1na2vs0mg"},{"bike_id":"5770d2b7-76cc-4e4d-bd7c-c243a4eb0312","system_id":"levelo_inurba_marseille","lat":43.287074,"lon":5.373774,"is_reserved":false,"is_disabled":false,"rental_uris":{"android":"levelo://app?vid=5770d2b7-76cc-4e4d-bd7c-c243a4eb0312","ios":"levelo://app?vid=5770d2b7-76cc-4e4d-bd7c-c243a4eb0312"},"vehicle_type_id":"4","last_reported":1765974229,"current_range_meters":9200,"station_id":"ce4bgkp2rcd13ifvqbmg","pricing_plan_id":"cebpf4jnsgd1na2vs0mg"},{"bike_id":"31269a4a-c79d-4d5c-aaa9-b3ccbd2a5ac4","system_id":"levelo_inurba_marseille","lat":43.30795,"lon":5.37643,"is_reserved":false,"is_disabled":false,"rental_uris":{"android":"levelo://app?vid=31269a4a-c79d-4d5c-aaa9-b3ccbd2a5ac4","ios":"levelo://app?vid=31269a4a-c79d-4d5c-aaa9-b3ccbd2a5ac4"},"vehicle_type_id":"4","last_reported":1765974229,"current_range_meters":9200,"station_id":"ce4bgv92rcd13ifvqcq0","pricing_plan_id":"cebpf4jnsgd1na2vs0mg"},{"bike_id":"1a2a9f4c-03a7-4761-9c78-40ed9e387810","system_id":"levelo_inurba_marseille","lat":43.319336,"lon":5.37292,"is_reserved":false,"is_disabled":false,"rental_uris":{"android":"levelo://app?vid=1a2a9f4c-03a7-4761-9c78-40ed9e387810","ios":"levelo://app?vid=1a2a9f4c-03a7-4761-9c78-40ed9e387810"},"vehicle_type_id":"4","last_reported":1765974229,"current_range_meters":9600,"station_id":"","pricing_plan_id":"cebpf4jnsgd1na2vs0mg"},{"bike_id":"846ba82f-b80b-4118-ba94-f1f7e836af7f","system_id":"levelo_inurba_marseille","lat":43.337538,"lon":5.374581,"is_reserved":false,"is_disabled":false,"rental_uris":{"android":"levelo://app?vid=846ba82f-b80b-4118-ba94-f1f7e836af7f","ios":"levelo://app?vid=846ba82f-b80b-4118-ba94-f1f7e836af7f"},"vehicle_type_id":"4","last_reported":1765974229,"current_range_meters":9600,"station_id":"","pricing_plan_id":"cebpf4jnsgd1na2vs0mg"},{"bike_id":"93a979ae-2c6b-4810-9aba-a3f202a3630d","system_id":"levelo_inurba_marseille","lat":43.23147,"lon":5.43703,"is_reserved":false,"is_disabled":true,"rental_uris":{"android":"levelo://app?vid=93a979ae-2c6b-4810-9aba-a3f202a3630d","ios":"levelo://app?vid=93a979ae-2c6b-4810-9aba-a3f202a3630d"},"vehicle_type_id":"4","last_reported":1765974229,"current_range_meters":9600,"station_id":"ce4bhmp2rcd13ifvqgog","pricing_plan_id":"cebpf4jnsgd1na2vs0mg"},{"bike_id":"f57324ac-5e91-402d-b865-4d99885823a4","system_id":"levelo_inurba_marseille","lat":43.255733,"lon":5.382229,"is_reserved":false,"is_disabled":false,"rental_uris":{"android":"levelo://app?vid=f57324ac-5e91-402d-b865-4d99885823a4","ios":"levelo://app?vid=f57324ac-5e91-402d-b865-4d99885823a4"},"vehicle_type_id":"4","last_reported":1765974229,"current_range_meters":9600,"station_id":"","pricing_plan_id":"cebpf4jnsgd1na2vs0mg"},{"bike_id":"846cdc71-dc0e-4276-8f9a-9fbd7de59dd3","system_id":"levelo_inurba_marseille","lat":43.29724,"lon":5.37671,"is_reserved":false,"is_disabled":false,"rental_uris":{"android":"levelo://app?vid=846cdc71-dc0e-4276-8f9a-9fbd7de59dd3","ios":"levelo://app?vid=846cdc71-dc0e-4276-8f9a-9fbd7de59dd3"},"vehicle_type_id":"4","last_reported":1765974229,"current_range_meters":9600,"station_id":"ce4bgkh2rcd13ifvqbl0","pricing_plan_id":"cebpf4jnsgd1na2vs0mg"},{"bike_id":"b944e6d8-93a7-4a9a-9628-71347ee03597","system_id":"levelo_inurba_marseille","lat":43.31285,"lon":5.36831,"is_reserved":false,"is_disabled":false,"rental_uris":{"android":"levelo://app?vid=b944e6d8-93a7-4a9a-9628-71347ee03597","ios":"levelo://app?vid=b944e6d8-93a7-4a9a-9628-71347ee03597"},"vehicle_type_id":"4","last_reported":1765974229,"current_range_meters":9600,"station_id":"","pricing_plan_id":"cebpf4jnsgd1na2vs0mg"},{"bike_id":"0c2ee543-a7ac-4723-9129-610c0bcc5788","system_id":"levelo_inurba_marseille","lat":43.30116,"lon":5.43121,"is_reserved":false,"is_disabled":false,"rental_uris":{"android":"levelo://app?vid=0c2ee543-a7ac-4723-9129-610c0bcc5788","ios":"levelo://app?vid=0c2ee543-a7ac-4723-9129-610c0bcc5788"},"vehicle_type_id":"4","last_reported":1765974229,"current_range_meters":9600,"station_id":"st_d3js3co5814s73ftftug","pricing_plan_id":"cebpf4jnsgd1na2vs0mg"},{"bike_id":"18c6943d-2465-466e-8619-4c6a98d6f665","system_id":"levelo_inurba_marseille","lat":43.28612,"lon":5.35105,"is_reserved":false,"is_disabled":false,"rental_uris":{"android":"levelo://app?vid=18c6943d-2465-466e-8619-4c6a98d6f665","ios":"levelo://app?vid=18c6943d-2465-466e-8619-4c6a98d6f665"},"vehicle_type_id":"4","last_reported":1765974229,"current_range_meters":9600,"station_id":"ce4bhch2rcd13ifvqeug","pricing_plan_id":"cebpf4jnsgd1na2vs0mg"},{"bike_id":"3252a6fa-b22d-405a-91d6-b9488d3a9306","system_id":"levelo_inurba_marseille","lat":43.288557,"lon":5.358493,"is_reserved":false,"is_disabled":false,"rental_uris":{"android":"levelo://app?vid=3252a6fa-b22d-405a-91d6-b9488d3a9306","ios":"levelo://app?vid=3252a6fa-b22d-405a-91d6-b9488d3a9306"},"vehicle_type_id":"4","last_reported":1765974229,"current_range_meters":9600,"station_id":"ce4bhb12rcd13ifvqem0","pricing_plan_id":"cebpf4jnsgd1na2vs0mg"},{"bike_id":"20c5a0da-77d1-4228-8313-781178753856","system_id":"levelo_inurba_marseille","lat":43.3302,"lon":5.39048,"is_reserved":false,"is_disabled":false,"rental_uris":{"android":"levelo://app?vid=20c5a0da-77d1-4228-8313-781178753856","ios":"levelo://app?vid=20c5a0da-77d1-4228-8313-781178753856"},"vehicle_type_id":"4","last_reported":1765974229,"current_range_meters":9600,"station_id":"ce4bhr92rcd13ifvqhrg","pricing_plan_id":"cebpf4jnsgd1na2vs0mg"},{"bike_id":"c696467f-3f7e-44c0-97a8-1cd72cc66e63","system_id":"levelo_inurba_marseille","lat":43.29795,"lon":5.40398,"is_reserved":false,"is_disabled":false,"rental_uris":{"android":"levelo://app?vid=c696467f-3f7e-44c0-97a8-1cd72cc66e63","ios":"levelo://app?vid=c696467f-3f7e-44c0-97a8-1cd72cc66e63"},"vehicle_type_id":"4","last_reported":1765974229,"current_range_meters":9600,"station_id":"ce4bh112rcd13ifvqd90","pricing_plan_id":"cebpf4jnsgd1na2vs0mg"},{"bike_id":"a0d37354-252f-463e-a801-b3f4b4681e92","system_id":"levelo_inurba_marseille","lat":43.26367,"lon":5.410816,"is_reserved":false,"is_disabled":false,"rental_uris":{"android":"levelo://app?vid=a0d37354-252f-463e-a801-b3f4b4681e92","ios":"levelo://app?vid=a0d37354-252f-463e-a801-b3f4b4681e92"},"vehicle_type_id":"4","last_reported":1765974229,"current_range_meters":10000,"station_id":"st_d4e5ca6na9uc73bfl5fg","pricing_plan_id":"cebpf4jnsgd1na2vs0mg"},{"bike_id":"6b888b66-2e26-47d0-8788-af2f700d7075","system_id":"levelo_inurba_marseille","lat":43.28846,"lon":5.35836,"is_reserved":false,"is_disabled":true,"rental_uris":{"android":"levelo://app?vid=6b888b66-2e26-47d0-8788-af2f700d7075","ios":"levelo://app?vid=6b888b66-2e26-47d0-8788-af2f700d7075"},"vehicle_type_id":"4","last_reported":1765974229,"current_range_meters":10000,"station_id":"ce4bhb12rcd13ifvqem0","pricing_plan_id":"cebpf4jnsgd1na2vs0mg"},{"bike_id":"7fc83db3-f473-4368-9cc9-37bdca56d847","system_id":"levelo_inurba_marseille","lat":43.30423,"lon":5.39763,"is_reserved":false,"is_disabled":false,"rental_uris":{"android":"levelo://app?vid=7fc83db3-f473-4368-9cc9-37bdca56d847","ios":"levelo://app?vid=7fc83db3-f473-4368-9cc9-37bdca56d847"},"vehicle_type_id":"4","last_reported":1765974229,"current_range_meters":10000,"station_id":"ce4bh092rcd13ifvqd20","pricing_plan_id":"cebpf4jnsgd1na2vs0mg"},{"bike_id":"cc178787-4e27-477e-85ac-bb874f1df1de","system_id":"levelo_inurba_marseille","lat":43.27308,"lon":5.41093,"is_reserved":false,"is_disabled":false,"rental_uris":{"android":"levelo://app?vid=cc178787-4e27-477e-85ac-bb874f1df1de","ios":"levelo://app?vid=cc178787-4e27-477e-85ac-bb874f1df1de"},"vehicle_type_id":"4","last_reported":1765974229,"current_range_meters":10000,"station_id":"","pricing_plan_id":"cebpf4jnsgd1na2vs0mg"},{"bike_id":"78347ae2-5503-454f-bfba-77718769796c","system_id":"levelo_inurba_marseille","lat":43.33573,"lon":5.41037,"is_reserved":false,"is_disabled":false,"rental_uris":{"android":"levelo://app?vid=78347ae2-5503-454f-bfba-77718769796c","ios":"levelo://app?vid=78347ae2-5503-454f-bfba-77718769796c"},"vehicle_type_id":"4","last_reported":1765974229,"current_range_meters":10000,"station_id":"ce4bhqh2rcd13ifvqhmg","pricing_plan_id":"cebpf4jnsgd1na2vs0mg"},{"bike_id":"7dc473b5-48fc-4875-b223-04d2bbe84ca8","system_id":"levelo_inurba_marseille","lat":43.30954,"lon":5.3902,"is_reserved":false,"is_disabled":false,"rental_uris":{"android":"levelo://app?vid=7dc473b5-48fc-4875-b223-04d2bbe84ca8","ios":"levelo://app?vid=7dc473b5-48fc-4875-b223-04d2bbe84ca8"},"vehicle_type_id":"4","last_reported":1765974229,"current_range_meters":10000,"station_id":"ce4bgup2rcd13ifvqco0","pricing_plan_id":"cebpf4jnsgd1na2vs0mg"},{"bike_id":"bc27ec74-cea2-4b77-85f6-e3fa05fd3282","system_id":"levelo_inurba_marseille","lat":43.31235,"lon":5.36876,"is_reserved":false,"is_disabled":false,"rental_uris":{"android":"levelo://app?vid=bc27ec74-cea2-4b77-85f6-e3fa05fd3282","ios":"levelo://app?vid=bc27ec74-cea2-4b77-85f6-e3fa05fd3282"},"vehicle_type_id":"4","last_reported":1765974229,"current_range_meters":10000,"station_id":"ce4bgl92rcd13ifvqbq0","pricing_plan_id":"cebpf4jnsgd1na2vs0mg"},{"bike_id":"023077cd-b5f1-4ecc-91c5-2e2f9dd8e0b3","system_id":"levelo_inurba_marseille","lat":43.29381,"lon":5.37842,"is_reserved":false,"is_disabled":true,"rental_uris":{"android":"levelo://app?vid=023077cd-b5f1-4ecc-91c5-2e2f9dd8e0b3","ios":"levelo://app?vid=023077cd-b5f1-4ecc-91c5-2e2f9dd8e0b3"},"vehicle_type_id":"4","last_reported":1765974229,"current_range_meters":10800,"station_id":"ce4bgjh2rcd13ifvqbf0","pricing_plan_id":"cebpf4jnsgd1na2vs0mg"},{"bike_id":"4dfb7d9e-07fd-435a-a1b0-ac7f7701f2fd","system_id":"levelo_inurba_marseille","lat":43.31744,"lon":5.37633,"is_reserved":false,"is_disabled":false,"rental_uris":{"android":"levelo://app?vid=4dfb7d9e-07fd-435a-a1b0-ac7f7701f2fd","ios":"levelo://app?vid=4dfb7d9e-07fd-435a-a1b0-ac7f7701f2fd"},"vehicle_type_id":"4","last_reported":1765974229,"current_range_meters":10800,"station_id":"","pricing_plan_id":"cebpf4jnsgd1na2vs0mg"},{"bike_id":"5f5cc0fe-c713-40bb-90c1-0eeade0014be","system_id":"levelo_inurba_marseille","lat":43.264959,"lon":5.395419,"is_reserved":false,"is_disabled":false,"rental_uris":{"android":"levelo://app?vid=5f5cc0fe-c713-40bb-90c1-0eeade0014be","ios":"levelo://app?vid=5f5cc0fe-c713-40bb-90c1-0eeade0014be"},"vehicle_type_id":"4","last_reported":1765974229,"current_range_meters":10800,"station_id":"ce4bhi12rcd13ifvqfq0","pricing_plan_id":"cebpf4jnsgd1na2vs0mg"},{"bike_id":"d0b033b0-7b52-4e3f-84d5-6f5e9ee2ff83","system_id":"levelo_inurba_marseille","lat":43.29443,"lon":5.39765,"is_reserved":false,"is_disabled":true,"rental_uris":{"android":"levelo://app?vid=d0b033b0-7b52-4e3f-84d5-6f5e9ee2ff83","ios":"levelo://app?vid=d0b033b0-7b52-4e3f-84d5-6f5e9ee2ff83"},"vehicle_type_id":"4","last_reported":1765974229,"current_range_meters":10800,"station_id":"ce4bh3h2rcd13ifvqdo0","pricing_plan_id":"cebpf4jnsgd1na2vs0mg"},{"bike_id":"f9860717-2efb-453d-abbe-229474dee48a","system_id":"levelo_inurba_marseille","lat":43.26797,"lon":5.39376,"is_reserved":false,"is_disabled":false,"rental_uris":{"android":"levelo://app?vid=f9860717-2efb-453d-abbe-229474dee48a","ios":"levelo://app?vid=f9860717-2efb-453d-abbe-229474dee48a"},"vehicle_type_id":"4","last_reported":1765974229,"current_range_meters":10800,"station_id":"ce4bhh12rcd13ifvqfg0","pricing_plan_id":"cebpf4jnsgd1na2vs0mg"},{"bike_id":"6a4090a3-92ce-4d04-9301-8c95549dc584","system_id":"levelo_inurba_marseille","lat":43.21196,"lon":5.35085,"is_reserved":false,"is_disabled":false,"rental_uris":{"android":"levelo://app?vid=6a4090a3-92ce-4d04-9301-8c95549dc584","ios":"levelo://app?vid=6a4090a3-92ce-4d04-9301-8c95549dc584"},"vehicle_type_id":"4","last_reported":1765974229,"current_range_meters":10800,"station_id":"st_cvj6sg6p6f1abm77japg","pricing_plan_id":"cebpf4jnsgd1na2vs0mg"},{"bike_id":"92c10893-513a-4bfa-b315-e7fbbf2ced32","system_id":"levelo_inurba_marseille","lat":43.31709,"lon":5.43708,"is_reserved":false,"is_disabled":false,"rental_uris":{"android":"levelo://app?vid=92c10893-513a-4bfa-b315-e7fbbf2ced32","ios":"levelo://app?vid=92c10893-513a-4bfa-b315-e7fbbf2ced32"},"vehicle_type_id":"4","last_reported":1765974229,"current_range_meters":10800,"station_id":"ce4bhp92rcd13ifvqhcg","pricing_plan_id":"cebpf4jnsgd1na2vs0mg"},{"bike_id":"276661a2-947f-49bb-8a6f-7276c67d15e1","system_id":"levelo_inurba_marseille","lat":43.27206,"lon":5.39185,"is_reserved":false,"is_disabled":false,"rental_uris":{"android":"levelo://app?vid=276661a2-947f-49bb-8a6f-7276c67d15e1","ios":"levelo://app?vid=276661a2-947f-49bb-8a6f-7276c67d15e1"},"vehicle_type_id":"4","last_reported":1765974229,"current_range_meters":10800,"station_id":"ce4bhhp2rcd13ifvqfm0","pricing_plan_id":"cebpf4jnsgd1na2vs0mg"},{"bike_id":"1883faf9-eb92-4d31-b10b-a63ebae38355","system_id":"levelo_inurba_marseille","lat":43.297159,"lon":5.376909,"is_reserved":false,"is_disabled":false,"rental_uris":{"android":"levelo://app?vid=1883faf9-eb92-4d31-b10b-a63ebae38355","ios":"levelo://app?vid=1883faf9-eb92-4d31-b10b-a63ebae38355"},"vehicle_type_id":"4","last_reported":1765974229,"current_range_meters":11200,"station_id":"ce4bgkh2rcd13ifvqbl0","pricing_plan_id":"cebpf4jnsgd1na2vs0mg"},{"bike_id":"df71387e-1bd7-4414-9b57-09f3fe5ee003","system_id":"levelo_inurba_marseille","lat":43.28385,"lon":5.34995,"is_reserved":false,"is_disabled":false,"rental_uris":{"android":"levelo://app?vid=df71387e-1bd7-4414-9b57-09f3fe5ee003","ios":"levelo://app?vid=df71387e-1bd7-4414-9b57-09f3fe5ee003"},"vehicle_type_id":"4","last_reported":1765974229,"current_range_meters":11200,"station_id":"ce4bhbh2rcd13ifvqepg","pricing_plan_id":"cebpf4jnsgd1na2vs0mg"},{"bike_id":"d9d313f9-5c43-4fe8-8172-3f8fc70f07aa","system_id":"levelo_inurba_marseille","lat":43.265576,"lon":5.372854,"is_reserved":false,"is_disabled":false,"rental_uris":{"android":"levelo://app?vid=d9d313f9-5c43-4fe8-8172-3f8fc70f07aa","ios":"levelo://app?vid=d9d313f9-5c43-4fe8-8172-3f8fc70f07aa"},"vehicle_type_id":"4","last_reported":1765974229,"current_range_meters":11200,"station_id":"ce4bhih2rcd13ifvqfr0","pricing_plan_id":"cebpf4jnsgd1na2vs0mg"},{"bike_id":"fcb4cadd-a218-4017-86d0-34d22b20868a","system_id":"levelo_inurba_marseille","lat":43.32499,"lon":5.38305,"is_reserved":false,"is_disabled":false,"rental_uris":{"android":"levelo://app?vid=fcb4cadd-a218-4017-86d0-34d22b20868a","ios":"levelo://app?vid=fcb4cadd-a218-4017-86d0-34d22b20868a"},"vehicle_type_id":"4","last_reported":1765974229,"current_range_meters":11200,"station_id":"st_d4asgbiv49dc73anf9m0","pricing_plan_id":"cebpf4jnsgd1na2vs0mg"},{"bike_id":"3dfd4ccf-e273-4277-8f1a-a8f4ac9d0a90","system_id":"levelo_inurba_marseille","lat":43.33611,"lon":5.41026,"is_reserved":false,"is_disabled":false,"rental_uris":{"android":"levelo://app?vid=3dfd4ccf-e273-4277-8f1a-a8f4ac9d0a90","ios":"levelo://app?vid=3dfd4ccf-e273-4277-8f1a-a8f4ac9d0a90"},"vehicle_type_id":"4","last_reported":1765974229,"current_range_meters":11200,"station_id":"ce4bhqh2rcd13ifvqhmg","pricing_plan_id":"cebpf4jnsgd1na2vs0mg"},{"bike_id":"8df49d50-45d6-4267-b115-d354b63f6ddb","system_id":"levelo_inurba_marseille","lat":43.30521,"lon":5.36547,"is_reserved":false,"is_disabled":false,"rental_uris":{"android":"levelo://app?vid=8df49d50-45d6-4267-b115-d354b63f6ddb","ios":"levelo://app?vid=8df49d50-45d6-4267-b115-d354b63f6ddb"},"vehicle_type_id":"4","last_reported":1765974229,"current_range_meters":11200,"station_id":"ce4bgs12rcd13ifvqcag","pricing_plan_id":"cebpf4jnsgd1na2vs0mg"},{"bike_id":"14fd9319-6a79-479d-a480-746ebaf86256","system_id":"levelo_inurba_marseille","lat":43.305387,"lon":5.366945,"is_reserved":false,"is_disabled":false,"rental_uris":{"android":"levelo://app?vid=14fd9319-6a79-479d-a480-746ebaf86256","ios":"levelo://app?vid=14fd9319-6a79-479d-a480-746ebaf86256"},"vehicle_type_id":"4","last_reported":1765974229,"current_range_meters":11200,"station_id":"ce4bgrp2rcd13ifvqc9g","pricing_plan_id":"cebpf4jnsgd1na2vs0mg"},{"bike_id":"e07ba5d9-008c-458b-8779-da5cc9cfd5cb","system_id":"levelo_inurba_marseille","lat":43.29913,"lon":5.37482,"is_reserved":false,"is_disabled":false,"rental_uris":{"android":"levelo://app?vid=e07ba5d9-008c-458b-8779-da5cc9cfd5cb","ios":"levelo://app?vid=e07ba5d9-008c-458b-8779-da5cc9cfd5cb"},"vehicle_type_id":"4","last_reported":1765974229,"current_range_meters":11200,"station_id":"ce4bgjh2rcd13ifvqbg0","pricing_plan_id":"cebpf4jnsgd1na2vs0mg"},{"bike_id":"df740a75-c7cf-4098-9433-1676c1308822","system_id":"levelo_inurba_marseille","lat":43.298773,"lon":5.397374,"is_reserved":false,"is_disabled":false,"rental_uris":{"android":"levelo://app?vid=df740a75-c7cf-4098-9433-1676c1308822","ios":"levelo://app?vid=df740a75-c7cf-4098-9433-1676c1308822"},"vehicle_type_id":"4","last_reported":1765974229,"current_range_meters":11200,"station_id":"ce4bh0h2rcd13ifvqd50","pricing_plan_id":"cebpf4jnsgd1na2vs0mg"},{"bike_id":"1fdc229f-8854-4e4a-b4a1-f409730d5055","system_id":"levelo_inurba_marseille","lat":43.31887,"lon":5.40732,"is_reserved":false,"is_disabled":false,"rental_uris":{"android":"levelo://app?vid=1fdc229f-8854-4e4a-b4a1-f409730d5055","ios":"levelo://app?vid=1fdc229f-8854-4e4a-b4a1-f409730d5055"},"vehicle_type_id":"4","last_reported":1765974229,"current_range_meters":11200,"station_id":"ce4bhq12rcd13ifvqhig","pricing_plan_id":"cebpf4jnsgd1na2vs0mg"},{"bike_id":"79561668-ca4b-499a-b05e-4c510f8f6681","system_id":"levelo_inurba_marseille","lat":43.31236,"lon":5.36859,"is_reserved":false,"is_disabled":false,"rental_uris":{"android":"levelo://app?vid=79561668-ca4b-499a-b05e-4c510f8f6681","ios":"levelo://app?vid=79561668-ca4b-499a-b05e-4c510f8f6681"},"vehicle_type_id":"4","last_reported":1765974229,"current_range_meters":11200,"station_id":"ce4bgl92rcd13ifvqbq0","pricing_plan_id":"cebpf4jnsgd1na2vs0mg"},{"bike_id":"35c0c055-2f60-41dc-83ed-a60c1df41f49","system_id":"levelo_inurba_marseille","lat":43.28429,"lon":5.37508,"is_reserved":false,"is_disabled":false,"rental_uris":{"android":"levelo://app?vid=35c0c055-2f60-41dc-83ed-a60c1df41f49","ios":"levelo://app?vid=35c0c055-2f60-41dc-83ed-a60c1df41f49"},"vehicle_type_id":"4","last_reported":1765974229,"current_range_meters":11600,"station_id":"ce4bh412rcd13ifvqds0","pricing_plan_id":"cebpf4jnsgd1na2vs0mg"},{"bike_id":"7700bec5-2457-4178-ab25-3c72d1a56fa4","system_id":"levelo_inurba_marseille","lat":43.266845,"lon":5.38275,"is_reserved":false,"is_disabled":false,"rental_uris":{"android":"levelo://app?vid=7700bec5-2457-4178-ab25-3c72d1a56fa4","ios":"levelo://app?vid=7700bec5-2457-4178-ab25-3c72d1a56fa4"},"vehicle_type_id":"4","last_reported":1765974229,"current_range_meters":11600,"station_id":"ce4bhg92rcd13ifvqf90","pricing_plan_id":"cebpf4jnsgd1na2vs0mg"},{"bike_id":"d90c110d-3ee4-4803-bf3b-d150da911b4e","system_id":"levelo_inurba_marseille","lat":43.28471,"lon":5.38435,"is_reserved":false,"is_disabled":true,"rental_uris":{"android":"levelo://app?vid=d90c110d-3ee4-4803-bf3b-d150da911b4e","ios":"levelo://app?vid=d90c110d-3ee4-4803-bf3b-d150da911b4e"},"vehicle_type_id":"4","last_reported":1765974229,"current_range_meters":11600,"station_id":"ce4bh512rcd13ifvqe3g","pricing_plan_id":"cebpf4jnsgd1na2vs0mg"},{"bike_id":"88031236-6a40-4d32-a503-adc00e8f1b31","system_id":"levelo_inurba_marseille","lat":43.337538,"lon":5.374581,"is_reserved":false,"is_disabled":false,"rental_uris":{"android":"levelo://app?vid=88031236-6a40-4d32-a503-adc00e8f1b31","ios":"levelo://app?vid=88031236-6a40-4d32-a503-adc00e8f1b31"},"vehicle_type_id":"4","last_reported":1765974229,"current_range_meters":11600,"station_id":"","pricing_plan_id":"cebpf4jnsgd1na2vs0mg"},{"bike_id":"af9fe960-7158-4a4c-9869-de23f22c5f04","system_id":"levelo_inurba_marseille","lat":43.29618,"lon":5.37158,"is_reserved":false,"is_disabled":false,"rental_uris":{"android":"levelo://app?vid=af9fe960-7158-4a4c-9869-de23f22c5f04","ios":"levelo://app?vid=af9fe960-7158-4a4c-9869-de23f22c5f04"},"vehicle_type_id":"4","last_reported":1765974229,"current_range_meters":11600,"station_id":"ce4bgnh2rcd13ifvqc0g","pricing_plan_id":"cebpf4jnsgd1na2vs0mg"},{"bike_id":"71c82414-0ca2-439a-b942-c5b8de9a4504","system_id":"levelo_inurba_marseille","lat":43.30543,"lon":5.38432,"is_reserved":false,"is_disabled":true,"rental_uris":{"android":"levelo://app?vid=71c82414-0ca2-439a-b942-c5b8de9a4504","ios":"levelo://app?vid=71c82414-0ca2-439a-b942-c5b8de9a4504"},"vehicle_type_id":"4","last_reported":1765974229,"current_range_meters":11600,"station_id":"ce4bgg92rcd13ifvqb30","pricing_plan_id":"cebpf4jnsgd1na2vs0mg"},{"bike_id":"f2d21dda-5c20-46eb-a193-b66c9953cefa","system_id":"levelo_inurba_marseille","lat":43.24053,"lon":5.37843,"is_reserved":false,"is_disabled":false,"rental_uris":{"android":"levelo://app?vid=f2d21dda-5c20-46eb-a193-b66c9953cefa","ios":"levelo://app?vid=f2d21dda-5c20-46eb-a193-b66c9953cefa"},"vehicle_type_id":"4","last_reported":1765974229,"current_range_meters":11600,"station_id":"","pricing_plan_id":"cebpf4jnsgd1na2vs0mg"},{"bike_id":"eba095ea-dfd9-48bf-b38f-90c41935da2a","system_id":"levelo_inurba_marseille","lat":43.26803,"lon":5.40273,"is_reserved":false,"is_disabled":false,"rental_uris":{"android":"levelo://app?vid=eba095ea-dfd9-48bf-b38f-90c41935da2a","ios":"levelo://app?vid=eba095ea-dfd9-48bf-b38f-90c41935da2a"},"vehicle_type_id":"4","last_reported":1765974229,"current_range_meters":11600,"station_id":"ce501612rcd8frsf0b60","pricing_plan_id":"cebpf4jnsgd1na2vs0mg"},{"bike_id":"c5a7cdd5-16f7-4859-9272-dab55f08af15","system_id":"levelo_inurba_marseille","lat":43.27372,"lon":5.36261,"is_reserved":false,"is_disabled":false,"rental_uris":{"android":"levelo://app?vid=c5a7cdd5-16f7-4859-9272-dab55f08af15","ios":"levelo://app?vid=c5a7cdd5-16f7-4859-9272-dab55f08af15"},"vehicle_type_id":"4","last_reported":1765974229,"current_range_meters":12000,"station_id":"ce4bhbh2rcd13ifvqeo0","pricing_plan_id":"cebpf4jnsgd1na2vs0mg"},{"bike_id":"8fa53ddb-80a9-4b81-a17d-6b07554edef4","system_id":"levelo_inurba_marseille","lat":43.28476,"lon":5.48384,"is_reserved":false,"is_disabled":false,"rental_uris":{"android":"levelo://app?vid=8fa53ddb-80a9-4b81-a17d-6b07554edef4","ios":"levelo://app?vid=8fa53ddb-80a9-4b81-a17d-6b07554edef4"},"vehicle_type_id":"4","last_reported":1765974229,"current_range_meters":12000,"station_id":"st_d3svhcjqgbts73a3dn0g","pricing_plan_id":"cebpf4jnsgd1na2vs0mg"},{"bike_id":"1a7173c9-86d6-4303-92d4-74efa8a9f496","system_id":"levelo_inurba_marseille","lat":43.27048,"lon":5.42421,"is_reserved":false,"is_disabled":false,"rental_uris":{"android":"levelo://app?vid=1a7173c9-86d6-4303-92d4-74efa8a9f496","ios":"levelo://app?vid=1a7173c9-86d6-4303-92d4-74efa8a9f496"},"vehicle_type_id":"4","last_reported":1765974229,"current_range_meters":12000,"station_id":"ce4bhk92rcd13ifvqgb0","pricing_plan_id":"cebpf4jnsgd1na2vs0mg"},{"bike_id":"bd38cd10-bc2a-4ad6-b4af-235e4954294d","system_id":"levelo_inurba_marseille","lat":43.288479,"lon":5.425247,"is_reserved":false,"is_disabled":false,"rental_uris":{"android":"levelo://app?vid=bd38cd10-bc2a-4ad6-b4af-235e4954294d","ios":"levelo://app?vid=bd38cd10-bc2a-4ad6-b4af-235e4954294d"},"vehicle_type_id":"4","last_reported":1765974229,"current_range_meters":12000,"station_id":"st_d3b462108ojc7389ooeg","pricing_plan_id":"cebpf4jnsgd1na2vs0mg"},{"bike_id":"a1fb306f-9a9a-4ffb-8fbf-e0155cc1e7e0","system_id":"levelo_inurba_marseille","lat":43.30477,"lon":5.37921,"is_reserved":false,"is_disabled":false,"rental_uris":{"android":"levelo://app?vid=a1fb306f-9a9a-4ffb-8fbf-e0155cc1e7e0","ios":"levelo://app?vid=a1fb306f-9a9a-4ffb-8fbf-e0155cc1e7e0"},"vehicle_type_id":"4","last_reported":1765974229,"current_range_meters":12000,"station_id":"ce4bgup2rcd13ifvqcn0","pricing_plan_id":"cebpf4jnsgd1na2vs0mg"},{"bike_id":"21b1a6a2-c84a-41c8-8909-c033b1a13bc3","system_id":"levelo_inurba_marseille","lat":43.29259,"lon":5.40903,"is_reserved":false,"is_disabled":false,"rental_uris":{"android":"levelo://app?vid=21b1a6a2-c84a-41c8-8909-c033b1a13bc3","ios":"levelo://app?vid=21b1a6a2-c84a-41c8-8909-c033b1a13bc3"},"vehicle_type_id":"4","last_reported":1765974229,"current_range_meters":12000,"station_id":"ce4bh192rcd13ifvqdc0","pricing_plan_id":"cebpf4jnsgd1na2vs0mg"},{"bike_id":"cbe110b4-454d-4fcc-ba12-07b15aa3b45b","system_id":"levelo_inurba_marseille","lat":43.28576,"lon":5.395,"is_reserved":false,"is_disabled":false,"rental_uris":{"android":"levelo://app?vid=cbe110b4-454d-4fcc-ba12-07b15aa3b45b","ios":"levelo://app?vid=cbe110b4-454d-4fcc-ba12-07b15aa3b45b"},"vehicle_type_id":"4","last_reported":1765974229,"current_range_meters":12000,"station_id":"ce4bh292rcd13ifvqdg0","pricing_plan_id":"cebpf4jnsgd1na2vs0mg"},{"bike_id":"11c41d8f-727d-4157-9459-e24bb6caab0b","system_id":"levelo_inurba_marseille","lat":43.25087,"lon":5.3952,"is_reserved":false,"is_disabled":false,"rental_uris":{"android":"levelo://app?vid=11c41d8f-727d-4157-9459-e24bb6caab0b","ios":"levelo://app?vid=11c41d8f-727d-4157-9459-e24bb6caab0b"},"vehicle_type_id":"4","last_reported":1765974229,"current_range_meters":12000,"station_id":"ce4bhm12rcd13ifvqgkg","pricing_plan_id":"cebpf4jnsgd1na2vs0mg"},{"bike_id":"3d69b350-3639-4c93-9cbc-a16c95e399e9","system_id":"levelo_inurba_marseille","lat":43.29835,"lon":5.44048,"is_reserved":false,"is_disabled":false,"rental_uris":{"android":"levelo://app?vid=3d69b350-3639-4c93-9cbc-a16c95e399e9","ios":"levelo://app?vid=3d69b350-3639-4c93-9cbc-a16c95e399e9"},"vehicle_type_id":"4","last_reported":1765974229,"current_range_meters":12400,"station_id":"","pricing_plan_id":"cebpf4jnsgd1na2vs0mg"},{"bike_id":"82cce858-0c3e-43b4-99cd-6eb5b6d5dc02","system_id":"levelo_inurba_marseille","lat":43.32115,"lon":5.36757,"is_reserved":false,"is_disabled":false,"rental_uris":{"android":"levelo://app?vid=82cce858-0c3e-43b4-99cd-6eb5b6d5dc02","ios":"levelo://app?vid=82cce858-0c3e-43b4-99cd-6eb5b6d5dc02"},"vehicle_type_id":"4","last_reported":1765974229,"current_range_meters":12400,"station_id":"ce4bhrh2rcd13ifvqhug","pricing_plan_id":"cebpf4jnsgd1na2vs0mg"},{"bike_id":"c7e5daf3-a6b0-4ffc-8e95-134c47362fa1","system_id":"levelo_inurba_marseille","lat":43.301138,"lon":5.368568,"is_reserved":false,"is_disabled":false,"rental_uris":{"android":"levelo://app?vid=c7e5daf3-a6b0-4ffc-8e95-134c47362fa1","ios":"levelo://app?vid=c7e5daf3-a6b0-4ffc-8e95-134c47362fa1"},"vehicle_type_id":"4","last_reported":1765974229,"current_range_meters":12400,"station_id":"","pricing_plan_id":"cebpf4jnsgd1na2vs0mg"},{"bike_id":"992feaa5-2364-4c6f-a10a-7f57ffd6c9b4","system_id":"levelo_inurba_marseille","lat":43.28873,"lon":5.35826,"is_reserved":false,"is_disabled":false,"rental_uris":{"android":"levelo://app?vid=992feaa5-2364-4c6f-a10a-7f57ffd6c9b4","ios":"levelo://app?vid=992feaa5-2364-4c6f-a10a-7f57ffd6c9b4"},"vehicle_type_id":"4","last_reported":1765974229,"current_range_meters":12400,"station_id":"ce4bhb12rcd13ifvqem0","pricing_plan_id":"cebpf4jnsgd1na2vs0mg"},{"bike_id":"88742b02-1839-4235-bc6e-dc080d7e1544","system_id":"levelo_inurba_marseille","lat":43.264981,"lon":5.395411,"is_reserved":false,"is_disabled":false,"rental_uris":{"android":"levelo://app?vid=88742b02-1839-4235-bc6e-dc080d7e1544","ios":"levelo://app?vid=88742b02-1839-4235-bc6e-dc080d7e1544"},"vehicle_type_id":"4","last_reported":1765974229,"current_range_meters":12800,"station_id":"ce4bhi12rcd13ifvqfq0","pricing_plan_id":"cebpf4jnsgd1na2vs0mg"},{"bike_id":"2c35ab9c-e643-441f-b1fa-48822463e3fb","system_id":"levelo_inurba_marseille","lat":43.296019,"lon":5.405277,"is_reserved":false,"is_disabled":false,"rental_uris":{"android":"levelo://app?vid=2c35ab9c-e643-441f-b1fa-48822463e3fb","ios":"levelo://app?vid=2c35ab9c-e643-441f-b1fa-48822463e3fb"},"vehicle_type_id":"4","last_reported":1765974229,"current_range_meters":12800,"station_id":"ce4bh0h2rcd13ifvqd60","pricing_plan_id":"cebpf4jnsgd1na2vs0mg"},{"bike_id":"707bf05f-5933-48a1-98ce-b2a6770e7504","system_id":"levelo_inurba_marseille","lat":43.299791,"lon":5.371794,"is_reserved":false,"is_disabled":false,"rental_uris":{"android":"levelo://app?vid=707bf05f-5933-48a1-98ce-b2a6770e7504","ios":"levelo://app?vid=707bf05f-5933-48a1-98ce-b2a6770e7504"},"vehicle_type_id":"4","last_reported":1765974229,"current_range_meters":12800,"station_id":"ce4bgr92rcd13ifvqc7g","pricing_plan_id":"cebpf4jnsgd1na2vs0mg"},{"bike_id":"8d80a529-65d3-45ac-aed9-7ff98e73ef3e","system_id":"levelo_inurba_marseille","lat":43.289853,"lon":5.386896,"is_reserved":false,"is_disabled":false,"rental_uris":{"android":"levelo://app?vid=8d80a529-65d3-45ac-aed9-7ff98e73ef3e","ios":"levelo://app?vid=8d80a529-65d3-45ac-aed9-7ff98e73ef3e"},"vehicle_type_id":"4","last_reported":1765974229,"current_range_meters":12800,"station_id":"ce4bh4p2rcd13ifvqe0g","pricing_plan_id":"cebpf4jnsgd1na2vs0mg"},{"bike_id":"86ccf628-2478-4110-a78a-9400953b9731","system_id":"levelo_inurba_marseille","lat":43.30251,"lon":5.39428,"is_reserved":false,"is_disabled":false,"rental_uris":{"android":"levelo://app?vid=86ccf628-2478-4110-a78a-9400953b9731","ios":"levelo://app?vid=86ccf628-2478-4110-a78a-9400953b9731"},"vehicle_type_id":"4","last_reported":1765974229,"current_range_meters":12800,"station_id":"ce4bh0p2rcd13ifvqd70","pricing_plan_id":"cebpf4jnsgd1na2vs0mg"},{"bike_id":"57ba4b21-7901-461d-9613-a8a5531f6008","system_id":"levelo_inurba_marseille","lat":43.31457,"lon":5.45375,"is_reserved":false,"is_disabled":false,"rental_uris":{"android":"levelo://app?vid=57ba4b21-7901-461d-9613-a8a5531f6008","ios":"levelo://app?vid=57ba4b21-7901-461d-9613-a8a5531f6008"},"vehicle_type_id":"4","last_reported":1765974229,"current_range_meters":12800,"station_id":"","pricing_plan_id":"cebpf4jnsgd1na2vs0mg"},{"bike_id":"0220bf61-5f99-4521-b86e-27e1923ade3b","system_id":"levelo_inurba_marseille","lat":43.31905,"lon":5.40079,"is_reserved":false,"is_disabled":false,"rental_uris":{"android":"levelo://app?vid=0220bf61-5f99-4521-b86e-27e1923ade3b","ios":"levelo://app?vid=0220bf61-5f99-4521-b86e-27e1923ade3b"},"vehicle_type_id":"4","last_reported":1765974229,"current_range_meters":13600,"station_id":"","pricing_plan_id":"cebpf4jnsgd1na2vs0mg"},{"bike_id":"0f8bb650-cf18-4ceb-a692-fc24970d7da9","system_id":"levelo_inurba_marseille","lat":43.31217,"lon":5.36857,"is_reserved":false,"is_disabled":false,"rental_uris":{"android":"levelo://app?vid=0f8bb650-cf18-4ceb-a692-fc24970d7da9","ios":"levelo://app?vid=0f8bb650-cf18-4ceb-a692-fc24970d7da9"},"vehicle_type_id":"4","last_reported":1765974229,"current_range_meters":13600,"station_id":"ce4bgl92rcd13ifvqbq0","pricing_plan_id":"cebpf4jnsgd1na2vs0mg"},{"bike_id":"cf047529-5c13-4024-b204-3e81a4a4d04d","system_id":"levelo_inurba_marseille","lat":43.2799,"lon":5.41665,"is_reserved":false,"is_disabled":false,"rental_uris":{"android":"levelo://app?vid=cf047529-5c13-4024-b204-3e81a4a4d04d","ios":"levelo://app?vid=cf047529-5c13-4024-b204-3e81a4a4d04d"},"vehicle_type_id":"4","last_reported":1765974229,"current_range_meters":13600,"station_id":"ce4bho12rcd13ifvqh1g","pricing_plan_id":"cebpf4jnsgd1na2vs0mg"},{"bike_id":"97d57ad5-c1e2-4221-af54-19f0821c5d3a","system_id":"levelo_inurba_marseille","lat":43.250997,"lon":5.403291,"is_reserved":false,"is_disabled":false,"rental_uris":{"android":"levelo://app?vid=97d57ad5-c1e2-4221-af54-19f0821c5d3a","ios":"levelo://app?vid=97d57ad5-c1e2-4221-af54-19f0821c5d3a"},"vehicle_type_id":"4","last_reported":1765974229,"current_range_meters":13600,"station_id":"ce4bhnp2rcd13ifvqgvg","pricing_plan_id":"cebpf4jnsgd1na2vs0mg"},{"bike_id":"a9adc8bf-52f1-4c31-a2de-42743dd086bf","system_id":"levelo_inurba_marseille","lat":43.33723,"lon":5.3748,"is_reserved":false,"is_disabled":false,"rental_uris":{"android":"levelo://app?vid=a9adc8bf-52f1-4c31-a2de-42743dd086bf","ios":"levelo://app?vid=a9adc8bf-52f1-4c31-a2de-42743dd086bf"},"vehicle_type_id":"4","last_reported":1765974229,"current_range_meters":13600,"station_id":"","pricing_plan_id":"cebpf4jnsgd1na2vs0mg"},{"bike_id":"8e7703ee-3945-4672-8acb-7ac5a03886c2","system_id":"levelo_inurba_marseille","lat":43.2968,"lon":5.37304,"is_reserved":false,"is_disabled":false,"rental_uris":{"android":"levelo://app?vid=8e7703ee-3945-4672-8acb-7ac5a03886c2","ios":"levelo://app?vid=8e7703ee-3945-4672-8acb-7ac5a03886c2"},"vehicle_type_id":"4","last_reported":1765974229,"current_range_meters":13600,"station_id":"ce4bgk12rcd13ifvqbj0","pricing_plan_id":"cebpf4jnsgd1na2vs0mg"},{"bike_id":"bfdb48fb-72a1-40f8-bf2d-0d911f926fdc","system_id":"levelo_inurba_marseille","lat":43.25083,"lon":5.39513,"is_reserved":false,"is_disabled":false,"rental_uris":{"android":"levelo://app?vid=bfdb48fb-72a1-40f8-bf2d-0d911f926fdc","ios":"levelo://app?vid=bfdb48fb-72a1-40f8-bf2d-0d911f926fdc"},"vehicle_type_id":"4","last_reported":1765974229,"current_range_meters":14000,"station_id":"ce4bhm12rcd13ifvqgkg","pricing_plan_id":"cebpf4jnsgd1na2vs0mg"},{"bike_id":"42b089ed-4854-47a3-9a41-a17d47401ae4","system_id":"levelo_inurba_marseille","lat":43.32091,"lon":5.36823,"is_reserved":false,"is_disabled":false,"rental_uris":{"android":"levelo://app?vid=42b089ed-4854-47a3-9a41-a17d47401ae4","ios":"levelo://app?vid=42b089ed-4854-47a3-9a41-a17d47401ae4"},"vehicle_type_id":"4","last_reported":1765974229,"current_range_meters":14000,"station_id":"ce4bhrh2rcd13ifvqhug","pricing_plan_id":"cebpf4jnsgd1na2vs0mg"},{"bike_id":"cc3b4e55-1c9e-4360-89c0-5ac7deae3c77","system_id":"levelo_inurba_marseille","lat":43.33756,"lon":5.37437,"is_reserved":false,"is_disabled":false,"rental_uris":{"android":"levelo://app?vid=cc3b4e55-1c9e-4360-89c0-5ac7deae3c77","ios":"levelo://app?vid=cc3b4e55-1c9e-4360-89c0-5ac7deae3c77"},"vehicle_type_id":"4","last_reported":1765974229,"current_range_meters":14000,"station_id":"","pricing_plan_id":"cebpf4jnsgd1na2vs0mg"},{"bike_id":"0a066441-6d7a-4b76-8aa3-9bbfbe8e7d1d","system_id":"levelo_inurba_marseille","lat":43.29816,"lon":5.44063,"is_reserved":false,"is_disabled":false,"rental_uris":{"android":"levelo://app?vid=0a066441-6d7a-4b76-8aa3-9bbfbe8e7d1d","ios":"levelo://app?vid=0a066441-6d7a-4b76-8aa3-9bbfbe8e7d1d"},"vehicle_type_id":"4","last_reported":1765974229,"current_range_meters":14000,"station_id":"st_d3jp68qikq2c7381ktn0","pricing_plan_id":"cebpf4jnsgd1na2vs0mg"},{"bike_id":"8fae8413-56bb-4910-8bb9-64fffb3fb353","system_id":"levelo_inurba_marseille","lat":43.27828,"lon":5.40744,"is_reserved":false,"is_disabled":true,"rental_uris":{"android":"levelo://app?vid=8fae8413-56bb-4910-8bb9-64fffb3fb353","ios":"levelo://app?vid=8fae8413-56bb-4910-8bb9-64fffb3fb353"},"vehicle_type_id":"4","last_reported":1765974229,"current_range_meters":14000,"station_id":"ce4bhnh2rcd13ifvqgtg","pricing_plan_id":"cebpf4jnsgd1na2vs0mg"},{"bike_id":"0da795a4-81ae-458e-96a6-bb452f031ee7","system_id":"levelo_inurba_marseille","lat":43.30868,"lon":5.39643,"is_reserved":false,"is_disabled":false,"rental_uris":{"android":"levelo://app?vid=0da795a4-81ae-458e-96a6-bb452f031ee7","ios":"levelo://app?vid=0da795a4-81ae-458e-96a6-bb452f031ee7"},"vehicle_type_id":"4","last_reported":1765974229,"current_range_meters":14000,"station_id":"ce4bh012rcd13ifvqcv0","pricing_plan_id":"cebpf4jnsgd1na2vs0mg"},{"bike_id":"2f347f7d-9869-45e0-bfb1-9c3199a7aee4","system_id":"levelo_inurba_marseille","lat":43.22583,"lon":5.41604,"is_reserved":false,"is_disabled":false,"rental_uris":{"android":"levelo://app?vid=2f347f7d-9869-45e0-bfb1-9c3199a7aee4","ios":"levelo://app?vid=2f347f7d-9869-45e0-bfb1-9c3199a7aee4"},"vehicle_type_id":"4","last_reported":1765974229,"current_range_meters":14000,"station_id":"st_d2o4gvlbi1j2169b742g","pricing_plan_id":"cebpf4jnsgd1na2vs0mg"},{"bike_id":"74651154-e67d-4728-843e-4612ba075494","system_id":"levelo_inurba_marseille","lat":43.31327,"lon":5.36726,"is_reserved":false,"is_disabled":false,"rental_uris":{"android":"levelo://app?vid=74651154-e67d-4728-843e-4612ba075494","ios":"levelo://app?vid=74651154-e67d-4728-843e-4612ba075494"},"vehicle_type_id":"4","last_reported":1765974229,"current_range_meters":14400,"station_id":"ce4bgr92rcd13ifvqc6g","pricing_plan_id":"cebpf4jnsgd1na2vs0mg"},{"bike_id":"ccd5484f-f7d8-4049-8518-443f8cc3f24e","system_id":"levelo_inurba_marseille","lat":43.2848,"lon":5.48396,"is_reserved":false,"is_disabled":false,"rental_uris":{"android":"levelo://app?vid=ccd5484f-f7d8-4049-8518-443f8cc3f24e","ios":"levelo://app?vid=ccd5484f-f7d8-4049-8518-443f8cc3f24e"},"vehicle_type_id":"4","last_reported":1765974229,"current_range_meters":14400,"station_id":"st_d3svhcjqgbts73a3dn0g","pricing_plan_id":"cebpf4jnsgd1na2vs0mg"},{"bike_id":"fa7cf03a-fd7b-4626-88e6-e6a3de303ec5","system_id":"levelo_inurba_marseille","lat":43.30955,"lon":5.40176,"is_reserved":false,"is_disabled":false,"rental_uris":{"android":"levelo://app?vid=fa7cf03a-fd7b-4626-88e6-e6a3de303ec5","ios":"levelo://app?vid=fa7cf03a-fd7b-4626-88e6-e6a3de303ec5"},"vehicle_type_id":"4","last_reported":1765974229,"current_range_meters":14400,"station_id":"ce4bgvp2rcd13ifvqct0","pricing_plan_id":"cebpf4jnsgd1na2vs0mg"},{"bike_id":"e475080b-90d7-4bca-97b0-ce71ec59db68","system_id":"levelo_inurba_marseille","lat":43.3121,"lon":5.36586,"is_reserved":false,"is_disabled":false,"rental_uris":{"android":"levelo://app?vid=e475080b-90d7-4bca-97b0-ce71ec59db68","ios":"levelo://app?vid=e475080b-90d7-4bca-97b0-ce71ec59db68"},"vehicle_type_id":"4","last_reported":1765974229,"current_range_meters":14400,"station_id":"","pricing_plan_id":"cebpf4jnsgd1na2vs0mg"},{"bike_id":"5a22931f-c832-4cfa-833f-7746d965b93b","system_id":"levelo_inurba_marseille","lat":43.28404,"lon":5.38733,"is_reserved":false,"is_disabled":false,"rental_uris":{"android":"levelo://app?vid=5a22931f-c832-4cfa-833f-7746d965b93b","ios":"levelo://app?vid=5a22931f-c832-4cfa-833f-7746d965b93b"},"vehicle_type_id":"4","last_reported":1765974229,"current_range_meters":14400,"station_id":"","pricing_plan_id":"cebpf4jnsgd1na2vs0mg"},{"bike_id":"d9bc5e52-280c-44a1-a47d-af68fbe8081d","system_id":"levelo_inurba_marseille","lat":43.298171,"lon":5.403954,"is_reserved":false,"is_disabled":false,"rental_uris":{"android":"levelo://app?vid=d9bc5e52-280c-44a1-a47d-af68fbe8081d","ios":"levelo://app?vid=d9bc5e52-280c-44a1-a47d-af68fbe8081d"},"vehicle_type_id":"4","last_reported":1765974229,"current_range_meters":14400,"station_id":"ce4bh112rcd13ifvqd90","pricing_plan_id":"cebpf4jnsgd1na2vs0mg"},{"bike_id":"628dacd2-0db8-4326-b8fc-cb0030652fd5","system_id":"levelo_inurba_marseille","lat":43.32097,"lon":5.36776,"is_reserved":false,"is_disabled":false,"rental_uris":{"android":"levelo://app?vid=628dacd2-0db8-4326-b8fc-cb0030652fd5","ios":"levelo://app?vid=628dacd2-0db8-4326-b8fc-cb0030652fd5"},"vehicle_type_id":"4","last_reported":1765974229,"current_range_meters":14400,"station_id":"ce4bhrh2rcd13ifvqhug","pricing_plan_id":"cebpf4jnsgd1na2vs0mg"},{"bike_id":"a66019dd-8793-433b-bd75-d0cb037f3264","system_id":"levelo_inurba_marseille","lat":43.32329,"lon":5.367599,"is_reserved":false,"is_disabled":false,"rental_uris":{"android":"levelo://app?vid=a66019dd-8793-433b-bd75-d0cb037f3264","ios":"levelo://app?vid=a66019dd-8793-433b-bd75-d0cb037f3264"},"vehicle_type_id":"4","last_reported":1765974229,"current_range_meters":14400,"station_id":"ce4bhsh2rcd13ifvqi2g","pricing_plan_id":"cebpf4jnsgd1na2vs0mg"},{"bike_id":"8d930876-70e1-4b80-828b-b31b132a9cfa","system_id":"levelo_inurba_marseille","lat":43.26555,"lon":5.40352,"is_reserved":false,"is_disabled":false,"rental_uris":{"android":"levelo://app?vid=8d930876-70e1-4b80-828b-b31b132a9cfa","ios":"levelo://app?vid=8d930876-70e1-4b80-828b-b31b132a9cfa"},"vehicle_type_id":"4","last_reported":1765974229,"current_range_meters":14400,"station_id":"ce4bhmp2rcd13ifvqgng","pricing_plan_id":"cebpf4jnsgd1na2vs0mg"},