{"last_updated":1758006625,"ttl":60,"version":"2.2","data":{"bikes":[{"bike_id":"131b5504-5853-4e26-bf4d-bb373db8f14a","system_id":"levelo_inurba_marseille","lat":43.29571,"lon":5.3999,"is_reserved":false,"is_disabled":false,"rental_uris":{"android":"levelo://app?vid=131b5504-5853-4e26-bf4d-bb373db8f14a","ios":"levelo://app?vid=131b5504-5853-4e26-bf4d-bb373db8f14a"},"vehicle_type_id":"4","last_reported":1758006626,"current_range_meters":3200,"station_id":"ce4bh312rcd13ifvqdj0","pricing_plan_id":"cebpf4jnsgd1na2vs0mg"},{"bike_id":"acef2ffc-7eea-422b-9741-f34a74e6e6d0","system_id":"levelo_inurba_marseille","lat":43.23154,"lon":5.43704,"is_reserved":false,"is_disabled":false,"rental_uris":{"android":"levelo://app?vid=acef2ffc-7eea-422b-9741-f34a74e6e6d0","ios":"levelo://app?vid=acef2ffc-7eea-422b-9741-f34a74e6e6d0"},"vehicle_type_id":"4","last_reported":1758006626,"current_range_meters":3200,"station_id":"ce4bhmp2rcd13ifvqgog","pricing_plan_id":"cebpf4jnsgd1na2vs0mg"},{"bike_id":"d765e876-dc94-417e-ad8c-0ac49bf5261a","system_id":"levelo_inurba_marseille","lat":43.33465,"lon":5.36124,"is_reserved":false,"is_disabled":false,"rental_uris":{"android":"levelo://app?vid=d765e876-dc94-417e-ad8c-0ac49bf5261a","ios":"levelo://app?vid=d765e876-dc94-417e-ad8c-0ac49bf5261a"},"vehicle_type_id":"4","last_reported":1758006626,"current_range_meters":3200,"station_id":"","pricing_plan_id":"cebpf4jnsgd1na2vs0mg"},{"bike_id":"d9c11a94-d122-4240-b95b-24fdee8810ac","system_id":"levelo_inurba_marseille","lat":43.28276,"lon":5.3991,"is_reserved":false,"is_disabled":false,"rental_uris":{"android":"levelo://app?vid=d9c11a94-d122-4240-b95b-24fdee8810ac","ios":"levelo://app?vid=d9c11a94-d122-4240-b95b-24fdee8810ac"},"vehicle_type_id":"4","last_reported":1758006626,"current_range_meters":3200,"station_id":"","pricing_plan_id":"cebpf4jnsgd1na2vs0mg"},{"bike_id":"12ceb7a3-6845-497e-8b2f-3f9f4c7dcc2a","system_id":"levelo_inurba_marseille","lat":43.28932,"lon":5.36632,"is_reserved":false,"is_disabled":false,"rental_uris":{"android":"levelo://app?vid=12ceb7a3-6845-497e-8b2f-3f9f4c7dcc2a","ios":"levelo://app?vid=12ceb7a3-6845-497e-8b2f-3f9f4c7dcc2a"},"vehicle_type_id":"4","last_reported":1758006626,"current_range_meters":3200,"station_id":"ce4bhap2rcd13ifvqek0","pricing_plan_id":"cebpf4jnsgd1na2vs0mg"},{"bike_id":"d5cb70be-4baf-4968-a529-32aebcb0942c","system_id":"levelo_inurba_marseille","lat":43.30342,"lon":5.37913,"is_reserved":false,"is_disabled":false,"rental_uris":{"android":"levelo://app?vid=d5cb70be-4baf-4968-a529-32aebcb0942c","ios":"levelo://app?vid=d5cb70be-4baf-4968-a529-32aebcb0942c"},"vehicle_type_id":"4","last_reported":1758006626,"current_range_meters":3200,"station_id":"","pricing_plan_id":"cebpf4jnsgd1na2vs0mg"},{"bike_id":"c5cba6d7-e282-4417-a818-5fc0802dcb08","system_id":"levelo_inurba_marseille","lat":43.33761,"lon":5.3745,"is_reserved":false,"is_disabled":false,"rental_uris":{"android":"levelo://app?vid=c5cba6d7-e282-4417-a818-5fc0802dcb08","ios":"levelo://app?vid=c5cba6d7-e282-4417-a818-5fc0802dcb08"},"vehicle_type_id":"4","last_reported":1758006626,"current_range_meters":3200,"station_id":"","pricing_plan_id":"cebpf4jnsgd1na2vs0mg"},{"bike_id":"30e85da9-4a4e-420a-bc64-cfe1eeea89eb","system_id":"levelo_inurba_marseille","lat":43.28344,"lon":5.37668,"is_reserved":false,"is_disabled":false,"rental_uris":{"android":"levelo://app?vid=30e85da9-4a4e-420a-bc64-cfe1eeea89eb","ios":"levelo://app?vid=30e85da9-4a4e-420a-bc64-cfe1eeea89eb"},"vehicle_type_id":"4","last_reported":1758006626,"current_range_meters":3200,"station_id":"","pricing_plan_id":"cebpf4jnsgd1na2vs0mg"},{"bike_id":"a70e2ae4-4ab5-4cd9-9e9d-ad5cba65e886","system_id":"levelo_inurba_marseille","lat":43.2958,"lon":5.37513,"is_reserved":false,"is_disabled":false,"rental_uris":{"android":"levelo://app?vid=a70e2ae4-4ab5-4cd9-9e9d-ad5cba65e886","ios":"levelo://app?vid=a70e2ae4-4ab5-4cd9-9e9d-ad5cba65e886"},"vehicle_type_id":"4","last_reported":1758006626,"current_range_meters":3600,"station_id":"ce4bgh92rcd13ifvqb50","pricing_plan_id":"cebpf4jnsgd1na2vs0mg"},{"bike_id":"b35fdfc6-9c51-466f-b093-df90c8517e7b","system_id":"levelo_inurba_marseille","lat":43.29957,"lon":5.41322,"is_reserved":false,"is_disabled":false,"rental_uris":{"android":"levelo://app?vid=b35fdfc6-9c51-466f-b093-df90c8517e7b","ios":"levelo://app?vid=b35fdfc6-9c51-466f-b093-df90c8517e7b"},"vehicle_type_id":"4","last_reported":1758006626,"current_range_meters":3600,"station_id":"ce4bhp12rcd13ifvqh9g","pricing_plan_id":"cebpf4jnsgd1na2vs0mg"},{"bike_id":"237698c3-f7a7-4aa0-a898-7a0e8095f7be","system_id":"levelo_inurba_marseille","lat":43.30699,"lon":5.37563,"is_reserved":false,"is_disabled":false,"rental_uris":{"android":"levelo://app?vid=237698c3-f7a7-4aa0-a898-7a0e8095f7be","ios":"levelo://app?vid=237698c3-f7a7-4aa0-a898-7a0e8095f7be"},"vehicle_type_id":"4","last_reported":1758006626,"current_range_meters":3600,"station_id":"","pricing_plan_id":"cebpf4jnsgd1na2vs0mg"},{"bike_id":"f6397c54-f940-43a2-9e4f-4d75b77ea2a2","system_id":"levelo_inurba_marseille","lat":43.24173,"lon":5.39733,"is_reserved":false,"is_disabled":false,"rental_uris":{"android":"levelo://app?vid=f6397c54-f940-43a2-9e4f-4d75b77ea2a2","ios":"levelo://app?vid=f6397c54-f940-43a2-9e4f-4d75b77ea2a2"},"vehicle_type_id":"4","last_reported":1758006626,"current_range_meters":3600,"station_id":"ce4bhn12rcd13ifvqgpg","pricing_plan_id":"cebpf4jnsgd1na2vs0mg"},{"bike_id":"56fa3e33-56e5-4cd4-a988-95981d6fc344","system_id":"levelo_inurba_marseille","lat":43.22557,"lon":5.34886,"is_reserved":false,"is_disabled":false,"rental_uris":{"android":"levelo://app?vid=56fa3e33-56e5-4cd4-a988-95981d6fc344","ios":"levelo://app?vid=56fa3e33-56e5-4cd4-a988-95981d6fc344"},"vehicle_type_id":"4","last_reported":1758006626,"current_range_meters":4000,"station_id":"","pricing_plan_id":"cebpf4jnsgd1na2vs0mg"},{"bike_id":"4f9bd625-ea72-423e-9234-f59f397dfa3c","system_id":"levelo_inurba_marseille","lat":43.21193,"lon":5.35066,"is_reserved":false,"is_disabled":false,"rental_uris":{"android":"levelo://app?vid=4f9bd625-ea72-423e-9234-f59f397dfa3c","ios":"levelo://app?vid=4f9bd625-ea72-423e-9234-f59f397dfa3c"},"vehicle_type_id":"4","last_reported":1758006626,"current_range_meters":4000,"station_id":"st_cvj6sg6p6f1abm77japg","pricing_plan_id":"cebpf4jnsgd1na2vs0mg"},{"bike_id":"1d2e3442-9f4e-458e-87f5-21ca4baea1b9","system_id":"levelo_inurba_marseille","lat":43.25929,"lon":5.40916,"is_reserved":false,"is_disabled":false,"rental_uris":{"android":"levelo://app?vid=1d2e3442-9f4e-458e-87f5-21ca4baea1b9","ios":"levelo://app?vid=1d2e3442-9f4e-458e-87f5-21ca4baea1b9"},"vehicle_type_id":"4","last_reported":1758006626,"current_range_meters":4000,"station_id":"ce4bhm92rcd13ifvqglg","pricing_plan_id":"cebpf4jnsgd1na2vs0mg"},{"bike_id":"eae02049-3527-43aa-8676-90d0b5e654cc","system_id":"levelo_inurba_marseille","lat":43.25946,"lon":5.40923,"is_reserved":false,"is_disabled":false,"rental_uris":{"android":"levelo://app?vid=eae02049-3527-43aa-8676-90d0b5e654cc","ios":"levelo://app?vid=eae02049-3527-43aa-8676-90d0b5e654cc"},"vehicle_type_id":"4","last_reported":1758006626,"current_range_meters":4000,"station_id":"ce4bhm92rcd13ifvqglg","pricing_plan_id":"cebpf4jnsgd1na2vs0mg"},{"bike_id":"92328f20-9c61-4621-aefd-c280af7d31a0","system_id":"levelo_inurba_marseille","lat":43.28861,"lon":5.42524,"is_reserved":false,"is_disabled":false,"rental_uris":{"android":"levelo://app?vid=92328f20-9c61-4621-aefd-c280af7d31a0","ios":"levelo://app?vid=92328f20-9c61-4621-aefd-c280af7d31a0"},"vehicle_type_id":"4","last_reported":1758006626,"current_range_meters":4000,"station_id":"","pricing_plan_id":"cebpf4jnsgd1na2vs0mg"},{"bike_id":"71ebf9f6-6db5-4b2e-9702-18d0c5bfd873","system_id":"levelo_inurba_marseille","lat":43.26548,"lon":5.37286,"is_reserved":false,"is_disabled":false,"rental_uris":{"android":"levelo://app?vid=71ebf9f6-6db5-4b2e-9702-18d0c5bfd873","ios":"levelo://app?vid=71ebf9f6-6db5-4b2e-9702-18d0c5bfd873"},"vehicle_type_id":"4","last_reported":1758006626,"current_range_meters":4400,"station_id":"ce4bhg12rcd13ifvqf70","pricing_plan_id":"cebpf4jnsgd1na2vs0mg"},{"bike_id":"38f5970c-9806-401c-8961-6a41a9de19e6","system_id":"levelo_inurba_marseille","lat":43.29567,"lon":5.3997,"is_reserved":false,"is_disabled":false,"rental_uris":{"android":"levelo://app?vid=38f5970c-9806-401c-8961-6a41a9de19e6","ios":"levelo://app?vid=38f5970c-9806-401c-8961-6a41a9de19e6"},"vehicle_type_id":"4","last_reported":1758006626,"current_range_meters":4400,"station_id":"ce4bh312rcd13ifvqdj0","pricing_plan_id":"cebpf4jnsgd1na2vs0mg"},{"bike_id":"c37933c6-f301-4e72-ae28-b86236887c46","system_id":"levelo_inurba_marseille","lat":43.21743,"lon":5.3461,"is_reserved":false,"is_disabled":false,"rental_uris":{"android":"levelo://app?vid=c37933c6-f301-4e72-ae28-b86236887c46","ios":"levelo://app?vid=c37933c6-f301-4e72-ae28-b86236887c46"},"vehicle_type_id":"4","last_reported":1758006626,"current_range_meters":4400,"station_id":"","pricing_plan_id":"cebpf4jnsgd1na2vs0mg"},{"bike_id":"1a8c5cf7-ebfb-4955-b400-e89fbc2890c4","system_id":"levelo_inurba_marseille","lat":43.29967,"lon":5.38497,"is_reserved":false,"is_disabled":false,"rental_uris":{"android":"levelo://app?vid=1a8c5cf7-ebfb-4955-b400-e89fbc2890c4","ios":"levelo://app?vid=1a8c5cf7-ebfb-4955-b400-e89fbc2890c4"},"vehicle_type_id":"4","last_reported":1758006626,"current_range_meters":4400,"station_id":"ce4bgj92rcd13ifvqbd0","pricing_plan_id":"cebpf4jnsgd1na2vs0mg"},{"bike_id":"d232092e-5745-4845-8280-314410ccb41f","system_id":"levelo_inurba_marseille","lat":43.32023,"lon":5.41589,"is_reserved":false,"is_disabled":false,"rental_uris":{"android":"levelo://app?vid=d232092e-5745-4845-8280-314410ccb41f","ios":"levelo://app?vid=d232092e-5745-4845-8280-314410ccb41f"},"vehicle_type_id":"4","last_reported":1758006626,"current_range_meters":4800,"station_id":"ce4bhq92rcd13ifvqhkg","pricing_plan_id":"cebpf4jnsgd1na2vs0mg"},{"bike_id":"ef138f30-dc7a-4879-9aa7-48d4ab0f561b","system_id":"levelo_inurba_marseille","lat":43.25003,"lon":5.38923,"is_reserved":false,"is_disabled":false,"rental_uris":{"android":"levelo://app?vid=ef138f30-dc7a-4879-9aa7-48d4ab0f561b","ios":"levelo://app?vid=ef138f30-dc7a-4879-9aa7-48d4ab0f561b"},"vehicle_type_id":"4","last_reported":1758006626,"current_range_meters":4800,"station_id":"ce4bhgp2rcd13ifvqfd0","pricing_plan_id":"cebpf4jnsgd1na2vs0mg"},{"bike_id":"4ec115f7-70e2-44a0-950b-cc56db458600","system_id":"levelo_inurba_marseille","lat":43.217451,"lon":5.346011,"is_reserved":false,"is_disabled":true,"rental_uris":{"android":"levelo://app?vid=4ec115f7-70e2-44a0-950b-cc56db458600","ios":"levelo://app?vid=4ec115f7-70e2-44a0-950b-cc56db458600"},"vehicle_type_id":"4","last_reported":1758006626,"current_range_meters":4800,"station_id":"","pricing_plan_id":"cebpf4jnsgd1na2vs0mg"},{"bike_id":"bdaa7d38-490b-4329-900a-24864b18a84f","system_id":"levelo_inurba_marseille","lat":43.28968,"lon":5.3785,"is_reserved":false,"is_disabled":false,"rental_uris":{"android":"levelo://app?vid=bdaa7d38-490b-4329-900a-24864b18a84f","ios":"levelo://app?vid=bdaa7d38-490b-4329-900a-24864b18a84f"},"vehicle_type_id":"4","last_reported":1758006626,"current_range_meters":4800,"station_id":"ce4bh9p2rcd13ifvqed0","pricing_plan_id":"cebpf4jnsgd1na2vs0mg"},{"bike_id":"e4c370f1-6731-4896-a2c4-f49a448edf19","system_id":"levelo_inurba_marseille","lat":43.243934,"lon":5.370697,"is_reserved":false,"is_disabled":false,"rental_uris":{"android":"levelo://app?vid=e4c370f1-6731-4896-a2c4-f49a448edf19","ios":"levelo://app?vid=e4c370f1-6731-4896-a2c4-f49a448edf19"},"vehicle_type_id":"4","last_reported":1758006626,"current_range_meters":5600,"station_id":"ce4bhhh2rcd13ifvqfk0","pricing_plan_id":"cebpf4jnsgd1na2vs0mg"},{"bike_id":"233724f0-3529-4cc4-b935-d7b653520717","system_id":"levelo_inurba_marseille","lat":43.31227,"lon":5.368531,"is_reserved":false,"is_disabled":false,"rental_uris":{"android":"levelo://app?vid=233724f0-3529-4cc4-b935-d7b653520717","ios":"levelo://app?vid=233724f0-3529-4cc4-b935-d7b653520717"},"vehicle_type_id":"4","last_reported":1758006626,"current_range_meters":5600,"station_id":"ce4bgl92rcd13ifvqbq0","pricing_plan_id":"cebpf4jnsgd1na2vs0mg"},{"bike_id":"6b5b3c8e-1efc-443e-8d65-f1b5bb18a3da","system_id":"levelo_inurba_marseille","lat":43.26844,"lon":5.39618,"is_reserved":false,"is_disabled":false,"rental_uris":{"android":"levelo://app?vid=6b5b3c8e-1efc-443e-8d65-f1b5bb18a3da","ios":"levelo://app?vid=6b5b3c8e-1efc-443e-8d65-f1b5bb18a3da"},"vehicle_type_id":"4","last_reported":1758006626,"current_range_meters":5600,"station_id":"","pricing_plan_id":"cebpf4jnsgd1na2vs0mg"},{"bike_id":"b982f00c-34a9-4ed3-b17f-5c48d0cb70b9","system_id":"levelo_inurba_marseille","lat":43.23681,"lon":5.36014,"is_reserved":false,"is_disabled":false,"rental_uris":{"android":"levelo://app?vid=b982f00c-34a9-4ed3-b17f-5c48d0cb70b9","ios":"levelo://app?vid=b982f00c-34a9-4ed3-b17f-5c48d0cb70b9"},"vehicle_type_id":"4","last_reported":1758006626,"current_range_meters":5600,"station_id":"","pricing_plan_id":"cebpf4jnsgd1na2vs0mg"},{"bike_id":"51f43c07-2379-4404-a4b0-dba6cf694168","system_id":"levelo_inurba_marseille","lat":43.30306,"lon":5.36894,"is_reserved":false,"is_disabled":false,"rental_uris":{"android":"levelo://app?vid=51f43c07-2379-4404-a4b0-dba6cf694168","ios":"levelo://app?vid=51f43c07-2379-4404-a4b0-dba6cf694168"},"vehicle_type_id":"4","last_reported":1758006626,"current_range_meters":6000,"station_id":"ce4bgqh2rcd13ifvqc5g","pricing_plan_id":"cebpf4jnsgd1na2vs0mg"},{"bike_id":"ca4870c2-98e3-4ba0-969e-2d60537ab089","system_id":"levelo_inurba_marseille","lat":43.24995,"lon":5.38931,"is_reserved":false,"is_disabled":false,"rental_uris":{"android":"levelo://app?vid=ca4870c2-98e3-4ba0-969e-2d60537ab089","ios":"levelo://app?vid=ca4870c2-98e3-4ba0-969e-2d60537ab089"},"vehicle_type_id":"4","last_reported":1758006626,"current_range_meters":6000,"station_id":"ce4bhgp2rcd13ifvqfd0","pricing_plan_id":"cebpf4jnsgd1na2vs0mg"},{"bike_id":"aa91dd1f-0396-4a43-aa36-e3a577181865","system_id":"levelo_inurba_marseille","lat":43.286735,"lon":5.386801,"is_reserved":false,"is_disabled":false,"rental_uris":{"android":"levelo://app?vid=aa91dd1f-0396-4a43-aa36-e3a577181865","ios":"levelo://app?vid=aa91dd1f-0396-4a43-aa36-e3a577181865"},"vehicle_type_id":"4","last_reported":1758006626,"current_range_meters":6000,"station_id":"","pricing_plan_id":"cebpf4jnsgd1na2vs0mg"},{"bike_id":"693e5f26-ff02-47d2-8043-d0c88dc7dc9f","system_id":"levelo_inurba_marseille","lat":43.30205,"lon":5.39764,"is_reserved":false,"is_disabled":false,"rental_uris":{"android":"levelo://app?vid=693e5f26-ff02-47d2-8043-d0c88dc7dc9f","ios":"levelo://app?vid=693e5f26-ff02-47d2-8043-d0c88dc7dc9f"},"vehicle_type_id":"4","last_reported":1758006626,"current_range_meters":6400,"station_id":"ce4bgup2rcd13ifvqco0","pricing_plan_id":"cebpf4jnsgd1na2vs0mg"},{"bike_id":"7e32b3b1-4ee4-4249-92db-dbf81b881ef3","system_id":"levelo_inurba_marseille","lat":43.30886,"lon":5.39656,"is_reserved":false,"is_disabled":false,"rental_uris":{"android":"levelo://app?vid=7e32b3b1-4ee4-4249-92db-dbf81b881ef3","ios":"levelo://app?vid=7e32b3b1-4ee4-4249-92db-dbf81b881ef3"},"vehicle_type_id":"4","last_reported":1758006626,"current_range_meters":6400,"station_id":"ce4bh012rcd13ifvqcv0","pricing_plan_id":"cebpf4jnsgd1na2vs0mg"},{"bike_id":"337984be-6b49-4c11-94ae-6aa515cdd390","system_id":"levelo_inurba_marseille","lat":43.31225,"lon":5.36852,"is_reserved":false,"is_disabled":false,"rental_uris":{"android":"levelo://app?vid=337984be-6b49-4c11-94ae-6aa515cdd390","ios":"levelo://app?vid=337984be-6b49-4c11-94ae-6aa515cdd390"},"vehicle_type_id":"4","last_reported":1758006626,"current_range_meters":6400,"station_id":"ce4bgl92rcd13ifvqbq0","pricing_plan_id":"cebpf4jnsgd1na2vs0mg"},{"bike_id":"b53facd8-a344-438b-a2b6-052b7516c27e","system_id":"levelo_inurba_marseille","lat":43.2978,"lon":5.38125,"is_reserved":false,"is_disabled":false,"rental_uris":{"android":"levelo://app?vid=b53facd8-a344-438b-a2b6-052b7516c27e","ios":"levelo://app?vid=b53facd8-a344-438b-a2b6-052b7516c27e"},"vehicle_type_id":"4","last_reported":1758006626,"current_range_meters":6400,"station_id":"ce4bgip2rcd13ifvqbb0","pricing_plan_id":"cebpf4jnsgd1na2vs0mg"},{"bike_id":"6c8907ea-3e99-4ef5-beb9-68470e90b468","system_id":"levelo_inurba_marseille","lat":43.32286,"lon":5.38268,"is_reserved":false,"is_disabled":false,"rental_uris":{"android":"levelo://app?vid=6c8907ea-3e99-4ef5-beb9-68470e90b468","ios":"levelo://app?vid=6c8907ea-3e99-4ef5-beb9-68470e90b468"},"vehicle_type_id":"4","last_reported":1758006626,"current_range_meters":6400,"station_id":"ce4bhr12rcd13ifvqhqg","pricing_plan_id":"cebpf4jnsgd1na2vs0mg"},{"bike_id":"b786433d-e252-41b2-b924-db992b1e8212","system_id":"levelo_inurba_marseille","lat":43.28264,"lon":5.35061,"is_reserved":false,"is_disabled":false,"rental_uris":{"android":"levelo://app?vid=b786433d-e252-41b2-b924-db992b1e8212","ios":"levelo://app?vid=b786433d-e252-41b2-b924-db992b1e8212"},"vehicle_type_id":"4","last_reported":1758006626,"current_range_meters":6400,"station_id":"ce4bhbp2rcd13ifvqerg","pricing_plan_id":"cebpf4jnsgd1na2vs0mg"},{"bike_id":"dd32f779-e928-424d-999f-b730cf475fa7","system_id":"levelo_inurba_marseille","lat":43.22399,"lon":5.34657,"is_reserved":false,"is_disabled":false,"rental_uris":{"android":"levelo://app?vid=dd32f779-e928-424d-999f-b730cf475fa7","ios":"levelo://app?vid=dd32f779-e928-424d-999f-b730cf475fa7"},"vehicle_type_id":"4","last_reported":1758006626,"current_range_meters":6800,"station_id":"","pricing_plan_id":"cebpf4jnsgd1na2vs0mg"},{"bike_id":"163b7f00-73bf-42b8-b89b-a65f635bebbf","system_id":"levelo_inurba_marseille","lat":43.31372,"lon":5.3672,"is_reserved":false,"is_disabled":true,"rental_uris":{"android":"levelo://app?vid=163b7f00-73bf-42b8-b89b-a65f635bebbf","ios":"levelo://app?vid=163b7f00-73bf-42b8-b89b-a65f635bebbf"},"vehicle_type_id":"4","last_reported":1758006626,"current_range_meters":6800,"station_id":"ce4bgr92rcd13ifvqc6g","pricing_plan_id":"cebpf4jnsgd1na2vs0mg"},{"bike_id":"4d6e6605-7f16-44fa-a19a-c138ee7cb360","system_id":"levelo_inurba_marseille","lat":43.33799,"lon":5.37446,"is_reserved":false,"is_disabled":false,"rental_uris":{"android":"levelo://app?vid=4d6e6605-7f16-44fa-a19a-c138ee7cb360","ios":"levelo://app?vid=4d6e6605-7f16-44fa-a19a-c138ee7cb360"},"vehicle_type_id":"4","last_reported":1758006626,"current_range_meters":6800,"station_id":"","pricing_plan_id":"cebpf4jnsgd1na2vs0mg"},{"bike_id":"0589168a-e350-4bb0-ab6e-56c1c7021f1c","system_id":"levelo_inurba_marseille","lat":43.24161,"lon":5.36446,"is_reserved":false,"is_disabled":false,"rental_uris":{"android":"levelo://app?vid=0589168a-e350-4bb0-ab6e-56c1c7021f1c","ios":"levelo://app?vid=0589168a-e350-4bb0-ab6e-56c1c7021f1c"},"vehicle_type_id":"4","last_reported":1758006626,"current_range_meters":6800,"station_id":"cpo36qri1sfpv3e86is0","pricing_plan_id":"cebpf4jnsgd1na2vs0mg"},{"bike_id":"88c20462-8ac1-4bf6-a0c1-4ae62eb9526b","system_id":"levelo_inurba_marseille","lat":43.26571,"lon":5.39012,"is_reserved":false,"is_disabled":false,"rental_uris":{"android":"levelo://app?vid=88c20462-8ac1-4bf6-a0c1-4ae62eb9526b","ios":"levelo://app?vid=88c20462-8ac1-4bf6-a0c1-4ae62eb9526b"},"vehicle_type_id":"4","last_reported":1758006626,"current_range_meters":7200,"station_id":"ce4bhe12rcd13ifvqf30","pricing_plan_id":"cebpf4jnsgd1na2vs0mg"},{"bike_id":"d86661af-ef9e-4ffe-8e85-024176f6aa44","system_id":"levelo_inurba_marseille","lat":43.32482,"lon":5.36598,"is_reserved":false,"is_disabled":false,"rental_uris":{"android":"levelo://app?vid=d86661af-ef9e-4ffe-8e85-024176f6aa44","ios":"levelo://app?vid=d86661af-ef9e-4ffe-8e85-024176f6aa44"},"vehicle_type_id":"4","last_reported":1758006626,"current_range_meters":7200,"station_id":"ce4bhs12rcd13ifvqhvg","pricing_plan_id":"cebpf4jnsgd1na2vs0mg"},{"bike_id":"2fd02de3-2ff3-4e3b-b976-318425984715","system_id":"levelo_inurba_marseille","lat":43.24391,"lon":5.37058,"is_reserved":false,"is_disabled":false,"rental_uris":{"android":"levelo://app?vid=2fd02de3-2ff3-4e3b-b976-318425984715","ios":"levelo://app?vid=2fd02de3-2ff3-4e3b-b976-318425984715"},"vehicle_type_id":"4","last_reported":1758006626,"current_range_meters":7200,"station_id":"ce4bhhh2rcd13ifvqfk0","pricing_plan_id":"cebpf4jnsgd1na2vs0mg"},{"bike_id":"e5a9e419-47f5-49cc-8b68-f96b3c214c8c","system_id":"levelo_inurba_marseille","lat":43.29164,"lon":5.37158,"is_reserved":false,"is_disabled":false,"rental_uris":{"android":"levelo://app?vid=e5a9e419-47f5-49cc-8b68-f96b3c214c8c","ios":"levelo://app?vid=e5a9e419-47f5-49cc-8b68-f96b3c214c8c"},"vehicle_type_id":"4","last_reported":1758006626,"current_range_meters":7200,"station_id":"ce4bha92rcd13ifvqeh0","pricing_plan_id":"cebpf4jnsgd1na2vs0mg"},{"bike_id":"5821873a-b673-4119-b429-af9f66fdb533","system_id":"levelo_inurba_marseille","lat":43.27502,"lon":5.42461,"is_reserved":false,"is_disabled":false,"rental_uris":{"android":"levelo://app?vid=5821873a-b673-4119-b429-af9f66fdb533","ios":"levelo://app?vid=5821873a-b673-4119-b429-af9f66fdb533"},"vehicle_type_id":"4","last_reported":1758006626,"current_range_meters":7200,"station_id":"ce4bhn92rcd13ifvqgrg","pricing_plan_id":"cebpf4jnsgd1na2vs0mg"},{"bike_id":"a4899312-2b15-4864-9490-57373e46a89e","system_id":"levelo_inurba_marseille","lat":43.29918,"lon":5.37488,"is_reserved":false,"is_disabled":false,"rental_uris":{"android":"levelo://app?vid=a4899312-2b15-4864-9490-57373e46a89e","ios":"levelo://app?vid=a4899312-2b15-4864-9490-57373e46a89e"},"vehicle_type_id":"4","last_reported":1758006626,"current_range_meters":7200,"station_id":"ce4bgjh2rcd13ifvqbg0","pricing_plan_id":"cebpf4jnsgd1na2vs0mg"},{"bike_id":"ab0a7d39-226b-4c70-83e3-16af0f373d82","system_id":"levelo_inurba_marseille","lat":43.2418,"lon":5.39729,"is_reserved":false,"is_disabled":false,"rental_uris":{"android":"levelo://app?vid=ab0a7d39-226b-4c70-83e3-16af0f373d82","ios":"levelo://app?vid=ab0a7d39-226b-4c70-83e3-16af0f373d82"},"vehicle_type_id":"4","last_reported":1758006626,"current_range_meters":7200,"station_id":"ce4bhn12rcd13ifvqgpg","pricing_plan_id":"cebpf4jnsgd1na2vs0mg"},{"bike_id":"d500502c-ca7d-4d82-907e-13560cfa06b0","system_id":"levelo_inurba_marseille","lat":43.23154,"lon":5.43707,"is_reserved":false,"is_disabled":false,"rental_uris":{"android":"levelo://app?vid=d500502c-ca7d-4d82-907e-13560cfa06b0","ios":"levelo://app?vid=d500502c-ca7d-4d82-907e-13560cfa06b0"},"vehicle_type_id":"4","last_reported":1758006626,"current_range_meters":8000,"station_id":"ce4bhmp2rcd13ifvqgog","pricing_plan_id":"cebpf4jnsgd1na2vs0mg"},{"bike_id":"f217bcab-6114-4995-a83f-ebdf9fd066fe","system_id":"levelo_inurba_marseille","lat":43.245453,"lon":5.395218,"is_reserved":false,"is_disabled":false,"rental_uris":{"android":"levelo://app?vid=f217bcab-6114-4995-a83f-ebdf9fd066fe","ios":"levelo://app?vid=f217bcab-6114-4995-a83f-ebdf9fd066fe"},"vehicle_type_id":"4","last_reported":1758006626,"current_range_meters":8000,"station_id":"ce4bhlp2rcd13ifvqgjg","pricing_plan_id":"cebpf4jnsgd1na2vs0mg"},{"bike_id":"62c22ba6-1ef7-4e6a-8e0f-1faf4d672925","system_id":"levelo_inurba_marseille","lat":43.26558,"lon":5.40333,"is_reserved":false,"is_disabled":false,"rental_uris":{"android":"levelo://app?vid=62c22ba6-1ef7-4e6a-8e0f-1faf4d672925","ios":"levelo://app?vid=62c22ba6-1ef7-4e6a-8e0f-1faf4d672925"},"vehicle_type_id":"4","last_reported":1758006626,"current_range_meters":8400,"station_id":"ce4bhmp2rcd13ifvqgng","pricing_plan_id":"cebpf4jnsgd1na2vs0mg"},{"bike_id":"4e33aaa4-62b6-4b86-8112-0e51e3bde2fa","system_id":"levelo_inurba_marseille","lat":43.27072,"lon":5.40249,"is_reserved":false,"is_disabled":false,"rental_uris":{"android":"levelo://app?vid=4e33aaa4-62b6-4b86-8112-0e51e3bde2fa","ios":"levelo://app?vid=4e33aaa4-62b6-4b86-8112-0e51e3bde2fa"},"vehicle_type_id":"4","last_reported":1758006626,"current_range_meters":8400,"station_id":"ce4bhk92rcd13ifvqgc0","pricing_plan_id":"cebpf4jnsgd1na2vs0mg"},{"bike_id":"b1ee0a13-6de5-448d-8ba2-d5aa601420dc","system_id":"levelo_inurba_marseille","lat":43.28713,"lon":5.3795,"is_reserved":false,"is_disabled":false,"rental_uris":{"android":"levelo://app?vid=b1ee0a13-6de5-448d-8ba2-d5aa601420dc","ios":"levelo://app?vid=b1ee0a13-6de5-448d-8ba2-d5aa601420dc"},"vehicle_type_id":"4","last_reported":1758006626,"current_range_meters":8400,"station_id":"ce4bh9p2rcd13ifvqec0","pricing_plan_id":"cebpf4jnsgd1na2vs0mg"},{"bike_id":"3497e7a2-d1ac-45c8-b73f-5afe1dfc9c24","system_id":"levelo_inurba_marseille","lat":43.286107,"lon":5.370651,"is_reserved":false,"is_disabled":false,"rental_uris":{"android":"levelo://app?vid=3497e7a2-d1ac-45c8-b73f-5afe1dfc9c24","ios":"levelo://app?vid=3497e7a2-d1ac-45c8-b73f-5afe1dfc9c24"},"vehicle_type_id":"4","last_reported":1758006626,"current_range_meters":8400,"station_id":"ce4bht12rcd13ifvqi60","pricing_plan_id":"cebpf4jnsgd1na2vs0mg"},{"bike_id":"c6687fa4-366c-4273-a731-aeb0854ebf90","system_id":"levelo_inurba_marseille","lat":43.28274,"lon":5.35066,"is_reserved":false,"is_disabled":true,"rental_uris":{"android":"levelo://app?vid=c6687fa4-366c-4273-a731-aeb0854ebf90","ios":"levelo://app?vid=c6687fa4-366c-4273-a731-aeb0854ebf90"},"vehicle_type_id":"4","last_reported":1758006626,"current_range_meters":8400,"station_id":"ce4bhbp2rcd13ifvqerg","pricing_plan_id":"cebpf4jnsgd1na2vs0mg"},{"bike_id":"cfd495cd-c878-4405-a948-4a840a4a7a39","system_id":"levelo_inurba_marseille","lat":43.31355,"lon":5.36703,"is_reserved":false,"is_disabled":false,"rental_uris":{"android":"levelo://app?vid=cfd495cd-c878-4405-a948-4a840a4a7a39","ios":"levelo://app?vid=cfd495cd-c878-4405-a948-4a840a4a7a39"},"vehicle_type_id":"4","last_reported":1758006626,"current_range_meters":8400,"station_id":"ce4bgr92rcd13ifvqc6g","pricing_plan_id":"cebpf4jnsgd1na2vs0mg"},{"bike_id":"57127154-7e15-4346-89ed-ab9d76ef9c2c","system_id":"levelo_inurba_marseille","lat":43.28838,"lon":5.36326,"is_reserved":false,"is_disabled":false,"rental_uris":{"android":"levelo://app?vid=57127154-7e15-4346-89ed-ab9d76ef9c2c","ios":"levelo://app?vid=57127154-7e15-4346-89ed-ab9d76ef9c2c"},"vehicle_type_id":"4","last_reported":1758006626,"current_range_meters":8400,"station_id":"","pricing_plan_id":"cebpf4jnsgd1na2vs0mg"},{"bike_id":"0cc43392-0623-46b4-b28b-f93569f72d61","system_id":"levelo_inurba_marseille","lat":43.26044,"lon":5.42019,"is_reserved":false,"is_disabled":false,"rental_uris":{"android":"levelo://app?vid=0cc43392-0623-46b4-b28b-f93569f72d61","ios":"levelo://app?vid=0cc43392-0623-46b4-b28b-f93569f72d61"},"vehicle_type_id":"4","last_reported":1758006626,"current_range_meters":8800,"station_id":"","pricing_plan_id":"cebpf4jnsgd1na2vs0mg"},{"bike_id":"c2ffca00-1ed8-408c-a4a5-7f0f2d9bb049","system_id":"levelo_inurba_marseille","lat":43.25935,"lon":5.409,"is_reserved":false,"is_disabled":false,"rental_uris":{"android":"levelo://app?vid=c2ffca00-1ed8-408c-a4a5-7f0f2d9bb049","ios":"levelo://app?vid=c2ffca00-1ed8-408c-a4a5-7f0f2d9bb049"},"vehicle_type_id":"4","last_reported":1758006626,"current_range_meters":8800,"station_id":"ce4bhm92rcd13ifvqglg","pricing_plan_id":"cebpf4jnsgd1na2vs0mg"},{"bike_id":"e7a329bd-ed66-4ac7-aaba-63f2810ddd86","system_id":"levelo_inurba_marseille","lat":43.31859,"lon":5.37206,"is_reserved":false,"is_disabled":true,"rental_uris":{"android":"levelo://app?vid=e7a329bd-ed66-4ac7-aaba-63f2810ddd86","ios":"levelo://app?vid=e7a329bd-ed66-4ac7-aaba-63f2810ddd86"},"vehicle_type_id":"4","last_reported":1758006626,"current_range_meters":8800,"station_id":"","pricing_plan_id":"cebpf4jnsgd1na2vs0mg"},{"bike_id":"95987ecd-45a4-4284-8780-83f1f342994a","system_id":"levelo_inurba_marseille","lat":43.23149,"lon":5.43722,"is_reserved":false,"is_disabled":false,"rental_uris":{"android":"levelo://app?vid=95987ecd-45a4-4284-8780-83f1f342994a","ios":"levelo://app?vid=95987ecd-45a4-4284-8780-83f1f342994a"},"vehicle_type_id":"4","last_reported":1758006626,"current_range_meters":8800,"station_id":"ce4bhmp2rcd13ifvqgog","pricing_plan_id":"cebpf4jnsgd1na2vs0mg"},{"bike_id":"0286979b-e917-46bc-b3fe-c863a4b762f7","system_id":"levelo_inurba_marseille","lat":43.28722,"lon":5.37939,"is_reserved":false,"is_disabled":false,"rental_uris":{"android":"levelo://app?vid=0286979b-e917-46bc-b3fe-c863a4b762f7","ios":"levelo://app?vid=0286979b-e917-46bc-b3fe-c863a4b762f7"},"vehicle_type_id":"4","last_reported":1758006626,"current_range_meters":8800,"station_id":"ce4bh9p2rcd13ifvqec0","pricing_plan_id":"cebpf4jnsgd1na2vs0mg"},{"bike_id":"e55ae905-9410-44da-8e6c-dadab4fedc17","system_id":"levelo_inurba_marseille","lat":43.21751,"lon":5.34608,"is_reserved":false,"is_disabled":false,"rental_uris":{"android":"levelo://app?vid=e55ae905-9410-44da-8e6c-dadab4fedc17","ios":"levelo://app?vid=e55ae905-9410-44da-8e6c-dadab4fedc17"},"vehicle_type_id":"4","last_reported":1758006626,"current_range_meters":8800,"station_id":"","pricing_plan_id":"cebpf4jnsgd1na2vs0mg"},{"bike_id":"e586952e-75aa-4f82-ac0d-3fef0a607514","system_id":"levelo_inurba_marseille","lat":43.29108,"lon":5.380906,"is_reserved":false,"is_disabled":false,"rental_uris":{"android":"levelo://app?vid=e586952e-75aa-4f82-ac0d-3fef0a607514","ios":"levelo://app?vid=e586952e-75aa-4f82-ac0d-3fef0a607514"},"vehicle_type_id":"4","last_reported":1758006626,"current_range_meters":8800,"station_id":"ce4bgph2rcd13ifvqc2g","pricing_plan_id":"cebpf4jnsgd1na2vs0mg"},{"bike_id":"4a7ab358-9d5a-4d4a-b1a7-c218a2367d47","system_id":"levelo_inurba_marseille","lat":43.28989,"lon":5.3785,"is_reserved":false,"is_disabled":false,"rental_uris":{"android":"levelo://app?vid=4a7ab358-9d5a-4d4a-b1a7-c218a2367d47","ios":"levelo://app?vid=4a7ab358-9d5a-4d4a-b1a7-c218a2367d47"},"vehicle_type_id":"4","last_reported":1758006626,"current_range_meters":8800,"station_id":"ce4bh9p2rcd13ifvqed0","pricing_plan_id":"cebpf4jnsgd1na2vs0mg"},{"bike_id":"6d08832a-5b3d-4860-a82f-e94b3a6575f2","system_id":"levelo_inurba_marseille","lat":43.28116,"lon":5.42785,"is_reserved":false,"is_disabled":false,"rental_uris":{"android":"levelo://app?vid=6d08832a-5b3d-4860-a82f-e94b3a6575f2","ios":"levelo://app?vid=6d08832a-5b3d-4860-a82f-e94b3a6575f2"},"vehicle_type_id":"4","last_reported":1758006626,"current_range_meters":9200,"station_id":"","pricing_plan_id":"cebpf4jnsgd1na2vs0mg"},{"bike_id":"f7825ce6-de89-45bf-831f-3599d0d91c3c","system_id":"levelo_inurba_marseille","lat":43.30687,"lon":5.36803,"is_reserved":false,"is_disabled":false,"rental_uris":{"android":"levelo://app?vid=f7825ce6-de89-45bf-831f-3599d0d91c3c","ios":"levelo://app?vid=f7825ce6-de89-45bf-831f-3599d0d91c3c"},"vehicle_type_id":"4","last_reported":1758006626,"current_range_meters":9200,"station_id":"","pricing_plan_id":"cebpf4jnsgd1na2vs0mg"},{"bike_id":"3d41f796-94f6-466c-a31c-85781edaabf0","system_id":"levelo_inurba_marseille","lat":43.30949,"lon":5.3903,"is_reserved":false,"is_disabled":false,"rental_uris":{"android":"levelo://app?vid=3d41f796-94f6-466c-a31c-85781edaabf0","ios":"levelo://app?vid=3d41f796-94f6-466c-a31c-85781edaabf0"},"vehicle_type_id":"4","last_reported":1758006626,"current_range_meters":9200,"station_id":"ce4bgup2rcd13ifvqco0","pricing_plan_id":"cebpf4jnsgd1na2vs0mg"},{"bike_id":"bc6a1cf4-23f8-4b03-8d00-3282363cf339","system_id":"levelo_inurba_marseille","lat":43.27942,"lon":5.41031,"is_reserved":false,"is_disabled":false,"rental_uris":{"android":"levelo://app?vid=bc6a1cf4-23f8-4b03-8d00-3282363cf339","ios":"levelo://app?vid=bc6a1cf4-23f8-4b03-8d00-3282363cf339"},"vehicle_type_id":"4","last_reported":1758006626,"current_range_meters":9200,"station_id":"ce4bhnp2rcd13ifvqh0g","pricing_plan_id":"cebpf4jnsgd1na2vs0mg"},{"bike_id":"08dee011-f074-4d1a-80a8-19e7796d6f1e","system_id":"levelo_inurba_marseille","lat":43.33602,"lon":5.41019,"is_reserved":false,"is_disabled":false,"rental_uris":{"android":"levelo://app?vid=08dee011-f074-4d1a-80a8-19e7796d6f1e","ios":"levelo://app?vid=08dee011-f074-4d1a-80a8-19e7796d6f1e"},"vehicle_type_id":"4","last_reported":1758006626,"current_range_meters":9200,"station_id":"ce4bhqh2rcd13ifvqhmg","pricing_plan_id":"cebpf4jnsgd1na2vs0mg"},{"bike_id":"f528148e-470d-458e-9bb9-40b15741e66e","system_id":"levelo_inurba_marseille","lat":43.2175,"lon":5.34613,"is_reserved":false,"is_disabled":false,"rental_uris":{"android":"levelo://app?vid=f528148e-470d-458e-9bb9-40b15741e66e","ios":"levelo://app?vid=f528148e-470d-458e-9bb9-40b15741e66e"},"vehicle_type_id":"4","last_reported":1758006626,"current_range_meters":9200,"station_id":"st_cvj6r9ubvosntc0bgbag","pricing_plan_id":"cebpf4jnsgd1na2vs0mg"},{"bike_id":"54e93d2e-a13d-4889-a7dc-1cadc966df46","system_id":"levelo_inurba_marseille","lat":43.30158,"lon":5.38085,"is_reserved":false,"is_disabled":false,"rental_uris":{"android":"levelo://app?vid=54e93d2e-a13d-4889-a7dc-1cadc966df46","ios":"levelo://app?vid=54e93d2e-a13d-4889-a7dc-1cadc966df46"},"vehicle_type_id":"4","last_reported":1758006626,"current_range_meters":9600,"station_id":"ce4bgjp2rcd13ifvqbh0","pricing_plan_id":"cebpf4jnsgd1na2vs0mg"},{"bike_id":"1a6a6049-58e6-4183-af3a-710abb7ccdc6","system_id":"levelo_inurba_marseille","lat":43.2668,"lon":5.38268,"is_reserved":false,"is_disabled":false,"rental_uris":{"android":"levelo://app?vid=1a6a6049-58e6-4183-af3a-710abb7ccdc6","ios":"levelo://app?vid=1a6a6049-58e6-4183-af3a-710abb7ccdc6"},"vehicle_type_id":"4","last_reported":1758006626,"current_range_meters":9600,"station_id":"ce4bhg92rcd13ifvqf90","pricing_plan_id":"cebpf4jnsgd1na2vs0mg"},{"bike_id":"95b79ffc-918e-4aed-bd76-bc18213c0376","system_id":"levelo_inurba_marseille","lat":43.301364,"lon":5.37416,"is_reserved":false,"is_disabled":false,"rental_uris":{"android":"levelo://app?vid=95b79ffc-918e-4aed-bd76-bc18213c0376","ios":"levelo://app?vid=95b79ffc-918e-4aed-bd76-bc18213c0376"},"vehicle_type_id":"4","last_reported":1758006626,"current_range_meters":9600,"station_id":"ce4bgs92rcd13ifvqcc0","pricing_plan_id":"cebpf4jnsgd1na2vs0mg"},{"bike_id":"30270e42-b6f4-42a3-8492-8db3fcc2138d","system_id":"levelo_inurba_marseille","lat":43.30552,"lon":5.36552,"is_reserved":false,"is_disabled":false,"rental_uris":{"android":"levelo://app?vid=30270e42-b6f4-42a3-8492-8db3fcc2138d","ios":"levelo://app?vid=30270e42-b6f4-42a3-8492-8db3fcc2138d"},"vehicle_type_id":"4","last_reported":1758006626,"current_range_meters":9600,"station_id":"ce4bgs12rcd13ifvqcag","pricing_plan_id":"cebpf4jnsgd1na2vs0mg"},{"bike_id":"322c1f5a-85db-4ef6-bcd4-1b5c417c8ee0","system_id":"levelo_inurba_marseille","lat":43.3377,"lon":5.37488,"is_reserved":false,"is_disabled":false,"rental_uris":{"android":"levelo://app?vid=322c1f5a-85db-4ef6-bcd4-1b5c417c8ee0","ios":"levelo://app?vid=322c1f5a-85db-4ef6-bcd4-1b5c417c8ee0"},"vehicle_type_id":"4","last_reported":1758006626,"current_range_meters":9600,"station_id":"","pricing_plan_id":"cebpf4jnsgd1na2vs0mg"},{"bike_id":"34539d66-9bce-4d1c-8b94-78e2e11c6e1a","system_id":"levelo_inurba_marseille","lat":43.288658,"lon":5.425098,"is_reserved":false,"is_disabled":false,"rental_uris":{"android":"levelo://app?vid=34539d66-9bce-4d1c-8b94-78e2e11c6e1a","ios":"levelo://app?vid=34539d66-9bce-4d1c-8b94-78e2e11c6e1a"},"vehicle_type_id":"4","last_reported":1758006626,"current_range_meters":9600,"station_id":"","pricing_plan_id":"cebpf4jnsgd1na2vs0mg"},{"bike_id":"3b1a430b-81a2-48c0-89b0-0b9735b5d487","system_id":"levelo_inurba_marseille","lat":43.30286,"lon":5.3771,"is_reserved":false,"is_disabled":false,"rental_uris":{"android":"levelo://app?vid=3b1a430b-81a2-48c0-89b0-0b9735b5d487","ios":"levelo://app?vid=3b1a430b-81a2-48c0-89b0-0b9735b5d487"},"vehicle_type_id":"4","last_reported":1758006626,"current_range_meters":9600,"station_id":"ce4bguh2rcd13ifvqcj0","pricing_plan_id":"cebpf4jnsgd1na2vs0mg"},{"bike_id":"e7eb708a-73c8-48ef-9115-8ad691975972","system_id":"levelo_inurba_marseille","lat":43.31083,"lon":5.42428,"is_reserved":false,"is_disabled":false,"rental_uris":{"android":"levelo://app?vid=e7eb708a-73c8-48ef-9115-8ad691975972","ios":"levelo://app?vid=e7eb708a-73c8-48ef-9115-8ad691975972"},"vehicle_type_id":"4","last_reported":1758006626,"current_range_meters":9600,"station_id":"ce4bhp92rcd13ifvqhag","pricing_plan_id":"cebpf4jnsgd1na2vs0mg"},{"bike_id":"5cc9f4c2-4488-4dd3-9520-2bdd8ed726b6","system_id":"levelo_inurba_marseille","lat":43.32536,"lon":5.41451,"is_reserved":false,"is_disabled":false,"rental_uris":{"android":"levelo://app?vid=5cc9f4c2-4488-4dd3-9520-2bdd8ed726b6","ios":"levelo://app?vid=5cc9f4c2-4488-4dd3-9520-2bdd8ed726b6"},"vehicle_type_id":"4","last_reported":1758006626,"current_range_meters":10000,"station_id":"ce4bhq12rcd13ifvqhhg","pricing_plan_id":"cebpf4jnsgd1na2vs0mg"},{"bike_id":"6019f712-e505-4ba8-9ef2-7c4515dc477e","system_id":"levelo_inurba_marseille","lat":43.31224,"lon":5.36872,"is_reserved":false,"is_disabled":false,"rental_uris":{"android":"levelo://app?vid=6019f712-e505-4ba8-9ef2-7c4515dc477e","ios":"levelo://app?vid=6019f712-e505-4ba8-9ef2-7c4515dc477e"},"vehicle_type_id":"4","last_reported":1758006626,"current_range_meters":10000,"station_id":"ce4bgl92rcd13ifvqbq0","pricing_plan_id":"cebpf4jnsgd1na2vs0mg"},{"bike_id":"d1c9fbb5-3751-461d-bd3e-d1f313d0a30e","system_id":"levelo_inurba_marseille","lat":43.32511,"lon":5.41459,"is_reserved":false,"is_disabled":false,"rental_uris":{"android":"levelo://app?vid=d1c9fbb5-3751-461d-bd3e-d1f313d0a30e","ios":"levelo://app?vid=d1c9fbb5-3751-461d-bd3e-d1f313d0a30e"},"vehicle_type_id":"4","last_reported":1758006626,"current_range_meters":10000,"station_id":"ce4bhq12rcd13ifvqhhg","pricing_plan_id":"cebpf4jnsgd1na2vs0mg"},{"bike_id":"a155e67d-bec0-4326-ae57-c035ef5e1c81","system_id":"levelo_inurba_marseille","lat":43.29906,"lon":5.43669,"is_reserved":false,"is_disabled":false,"rental_uris":{"android":"levelo://app?vid=a155e67d-bec0-4326-ae57-c035ef5e1c81","ios":"levelo://app?vid=a155e67d-bec0-4326-ae57-c035ef5e1c81"},"vehicle_type_id":"4","last_reported":1758006626,"current_range_meters":10000,"station_id":"ce4bhpp2rcd13ifvqhfg","pricing_plan_id":"cebpf4jnsgd1na2vs0mg"},{"bike_id":"4b3d29e4-4d48-4f95-a652-be16bfec385d","system_id":"levelo_inurba_marseille","lat":43.29901,"lon":5.37634,"is_reserved":false,"is_disabled":false,"rental_uris":{"android":"levelo://app?vid=4b3d29e4-4d48-4f95-a652-be16bfec385d","ios":"levelo://app?vid=4b3d29e4-4d48-4f95-a652-be16bfec385d"},"vehicle_type_id":"4","last_reported":1758006626,"current_range_meters":10000,"station_id":"","pricing_plan_id":"cebpf4jnsgd1na2vs0mg"},{"bike_id":"336c74d9-d9c9-46d7-a94b-134b36ad023a","system_id":"levelo_inurba_marseille","lat":43.29851,"lon":5.37834,"is_reserved":false,"is_disabled":false,"rental_uris":{"android":"levelo://app?vid=336c74d9-d9c9-46d7-a94b-134b36ad023a","ios":"levelo://app?vid=336c74d9-d9c9-46d7-a94b-134b36ad023a"},"vehicle_type_id":"4","last_reported":1758006626,"current_range_meters":10000,"station_id":"","pricing_plan_id":"cebpf4jnsgd1na2vs0mg"},{"bike_id":"8a36e82e-d9cc-498f-830a-80946aebd9df","system_id":"levelo_inurba_marseille","lat":43.24072,"lon":5.37766,"is_reserved":false,"is_disabled":false,"rental_uris":{"android":"levelo://app?vid=8a36e82e-d9cc-498f-830a-80946aebd9df","ios":"levelo://app?vid=8a36e82e-d9cc-498f-830a-80946aebd9df"},"vehicle_type_id":"4","last_reported":1758006626,"current_range_meters":10000,"station_id":"ce4bhnp2rcd13ifvqgvg","pricing_plan_id":"cebpf4jnsgd1na2vs0mg"},{"bike_id":"a8a43c18-a121-49b2-8087-086f0e71ca20","system_id":"levelo_inurba_marseille","lat":43.29043,"lon":5.37571,"is_reserved":false,"is_disabled":false,"rental_uris":{"android":"levelo://app?vid=a8a43c18-a121-49b2-8087-086f0e71ca20","ios":"levelo://app?vid=a8a43c18-a121-49b2-8087-086f0e71ca20"},"vehicle_type_id":"4","last_reported":1758006626,"current_range_meters":10800,"station_id":"ce4bh692rcd13ifvqe90","pricing_plan_id":"cebpf4jnsgd1na2vs0mg"},{"bike_id":"d73ebff0-d957-41dc-a638-29b88edc4926","system_id":"levelo_inurba_marseille","lat":43.22558,"lon":5.41624,"is_reserved":false,"is_disabled":false,"rental_uris":{"android":"levelo://app?vid=d73ebff0-d957-41dc-a638-29b88edc4926","ios":"levelo://app?vid=d73ebff0-d957-41dc-a638-29b88edc4926"},"vehicle_type_id":"4","last_reported":1758006626,"current_range_meters":10800,"station_id":"st_d2o4gvlbi1j2169b742g","pricing_plan_id":"cebpf4jnsgd1na2vs0mg"},{"bike_id":"c32083d7-1b20-47fb-9554-30f9b2a4184b","system_id":"levelo_inurba_marseille","lat":43.21769,"lon":5.34633,"is_reserved":false,"is_disabled":false,"rental_uris":{"android":"levelo://app?vid=c32083d7-1b20-47fb-9554-30f9b2a4184b","ios":"levelo://app?vid=c32083d7-1b20-47fb-9554-30f9b2a4184b"},"vehicle_type_id":"4","last_reported":1758006626,"current_range_meters":10800,"station_id":"st_cvj6r9ubvosntc0bgbag","pricing_plan_id":"cebpf4jnsgd1na2vs0mg"},{"bike_id":"7eb8c7b3-a7e3-49be-9c05-399a7d33a2b8","system_id":"levelo_inurba_marseille","lat":43.30133,"lon":5.37429,"is_reserved":false,"is_disabled":false,"rental_uris":{"android":"levelo://app?vid=7eb8c7b3-a7e3-49be-9c05-399a7d33a2b8","ios":"levelo://app?vid=7eb8c7b3-a7e3-49be-9c05-399a7d33a2b8"},"vehicle_type_id":"4","last_reported":1758006626,"current_range_meters":10800,"station_id":"ce4bgs92rcd13ifvqcc0","pricing_plan_id":"cebpf4jnsgd1na2vs0mg"},{"bike_id":"84883177-03dd-4b4d-81c8-472f5e76aa09","system_id":"levelo_inurba_marseille","lat":43.25922,"lon":5.40858,"is_reserved":false,"is_disabled":false,"rental_uris":{"android":"levelo://app?vid=84883177-03dd-4b4d-81c8-472f5e76aa09","ios":"levelo://app?vid=84883177-03dd-4b4d-81c8-472f5e76aa09"},"vehicle_type_id":"4","last_reported":1758006626,"current_range_meters":10800,"station_id":"ce4bhm92rcd13ifvqglg","pricing_plan_id":"cebpf4jnsgd1na2vs0mg"},{"bike_id":"c07e7a2d-d8a6-4efd-8723-e965be4d1a74","system_id":"levelo_inurba_marseille","lat":43.22539,"lon":5.34831,"is_reserved":false,"is_disabled":false,"rental_uris":{"android":"levelo://app?vid=c07e7a2d-d8a6-4efd-8723-e965be4d1a74","ios":"levelo://app?vid=c07e7a2d-d8a6-4efd-8723-e965be4d1a74"},"vehicle_type_id":"4","last_reported":1758006626,"current_range_meters":10800,"station_id":"","pricing_plan_id":"cebpf4jnsgd1na2vs0mg"},{"bike_id":"4718d7e4-8331-4aba-b128-a7a4ffbf6d41","system_id":"levelo_inurba_marseille","lat":43.316942,"lon":5.404679,"is_reserved":false,"is_disabled":false,"rental_uris":{"android":"levelo://app?vid=4718d7e4-8331-4aba-b128-a7a4ffbf6d41","ios":"levelo://app?vid=4718d7e4-8331-4aba-b128-a7a4ffbf6d41"},"vehicle_type_id":"4","last_reported":1758006626,"current_range_meters":10800,"station_id":"ce4bh392rcd13ifvqdm0","pricing_plan_id":"cebpf4jnsgd1na2vs0mg"},{"bike_id":"67789e55-8899-4423-b7d3-1979a0ccc4d5","system_id":"levelo_inurba_marseille","lat":43.31334,"lon":5.36711,"is_reserved":false,"is_disabled":false,"rental_uris":{"android":"levelo://app?vid=67789e55-8899-4423-b7d3-1979a0ccc4d5","ios":"levelo://app?vid=67789e55-8899-4423-b7d3-1979a0ccc4d5"},"vehicle_type_id":"4","last_reported":1758006626,"current_range_meters":10800,"station_id":"ce4bgr92rcd13ifvqc6g","pricing_plan_id":"cebpf4jnsgd1na2vs0mg"},{"bike_id":"47d8fb18-d89e-440e-86f1-265d1e8f0175","system_id":"levelo_inurba_marseille","lat":43.26215,"lon":5.37447,"is_reserved":false,"is_disabled":false,"rental_uris":{"android":"levelo://app?vid=47d8fb18-d89e-440e-86f1-265d1e8f0175","ios":"levelo://app?vid=47d8fb18-d89e-440e-86f1-265d1e8f0175"},"vehicle_type_id":"4","last_reported":1758006626,"current_range_meters":11200,"station_id":"ce4bhgp2rcd13ifvqfc0","pricing_plan_id":"cebpf4jnsgd1na2vs0mg"},{"bike_id":"fe9f38a3-79c8-40c2-b17b-c2687463ee3a","system_id":"levelo_inurba_marseille","lat":43.25934,"lon":5.40905,"is_reserved":false,"is_disabled":false,"rental_uris":{"android":"levelo://app?vid=fe9f38a3-79c8-40c2-b17b-c2687463ee3a","ios":"levelo://app?vid=fe9f38a3-79c8-40c2-b17b-c2687463ee3a"},"vehicle_type_id":"4","last_reported":1758006626,"current_range_meters":11200,"station_id":"ce4bhm92rcd13ifvqglg","pricing_plan_id":"cebpf4jnsgd1na2vs0mg"},{"bike_id":"952554dc-ad91-4812-9f2c-d3d20f723cc9","system_id":"levelo_inurba_marseille","lat":43.30476,"lon":5.37921,"is_reserved":false,"is_disabled":false,"rental_uris":{"android":"levelo://app?vid=952554dc-ad91-4812-9f2c-d3d20f723cc9","ios":"levelo://app?vid=952554dc-ad91-4812-9f2c-d3d20f723cc9"},"vehicle_type_id":"4","last_reported":1758006626,"current_range_meters":11200,"station_id":"ce4bgup2rcd13ifvqcn0","pricing_plan_id":"cebpf4jnsgd1na2vs0mg"},{"bike_id":"cd02c080-8936-4e2b-af4d-301cbe8eb8f1","system_id":"levelo_inurba_marseille","lat":43.30049,"lon":5.40355,"is_reserved":false,"is_disabled":false,"rental_uris":{"android":"levelo://app?vid=cd02c080-8936-4e2b-af4d-301cbe8eb8f1","ios":"levelo://app?vid=cd02c080-8936-4e2b-af4d-301cbe8eb8f1"},"vehicle_type_id":"4","last_reported":1758006626,"current_range_meters":11200,"station_id":"","pricing_plan_id":"cebpf4jnsgd1na2vs0mg"},{"bike_id":"6e4db572-0aa6-4923-88a7-349397830237","system_id":"levelo_inurba_marseille","lat":43.30469,"lon":5.37908,"is_reserved":false,"is_disabled":false,"rental_uris":{"android":"levelo://app?vid=6e4db572-0aa6-4923-88a7-349397830237","ios":"levelo://app?vid=6e4db572-0aa6-4923-88a7-349397830237"},"vehicle_type_id":"4","last_reported":1758006626,"current_range_meters":11200,"station_id":"ce4bgup2rcd13ifvqcn0","pricing_plan_id":"cebpf4jnsgd1na2vs0mg"},{"bike_id":"511f6c29-3390-4042-b48e-75a4d61a54e0","system_id":"levelo_inurba_marseille","lat":43.3202,"lon":5.36722,"is_reserved":false,"is_disabled":false,"rental_uris":{"android":"levelo://app?vid=511f6c29-3390-4042-b48e-75a4d61a54e0","ios":"levelo://app?vid=511f6c29-3390-4042-b48e-75a4d61a54e0"},"vehicle_type_id":"4","last_reported":1758006626,"current_range_meters":11200,"station_id":"","pricing_plan_id":"cebpf4jnsgd1na2vs0mg"},{"bike_id":"bcb1fc41-d6dc-41e6-86a2-f35c2da1461d","system_id":"levelo_inurba_marseille","lat":43.29029,"lon":5.37555,"is_reserved":false,"is_disabled":true,"rental_uris":{"android":"levelo://app?vid=bcb1fc41-d6dc-41e6-86a2-f35c2da1461d","ios":"levelo://app?vid=bcb1fc41-d6dc-41e6-86a2-f35c2da1461d"},"vehicle_type_id":"4","last_reported":1758006626,"current_range_meters":11200,"station_id":"ce4bh692rcd13ifvqe90","pricing_plan_id":"cebpf4jnsgd1na2vs0mg"},{"bike_id":"3dbaea07-3afd-403d-8367-7bfa92596a01","system_id":"levelo_inurba_marseille","lat":43.22533,"lon":5.34843,"is_reserved":false,"is_disabled":false,"rental_uris":{"android":"levelo://app?vid=3dbaea07-3afd-403d-8367-7bfa92596a01","ios":"levelo://app?vid=3dbaea07-3afd-403d-8367-7bfa92596a01"},"vehicle_type_id":"4","last_reported":1758006626,"current_range_meters":11200,"station_id":"","pricing_plan_id":"cebpf4jnsgd1na2vs0mg"},{"bike_id":"28e0000c-aefd-4823-a247-d95f437bf510","system_id":"levelo_inurba_marseille","lat":43.32483,"lon":5.36569,"is_reserved":false,"is_disabled":false,"rental_uris":{"android":"levelo://app?vid=28e0000c-aefd-4823-a247-d95f437bf510","ios":"levelo://app?vid=28e0000c-aefd-4823-a247-d95f437bf510"},"vehicle_type_id":"4","last_reported":1758006626,"current_range_meters":11200,"station_id":"ce4bhs12rcd13ifvqhvg","pricing_plan_id":"cebpf4jnsgd1na2vs0mg"},{"bike_id":"e5c0f9fa-aa79-401b-ac6b-a846850c5345","system_id":"levelo_inurba_marseille","lat":43.27848,"lon":5.38477,"is_reserved":false,"is_disabled":false,"rental_uris":{"android":"levelo://app?vid=e5c0f9fa-aa79-401b-ac6b-a846850c5345","ios":"levelo://app?vid=e5c0f9fa-aa79-401b-ac6b-a846850c5345"},"vehicle_type_id":"4","last_reported":1758006626,"current_range_meters":11200,"station_id":"","pricing_plan_id":"cebpf4jnsgd1na2vs0mg"},{"bike_id":"8f7bbb28-f3e1-4f22-be70-f64adb064283","system_id":"levelo_inurba_marseille","lat":43.29168,"lon":5.37161,"is_reserved":false,"is_disabled":false,"rental_uris":{"android":"levelo://app?vid=8f7bbb28-f3e1-4f22-be70-f64adb064283","ios":"levelo://app?vid=8f7bbb28-f3e1-4f22-be70-f64adb064283"},"vehicle_type_id":"4","last_reported":1758006626,"current_range_meters":11600,"station_id":"ce4bha92rcd13ifvqeh0","pricing_plan_id":"cebpf4jnsgd1na2vs0mg"},{"bike_id":"8ef8bf7d-8a91-4724-8c2e-ddeef723e28a","system_id":"levelo_inurba_marseille","lat":43.27028,"lon":5.37935,"is_reserved":false,"is_disabled":false,"rental_uris":{"android":"levelo://app?vid=8ef8bf7d-8a91-4724-8c2e-ddeef723e28a","ios":"levelo://app?vid=8ef8bf7d-8a91-4724-8c2e-ddeef723e28a"},"vehicle_type_id":"4","last_reported":1758006626,"current_range_meters":11600,"station_id":"","pricing_plan_id":"cebpf4jnsgd1na2vs0mg"},{"bike_id":"875eed7d-860c-48e8-9314-1b4af39b1432","system_id":"levelo_inurba_marseille","lat":43.27996,"lon":5.40026,"is_reserved":false,"is_disabled":false,"rental_uris":{"android":"levelo://app?vid=875eed7d-860c-48e8-9314-1b4af39b1432","ios":"levelo://app?vid=875eed7d-860c-48e8-9314-1b4af39b1432"},"vehicle_type_id":"4","last_reported":1758006626,"current_range_meters":11600,"station_id":"ce4bho92rcd13ifvqh4g","pricing_plan_id":"cebpf4jnsgd1na2vs0mg"},{"bike_id":"0f4d2891-6929-4e20-aef8-6d5e9c64bbc4","system_id":"levelo_inurba_marseille","lat":43.30141,"lon":5.37405,"is_reserved":false,"is_disabled":false,"rental_uris":{"android":"levelo://app?vid=0f4d2891-6929-4e20-aef8-6d5e9c64bbc4","ios":"levelo://app?vid=0f4d2891-6929-4e20-aef8-6d5e9c64bbc4"},"vehicle_type_id":"4","last_reported":1758006626,"current_range_meters":11600,"station_id":"ce4bgs92rcd13ifvqcc0","pricing_plan_id":"cebpf4jnsgd1na2vs0mg"},{"bike_id":"a696dd6a-d6f9-47b7-a79d-789f9c273771","system_id":"levelo_inurba_marseille","lat":43.32356,"lon":5.36795,"is_reserved":false,"is_disabled":false,"rental_uris":{"android":"levelo://app?vid=a696dd6a-d6f9-47b7-a79d-789f9c273771","ios":"levelo://app?vid=a696dd6a-d6f9-47b7-a79d-789f9c273771"},"vehicle_type_id":"4","last_reported":1758006626,"current_range_meters":11600,"station_id":"ce4bhsh2rcd13ifvqi2g","pricing_plan_id":"cebpf4jnsgd1na2vs0mg"},{"bike_id":"02d56be7-a682-4563-9ee2-79054ee7d3d9","system_id":"levelo_inurba_marseille","lat":43.34469,"lon":5.43117,"is_reserved":false,"is_disabled":false,"rental_uris":{"android":"levelo://app?vid=02d56be7-a682-4563-9ee2-79054ee7d3d9","ios":"levelo://app?vid=02d56be7-a682-4563-9ee2-79054ee7d3d9"},"vehicle_type_id":"4","last_reported":1758006626,"current_range_meters":11600,"station_id":"","pricing_plan_id":"cebpf4jnsgd1na2vs0mg"},{"bike_id":"1ef033c3-beeb-4ce4-bc6c-b9fe5cb40438","system_id":"levelo_inurba_marseille","lat":43.30352,"lon":5.41875,"is_reserved":false,"is_disabled":false,"rental_uris":{"android":"levelo://app?vid=1ef033c3-beeb-4ce4-bc6c-b9fe5cb40438","ios":"levelo://app?vid=1ef033c3-beeb-4ce4-bc6c-b9fe5cb40438"},"vehicle_type_id":"4","last_reported":1758006626,"current_range_meters":11600,"station_id":"ce4bhop2rcd13ifvqh7g","pricing_plan_id":"cebpf4jnsgd1na2vs0mg"},{"bike_id":"77246e06-46b3-406d-9b69-b9b3e2cbdee1","system_id":"levelo_inurba_marseille","lat":43.28051,"lon":5.386348,"is_reserved":false,"is_disabled":false,"rental_uris":{"android":"levelo://app?vid=77246e06-46b3-406d-9b69-b9b3e2cbdee1","ios":"levelo://app?vid=77246e06-46b3-406d-9b69-b9b3e2cbdee1"},"vehicle_type_id":"4","last_reported":1758006626,"current_range_meters":11600,"station_id":"","pricing_plan_id":"cebpf4jnsgd1na2vs0mg"},{"bike_id":"bd1add26-46de-45c3-8c04-68bb93955ceb","system_id":"levelo_inurba_marseille","lat":43.24066,"lon":5.37768,"is_reserved":false,"is_disabled":false,"rental_uris":{"android":"levelo://app?vid=bd1add26-46de-45c3-8c04-68bb93955ceb","ios":"levelo://app?vid=bd1add26-46de-45c3-8c04-68bb93955ceb"},"vehicle_type_id":"4","last_reported":1758006626,"current_range_meters":12000,"station_id":"ce4bhnp2rcd13ifvqgvg","pricing_plan_id":"cebpf4jnsgd1na2vs0mg"},{"bike_id":"62afb98a-7655-4584-b987-894608b8506d","system_id":"levelo_inurba_marseille","lat":43.30454,"lon":5.37938,"is_reserved":false,"is_disabled":false,"rental_uris":{"android":"levelo://app?vid=62afb98a-7655-4584-b987-894608b8506d","ios":"levelo://app?vid=62afb98a-7655-4584-b987-894608b8506d"},"vehicle_type_id":"4","last_reported":1758006626,"current_range_meters":12000,"station_id":"","pricing_plan_id":"cebpf4jnsgd1na2vs0mg"},{"bike_id":"e824d254-16a6-4ae4-983a-05af083f4c81","system_id":"levelo_inurba_marseille","lat":43.21753,"lon":5.34607,"is_reserved":false,"is_disabled":false,"rental_uris":{"android":"levelo://app?vid=e824d254-16a6-4ae4-983a-05af083f4c81","ios":"levelo://app?vid=e824d254-16a6-4ae4-983a-05af083f4c81"},"vehicle_type_id":"4","last_reported":1758006626,"current_range_meters":12000,"station_id":"","pricing_plan_id":"cebpf4jnsgd1na2vs0mg"},{"bike_id":"96895806-bb92-438f-ba44-7295d4fccec6","system_id":"levelo_inurba_marseille","lat":43.30466,"lon":5.37924,"is_reserved":false,"is_disabled":false,"rental_uris":{"android":"levelo://app?vid=96895806-bb92-438f-ba44-7295d4fccec6","ios":"levelo://app?vid=96895806-bb92-438f-ba44-7295d4fccec6"},"vehicle_type_id":"4","last_reported":1758006626,"current_range_meters":12000,"station_id":"","pricing_plan_id":"cebpf4jnsgd1na2vs0mg"},{"bike_id":"f3cf4224-fddb-4fd0-ba31-7f85a2c8161e","system_id":"levelo_inurba_marseille","lat":43.30473,"lon":5.37902,"is_reserved":false,"is_disabled":false,"rental_uris":{"android":"levelo://app?vid=f3cf4224-fddb-4fd0-ba31-7f85a2c8161e","ios":"levelo://app?vid=f3cf4224-fddb-4fd0-ba31-7f85a2c8161e"},"vehicle_type_id":"4","last_reported":1758006626,"current_range_meters":12000,"station_id":"","pricing_plan_id":"cebpf4jnsgd1na2vs0mg"},{"bike_id":"e7a84df9-d247-4184-8399-fc192bced154","system_id":"levelo_inurba_marseille","lat":43.3091,"lon":5.36849,"is_reserved":false,"is_disabled":false,"rental_uris":{"android":"levelo://app?vid=e7a84df9-d247-4184-8399-fc192bced154","ios":"levelo://app?vid=e7a84df9-d247-4184-8399-fc192bced154"},"vehicle_type_id":"4","last_reported":1758006626,"current_range_meters":12000,"station_id":"ce4bgn92rcd13ifvqbvg","pricing_plan_id":"cebpf4jnsgd1na2vs0mg"},{"bike_id":"0e7ca744-df6d-4ccc-8539-59580940394d","system_id":"levelo_inurba_marseille","lat":43.30596,"lon":5.37225,"is_reserved":false,"is_disabled":false,"rental_uris":{"android":"levelo://app?vid=0e7ca744-df6d-4ccc-8539-59580940394d","ios":"levelo://app?vid=0e7ca744-df6d-4ccc-8539-59580940394d"},"vehicle_type_id":"4","last_reported":1758006626,"current_range_meters":12400,"station_id":"ce4bgqh2rcd13ifvqc4g","pricing_plan_id":"cebpf4jnsgd1na2vs0mg"},{"bike_id":"2ad9d091-6f73-40bd-9d65-0454c5e68519","system_id":"levelo_inurba_marseille","lat":43.24544,"lon":5.39525,"is_reserved":false,"is_disabled":false,"rental_uris":{"android":"levelo://app?vid=2ad9d091-6f73-40bd-9d65-0454c5e68519","ios":"levelo://app?vid=2ad9d091-6f73-40bd-9d65-0454c5e68519"},"vehicle_type_id":"4","last_reported":1758006626,"current_range_meters":12400,"station_id":"ce4bhlp2rcd13ifvqgjg","pricing_plan_id":"cebpf4jnsgd1na2vs0mg"},{"bike_id":"5c0b2341-c41a-4f62-9e5f-92e6a593fad9","system_id":"levelo_inurba_marseille","lat":43.33761,"lon":5.37405,"is_reserved":false,"is_disabled":false,"rental_uris":{"android":"levelo://app?vid=5c0b2341-c41a-4f62-9e5f-92e6a593fad9","ios":"levelo://app?vid=5c0b2341-c41a-4f62-9e5f-92e6a593fad9"},"vehicle_type_id":"4","last_reported":1758006626,"current_range_meters":12800,"station_id":"","pricing_plan_id":"cebpf4jnsgd1na2vs0mg"},{"bike_id":"e95f93e8-9db3-405d-8dbd-6881e9ff99ab","system_id":"levelo_inurba_marseille","lat":43.29267,"lon":5.38447,"is_reserved":false,"is_disabled":false,"rental_uris":{"android":"levelo://app?vid=e95f93e8-9db3-405d-8dbd-6881e9ff99ab","ios":"levelo://app?vid=e95f93e8-9db3-405d-8dbd-6881e9ff99ab"},"vehicle_type_id":"4","last_reported":1758006626,"current_range_meters":12800,"station_id":"ce4bh692rcd13ifvqea0","pricing_plan_id":"cebpf4jnsgd1na2vs0mg"},{"bike_id":"ed3829aa-3872-45ae-8d72-446d24328d60","system_id":"levelo_inurba_marseille","lat":43.24176,"lon":5.39725,"is_reserved":false,"is_disabled":false,"rental_uris":{"android":"levelo://app?vid=ed3829aa-3872-45ae-8d72-446d24328d60","ios":"levelo://app?vid=ed3829aa-3872-45ae-8d72-446d24328d60"},"vehicle_type_id":"4","last_reported":1758006626,"current_range_meters":12800,"station_id":"ce4bhn12rcd13ifvqgpg","pricing_plan_id":"cebpf4jnsgd1na2vs0mg"},{"bike_id":"d28c30f7-d993-418e-b279-e6e75970549b","system_id":"levelo_inurba_marseille","lat":43.29609,"lon":5.37706,"is_reserved":false,"is_disabled":true,"rental_uris":{"android":"levelo://app?vid=d28c30f7-d993-418e-b279-e6e75970549b","ios":"levelo://app?vid=d28c30f7-d993-418e-b279-e6e75970549b"},"vehicle_type_id":"4","last_reported":1758006626,"current_range_meters":12800,"station_id":"ce4bgi92rcd13ifvqb90","pricing_plan_id":"cebpf4jnsgd1na2vs0mg"},{"bike_id":"8c7692b9-1451-4501-a890-6cc020078d7d","system_id":"levelo_inurba_marseille","lat":43.24071,"lon":5.37758,"is_reserved":false,"is_disabled":false,"rental_uris":{"android":"levelo://app?vid=8c7692b9-1451-4501-a890-6cc020078d7d","ios":"levelo://app?vid=8c7692b9-1451-4501-a890-6cc020078d7d"},"vehicle_type_id":"4","last_reported":1758006626,"current_range_meters":12800,"station_id":"ce4bhnp2rcd13ifvqgvg","pricing_plan_id":"cebpf4jnsgd1na2vs0mg"},{"bike_id":"f4e0ee7b-2e0b-4285-8c24-af7f548f39e0","system_id":"levelo_inurba_marseille","lat":43.27813,"lon":5.40715,"is_reserved":false,"is_disabled":false,"rental_uris":{"android":"levelo://app?vid=f4e0ee7b-2e0b-4285-8c24-af7f548f39e0","ios":"levelo://app?vid=f4e0ee7b-2e0b-4285-8c24-af7f548f39e0"},"vehicle_type_id":"4","last_reported":1758006626,"current_range_meters":12800,"station_id":"ce4bhnh2rcd13ifvqgtg","pricing_plan_id":"cebpf4jnsgd1na2vs0mg"},{"bike_id":"50e02510-f280-401d-afe7-3717ea328db6","system_id":"levelo_inurba_marseille","lat":43.27495,"lon":5.42455,"is_reserved":false,"is_disabled":false,"rental_uris":{"android":"levelo://app?vid=50e02510-f280-401d-afe7-3717ea328db6","ios":"levelo://app?vid=50e02510-f280-401d-afe7-3717ea328db6"},"vehicle_type_id":"4","last_reported":1758006626,"current_range_meters":12800,"station_id":"ce4bhn92rcd13ifvqgrg","pricing_plan_id":"cebpf4jnsgd1na2vs0mg"},{"bike_id":"8da5ba39-35c6-4bf3-8f01-bbf73a1be15a","system_id":"levelo_inurba_marseille","lat":43.30912,"lon":5.36823,"is_reserved":false,"is_disabled":false,"rental_uris":{"android":"levelo://app?vid=8da5ba39-35c6-4bf3-8f01-bbf73a1be15a","ios":"levelo://app?vid=8da5ba39-35c6-4bf3-8f01-bbf73a1be15a"},"vehicle_type_id":"4","last_reported":1758006626,"current_range_meters":13600,"station_id":"ce4bgn92rcd13ifvqbvg","pricing_plan_id":"cebpf4jnsgd1na2vs0mg"},{"bike_id":"cd6108e5-78df-465f-95dc-1be2dc82f413","system_id":"levelo_inurba_marseille","lat":43.30525,"lon":5.38433,"is_reserved":false,"is_disabled":false,"rental_uris":{"android":"levelo://app?vid=cd6108e5-78df-465f-95dc-1be2dc82f413","ios":"levelo://app?vid=cd6108e5-78df-465f-95dc-1be2dc82f413"},"vehicle_type_id":"4","last_reported":1758006626,"current_range_meters":12800,"station_id":"ce4bgg92rcd13ifvqb30","pricing_plan_id":"cebpf4jnsgd1na2vs0mg"},{"bike_id":"fbf68d05-5125-49dc-91fb-265fd58ee496","system_id":"levelo_inurba_marseille","lat":43.24073,"lon":5.37778,"is_reserved":false,"is_disabled":false,"rental_uris":{"android":"levelo://app?vid=fbf68d05-5125-49dc-91fb-265fd58ee496","ios":"levelo://app?vid=fbf68d05-5125-49dc-91fb-265fd58ee496"},"vehicle_type_id":"4","last_reported":1758006626,"current_range_meters":14000,"station_id":"ce4bhnp2rcd13ifvqgvg","pricing_plan_id":"cebpf4jnsgd1na2vs0mg"},{"bike_id":"ac432599-4ed2-49ea-90e3-e09e4f087455","system_id":"levelo_inurba_marseille","lat":43.33584,"lon":5.40979,"is_reserved":false,"is_disabled":false,"rental_uris":{"android":"levelo://app?vid=ac432599-4ed2-49ea-90e3-e09e4f087455","ios":"levelo://app?vid=ac432599-4ed2-49ea-90e3-e09e4f087455"},"vehicle_type_id":"4","last_reported":1758006626,"current_range_meters":14000,"station_id":"","pricing_plan_id":"cebpf4jnsgd1na2vs0mg"},{"bike_id":"fbf67bf5-d1db-4706-93f3-0ef9ffc9189a","system_id":"levelo_inurba_marseille","lat":43.25886,"lon":5.39922,"is_reserved":false,"is_disabled":false,"rental_uris":{"android":"levelo://app?vid=fbf67bf5-d1db-4706-93f3-0ef9ffc9189a","ios":"levelo://app?vid=fbf67bf5-d1db-4706-93f3-0ef9ffc9189a"},"vehicle_type_id":"4","last_reported":1758006626,"current_range_meters":14000,"station_id":"ce4bhhp2rcd13ifvqfm0","pricing_plan_id":"cebpf4jnsgd1na2vs0mg"},{"bike_id":"3e38d538-dd34-4981-9d3c-7e224878c3d2","system_id":"levelo_inurba_marseille","lat":43.3254,"lon":5.41445,"is_reserved":false,"is_disabled":false,"rental_uris":{"android":"levelo://app?vid=3e38d538-dd34-4981-9d3c-7e224878c3d2","ios":"levelo://app?vid=3e38d538-dd34-4981-9d3c-7e224878c3d2"},"vehicle_type_id":"4","last_reported":1758006626,"current_range_meters":14000,"station_id":"ce4bhq12rcd13ifvqhhg","pricing_plan_id":"cebpf4jnsgd1na2vs0mg"},{"bike_id":"dfa1d1bf-ec3b-42e4-9914-651a2afdbfe4","system_id":"levelo_inurba_marseille","lat":43.29755,"lon":5.3814,"is_reserved":false,"is_disabled":false,"rental_uris":{"android":"levelo://app?vid=dfa1d1bf-ec3b-42e4-9914-651a2afdbfe4","ios":"levelo://app?vid=dfa1d1bf-ec3b-42e4-9914-651a2afdbfe4"},"vehicle_type_id":"4","last_reported":1758006626,"current_range_meters":14000,"station_id":"","pricing_plan_id":"cebpf4jnsgd1na2vs0mg"},{"bike_id":"36446c3f-002a-46d2-b033-bb1722e35930","system_id":"levelo_inurba_marseille","lat":43.27808,"lon":5.40705,"is_reserved":false,"is_disabled":false,"rental_uris":{"android":"levelo://app?vid=36446c3f-002a-46d2-b033-bb1722e35930","ios":"levelo://app?vid=36446c3f-002a-46d2-b033-bb1722e35930"},"vehicle_type_id":"4","last_reported":1758006626,"current_range_meters":14000,"station_id":"ce4bhnh2rcd13ifvqgtg","pricing_plan_id":"cebpf4jnsgd1na2vs0mg"},{"bike_id":"0ec22504-4f53-4a7d-8664-2802d447c65f","system_id":"levelo_inurba_marseille","lat":43.22543,"lon":5.34842,"is_reserved":false,"is_disabled":false,"rental_uris":{"android":"levelo://app?vid=0ec22504-4f53-4a7d-8664-2802d447c65f","ios":"levelo://app?vid=0ec22504-4f53-4a7d-8664-2802d447c65f"},"vehicle_type_id":"4","last_reported":1758006626,"current_range_meters":14000,"station_id":"","pricing_plan_id":"cebpf4jnsgd1na2vs0mg"},{"bike_id":"8b81ef7d-9b8a-491c-a40b-2c92e2fdaec0","system_id":"levelo_inurba_marseille","lat":43.30905,"lon":5.36849,"is_reserved":false,"is_disabled":false,"rental_uris":{"android":"levelo://app?vid=8b81ef7d-9b8a-491c-a40b-2c92e2fdaec0","ios":"levelo://app?vid=8b81ef7d-9b8a-491c-a40b-2c92e2fdaec0"},"vehicle_type_id":"4","last_reported":1758006626,"current_range_meters":14000,"station_id":"ce4bgn92rcd13ifvqbvg","pricing_plan_id":"cebpf4jnsgd1na2vs0mg"},{"bike_id":"66e4218a-9958-44a2-8fcb-335bf5fade68","system_id":"levelo_inurba_marseille","lat":43.23154,"lon":5.43712,"is_reserved":false,"is_disabled":false,"rental_uris":{"android":"levelo://app?vid=66e4218a-9958-44a2-8fcb-335bf5fade68","ios":"levelo://app?vid=66e4218a-9958-44a2-8fcb-335bf5fade68"},"vehicle_type_id":"4","last_reported":1758006626,"current_range_meters":14400,"station_id":"ce4bhmp2rcd13ifvqgog","pricing_plan_id":"cebpf4jnsgd1na2vs0mg"},{"bike_id":"20b73f19-94a9-4422-8287-288687278c23","system_id":"levelo_inurba_marseille","lat":43.2407,"lon":5.3773,"is_reserved":false,"is_disabled":false,"rental_uris":{"android":"levelo://app?vid=20b73f19-94a9-4422-8287-288687278c23","ios":"levelo://app?vid=20b73f19-94a9-4422-8287-288687278c23"},"vehicle_type_id":"4","last_reported":1758006626,"current_range_meters":14400,"station_id":"ce4bhnp2rcd13ifvqgvg","pricing_plan_id":"cebpf4jnsgd1na2vs0mg"},{"bike_id":"46909d28-69f8-436e-bfac-9d519712b52a","system_id":"levelo_inurba_marseille","lat":43.278425,"lon":5.392049,"is_reserved":false,"is_disabled":false,"rental_uris":{"android":"levelo://app?vid=46909d28-69f8-436e-bfac-9d519712b52a","ios":"levelo://app?vid=46909d28-69f8-436e-bfac-9d519712b52a"},"vehicle_type_id":"4","last_reported":1758006626,"current_range_meters":14400,"station_id":"ce4bhjp2rcd13ifvqga0","pricing_plan_id":"cebpf4jnsgd1na2vs0mg"},{"bike_id":"8db6cdbc-49d8-4d9e-9a02-005d16d4aa1d","system_id":"levelo_inurba_marseille","lat":43.27497,"lon":5.42456,"is_reserved":false,"is_disabled":false,"rental_uris":{"android":"levelo://app?vid=8db6cdbc-49d8-4d9e-9a02-005d16d4aa1d","ios":"levelo://app?vid=8db6cdbc-49d8-4d9e-9a02-005d16d4aa1d"},"vehicle_type_id":"4","last_reported":1758006626,"current_range_meters":14400,"station_id":"ce4bhn92rcd13ifvqgrg","pricing_plan_id":"cebpf4jnsgd1na2vs0mg"},{"bike_id":"2ba6d751-735d-4f3f-b471-7e3f5bc5e1b1","system_id":"levelo_inurba_marseille","lat":43.321121,"lon":5.367698,"is_reserved":false,"is_disabled":false,"rental_uris":{"android":"levelo://app?vid=2ba6d751-735d-4f3f-b471-7e3f5bc5e1b1","ios":"levelo://app?vid=2ba6d751-735d-4f3f-b471-7e3f5bc5e1b1"},"vehicle_type_id":"4","last_reported":1758006626,"current_range_meters":14400,"station_id":"ce4bhrh2rcd13ifvqhug","pricing_plan_id":"cebpf4jnsgd1na2vs0mg"},{"bike_id":"62931d3a-5989-4010-95bc-726355a92058","system_id":"levelo_inurba_marseille","lat":43.30147,"lon":5.37419,"is_reserved":false,"is_disabled":false,"rental_uris":{"android":"levelo://app?vid=62931d3a-5989-4010-95bc-726355a92058","ios":"levelo://app?vid=62931d3a-5989-4010-95bc-726355a92058"},"vehicle_type_id":"4","last_reported":1758006626,"current_range_meters":14400,"station_id":"ce4bgs92rcd13ifvqcc0","pricing_plan_id":"cebpf4jnsgd1na2vs0mg"},{"bike_id":"fb351b77-39b9-4407-912a-c1008fce46ae","system_id":"levelo_inurba_marseille","lat":43.31372,"lon":5.3663,"is_reserved":false,"is_disabled":false,"rental_uris":{"android":"levelo://app?vid=fb351b77-39b9-4407-912a-c1008fce46ae","ios":"levelo://app?vid=fb351b77-39b9-4407-912a-c1008fce46ae"},"vehicle_type_id":"4","last_reported":1758006626,"current_range_meters":14400,"station_id":"","pricing_plan_id":"cebpf4jnsgd1na2vs0mg"},{"bike_id":"2945913f-65f4-4da0-b719-bd57b811afd4","system_id":"levelo_inurba_marseille","lat":43.24071,"lon":5.3776,"is_reserved":false,"is_disabled":false,"rental_uris":{"android":"levelo://app?vid=2945913f-65f4-4da0-b719-bd57b811afd4","ios":"levelo://app?vid=2945913f-65f4-4da0-b719-bd57b811afd4"},"vehicle_type_id":"4","last_reported":1758006626,"current_range_meters":14800,"station_id":"ce4bhnp2rcd13ifvqgvg","pricing_plan_id":"cebpf4jnsgd1na2vs0mg"},{"bike_id":"3d6df77a-5c36-40bd-8b3f-676f0e22d938","system_id":"levelo_inurba_marseille","lat":43.2961,"lon":5.38106,"is_reserved":false,"is_disabled":false,"rental_uris":{"android":"levelo://app?vid=3d6df77a-5c36-40bd-8b3f-676f0e22d938","ios":"levelo://app?vid=3d6df77a-5c36-40bd-8b3f-676f0e22d938"},"vehicle_type_id":"4","last_reported":1758006626,"current_range_meters":14800,"station_id":"ce4bgl12rcd13ifvqbo0","pricing_plan_id":"cebpf4jnsgd1na2vs0mg"},{"bike_id":"3b26aa0d-3679-4b4c-9b55-1096f6d08a9d","system_id":"levelo_inurba_marseille","lat":43.31299,"lon":5.3942,"is_reserved":false,"is_disabled":false,"rental_uris":{"android":"levelo://app?vid=3b26aa0d-3679-4b4c-9b55-1096f6d08a9d","ios":"levelo://app?vid=3b26aa0d-3679-4b4c-9b55-1096f6d08a9d"},"vehicle_type_id":"4","last_reported":1758006626,"current_range_meters":14800,"station_id":"","pricing_plan_id":"cebpf4jnsgd1na2vs0mg"},{"bike_id":"91e6b096-350e-438e-88b0-1bf60519149c","system_id":"levelo_inurba_marseille","lat":43.29518,"lon":5.37509,"is_reserved":false,"is_disabled":false,"rental_uris":{"android":"levelo://app?vid=91e6b096-350e-438e-88b0-1bf60519149c","ios":"levelo://app?vid=91e6b096-350e-438e-88b0-1bf60519149c"},"vehicle_type_id":"4","last_reported":1758006626,"current_range_meters":14800,"station_id":"ce4bgkp2rcd13ifvqbmg","pricing_plan_id":"cebpf4jnsgd1na2vs0mg"},{"bike_id":"27bc78a8-384d-4504-b20a-10c828705289","system_id":"levelo_inurba_marseille","lat":43.280386,"lon":5.407968,"is_reserved":false,"is_disabled":false,"rental_uris":{"android":"levelo://app?vid=27bc78a8-384d-4504-b20a-10c828705289","ios":"levelo://app?vid=27bc78a8-384d-4504-b20a-10c828705289"},"vehicle_type_id":"4","last_reported":1758006626,"current_range_meters":14800,"station_id":"","pricing_plan_id":"cebpf4jnsgd1na2vs0mg"},{"bike_id":"68bb2867-ab1c-42b5-88ae-36d1c3e4836f","system_id":"levelo_inurba_marseille","lat":43.26677,"lon":5.38262,"is_reserved":false,"is_disabled":false,"rental_uris":{"android":"levelo://app?vid=68bb2867-ab1c-42b5-88ae-36d1c3e4836f","ios":"levelo://app?vid=68bb2867-ab1c-42b5-88ae-36d1c3e4836f"},"vehicle_type_id":"4","last_reported":1758006626,"current_range_meters":15200,"station_id":"ce4bhg92rcd13ifvqf90","pricing_plan_id":"cebpf4jnsgd1na2vs0mg"},{"bike_id":"6545c65c-aa06-44c3-a996-73327db86d30","system_id":"levelo_inurba_marseille","lat":43.29841,"lon":5.36268,"is_reserved":false,"is_disabled":false,"rental_uris":{"android":"levelo://app?vid=6545c65c-aa06-44c3-a996-73327db86d30","ios":"levelo://app?vid=6545c65c-aa06-44c3-a996-73327db86d30"},"vehicle_type_id":"4","last_reported":1758006626,"current_range_meters":15200,"station_id":"ce4bgpp2rcd13ifvqc3g","pricing_plan_id":"cebpf4jnsgd1na2vs0mg"},{"bike_id":"cac80359-5819-4447-bec5-6f9eb0c5de65","system_id":"levelo_inurba_marseille","lat":43.25729,"lon":5.41118,"is_reserved":false,"is_disabled":false,"rental_uris":{"android":"levelo://app?vid=cac80359-5819-4447-bec5-6f9eb0c5de65","ios":"levelo://app?vid=cac80359-5819-4447-bec5-6f9eb0c5de65"},"vehicle_type_id":"4","last_reported":1758006626,"current_range_meters":15200,"station_id":"ce4bhkp2rcd13ifvqgd0","pricing_plan_id":"cebpf4jnsgd1na2vs0mg"},{"bike_id":"10289603-3b39-4523-b2ef-f70358ccecee","system_id":"levelo_inurba_marseille","lat":43.2572,"lon":5.41109,"is_reserved":false,"is_disabled":false,"rental_uris":{"android":"levelo://app?vid=10289603-3b39-4523-b2ef-f70358ccecee","ios":"levelo://app?vid=10289603-3b39-4523-b2ef-f70358ccecee"},"vehicle_type_id":"4","last_reported":1758006626,"current_range_meters":15200,"station_id":"ce4bhkp2rcd13ifvqgd0","pricing_plan_id":"cebpf4jnsgd1na2vs0mg"},{"bike_id":"7401f904-c7a5-4420-9a38-b32c76084c39","system_id":"levelo_inurba_marseille","lat":43.2826,"lon":5.35039,"is_reserved":false,"is_disabled":true,"rental_uris":{"android":"levelo://app?vid=7401f904-c7a5-4420-9a38-b32c76084c39","ios":"levelo://app?vid=7401f904-c7a5-4420-9a38-b32c76084c39"},"vehicle_type_id":"4","last_reported":1758006626,"current_range_meters":15200,"station_id":"ce4bhbp2rcd13ifvqerg","pricing_plan_id":"cebpf4jnsgd1na2vs0mg"},{"bike_id":"e884a386-952a-4f12-a6fa-93ee8ca4615b","system_id":"levelo_inurba_marseille","lat":43.28496,"lon":5.3857,"is_reserved":false,"is_disabled":false,"rental_uris":{"android":"levelo://app?vid=e884a386-952a-4f12-a6fa-93ee8ca4615b","ios":"levelo://app?vid=e884a386-952a-4f12-a6fa-93ee8ca4615b"},"vehicle_type_id":"4","last_reported":1758006626,"current_range_meters":15200,"station_id":"ce4bh8p2rcd13ifvqeb0","pricing_plan_id":"cebpf4jnsgd1na2vs0mg"},{"bike_id":"fadf3699-9533-4abd-b1b1-02467044ebe8","system_id":"levelo_inurba_marseille","lat":43.30944,"lon":5.39024,"is_reserved":false,"is_disabled":false,"rental_uris":{"android":"levelo://app?vid=fadf3699-9533-4abd-b1b1-02467044ebe8","ios":"levelo://app?vid=fadf3699-9533-4abd-b1b1-02467044ebe8"},"vehicle_type_id":"4","last_reported":1758006626,"current_range_meters":15200,"station_id":"ce4bgup2rcd13ifvqco0","pricing_plan_id":"cebpf4jnsgd1na2vs0mg"},{"bike_id":"819acd2d-1fa5-4830-afb3-48b5185776e3","system_id":"levelo_inurba_marseille","lat":43.2989,"lon":5.43683,"is_reserved":false,"is_disabled":false,"rental_uris":{"android":"levelo://app?vid=819acd2d-1fa5-4830-afb3-48b5185776e3","ios":"levelo://app?vid=819acd2d-1fa5-4830-afb3-48b5185776e3"},"vehicle_type_id":"4","last_reported":1758006626,"current_range_meters":16000,"station_id":"ce4bhpp2rcd13ifvqhfg","pricing_plan_id":"cebpf4jnsgd1na2vs0mg"},{"bike_id":"877200db-b926-4a87-9b4b-2878a3439e3c","system_id":"levelo_inurba_marseille","lat":43.25494,"lon":5.37651,"is_reserved":false,"is_disabled":false,"rental_uris":{"android":"levelo://app?vid=877200db-b926-4a87-9b4b-2878a3439e3c","ios":"levelo://app?vid=877200db-b926-4a87-9b4b-2878a3439e3c"},"vehicle_type_id":"4","last_reported":1758006626,"current_range_meters":16000,"station_id":"ce4bhh12rcd13ifvqff0","pricing_plan_id":"cebpf4jnsgd1na2vs0mg"},{"bike_id":"cdd9066f-dbe8-4500-8ba8-854dcc1ae9ca","system_id":"levelo_inurba_marseille","lat":43.30548,"lon":5.36556,"is_reserved":false,"is_disabled":false,"rental_uris":{"android":"levelo://app?vid=cdd9066f-dbe8-4500-8ba8-854dcc1ae9ca","ios":"levelo://app?vid=cdd9066f-dbe8-4500-8ba8-854dcc1ae9ca"},"vehicle_type_id":"4","last_reported":1758006626,"current_range_meters":16000,"station_id":"ce4bgs12rcd13ifvqcag","pricing_plan_id":"cebpf4jnsgd1na2vs0mg"},{"bike_id":"c5db8956-5cb9-45c3-98ae-2d5ca5a164f9","system_id":"levelo_inurba_marseille","lat":43.30544,"lon":5.367258,"is_reserved":false,"is_disabled":false,"rental_uris":{"android":"levelo://app?vid=c5db8956-5cb9-45c3-98ae-2d5ca5a164f9","ios":"levelo://app?vid=c5db8956-5cb9-45c3-98ae-2d5ca5a164f9"},"vehicle_type_id":"4","last_reported":1758006626,"current_range_meters":16000,"station_id":"ce4bgrp2rcd13ifvqc9g","pricing_plan_id":"cebpf4jnsgd1na2vs0mg"},{"bike_id":"cfb1c119-6e15-4f56-8103-7f8b82d970db","system_id":"levelo_inurba_marseille","lat":43.30456,"lon":5.37924,"is_reserved":false,"is_disabled":true,"rental_uris":{"android":"levelo://app?vid=cfb1c119-6e15-4f56-8103-7f8b82d970db","ios":"levelo://app?vid=cfb1c119-6e15-4f56-8103-7f8b82d970db"},"vehicle_type_id":"4","last_reported":1758006626,"current_range_meters":16000,"station_id":"ce4bgup2rcd13ifvqcn0","pricing_plan_id":"cebpf4jnsgd1na2vs0mg"},{"bike_id":"e9252240-c606-441c-a155-66b712b8c339","system_id":"levelo_inurba_marseille","lat":43.30902,"lon":5.36831,"is_reserved":false,"is_disabled":false,"rental_uris":{"android":"levelo://app?vid=e9252240-c606-441c-a155-66b712b8c339","ios":"levelo://app?vid=e9252240-c606-441c-a155-66b712b8c339"},"vehicle_type_id":"4","last_reported":1758006626,"current_range_meters":16000,"station_id":"ce4bgn92rcd13ifvqbvg","pricing_plan_id":"cebpf4jnsgd1na2vs0mg"},{"bike_id":"62473aca-5d60-4f9b-8d0a-e6ce0ea7fc2f","system_id":"levelo_inurba_marseille","lat":43.30352,"lon":5.36605,"is_reserved":false,"is_disabled":false,"rental_uris":{"android":"levelo://app?vid=62473aca-5d60-4f9b-8d0a-e6ce0ea7fc2f","ios":"levelo://app?vid=62473aca-5d60-4f9b-8d0a-e6ce0ea7fc2f"},"vehicle_type_id":"4","last_reported":1758006626,"current_range_meters":16400,"station_id":"","pricing_plan_id":"cebpf4jnsgd1na2vs0mg"},{"bike_id":"4e1b42c4-f46c-4c38-84a0-314288adaf06","system_id":"levelo_inurba_marseille","lat":43.27947,"lon":5.41029,"is_reserved":false,"is_disabled":true,"rental_uris":{"android":"levelo://app?vid=4e1b42c4-f46c-4c38-84a0-314288adaf06","ios":"levelo://app?vid=4e1b42c4-f46c-4c38-84a0-314288adaf06"},"vehicle_type_id":"4","last_reported":1758006626,"current_range_meters":16400,"station_id":"ce4bhnp2rcd13ifvqh0g","pricing_plan_id":"cebpf4jnsgd1na2vs0mg"},{"bike_id":"b790cddf-9efc-4e43-b7b9-8f0186b4e0ba","system_id":"levelo_inurba_marseille","lat":43.253418,"lon":5.421716,"is_reserved":false,"is_disabled":true,"rental_uris":{"android":"levelo://app?vid=b790cddf-9efc-4e43-b7b9-8f0186b4e0ba","ios":"levelo://app?vid=b790cddf-9efc-4e43-b7b9-8f0186b4e0ba"},"vehicle_type_id":"4","last_reported":1758006626,"current_range_meters":16400,"station_id":"st_d2m65c5bi1j21697t3ng","pricing_plan_id":"cebpf4jnsgd1na2vs0mg"},{"bike_id":"46cbcee3-845b-447b-a395-16f85ed6d743","system_id":"levelo_inurba_marseille","lat":43.305465,"lon":5.367304,"is_reserved":false,"is_disabled":false,"rental_uris":{"android":"levelo://app?vid=46cbcee3-845b-447b-a395-16f85ed6d743","ios":"levelo://app?vid=46cbcee3-845b-447b-a395-16f85ed6d743"},"vehicle_type_id":"4","last_reported":1758006626,"current_range_meters":16400,"station_id":"ce4bgrp2rcd13ifvqc9g","pricing_plan_id":"cebpf4jnsgd1na2vs0mg"},{"bike_id":"11555ead-152a-4e2f-ac3e-7aaa852c50e5","system_id":"levelo_inurba_marseille","lat":43.22366,"lon":5.34666,"is_reserved":false,"is_disabled":false,"rental_uris":{"android":"levelo://app?vid=11555ead-152a-4e2f-ac3e-7aaa852c50e5","ios":"levelo://app?vid=11555ead-152a-4e2f-ac3e-7aaa852c50e5"},"vehicle_type_id":"4","last_reported":1758006626,"current_range_meters":16400,"station_id":"","pricing_plan_id":"cebpf4jnsgd1na2vs0mg"},{"bike_id":"af855c88-100f-429f-ba0c-3dad51b30928","system_id":"levelo_inurba_marseille","lat":43.21207,"lon":5.35085,"is_reserved":false,"is_disabled":false,"rental_uris":{"android":"levelo://app?vid=af855c88-100f-429f-ba0c-3dad51b30928","ios":"levelo://app?vid=af855c88-100f-429f-ba0c-3dad51b30928"},"vehicle_type_id":"4","last_reported":1758006626,"current_range_meters":16400,"station_id":"st_cvj6sg6p6f1abm77japg","pricing_plan_id":"cebpf4jnsgd1na2vs0mg"},{"bike_id":"28d5c779-02a9-4a4a-99e8-288840314c33","system_id":"levelo_inurba_marseille","lat":43.302887,"lon":5.37689,"is_reserved":false,"is_disabled":false,"rental_uris":{"android":"levelo://app?vid=28d5c779-02a9-4a4a-99e8-288840314c33","ios":"levelo://app?vid=28d5c779-02a9-4a4a-99e8-288840314c33"},"vehicle_type_id":"4","last_reported":1758006626,"current_range_meters":16400,"station_id":"ce4bguh2rcd13ifvqcj0","pricing_plan_id":"cebpf4jnsgd1na2vs0mg"},{"bike_id":"9b717e40-b361-45f0-a703-618b4dac9174","system_id":"levelo_inurba_marseille","lat":43.30134,"lon":5.37381,"is_reserved":false,"is_disabled":true,"rental_uris":{"android":"levelo://app?vid=9b717e40-b361-45f0-a703-618b4dac9174","ios":"levelo://app?vid=9b717e40-b361-45f0-a703-618b4dac9174"},"vehicle_type_id":"4","last_reported":1758006626,"current_range_meters":16400,"station_id":"ce4bgs92rcd13ifvqcc0","pricing_plan_id":"cebpf4jnsgd1na2vs0mg"},{"bike_id":"ece07351-e21d-4c48-bd8e-d6076d0d6379","system_id":"levelo_inurba_marseille","lat":43.28484,"lon":5.37491,"is_reserved":false,"is_disabled":false,"rental_uris":{"android":"levelo://app?vid=ece07351-e21d-4c48-bd8e-d6076d0d6379","ios":"levelo://app?vid=ece07351-e21d-4c48-bd8e-d6076d0d6379"},"vehicle_type_id":"4","last_reported":1758006626,"current_range_meters":16800,"station_id":"","pricing_plan_id":"cebpf4jnsgd1na2vs0mg"},{"bike_id":"db688326-60a8-4bc8-974c-652474e7e3f4","system_id":"levelo_inurba_marseille","lat":43.33602,"lon":5.41032,"is_reserved":false,"is_disabled":false,"rental_uris":{"android":"levelo://app?vid=db688326-60a8-4bc8-974c-652474e7e3f4","ios":"levelo://app?vid=db688326-60a8-4bc8-974c-652474e7e3f4"},"vehicle_type_id":"4","last_reported":1758006626,"current_range_meters":16800,"station_id":"ce4bhqh2rcd13ifvqhmg","pricing_plan_id":"cebpf4jnsgd1na2vs0mg"},{"bike_id":"1640a101-a331-49f0-aafd-f32c0bbd8bb8","system_id":"levelo_inurba_marseille","lat":43.295845,"lon":5.36747,"is_reserved":false,"is_disabled":false,"rental_uris":{"android":"levelo://app?vid=1640a101-a331-49f0-aafd-f32c0bbd8bb8","ios":"levelo://app?vid=1640a101-a331-49f0-aafd-f32c0bbd8bb8"},"vehicle_type_id":"4","last_reported":1758006626,"current_range_meters":16800,"station_id":"","pricing_plan_id":"cebpf4jnsgd1na2vs0mg"},{"bike_id":"b2af3119-5d8c-42cb-b21f-520f14a6effc","system_id":"levelo_inurba_marseille","lat":43.25716,"lon":5.41115,"is_reserved":false,"is_disabled":false,"rental_uris":{"android":"levelo://app?vid=b2af3119-5d8c-42cb-b21f-520f14a6effc","ios":"levelo://app?vid=b2af3119-5d8c-42cb-b21f-520f14a6effc"},"vehicle_type_id":"4","last_reported":1758006626,"current_range_meters":16800,"station_id":"ce4bhkp2rcd13ifvqgd0","pricing_plan_id":"cebpf4jnsgd1na2vs0mg"},{"bike_id":"88a8a850-d513-47ec-8870-e7210ef51b52","system_id":"levelo_inurba_marseille","lat":43.29929,"lon":5.38523,"is_reserved":false,"is_disabled":false,"rental_uris":{"android":"levelo://app?vid=88a8a850-d513-47ec-8870-e7210ef51b52","ios":"levelo://app?vid=88a8a850-d513-47ec-8870-e7210ef51b52"},"vehicle_type_id":"4","last_reported":1758006626,"current_range_meters":16800,"station_id":"","pricing_plan_id":"cebpf4jnsgd1na2vs0mg"},{"bike_id":"82e0bfcc-bba2-4c2c-9484-d3ca3b13a18b","system_id":"levelo_inurba_marseille","lat":43.29442,"lon":5.37548,"is_reserved":false,"is_disabled":false,"rental_uris":{"android":"levelo://app?vid=82e0bfcc-bba2-4c2c-9484-d3ca3b13a18b","ios":"levelo://app?vid=82e0bfcc-bba2-4c2c-9484-d3ca3b13a18b"},"vehicle_type_id":"4","last_reported":1758006626,"current_range_meters":16800,"station_id":"","pricing_plan_id":"cebpf4jnsgd1na2vs0mg"},{"bike_id":"5dbca62f-7019-41e0-bb60-cbaa2e477dc8","system_id":"levelo_inurba_marseille","lat":43.30915,"lon":5.36854,"is_reserved":false,"is_disabled":false,"rental_uris":{"android":"levelo://app?vid=5dbca62f-7019-41e0-bb60-cbaa2e477dc8","ios":"levelo://app?vid=5dbca62f-7019-41e0-bb60-cbaa2e477dc8"},"vehicle_type_id":"4","last_reported":1758006626,"current_range_meters":16800,"station_id":"ce4bgn92rcd13ifvqbvg","pricing_plan_id":"cebpf4jnsgd1na2vs0mg"},{"bike_id":"f5538dd9-94c3-433e-ada5-fc5d10ad63b0","system_id":"levelo_inurba_marseille","lat":43.30914,"lon":5.36857,"is_reserved":false,"is_disabled":false,"rental_uris":{"android":"levelo://app?vid=f5538dd9-94c3-433e-ada5-fc5d10ad63b0","ios":"levelo://app?vid=f5538dd9-94c3-433e-ada5-fc5d10ad63b0"},"vehicle_type_id":"4","last_reported":1758006626,"current_range_meters":16800,"station_id":"ce4bgn92rcd13ifvqbvg","pricing_plan_id":"cebpf4jnsgd1na2vs0mg"},{"bike_id":"40495e59-b743-486e-987c-cb0c3ab2f191","system_id":"levelo_inurba_marseille","lat":43.332874,"lon":5.412752,"is_reserved":false,"is_disabled":false,"rental_uris":{"android":"levelo://app?vid=40495e59-b743-486e-987c-cb0c3ab2f191","ios":"levelo://app?vid=40495e59-b743-486e-987c-cb0c3ab2f191"},"vehicle_type_id":"4","last_reported":1758006626,"current_range_meters":16800,"station_id":"","pricing_plan_id":"cebpf4jnsgd1na2vs0mg"},{"bike_id":"5468743a-d065-4569-944f-260b4bcb1af3","system_id":"levelo_inurba_marseille","lat":43.2594,"lon":5.40907,"is_reserved":false,"is_disabled":false,"rental_uris":{"android":"levelo://app?vid=5468743a-d065-4569-944f-260b4bcb1af3","ios":"levelo://app?vid=5468743a-d065-4569-944f-260b4bcb1af3"},"vehicle_type_id":"4","last_reported":1758006626,"current_range_meters":17200,"station_id":"ce4bhm92rcd13ifvqglg","pricing_plan_id":"cebpf4jnsgd1na2vs0mg"},{"bike_id":"003515e8-8117-44bb-979d-5f47e8d50fda","system_id":"levelo_inurba_marseille","lat":43.30615,"lon":5.37577,"is_reserved":false,"is_disabled":false,"rental_uris":{"android":"levelo://app?vid=003515e8-8117-44bb-979d-5f47e8d50fda","ios":"levelo://app?vid=003515e8-8117-44bb-979d-5f47e8d50fda"},"vehicle_type_id":"4","last_reported":1758006626,"current_range_meters":17200,"station_id":"","pricing_plan_id":"cebpf4jnsgd1na2vs0mg"},{"bike_id":"5961a840-33db-4edd-b578-d1d5e9e82e5f","system_id":"levelo_inurba_marseille","lat":43.301524,"lon":5.380892,"is_reserved":false,"is_disabled":false,"rental_uris":{"android":"levelo://app?vid=5961a840-33db-4edd-b578-d1d5e9e82e5f","ios":"levelo://app?vid=5961a840-33db-4edd-b578-d1d5e9e82e5f"},"vehicle_type_id":"4","last_reported":1758006626,"current_range_meters":17200,"station_id":"ce4bgjp2rcd13ifvqbh0","pricing_plan_id":"cebpf4jnsgd1na2vs0mg"},{"bike_id":"96644ae3-2807-4f95-a981-fef4ac2b0e69","system_id":"levelo_inurba_marseille","lat":43.21978,"lon":5.3454,"is_reserved":false,"is_disabled":false,"rental_uris":{"android":"levelo://app?vid=96644ae3-2807-4f95-a981-fef4ac2b0e69","ios":"levelo://app?vid=96644ae3-2807-4f95-a981-fef4ac2b0e69"},"vehicle_type_id":"4","last_reported":1758006626,"current_range_meters":17200,"station_id":"","pricing_plan_id":"cebpf4jnsgd1na2vs0mg"},{"bike_id":"47e5ef79-96be-4aaf-a29f-b36e439986f3","system_id":"levelo_inurba_marseille","lat":43.27492,"lon":5.42465,"is_reserved":false,"is_disabled":true,"rental_uris":{"android":"levelo://app?vid=47e5ef79-96be-4aaf-a29f-b36e439986f3","ios":"levelo://app?vid=47e5ef79-96be-4aaf-a29f-b36e439986f3"},"vehicle_type_id":"4","last_reported":1758006626,"current_range_meters":17200,"station_id":"ce4bhn92rcd13ifvqgrg","pricing_plan_id":"cebpf4jnsgd1na2vs0mg"},{"bike_id":"1760d1ce-6467-485c-92e6-2a31844b4a5a","system_id":"levelo_inurba_marseille","lat":43.31477,"lon":5.37307,"is_reserved":false,"is_disabled":false,"rental_uris":{"android":"levelo://app?vid=1760d1ce-6467-485c-92e6-2a31844b4a5a","ios":"levelo://app?vid=1760d1ce-6467-485c-92e6-2a31844b4a5a"},"vehicle_type_id":"4","last_reported":1758006626,"current_range_meters":17200,"station_id":"ce4bgt12rcd13ifvqcd0","pricing_plan_id":"cebpf4jnsgd1na2vs0mg"},{"bike_id":"1a6ee5d2-70d2-400a-afe8-48a175066b69","system_id":"levelo_inurba_marseille","lat":43.241803,"lon":5.397239,"is_reserved":false,"is_disabled":false,"rental_uris":{"android":"levelo://app?vid=1a6ee5d2-70d2-400a-afe8-48a175066b69","ios":"levelo://app?vid=1a6ee5d2-70d2-400a-afe8-48a175066b69"},"vehicle_type_id":"4","last_reported":1758006626,"current_range_meters":17200,"station_id":"ce4bhn12rcd13ifvqgpg","pricing_plan_id":"cebpf4jnsgd1na2vs0mg"},{"bike_id":"cf9074e4-6883-4530-8c06-ad84ab65c19a","system_id":"levelo_inurba_marseille","lat":43.28712,"lon":5.37942,"is_reserved":false,"is_disabled":false,"rental_uris":{"android":"levelo://app?vid=cf9074e4-6883-4530-8c06-ad84ab65c19a","ios":"levelo://app?vid=cf9074e4-6883-4530-8c06-ad84ab65c19a"},"vehicle_type_id":"4","last_reported":1758006626,"current_range_meters":17200,"station_id":"ce4bh9p2rcd13ifvqec0","pricing_plan_id":"cebpf4jnsgd1na2vs0mg"},{"bike_id":"20b55fc7-55c9-4b33-98a2-109605dfc668","system_id":"levelo_inurba_marseille","lat":43.31224,"lon":5.36857,"is_reserved":false,"is_disabled":false,"rental_uris":{"android":"levelo://app?vid=20b55fc7-55c9-4b33-98a2-109605dfc668","ios":"levelo://app?vid=20b55fc7-55c9-4b33-98a2-109605dfc668"},"vehicle_type_id":"4","last_reported":1758006626,"current_range_meters":17200,"station_id":"ce4bgl92rcd13ifvqbq0","pricing_plan_id":"cebpf4jnsgd1na2vs0mg"},{"bike_id":"c50f611b-169a-4aac-8890-0138fc7259ff","system_id":"levelo_inurba_marseille","lat":43.31347,"lon":5.36702,"is_reserved":false,"is_disabled":false,"rental_uris":{"android":"levelo://app?vid=c50f611b-169a-4aac-8890-0138fc7259ff","ios":"levelo://app?vid=c50f611b-169a-4aac-8890-0138fc7259ff"},"vehicle_type_id":"4","last_reported":1758006626,"current_range_meters":17200,"station_id":"ce4bgr92rcd13ifvqc6g","pricing_plan_id":"cebpf4jnsgd1na2vs0mg"},{"bike_id":"4b848339-033e-43ce-b3fa-6d9c6e144009","system_id":"levelo_inurba_marseille","lat":43.24076,"lon":5.37757,"is_reserved":false,"is_disabled":false,"rental_uris":{"android":"levelo://app?vid=4b848339-033e-43ce-b3fa-6d9c6e144009","ios":"levelo://app?vid=4b848339-033e-43ce-b3fa-6d9c6e144009"},"vehicle_type_id":"4","last_reported":1758006626,"current_range_meters":17200,"station_id":"ce4bhnp2rcd13ifvqgvg","pricing_plan_id":"cebpf4jnsgd1na2vs0mg"},{"bike_id":"d3117b46-ca89-410d-a0eb-d5a2aa0c1be3","system_id":"levelo_inurba_marseille","lat":43.24998,"lon":5.38931,"is_reserved":false,"is_disabled":false,"rental_uris":{"android":"levelo://app?vid=d3117b46-ca89-410d-a0eb-d5a2aa0c1be3","ios":"levelo://app?vid=d3117b46-ca89-410d-a0eb-d5a2aa0c1be3"},"vehicle_type_id":"4","last_reported":1758006626,"current_range_meters":17600,"station_id":"ce4bhgp2rcd13ifvqfd0","pricing_plan_id":"cebpf4jnsgd1na2vs0mg"},{"bike_id":"0f014ab9-a122-4262-a275-c0f248ab6eaa","system_id":"levelo_inurba_marseille","lat":43.30944,"lon":5.39033,"is_reserved":false,"is_disabled":false,"rental_uris":{"android":"levelo://app?vid=0f014ab9-a122-4262-a275-c0f248ab6eaa","ios":"levelo://app?vid=0f014ab9-a122-4262-a275-c0f248ab6eaa"},"vehicle_type_id":"4","last_reported":1758006626,"current_range_meters":17600,"station_id":"ce4bgup2rcd13ifvqco0","pricing_plan_id":"cebpf4jnsgd1na2vs0mg"},{"bike_id":"1fa3699e-b52d-4ae6-9e07-294ad1b534dd","system_id":"levelo_inurba_marseille","lat":43.29917,"lon":5.37474,"is_reserved":false,"is_disabled":false,"rental_uris":{"android":"levelo://app?vid=1fa3699e-b52d-4ae6-9e07-294ad1b534dd","ios":"levelo://app?vid=1fa3699e-b52d-4ae6-9e07-294ad1b534dd"},"vehicle_type_id":"4","last_reported":1758006626,"current_range_meters":17600,"station_id":"ce4bgjh2rcd13ifvqbg0","pricing_plan_id":"cebpf4jnsgd1na2vs0mg"},{"bike_id":"ca5a1340-d41e-49f3-95f8-599734e0a36c","system_id":"levelo_inurba_marseille","lat":43.22549,"lon":5.34816,"is_reserved":false,"is_disabled":false,"rental_uris":{"android":"levelo://app?vid=ca5a1340-d41e-49f3-95f8-599734e0a36c","ios":"levelo://app?vid=ca5a1340-d41e-49f3-95f8-599734e0a36c"},"vehicle_type_id":"4","last_reported":1758006626,"current_range_meters":17600,"station_id":"","pricing_plan_id":"cebpf4jnsgd1na2vs0mg"},{"bike_id":"96a6d923-2e2c-454f-ad1d-0f793fc2fd52","system_id":"levelo_inurba_marseille","lat":43.24077,"lon":5.37759,"is_reserved":false,"is_disabled":false,"rental_uris":{"android":"levelo://app?vid=96a6d923-2e2c-454f-ad1d-0f793fc2fd52","ios":"levelo://app?vid=96a6d923-2e2c-454f-ad1d-0f793fc2fd52"},"vehicle_type_id":"4","last_reported":1758006626,"current_range_meters":17600,"station_id":"ce4bhnp2rcd13ifvqgvg","pricing_plan_id":"cebpf4jnsgd1na2vs0mg"},{"bike_id":"b84c27c0-d726-485b-9db1-006de09457df","system_id":"levelo_inurba_marseille","lat":43.29567,"lon":5.37532,"is_reserved":false,"is_disabled":false,"rental_uris":{"android":"levelo://app?vid=b84c27c0-d726-485b-9db1-006de09457df","ios":"levelo://app?vid=b84c27c0-d726-485b-9db1-006de09457df"},"vehicle_type_id":"4","last_reported":1758006626,"current_range_meters":17600,"station_id":"ce4bgh92rcd13ifvqb50","pricing_plan_id":"cebpf4jnsgd1na2vs0mg"},{"bike_id":"1cc064e2-72a9-4410-ba9b-5dde795c1424","system_id":"levelo_inurba_marseille","lat":43.301418,"lon":5.374101,"is_reserved":false,"is_disabled":false,"rental_uris":{"android":"levelo://app?vid=1cc064e2-72a9-4410-ba9b-5dde795c1424","ios":"levelo://app?vid=1cc064e2-72a9-4410-ba9b-5dde795c1424"},"vehicle_type_id":"4","last_reported":1758006626,"current_range_meters":17600,"station_id":"ce4bgs92rcd13ifvqcc0","pricing_plan_id":"cebpf4jnsgd1na2vs0mg"},{"bike_id":"daaceac3-35b1-45be-bcc5-cea7bf4aaef4","system_id":"levelo_inurba_marseille","lat":43.27487,"lon":5.42425,"is_reserved":false,"is_disabled":false,"rental_uris":{"android":"levelo://app?vid=daaceac3-35b1-45be-bcc5-cea7bf4aaef4","ios":"levelo://app?vid=daaceac3-35b1-45be-bcc5-cea7bf4aaef4"},"vehicle_type_id":"4","last_reported":1758006626,"current_range_meters":17600,"station_id":"ce4bhn92rcd13ifvqgrg","pricing_plan_id":"cebpf4jnsgd1na2vs0mg"},{"bike_id":"14f88e73-f446-4a21-816e-a8f294af2f1c","system_id":"levelo_inurba_marseille","lat":43.2407,"lon":5.37763,"is_reserved":false,"is_disabled":false,"rental_uris":{"android":"levelo://app?vid=14f88e73-f446-4a21-816e-a8f294af2f1c","ios":"levelo://app?vid=14f88e73-f446-4a21-816e-a8f294af2f1c"},"vehicle_type_id":"4","last_reported":1758006626,"current_range_meters":17600,"station_id":"ce4bhnp2rcd13ifvqgvg","pricing_plan_id":"cebpf4jnsgd1na2vs0mg"},{"bike_id":"237ff8c3-18a9-4403-94a8-15862296b062","system_id":"levelo_inurba_marseille","lat":43.23157,"lon":5.43711,"is_reserved":false,"is_disabled":false,"rental_uris":{"android":"levelo://app?vid=237ff8c3-18a9-4403-94a8-15862296b062","ios":"levelo://app?vid=237ff8c3-18a9-4403-94a8-15862296b062"},"vehicle_type_id":"4","last_reported":1758006626,"current_range_meters":18000,"station_id":"ce4bhmp2rcd13ifvqgog","pricing_plan_id":"cebpf4jnsgd1na2vs0mg"},{"bike_id":"7cb510c7-6b00-4f66-9733-e704ef8c2a8d","system_id":"levelo_inurba_marseille","lat":43.28719,"lon":5.37939,"is_reserved":false,"is_disabled":false,"rental_uris":{"android":"levelo://app?vid=7cb510c7-6b00-4f66-9733-e704ef8c2a8d","ios":"levelo://app?vid=7cb510c7-6b00-4f66-9733-e704ef8c2a8d"},"vehicle_type_id":"4","last_reported":1758006626,"current_range_meters":18000,"station_id":"ce4bh9p2rcd13ifvqec0","pricing_plan_id":"cebpf4jnsgd1na2vs0mg"},{"bike_id":"a05fdb49-e038-4a84-8ea1-52f3eaaf07b1","system_id":"levelo_inurba_marseille","lat":43.22558,"lon":5.41659,"is_reserved":false,"is_disabled":false,"rental_uris":{"android":"levelo://app?vid=a05fdb49-e038-4a84-8ea1-52f3eaaf07b1","ios":"levelo://app?vid=a05fdb49-e038-4a84-8ea1-52f3eaaf07b1"},"vehicle_type_id":"4","last_reported":1758006626,"current_range_meters":18000,"station_id":"st_d2o4gvlbi1j2169b742g","pricing_plan_id":"cebpf4jnsgd1na2vs0mg"},{"bike_id":"58acab22-1b2d-4484-84e7-684ff94425da","system_id":"levelo_inurba_marseille","lat":43.25718,"lon":5.41113,"is_reserved":false,"is_disabled":false,"rental_uris":{"android":"levelo://app?vid=58acab22-1b2d-4484-84e7-684ff94425da","ios":"levelo://app?vid=58acab22-1b2d-4484-84e7-684ff94425da"},"vehicle_type_id":"4","last_reported":1758006626,"current_range_meters":18000,"station_id":"ce4bhkp2rcd13ifvqgd0","pricing_plan_id":"cebpf4jnsgd1na2vs0mg"},{"bike_id":"de9dce03-1e67-4b04-bfc0-c92b9e781765","system_id":"levelo_inurba_marseille","lat":43.24614,"lon":5.38907,"is_reserved":false,"is_disabled":false,"rental_uris":{"android":"levelo://app?vid=de9dce03-1e67-4b04-bfc0-c92b9e781765","ios":"levelo://app?vid=de9dce03-1e67-4b04-bfc0-c92b9e781765"},"vehicle_type_id":"4","last_reported":1758006626,"current_range_meters":18000,"station_id":"ce4bhg12rcd13ifvqf60","pricing_plan_id":"cebpf4jnsgd1na2vs0mg"},{"bike_id":"fcd56ccc-f0ab-49ef-a538-8c498b5ecd49","system_id":"levelo_inurba_marseille","lat":43.22557,"lon":5.41629,"is_reserved":false,"is_disabled":false,"rental_uris":{"android":"levelo://app?vid=fcd56ccc-f0ab-49ef-a538-8c498b5ecd49","ios":"levelo://app?vid=fcd56ccc-f0ab-49ef-a538-8c498b5ecd49"},"vehicle_type_id":"4","last_reported":1758006626,"current_range_meters":18000,"station_id":"st_d2o4gvlbi1j2169b742g","pricing_plan_id":"cebpf4jnsgd1na2vs0mg"},{"bike_id":"eb6cbeef-bc92-4528-a915-7b01f98754fe","system_id":"levelo_inurba_marseille","lat":43.30286,"lon":5.37443,"is_reserved":false,"is_disabled":false,"rental_uris":{"android":"levelo://app?vid=eb6cbeef-bc92-4528-a915-7b01f98754fe","ios":"levelo://app?vid=eb6cbeef-bc92-4528-a915-7b01f98754fe"},"vehicle_type_id":"4","last_reported":1758006626,"current_range_meters":18000,"station_id":"","pricing_plan_id":"cebpf4jnsgd1na2vs0mg"},{"bike_id":"fb562add-db99-4579-90a3-5d797e4e8dcb","system_id":"levelo_inurba_marseille","lat":43.26945,"lon":5.3864,"is_reserved":false,"is_disabled":false,"rental_uris":{"android":"levelo://app?vid=fb562add-db99-4579-90a3-5d797e4e8dcb","ios":"levelo://app?vid=fb562add-db99-4579-90a3-5d797e4e8dcb"},"vehicle_type_id":"4","last_reported":1758006626,"current_range_meters":18000,"station_id":"ce4bhh92rcd13ifvqfh0","pricing_plan_id":"cebpf4jnsgd1na2vs0mg"},{"bike_id":"d1788760-0706-4b90-8999-db00a9e42210","system_id":"levelo_inurba_marseille","lat":43.32659,"lon":5.41005,"is_reserved":false,"is_disabled":true,"rental_uris":{"android":"levelo://app?vid=d1788760-0706-4b90-8999-db00a9e42210","ios":"levelo://app?vid=d1788760-0706-4b90-8999-db00a9e42210"},"vehicle_type_id":"4","last_reported":1758006626,"current_range_meters":18000,"station_id":"","pricing_plan_id":"cebpf4jnsgd1na2vs0mg"},{"bike_id":"22f0687d-25d3-4094-9c4a-293a61e189a6","system_id":"levelo_inurba_marseille","lat":43.24058,"lon":5.40687,"is_reserved":false,"is_disabled":false,"rental_uris":{"android":"levelo://app?vid=22f0687d-25d3-4094-9c4a-293a61e189a6","ios":"levelo://app?vid=22f0687d-25d3-4094-9c4a-293a61e189a6"},"vehicle_type_id":"4","last_reported":1758006626,"current_range_meters":18000,"station_id":"","pricing_plan_id":"cebpf4jnsgd1na2vs0mg"},{"bike_id":"4b0b3cf9-33de-4e91-a50f-14bc63f88465","system_id":"levelo_inurba_marseille","lat":43.299128,"lon":5.374754,"is_reserved":false,"is_disabled":false,"rental_uris":{"android":"levelo://app?vid=4b0b3cf9-33de-4e91-a50f-14bc63f88465","ios":"levelo://app?vid=4b0b3cf9-33de-4e91-a50f-14bc63f88465"},"vehicle_type_id":"4","last_reported":1758006626,"current_range_meters":18000,"station_id":"ce4bgjh2rcd13ifvqbg0","pricing_plan_id":"cebpf4jnsgd1na2vs0mg"},{"bike_id":"48bc3ff5-6c19-40f8-b499-bf7c8d6b9f0a","system_id":"levelo_inurba_marseille","lat":43.33606,"lon":5.41028,"is_reserved":false,"is_disabled":false,"rental_uris":{"android":"levelo://app?vid=48bc3ff5-6c19-40f8-b499-bf7c8d6b9f0a","ios":"levelo://app?vid=48bc3ff5-6c19-40f8-b499-bf7c8d6b9f0a"},"vehicle_type_id":"4","last_reported":1758006626,"current_range_meters":18000,"station_id":"ce4bhqh2rcd13ifvqhmg","pricing_plan_id":"cebpf4jnsgd1na2vs0mg"},{"bike_id":"105e52c0-cf87-429a-aa64-52425c841d05","system_id":"levelo_inurba_marseille","lat":43.23144,"lon":5.43702,"is_reserved":false,"is_disabled":false,"rental_uris":{"android":"levelo://app?vid=105e52c0-cf87-429a-aa64-52425c841d05","ios":"levelo://app?vid=105e52c0-cf87-429a-aa64-52425c841d05"},"vehicle_type_id":"4","last_reported":1758006626,"current_range_meters":18800,"station_id":"ce4bhmp2rcd13ifvqgog","pricing_plan_id":"cebpf4jnsgd1na2vs0mg"},{"bike_id":"4d428ea9-1dcb-4a75-b622-5cb7b20a1dad","system_id":"levelo_inurba_marseille","lat":43.32362,"lon":5.36758,"is_reserved":false,"is_disabled":false,"rental_uris":{"android":"levelo://app?vid=4d428ea9-1dcb-4a75-b622-5cb7b20a1dad","ios":"levelo://app?vid=4d428ea9-1dcb-4a75-b622-5cb7b20a1dad"},"vehicle_type_id":"4","last_reported":1758006626,"current_range_meters":18800,"station_id":"ce4bhsh2rcd13ifvqi2g","pricing_plan_id":"cebpf4jnsgd1na2vs0mg"},{"bike_id":"7882447a-3513-43ba-b5fa-e41b30430bc9","system_id":"levelo_inurba_marseille","lat":43.3028,"lon":5.37708,"is_reserved":false,"is_disabled":false,"rental_uris":{"android":"levelo://app?vid=7882447a-3513-43ba-b5fa-e41b30430bc9","ios":"levelo://app?vid=7882447a-3513-43ba-b5fa-e41b30430bc9"},"vehicle_type_id":"4","last_reported":1758006626,"current_range_meters":18800,"station_id":"ce4bguh2rcd13ifvqcj0","pricing_plan_id":"cebpf4jnsgd1na2vs0mg"},{"bike_id":"b222e777-a74b-4053-b199-1ac657b09b94","system_id":"levelo_inurba_marseille","lat":43.27497,"lon":5.42477,"is_reserved":false,"is_disabled":false,"rental_uris":{"android":"levelo://app?vid=b222e777-a74b-4053-b199-1ac657b09b94","ios":"levelo://app?vid=b222e777-a74b-4053-b199-1ac657b09b94"},"vehicle_type_id":"4","last_reported":1758006626,"current_range_meters":18800,"station_id":"ce4bhn92rcd13ifvqgrg","pricing_plan_id":"cebpf4jnsgd1na2vs0mg"},{"bike_id":"17d2e23f-2e4e-4271-a94a-92e2b9352a8c","system_id":"levelo_inurba_marseille","lat":43.33595,"lon":5.41034,"is_reserved":false,"is_disabled":false,"rental_uris":{"android":"levelo://app?vid=17d2e23f-2e4e-4271-a94a-92e2b9352a8c","ios":"levelo://app?vid=17d2e23f-2e4e-4271-a94a-92e2b9352a8c"},"vehicle_type_id":"4","last_reported":1758006626,"current_range_meters":18800,"station_id":"ce4bhqh2rcd13ifvqhmg","pricing_plan_id":"cebpf4jnsgd1na2vs0mg"},{"bike_id":"2098e9cb-557c-4f53-85f2-265df9ccd555","system_id":"levelo_inurba_marseille","lat":43.3122,"lon":5.36851,"is_reserved":false,"is_disabled":false,"rental_uris":{"android":"levelo://app?vid=2098e9cb-557c-4f53-85f2-265df9ccd555","ios":"levelo://app?vid=2098e9cb-557c-4f53-85f2-265df9ccd555"},"vehicle_type_id":"4","last_reported":1758006626,"current_range_meters":18800,"station_id":"ce4bgl92rcd13ifvqbq0","pricing_plan_id":"cebpf4jnsgd1na2vs0mg"},{"bike_id":"81187f1b-b13b-4bac-8c60-df1377fc0cb3","system_id":"levelo_inurba_marseille","lat":43.30139,"lon":5.3806,"is_reserved":false,"is_disabled":false,"rental_uris":{"android":"levelo://app?vid=81187f1b-b13b-4bac-8c60-df1377fc0cb3","ios":"levelo://app?vid=81187f1b-b13b-4bac-8c60-df1377fc0cb3"},"vehicle_type_id":"4","last_reported":1758006626,"current_range_meters":18800,"station_id":"ce4bgjp2rcd13ifvqbh0","pricing_plan_id":"cebpf4jnsgd1na2vs0mg"},{"bike_id":"ae1d59d7-0aff-4273-8c86-5805ca0c5f25","system_id":"levelo_inurba_marseille","lat":43.30934,"lon":5.38707,"is_reserved":false,"is_disabled":false,"rental_uris":{"android":"levelo://app?vid=ae1d59d7-0aff-4273-8c86-5805ca0c5f25","ios":"levelo://app?vid=ae1d59d7-0aff-4273-8c86-5805ca0c5f25"},"vehicle_type_id":"4","last_reported":1758006626,"current_range_meters":18800,"station_id":"","pricing_plan_id":"cebpf4jnsgd1na2vs0mg"},{"bike_id":"176eac5d-fbdc-453f-a22e-eb7bf985c6c4","system_id":"levelo_inurba_marseille","lat":43.28786,"lon":5.3782,"is_reserved":false,"is_disabled":false,"rental_uris":{"android":"levelo://app?vid=176eac5d-fbdc-453f-a22e-eb7bf985c6c4","ios":"levelo://app?vid=176eac5d-fbdc-453f-a22e-eb7bf985c6c4"},"vehicle_type_id":"4","last_reported":1758006626,"current_range_meters":19200,"station_id":"","pricing_plan_id":"cebpf4jnsgd1na2vs0mg"},