{"last_updated":1750227363,"ttl":60,"version":"2.2","data":{"bikes":[{"bike_id":"3da29fb8-fc97-44c6-b9ac-31dd456b2fd4","system_id":"levelo_inurba_marseille","lat":43.33771,"lon":5.37424,"is_reserved":false,"is_disabled":true,"rental_uris":{"android":"levelo://app?vid=3da29fb8-fc97-44c6-b9ac-31dd456b2fd4","ios":"levelo://app?vid=3da29fb8-fc97-44c6-b9ac-31dd456b2fd4"},"vehicle_type_id":"4","last_reported":1750227363,"current_range_meters":0,"station_id":"","pricing_plan_id":"cebpf4jnsgd1na2vs0mg"},{"bike_id":"01861ad8-a8d7-4be6-816e-651927c87584","system_id":"levelo_inurba_marseille","lat":43.33751,"lon":5.37456,"is_reserved":false,"is_disabled":true,"rental_uris":{"android":"levelo://app?vid=01861ad8-a8d7-4be6-816e-651927c87584","ios":"levelo://app?vid=01861ad8-a8d7-4be6-816e-651927c87584"},"vehicle_type_id":"4","last_reported":1750227363,"current_range_meters":0,"station_id":"","pricing_plan_id":"cebpf4jnsgd1na2vs0mg"},{"bike_id":"dbfce7a3-3423-4296-b193-a177dea644ac","system_id":"levelo_inurba_marseille","lat":43.27297,"lon":5.4161,"is_reserved":false,"is_disabled":true,"rental_uris":{"android":"levelo://app?vid=dbfce7a3-3423-4296-b193-a177dea644ac","ios":"levelo://app?vid=dbfce7a3-3423-4296-b193-a177dea644ac"},"vehicle_type_id":"4","last_reported":1750227363,"current_range_meters":0,"station_id":"","pricing_plan_id":"cebpf4jnsgd1na2vs0mg"},{"bike_id":"d2bd57c8-6b64-48db-ad24-5398eb3fd9d6","system_id":"levelo_inurba_marseille","lat":43.337444,"lon":5.374475,"is_reserved":false,"is_disabled":true,"rental_uris":{"android":"levelo://app?vid=d2bd57c8-6b64-48db-ad24-5398eb3fd9d6","ios":"levelo://app?vid=d2bd57c8-6b64-48db-ad24-5398eb3fd9d6"},"vehicle_type_id":"4","last_reported":1750227363,"current_range_meters":0,"station_id":"","pricing_plan_id":"cebpf4jnsgd1na2vs0mg"},{"bike_id":"62a493c7-4534-4419-ad43-0582de34a72a","system_id":"levelo_inurba_marseille","lat":43.21366,"lon":5.355183,"is_reserved":false,"is_disabled":true,"rental_uris":{"android":"levelo://app?vid=62a493c7-4534-4419-ad43-0582de34a72a","ios":"levelo://app?vid=62a493c7-4534-4419-ad43-0582de34a72a"},"vehicle_type_id":"4","last_reported":1750227363,"current_range_meters":0,"station_id":"","pricing_plan_id":"cebpf4jnsgd1na2vs0mg"},{"bike_id":"b9e37238-9abe-4b8b-b932-edaee33a7e59","system_id":"levelo_inurba_marseille","lat":43.27486,"lon":5.39006,"is_reserved":false,"is_disabled":true,"rental_uris":{"android":"levelo://app?vid=b9e37238-9abe-4b8b-b932-edaee33a7e59","ios":"levelo://app?vid=b9e37238-9abe-4b8b-b932-edaee33a7e59"},"vehicle_type_id":"4","last_reported":1750227363,"current_range_meters":0,"station_id":"","pricing_plan_id":"cebpf4jnsgd1na2vs0mg"},{"bike_id":"8ad9234e-001a-4549-8bba-9baf2ef98804","system_id":"levelo_inurba_marseille","lat":43.27433,"lon":5.39789,"is_reserved":false,"is_disabled":true,"rental_uris":{"android":"levelo://app?vid=8ad9234e-001a-4549-8bba-9baf2ef98804","ios":"levelo://app?vid=8ad9234e-001a-4549-8bba-9baf2ef98804"},"vehicle_type_id":"4","last_reported":1750227363,"current_range_meters":0,"station_id":"","pricing_plan_id":"cebpf4jnsgd1na2vs0mg"},{"bike_id":"93af304b-67b5-47b8-a3fd-e0775f7cde8c","system_id":"levelo_inurba_marseille","lat":43.21535,"lon":5.34738,"is_reserved":false,"is_disabled":true,"rental_uris":{"android":"levelo://app?vid=93af304b-67b5-47b8-a3fd-e0775f7cde8c","ios":"levelo://app?vid=93af304b-67b5-47b8-a3fd-e0775f7cde8c"},"vehicle_type_id":"4","last_reported":1750227363,"current_range_meters":0,"station_id":"","pricing_plan_id":"cebpf4jnsgd1na2vs0mg"},{"bike_id":"d6609b4f-333b-43c1-9ebe-8726f5e76e88","system_id":"levelo_inurba_marseille","lat":43.337444,"lon":5.374475,"is_reserved":false,"is_disabled":true,"rental_uris":{"android":"levelo://app?vid=d6609b4f-333b-43c1-9ebe-8726f5e76e88","ios":"levelo://app?vid=d6609b4f-333b-43c1-9ebe-8726f5e76e88"},"vehicle_type_id":"4","last_reported":1750227363,"current_range_meters":0,"station_id":"","pricing_plan_id":"cebpf4jnsgd1na2vs0mg"},{"bike_id":"57c83ce1-960e-466a-b6c5-d93bc130c53a","system_id":"levelo_inurba_marseille","lat":43.24898,"lon":5.38964,"is_reserved":false,"is_disabled":true,"rental_uris":{"android":"levelo://app?vid=57c83ce1-960e-466a-b6c5-d93bc130c53a","ios":"levelo://app?vid=57c83ce1-960e-466a-b6c5-d93bc130c53a"},"vehicle_type_id":"4","last_reported":1750227363,"current_range_meters":0,"station_id":"","pricing_plan_id":"cebpf4jnsgd1na2vs0mg"},{"bike_id":"4cde5892-ac30-4d57-a34b-b825da34ac56","system_id":"levelo_inurba_marseille","lat":43.29432,"lon":5.38625,"is_reserved":false,"is_disabled":true,"rental_uris":{"android":"levelo://app?vid=4cde5892-ac30-4d57-a34b-b825da34ac56","ios":"levelo://app?vid=4cde5892-ac30-4d57-a34b-b825da34ac56"},"vehicle_type_id":"4","last_reported":1750227363,"current_range_meters":0,"station_id":"ce4bh2h2rcd13ifvqdh0","pricing_plan_id":"cebpf4jnsgd1na2vs0mg"},{"bike_id":"6ab1ca16-c4ac-44a0-8157-7fb72ffd7777","system_id":"levelo_inurba_marseille","lat":43.27063,"lon":5.42275,"is_reserved":false,"is_disabled":true,"rental_uris":{"android":"levelo://app?vid=6ab1ca16-c4ac-44a0-8157-7fb72ffd7777","ios":"levelo://app?vid=6ab1ca16-c4ac-44a0-8157-7fb72ffd7777"},"vehicle_type_id":"4","last_reported":1750227363,"current_range_meters":0,"station_id":"ce4bhk92rcd13ifvqgb0","pricing_plan_id":"cebpf4jnsgd1na2vs0mg"},{"bike_id":"228fabe7-5671-4f97-9c31-9eb37ab08a14","system_id":"levelo_inurba_marseille","lat":43.23153,"lon":5.43713,"is_reserved":false,"is_disabled":true,"rental_uris":{"android":"levelo://app?vid=228fabe7-5671-4f97-9c31-9eb37ab08a14","ios":"levelo://app?vid=228fabe7-5671-4f97-9c31-9eb37ab08a14"},"vehicle_type_id":"4","last_reported":1750227363,"current_range_meters":0,"station_id":"ce4bhmp2rcd13ifvqgog","pricing_plan_id":"cebpf4jnsgd1na2vs0mg"},{"bike_id":"e66e7325-2f57-4dfa-897c-edbfe2d8288e","system_id":"levelo_inurba_marseille","lat":43.281,"lon":5.37831,"is_reserved":false,"is_disabled":true,"rental_uris":{"android":"levelo://app?vid=e66e7325-2f57-4dfa-897c-edbfe2d8288e","ios":"levelo://app?vid=e66e7325-2f57-4dfa-897c-edbfe2d8288e"},"vehicle_type_id":"4","last_reported":1750227363,"current_range_meters":400,"station_id":"ce4bha12rcd13ifvqee0","pricing_plan_id":"cebpf4jnsgd1na2vs0mg"},{"bike_id":"009dce3b-4b48-412b-8cf1-2201ecb6a2ed","system_id":"levelo_inurba_marseille","lat":43.29791,"lon":5.38085,"is_reserved":false,"is_disabled":true,"rental_uris":{"android":"levelo://app?vid=009dce3b-4b48-412b-8cf1-2201ecb6a2ed","ios":"levelo://app?vid=009dce3b-4b48-412b-8cf1-2201ecb6a2ed"},"vehicle_type_id":"4","last_reported":1750227363,"current_range_meters":1200,"station_id":"ce4bgip2rcd13ifvqbb0","pricing_plan_id":"cebpf4jnsgd1na2vs0mg"},{"bike_id":"8d297b38-f666-4a46-9dee-0132f800019c","system_id":"levelo_inurba_marseille","lat":43.32192,"lon":5.38554,"is_reserved":false,"is_disabled":true,"rental_uris":{"android":"levelo://app?vid=8d297b38-f666-4a46-9dee-0132f800019c","ios":"levelo://app?vid=8d297b38-f666-4a46-9dee-0132f800019c"},"vehicle_type_id":"4","last_reported":1750227363,"current_range_meters":1600,"station_id":"","pricing_plan_id":"cebpf4jnsgd1na2vs0mg"},{"bike_id":"fe348336-3c51-4041-a243-a97a31124c0c","system_id":"levelo_inurba_marseille","lat":43.297028,"lon":5.376777,"is_reserved":false,"is_disabled":true,"rental_uris":{"android":"levelo://app?vid=fe348336-3c51-4041-a243-a97a31124c0c","ios":"levelo://app?vid=fe348336-3c51-4041-a243-a97a31124c0c"},"vehicle_type_id":"4","last_reported":1750227363,"current_range_meters":1600,"station_id":"ce4bgkh2rcd13ifvqbl0","pricing_plan_id":"cebpf4jnsgd1na2vs0mg"},{"bike_id":"9f381e8f-464e-472f-9739-e1857c9b07bc","system_id":"levelo_inurba_marseille","lat":43.30188,"lon":5.36628,"is_reserved":false,"is_disabled":false,"rental_uris":{"android":"levelo://app?vid=9f381e8f-464e-472f-9739-e1857c9b07bc","ios":"levelo://app?vid=9f381e8f-464e-472f-9739-e1857c9b07bc"},"vehicle_type_id":"4","last_reported":1750227363,"current_range_meters":2000,"station_id":"ce4bgrh2rcd13ifvqc8g","pricing_plan_id":"cebpf4jnsgd1na2vs0mg"},{"bike_id":"38deea14-08f9-4114-aad5-3a0aa08a2b26","system_id":"levelo_inurba_marseille","lat":43.27924,"lon":5.39565,"is_reserved":false,"is_disabled":true,"rental_uris":{"android":"levelo://app?vid=38deea14-08f9-4114-aad5-3a0aa08a2b26","ios":"levelo://app?vid=38deea14-08f9-4114-aad5-3a0aa08a2b26"},"vehicle_type_id":"4","last_reported":1750227363,"current_range_meters":2000,"station_id":"ce4bhf92rcd13ifvqf40","pricing_plan_id":"cebpf4jnsgd1na2vs0mg"},{"bike_id":"1f34283b-c1d0-42c6-b4e0-6151ab3fbbf4","system_id":"levelo_inurba_marseille","lat":43.28269,"lon":5.35065,"is_reserved":false,"is_disabled":false,"rental_uris":{"android":"levelo://app?vid=1f34283b-c1d0-42c6-b4e0-6151ab3fbbf4","ios":"levelo://app?vid=1f34283b-c1d0-42c6-b4e0-6151ab3fbbf4"},"vehicle_type_id":"4","last_reported":1750227363,"current_range_meters":2800,"station_id":"ce4bhbp2rcd13ifvqerg","pricing_plan_id":"cebpf4jnsgd1na2vs0mg"},{"bike_id":"2395248d-0fef-4e4f-ba8e-f8283c94ae53","system_id":"levelo_inurba_marseille","lat":43.31235,"lon":5.39502,"is_reserved":false,"is_disabled":false,"rental_uris":{"android":"levelo://app?vid=2395248d-0fef-4e4f-ba8e-f8283c94ae53","ios":"levelo://app?vid=2395248d-0fef-4e4f-ba8e-f8283c94ae53"},"vehicle_type_id":"4","last_reported":1750227363,"current_range_meters":3600,"station_id":"","pricing_plan_id":"cebpf4jnsgd1na2vs0mg"},{"bike_id":"32681a94-c1c6-4ccc-b0dd-7de7e29cd3d8","system_id":"levelo_inurba_marseille","lat":43.30543,"lon":5.36561,"is_reserved":false,"is_disabled":false,"rental_uris":{"android":"levelo://app?vid=32681a94-c1c6-4ccc-b0dd-7de7e29cd3d8","ios":"levelo://app?vid=32681a94-c1c6-4ccc-b0dd-7de7e29cd3d8"},"vehicle_type_id":"4","last_reported":1750227363,"current_range_meters":3600,"station_id":"ce4bgs12rcd13ifvqcag","pricing_plan_id":"cebpf4jnsgd1na2vs0mg"},{"bike_id":"0a55a568-6009-4341-8e27-7194e7c5a283","system_id":"levelo_inurba_marseille","lat":43.25869,"lon":5.39897,"is_reserved":false,"is_disabled":false,"rental_uris":{"android":"levelo://app?vid=0a55a568-6009-4341-8e27-7194e7c5a283","ios":"levelo://app?vid=0a55a568-6009-4341-8e27-7194e7c5a283"},"vehicle_type_id":"4","last_reported":1750227363,"current_range_meters":3600,"station_id":"ce4bhl92rcd13ifvqghg","pricing_plan_id":"cebpf4jnsgd1na2vs0mg"},{"bike_id":"47196f00-388f-4b3b-a4de-3dba126cd107","system_id":"levelo_inurba_marseille","lat":43.2435,"lon":5.41143,"is_reserved":false,"is_disabled":false,"rental_uris":{"android":"levelo://app?vid=47196f00-388f-4b3b-a4de-3dba126cd107","ios":"levelo://app?vid=47196f00-388f-4b3b-a4de-3dba126cd107"},"vehicle_type_id":"4","last_reported":1750227363,"current_range_meters":4000,"station_id":"","pricing_plan_id":"cebpf4jnsgd1na2vs0mg"},{"bike_id":"0f68cffc-8799-4eb2-86e1-eaa544a3ffe0","system_id":"levelo_inurba_marseille","lat":43.30323,"lon":5.40435,"is_reserved":false,"is_disabled":false,"rental_uris":{"android":"levelo://app?vid=0f68cffc-8799-4eb2-86e1-eaa544a3ffe0","ios":"levelo://app?vid=0f68cffc-8799-4eb2-86e1-eaa544a3ffe0"},"vehicle_type_id":"4","last_reported":1750227363,"current_range_meters":4000,"station_id":"ce4bh012rcd13ifvqd10","pricing_plan_id":"cebpf4jnsgd1na2vs0mg"},{"bike_id":"7ef0e2f6-9d5d-434e-8132-a6f39dcede41","system_id":"levelo_inurba_marseille","lat":43.290019,"lon":5.355884,"is_reserved":false,"is_disabled":false,"rental_uris":{"android":"levelo://app?vid=7ef0e2f6-9d5d-434e-8132-a6f39dcede41","ios":"levelo://app?vid=7ef0e2f6-9d5d-434e-8132-a6f39dcede41"},"vehicle_type_id":"4","last_reported":1750227363,"current_range_meters":4000,"station_id":"ce4bhb92rcd13ifvqen0","pricing_plan_id":"cebpf4jnsgd1na2vs0mg"},{"bike_id":"ac6cfbe4-77d3-48b2-8223-369197e78e25","system_id":"levelo_inurba_marseille","lat":43.307974,"lon":5.38148,"is_reserved":false,"is_disabled":false,"rental_uris":{"android":"levelo://app?vid=ac6cfbe4-77d3-48b2-8223-369197e78e25","ios":"levelo://app?vid=ac6cfbe4-77d3-48b2-8223-369197e78e25"},"vehicle_type_id":"4","last_reported":1750227363,"current_range_meters":4400,"station_id":"ce4bgt12rcd13ifvqce0","pricing_plan_id":"cebpf4jnsgd1na2vs0mg"},{"bike_id":"af6a6efd-eb02-4eba-8975-a22d5b47e941","system_id":"levelo_inurba_marseille","lat":43.26932,"lon":5.389,"is_reserved":false,"is_disabled":false,"rental_uris":{"android":"levelo://app?vid=af6a6efd-eb02-4eba-8975-a22d5b47e941","ios":"levelo://app?vid=af6a6efd-eb02-4eba-8975-a22d5b47e941"},"vehicle_type_id":"4","last_reported":1750227363,"current_range_meters":4800,"station_id":"ce4bhhh2rcd13ifvqfl0","pricing_plan_id":"cebpf4jnsgd1na2vs0mg"},{"bike_id":"71f85657-24c1-41af-8831-20c904b40f08","system_id":"levelo_inurba_marseille","lat":43.24543,"lon":5.39526,"is_reserved":false,"is_disabled":false,"rental_uris":{"android":"levelo://app?vid=71f85657-24c1-41af-8831-20c904b40f08","ios":"levelo://app?vid=71f85657-24c1-41af-8831-20c904b40f08"},"vehicle_type_id":"4","last_reported":1750227363,"current_range_meters":5600,"station_id":"ce4bhlp2rcd13ifvqgjg","pricing_plan_id":"cebpf4jnsgd1na2vs0mg"},{"bike_id":"6077fb26-cc55-4cc9-84b6-5490e0d9eb92","system_id":"levelo_inurba_marseille","lat":43.23195,"lon":5.39972,"is_reserved":false,"is_disabled":false,"rental_uris":{"android":"levelo://app?vid=6077fb26-cc55-4cc9-84b6-5490e0d9eb92","ios":"levelo://app?vid=6077fb26-cc55-4cc9-84b6-5490e0d9eb92"},"vehicle_type_id":"4","last_reported":1750227363,"current_range_meters":5600,"station_id":"ce4bhn12rcd13ifvqgqg","pricing_plan_id":"cebpf4jnsgd1na2vs0mg"},{"bike_id":"1c8dd34b-9d03-492f-aa85-8944da27fde3","system_id":"levelo_inurba_marseille","lat":43.28609,"lon":5.37068,"is_reserved":false,"is_disabled":false,"rental_uris":{"android":"levelo://app?vid=1c8dd34b-9d03-492f-aa85-8944da27fde3","ios":"levelo://app?vid=1c8dd34b-9d03-492f-aa85-8944da27fde3"},"vehicle_type_id":"4","last_reported":1750227363,"current_range_meters":5600,"station_id":"ce4bht12rcd13ifvqi60","pricing_plan_id":"cebpf4jnsgd1na2vs0mg"},{"bike_id":"da51ab26-608d-445e-91a2-a6d4a760345a","system_id":"levelo_inurba_marseille","lat":43.29036,"lon":5.38659,"is_reserved":false,"is_disabled":false,"rental_uris":{"android":"levelo://app?vid=da51ab26-608d-445e-91a2-a6d4a760345a","ios":"levelo://app?vid=da51ab26-608d-445e-91a2-a6d4a760345a"},"vehicle_type_id":"4","last_reported":1750227363,"current_range_meters":6000,"station_id":"ce4bh4p2rcd13ifvqe0g","pricing_plan_id":"cebpf4jnsgd1na2vs0mg"},{"bike_id":"e529cdbc-406c-4b28-ba23-f977337388a4","system_id":"levelo_inurba_marseille","lat":43.27912,"lon":5.38021,"is_reserved":false,"is_disabled":false,"rental_uris":{"android":"levelo://app?vid=e529cdbc-406c-4b28-ba23-f977337388a4","ios":"levelo://app?vid=e529cdbc-406c-4b28-ba23-f977337388a4"},"vehicle_type_id":"4","last_reported":1750227363,"current_range_meters":6400,"station_id":"ce4bhf92rcd13ifvqf50","pricing_plan_id":"cebpf4jnsgd1na2vs0mg"},{"bike_id":"6c4bc5b2-3642-451c-9b83-cf23fe4f9ab8","system_id":"levelo_inurba_marseille","lat":43.28711,"lon":5.39978,"is_reserved":false,"is_disabled":false,"rental_uris":{"android":"levelo://app?vid=6c4bc5b2-3642-451c-9b83-cf23fe4f9ab8","ios":"levelo://app?vid=6c4bc5b2-3642-451c-9b83-cf23fe4f9ab8"},"vehicle_type_id":"4","last_reported":1750227363,"current_range_meters":6400,"station_id":"ce4bho92rcd13ifvqh3g","pricing_plan_id":"cebpf4jnsgd1na2vs0mg"},{"bike_id":"7dd5c82a-e4be-4cab-a499-dfca4328d3bf","system_id":"levelo_inurba_marseille","lat":43.29278,"lon":5.40118,"is_reserved":false,"is_disabled":false,"rental_uris":{"android":"levelo://app?vid=7dd5c82a-e4be-4cab-a499-dfca4328d3bf","ios":"levelo://app?vid=7dd5c82a-e4be-4cab-a499-dfca4328d3bf"},"vehicle_type_id":"4","last_reported":1750227363,"current_range_meters":6800,"station_id":"ce4bh312rcd13ifvqdk0","pricing_plan_id":"cebpf4jnsgd1na2vs0mg"},{"bike_id":"0849a71c-d0c6-44ef-bc09-5dadd953ca64","system_id":"levelo_inurba_marseille","lat":43.29222,"lon":5.36062,"is_reserved":false,"is_disabled":false,"rental_uris":{"android":"levelo://app?vid=0849a71c-d0c6-44ef-bc09-5dadd953ca64","ios":"levelo://app?vid=0849a71c-d0c6-44ef-bc09-5dadd953ca64"},"vehicle_type_id":"4","last_reported":1750227363,"current_range_meters":6800,"station_id":"ce4bhbh2rcd13ifvqeqg","pricing_plan_id":"cebpf4jnsgd1na2vs0mg"},{"bike_id":"ae4a7bb6-19ec-4528-ba2f-4c58721d2ee8","system_id":"levelo_inurba_marseille","lat":43.23343,"lon":5.435909,"is_reserved":false,"is_disabled":false,"rental_uris":{"android":"levelo://app?vid=ae4a7bb6-19ec-4528-ba2f-4c58721d2ee8","ios":"levelo://app?vid=ae4a7bb6-19ec-4528-ba2f-4c58721d2ee8"},"vehicle_type_id":"4","last_reported":1750227363,"current_range_meters":7200,"station_id":"","pricing_plan_id":"cebpf4jnsgd1na2vs0mg"},{"bike_id":"6ba80795-26da-43fa-ab60-6831760385ff","system_id":"levelo_inurba_marseille","lat":43.325803,"lon":5.419711,"is_reserved":false,"is_disabled":false,"rental_uris":{"android":"levelo://app?vid=6ba80795-26da-43fa-ab60-6831760385ff","ios":"levelo://app?vid=6ba80795-26da-43fa-ab60-6831760385ff"},"vehicle_type_id":"4","last_reported":1750227363,"current_range_meters":7200,"station_id":"","pricing_plan_id":"cebpf4jnsgd1na2vs0mg"},{"bike_id":"599edd48-0a29-4db2-9ab4-b98d5514d266","system_id":"levelo_inurba_marseille","lat":43.31352,"lon":5.36738,"is_reserved":false,"is_disabled":false,"rental_uris":{"android":"levelo://app?vid=599edd48-0a29-4db2-9ab4-b98d5514d266","ios":"levelo://app?vid=599edd48-0a29-4db2-9ab4-b98d5514d266"},"vehicle_type_id":"4","last_reported":1750227363,"current_range_meters":7200,"station_id":"ce4bgr92rcd13ifvqc6g","pricing_plan_id":"cebpf4jnsgd1na2vs0mg"},{"bike_id":"d9792ea2-ac2f-4271-8d87-ed8819339a7a","system_id":"levelo_inurba_marseille","lat":43.31368,"lon":5.367,"is_reserved":false,"is_disabled":false,"rental_uris":{"android":"levelo://app?vid=d9792ea2-ac2f-4271-8d87-ed8819339a7a","ios":"levelo://app?vid=d9792ea2-ac2f-4271-8d87-ed8819339a7a"},"vehicle_type_id":"4","last_reported":1750227363,"current_range_meters":7200,"station_id":"ce4bgr92rcd13ifvqc6g","pricing_plan_id":"cebpf4jnsgd1na2vs0mg"},{"bike_id":"6d8c07d6-0889-4ffb-8e05-8a787c37e305","system_id":"levelo_inurba_marseille","lat":43.23194,"lon":5.35557,"is_reserved":false,"is_disabled":false,"rental_uris":{"android":"levelo://app?vid=6d8c07d6-0889-4ffb-8e05-8a787c37e305","ios":"levelo://app?vid=6d8c07d6-0889-4ffb-8e05-8a787c37e305"},"vehicle_type_id":"4","last_reported":1750227363,"current_range_meters":7200,"station_id":"ce4bhu92rcd13ifvqi70","pricing_plan_id":"cebpf4jnsgd1na2vs0mg"},{"bike_id":"e03a6d42-f362-4878-ab56-4b5afba95b0c","system_id":"levelo_inurba_marseille","lat":43.314783,"lon":5.369173,"is_reserved":false,"is_disabled":false,"rental_uris":{"android":"levelo://app?vid=e03a6d42-f362-4878-ab56-4b5afba95b0c","ios":"levelo://app?vid=e03a6d42-f362-4878-ab56-4b5afba95b0c"},"vehicle_type_id":"4","last_reported":1750227363,"current_range_meters":8000,"station_id":"","pricing_plan_id":"cebpf4jnsgd1na2vs0mg"},{"bike_id":"4b5abeba-08d0-492e-b054-2caa54af4d06","system_id":"levelo_inurba_marseille","lat":43.306083,"lon":5.383532,"is_reserved":false,"is_disabled":false,"rental_uris":{"android":"levelo://app?vid=4b5abeba-08d0-492e-b054-2caa54af4d06","ios":"levelo://app?vid=4b5abeba-08d0-492e-b054-2caa54af4d06"},"vehicle_type_id":"4","last_reported":1750227363,"current_range_meters":8000,"station_id":"ce4bgg92rcd13ifvqb30","pricing_plan_id":"cebpf4jnsgd1na2vs0mg"},{"bike_id":"582929f4-74ce-4c56-8f26-f3dea033a12e","system_id":"levelo_inurba_marseille","lat":43.25939,"lon":5.40897,"is_reserved":false,"is_disabled":false,"rental_uris":{"android":"levelo://app?vid=582929f4-74ce-4c56-8f26-f3dea033a12e","ios":"levelo://app?vid=582929f4-74ce-4c56-8f26-f3dea033a12e"},"vehicle_type_id":"4","last_reported":1750227363,"current_range_meters":8000,"station_id":"ce4bhm92rcd13ifvqglg","pricing_plan_id":"cebpf4jnsgd1na2vs0mg"},{"bike_id":"83f35a71-5456-4f5a-8a01-d943bd814fec","system_id":"levelo_inurba_marseille","lat":43.3038,"lon":5.42485,"is_reserved":false,"is_disabled":false,"rental_uris":{"android":"levelo://app?vid=83f35a71-5456-4f5a-8a01-d943bd814fec","ios":"levelo://app?vid=83f35a71-5456-4f5a-8a01-d943bd814fec"},"vehicle_type_id":"4","last_reported":1750227363,"current_range_meters":8000,"station_id":"ce4bhoh2rcd13ifvqh6g","pricing_plan_id":"cebpf4jnsgd1na2vs0mg"},{"bike_id":"3b136301-d892-4bf1-aa15-695ec30464ca","system_id":"levelo_inurba_marseille","lat":43.32089,"lon":5.36754,"is_reserved":false,"is_disabled":false,"rental_uris":{"android":"levelo://app?vid=3b136301-d892-4bf1-aa15-695ec30464ca","ios":"levelo://app?vid=3b136301-d892-4bf1-aa15-695ec30464ca"},"vehicle_type_id":"4","last_reported":1750227363,"current_range_meters":8000,"station_id":"ce4bhrh2rcd13ifvqhug","pricing_plan_id":"cebpf4jnsgd1na2vs0mg"},{"bike_id":"ae8524c6-7b10-43ef-8ed4-b8035f1213c1","system_id":"levelo_inurba_marseille","lat":43.33475,"lon":5.40017,"is_reserved":false,"is_disabled":false,"rental_uris":{"android":"levelo://app?vid=ae8524c6-7b10-43ef-8ed4-b8035f1213c1","ios":"levelo://app?vid=ae8524c6-7b10-43ef-8ed4-b8035f1213c1"},"vehicle_type_id":"4","last_reported":1750227363,"current_range_meters":8400,"station_id":"","pricing_plan_id":"cebpf4jnsgd1na2vs0mg"},{"bike_id":"ad347c14-931f-4261-ab3b-a1807595d5e4","system_id":"levelo_inurba_marseille","lat":43.316881,"lon":5.404597,"is_reserved":false,"is_disabled":false,"rental_uris":{"android":"levelo://app?vid=ad347c14-931f-4261-ab3b-a1807595d5e4","ios":"levelo://app?vid=ad347c14-931f-4261-ab3b-a1807595d5e4"},"vehicle_type_id":"4","last_reported":1750227363,"current_range_meters":8800,"station_id":"ce4bh012rcd13ifvqd00","pricing_plan_id":"cebpf4jnsgd1na2vs0mg"},{"bike_id":"035df5f9-5415-4646-b778-3e5c2fc962b5","system_id":"levelo_inurba_marseille","lat":43.30413,"lon":5.39759,"is_reserved":false,"is_disabled":false,"rental_uris":{"android":"levelo://app?vid=035df5f9-5415-4646-b778-3e5c2fc962b5","ios":"levelo://app?vid=035df5f9-5415-4646-b778-3e5c2fc962b5"},"vehicle_type_id":"4","last_reported":1750227363,"current_range_meters":8800,"station_id":"ce4bh092rcd13ifvqd20","pricing_plan_id":"cebpf4jnsgd1na2vs0mg"},{"bike_id":"8eb82f83-fc94-41d0-aa0b-8123ebd2f020","system_id":"levelo_inurba_marseille","lat":43.292787,"lon":5.401392,"is_reserved":false,"is_disabled":false,"rental_uris":{"android":"levelo://app?vid=8eb82f83-fc94-41d0-aa0b-8123ebd2f020","ios":"levelo://app?vid=8eb82f83-fc94-41d0-aa0b-8123ebd2f020"},"vehicle_type_id":"4","last_reported":1750227363,"current_range_meters":8800,"station_id":"ce4bh312rcd13ifvqdk0","pricing_plan_id":"cebpf4jnsgd1na2vs0mg"},{"bike_id":"0e27dafc-21df-4fb1-bd36-2450a7866702","system_id":"levelo_inurba_marseille","lat":43.271611,"lon":5.400128,"is_reserved":false,"is_disabled":false,"rental_uris":{"android":"levelo://app?vid=0e27dafc-21df-4fb1-bd36-2450a7866702","ios":"levelo://app?vid=0e27dafc-21df-4fb1-bd36-2450a7866702"},"vehicle_type_id":"4","last_reported":1750227363,"current_range_meters":9200,"station_id":"","pricing_plan_id":"cebpf4jnsgd1na2vs0mg"},{"bike_id":"a6826c5a-c2ad-4cbf-99a2-79a5bb91cdb7","system_id":"levelo_inurba_marseille","lat":43.30934,"lon":5.36806,"is_reserved":false,"is_disabled":false,"rental_uris":{"android":"levelo://app?vid=a6826c5a-c2ad-4cbf-99a2-79a5bb91cdb7","ios":"levelo://app?vid=a6826c5a-c2ad-4cbf-99a2-79a5bb91cdb7"},"vehicle_type_id":"4","last_reported":1750227363,"current_range_meters":9200,"station_id":"ce4bgn92rcd13ifvqbvg","pricing_plan_id":"cebpf4jnsgd1na2vs0mg"},{"bike_id":"820df921-69fc-426c-b325-82acf4918bb0","system_id":"levelo_inurba_marseille","lat":43.30604,"lon":5.372023,"is_reserved":false,"is_disabled":false,"rental_uris":{"android":"levelo://app?vid=820df921-69fc-426c-b325-82acf4918bb0","ios":"levelo://app?vid=820df921-69fc-426c-b325-82acf4918bb0"},"vehicle_type_id":"4","last_reported":1750227363,"current_range_meters":9200,"station_id":"ce4bgqh2rcd13ifvqc4g","pricing_plan_id":"cebpf4jnsgd1na2vs0mg"},{"bike_id":"0236841f-d315-4698-8c72-cd71d700f9c8","system_id":"levelo_inurba_marseille","lat":43.31682,"lon":5.40487,"is_reserved":false,"is_disabled":false,"rental_uris":{"android":"levelo://app?vid=0236841f-d315-4698-8c72-cd71d700f9c8","ios":"levelo://app?vid=0236841f-d315-4698-8c72-cd71d700f9c8"},"vehicle_type_id":"4","last_reported":1750227363,"current_range_meters":9200,"station_id":"ce4bh012rcd13ifvqd00","pricing_plan_id":"cebpf4jnsgd1na2vs0mg"},{"bike_id":"6e241a86-1069-4dec-a875-0b9568f2fe41","system_id":"levelo_inurba_marseille","lat":43.30415,"lon":5.39766,"is_reserved":false,"is_disabled":false,"rental_uris":{"android":"levelo://app?vid=6e241a86-1069-4dec-a875-0b9568f2fe41","ios":"levelo://app?vid=6e241a86-1069-4dec-a875-0b9568f2fe41"},"vehicle_type_id":"4","last_reported":1750227363,"current_range_meters":9200,"station_id":"ce4bh092rcd13ifvqd20","pricing_plan_id":"cebpf4jnsgd1na2vs0mg"},{"bike_id":"b5002037-f4b0-4634-8bc4-796d0c74810e","system_id":"levelo_inurba_marseille","lat":43.24358,"lon":5.41144,"is_reserved":false,"is_disabled":false,"rental_uris":{"android":"levelo://app?vid=b5002037-f4b0-4634-8bc4-796d0c74810e","ios":"levelo://app?vid=b5002037-f4b0-4634-8bc4-796d0c74810e"},"vehicle_type_id":"4","last_reported":1750227363,"current_range_meters":9600,"station_id":"","pricing_plan_id":"cebpf4jnsgd1na2vs0mg"},{"bike_id":"d30f880b-8118-45d2-aac3-136366f21bb5","system_id":"levelo_inurba_marseille","lat":43.29849,"lon":5.3629,"is_reserved":false,"is_disabled":false,"rental_uris":{"android":"levelo://app?vid=d30f880b-8118-45d2-aac3-136366f21bb5","ios":"levelo://app?vid=d30f880b-8118-45d2-aac3-136366f21bb5"},"vehicle_type_id":"4","last_reported":1750227363,"current_range_meters":9600,"station_id":"ce4bgpp2rcd13ifvqc3g","pricing_plan_id":"cebpf4jnsgd1na2vs0mg"},{"bike_id":"e4c1a614-2854-41db-8ce5-4249764a3da6","system_id":"levelo_inurba_marseille","lat":43.30479,"lon":5.37905,"is_reserved":false,"is_disabled":false,"rental_uris":{"android":"levelo://app?vid=e4c1a614-2854-41db-8ce5-4249764a3da6","ios":"levelo://app?vid=e4c1a614-2854-41db-8ce5-4249764a3da6"},"vehicle_type_id":"4","last_reported":1750227363,"current_range_meters":9600,"station_id":"ce4bgup2rcd13ifvqcn0","pricing_plan_id":"cebpf4jnsgd1na2vs0mg"},{"bike_id":"7c7d8ab5-008b-47eb-a5ae-5a63a77e5f6a","system_id":"levelo_inurba_marseille","lat":43.29251,"lon":5.40887,"is_reserved":false,"is_disabled":false,"rental_uris":{"android":"levelo://app?vid=7c7d8ab5-008b-47eb-a5ae-5a63a77e5f6a","ios":"levelo://app?vid=7c7d8ab5-008b-47eb-a5ae-5a63a77e5f6a"},"vehicle_type_id":"4","last_reported":1750227363,"current_range_meters":9600,"station_id":"ce4bh192rcd13ifvqdc0","pricing_plan_id":"cebpf4jnsgd1na2vs0mg"},{"bike_id":"3d49979d-2190-445e-b69b-d1b57e5d5a0a","system_id":"levelo_inurba_marseille","lat":43.29024,"lon":5.38646,"is_reserved":false,"is_disabled":false,"rental_uris":{"android":"levelo://app?vid=3d49979d-2190-445e-b69b-d1b57e5d5a0a","ios":"levelo://app?vid=3d49979d-2190-445e-b69b-d1b57e5d5a0a"},"vehicle_type_id":"4","last_reported":1750227363,"current_range_meters":9600,"station_id":"ce4bh4p2rcd13ifvqe0g","pricing_plan_id":"cebpf4jnsgd1na2vs0mg"},{"bike_id":"eca25bd6-1b44-4388-a7b0-074a85a4f502","system_id":"levelo_inurba_marseille","lat":43.31096,"lon":5.39755,"is_reserved":false,"is_disabled":false,"rental_uris":{"android":"levelo://app?vid=eca25bd6-1b44-4388-a7b0-074a85a4f502","ios":"levelo://app?vid=eca25bd6-1b44-4388-a7b0-074a85a4f502"},"vehicle_type_id":"4","last_reported":1750227363,"current_range_meters":10000,"station_id":"","pricing_plan_id":"cebpf4jnsgd1na2vs0mg"},{"bike_id":"8295465d-80e0-48c9-9523-14e36c728b9a","system_id":"levelo_inurba_marseille","lat":43.305415,"lon":5.38432,"is_reserved":false,"is_disabled":false,"rental_uris":{"android":"levelo://app?vid=8295465d-80e0-48c9-9523-14e36c728b9a","ios":"levelo://app?vid=8295465d-80e0-48c9-9523-14e36c728b9a"},"vehicle_type_id":"4","last_reported":1750227363,"current_range_meters":10000,"station_id":"ce4bgg92rcd13ifvqb30","pricing_plan_id":"cebpf4jnsgd1na2vs0mg"},{"bike_id":"6d2ce886-7f43-48c5-94fe-ec70698c7144","system_id":"levelo_inurba_marseille","lat":43.313691,"lon":5.385053,"is_reserved":false,"is_disabled":false,"rental_uris":{"android":"levelo://app?vid=6d2ce886-7f43-48c5-94fe-ec70698c7144","ios":"levelo://app?vid=6d2ce886-7f43-48c5-94fe-ec70698c7144"},"vehicle_type_id":"4","last_reported":1750227363,"current_range_meters":10000,"station_id":"ce4bgt92rcd13ifvqcf0","pricing_plan_id":"cebpf4jnsgd1na2vs0mg"},{"bike_id":"52bb911a-6e79-4962-9c92-c822e6f1dd65","system_id":"levelo_inurba_marseille","lat":43.30459,"lon":5.37903,"is_reserved":false,"is_disabled":false,"rental_uris":{"android":"levelo://app?vid=52bb911a-6e79-4962-9c92-c822e6f1dd65","ios":"levelo://app?vid=52bb911a-6e79-4962-9c92-c822e6f1dd65"},"vehicle_type_id":"4","last_reported":1750227363,"current_range_meters":10000,"station_id":"ce4bgup2rcd13ifvqcn0","pricing_plan_id":"cebpf4jnsgd1na2vs0mg"},{"bike_id":"83cfee7d-980d-496a-98c8-745c7e44c68d","system_id":"levelo_inurba_marseille","lat":43.32871,"lon":5.39081,"is_reserved":false,"is_disabled":false,"rental_uris":{"android":"levelo://app?vid=83cfee7d-980d-496a-98c8-745c7e44c68d","ios":"levelo://app?vid=83cfee7d-980d-496a-98c8-745c7e44c68d"},"vehicle_type_id":"4","last_reported":1750227363,"current_range_meters":10800,"station_id":"","pricing_plan_id":"cebpf4jnsgd1na2vs0mg"},{"bike_id":"4d139eea-5f28-4a06-adf9-5469755c901e","system_id":"levelo_inurba_marseille","lat":43.30154,"lon":5.38067,"is_reserved":false,"is_disabled":false,"rental_uris":{"android":"levelo://app?vid=4d139eea-5f28-4a06-adf9-5469755c901e","ios":"levelo://app?vid=4d139eea-5f28-4a06-adf9-5469755c901e"},"vehicle_type_id":"4","last_reported":1750227363,"current_range_meters":10800,"station_id":"ce4bgjp2rcd13ifvqbh0","pricing_plan_id":"cebpf4jnsgd1na2vs0mg"},{"bike_id":"41e18dc3-e84b-4ff7-88db-11889c3cfcde","system_id":"levelo_inurba_marseille","lat":43.30947,"lon":5.39032,"is_reserved":false,"is_disabled":false,"rental_uris":{"android":"levelo://app?vid=41e18dc3-e84b-4ff7-88db-11889c3cfcde","ios":"levelo://app?vid=41e18dc3-e84b-4ff7-88db-11889c3cfcde"},"vehicle_type_id":"4","last_reported":1750227363,"current_range_meters":10800,"station_id":"ce4bgup2rcd13ifvqco0","pricing_plan_id":"cebpf4jnsgd1na2vs0mg"},{"bike_id":"3092fc8f-d6a9-4017-8dec-ba26b01b5088","system_id":"levelo_inurba_marseille","lat":43.26026,"lon":5.37546,"is_reserved":false,"is_disabled":false,"rental_uris":{"android":"levelo://app?vid=3092fc8f-d6a9-4017-8dec-ba26b01b5088","ios":"levelo://app?vid=3092fc8f-d6a9-4017-8dec-ba26b01b5088"},"vehicle_type_id":"4","last_reported":1750227363,"current_range_meters":10800,"station_id":"ce4bhgh2rcd13ifvqfa0","pricing_plan_id":"cebpf4jnsgd1na2vs0mg"},{"bike_id":"3fe0e667-b432-4229-b11a-ae30377c9adf","system_id":"levelo_inurba_marseille","lat":43.25119,"lon":5.40326,"is_reserved":false,"is_disabled":false,"rental_uris":{"android":"levelo://app?vid=3fe0e667-b432-4229-b11a-ae30377c9adf","ios":"levelo://app?vid=3fe0e667-b432-4229-b11a-ae30377c9adf"},"vehicle_type_id":"4","last_reported":1750227363,"current_range_meters":10800,"station_id":"ce4bhlh2rcd13ifvqgig","pricing_plan_id":"cebpf4jnsgd1na2vs0mg"},{"bike_id":"b0cbcf3d-ad07-4dca-a36a-401b81db7a8d","system_id":"levelo_inurba_marseille","lat":43.251119,"lon":5.403229,"is_reserved":false,"is_disabled":false,"rental_uris":{"android":"levelo://app?vid=b0cbcf3d-ad07-4dca-a36a-401b81db7a8d","ios":"levelo://app?vid=b0cbcf3d-ad07-4dca-a36a-401b81db7a8d"},"vehicle_type_id":"4","last_reported":1750227363,"current_range_meters":10800,"station_id":"ce4bhlh2rcd13ifvqgig","pricing_plan_id":"cebpf4jnsgd1na2vs0mg"},{"bike_id":"2090556a-ebe6-4fcd-b60b-df67d7c8e4f7","system_id":"levelo_inurba_marseille","lat":43.29902,"lon":5.43655,"is_reserved":false,"is_disabled":false,"rental_uris":{"android":"levelo://app?vid=2090556a-ebe6-4fcd-b60b-df67d7c8e4f7","ios":"levelo://app?vid=2090556a-ebe6-4fcd-b60b-df67d7c8e4f7"},"vehicle_type_id":"4","last_reported":1750227363,"current_range_meters":10800,"station_id":"ce4bhpp2rcd13ifvqhfg","pricing_plan_id":"cebpf4jnsgd1na2vs0mg"},{"bike_id":"3d71d4df-44d5-4a43-b95c-ebb9fbdb915f","system_id":"levelo_inurba_marseille","lat":43.27942,"lon":5.41059,"is_reserved":false,"is_disabled":false,"rental_uris":{"android":"levelo://app?vid=3d71d4df-44d5-4a43-b95c-ebb9fbdb915f","ios":"levelo://app?vid=3d71d4df-44d5-4a43-b95c-ebb9fbdb915f"},"vehicle_type_id":"4","last_reported":1750227363,"current_range_meters":11200,"station_id":"ce4bhnp2rcd13ifvqh0g","pricing_plan_id":"cebpf4jnsgd1na2vs0mg"},{"bike_id":"b0c14a4b-f04f-4240-9113-19885ad4a676","system_id":"levelo_inurba_marseille","lat":43.337487,"lon":5.37463,"is_reserved":false,"is_disabled":false,"rental_uris":{"android":"levelo://app?vid=b0c14a4b-f04f-4240-9113-19885ad4a676","ios":"levelo://app?vid=b0c14a4b-f04f-4240-9113-19885ad4a676"},"vehicle_type_id":"4","last_reported":1750227363,"current_range_meters":11600,"station_id":"","pricing_plan_id":"cebpf4jnsgd1na2vs0mg"},{"bike_id":"df1581f9-fa89-41ff-be54-57a55d20b5e9","system_id":"levelo_inurba_marseille","lat":43.30359,"lon":5.42494,"is_reserved":false,"is_disabled":false,"rental_uris":{"android":"levelo://app?vid=df1581f9-fa89-41ff-be54-57a55d20b5e9","ios":"levelo://app?vid=df1581f9-fa89-41ff-be54-57a55d20b5e9"},"vehicle_type_id":"4","last_reported":1750227363,"current_range_meters":11600,"station_id":"ce4bhoh2rcd13ifvqh6g","pricing_plan_id":"cebpf4jnsgd1na2vs0mg"},{"bike_id":"2696f42d-34f7-4c94-a7b4-c480656e1e0a","system_id":"levelo_inurba_marseille","lat":43.2293,"lon":5.35377,"is_reserved":false,"is_disabled":false,"rental_uris":{"android":"levelo://app?vid=2696f42d-34f7-4c94-a7b4-c480656e1e0a","ios":"levelo://app?vid=2696f42d-34f7-4c94-a7b4-c480656e1e0a"},"vehicle_type_id":"4","last_reported":1750227363,"current_range_meters":11600,"station_id":"cpo3532slgdg3j2ikp40","pricing_plan_id":"cebpf4jnsgd1na2vs0mg"},{"bike_id":"ca635384-51e7-489a-a583-b6e2d9197ed6","system_id":"levelo_inurba_marseille","lat":43.30145,"lon":5.37405,"is_reserved":false,"is_disabled":false,"rental_uris":{"android":"levelo://app?vid=ca635384-51e7-489a-a583-b6e2d9197ed6","ios":"levelo://app?vid=ca635384-51e7-489a-a583-b6e2d9197ed6"},"vehicle_type_id":"4","last_reported":1750227363,"current_range_meters":12000,"station_id":"ce4bgs92rcd13ifvqcc0","pricing_plan_id":"cebpf4jnsgd1na2vs0mg"},{"bike_id":"6cab3f37-e599-4e10-861f-f99e6f722434","system_id":"levelo_inurba_marseille","lat":43.31329,"lon":5.39696,"is_reserved":false,"is_disabled":false,"rental_uris":{"android":"levelo://app?vid=6cab3f37-e599-4e10-861f-f99e6f722434","ios":"levelo://app?vid=6cab3f37-e599-4e10-861f-f99e6f722434"},"vehicle_type_id":"4","last_reported":1750227363,"current_range_meters":12000,"station_id":"ce4bgvp2rcd13ifvqcu0","pricing_plan_id":"cebpf4jnsgd1na2vs0mg"},{"bike_id":"081f8872-cfaf-4e08-a52c-be911a87a8ce","system_id":"levelo_inurba_marseille","lat":43.29286,"lon":5.40114,"is_reserved":false,"is_disabled":false,"rental_uris":{"android":"levelo://app?vid=081f8872-cfaf-4e08-a52c-be911a87a8ce","ios":"levelo://app?vid=081f8872-cfaf-4e08-a52c-be911a87a8ce"},"vehicle_type_id":"4","last_reported":1750227363,"current_range_meters":12000,"station_id":"ce4bh312rcd13ifvqdk0","pricing_plan_id":"cebpf4jnsgd1na2vs0mg"},{"bike_id":"ec791070-eafa-4c06-b970-7958cef6417d","system_id":"levelo_inurba_marseille","lat":43.23194,"lon":5.35553,"is_reserved":false,"is_disabled":false,"rental_uris":{"android":"levelo://app?vid=ec791070-eafa-4c06-b970-7958cef6417d","ios":"levelo://app?vid=ec791070-eafa-4c06-b970-7958cef6417d"},"vehicle_type_id":"4","last_reported":1750227363,"current_range_meters":12000,"station_id":"ce4bhu92rcd13ifvqi70","pricing_plan_id":"cebpf4jnsgd1na2vs0mg"},{"bike_id":"1197e330-995f-4f41-954b-3eea58f2a4c0","system_id":"levelo_inurba_marseille","lat":43.21196,"lon":5.35067,"is_reserved":false,"is_disabled":false,"rental_uris":{"android":"levelo://app?vid=1197e330-995f-4f41-954b-3eea58f2a4c0","ios":"levelo://app?vid=1197e330-995f-4f41-954b-3eea58f2a4c0"},"vehicle_type_id":"4","last_reported":1750227363,"current_range_meters":12000,"station_id":"st_cvj6sg6p6f1abm77japg","pricing_plan_id":"cebpf4jnsgd1na2vs0mg"},{"bike_id":"de0f7c2b-5974-4035-a240-8ed367c0e3f3","system_id":"levelo_inurba_marseille","lat":43.31971,"lon":5.376179,"is_reserved":false,"is_disabled":false,"rental_uris":{"android":"levelo://app?vid=de0f7c2b-5974-4035-a240-8ed367c0e3f3","ios":"levelo://app?vid=de0f7c2b-5974-4035-a240-8ed367c0e3f3"},"vehicle_type_id":"4","last_reported":1750227363,"current_range_meters":12400,"station_id":"","pricing_plan_id":"cebpf4jnsgd1na2vs0mg"},{"bike_id":"71d12e58-04f2-4779-a0b2-e406981872d9","system_id":"levelo_inurba_marseille","lat":43.29405,"lon":5.38642,"is_reserved":false,"is_disabled":false,"rental_uris":{"android":"levelo://app?vid=71d12e58-04f2-4779-a0b2-e406981872d9","ios":"levelo://app?vid=71d12e58-04f2-4779-a0b2-e406981872d9"},"vehicle_type_id":"4","last_reported":1750227363,"current_range_meters":12400,"station_id":"ce4bh2h2rcd13ifvqdh0","pricing_plan_id":"cebpf4jnsgd1na2vs0mg"},{"bike_id":"60dbbff2-1b41-4ac7-b3d6-c7b5f639d090","system_id":"levelo_inurba_marseille","lat":43.29023,"lon":5.40003,"is_reserved":false,"is_disabled":false,"rental_uris":{"android":"levelo://app?vid=60dbbff2-1b41-4ac7-b3d6-c7b5f639d090","ios":"levelo://app?vid=60dbbff2-1b41-4ac7-b3d6-c7b5f639d090"},"vehicle_type_id":"4","last_reported":1750227363,"current_range_meters":12400,"station_id":"ce4bh392rcd13ifvqdm0","pricing_plan_id":"cebpf4jnsgd1na2vs0mg"},{"bike_id":"3a5a2467-ecab-4d24-bf49-437814e66984","system_id":"levelo_inurba_marseille","lat":43.28373,"lon":5.38644,"is_reserved":false,"is_disabled":false,"rental_uris":{"android":"levelo://app?vid=3a5a2467-ecab-4d24-bf49-437814e66984","ios":"levelo://app?vid=3a5a2467-ecab-4d24-bf49-437814e66984"},"vehicle_type_id":"4","last_reported":1750227363,"current_range_meters":12400,"station_id":"ce4bh492rcd13ifvqdvg","pricing_plan_id":"cebpf4jnsgd1na2vs0mg"},{"bike_id":"c12e7af1-f4fd-4f8a-a7dd-bffa76873def","system_id":"levelo_inurba_marseille","lat":43.27617,"lon":5.36101,"is_reserved":false,"is_disabled":false,"rental_uris":{"android":"levelo://app?vid=c12e7af1-f4fd-4f8a-a7dd-bffa76873def","ios":"levelo://app?vid=c12e7af1-f4fd-4f8a-a7dd-bffa76873def"},"vehicle_type_id":"4","last_reported":1750227363,"current_range_meters":12800,"station_id":"ce4bgj92rcd13ifvqbe0","pricing_plan_id":"cebpf4jnsgd1na2vs0mg"},{"bike_id":"5339f0ae-3e13-4082-8866-78b4caf4e916","system_id":"levelo_inurba_marseille","lat":43.30164,"lon":5.38086,"is_reserved":false,"is_disabled":false,"rental_uris":{"android":"levelo://app?vid=5339f0ae-3e13-4082-8866-78b4caf4e916","ios":"levelo://app?vid=5339f0ae-3e13-4082-8866-78b4caf4e916"},"vehicle_type_id":"4","last_reported":1750227363,"current_range_meters":12800,"station_id":"ce4bgjp2rcd13ifvqbh0","pricing_plan_id":"cebpf4jnsgd1na2vs0mg"},{"bike_id":"db7469ff-0c81-4c71-a468-951bd415ebb8","system_id":"levelo_inurba_marseille","lat":43.30484,"lon":5.37913,"is_reserved":false,"is_disabled":false,"rental_uris":{"android":"levelo://app?vid=db7469ff-0c81-4c71-a468-951bd415ebb8","ios":"levelo://app?vid=db7469ff-0c81-4c71-a468-951bd415ebb8"},"vehicle_type_id":"4","last_reported":1750227363,"current_range_meters":12800,"station_id":"ce4bgup2rcd13ifvqcn0","pricing_plan_id":"cebpf4jnsgd1na2vs0mg"},{"bike_id":"32ee6c4a-ccab-41cb-b4a7-863095ced63d","system_id":"levelo_inurba_marseille","lat":43.28705,"lon":5.40015,"is_reserved":false,"is_disabled":false,"rental_uris":{"android":"levelo://app?vid=32ee6c4a-ccab-41cb-b4a7-863095ced63d","ios":"levelo://app?vid=32ee6c4a-ccab-41cb-b4a7-863095ced63d"},"vehicle_type_id":"4","last_reported":1750227363,"current_range_meters":12800,"station_id":"ce4bho92rcd13ifvqh3g","pricing_plan_id":"cebpf4jnsgd1na2vs0mg"},{"bike_id":"f7fa858e-b7ee-404f-8191-6184cc003e2b","system_id":"levelo_inurba_marseille","lat":43.23193,"lon":5.35551,"is_reserved":false,"is_disabled":false,"rental_uris":{"android":"levelo://app?vid=f7fa858e-b7ee-404f-8191-6184cc003e2b","ios":"levelo://app?vid=f7fa858e-b7ee-404f-8191-6184cc003e2b"},"vehicle_type_id":"4","last_reported":1750227363,"current_range_meters":12800,"station_id":"ce4bhu92rcd13ifvqi70","pricing_plan_id":"cebpf4jnsgd1na2vs0mg"},{"bike_id":"e0a889cf-2327-4278-9b67-453fc8c6ae2a","system_id":"levelo_inurba_marseille","lat":43.30257,"lon":5.37468,"is_reserved":false,"is_disabled":false,"rental_uris":{"android":"levelo://app?vid=e0a889cf-2327-4278-9b67-453fc8c6ae2a","ios":"levelo://app?vid=e0a889cf-2327-4278-9b67-453fc8c6ae2a"},"vehicle_type_id":"4","last_reported":1750227363,"current_range_meters":13600,"station_id":"","pricing_plan_id":"cebpf4jnsgd1na2vs0mg"},{"bike_id":"3518210a-6d90-482f-a11b-11cb7c94acd1","system_id":"levelo_inurba_marseille","lat":43.26471,"lon":5.39196,"is_reserved":false,"is_disabled":false,"rental_uris":{"android":"levelo://app?vid=3518210a-6d90-482f-a11b-11cb7c94acd1","ios":"levelo://app?vid=3518210a-6d90-482f-a11b-11cb7c94acd1"},"vehicle_type_id":"4","last_reported":1750227363,"current_range_meters":13600,"station_id":"","pricing_plan_id":"cebpf4jnsgd1na2vs0mg"},{"bike_id":"d669c906-04ba-44a7-98cd-23a9ff4cc2eb","system_id":"levelo_inurba_marseille","lat":43.30528,"lon":5.36706,"is_reserved":false,"is_disabled":false,"rental_uris":{"android":"levelo://app?vid=d669c906-04ba-44a7-98cd-23a9ff4cc2eb","ios":"levelo://app?vid=d669c906-04ba-44a7-98cd-23a9ff4cc2eb"},"vehicle_type_id":"4","last_reported":1750227363,"current_range_meters":13600,"station_id":"ce4bgrp2rcd13ifvqc9g","pricing_plan_id":"cebpf4jnsgd1na2vs0mg"},{"bike_id":"a4afc3e2-b974-4dba-9131-09c20f63246f","system_id":"levelo_inurba_marseille","lat":43.3014,"lon":5.37409,"is_reserved":false,"is_disabled":false,"rental_uris":{"android":"levelo://app?vid=a4afc3e2-b974-4dba-9131-09c20f63246f","ios":"levelo://app?vid=a4afc3e2-b974-4dba-9131-09c20f63246f"},"vehicle_type_id":"4","last_reported":1750227363,"current_range_meters":13600,"station_id":"ce4bgs92rcd13ifvqcc0","pricing_plan_id":"cebpf4jnsgd1na2vs0mg"},{"bike_id":"2f0f7865-53e4-4955-8eb9-1bb98bf95595","system_id":"levelo_inurba_marseille","lat":43.31762,"lon":5.37584,"is_reserved":false,"is_disabled":false,"rental_uris":{"android":"levelo://app?vid=2f0f7865-53e4-4955-8eb9-1bb98bf95595","ios":"levelo://app?vid=2f0f7865-53e4-4955-8eb9-1bb98bf95595"},"vehicle_type_id":"4","last_reported":1750227363,"current_range_meters":14000,"station_id":"","pricing_plan_id":"cebpf4jnsgd1na2vs0mg"},{"bike_id":"be314294-c027-4750-8947-558ae8f14279","system_id":"levelo_inurba_marseille","lat":43.29263,"lon":5.40889,"is_reserved":false,"is_disabled":false,"rental_uris":{"android":"levelo://app?vid=be314294-c027-4750-8947-558ae8f14279","ios":"levelo://app?vid=be314294-c027-4750-8947-558ae8f14279"},"vehicle_type_id":"4","last_reported":1750227363,"current_range_meters":14000,"station_id":"ce4bh192rcd13ifvqdc0","pricing_plan_id":"cebpf4jnsgd1na2vs0mg"},{"bike_id":"de0bda34-41a6-4231-8ed4-c93e07fc3176","system_id":"levelo_inurba_marseille","lat":43.32622,"lon":5.37508,"is_reserved":false,"is_disabled":false,"rental_uris":{"android":"levelo://app?vid=de0bda34-41a6-4231-8ed4-c93e07fc3176","ios":"levelo://app?vid=de0bda34-41a6-4231-8ed4-c93e07fc3176"},"vehicle_type_id":"4","last_reported":1750227363,"current_range_meters":14400,"station_id":"","pricing_plan_id":"cebpf4jnsgd1na2vs0mg"},{"bike_id":"f96fac91-fcd6-4cf6-94db-3fb959156263","system_id":"levelo_inurba_marseille","lat":43.282705,"lon":5.35063,"is_reserved":false,"is_disabled":false,"rental_uris":{"android":"levelo://app?vid=f96fac91-fcd6-4cf6-94db-3fb959156263","ios":"levelo://app?vid=f96fac91-fcd6-4cf6-94db-3fb959156263"},"vehicle_type_id":"4","last_reported":1750227363,"current_range_meters":14400,"station_id":"ce4bhbp2rcd13ifvqerg","pricing_plan_id":"cebpf4jnsgd1na2vs0mg"},{"bike_id":"087a29c5-3b67-4920-bdca-1884dff58212","system_id":"levelo_inurba_marseille","lat":43.24392,"lon":5.37086,"is_reserved":false,"is_disabled":false,"rental_uris":{"android":"levelo://app?vid=087a29c5-3b67-4920-bdca-1884dff58212","ios":"levelo://app?vid=087a29c5-3b67-4920-bdca-1884dff58212"},"vehicle_type_id":"4","last_reported":1750227363,"current_range_meters":14400,"station_id":"ce4bhhh2rcd13ifvqfk0","pricing_plan_id":"cebpf4jnsgd1na2vs0mg"},{"bike_id":"558d7a83-fc5d-42ed-9050-5b2a22741628","system_id":"levelo_inurba_marseille","lat":43.2511,"lon":5.40319,"is_reserved":false,"is_disabled":false,"rental_uris":{"android":"levelo://app?vid=558d7a83-fc5d-42ed-9050-5b2a22741628","ios":"levelo://app?vid=558d7a83-fc5d-42ed-9050-5b2a22741628"},"vehicle_type_id":"4","last_reported":1750227363,"current_range_meters":14400,"station_id":"ce4bhlh2rcd13ifvqgig","pricing_plan_id":"cebpf4jnsgd1na2vs0mg"},{"bike_id":"ffbbc05c-06b4-42ed-be79-58a3a200386f","system_id":"levelo_inurba_marseille","lat":43.23153,"lon":5.43724,"is_reserved":false,"is_disabled":false,"rental_uris":{"android":"levelo://app?vid=ffbbc05c-06b4-42ed-be79-58a3a200386f","ios":"levelo://app?vid=ffbbc05c-06b4-42ed-be79-58a3a200386f"},"vehicle_type_id":"4","last_reported":1750227363,"current_range_meters":14400,"station_id":"ce4bhmp2rcd13ifvqgog","pricing_plan_id":"cebpf4jnsgd1na2vs0mg"},{"bike_id":"cc8086c3-023b-4662-b7ba-91199240f1a1","system_id":"levelo_inurba_marseille","lat":43.2305,"lon":5.35488,"is_reserved":false,"is_disabled":false,"rental_uris":{"android":"levelo://app?vid=cc8086c3-023b-4662-b7ba-91199240f1a1","ios":"levelo://app?vid=cc8086c3-023b-4662-b7ba-91199240f1a1"},"vehicle_type_id":"4","last_reported":1750227363,"current_range_meters":14400,"station_id":"cpo3342slgdg3j2ifvpg","pricing_plan_id":"cebpf4jnsgd1na2vs0mg"},{"bike_id":"748b40b5-8f1c-4711-bade-847aefdb040d","system_id":"levelo_inurba_marseille","lat":43.31708,"lon":5.37394,"is_reserved":false,"is_disabled":false,"rental_uris":{"android":"levelo://app?vid=748b40b5-8f1c-4711-bade-847aefdb040d","ios":"levelo://app?vid=748b40b5-8f1c-4711-bade-847aefdb040d"},"vehicle_type_id":"4","last_reported":1750227363,"current_range_meters":14800,"station_id":"","pricing_plan_id":"cebpf4jnsgd1na2vs0mg"},{"bike_id":"4b8da722-ee9e-48a4-a5e5-3a8a10364708","system_id":"levelo_inurba_marseille","lat":43.31228,"lon":5.37824,"is_reserved":false,"is_disabled":false,"rental_uris":{"android":"levelo://app?vid=4b8da722-ee9e-48a4-a5e5-3a8a10364708","ios":"levelo://app?vid=4b8da722-ee9e-48a4-a5e5-3a8a10364708"},"vehicle_type_id":"4","last_reported":1750227363,"current_range_meters":14800,"station_id":"","pricing_plan_id":"cebpf4jnsgd1na2vs0mg"},{"bike_id":"0dedb6f6-6801-483b-bfb8-9cd4533d158f","system_id":"levelo_inurba_marseille","lat":43.31138,"lon":5.38089,"is_reserved":false,"is_disabled":false,"rental_uris":{"android":"levelo://app?vid=0dedb6f6-6801-483b-bfb8-9cd4533d158f","ios":"levelo://app?vid=0dedb6f6-6801-483b-bfb8-9cd4533d158f"},"vehicle_type_id":"4","last_reported":1750227363,"current_range_meters":14800,"station_id":"","pricing_plan_id":"cebpf4jnsgd1na2vs0mg"},{"bike_id":"c6495b46-1d84-4c21-8466-416c87420a9a","system_id":"levelo_inurba_marseille","lat":43.31351,"lon":5.38507,"is_reserved":false,"is_disabled":false,"rental_uris":{"android":"levelo://app?vid=c6495b46-1d84-4c21-8466-416c87420a9a","ios":"levelo://app?vid=c6495b46-1d84-4c21-8466-416c87420a9a"},"vehicle_type_id":"4","last_reported":1750227363,"current_range_meters":14800,"station_id":"ce4bgt92rcd13ifvqcf0","pricing_plan_id":"cebpf4jnsgd1na2vs0mg"},{"bike_id":"9e6b6795-72a7-4c2f-ae9a-06b58fcd1632","system_id":"levelo_inurba_marseille","lat":43.25932,"lon":5.4091,"is_reserved":false,"is_disabled":false,"rental_uris":{"android":"levelo://app?vid=9e6b6795-72a7-4c2f-ae9a-06b58fcd1632","ios":"levelo://app?vid=9e6b6795-72a7-4c2f-ae9a-06b58fcd1632"},"vehicle_type_id":"4","last_reported":1750227363,"current_range_meters":15200,"station_id":"ce4bhm92rcd13ifvqglg","pricing_plan_id":"cebpf4jnsgd1na2vs0mg"},{"bike_id":"4cda9327-46c6-426e-87dd-c291d5dc5ff7","system_id":"levelo_inurba_marseille","lat":43.211931,"lon":5.350723,"is_reserved":false,"is_disabled":false,"rental_uris":{"android":"levelo://app?vid=4cda9327-46c6-426e-87dd-c291d5dc5ff7","ios":"levelo://app?vid=4cda9327-46c6-426e-87dd-c291d5dc5ff7"},"vehicle_type_id":"4","last_reported":1750227363,"current_range_meters":15200,"station_id":"st_cvj6sg6p6f1abm77japg","pricing_plan_id":"cebpf4jnsgd1na2vs0mg"},{"bike_id":"653a05d9-205d-420f-b0c9-a638667f0917","system_id":"levelo_inurba_marseille","lat":43.21197,"lon":5.35067,"is_reserved":false,"is_disabled":false,"rental_uris":{"android":"levelo://app?vid=653a05d9-205d-420f-b0c9-a638667f0917","ios":"levelo://app?vid=653a05d9-205d-420f-b0c9-a638667f0917"},"vehicle_type_id":"4","last_reported":1750227363,"current_range_meters":15200,"station_id":"st_cvj6sg6p6f1abm77japg","pricing_plan_id":"cebpf4jnsgd1na2vs0mg"},{"bike_id":"6bbbc1ec-81ca-4516-a79f-791d22619392","system_id":"levelo_inurba_marseille","lat":43.31482,"lon":5.37306,"is_reserved":false,"is_disabled":false,"rental_uris":{"android":"levelo://app?vid=6bbbc1ec-81ca-4516-a79f-791d22619392","ios":"levelo://app?vid=6bbbc1ec-81ca-4516-a79f-791d22619392"},"vehicle_type_id":"4","last_reported":1750227363,"current_range_meters":16000,"station_id":"ce4bgt12rcd13ifvqcd0","pricing_plan_id":"cebpf4jnsgd1na2vs0mg"},{"bike_id":"0900c388-0222-4d10-ac60-39a1938a2ed6","system_id":"levelo_inurba_marseille","lat":43.293485,"lon":5.393296,"is_reserved":false,"is_disabled":false,"rental_uris":{"android":"levelo://app?vid=0900c388-0222-4d10-ac60-39a1938a2ed6","ios":"levelo://app?vid=0900c388-0222-4d10-ac60-39a1938a2ed6"},"vehicle_type_id":"4","last_reported":1750227363,"current_range_meters":16000,"station_id":"ce4bh292rcd13ifvqdf0","pricing_plan_id":"cebpf4jnsgd1na2vs0mg"},{"bike_id":"1e3b7fbb-83bd-417f-a36f-f0d184150527","system_id":"levelo_inurba_marseille","lat":43.290331,"lon":5.399867,"is_reserved":false,"is_disabled":false,"rental_uris":{"android":"levelo://app?vid=1e3b7fbb-83bd-417f-a36f-f0d184150527","ios":"levelo://app?vid=1e3b7fbb-83bd-417f-a36f-f0d184150527"},"vehicle_type_id":"4","last_reported":1750227363,"current_range_meters":16000,"station_id":"ce4bh392rcd13ifvqdm0","pricing_plan_id":"cebpf4jnsgd1na2vs0mg"},{"bike_id":"5cbdd979-131e-4b0a-a5c9-96ef156802c9","system_id":"levelo_inurba_marseille","lat":43.28424,"lon":5.39223,"is_reserved":false,"is_disabled":false,"rental_uris":{"android":"levelo://app?vid=5cbdd979-131e-4b0a-a5c9-96ef156802c9","ios":"levelo://app?vid=5cbdd979-131e-4b0a-a5c9-96ef156802c9"},"vehicle_type_id":"4","last_reported":1750227363,"current_range_meters":16000,"station_id":"ce4bhoh2rcd13ifvqh5g","pricing_plan_id":"cebpf4jnsgd1na2vs0mg"},{"bike_id":"268aafb4-1331-426c-97bc-a7d6564caeb6","system_id":"levelo_inurba_marseille","lat":43.329358,"lon":5.379196,"is_reserved":false,"is_disabled":false,"rental_uris":{"android":"levelo://app?vid=268aafb4-1331-426c-97bc-a7d6564caeb6","ios":"levelo://app?vid=268aafb4-1331-426c-97bc-a7d6564caeb6"},"vehicle_type_id":"4","last_reported":1750227363,"current_range_meters":16400,"station_id":"","pricing_plan_id":"cebpf4jnsgd1na2vs0mg"},{"bike_id":"e92bd4cd-e5c6-40c9-80e9-52bc96a037f0","system_id":"levelo_inurba_marseille","lat":43.25478,"lon":5.41749,"is_reserved":false,"is_disabled":false,"rental_uris":{"android":"levelo://app?vid=e92bd4cd-e5c6-40c9-80e9-52bc96a037f0","ios":"levelo://app?vid=e92bd4cd-e5c6-40c9-80e9-52bc96a037f0"},"vehicle_type_id":"4","last_reported":1750227363,"current_range_meters":16400,"station_id":"","pricing_plan_id":"cebpf4jnsgd1na2vs0mg"},{"bike_id":"121636e2-45ef-4834-9d8a-46bf1417cdd6","system_id":"levelo_inurba_marseille","lat":43.31358,"lon":5.36695,"is_reserved":false,"is_disabled":false,"rental_uris":{"android":"levelo://app?vid=121636e2-45ef-4834-9d8a-46bf1417cdd6","ios":"levelo://app?vid=121636e2-45ef-4834-9d8a-46bf1417cdd6"},"vehicle_type_id":"4","last_reported":1750227363,"current_range_meters":16400,"station_id":"ce4bgr92rcd13ifvqc6g","pricing_plan_id":"cebpf4jnsgd1na2vs0mg"},{"bike_id":"3151b431-ae3a-411c-8189-09c45ab38d79","system_id":"levelo_inurba_marseille","lat":43.308656,"lon":5.371888,"is_reserved":false,"is_disabled":false,"rental_uris":{"android":"levelo://app?vid=3151b431-ae3a-411c-8189-09c45ab38d79","ios":"levelo://app?vid=3151b431-ae3a-411c-8189-09c45ab38d79"},"vehicle_type_id":"4","last_reported":1750227363,"current_range_meters":16400,"station_id":"ce4bguh2rcd13ifvqckg","pricing_plan_id":"cebpf4jnsgd1na2vs0mg"},{"bike_id":"3a79c9a9-99b3-4d00-8dcc-f494ffeec57e","system_id":"levelo_inurba_marseille","lat":43.31068,"lon":5.40086,"is_reserved":false,"is_disabled":false,"rental_uris":{"android":"levelo://app?vid=3a79c9a9-99b3-4d00-8dcc-f494ffeec57e","ios":"levelo://app?vid=3a79c9a9-99b3-4d00-8dcc-f494ffeec57e"},"vehicle_type_id":"4","last_reported":1750227363,"current_range_meters":16800,"station_id":"","pricing_plan_id":"cebpf4jnsgd1na2vs0mg"},{"bike_id":"f025e0b0-8595-426c-b214-cb9b74c5fcfd","system_id":"levelo_inurba_marseille","lat":43.32201,"lon":5.40583,"is_reserved":false,"is_disabled":false,"rental_uris":{"android":"levelo://app?vid=f025e0b0-8595-426c-b214-cb9b74c5fcfd","ios":"levelo://app?vid=f025e0b0-8595-426c-b214-cb9b74c5fcfd"},"vehicle_type_id":"4","last_reported":1750227363,"current_range_meters":16800,"station_id":"","pricing_plan_id":"cebpf4jnsgd1na2vs0mg"},{"bike_id":"0a626b14-60bb-483a-bfd0-0861ef24b5ad","system_id":"levelo_inurba_marseille","lat":43.3047,"lon":5.37902,"is_reserved":false,"is_disabled":false,"rental_uris":{"android":"levelo://app?vid=0a626b14-60bb-483a-bfd0-0861ef24b5ad","ios":"levelo://app?vid=0a626b14-60bb-483a-bfd0-0861ef24b5ad"},"vehicle_type_id":"4","last_reported":1750227363,"current_range_meters":16800,"station_id":"ce4bgup2rcd13ifvqcn0","pricing_plan_id":"cebpf4jnsgd1na2vs0mg"},{"bike_id":"482a41e4-58e4-46ef-bcd0-9dd52311d200","system_id":"levelo_inurba_marseille","lat":43.28933,"lon":5.35937,"is_reserved":false,"is_disabled":false,"rental_uris":{"android":"levelo://app?vid=482a41e4-58e4-46ef-bcd0-9dd52311d200","ios":"levelo://app?vid=482a41e4-58e4-46ef-bcd0-9dd52311d200"},"vehicle_type_id":"4","last_reported":1750227363,"current_range_meters":16800,"station_id":"ce4bha92rcd13ifvqeg0","pricing_plan_id":"cebpf4jnsgd1na2vs0mg"},{"bike_id":"7aeb9e5d-46cc-4fb2-89b7-7f55fa98e63b","system_id":"levelo_inurba_marseille","lat":43.263377,"lon":5.377266,"is_reserved":false,"is_disabled":false,"rental_uris":{"android":"levelo://app?vid=7aeb9e5d-46cc-4fb2-89b7-7f55fa98e63b","ios":"levelo://app?vid=7aeb9e5d-46cc-4fb2-89b7-7f55fa98e63b"},"vehicle_type_id":"4","last_reported":1750227363,"current_range_meters":16800,"station_id":"ce4bhg92rcd13ifvqf90","pricing_plan_id":"cebpf4jnsgd1na2vs0mg"},{"bike_id":"e921cee3-b8ce-4c00-b7eb-8ab335b5e125","system_id":"levelo_inurba_marseille","lat":43.30194,"lon":5.42268,"is_reserved":false,"is_disabled":false,"rental_uris":{"android":"levelo://app?vid=e921cee3-b8ce-4c00-b7eb-8ab335b5e125","ios":"levelo://app?vid=e921cee3-b8ce-4c00-b7eb-8ab335b5e125"},"vehicle_type_id":"4","last_reported":1750227363,"current_range_meters":17200,"station_id":"","pricing_plan_id":"cebpf4jnsgd1na2vs0mg"},{"bike_id":"65fe0c2e-fcc6-45c4-a172-8e2e81da84f7","system_id":"levelo_inurba_marseille","lat":43.33152,"lon":5.38162,"is_reserved":false,"is_disabled":false,"rental_uris":{"android":"levelo://app?vid=65fe0c2e-fcc6-45c4-a172-8e2e81da84f7","ios":"levelo://app?vid=65fe0c2e-fcc6-45c4-a172-8e2e81da84f7"},"vehicle_type_id":"4","last_reported":1750227363,"current_range_meters":17200,"station_id":"","pricing_plan_id":"cebpf4jnsgd1na2vs0mg"},{"bike_id":"b389aa1c-cc22-4ef3-9a99-8ed0d0dc75a9","system_id":"levelo_inurba_marseille","lat":43.29253,"lon":5.40911,"is_reserved":false,"is_disabled":false,"rental_uris":{"android":"levelo://app?vid=b389aa1c-cc22-4ef3-9a99-8ed0d0dc75a9","ios":"levelo://app?vid=b389aa1c-cc22-4ef3-9a99-8ed0d0dc75a9"},"vehicle_type_id":"4","last_reported":1750227363,"current_range_meters":17200,"station_id":"ce4bh192rcd13ifvqdc0","pricing_plan_id":"cebpf4jnsgd1na2vs0mg"},{"bike_id":"a3a65e20-72e8-4350-95e4-10108de6fbdb","system_id":"levelo_inurba_marseille","lat":43.251078,"lon":5.403286,"is_reserved":false,"is_disabled":false,"rental_uris":{"android":"levelo://app?vid=a3a65e20-72e8-4350-95e4-10108de6fbdb","ios":"levelo://app?vid=a3a65e20-72e8-4350-95e4-10108de6fbdb"},"vehicle_type_id":"4","last_reported":1750227363,"current_range_meters":17200,"station_id":"ce4bhlh2rcd13ifvqgig","pricing_plan_id":"cebpf4jnsgd1na2vs0mg"},{"bike_id":"54b366af-01c9-4f16-997f-31c66bc03949","system_id":"levelo_inurba_marseille","lat":43.32108,"lon":5.36763,"is_reserved":false,"is_disabled":false,"rental_uris":{"android":"levelo://app?vid=54b366af-01c9-4f16-997f-31c66bc03949","ios":"levelo://app?vid=54b366af-01c9-4f16-997f-31c66bc03949"},"vehicle_type_id":"4","last_reported":1750227363,"current_range_meters":17200,"station_id":"ce4bhrh2rcd13ifvqhug","pricing_plan_id":"cebpf4jnsgd1na2vs0mg"},{"bike_id":"ae2fdae3-50bf-4bd1-ba6e-560530838045","system_id":"levelo_inurba_marseille","lat":43.2632,"lon":5.37394,"is_reserved":false,"is_disabled":false,"rental_uris":{"android":"levelo://app?vid=ae2fdae3-50bf-4bd1-ba6e-560530838045","ios":"levelo://app?vid=ae2fdae3-50bf-4bd1-ba6e-560530838045"},"vehicle_type_id":"4","last_reported":1750227363,"current_range_meters":17600,"station_id":"","pricing_plan_id":"cebpf4jnsgd1na2vs0mg"},{"bike_id":"14ecdf28-731b-41df-ae71-8c0ab10e6a9a","system_id":"levelo_inurba_marseille","lat":43.30158,"lon":5.38084,"is_reserved":false,"is_disabled":false,"rental_uris":{"android":"levelo://app?vid=14ecdf28-731b-41df-ae71-8c0ab10e6a9a","ios":"levelo://app?vid=14ecdf28-731b-41df-ae71-8c0ab10e6a9a"},"vehicle_type_id":"4","last_reported":1750227363,"current_range_meters":17600,"station_id":"ce4bgjp2rcd13ifvqbh0","pricing_plan_id":"cebpf4jnsgd1na2vs0mg"},{"bike_id":"d942e04e-056a-4489-9610-c7a057a2f8d1","system_id":"levelo_inurba_marseille","lat":43.29284,"lon":5.40166,"is_reserved":false,"is_disabled":false,"rental_uris":{"android":"levelo://app?vid=d942e04e-056a-4489-9610-c7a057a2f8d1","ios":"levelo://app?vid=d942e04e-056a-4489-9610-c7a057a2f8d1"},"vehicle_type_id":"4","last_reported":1750227363,"current_range_meters":17600,"station_id":"ce4bh312rcd13ifvqdk0","pricing_plan_id":"cebpf4jnsgd1na2vs0mg"},{"bike_id":"c90742a0-78b5-4007-b0fd-1a51760b6f2a","system_id":"levelo_inurba_marseille","lat":43.28417,"lon":5.37521,"is_reserved":false,"is_disabled":false,"rental_uris":{"android":"levelo://app?vid=c90742a0-78b5-4007-b0fd-1a51760b6f2a","ios":"levelo://app?vid=c90742a0-78b5-4007-b0fd-1a51760b6f2a"},"vehicle_type_id":"4","last_reported":1750227363,"current_range_meters":17600,"station_id":"ce4bh412rcd13ifvqds0","pricing_plan_id":"cebpf4jnsgd1na2vs0mg"},{"bike_id":"e66146e1-ce73-4786-959b-0b2df533f56d","system_id":"levelo_inurba_marseille","lat":43.25114,"lon":5.40322,"is_reserved":false,"is_disabled":false,"rental_uris":{"android":"levelo://app?vid=e66146e1-ce73-4786-959b-0b2df533f56d","ios":"levelo://app?vid=e66146e1-ce73-4786-959b-0b2df533f56d"},"vehicle_type_id":"4","last_reported":1750227363,"current_range_meters":17600,"station_id":"ce4bhlh2rcd13ifvqgig","pricing_plan_id":"cebpf4jnsgd1na2vs0mg"},{"bike_id":"9da77c8c-d56c-4e5e-b7ba-081a6d8e6bda","system_id":"levelo_inurba_marseille","lat":43.27497,"lon":5.42458,"is_reserved":false,"is_disabled":false,"rental_uris":{"android":"levelo://app?vid=9da77c8c-d56c-4e5e-b7ba-081a6d8e6bda","ios":"levelo://app?vid=9da77c8c-d56c-4e5e-b7ba-081a6d8e6bda"},"vehicle_type_id":"4","last_reported":1750227363,"current_range_meters":17600,"station_id":"ce4bhn92rcd13ifvqgrg","pricing_plan_id":"cebpf4jnsgd1na2vs0mg"},{"bike_id":"2d059e04-6ea7-4929-8c98-ee846d8a472a","system_id":"levelo_inurba_marseille","lat":43.287,"lon":5.39986,"is_reserved":false,"is_disabled":false,"rental_uris":{"android":"levelo://app?vid=2d059e04-6ea7-4929-8c98-ee846d8a472a","ios":"levelo://app?vid=2d059e04-6ea7-4929-8c98-ee846d8a472a"},"vehicle_type_id":"4","last_reported":1750227363,"current_range_meters":17600,"station_id":"ce4bho92rcd13ifvqh3g","pricing_plan_id":"cebpf4jnsgd1na2vs0mg"},{"bike_id":"3fb32369-1f25-46d2-9052-c30b5af8c776","system_id":"levelo_inurba_marseille","lat":43.22912,"lon":5.35399,"is_reserved":false,"is_disabled":false,"rental_uris":{"android":"levelo://app?vid=3fb32369-1f25-46d2-9052-c30b5af8c776","ios":"levelo://app?vid=3fb32369-1f25-46d2-9052-c30b5af8c776"},"vehicle_type_id":"4","last_reported":1750227363,"current_range_meters":17600,"station_id":"cpo3532slgdg3j2ikp40","pricing_plan_id":"cebpf4jnsgd1na2vs0mg"},{"bike_id":"a85b2000-e3ea-4c9d-8512-f632fbae13d6","system_id":"levelo_inurba_marseille","lat":43.301568,"lon":5.401016,"is_reserved":false,"is_disabled":false,"rental_uris":{"android":"levelo://app?vid=a85b2000-e3ea-4c9d-8512-f632fbae13d6","ios":"levelo://app?vid=a85b2000-e3ea-4c9d-8512-f632fbae13d6"},"vehicle_type_id":"4","last_reported":1750227363,"current_range_meters":18000,"station_id":"","pricing_plan_id":"cebpf4jnsgd1na2vs0mg"},{"bike_id":"60b79169-9150-4afc-8c0f-16c8531a8015","system_id":"levelo_inurba_marseille","lat":43.27369,"lon":5.43194,"is_reserved":false,"is_disabled":false,"rental_uris":{"android":"levelo://app?vid=60b79169-9150-4afc-8c0f-16c8531a8015","ios":"levelo://app?vid=60b79169-9150-4afc-8c0f-16c8531a8015"},"vehicle_type_id":"4","last_reported":1750227363,"current_range_meters":18000,"station_id":"","pricing_plan_id":"cebpf4jnsgd1na2vs0mg"},{"bike_id":"cfef7392-1433-476b-a989-3fb180315ec3","system_id":"levelo_inurba_marseille","lat":43.2417,"lon":5.39731,"is_reserved":false,"is_disabled":false,"rental_uris":{"android":"levelo://app?vid=cfef7392-1433-476b-a989-3fb180315ec3","ios":"levelo://app?vid=cfef7392-1433-476b-a989-3fb180315ec3"},"vehicle_type_id":"4","last_reported":1750227363,"current_range_meters":18000,"station_id":"ce4bhn12rcd13ifvqgpg","pricing_plan_id":"cebpf4jnsgd1na2vs0mg"},{"bike_id":"67182dff-e855-49cd-80e3-2d4cc1bd98c0","system_id":"levelo_inurba_marseille","lat":43.28443,"lon":5.39216,"is_reserved":false,"is_disabled":false,"rental_uris":{"android":"levelo://app?vid=67182dff-e855-49cd-80e3-2d4cc1bd98c0","ios":"levelo://app?vid=67182dff-e855-49cd-80e3-2d4cc1bd98c0"},"vehicle_type_id":"4","last_reported":1750227363,"current_range_meters":18000,"station_id":"ce4bhoh2rcd13ifvqh5g","pricing_plan_id":"cebpf4jnsgd1na2vs0mg"},{"bike_id":"a7269e3f-e2c4-4028-b2ed-51436c8cf697","system_id":"levelo_inurba_marseille","lat":43.21191,"lon":5.35066,"is_reserved":false,"is_disabled":false,"rental_uris":{"android":"levelo://app?vid=a7269e3f-e2c4-4028-b2ed-51436c8cf697","ios":"levelo://app?vid=a7269e3f-e2c4-4028-b2ed-51436c8cf697"},"vehicle_type_id":"4","last_reported":1750227363,"current_range_meters":18000,"station_id":"st_cvj6sg6p6f1abm77japg","pricing_plan_id":"cebpf4jnsgd1na2vs0mg"},{"bike_id":"4b6b2a2b-d3c4-4663-8ea1-de4eff39b7b2","system_id":"levelo_inurba_marseille","lat":43.21185,"lon":5.35079,"is_reserved":false,"is_disabled":false,"rental_uris":{"android":"levelo://app?vid=4b6b2a2b-d3c4-4663-8ea1-de4eff39b7b2","ios":"levelo://app?vid=4b6b2a2b-d3c4-4663-8ea1-de4eff39b7b2"},"vehicle_type_id":"4","last_reported":1750227363,"current_range_meters":18000,"station_id":"st_cvj6sg6p6f1abm77japg","pricing_plan_id":"cebpf4jnsgd1na2vs0mg"},{"bike_id":"77ac8037-3c3c-493a-82c2-904a9ad6c7d0","system_id":"levelo_inurba_marseille","lat":43.26786,"lon":5.3908,"is_reserved":false,"is_disabled":false,"rental_uris":{"android":"levelo://app?vid=77ac8037-3c3c-493a-82c2-904a9ad6c7d0","ios":"levelo://app?vid=77ac8037-3c3c-493a-82c2-904a9ad6c7d0"},"vehicle_type_id":"4","last_reported":1750227363,"current_range_meters":18800,"station_id":"","pricing_plan_id":"cebpf4jnsgd1na2vs0mg"},{"bike_id":"a004d7f2-75e1-49e9-b073-ad13bcf23d1e","system_id":"levelo_inurba_marseille","lat":43.23217,"lon":5.35504,"is_reserved":false,"is_disabled":false,"rental_uris":{"android":"levelo://app?vid=a004d7f2-75e1-49e9-b073-ad13bcf23d1e","ios":"levelo://app?vid=a004d7f2-75e1-49e9-b073-ad13bcf23d1e"},"vehicle_type_id":"4","last_reported":1750227363,"current_range_meters":18800,"station_id":"","pricing_plan_id":"cebpf4jnsgd1na2vs0mg"},{"bike_id":"90f02351-79bf-4cfc-b138-15056ac4a231","system_id":"levelo_inurba_marseille","lat":43.2594,"lon":5.40902,"is_reserved":false,"is_disabled":false,"rental_uris":{"android":"levelo://app?vid=90f02351-79bf-4cfc-b138-15056ac4a231","ios":"levelo://app?vid=90f02351-79bf-4cfc-b138-15056ac4a231"},"vehicle_type_id":"4","last_reported":1750227363,"current_range_meters":18800,"station_id":"ce4bhm92rcd13ifvqglg","pricing_plan_id":"cebpf4jnsgd1na2vs0mg"},{"bike_id":"d7558e1a-9760-4e88-80c3-302c33f5512c","system_id":"levelo_inurba_marseille","lat":43.323665,"lon":5.388882,"is_reserved":false,"is_disabled":false,"rental_uris":{"android":"levelo://app?vid=d7558e1a-9760-4e88-80c3-302c33f5512c","ios":"levelo://app?vid=d7558e1a-9760-4e88-80c3-302c33f5512c"},"vehicle_type_id":"4","last_reported":1750227363,"current_range_meters":18800,"station_id":"ce4bhqp2rcd13ifvqhog","pricing_plan_id":"cebpf4jnsgd1na2vs0mg"},{"bike_id":"e5863b13-0bb4-41ee-a7a1-72091c1036b5","system_id":"levelo_inurba_marseille","lat":43.31595,"lon":5.38443,"is_reserved":false,"is_disabled":false,"rental_uris":{"android":"levelo://app?vid=e5863b13-0bb4-41ee-a7a1-72091c1036b5","ios":"levelo://app?vid=e5863b13-0bb4-41ee-a7a1-72091c1036b5"},"vehicle_type_id":"4","last_reported":1750227363,"current_range_meters":19200,"station_id":"","pricing_plan_id":"cebpf4jnsgd1na2vs0mg"},{"bike_id":"4f7a8fee-e338-4970-a4bb-64f44db806ce","system_id":"levelo_inurba_marseille","lat":43.33781,"lon":5.37446,"is_reserved":false,"is_disabled":false,"rental_uris":{"android":"levelo://app?vid=4f7a8fee-e338-4970-a4bb-64f44db806ce","ios":"levelo://app?vid=4f7a8fee-e338-4970-a4bb-64f44db806ce"},"vehicle_type_id":"4","last_reported":1750227363,"current_range_meters":19200,"station_id":"","pricing_plan_id":"cebpf4jnsgd1na2vs0mg"},{"bike_id":"41e664e8-2b52-4f44-9e5b-4ab7b5742456","system_id":"levelo_inurba_marseille","lat":43.29042,"lon":5.3996,"is_reserved":false,"is_disabled":false,"rental_uris":{"android":"levelo://app?vid=41e664e8-2b52-4f44-9e5b-4ab7b5742456","ios":"levelo://app?vid=41e664e8-2b52-4f44-9e5b-4ab7b5742456"},"vehicle_type_id":"4","last_reported":1750227363,"current_range_meters":19200,"station_id":"ce4bh392rcd13ifvqdm0","pricing_plan_id":"cebpf4jnsgd1na2vs0mg"},{"bike_id":"bcc573f7-4885-4e01-a82f-f27d067ecde3","system_id":"levelo_inurba_marseille","lat":43.2418,"lon":5.39725,"is_reserved":false,"is_disabled":false,"rental_uris":{"android":"levelo://app?vid=bcc573f7-4885-4e01-a82f-f27d067ecde3","ios":"levelo://app?vid=bcc573f7-4885-4e01-a82f-f27d067ecde3"},"vehicle_type_id":"4","last_reported":1750227363,"current_range_meters":19200,"station_id":"ce4bhn12rcd13ifvqgpg","pricing_plan_id":"cebpf4jnsgd1na2vs0mg"},{"bike_id":"4ce5b165-f22d-40cf-abd3-1cb294861955","system_id":"levelo_inurba_marseille","lat":43.21197,"lon":5.35066,"is_reserved":false,"is_disabled":false,"rental_uris":{"android":"levelo://app?vid=4ce5b165-f22d-40cf-abd3-1cb294861955","ios":"levelo://app?vid=4ce5b165-f22d-40cf-abd3-1cb294861955"},"vehicle_type_id":"4","last_reported":1750227363,"current_range_meters":19600,"station_id":"","pricing_plan_id":"cebpf4jnsgd1na2vs0mg"},{"bike_id":"7f74ca3f-0a89-4bfc-bb38-94dc9a7a4f3b","system_id":"levelo_inurba_marseille","lat":43.297,"lon":5.36607,"is_reserved":false,"is_disabled":false,"rental_uris":{"android":"levelo://app?vid=7f74ca3f-0a89-4bfc-bb38-94dc9a7a4f3b","ios":"levelo://app?vid=7f74ca3f-0a89-4bfc-bb38-94dc9a7a4f3b"},"vehicle_type_id":"4","last_reported":1750227363,"current_range_meters":19600,"station_id":"ce4bgn12rcd13ifvqbt0","pricing_plan_id":"cebpf4jnsgd1na2vs0mg"},{"bike_id":"d4709bef-30c7-47e1-acb0-b62d446b415c","system_id":"levelo_inurba_marseille","lat":43.29281,"lon":5.40168,"is_reserved":false,"is_disabled":false,"rental_uris":{"android":"levelo://app?vid=d4709bef-30c7-47e1-acb0-b62d446b415c","ios":"levelo://app?vid=d4709bef-30c7-47e1-acb0-b62d446b415c"},"vehicle_type_id":"4","last_reported":1750227363,"current_range_meters":19600,"station_id":"ce4bh312rcd13ifvqdk0","pricing_plan_id":"cebpf4jnsgd1na2vs0mg"},{"bike_id":"70ccf38c-f40f-449b-ae32-3edf990b03ac","system_id":"levelo_inurba_marseille","lat":43.27065,"lon":5.42274,"is_reserved":false,"is_disabled":false,"rental_uris":{"android":"levelo://app?vid=70ccf38c-f40f-449b-ae32-3edf990b03ac","ios":"levelo://app?vid=70ccf38c-f40f-449b-ae32-3edf990b03ac"},"vehicle_type_id":"4","last_reported":1750227363,"current_range_meters":19600,"station_id":"ce4bhk92rcd13ifvqgb0","pricing_plan_id":"cebpf4jnsgd1na2vs0mg"},{"bike_id":"ed1e71d0-886e-488e-9d2c-8f2cf5ae5d49","system_id":"levelo_inurba_marseille","lat":43.23151,"lon":5.43709,"is_reserved":false,"is_disabled":false,"rental_uris":{"android":"levelo://app?vid=ed1e71d0-886e-488e-9d2c-8f2cf5ae5d49","ios":"levelo://app?vid=ed1e71d0-886e-488e-9d2c-8f2cf5ae5d49"},"vehicle_type_id":"4","last_reported":1750227363,"current_range_meters":19600,"station_id":"ce4bhmp2rcd13ifvqgog","pricing_plan_id":"cebpf4jnsgd1na2vs0mg"},{"bike_id":"452de6f5-dcc4-40e6-91d1-27952aacbf43","system_id":"levelo_inurba_marseille","lat":43.231979,"lon":5.399816,"is_reserved":false,"is_disabled":false,"rental_uris":{"android":"levelo://app?vid=452de6f5-dcc4-40e6-91d1-27952aacbf43","ios":"levelo://app?vid=452de6f5-dcc4-40e6-91d1-27952aacbf43"},"vehicle_type_id":"4","last_reported":1750227363,"current_range_meters":19600,"station_id":"ce4bhn12rcd13ifvqgqg","pricing_plan_id":"cebpf4jnsgd1na2vs0mg"},{"bike_id":"97dbe3d4-f5f1-4df9-9c22-2c7c2edf12c9","system_id":"levelo_inurba_marseille","lat":43.32335,"lon":5.40632,"is_reserved":false,"is_disabled":false,"rental_uris":{"android":"levelo://app?vid=97dbe3d4-f5f1-4df9-9c22-2c7c2edf12c9","ios":"levelo://app?vid=97dbe3d4-f5f1-4df9-9c22-2c7c2edf12c9"},"vehicle_type_id":"4","last_reported":1750227363,"current_range_meters":19600,"station_id":"ce4bhq92rcd13ifvqhjg","pricing_plan_id":"cebpf4jnsgd1na2vs0mg"},{"bike_id":"0493471b-3b55-4aa7-a90f-c7a9eecad13e","system_id":"levelo_inurba_marseille","lat":43.323355,"lon":5.386218,"is_reserved":false,"is_disabled":false,"rental_uris":{"android":"levelo://app?vid=0493471b-3b55-4aa7-a90f-c7a9eecad13e","ios":"levelo://app?vid=0493471b-3b55-4aa7-a90f-c7a9eecad13e"},"vehicle_type_id":"4","last_reported":1750227363,"current_range_meters":19600,"station_id":"ce4bhqp2rcd13ifvqhog","pricing_plan_id":"cebpf4jnsgd1na2vs0mg"},{"bike_id":"27cd7138-8b58-4d27-b6bb-d957b614e63b","system_id":"levelo_inurba_marseille","lat":43.30158,"lon":5.3699,"is_reserved":false,"is_disabled":false,"rental_uris":{"android":"levelo://app?vid=27cd7138-8b58-4d27-b6bb-d957b614e63b","ios":"levelo://app?vid=27cd7138-8b58-4d27-b6bb-d957b614e63b"},"vehicle_type_id":"4","last_reported":1750227363,"current_range_meters":20000,"station_id":"","pricing_plan_id":"cebpf4jnsgd1na2vs0mg"},{"bike_id":"cae49fca-c786-41f0-ab8c-ca635009a5b9","system_id":"levelo_inurba_marseille","lat":43.30459,"lon":5.37908,"is_reserved":false,"is_disabled":false,"rental_uris":{"android":"levelo://app?vid=cae49fca-c786-41f0-ab8c-ca635009a5b9","ios":"levelo://app?vid=cae49fca-c786-41f0-ab8c-ca635009a5b9"},"vehicle_type_id":"4","last_reported":1750227363,"current_range_meters":20000,"station_id":"ce4bgup2rcd13ifvqcn0","pricing_plan_id":"cebpf4jnsgd1na2vs0mg"},{"bike_id":"5654a528-9f83-4e01-8cee-bed7de331b3f","system_id":"levelo_inurba_marseille","lat":43.30941,"lon":5.39027,"is_reserved":false,"is_disabled":false,"rental_uris":{"android":"levelo://app?vid=5654a528-9f83-4e01-8cee-bed7de331b3f","ios":"levelo://app?vid=5654a528-9f83-4e01-8cee-bed7de331b3f"},"vehicle_type_id":"4","last_reported":1750227363,"current_range_meters":20000,"station_id":"ce4bgup2rcd13ifvqco0","pricing_plan_id":"cebpf4jnsgd1na2vs0mg"},{"bike_id":"9b13de76-db21-4dd6-82e6-8951a23adaa0","system_id":"levelo_inurba_marseille","lat":43.30278,"lon":5.37702,"is_reserved":false,"is_disabled":false,"rental_uris":{"android":"levelo://app?vid=9b13de76-db21-4dd6-82e6-8951a23adaa0","ios":"levelo://app?vid=9b13de76-db21-4dd6-82e6-8951a23adaa0"},"vehicle_type_id":"4","last_reported":1750227363,"current_range_meters":20400,"station_id":"ce4bguh2rcd13ifvqcj0","pricing_plan_id":"cebpf4jnsgd1na2vs0mg"},{"bike_id":"898c02d9-4712-4d11-b3ca-9cecfa4b3b95","system_id":"levelo_inurba_marseille","lat":43.28353,"lon":5.38112,"is_reserved":false,"is_disabled":false,"rental_uris":{"android":"levelo://app?vid=898c02d9-4712-4d11-b3ca-9cecfa4b3b95","ios":"levelo://app?vid=898c02d9-4712-4d11-b3ca-9cecfa4b3b95"},"vehicle_type_id":"4","last_reported":1750227363,"current_range_meters":20400,"station_id":"ce4bh412rcd13ifvqdr0","pricing_plan_id":"cebpf4jnsgd1na2vs0mg"},{"bike_id":"735ef92b-937c-4039-8c37-b7ba86df889b","system_id":"levelo_inurba_marseille","lat":43.3027,"lon":5.377,"is_reserved":false,"is_disabled":false,"rental_uris":{"android":"levelo://app?vid=735ef92b-937c-4039-8c37-b7ba86df889b","ios":"levelo://app?vid=735ef92b-937c-4039-8c37-b7ba86df889b"},"vehicle_type_id":"4","last_reported":1750227363,"current_range_meters":20800,"station_id":"ce4bguh2rcd13ifvqcj0","pricing_plan_id":"cebpf4jnsgd1na2vs0mg"},{"bike_id":"ceefc7fe-5f5a-451d-b70d-48297101826d","system_id":"levelo_inurba_marseille","lat":43.3107,"lon":5.38353,"is_reserved":false,"is_disabled":false,"rental_uris":{"android":"levelo://app?vid=ceefc7fe-5f5a-451d-b70d-48297101826d","ios":"levelo://app?vid=ceefc7fe-5f5a-451d-b70d-48297101826d"},"vehicle_type_id":"4","last_reported":1750227363,"current_range_meters":20800,"station_id":"ce4bgv92rcd13ifvqcr0","pricing_plan_id":"cebpf4jnsgd1na2vs0mg"},{"bike_id":"29ba1be3-6d27-4571-8192-334ea1ef8882","system_id":"levelo_inurba_marseille","lat":43.25931,"lon":5.40913,"is_reserved":false,"is_disabled":false,"rental_uris":{"android":"levelo://app?vid=29ba1be3-6d27-4571-8192-334ea1ef8882","ios":"levelo://app?vid=29ba1be3-6d27-4571-8192-334ea1ef8882"},"vehicle_type_id":"4","last_reported":1750227363,"current_range_meters":20800,"station_id":"ce4bhm92rcd13ifvqglg","pricing_plan_id":"cebpf4jnsgd1na2vs0mg"},{"bike_id":"9d050037-4610-4b9c-a77a-2a0945aaa1c6","system_id":"levelo_inurba_marseille","lat":43.321194,"lon":5.367881,"is_reserved":false,"is_disabled":false,"rental_uris":{"android":"levelo://app?vid=9d050037-4610-4b9c-a77a-2a0945aaa1c6","ios":"levelo://app?vid=9d050037-4610-4b9c-a77a-2a0945aaa1c6"},"vehicle_type_id":"4","last_reported":1750227363,"current_range_meters":20800,"station_id":"ce4bhrh2rcd13ifvqhug","pricing_plan_id":"cebpf4jnsgd1na2vs0mg"},{"bike_id":"d2fb683f-3f50-4165-8ca3-d65186693c3f","system_id":"levelo_inurba_marseille","lat":43.309273,"lon":5.401658,"is_reserved":false,"is_disabled":false,"rental_uris":{"android":"levelo://app?vid=d2fb683f-3f50-4165-8ca3-d65186693c3f","ios":"levelo://app?vid=d2fb683f-3f50-4165-8ca3-d65186693c3f"},"vehicle_type_id":"4","last_reported":1750227363,"current_range_meters":21600,"station_id":"ce4bgvp2rcd13ifvqct0","pricing_plan_id":"cebpf4jnsgd1na2vs0mg"},{"bike_id":"565dbc53-6d68-4e20-b2b0-1c896bcfeea4","system_id":"levelo_inurba_marseille","lat":43.290322,"lon":5.399607,"is_reserved":false,"is_disabled":false,"rental_uris":{"android":"levelo://app?vid=565dbc53-6d68-4e20-b2b0-1c896bcfeea4","ios":"levelo://app?vid=565dbc53-6d68-4e20-b2b0-1c896bcfeea4"},"vehicle_type_id":"4","last_reported":1750227363,"current_range_meters":21600,"station_id":"ce4bh392rcd13ifvqdm0","pricing_plan_id":"cebpf4jnsgd1na2vs0mg"},{"bike_id":"59188434-994c-4bf2-acca-708816e51a75","system_id":"levelo_inurba_marseille","lat":43.28361,"lon":5.38635,"is_reserved":false,"is_disabled":false,"rental_uris":{"android":"levelo://app?vid=59188434-994c-4bf2-acca-708816e51a75","ios":"levelo://app?vid=59188434-994c-4bf2-acca-708816e51a75"},"vehicle_type_id":"4","last_reported":1750227363,"current_range_meters":21600,"station_id":"ce4bh492rcd13ifvqdvg","pricing_plan_id":"cebpf4jnsgd1na2vs0mg"},{"bike_id":"aef0b2f4-3b5f-4a5a-b54e-ca806dabb230","system_id":"levelo_inurba_marseille","lat":43.25119,"lon":5.40318,"is_reserved":false,"is_disabled":false,"rental_uris":{"android":"levelo://app?vid=aef0b2f4-3b5f-4a5a-b54e-ca806dabb230","ios":"levelo://app?vid=aef0b2f4-3b5f-4a5a-b54e-ca806dabb230"},"vehicle_type_id":"4","last_reported":1750227363,"current_range_meters":21600,"station_id":"ce4bhlh2rcd13ifvqgig","pricing_plan_id":"cebpf4jnsgd1na2vs0mg"},{"bike_id":"71fdbca1-4e6b-468e-8ceb-97a0f8f99f77","system_id":"levelo_inurba_marseille","lat":43.24179,"lon":5.39724,"is_reserved":false,"is_disabled":false,"rental_uris":{"android":"levelo://app?vid=71fdbca1-4e6b-468e-8ceb-97a0f8f99f77","ios":"levelo://app?vid=71fdbca1-4e6b-468e-8ceb-97a0f8f99f77"},"vehicle_type_id":"4","last_reported":1750227363,"current_range_meters":21600,"station_id":"ce4bhn12rcd13ifvqgpg","pricing_plan_id":"cebpf4jnsgd1na2vs0mg"},{"bike_id":"8831a95a-bbe1-434e-a5e9-38ac3bfa20d1","system_id":"levelo_inurba_marseille","lat":43.28433,"lon":5.39197,"is_reserved":false,"is_disabled":false,"rental_uris":{"android":"levelo://app?vid=8831a95a-bbe1-434e-a5e9-38ac3bfa20d1","ios":"levelo://app?vid=8831a95a-bbe1-434e-a5e9-38ac3bfa20d1"},"vehicle_type_id":"4","last_reported":1750227363,"current_range_meters":21600,"station_id":"ce4bhoh2rcd13ifvqh5g","pricing_plan_id":"cebpf4jnsgd1na2vs0mg"},{"bike_id":"b4a13b75-402d-41c6-aca7-326fd5447b84","system_id":"levelo_inurba_marseille","lat":43.303776,"lon":5.424841,"is_reserved":false,"is_disabled":false,"rental_uris":{"android":"levelo://app?vid=b4a13b75-402d-41c6-aca7-326fd5447b84","ios":"levelo://app?vid=b4a13b75-402d-41c6-aca7-326fd5447b84"},"vehicle_type_id":"4","last_reported":1750227363,"current_range_meters":21600,"station_id":"ce4bhoh2rcd13ifvqh6g","pricing_plan_id":"cebpf4jnsgd1na2vs0mg"},{"bike_id":"1172d0c6-3d83-4964-bdb8-886f7e72e4a8","system_id":"levelo_inurba_marseille","lat":43.27497,"lon":5.42449,"is_reserved":false,"is_disabled":false,"rental_uris":{"android":"levelo://app?vid=1172d0c6-3d83-4964-bdb8-886f7e72e4a8","ios":"levelo://app?vid=1172d0c6-3d83-4964-bdb8-886f7e72e4a8"},"vehicle_type_id":"4","last_reported":1750227363,"current_range_meters":22000,"station_id":"ce4bhn92rcd13ifvqgrg","pricing_plan_id":"cebpf4jnsgd1na2vs0mg"},{"bike_id":"1e716788-94d4-49f9-8262-a5fe985683ab","system_id":"levelo_inurba_marseille","lat":43.299001,"lon":5.436613,"is_reserved":false,"is_disabled":false,"rental_uris":{"android":"levelo://app?vid=1e716788-94d4-49f9-8262-a5fe985683ab","ios":"levelo://app?vid=1e716788-94d4-49f9-8262-a5fe985683ab"},"vehicle_type_id":"4","last_reported":1750227363,"current_range_meters":22000,"station_id":"ce4bhpp2rcd13ifvqhfg","pricing_plan_id":"cebpf4jnsgd1na2vs0mg"},{"bike_id":"46b2785a-6550-40ad-8c08-d060facecf77","system_id":"levelo_inurba_marseille","lat":43.30948,"lon":5.39055,"is_reserved":false,"is_disabled":false,"rental_uris":{"android":"levelo://app?vid=46b2785a-6550-40ad-8c08-d060facecf77","ios":"levelo://app?vid=46b2785a-6550-40ad-8c08-d060facecf77"},"vehicle_type_id":"4","last_reported":1750227363,"current_range_meters":22400,"station_id":"ce4bgup2rcd13ifvqco0","pricing_plan_id":"cebpf4jnsgd1na2vs0mg"},{"bike_id":"fbcc1ccc-ad35-4e86-8a9f-381675f2ce92","system_id":"levelo_inurba_marseille","lat":43.31071,"lon":5.38355,"is_reserved":false,"is_disabled":false,"rental_uris":{"android":"levelo://app?vid=fbcc1ccc-ad35-4e86-8a9f-381675f2ce92","ios":"levelo://app?vid=fbcc1ccc-ad35-4e86-8a9f-381675f2ce92"},"vehicle_type_id":"4","last_reported":1750227363,"current_range_meters":22400,"station_id":"ce4bgv92rcd13ifvqcr0","pricing_plan_id":"cebpf4jnsgd1na2vs0mg"},{"bike_id":"8cddc6c1-cff6-483a-9c40-d82a3ee72d1a","system_id":"levelo_inurba_marseille","lat":43.28606,"lon":5.35111,"is_reserved":false,"is_disabled":false,"rental_uris":{"android":"levelo://app?vid=8cddc6c1-cff6-483a-9c40-d82a3ee72d1a","ios":"levelo://app?vid=8cddc6c1-cff6-483a-9c40-d82a3ee72d1a"},"vehicle_type_id":"4","last_reported":1750227363,"current_range_meters":22400,"station_id":"ce4bhch2rcd13ifvqeug","pricing_plan_id":"cebpf4jnsgd1na2vs0mg"},{"bike_id":"adc09006-91bb-4b08-8ed7-233c32b711d8","system_id":"levelo_inurba_marseille","lat":43.25003,"lon":5.38939,"is_reserved":false,"is_disabled":false,"rental_uris":{"android":"levelo://app?vid=adc09006-91bb-4b08-8ed7-233c32b711d8","ios":"levelo://app?vid=adc09006-91bb-4b08-8ed7-233c32b711d8"},"vehicle_type_id":"4","last_reported":1750227363,"current_range_meters":22400,"station_id":"ce4bhgp2rcd13ifvqfd0","pricing_plan_id":"cebpf4jnsgd1na2vs0mg"},{"bike_id":"077011c3-7e96-4fcb-b639-bf9ea56983b2","system_id":"levelo_inurba_marseille","lat":43.25938,"lon":5.40905,"is_reserved":false,"is_disabled":false,"rental_uris":{"android":"levelo://app?vid=077011c3-7e96-4fcb-b639-bf9ea56983b2","ios":"levelo://app?vid=077011c3-7e96-4fcb-b639-bf9ea56983b2"},"vehicle_type_id":"4","last_reported":1750227363,"current_range_meters":22400,"station_id":"ce4bhm92rcd13ifvqglg","pricing_plan_id":"cebpf4jnsgd1na2vs0mg"},{"bike_id":"4534a140-5b73-4124-b6f7-7cec488da62c","system_id":"levelo_inurba_marseille","lat":43.30469,"lon":5.37913,"is_reserved":false,"is_disabled":false,"rental_uris":{"android":"levelo://app?vid=4534a140-5b73-4124-b6f7-7cec488da62c","ios":"levelo://app?vid=4534a140-5b73-4124-b6f7-7cec488da62c"},"vehicle_type_id":"4","last_reported":1750227363,"current_range_meters":22800,"station_id":"ce4bgup2rcd13ifvqcn0","pricing_plan_id":"cebpf4jnsgd1na2vs0mg"},{"bike_id":"53f7bf8a-2db8-4b59-b1cc-d9e4cac97f2c","system_id":"levelo_inurba_marseille","lat":43.30151,"lon":5.38096,"is_reserved":false,"is_disabled":false,"rental_uris":{"android":"levelo://app?vid=53f7bf8a-2db8-4b59-b1cc-d9e4cac97f2c","ios":"levelo://app?vid=53f7bf8a-2db8-4b59-b1cc-d9e4cac97f2c"},"vehicle_type_id":"4","last_reported":1750227363,"current_range_meters":23200,"station_id":"ce4bgjp2rcd13ifvqbh0","pricing_plan_id":"cebpf4jnsgd1na2vs0mg"},{"bike_id":"0629a1ca-3e44-4cca-9934-48ee24cb37a9","system_id":"levelo_inurba_marseille","lat":43.30458,"lon":5.37916,"is_reserved":false,"is_disabled":false,"rental_uris":{"android":"levelo://app?vid=0629a1ca-3e44-4cca-9934-48ee24cb37a9","ios":"levelo://app?vid=0629a1ca-3e44-4cca-9934-48ee24cb37a9"},"vehicle_type_id":"4","last_reported":1750227363,"current_range_meters":23200,"station_id":"ce4bgup2rcd13ifvqcn0","pricing_plan_id":"cebpf4jnsgd1na2vs0mg"},{"bike_id":"8b2e633d-2ac3-4eaf-888a-7995f9331981","system_id":"levelo_inurba_marseille","lat":43.292781,"lon":5.401455,"is_reserved":false,"is_disabled":false,"rental_uris":{"android":"levelo://app?vid=8b2e633d-2ac3-4eaf-888a-7995f9331981","ios":"levelo://app?vid=8b2e633d-2ac3-4eaf-888a-7995f9331981"},"vehicle_type_id":"4","last_reported":1750227363,"current_range_meters":23200,"station_id":"ce4bh312rcd13ifvqdk0","pricing_plan_id":"cebpf4jnsgd1na2vs0mg"},{"bike_id":"87caf1b2-033f-4ae7-bc2b-97df03e86959","system_id":"levelo_inurba_marseille","lat":43.29036,"lon":5.39988,"is_reserved":false,"is_disabled":false,"rental_uris":{"android":"levelo://app?vid=87caf1b2-033f-4ae7-bc2b-97df03e86959","ios":"levelo://app?vid=87caf1b2-033f-4ae7-bc2b-97df03e86959"},"vehicle_type_id":"4","last_reported":1750227363,"current_range_meters":23200,"station_id":"ce4bh392rcd13ifvqdm0","pricing_plan_id":"cebpf4jnsgd1na2vs0mg"},{"bike_id":"1513868e-f233-416d-98f9-725d4f8e9e5d","system_id":"levelo_inurba_marseille","lat":43.24545,"lon":5.39525,"is_reserved":false,"is_disabled":false,"rental_uris":{"android":"levelo://app?vid=1513868e-f233-416d-98f9-725d4f8e9e5d","ios":"levelo://app?vid=1513868e-f233-416d-98f9-725d4f8e9e5d"},"vehicle_type_id":"4","last_reported":1750227363,"current_range_meters":23200,"station_id":"ce4bhlp2rcd13ifvqgjg","pricing_plan_id":"cebpf4jnsgd1na2vs0mg"},{"bike_id":"907308c7-b165-4c68-b510-20c3668629fd","system_id":"levelo_inurba_marseille","lat":43.24183,"lon":5.39722,"is_reserved":false,"is_disabled":false,"rental_uris":{"android":"levelo://app?vid=907308c7-b165-4c68-b510-20c3668629fd","ios":"levelo://app?vid=907308c7-b165-4c68-b510-20c3668629fd"},"vehicle_type_id":"4","last_reported":1750227363,"current_range_meters":23200,"station_id":"ce4bhn12rcd13ifvqgpg","pricing_plan_id":"cebpf4jnsgd1na2vs0mg"},{"bike_id":"7c978c52-a3d5-474e-b8c0-4defe027e7b2","system_id":"levelo_inurba_marseille","lat":43.27497,"lon":5.42447,"is_reserved":false,"is_disabled":false,"rental_uris":{"android":"levelo://app?vid=7c978c52-a3d5-474e-b8c0-4defe027e7b2","ios":"levelo://app?vid=7c978c52-a3d5-474e-b8c0-4defe027e7b2"},"vehicle_type_id":"4","last_reported":1750227363,"current_range_meters":23200,"station_id":"ce4bhn92rcd13ifvqgrg","pricing_plan_id":"cebpf4jnsgd1na2vs0mg"},{"bike_id":"c9d5e6bd-ca92-4056-a2e8-57b743063014","system_id":"levelo_inurba_marseille","lat":43.24055,"lon":5.37743,"is_reserved":false,"is_disabled":false,"rental_uris":{"android":"levelo://app?vid=c9d5e6bd-ca92-4056-a2e8-57b743063014","ios":"levelo://app?vid=c9d5e6bd-ca92-4056-a2e8-57b743063014"},"vehicle_type_id":"4","last_reported":1750227363,"current_range_meters":23200,"station_id":"ce4bhnp2rcd13ifvqgvg","pricing_plan_id":"cebpf4jnsgd1na2vs0mg"},{"bike_id":"d1da8fb8-f435-462f-99a3-8ba810e3d01d","system_id":"levelo_inurba_marseille","lat":43.23198,"lon":5.35549,"is_reserved":false,"is_disabled":false,"rental_uris":{"android":"levelo://app?vid=d1da8fb8-f435-462f-99a3-8ba810e3d01d","ios":"levelo://app?vid=d1da8fb8-f435-462f-99a3-8ba810e3d01d"},"vehicle_type_id":"4","last_reported":1750227363,"current_range_meters":23200,"station_id":"ce4bhu92rcd13ifvqi70","pricing_plan_id":"cebpf4jnsgd1na2vs0mg"},{"bike_id":"067b8e20-b015-4505-b5dc-4dea9709af65","system_id":"levelo_inurba_marseille","lat":43.30419,"lon":5.37934,"is_reserved":false,"is_disabled":false,"rental_uris":{"android":"levelo://app?vid=067b8e20-b015-4505-b5dc-4dea9709af65","ios":"levelo://app?vid=067b8e20-b015-4505-b5dc-4dea9709af65"},"vehicle_type_id":"4","last_reported":1750227363,"current_range_meters":24000,"station_id":"","pricing_plan_id":"cebpf4jnsgd1na2vs0mg"},{"bike_id":"d652559b-b2b7-4206-965a-a58b76010f18","system_id":"levelo_inurba_marseille","lat":43.3221,"lon":5.38116,"is_reserved":false,"is_disabled":false,"rental_uris":{"android":"levelo://app?vid=d652559b-b2b7-4206-965a-a58b76010f18","ios":"levelo://app?vid=d652559b-b2b7-4206-965a-a58b76010f18"},"vehicle_type_id":"4","last_reported":1750227363,"current_range_meters":24000,"station_id":"","pricing_plan_id":"cebpf4jnsgd1na2vs0mg"},{"bike_id":"f1a53cfa-a179-4ceb-b422-e3c4e1732f9c","system_id":"levelo_inurba_marseille","lat":43.29232,"lon":5.40173,"is_reserved":false,"is_disabled":false,"rental_uris":{"android":"levelo://app?vid=f1a53cfa-a179-4ceb-b422-e3c4e1732f9c","ios":"levelo://app?vid=f1a53cfa-a179-4ceb-b422-e3c4e1732f9c"},"vehicle_type_id":"4","last_reported":1750227363,"current_range_meters":24000,"station_id":"","pricing_plan_id":"cebpf4jnsgd1na2vs0mg"},{"bike_id":"44f2cfed-c0a9-482f-b77a-0a312ed41b4f","system_id":"levelo_inurba_marseille","lat":43.3015,"lon":5.38076,"is_reserved":false,"is_disabled":false,"rental_uris":{"android":"levelo://app?vid=44f2cfed-c0a9-482f-b77a-0a312ed41b4f","ios":"levelo://app?vid=44f2cfed-c0a9-482f-b77a-0a312ed41b4f"},"vehicle_type_id":"4","last_reported":1750227363,"current_range_meters":24000,"station_id":"ce4bgjp2rcd13ifvqbh0","pricing_plan_id":"cebpf4jnsgd1na2vs0mg"},{"bike_id":"b44d709e-1656-44d8-8c8f-62a40b609e23","system_id":"levelo_inurba_marseille","lat":43.30789,"lon":5.376425,"is_reserved":false,"is_disabled":false,"rental_uris":{"android":"levelo://app?vid=b44d709e-1656-44d8-8c8f-62a40b609e23","ios":"levelo://app?vid=b44d709e-1656-44d8-8c8f-62a40b609e23"},"vehicle_type_id":"4","last_reported":1750227363,"current_range_meters":24000,"station_id":"ce4bgv92rcd13ifvqcq0","pricing_plan_id":"cebpf4jnsgd1na2vs0mg"},{"bike_id":"8b8698f9-a9e4-420a-b8ad-d7d003b688c8","system_id":"levelo_inurba_marseille","lat":43.27207,"lon":5.3918,"is_reserved":false,"is_disabled":false,"rental_uris":{"android":"levelo://app?vid=8b8698f9-a9e4-420a-b8ad-d7d003b688c8","ios":"levelo://app?vid=8b8698f9-a9e4-420a-b8ad-d7d003b688c8"},"vehicle_type_id":"4","last_reported":1750227363,"current_range_meters":24000,"station_id":"ce4bhhp2rcd13ifvqfm0","pricing_plan_id":"cebpf4jnsgd1na2vs0mg"},{"bike_id":"1b4fa49c-d18e-42dc-b5e7-f38777e9cabb","system_id":"levelo_inurba_marseille","lat":43.25817,"lon":5.39435,"is_reserved":false,"is_disabled":false,"rental_uris":{"android":"levelo://app?vid=1b4fa49c-d18e-42dc-b5e7-f38777e9cabb","ios":"levelo://app?vid=1b4fa49c-d18e-42dc-b5e7-f38777e9cabb"},"vehicle_type_id":"4","last_reported":1750227363,"current_range_meters":24000,"station_id":"ce4bhip2rcd13ifvqft0","pricing_plan_id":"cebpf4jnsgd1na2vs0mg"},{"bike_id":"04e39078-68d5-400a-9ccd-b80e5b526026","system_id":"levelo_inurba_marseille","lat":43.32363,"lon":5.38883,"is_reserved":false,"is_disabled":false,"rental_uris":{"android":"levelo://app?vid=04e39078-68d5-400a-9ccd-b80e5b526026","ios":"levelo://app?vid=04e39078-68d5-400a-9ccd-b80e5b526026"},"vehicle_type_id":"4","last_reported":1750227363,"current_range_meters":24000,"station_id":"ce4bhqp2rcd13ifvqhog","pricing_plan_id":"cebpf4jnsgd1na2vs0mg"},{"bike_id":"72f3c4b8-3ea2-4f0b-97a2-8a0484e91247","system_id":"levelo_inurba_marseille","lat":43.301563,"lon":5.374225,"is_reserved":false,"is_disabled":false,"rental_uris":{"android":"levelo://app?vid=72f3c4b8-3ea2-4f0b-97a2-8a0484e91247","ios":"levelo://app?vid=72f3c4b8-3ea2-4f0b-97a2-8a0484e91247"},"vehicle_type_id":"4","last_reported":1750227363,"current_range_meters":24400,"station_id":"ce4bgs92rcd13ifvqcc0","pricing_plan_id":"cebpf4jnsgd1na2vs0mg"},{"bike_id":"3c81b915-8573-4c12-b4f1-3cdae1f3ac0d","system_id":"levelo_inurba_marseille","lat":43.29612,"lon":5.40607,"is_reserved":false,"is_disabled":false,"rental_uris":{"android":"levelo://app?vid=3c81b915-8573-4c12-b4f1-3cdae1f3ac0d","ios":"levelo://app?vid=3c81b915-8573-4c12-b4f1-3cdae1f3ac0d"},"vehicle_type_id":"4","last_reported":1750227363,"current_range_meters":24400,"station_id":"ce4bh0h2rcd13ifvqd60","pricing_plan_id":"cebpf4jnsgd1na2vs0mg"},{"bike_id":"0bbee8c8-3a7d-4e5a-81a7-a8174879d976","system_id":"levelo_inurba_marseille","lat":43.25124,"lon":5.39531,"is_reserved":false,"is_disabled":false,"rental_uris":{"android":"levelo://app?vid=0bbee8c8-3a7d-4e5a-81a7-a8174879d976","ios":"levelo://app?vid=0bbee8c8-3a7d-4e5a-81a7-a8174879d976"},"vehicle_type_id":"4","last_reported":1750227363,"current_range_meters":24400,"station_id":"ce4bhm12rcd13ifvqgkg","pricing_plan_id":"cebpf4jnsgd1na2vs0mg"},{"bike_id":"e266192c-6dc2-4351-b1ff-d19b0cacf17e","system_id":"levelo_inurba_marseille","lat":43.31896,"lon":5.40729,"is_reserved":false,"is_disabled":false,"rental_uris":{"android":"levelo://app?vid=e266192c-6dc2-4351-b1ff-d19b0cacf17e","ios":"levelo://app?vid=e266192c-6dc2-4351-b1ff-d19b0cacf17e"},"vehicle_type_id":"4","last_reported":1750227363,"current_range_meters":24400,"station_id":"ce4bhq12rcd13ifvqhig","pricing_plan_id":"cebpf4jnsgd1na2vs0mg"},{"bike_id":"f9c81642-ccc3-452b-95bf-58249429a530","system_id":"levelo_inurba_marseille","lat":43.32346,"lon":5.406146,"is_reserved":false,"is_disabled":false,"rental_uris":{"android":"levelo://app?vid=f9c81642-ccc3-452b-95bf-58249429a530","ios":"levelo://app?vid=f9c81642-ccc3-452b-95bf-58249429a530"},"vehicle_type_id":"4","last_reported":1750227363,"current_range_meters":24400,"station_id":"ce4bhq92rcd13ifvqhjg","pricing_plan_id":"cebpf4jnsgd1na2vs0mg"},{"bike_id":"f3fe6a33-714f-4743-ad01-07c26b98241c","system_id":"levelo_inurba_marseille","lat":43.29859,"lon":5.43137,"is_reserved":false,"is_disabled":false,"rental_uris":{"android":"levelo://app?vid=f3fe6a33-714f-4743-ad01-07c26b98241c","ios":"levelo://app?vid=f3fe6a33-714f-4743-ad01-07c26b98241c"},"vehicle_type_id":"4","last_reported":1750227363,"current_range_meters":24800,"station_id":"","pricing_plan_id":"cebpf4jnsgd1na2vs0mg"},{"bike_id":"47769dc2-c6a5-4633-ad40-1720f567ebdc","system_id":"levelo_inurba_marseille","lat":43.304648,"lon":5.379125,"is_reserved":false,"is_disabled":false,"rental_uris":{"android":"levelo://app?vid=47769dc2-c6a5-4633-ad40-1720f567ebdc","ios":"levelo://app?vid=47769dc2-c6a5-4633-ad40-1720f567ebdc"},"vehicle_type_id":"4","last_reported":1750227363,"current_range_meters":24800,"station_id":"ce4bgup2rcd13ifvqcn0","pricing_plan_id":"cebpf4jnsgd1na2vs0mg"},{"bike_id":"b6903d57-9c40-4023-baad-4e6e4cda8735","system_id":"levelo_inurba_marseille","lat":43.31199,"lon":5.38711,"is_reserved":false,"is_disabled":false,"rental_uris":{"android":"levelo://app?vid=b6903d57-9c40-4023-baad-4e6e4cda8735","ios":"levelo://app?vid=b6903d57-9c40-4023-baad-4e6e4cda8735"},"vehicle_type_id":"4","last_reported":1750227363,"current_range_meters":24800,"station_id":"ce4bgv12rcd13ifvqcp0","pricing_plan_id":"cebpf4jnsgd1na2vs0mg"},{"bike_id":"faa56592-aacf-4427-86c0-5c796fe7ab1c","system_id":"levelo_inurba_marseille","lat":43.31073,"lon":5.38354,"is_reserved":false,"is_disabled":false,"rental_uris":{"android":"levelo://app?vid=faa56592-aacf-4427-86c0-5c796fe7ab1c","ios":"levelo://app?vid=faa56592-aacf-4427-86c0-5c796fe7ab1c"},"vehicle_type_id":"4","last_reported":1750227363,"current_range_meters":24800,"station_id":"ce4bgv92rcd13ifvqcr0","pricing_plan_id":"cebpf4jnsgd1na2vs0mg"},{"bike_id":"fd017e31-406b-4942-9dbe-7103bd7b018b","system_id":"levelo_inurba_marseille","lat":43.28002,"lon":5.39988,"is_reserved":false,"is_disabled":false,"rental_uris":{"android":"levelo://app?vid=fd017e31-406b-4942-9dbe-7103bd7b018b","ios":"levelo://app?vid=fd017e31-406b-4942-9dbe-7103bd7b018b"},"vehicle_type_id":"4","last_reported":1750227363,"current_range_meters":24800,"station_id":"ce4bho92rcd13ifvqh4g","pricing_plan_id":"cebpf4jnsgd1na2vs0mg"},{"bike_id":"c0223e70-db3e-45b2-9f20-e7b278d51870","system_id":"levelo_inurba_marseille","lat":43.2985,"lon":5.36277,"is_reserved":false,"is_disabled":false,"rental_uris":{"android":"levelo://app?vid=c0223e70-db3e-45b2-9f20-e7b278d51870","ios":"levelo://app?vid=c0223e70-db3e-45b2-9f20-e7b278d51870"},"vehicle_type_id":"4","last_reported":1750227363,"current_range_meters":25200,"station_id":"ce4bgpp2rcd13ifvqc3g","pricing_plan_id":"cebpf4jnsgd1na2vs0mg"},{"bike_id":"f5dae7dd-e9ad-4b00-9cf1-c37673a9f396","system_id":"levelo_inurba_marseille","lat":43.306034,"lon":5.372509,"is_reserved":false,"is_disabled":false,"rental_uris":{"android":"levelo://app?vid=f5dae7dd-e9ad-4b00-9cf1-c37673a9f396","ios":"levelo://app?vid=f5dae7dd-e9ad-4b00-9cf1-c37673a9f396"},"vehicle_type_id":"4","last_reported":1750227363,"current_range_meters":25200,"station_id":"ce4bgqh2rcd13ifvqc4g","pricing_plan_id":"cebpf4jnsgd1na2vs0mg"},{"bike_id":"323713d4-81e0-4fa8-a1ef-87d23014089e","system_id":"levelo_inurba_marseille","lat":43.3048,"lon":5.37905,"is_reserved":false,"is_disabled":false,"rental_uris":{"android":"levelo://app?vid=323713d4-81e0-4fa8-a1ef-87d23014089e","ios":"levelo://app?vid=323713d4-81e0-4fa8-a1ef-87d23014089e"},"vehicle_type_id":"4","last_reported":1750227363,"current_range_meters":25200,"station_id":"ce4bgup2rcd13ifvqcn0","pricing_plan_id":"cebpf4jnsgd1na2vs0mg"},{"bike_id":"91fce946-5e0e-40c5-8270-96d62aefa503","system_id":"levelo_inurba_marseille","lat":43.29168,"lon":5.37165,"is_reserved":false,"is_disabled":false,"rental_uris":{"android":"levelo://app?vid=91fce946-5e0e-40c5-8270-96d62aefa503","ios":"levelo://app?vid=91fce946-5e0e-40c5-8270-96d62aefa503"},"vehicle_type_id":"4","last_reported":1750227363,"current_range_meters":25200,"station_id":"ce4bha92rcd13ifvqeh0","pricing_plan_id":"cebpf4jnsgd1na2vs0mg"},{"bike_id":"95b51a66-117d-4c6f-b7b9-74de7a515682","system_id":"levelo_inurba_marseille","lat":43.284243,"lon":5.34996,"is_reserved":false,"is_disabled":false,"rental_uris":{"android":"levelo://app?vid=95b51a66-117d-4c6f-b7b9-74de7a515682","ios":"levelo://app?vid=95b51a66-117d-4c6f-b7b9-74de7a515682"},"vehicle_type_id":"4","last_reported":1750227363,"current_range_meters":25200,"station_id":"ce4bhbh2rcd13ifvqepg","pricing_plan_id":"cebpf4jnsgd1na2vs0mg"},{"bike_id":"1a35b4cf-7cb1-4e0d-b1a8-82e8f66baffb","system_id":"levelo_inurba_marseille","lat":43.25074,"lon":5.3952,"is_reserved":false,"is_disabled":false,"rental_uris":{"android":"levelo://app?vid=1a35b4cf-7cb1-4e0d-b1a8-82e8f66baffb","ios":"levelo://app?vid=1a35b4cf-7cb1-4e0d-b1a8-82e8f66baffb"},"vehicle_type_id":"4","last_reported":1750227363,"current_range_meters":25200,"station_id":"ce4bhm12rcd13ifvqgkg","pricing_plan_id":"cebpf4jnsgd1na2vs0mg"},{"bike_id":"626e5f5a-c4a9-4377-a835-398396957390","system_id":"levelo_inurba_marseille","lat":43.323595,"lon":5.388829,"is_reserved":false,"is_disabled":false,"rental_uris":{"android":"levelo://app?vid=626e5f5a-c4a9-4377-a835-398396957390","ios":"levelo://app?vid=626e5f5a-c4a9-4377-a835-398396957390"},"vehicle_type_id":"4","last_reported":1750227363,"current_range_meters":25200,"station_id":"ce4bhqp2rcd13ifvqhog","pricing_plan_id":"cebpf4jnsgd1na2vs0mg"},{"bike_id":"dc540ba2-fb63-45eb-b83a-1826fb3d30b7","system_id":"levelo_inurba_marseille","lat":43.245931,"lon":5.392764,"is_reserved":false,"is_disabled":false,"rental_uris":{"android":"levelo://app?vid=dc540ba2-fb63-45eb-b83a-1826fb3d30b7","ios":"levelo://app?vid=dc540ba2-fb63-45eb-b83a-1826fb3d30b7"},"vehicle_type_id":"4","last_reported":1750227363,"current_range_meters":25600,"station_id":"","pricing_plan_id":"cebpf4jnsgd1na2vs0mg"},{"bike_id":"ce58b942-56c0-4de3-adbe-f9cc01338d38","system_id":"levelo_inurba_marseille","lat":43.307989,"lon":5.381492,"is_reserved":false,"is_disabled":false,"rental_uris":{"android":"levelo://app?vid=ce58b942-56c0-4de3-adbe-f9cc01338d38","ios":"levelo://app?vid=ce58b942-56c0-4de3-adbe-f9cc01338d38"},"vehicle_type_id":"4","last_reported":1750227363,"current_range_meters":25600,"station_id":"","pricing_plan_id":"cebpf4jnsgd1na2vs0mg"},{"bike_id":"6b73b2fe-271d-4e1e-8871-62df200c2ae8","system_id":"levelo_inurba_marseille","lat":43.29238,"lon":5.40168,"is_reserved":false,"is_disabled":false,"rental_uris":{"android":"levelo://app?vid=6b73b2fe-271d-4e1e-8871-62df200c2ae8","ios":"levelo://app?vid=6b73b2fe-271d-4e1e-8871-62df200c2ae8"},"vehicle_type_id":"4","last_reported":1750227363,"current_range_meters":25600,"station_id":"","pricing_plan_id":"cebpf4jnsgd1na2vs0mg"},{"bike_id":"66a4c784-5606-45d3-b5b8-738c6c1680ec","system_id":"levelo_inurba_marseille","lat":43.30908,"lon":5.36841,"is_reserved":false,"is_disabled":false,"rental_uris":{"android":"levelo://app?vid=66a4c784-5606-45d3-b5b8-738c6c1680ec","ios":"levelo://app?vid=66a4c784-5606-45d3-b5b8-738c6c1680ec"},"vehicle_type_id":"4","last_reported":1750227363,"current_range_meters":25600,"station_id":"ce4bgn92rcd13ifvqbvg","pricing_plan_id":"cebpf4jnsgd1na2vs0mg"},{"bike_id":"36c77392-5996-4c3a-8c58-73d5674d8516","system_id":"levelo_inurba_marseille","lat":43.27946,"lon":5.41034,"is_reserved":false,"is_disabled":false,"rental_uris":{"android":"levelo://app?vid=36c77392-5996-4c3a-8c58-73d5674d8516","ios":"levelo://app?vid=36c77392-5996-4c3a-8c58-73d5674d8516"},"vehicle_type_id":"4","last_reported":1750227363,"current_range_meters":25600,"station_id":"ce4bhnp2rcd13ifvqh0g","pricing_plan_id":"cebpf4jnsgd1na2vs0mg"},{"bike_id":"884b4a35-976c-4659-8076-dd4d2f216875","system_id":"levelo_inurba_marseille","lat":43.22926,"lon":5.3538,"is_reserved":false,"is_disabled":false,"rental_uris":{"android":"levelo://app?vid=884b4a35-976c-4659-8076-dd4d2f216875","ios":"levelo://app?vid=884b4a35-976c-4659-8076-dd4d2f216875"},"vehicle_type_id":"4","last_reported":1750227363,"current_range_meters":25600,"station_id":"cpo3532slgdg3j2ikp40","pricing_plan_id":"cebpf4jnsgd1na2vs0mg"},{"bike_id":"7dbb17c2-3809-46c7-bfd5-a4c3a6abdf1d","system_id":"levelo_inurba_marseille","lat":43.29285,"lon":5.40175,"is_reserved":false,"is_disabled":false,"rental_uris":{"android":"levelo://app?vid=7dbb17c2-3809-46c7-bfd5-a4c3a6abdf1d","ios":"levelo://app?vid=7dbb17c2-3809-46c7-bfd5-a4c3a6abdf1d"},"vehicle_type_id":"4","last_reported":1750227363,"current_range_meters":26000,"station_id":"","pricing_plan_id":"cebpf4jnsgd1na2vs0mg"},