{"last_updated":1742144877,"ttl":60,"version":"2.2","data":{"bikes":[{"bike_id":"16cb58be-5673-4662-8bf9-23a73e818d1b","system_id":"levelo_inurba_marseille","lat":43.30891,"lon":5.3966,"is_reserved":false,"is_disabled":false,"rental_uris":{"android":"levelo://app?vid=16cb58be-5673-4662-8bf9-23a73e818d1b","ios":"levelo://app?vid=16cb58be-5673-4662-8bf9-23a73e818d1b"},"vehicle_type_id":"4","last_reported":1742144877,"current_range_meters":2800,"station_id":"ce4bh012rcd13ifvqcv0","pricing_plan_id":"cebpf4jnsgd1na2vs0mg"},{"bike_id":"b7b2c1f2-71ac-47f9-802a-49d5c2adba1c","system_id":"levelo_inurba_marseille","lat":43.301301,"lon":5.388033,"is_reserved":false,"is_disabled":false,"rental_uris":{"android":"levelo://app?vid=b7b2c1f2-71ac-47f9-802a-49d5c2adba1c","ios":"levelo://app?vid=b7b2c1f2-71ac-47f9-802a-49d5c2adba1c"},"vehicle_type_id":"4","last_reported":1742144877,"current_range_meters":4800,"station_id":"ce4bghh2rcd13ifvqb60","pricing_plan_id":"cebpf4jnsgd1na2vs0mg"},{"bike_id":"cec01b52-2302-402d-85e9-2baeae73b7a7","system_id":"levelo_inurba_marseille","lat":43.3168,"lon":5.4048,"is_reserved":false,"is_disabled":false,"rental_uris":{"android":"levelo://app?vid=cec01b52-2302-402d-85e9-2baeae73b7a7","ios":"levelo://app?vid=cec01b52-2302-402d-85e9-2baeae73b7a7"},"vehicle_type_id":"4","last_reported":1742144877,"current_range_meters":2800,"station_id":"ce4bh012rcd13ifvqd00","pricing_plan_id":"cebpf4jnsgd1na2vs0mg"},{"bike_id":"c24fbabe-4dd4-4ab0-a867-a84ae5536b08","system_id":"levelo_inurba_marseille","lat":43.30606,"lon":5.37227,"is_reserved":false,"is_disabled":false,"rental_uris":{"android":"levelo://app?vid=c24fbabe-4dd4-4ab0-a867-a84ae5536b08","ios":"levelo://app?vid=c24fbabe-4dd4-4ab0-a867-a84ae5536b08"},"vehicle_type_id":"4","last_reported":1742144877,"current_range_meters":2800,"station_id":"ce4bgqh2rcd13ifvqc4g","pricing_plan_id":"cebpf4jnsgd1na2vs0mg"},{"bike_id":"5e6cbd47-63ab-440d-b1dd-7b3a5167b078","system_id":"levelo_inurba_marseille","lat":43.29196,"lon":5.39324,"is_reserved":false,"is_disabled":false,"rental_uris":{"android":"levelo://app?vid=5e6cbd47-63ab-440d-b1dd-7b3a5167b078","ios":"levelo://app?vid=5e6cbd47-63ab-440d-b1dd-7b3a5167b078"},"vehicle_type_id":"4","last_reported":1742144877,"current_range_meters":2800,"station_id":"ce4bh192rcd13ifvqdd0","pricing_plan_id":"cebpf4jnsgd1na2vs0mg"},{"bike_id":"66411ab9-d792-447a-b60c-aaec3d5b9b67","system_id":"levelo_inurba_marseille","lat":43.30315,"lon":5.36893,"is_reserved":false,"is_disabled":false,"rental_uris":{"android":"levelo://app?vid=66411ab9-d792-447a-b60c-aaec3d5b9b67","ios":"levelo://app?vid=66411ab9-d792-447a-b60c-aaec3d5b9b67"},"vehicle_type_id":"4","last_reported":1742144877,"current_range_meters":2800,"station_id":"ce4bgqh2rcd13ifvqc5g","pricing_plan_id":"cebpf4jnsgd1na2vs0mg"},{"bike_id":"90926b26-cd32-4405-a3e4-f6b5c749583a","system_id":"levelo_inurba_marseille","lat":43.29573,"lon":5.39977,"is_reserved":false,"is_disabled":false,"rental_uris":{"android":"levelo://app?vid=90926b26-cd32-4405-a3e4-f6b5c749583a","ios":"levelo://app?vid=90926b26-cd32-4405-a3e4-f6b5c749583a"},"vehicle_type_id":"4","last_reported":1742144877,"current_range_meters":1200,"station_id":"ce4bh312rcd13ifvqdj0","pricing_plan_id":"cebpf4jnsgd1na2vs0mg"},{"bike_id":"589965d5-8cfc-403e-b3dc-f1bdd2a46d00","system_id":"levelo_inurba_marseille","lat":43.23175,"lon":5.39989,"is_reserved":false,"is_disabled":false,"rental_uris":{"android":"levelo://app?vid=589965d5-8cfc-403e-b3dc-f1bdd2a46d00","ios":"levelo://app?vid=589965d5-8cfc-403e-b3dc-f1bdd2a46d00"},"vehicle_type_id":"4","last_reported":1742144877,"current_range_meters":2800,"station_id":"ce4bhn12rcd13ifvqgqg","pricing_plan_id":"cebpf4jnsgd1na2vs0mg"},{"bike_id":"1ee8f28e-fc48-45e6-a7ae-0b9aa87583b7","system_id":"levelo_inurba_marseille","lat":43.2804,"lon":5.36932,"is_reserved":false,"is_disabled":false,"rental_uris":{"android":"levelo://app?vid=1ee8f28e-fc48-45e6-a7ae-0b9aa87583b7","ios":"levelo://app?vid=1ee8f28e-fc48-45e6-a7ae-0b9aa87583b7"},"vehicle_type_id":"4","last_reported":1742144877,"current_range_meters":2800,"station_id":"ce4bha12rcd13ifvqef0","pricing_plan_id":"cebpf4jnsgd1na2vs0mg"},{"bike_id":"9a7363c0-cdc2-481e-8045-8898fde3b5d1","system_id":"levelo_inurba_marseille","lat":43.2718,"lon":5.41,"is_reserved":false,"is_disabled":false,"rental_uris":{"android":"levelo://app?vid=9a7363c0-cdc2-481e-8045-8898fde3b5d1","ios":"levelo://app?vid=9a7363c0-cdc2-481e-8045-8898fde3b5d1"},"vehicle_type_id":"4","last_reported":1742144877,"current_range_meters":2800,"station_id":"ce4bhl12rcd13ifvqgf0","pricing_plan_id":"cebpf4jnsgd1na2vs0mg"},{"bike_id":"52bf401c-325a-45fd-867d-5dfbf20396bb","system_id":"levelo_inurba_marseille","lat":43.25109,"lon":5.40317,"is_reserved":false,"is_disabled":false,"rental_uris":{"android":"levelo://app?vid=52bf401c-325a-45fd-867d-5dfbf20396bb","ios":"levelo://app?vid=52bf401c-325a-45fd-867d-5dfbf20396bb"},"vehicle_type_id":"4","last_reported":1742144877,"current_range_meters":3200,"station_id":"ce4bhlh2rcd13ifvqgig","pricing_plan_id":"cebpf4jnsgd1na2vs0mg"},{"bike_id":"88c2ec9c-c2ee-474d-a6aa-dbb7a53fc0ca","system_id":"levelo_inurba_marseille","lat":43.24199,"lon":5.39745,"is_reserved":false,"is_disabled":true,"rental_uris":{"android":"levelo://app?vid=88c2ec9c-c2ee-474d-a6aa-dbb7a53fc0ca","ios":"levelo://app?vid=88c2ec9c-c2ee-474d-a6aa-dbb7a53fc0ca"},"vehicle_type_id":"4","last_reported":1742144877,"current_range_meters":3200,"station_id":"ce4bhn12rcd13ifvqgpg","pricing_plan_id":"cebpf4jnsgd1na2vs0mg"},{"bike_id":"623aaf6d-6edc-485d-9f20-681f6cdbe814","system_id":"levelo_inurba_marseille","lat":43.26477,"lon":5.39543,"is_reserved":false,"is_disabled":false,"rental_uris":{"android":"levelo://app?vid=623aaf6d-6edc-485d-9f20-681f6cdbe814","ios":"levelo://app?vid=623aaf6d-6edc-485d-9f20-681f6cdbe814"},"vehicle_type_id":"4","last_reported":1742144877,"current_range_meters":3200,"station_id":"ce4bhi12rcd13ifvqfq0","pricing_plan_id":"cebpf4jnsgd1na2vs0mg"},{"bike_id":"a1712832-b1a0-4d0c-be03-16184430a885","system_id":"levelo_inurba_marseille","lat":43.29009,"lon":5.38134,"is_reserved":false,"is_disabled":true,"rental_uris":{"android":"levelo://app?vid=a1712832-b1a0-4d0c-be03-16184430a885","ios":"levelo://app?vid=a1712832-b1a0-4d0c-be03-16184430a885"},"vehicle_type_id":"4","last_reported":1742144877,"current_range_meters":3200,"station_id":"ce4bh4p2rcd13ifvqe1g","pricing_plan_id":"cebpf4jnsgd1na2vs0mg"},{"bike_id":"fa0e4f3b-a984-4caf-b6bf-b69cb0a50fd0","system_id":"levelo_inurba_marseille","lat":43.29039,"lon":5.37565,"is_reserved":false,"is_disabled":false,"rental_uris":{"android":"levelo://app?vid=fa0e4f3b-a984-4caf-b6bf-b69cb0a50fd0","ios":"levelo://app?vid=fa0e4f3b-a984-4caf-b6bf-b69cb0a50fd0"},"vehicle_type_id":"4","last_reported":1742144877,"current_range_meters":2800,"station_id":"ce4bh692rcd13ifvqe90","pricing_plan_id":"cebpf4jnsgd1na2vs0mg"},{"bike_id":"ef0420cd-62d9-46e6-bc23-a8b7c01978bb","system_id":"levelo_inurba_marseille","lat":43.2976,"lon":5.38109,"is_reserved":false,"is_disabled":true,"rental_uris":{"android":"levelo://app?vid=ef0420cd-62d9-46e6-bc23-a8b7c01978bb","ios":"levelo://app?vid=ef0420cd-62d9-46e6-bc23-a8b7c01978bb"},"vehicle_type_id":"4","last_reported":1742144877,"current_range_meters":3200,"station_id":"ce4bgip2rcd13ifvqbb0","pricing_plan_id":"cebpf4jnsgd1na2vs0mg"},{"bike_id":"ccc37bd6-9d9d-4b27-b736-482ec88e52df","system_id":"levelo_inurba_marseille","lat":43.30139,"lon":5.38788,"is_reserved":false,"is_disabled":false,"rental_uris":{"android":"levelo://app?vid=ccc37bd6-9d9d-4b27-b736-482ec88e52df","ios":"levelo://app?vid=ccc37bd6-9d9d-4b27-b736-482ec88e52df"},"vehicle_type_id":"4","last_reported":1742144877,"current_range_meters":3600,"station_id":"ce4bghh2rcd13ifvqb60","pricing_plan_id":"cebpf4jnsgd1na2vs0mg"},{"bike_id":"621ee7b1-50fc-4eb2-a366-f7d9697554ec","system_id":"levelo_inurba_marseille","lat":43.2857,"lon":5.39496,"is_reserved":false,"is_disabled":false,"rental_uris":{"android":"levelo://app?vid=621ee7b1-50fc-4eb2-a366-f7d9697554ec","ios":"levelo://app?vid=621ee7b1-50fc-4eb2-a366-f7d9697554ec"},"vehicle_type_id":"4","last_reported":1742144877,"current_range_meters":3600,"station_id":"ce4bh292rcd13ifvqdg0","pricing_plan_id":"cebpf4jnsgd1na2vs0mg"},{"bike_id":"1afeb3bb-c034-42f9-971a-305beab11645","system_id":"levelo_inurba_marseille","lat":43.28031,"lon":5.36934,"is_reserved":false,"is_disabled":false,"rental_uris":{"android":"levelo://app?vid=1afeb3bb-c034-42f9-971a-305beab11645","ios":"levelo://app?vid=1afeb3bb-c034-42f9-971a-305beab11645"},"vehicle_type_id":"4","last_reported":1742144877,"current_range_meters":3600,"station_id":"ce4bha12rcd13ifvqef0","pricing_plan_id":"cebpf4jnsgd1na2vs0mg"},{"bike_id":"3098645a-3d4d-457b-bf46-c3d5957f4b14","system_id":"levelo_inurba_marseille","lat":43.31499,"lon":5.37316,"is_reserved":false,"is_disabled":false,"rental_uris":{"android":"levelo://app?vid=3098645a-3d4d-457b-bf46-c3d5957f4b14","ios":"levelo://app?vid=3098645a-3d4d-457b-bf46-c3d5957f4b14"},"vehicle_type_id":"4","last_reported":1742144877,"current_range_meters":3600,"station_id":"ce4bgt12rcd13ifvqcd0","pricing_plan_id":"cebpf4jnsgd1na2vs0mg"},{"bike_id":"1806b1bc-c45b-4192-b31c-d29285425f4d","system_id":"levelo_inurba_marseille","lat":43.25498,"lon":5.37664,"is_reserved":false,"is_disabled":false,"rental_uris":{"android":"levelo://app?vid=1806b1bc-c45b-4192-b31c-d29285425f4d","ios":"levelo://app?vid=1806b1bc-c45b-4192-b31c-d29285425f4d"},"vehicle_type_id":"4","last_reported":1742144877,"current_range_meters":3600,"station_id":"ce4bhh12rcd13ifvqff0","pricing_plan_id":"cebpf4jnsgd1na2vs0mg"},{"bike_id":"69232c0f-e5ee-4237-86d4-411d8d68b8d7","system_id":"levelo_inurba_marseille","lat":43.25579,"lon":5.38235,"is_reserved":false,"is_disabled":false,"rental_uris":{"android":"levelo://app?vid=69232c0f-e5ee-4237-86d4-411d8d68b8d7","ios":"levelo://app?vid=69232c0f-e5ee-4237-86d4-411d8d68b8d7"},"vehicle_type_id":"4","last_reported":1742144877,"current_range_meters":3600,"station_id":"ce4bhih2rcd13ifvqfs0","pricing_plan_id":"cebpf4jnsgd1na2vs0mg"},{"bike_id":"fa3655b2-4055-474e-8392-a5b5cb658294","system_id":"levelo_inurba_marseille","lat":43.23182,"lon":5.39983,"is_reserved":false,"is_disabled":false,"rental_uris":{"android":"levelo://app?vid=fa3655b2-4055-474e-8392-a5b5cb658294","ios":"levelo://app?vid=fa3655b2-4055-474e-8392-a5b5cb658294"},"vehicle_type_id":"4","last_reported":1742144877,"current_range_meters":3600,"station_id":"ce4bhn12rcd13ifvqgqg","pricing_plan_id":"cebpf4jnsgd1na2vs0mg"},{"bike_id":"c0fac74a-1774-41e8-8efd-c0a187f66313","system_id":"levelo_inurba_marseille","lat":43.29786,"lon":5.38107,"is_reserved":false,"is_disabled":false,"rental_uris":{"android":"levelo://app?vid=c0fac74a-1774-41e8-8efd-c0a187f66313","ios":"levelo://app?vid=c0fac74a-1774-41e8-8efd-c0a187f66313"},"vehicle_type_id":"4","last_reported":1742144877,"current_range_meters":4000,"station_id":"ce4bgip2rcd13ifvqbb0","pricing_plan_id":"cebpf4jnsgd1na2vs0mg"},{"bike_id":"08fbf4c3-d024-4248-8e95-d5d510837b3c","system_id":"levelo_inurba_marseille","lat":43.29038,"lon":5.38635,"is_reserved":false,"is_disabled":false,"rental_uris":{"android":"levelo://app?vid=08fbf4c3-d024-4248-8e95-d5d510837b3c","ios":"levelo://app?vid=08fbf4c3-d024-4248-8e95-d5d510837b3c"},"vehicle_type_id":"4","last_reported":1742144877,"current_range_meters":4000,"station_id":"ce4bh4p2rcd13ifvqe0g","pricing_plan_id":"cebpf4jnsgd1na2vs0mg"},{"bike_id":"c30803a2-1ec0-498c-8636-87ee55228fbf","system_id":"levelo_inurba_marseille","lat":43.27952,"lon":5.41048,"is_reserved":false,"is_disabled":false,"rental_uris":{"android":"levelo://app?vid=c30803a2-1ec0-498c-8636-87ee55228fbf","ios":"levelo://app?vid=c30803a2-1ec0-498c-8636-87ee55228fbf"},"vehicle_type_id":"4","last_reported":1742144877,"current_range_meters":4000,"station_id":"ce4bhnp2rcd13ifvqh0g","pricing_plan_id":"cebpf4jnsgd1na2vs0mg"},{"bike_id":"8dcff5d2-ebb4-4aec-98af-edaf791a654c","system_id":"levelo_inurba_marseille","lat":43.24805,"lon":5.37457,"is_reserved":false,"is_disabled":false,"rental_uris":{"android":"levelo://app?vid=8dcff5d2-ebb4-4aec-98af-edaf791a654c","ios":"levelo://app?vid=8dcff5d2-ebb4-4aec-98af-edaf791a654c"},"vehicle_type_id":"4","last_reported":1742144877,"current_range_meters":4000,"station_id":"ce4bhgh2rcd13ifvqfb0","pricing_plan_id":"cebpf4jnsgd1na2vs0mg"},{"bike_id":"43cc4cbe-b4e9-43c7-b7df-3921c563db2e","system_id":"levelo_inurba_marseille","lat":43.27371,"lon":5.36245,"is_reserved":false,"is_disabled":false,"rental_uris":{"android":"levelo://app?vid=43cc4cbe-b4e9-43c7-b7df-3921c563db2e","ios":"levelo://app?vid=43cc4cbe-b4e9-43c7-b7df-3921c563db2e"},"vehicle_type_id":"4","last_reported":1742144877,"current_range_meters":4000,"station_id":"ce4bhbh2rcd13ifvqeo0","pricing_plan_id":"cebpf4jnsgd1na2vs0mg"},{"bike_id":"48906ba6-a08b-4c5e-9745-d556b40270a7","system_id":"levelo_inurba_marseille","lat":43.29028,"lon":5.38637,"is_reserved":false,"is_disabled":false,"rental_uris":{"android":"levelo://app?vid=48906ba6-a08b-4c5e-9745-d556b40270a7","ios":"levelo://app?vid=48906ba6-a08b-4c5e-9745-d556b40270a7"},"vehicle_type_id":"4","last_reported":1742144877,"current_range_meters":4000,"station_id":"ce4bh4p2rcd13ifvqe0g","pricing_plan_id":"cebpf4jnsgd1na2vs0mg"},{"bike_id":"e428ab23-7fe4-4066-9953-e6f96a4e6220","system_id":"levelo_inurba_marseille","lat":43.2799,"lon":5.4004,"is_reserved":false,"is_disabled":false,"rental_uris":{"android":"levelo://app?vid=e428ab23-7fe4-4066-9953-e6f96a4e6220","ios":"levelo://app?vid=e428ab23-7fe4-4066-9953-e6f96a4e6220"},"vehicle_type_id":"4","last_reported":1742144877,"current_range_meters":4000,"station_id":"ce4bho92rcd13ifvqh4g","pricing_plan_id":"cebpf4jnsgd1na2vs0mg"},{"bike_id":"12349ae3-7409-45c1-bc76-a9002585bdeb","system_id":"levelo_inurba_marseille","lat":43.24078,"lon":5.3772,"is_reserved":false,"is_disabled":false,"rental_uris":{"android":"levelo://app?vid=12349ae3-7409-45c1-bc76-a9002585bdeb","ios":"levelo://app?vid=12349ae3-7409-45c1-bc76-a9002585bdeb"},"vehicle_type_id":"4","last_reported":1742144877,"current_range_meters":4000,"station_id":"ce4bhnp2rcd13ifvqgvg","pricing_plan_id":"cebpf4jnsgd1na2vs0mg"},{"bike_id":"76b415aa-d90d-4b4c-9954-2e46fdae4260","system_id":"levelo_inurba_marseille","lat":43.28991,"lon":5.3561,"is_reserved":false,"is_disabled":true,"rental_uris":{"android":"levelo://app?vid=76b415aa-d90d-4b4c-9954-2e46fdae4260","ios":"levelo://app?vid=76b415aa-d90d-4b4c-9954-2e46fdae4260"},"vehicle_type_id":"4","last_reported":1742144877,"current_range_meters":4400,"station_id":"ce4bhb92rcd13ifvqen0","pricing_plan_id":"cebpf4jnsgd1na2vs0mg"},{"bike_id":"8c224774-f17e-4fa1-9744-ae77a9f14660","system_id":"levelo_inurba_marseille","lat":43.30313,"lon":5.36892,"is_reserved":false,"is_disabled":false,"rental_uris":{"android":"levelo://app?vid=8c224774-f17e-4fa1-9744-ae77a9f14660","ios":"levelo://app?vid=8c224774-f17e-4fa1-9744-ae77a9f14660"},"vehicle_type_id":"4","last_reported":1742144877,"current_range_meters":4400,"station_id":"ce4bgqh2rcd13ifvqc5g","pricing_plan_id":"cebpf4jnsgd1na2vs0mg"},{"bike_id":"9f865957-e720-4435-a39c-e4bfb36279dc","system_id":"levelo_inurba_marseille","lat":43.30538,"lon":5.36539,"is_reserved":false,"is_disabled":false,"rental_uris":{"android":"levelo://app?vid=9f865957-e720-4435-a39c-e4bfb36279dc","ios":"levelo://app?vid=9f865957-e720-4435-a39c-e4bfb36279dc"},"vehicle_type_id":"4","last_reported":1742144877,"current_range_meters":4400,"station_id":"ce4bgs12rcd13ifvqcag","pricing_plan_id":"cebpf4jnsgd1na2vs0mg"},{"bike_id":"21cfacd0-8fc8-454a-8a3f-d36bcdb61b05","system_id":"levelo_inurba_marseille","lat":43.27986,"lon":5.38404,"is_reserved":false,"is_disabled":true,"rental_uris":{"android":"levelo://app?vid=21cfacd0-8fc8-454a-8a3f-d36bcdb61b05","ios":"levelo://app?vid=21cfacd0-8fc8-454a-8a3f-d36bcdb61b05"},"vehicle_type_id":"4","last_reported":1742144877,"current_range_meters":4400,"station_id":"","pricing_plan_id":"cebpf4jnsgd1na2vs0mg"},{"bike_id":"4c8de1ff-df9f-4e6d-be88-dd4efa282e7c","system_id":"levelo_inurba_marseille","lat":43.25861,"lon":5.38906,"is_reserved":false,"is_disabled":false,"rental_uris":{"android":"levelo://app?vid=4c8de1ff-df9f-4e6d-be88-dd4efa282e7c","ios":"levelo://app?vid=4c8de1ff-df9f-4e6d-be88-dd4efa282e7c"},"vehicle_type_id":"4","last_reported":1742144877,"current_range_meters":4400,"station_id":"","pricing_plan_id":"cebpf4jnsgd1na2vs0mg"},{"bike_id":"bf1dcd3f-6c6c-4132-bd89-dd7a93f1f7a4","system_id":"levelo_inurba_marseille","lat":43.26805,"lon":5.40257,"is_reserved":false,"is_disabled":false,"rental_uris":{"android":"levelo://app?vid=bf1dcd3f-6c6c-4132-bd89-dd7a93f1f7a4","ios":"levelo://app?vid=bf1dcd3f-6c6c-4132-bd89-dd7a93f1f7a4"},"vehicle_type_id":"4","last_reported":1742144877,"current_range_meters":4400,"station_id":"ce501612rcd8frsf0b60","pricing_plan_id":"cebpf4jnsgd1na2vs0mg"},{"bike_id":"587bd921-2f7a-4bb8-9d30-5acc96bdbd70","system_id":"levelo_inurba_marseille","lat":43.29626,"lon":5.38098,"is_reserved":false,"is_disabled":false,"rental_uris":{"android":"levelo://app?vid=587bd921-2f7a-4bb8-9d30-5acc96bdbd70","ios":"levelo://app?vid=587bd921-2f7a-4bb8-9d30-5acc96bdbd70"},"vehicle_type_id":"4","last_reported":1742144877,"current_range_meters":4400,"station_id":"ce4bgl12rcd13ifvqbo0","pricing_plan_id":"cebpf4jnsgd1na2vs0mg"},{"bike_id":"3aca5665-c652-4adf-81ca-a3904d2dfa1f","system_id":"levelo_inurba_marseille","lat":43.24815,"lon":5.37407,"is_reserved":false,"is_disabled":false,"rental_uris":{"android":"levelo://app?vid=3aca5665-c652-4adf-81ca-a3904d2dfa1f","ios":"levelo://app?vid=3aca5665-c652-4adf-81ca-a3904d2dfa1f"},"vehicle_type_id":"4","last_reported":1742144877,"current_range_meters":4400,"station_id":"ce4bhgh2rcd13ifvqfb0","pricing_plan_id":"cebpf4jnsgd1na2vs0mg"},{"bike_id":"76c7502e-962a-47ef-b326-ecb039124e10","system_id":"levelo_inurba_marseille","lat":43.31993,"lon":5.38163,"is_reserved":false,"is_disabled":false,"rental_uris":{"android":"levelo://app?vid=76c7502e-962a-47ef-b326-ecb039124e10","ios":"levelo://app?vid=76c7502e-962a-47ef-b326-ecb039124e10"},"vehicle_type_id":"4","last_reported":1742144877,"current_range_meters":4400,"station_id":"ce4bhr12rcd13ifvqhpg","pricing_plan_id":"cebpf4jnsgd1na2vs0mg"},{"bike_id":"b418b370-4ec4-4d97-8ccd-56fe7a9af5c9","system_id":"levelo_inurba_marseille","lat":43.26223,"lon":5.40446,"is_reserved":false,"is_disabled":false,"rental_uris":{"android":"levelo://app?vid=b418b370-4ec4-4d97-8ccd-56fe7a9af5c9","ios":"levelo://app?vid=b418b370-4ec4-4d97-8ccd-56fe7a9af5c9"},"vehicle_type_id":"4","last_reported":1742144877,"current_range_meters":4400,"station_id":"ce4bhmh2rcd13ifvqgmg","pricing_plan_id":"cebpf4jnsgd1na2vs0mg"},{"bike_id":"c37fdf27-163a-48d9-a92a-f2ce8ea96ca9","system_id":"levelo_inurba_marseille","lat":43.29102,"lon":5.40388,"is_reserved":false,"is_disabled":false,"rental_uris":{"android":"levelo://app?vid=c37fdf27-163a-48d9-a92a-f2ce8ea96ca9","ios":"levelo://app?vid=c37fdf27-163a-48d9-a92a-f2ce8ea96ca9"},"vehicle_type_id":"4","last_reported":1742144877,"current_range_meters":4400,"station_id":"","pricing_plan_id":"cebpf4jnsgd1na2vs0mg"},{"bike_id":"832d4ee6-23fb-4c75-9bc5-6a2d919c8c55","system_id":"levelo_inurba_marseille","lat":43.25922,"lon":5.40912,"is_reserved":false,"is_disabled":false,"rental_uris":{"android":"levelo://app?vid=832d4ee6-23fb-4c75-9bc5-6a2d919c8c55","ios":"levelo://app?vid=832d4ee6-23fb-4c75-9bc5-6a2d919c8c55"},"vehicle_type_id":"4","last_reported":1742144877,"current_range_meters":4400,"station_id":"ce4bhm92rcd13ifvqglg","pricing_plan_id":"cebpf4jnsgd1na2vs0mg"},{"bike_id":"b5af50c1-2d4c-44ef-96dd-f7ba52ebb635","system_id":"levelo_inurba_marseille","lat":43.27372,"lon":5.36259,"is_reserved":false,"is_disabled":false,"rental_uris":{"android":"levelo://app?vid=b5af50c1-2d4c-44ef-96dd-f7ba52ebb635","ios":"levelo://app?vid=b5af50c1-2d4c-44ef-96dd-f7ba52ebb635"},"vehicle_type_id":"4","last_reported":1742144877,"current_range_meters":4800,"station_id":"ce4bhbh2rcd13ifvqeo0","pricing_plan_id":"cebpf4jnsgd1na2vs0mg"},{"bike_id":"aa795381-5174-4265-abe3-ddbff84516c8","system_id":"levelo_inurba_marseille","lat":43.30143,"lon":5.37413,"is_reserved":false,"is_disabled":true,"rental_uris":{"android":"levelo://app?vid=aa795381-5174-4265-abe3-ddbff84516c8","ios":"levelo://app?vid=aa795381-5174-4265-abe3-ddbff84516c8"},"vehicle_type_id":"4","last_reported":1742144877,"current_range_meters":4800,"station_id":"ce4bgs92rcd13ifvqcc0","pricing_plan_id":"cebpf4jnsgd1na2vs0mg"},{"bike_id":"886bb3d3-11f5-46a3-8dc4-eb1474bccf94","system_id":"levelo_inurba_marseille","lat":43.28074,"lon":5.39656,"is_reserved":false,"is_disabled":false,"rental_uris":{"android":"levelo://app?vid=886bb3d3-11f5-46a3-8dc4-eb1474bccf94","ios":"levelo://app?vid=886bb3d3-11f5-46a3-8dc4-eb1474bccf94"},"vehicle_type_id":"4","last_reported":1742144877,"current_range_meters":4800,"station_id":"ce4bho12rcd13ifvqh2g","pricing_plan_id":"cebpf4jnsgd1na2vs0mg"},{"bike_id":"c9b70be3-e1be-4342-97a3-3c1c576b659b","system_id":"levelo_inurba_marseille","lat":43.27077,"lon":5.42283,"is_reserved":false,"is_disabled":false,"rental_uris":{"android":"levelo://app?vid=c9b70be3-e1be-4342-97a3-3c1c576b659b","ios":"levelo://app?vid=c9b70be3-e1be-4342-97a3-3c1c576b659b"},"vehicle_type_id":"4","last_reported":1742144877,"current_range_meters":4800,"station_id":"ce4bhk92rcd13ifvqgb0","pricing_plan_id":"cebpf4jnsgd1na2vs0mg"},{"bike_id":"d9d6a01f-bc28-4ac7-844b-18a4b2e0e17a","system_id":"levelo_inurba_marseille","lat":43.27372,"lon":5.36258,"is_reserved":false,"is_disabled":false,"rental_uris":{"android":"levelo://app?vid=d9d6a01f-bc28-4ac7-844b-18a4b2e0e17a","ios":"levelo://app?vid=d9d6a01f-bc28-4ac7-844b-18a4b2e0e17a"},"vehicle_type_id":"4","last_reported":1742144877,"current_range_meters":4800,"station_id":"ce4bhbh2rcd13ifvqeo0","pricing_plan_id":"cebpf4jnsgd1na2vs0mg"},{"bike_id":"385ae15c-2c3c-4490-a507-5eb20fb883a5","system_id":"levelo_inurba_marseille","lat":43.25948,"lon":5.40892,"is_reserved":false,"is_disabled":false,"rental_uris":{"android":"levelo://app?vid=385ae15c-2c3c-4490-a507-5eb20fb883a5","ios":"levelo://app?vid=385ae15c-2c3c-4490-a507-5eb20fb883a5"},"vehicle_type_id":"4","last_reported":1742144877,"current_range_meters":4800,"station_id":"ce4bhm92rcd13ifvqglg","pricing_plan_id":"cebpf4jnsgd1na2vs0mg"},{"bike_id":"6f143c5b-933e-4a51-97d8-72a3705988b8","system_id":"levelo_inurba_marseille","lat":43.32234,"lon":5.37956,"is_reserved":false,"is_disabled":false,"rental_uris":{"android":"levelo://app?vid=6f143c5b-933e-4a51-97d8-72a3705988b8","ios":"levelo://app?vid=6f143c5b-933e-4a51-97d8-72a3705988b8"},"vehicle_type_id":"4","last_reported":1742144877,"current_range_meters":4800,"station_id":"","pricing_plan_id":"cebpf4jnsgd1na2vs0mg"},{"bike_id":"68545a1a-af98-4868-aeae-76b3e229c971","system_id":"levelo_inurba_marseille","lat":43.29968,"lon":5.38492,"is_reserved":false,"is_disabled":false,"rental_uris":{"android":"levelo://app?vid=68545a1a-af98-4868-aeae-76b3e229c971","ios":"levelo://app?vid=68545a1a-af98-4868-aeae-76b3e229c971"},"vehicle_type_id":"4","last_reported":1742144877,"current_range_meters":6800,"station_id":"ce4bgj92rcd13ifvqbd0","pricing_plan_id":"cebpf4jnsgd1na2vs0mg"},{"bike_id":"a51e83ee-53b4-4965-b5bb-694ae883e860","system_id":"levelo_inurba_marseille","lat":43.26207,"lon":5.37448,"is_reserved":false,"is_disabled":true,"rental_uris":{"android":"levelo://app?vid=a51e83ee-53b4-4965-b5bb-694ae883e860","ios":"levelo://app?vid=a51e83ee-53b4-4965-b5bb-694ae883e860"},"vehicle_type_id":"4","last_reported":1742144877,"current_range_meters":5600,"station_id":"ce4bhgp2rcd13ifvqfc0","pricing_plan_id":"cebpf4jnsgd1na2vs0mg"},{"bike_id":"22f1ff18-0132-4946-a97a-a47e6f70a6ed","system_id":"levelo_inurba_marseille","lat":43.22923,"lon":5.35373,"is_reserved":false,"is_disabled":false,"rental_uris":{"android":"levelo://app?vid=22f1ff18-0132-4946-a97a-a47e6f70a6ed","ios":"levelo://app?vid=22f1ff18-0132-4946-a97a-a47e6f70a6ed"},"vehicle_type_id":"4","last_reported":1742144877,"current_range_meters":5600,"station_id":"cpo3532slgdg3j2ikp40","pricing_plan_id":"cebpf4jnsgd1na2vs0mg"},{"bike_id":"de58dd31-693f-47f2-989e-fb410b10fcad","system_id":"levelo_inurba_marseille","lat":43.23214,"lon":5.3998,"is_reserved":false,"is_disabled":false,"rental_uris":{"android":"levelo://app?vid=de58dd31-693f-47f2-989e-fb410b10fcad","ios":"levelo://app?vid=de58dd31-693f-47f2-989e-fb410b10fcad"},"vehicle_type_id":"4","last_reported":1742144877,"current_range_meters":5600,"station_id":"ce4bhn12rcd13ifvqgqg","pricing_plan_id":"cebpf4jnsgd1na2vs0mg"},{"bike_id":"bdb4bfb1-14a4-46ff-b216-5b3cb0ddf95f","system_id":"levelo_inurba_marseille","lat":43.29572,"lon":5.39979,"is_reserved":false,"is_disabled":true,"rental_uris":{"android":"levelo://app?vid=bdb4bfb1-14a4-46ff-b216-5b3cb0ddf95f","ios":"levelo://app?vid=bdb4bfb1-14a4-46ff-b216-5b3cb0ddf95f"},"vehicle_type_id":"4","last_reported":1742144877,"current_range_meters":5600,"station_id":"ce4bh312rcd13ifvqdj0","pricing_plan_id":"cebpf4jnsgd1na2vs0mg"},{"bike_id":"1999cecf-f38c-4961-9580-ef6a50d3e0be","system_id":"levelo_inurba_marseille","lat":43.24155,"lon":5.36421,"is_reserved":false,"is_disabled":false,"rental_uris":{"android":"levelo://app?vid=1999cecf-f38c-4961-9580-ef6a50d3e0be","ios":"levelo://app?vid=1999cecf-f38c-4961-9580-ef6a50d3e0be"},"vehicle_type_id":"4","last_reported":1742144877,"current_range_meters":5600,"station_id":"cpo36qri1sfpv3e86is0","pricing_plan_id":"cebpf4jnsgd1na2vs0mg"},{"bike_id":"34456623-a67f-4e4a-842b-533cd6e33517","system_id":"levelo_inurba_marseille","lat":43.27617,"lon":5.36118,"is_reserved":false,"is_disabled":false,"rental_uris":{"android":"levelo://app?vid=34456623-a67f-4e4a-842b-533cd6e33517","ios":"levelo://app?vid=34456623-a67f-4e4a-842b-533cd6e33517"},"vehicle_type_id":"4","last_reported":1742144877,"current_range_meters":5600,"station_id":"ce4bgj92rcd13ifvqbe0","pricing_plan_id":"cebpf4jnsgd1na2vs0mg"},{"bike_id":"8ac36ff0-95fa-4664-8e37-a03afd0a16e1","system_id":"levelo_inurba_marseille","lat":43.28975,"lon":5.37831,"is_reserved":false,"is_disabled":true,"rental_uris":{"android":"levelo://app?vid=8ac36ff0-95fa-4664-8e37-a03afd0a16e1","ios":"levelo://app?vid=8ac36ff0-95fa-4664-8e37-a03afd0a16e1"},"vehicle_type_id":"4","last_reported":1742144877,"current_range_meters":5600,"station_id":"","pricing_plan_id":"cebpf4jnsgd1na2vs0mg"},{"bike_id":"42860523-37b4-4906-9d96-cc4e81633254","system_id":"levelo_inurba_marseille","lat":43.29985,"lon":5.38514,"is_reserved":false,"is_disabled":false,"rental_uris":{"android":"levelo://app?vid=42860523-37b4-4906-9d96-cc4e81633254","ios":"levelo://app?vid=42860523-37b4-4906-9d96-cc4e81633254"},"vehicle_type_id":"4","last_reported":1742144877,"current_range_meters":5600,"station_id":"ce4bgj92rcd13ifvqbd0","pricing_plan_id":"cebpf4jnsgd1na2vs0mg"},{"bike_id":"d7d737d2-791a-4996-a8dd-390e966f8cf5","system_id":"levelo_inurba_marseille","lat":43.28352,"lon":5.38097,"is_reserved":false,"is_disabled":false,"rental_uris":{"android":"levelo://app?vid=d7d737d2-791a-4996-a8dd-390e966f8cf5","ios":"levelo://app?vid=d7d737d2-791a-4996-a8dd-390e966f8cf5"},"vehicle_type_id":"4","last_reported":1742144877,"current_range_meters":6000,"station_id":"ce4bh412rcd13ifvqdr0","pricing_plan_id":"cebpf4jnsgd1na2vs0mg"},{"bike_id":"93b25774-360c-4172-8115-c211c035424b","system_id":"levelo_inurba_marseille","lat":43.292823,"lon":5.401233,"is_reserved":false,"is_disabled":false,"rental_uris":{"android":"levelo://app?vid=93b25774-360c-4172-8115-c211c035424b","ios":"levelo://app?vid=93b25774-360c-4172-8115-c211c035424b"},"vehicle_type_id":"4","last_reported":1742144877,"current_range_meters":6000,"station_id":"ce4bh312rcd13ifvqdk0","pricing_plan_id":"cebpf4jnsgd1na2vs0mg"},{"bike_id":"b7032d54-acb2-4146-a727-5663dbeb4009","system_id":"levelo_inurba_marseille","lat":43.23189,"lon":5.39973,"is_reserved":false,"is_disabled":false,"rental_uris":{"android":"levelo://app?vid=b7032d54-acb2-4146-a727-5663dbeb4009","ios":"levelo://app?vid=b7032d54-acb2-4146-a727-5663dbeb4009"},"vehicle_type_id":"4","last_reported":1742144877,"current_range_meters":6000,"station_id":"ce4bhn12rcd13ifvqgqg","pricing_plan_id":"cebpf4jnsgd1na2vs0mg"},{"bike_id":"e28ff5df-59fc-4a9e-b133-e51d322b5876","system_id":"levelo_inurba_marseille","lat":43.28918,"lon":5.3839,"is_reserved":false,"is_disabled":false,"rental_uris":{"android":"levelo://app?vid=e28ff5df-59fc-4a9e-b133-e51d322b5876","ios":"levelo://app?vid=e28ff5df-59fc-4a9e-b133-e51d322b5876"},"vehicle_type_id":"4","last_reported":1742144877,"current_range_meters":6000,"station_id":"ce4bh612rcd13ifvqe6g","pricing_plan_id":"cebpf4jnsgd1na2vs0mg"},{"bike_id":"c094ae4a-ba50-432b-98ea-3ae41a8c4d94","system_id":"levelo_inurba_marseille","lat":43.26496,"lon":5.39539,"is_reserved":false,"is_disabled":false,"rental_uris":{"android":"levelo://app?vid=c094ae4a-ba50-432b-98ea-3ae41a8c4d94","ios":"levelo://app?vid=c094ae4a-ba50-432b-98ea-3ae41a8c4d94"},"vehicle_type_id":"4","last_reported":1742144877,"current_range_meters":6000,"station_id":"ce4bhi12rcd13ifvqfq0","pricing_plan_id":"cebpf4jnsgd1na2vs0mg"},{"bike_id":"e0834956-e6d7-4bc3-862d-e76e3f887cbb","system_id":"levelo_inurba_marseille","lat":43.23057,"lon":5.35495,"is_reserved":false,"is_disabled":false,"rental_uris":{"android":"levelo://app?vid=e0834956-e6d7-4bc3-862d-e76e3f887cbb","ios":"levelo://app?vid=e0834956-e6d7-4bc3-862d-e76e3f887cbb"},"vehicle_type_id":"4","last_reported":1742144877,"current_range_meters":6000,"station_id":"cpo3342slgdg3j2ifvpg","pricing_plan_id":"cebpf4jnsgd1na2vs0mg"},{"bike_id":"bcdf70d1-98e2-46b2-86dd-446d83cd787c","system_id":"levelo_inurba_marseille","lat":43.26572,"lon":5.39009,"is_reserved":false,"is_disabled":false,"rental_uris":{"android":"levelo://app?vid=bcdf70d1-98e2-46b2-86dd-446d83cd787c","ios":"levelo://app?vid=bcdf70d1-98e2-46b2-86dd-446d83cd787c"},"vehicle_type_id":"4","last_reported":1742144877,"current_range_meters":6000,"station_id":"ce4bhe12rcd13ifvqf30","pricing_plan_id":"cebpf4jnsgd1na2vs0mg"},{"bike_id":"be5919eb-7ab5-4a86-8b60-4fa590fe1b50","system_id":"levelo_inurba_marseille","lat":43.2737,"lon":5.36256,"is_reserved":false,"is_disabled":false,"rental_uris":{"android":"levelo://app?vid=be5919eb-7ab5-4a86-8b60-4fa590fe1b50","ios":"levelo://app?vid=be5919eb-7ab5-4a86-8b60-4fa590fe1b50"},"vehicle_type_id":"4","last_reported":1742144877,"current_range_meters":6400,"station_id":"ce4bhbh2rcd13ifvqeo0","pricing_plan_id":"cebpf4jnsgd1na2vs0mg"},{"bike_id":"3933fdbd-0903-47b9-b1c0-1a042d5ac911","system_id":"levelo_inurba_marseille","lat":43.28341,"lon":5.381,"is_reserved":false,"is_disabled":false,"rental_uris":{"android":"levelo://app?vid=3933fdbd-0903-47b9-b1c0-1a042d5ac911","ios":"levelo://app?vid=3933fdbd-0903-47b9-b1c0-1a042d5ac911"},"vehicle_type_id":"4","last_reported":1742144877,"current_range_meters":6400,"station_id":"ce4bh412rcd13ifvqdr0","pricing_plan_id":"cebpf4jnsgd1na2vs0mg"},{"bike_id":"1ac0ebad-6828-4242-99b2-14a9f8209f79","system_id":"levelo_inurba_marseille","lat":43.23193,"lon":5.35552,"is_reserved":false,"is_disabled":false,"rental_uris":{"android":"levelo://app?vid=1ac0ebad-6828-4242-99b2-14a9f8209f79","ios":"levelo://app?vid=1ac0ebad-6828-4242-99b2-14a9f8209f79"},"vehicle_type_id":"4","last_reported":1742144877,"current_range_meters":6400,"station_id":"ce4bhu92rcd13ifvqi70","pricing_plan_id":"cebpf4jnsgd1na2vs0mg"},{"bike_id":"82465aa7-55ed-4055-9cc8-5fdee15ebdd8","system_id":"levelo_inurba_marseille","lat":43.27625,"lon":5.41844,"is_reserved":false,"is_disabled":false,"rental_uris":{"android":"levelo://app?vid=82465aa7-55ed-4055-9cc8-5fdee15ebdd8","ios":"levelo://app?vid=82465aa7-55ed-4055-9cc8-5fdee15ebdd8"},"vehicle_type_id":"4","last_reported":1742144877,"current_range_meters":6800,"station_id":"","pricing_plan_id":"cebpf4jnsgd1na2vs0mg"},{"bike_id":"e82aa7a0-ceb0-4ca6-ba80-1c125c8501d9","system_id":"levelo_inurba_marseille","lat":43.26932,"lon":5.40263,"is_reserved":false,"is_disabled":false,"rental_uris":{"android":"levelo://app?vid=e82aa7a0-ceb0-4ca6-ba80-1c125c8501d9","ios":"levelo://app?vid=e82aa7a0-ceb0-4ca6-ba80-1c125c8501d9"},"vehicle_type_id":"4","last_reported":1742144877,"current_range_meters":6400,"station_id":"cjm6bp8fraef2m0cb0m0","pricing_plan_id":"cebpf4jnsgd1na2vs0mg"},{"bike_id":"897cfbea-5d3b-4b99-b142-c84dc180122a","system_id":"levelo_inurba_marseille","lat":43.23192,"lon":5.35548,"is_reserved":false,"is_disabled":false,"rental_uris":{"android":"levelo://app?vid=897cfbea-5d3b-4b99-b142-c84dc180122a","ios":"levelo://app?vid=897cfbea-5d3b-4b99-b142-c84dc180122a"},"vehicle_type_id":"4","last_reported":1742144877,"current_range_meters":6400,"station_id":"ce4bhu92rcd13ifvqi70","pricing_plan_id":"cebpf4jnsgd1na2vs0mg"},{"bike_id":"b614f100-11d7-4ef9-8f84-7c5dea0b786b","system_id":"levelo_inurba_marseille","lat":43.26957,"lon":5.40292,"is_reserved":false,"is_disabled":false,"rental_uris":{"android":"levelo://app?vid=b614f100-11d7-4ef9-8f84-7c5dea0b786b","ios":"levelo://app?vid=b614f100-11d7-4ef9-8f84-7c5dea0b786b"},"vehicle_type_id":"4","last_reported":1742144877,"current_range_meters":6400,"station_id":"cjm6bp8fraef2m0cb0m0","pricing_plan_id":"cebpf4jnsgd1na2vs0mg"},{"bike_id":"ae25fe52-db37-435e-90b0-0d9ecc4e1c43","system_id":"levelo_inurba_marseille","lat":43.27855,"lon":5.39189,"is_reserved":false,"is_disabled":false,"rental_uris":{"android":"levelo://app?vid=ae25fe52-db37-435e-90b0-0d9ecc4e1c43","ios":"levelo://app?vid=ae25fe52-db37-435e-90b0-0d9ecc4e1c43"},"vehicle_type_id":"4","last_reported":1742144877,"current_range_meters":6400,"station_id":"ce4bhjp2rcd13ifvqga0","pricing_plan_id":"cebpf4jnsgd1na2vs0mg"},{"bike_id":"dd182e57-b3d9-48e3-89a2-28bf83a93f45","system_id":"levelo_inurba_marseille","lat":43.30306,"lon":5.36888,"is_reserved":false,"is_disabled":false,"rental_uris":{"android":"levelo://app?vid=dd182e57-b3d9-48e3-89a2-28bf83a93f45","ios":"levelo://app?vid=dd182e57-b3d9-48e3-89a2-28bf83a93f45"},"vehicle_type_id":"4","last_reported":1742144877,"current_range_meters":6400,"station_id":"ce4bgqh2rcd13ifvqc5g","pricing_plan_id":"cebpf4jnsgd1na2vs0mg"},{"bike_id":"6a17c8a3-36bd-4696-a0fc-0040c3f1f89c","system_id":"levelo_inurba_marseille","lat":43.29061,"lon":5.38145,"is_reserved":false,"is_disabled":false,"rental_uris":{"android":"levelo://app?vid=6a17c8a3-36bd-4696-a0fc-0040c3f1f89c","ios":"levelo://app?vid=6a17c8a3-36bd-4696-a0fc-0040c3f1f89c"},"vehicle_type_id":"4","last_reported":1742144877,"current_range_meters":6400,"station_id":"ce4bh512rcd13ifvqe2g","pricing_plan_id":"cebpf4jnsgd1na2vs0mg"},{"bike_id":"6c001d2e-b208-4ff5-a256-643169f0701b","system_id":"levelo_inurba_marseille","lat":43.23073,"lon":5.35508,"is_reserved":false,"is_disabled":false,"rental_uris":{"android":"levelo://app?vid=6c001d2e-b208-4ff5-a256-643169f0701b","ios":"levelo://app?vid=6c001d2e-b208-4ff5-a256-643169f0701b"},"vehicle_type_id":"4","last_reported":1742144877,"current_range_meters":6400,"station_id":"cpo3342slgdg3j2ifvpg","pricing_plan_id":"cebpf4jnsgd1na2vs0mg"},{"bike_id":"63a6c4c3-ab97-4feb-9cef-a031639cc206","system_id":"levelo_inurba_marseille","lat":43.29793,"lon":5.38112,"is_reserved":false,"is_disabled":false,"rental_uris":{"android":"levelo://app?vid=63a6c4c3-ab97-4feb-9cef-a031639cc206","ios":"levelo://app?vid=63a6c4c3-ab97-4feb-9cef-a031639cc206"},"vehicle_type_id":"4","last_reported":1742144877,"current_range_meters":6400,"station_id":"ce4bgip2rcd13ifvqbb0","pricing_plan_id":"cebpf4jnsgd1na2vs0mg"},{"bike_id":"fe020bfa-64ae-4da0-8f39-83387796e674","system_id":"levelo_inurba_marseille","lat":43.292033,"lon":5.40895,"is_reserved":false,"is_disabled":false,"rental_uris":{"android":"levelo://app?vid=fe020bfa-64ae-4da0-8f39-83387796e674","ios":"levelo://app?vid=fe020bfa-64ae-4da0-8f39-83387796e674"},"vehicle_type_id":"4","last_reported":1742144877,"current_range_meters":12400,"station_id":"ce4bh192rcd13ifvqdc0","pricing_plan_id":"cebpf4jnsgd1na2vs0mg"},{"bike_id":"26ec45d2-b991-464c-99b8-c3029ea5c960","system_id":"levelo_inurba_marseille","lat":43.28471,"lon":5.38432,"is_reserved":false,"is_disabled":true,"rental_uris":{"android":"levelo://app?vid=26ec45d2-b991-464c-99b8-c3029ea5c960","ios":"levelo://app?vid=26ec45d2-b991-464c-99b8-c3029ea5c960"},"vehicle_type_id":"4","last_reported":1742144877,"current_range_meters":6400,"station_id":"ce4bh512rcd13ifvqe3g","pricing_plan_id":"cebpf4jnsgd1na2vs0mg"},{"bike_id":"df0fd6a4-d586-41d5-bcd7-a06480a7af83","system_id":"levelo_inurba_marseille","lat":43.23204,"lon":5.39991,"is_reserved":false,"is_disabled":false,"rental_uris":{"android":"levelo://app?vid=df0fd6a4-d586-41d5-bcd7-a06480a7af83","ios":"levelo://app?vid=df0fd6a4-d586-41d5-bcd7-a06480a7af83"},"vehicle_type_id":"4","last_reported":1742144877,"current_range_meters":6800,"station_id":"ce4bhn12rcd13ifvqgqg","pricing_plan_id":"cebpf4jnsgd1na2vs0mg"},{"bike_id":"676e66c6-8e50-404c-b512-5f94c7d6a8fc","system_id":"levelo_inurba_marseille","lat":43.2416,"lon":5.36434,"is_reserved":false,"is_disabled":false,"rental_uris":{"android":"levelo://app?vid=676e66c6-8e50-404c-b512-5f94c7d6a8fc","ios":"levelo://app?vid=676e66c6-8e50-404c-b512-5f94c7d6a8fc"},"vehicle_type_id":"4","last_reported":1742144877,"current_range_meters":6800,"station_id":"cpo36qri1sfpv3e86is0","pricing_plan_id":"cebpf4jnsgd1na2vs0mg"},{"bike_id":"457851a0-fcba-485d-9727-230994d987ce","system_id":"levelo_inurba_marseille","lat":43.29521,"lon":5.39396,"is_reserved":false,"is_disabled":true,"rental_uris":{"android":"levelo://app?vid=457851a0-fcba-485d-9727-230994d987ce","ios":"levelo://app?vid=457851a0-fcba-485d-9727-230994d987ce"},"vehicle_type_id":"4","last_reported":1742144877,"current_range_meters":6800,"station_id":"ce4bh292rcd13ifvqdf0","pricing_plan_id":"cebpf4jnsgd1na2vs0mg"},{"bike_id":"61fb2c16-e579-4769-a2f4-889b1f59f209","system_id":"levelo_inurba_marseille","lat":43.3032,"lon":5.369,"is_reserved":false,"is_disabled":false,"rental_uris":{"android":"levelo://app?vid=61fb2c16-e579-4769-a2f4-889b1f59f209","ios":"levelo://app?vid=61fb2c16-e579-4769-a2f4-889b1f59f209"},"vehicle_type_id":"4","last_reported":1742144877,"current_range_meters":6800,"station_id":"ce4bgqh2rcd13ifvqc5g","pricing_plan_id":"cebpf4jnsgd1na2vs0mg"},{"bike_id":"0b7bfdb8-fd03-4687-9225-8085184f929c","system_id":"levelo_inurba_marseille","lat":43.32355,"lon":5.3676,"is_reserved":false,"is_disabled":false,"rental_uris":{"android":"levelo://app?vid=0b7bfdb8-fd03-4687-9225-8085184f929c","ios":"levelo://app?vid=0b7bfdb8-fd03-4687-9225-8085184f929c"},"vehicle_type_id":"4","last_reported":1742144877,"current_range_meters":6800,"station_id":"ce4bhsh2rcd13ifvqi2g","pricing_plan_id":"cebpf4jnsgd1na2vs0mg"},{"bike_id":"e52b41b5-52df-4c67-a85c-3cebb3bf7504","system_id":"levelo_inurba_marseille","lat":43.32356,"lon":5.36761,"is_reserved":false,"is_disabled":false,"rental_uris":{"android":"levelo://app?vid=e52b41b5-52df-4c67-a85c-3cebb3bf7504","ios":"levelo://app?vid=e52b41b5-52df-4c67-a85c-3cebb3bf7504"},"vehicle_type_id":"4","last_reported":1742144877,"current_range_meters":6800,"station_id":"ce4bhsh2rcd13ifvqi2g","pricing_plan_id":"cebpf4jnsgd1na2vs0mg"},{"bike_id":"8ddd42b9-729c-42ab-9baf-1371ab374db4","system_id":"levelo_inurba_marseille","lat":43.29101,"lon":5.38143,"is_reserved":false,"is_disabled":false,"rental_uris":{"android":"levelo://app?vid=8ddd42b9-729c-42ab-9baf-1371ab374db4","ios":"levelo://app?vid=8ddd42b9-729c-42ab-9baf-1371ab374db4"},"vehicle_type_id":"4","last_reported":1742144877,"current_range_meters":6800,"station_id":"ce4bh512rcd13ifvqe2g","pricing_plan_id":"cebpf4jnsgd1na2vs0mg"},{"bike_id":"7dd769be-a96c-41b3-8a44-6973fc831e5b","system_id":"levelo_inurba_marseille","lat":43.25491,"lon":5.37647,"is_reserved":false,"is_disabled":true,"rental_uris":{"android":"levelo://app?vid=7dd769be-a96c-41b3-8a44-6973fc831e5b","ios":"levelo://app?vid=7dd769be-a96c-41b3-8a44-6973fc831e5b"},"vehicle_type_id":"4","last_reported":1742144877,"current_range_meters":6800,"station_id":"ce4bhh12rcd13ifvqff0","pricing_plan_id":"cebpf4jnsgd1na2vs0mg"},{"bike_id":"71d6b220-48b3-44b0-9feb-d7bbfca6b232","system_id":"levelo_inurba_marseille","lat":43.25511,"lon":5.37664,"is_reserved":false,"is_disabled":true,"rental_uris":{"android":"levelo://app?vid=71d6b220-48b3-44b0-9feb-d7bbfca6b232","ios":"levelo://app?vid=71d6b220-48b3-44b0-9feb-d7bbfca6b232"},"vehicle_type_id":"4","last_reported":1742144877,"current_range_meters":6800,"station_id":"ce4bhh12rcd13ifvqff0","pricing_plan_id":"cebpf4jnsgd1na2vs0mg"},{"bike_id":"9616bb7d-2e2f-41e6-abd7-2b8dd38dcca7","system_id":"levelo_inurba_marseille","lat":43.24814,"lon":5.3746,"is_reserved":false,"is_disabled":false,"rental_uris":{"android":"levelo://app?vid=9616bb7d-2e2f-41e6-abd7-2b8dd38dcca7","ios":"levelo://app?vid=9616bb7d-2e2f-41e6-abd7-2b8dd38dcca7"},"vehicle_type_id":"4","last_reported":1742144877,"current_range_meters":6800,"station_id":"ce4bhgh2rcd13ifvqfb0","pricing_plan_id":"cebpf4jnsgd1na2vs0mg"},{"bike_id":"efb53dda-871b-483c-8dec-e716116f9234","system_id":"levelo_inurba_marseille","lat":43.31078,"lon":5.36759,"is_reserved":false,"is_disabled":false,"rental_uris":{"android":"levelo://app?vid=efb53dda-871b-483c-8dec-e716116f9234","ios":"levelo://app?vid=efb53dda-871b-483c-8dec-e716116f9234"},"vehicle_type_id":"4","last_reported":1742144877,"current_range_meters":6800,"station_id":"","pricing_plan_id":"cebpf4jnsgd1na2vs0mg"},{"bike_id":"d56501ab-6560-4646-8b08-3c979ff2554c","system_id":"levelo_inurba_marseille","lat":43.28032,"lon":5.36946,"is_reserved":false,"is_disabled":false,"rental_uris":{"android":"levelo://app?vid=d56501ab-6560-4646-8b08-3c979ff2554c","ios":"levelo://app?vid=d56501ab-6560-4646-8b08-3c979ff2554c"},"vehicle_type_id":"4","last_reported":1742144877,"current_range_meters":6800,"station_id":"ce4bha12rcd13ifvqef0","pricing_plan_id":"cebpf4jnsgd1na2vs0mg"},{"bike_id":"07d4883b-3186-46e9-8385-e502e1d9c150","system_id":"levelo_inurba_marseille","lat":43.2621,"lon":5.37441,"is_reserved":false,"is_disabled":false,"rental_uris":{"android":"levelo://app?vid=07d4883b-3186-46e9-8385-e502e1d9c150","ios":"levelo://app?vid=07d4883b-3186-46e9-8385-e502e1d9c150"},"vehicle_type_id":"4","last_reported":1742144877,"current_range_meters":0,"station_id":"ce4bhgp2rcd13ifvqfc0","pricing_plan_id":"cebpf4jnsgd1na2vs0mg"},{"bike_id":"bc599ddd-913f-4b1f-99d0-624a383c0993","system_id":"levelo_inurba_marseille","lat":43.27362,"lon":5.36227,"is_reserved":false,"is_disabled":false,"rental_uris":{"android":"levelo://app?vid=bc599ddd-913f-4b1f-99d0-624a383c0993","ios":"levelo://app?vid=bc599ddd-913f-4b1f-99d0-624a383c0993"},"vehicle_type_id":"4","last_reported":1742144877,"current_range_meters":6800,"station_id":"ce4bhbh2rcd13ifvqeo0","pricing_plan_id":"cebpf4jnsgd1na2vs0mg"},{"bike_id":"b8167231-4dc2-4847-88cb-fa6a733814a0","system_id":"levelo_inurba_marseille","lat":43.29305,"lon":5.40158,"is_reserved":false,"is_disabled":false,"rental_uris":{"android":"levelo://app?vid=b8167231-4dc2-4847-88cb-fa6a733814a0","ios":"levelo://app?vid=b8167231-4dc2-4847-88cb-fa6a733814a0"},"vehicle_type_id":"4","last_reported":1742144877,"current_range_meters":7200,"station_id":"","pricing_plan_id":"cebpf4jnsgd1na2vs0mg"},{"bike_id":"68f3bcfe-e20f-4ad8-9579-f569150feb8a","system_id":"levelo_inurba_marseille","lat":43.27626,"lon":5.36103,"is_reserved":false,"is_disabled":false,"rental_uris":{"android":"levelo://app?vid=68f3bcfe-e20f-4ad8-9579-f569150feb8a","ios":"levelo://app?vid=68f3bcfe-e20f-4ad8-9579-f569150feb8a"},"vehicle_type_id":"4","last_reported":1742144877,"current_range_meters":7200,"station_id":"ce4bgj92rcd13ifvqbe0","pricing_plan_id":"cebpf4jnsgd1na2vs0mg"},{"bike_id":"6cff3099-fc62-4212-a5e6-1cc54ed7cc41","system_id":"levelo_inurba_marseille","lat":43.25012,"lon":5.38936,"is_reserved":false,"is_disabled":false,"rental_uris":{"android":"levelo://app?vid=6cff3099-fc62-4212-a5e6-1cc54ed7cc41","ios":"levelo://app?vid=6cff3099-fc62-4212-a5e6-1cc54ed7cc41"},"vehicle_type_id":"4","last_reported":1742144877,"current_range_meters":7200,"station_id":"ce4bhgp2rcd13ifvqfd0","pricing_plan_id":"cebpf4jnsgd1na2vs0mg"},{"bike_id":"c5a46537-4ff6-494f-a624-e3ee32ebcac2","system_id":"levelo_inurba_marseille","lat":43.25582,"lon":5.38235,"is_reserved":false,"is_disabled":false,"rental_uris":{"android":"levelo://app?vid=c5a46537-4ff6-494f-a624-e3ee32ebcac2","ios":"levelo://app?vid=c5a46537-4ff6-494f-a624-e3ee32ebcac2"},"vehicle_type_id":"4","last_reported":1742144877,"current_range_meters":7200,"station_id":"ce4bhih2rcd13ifvqfs0","pricing_plan_id":"cebpf4jnsgd1na2vs0mg"},{"bike_id":"e3acbff3-15e0-47b5-80be-e0b4d7c85f89","system_id":"levelo_inurba_marseille","lat":43.2396,"lon":5.36624,"is_reserved":false,"is_disabled":false,"rental_uris":{"android":"levelo://app?vid=e3acbff3-15e0-47b5-80be-e0b4d7c85f89","ios":"levelo://app?vid=e3acbff3-15e0-47b5-80be-e0b4d7c85f89"},"vehicle_type_id":"4","last_reported":1742144877,"current_range_meters":7200,"station_id":"ce4bhi12rcd13ifvqfp0","pricing_plan_id":"cebpf4jnsgd1na2vs0mg"},{"bike_id":"d378659a-b095-4d28-a820-d3bacca7d8f8","system_id":"levelo_inurba_marseille","lat":43.2762,"lon":5.36099,"is_reserved":false,"is_disabled":false,"rental_uris":{"android":"levelo://app?vid=d378659a-b095-4d28-a820-d3bacca7d8f8","ios":"levelo://app?vid=d378659a-b095-4d28-a820-d3bacca7d8f8"},"vehicle_type_id":"4","last_reported":1742144877,"current_range_meters":7200,"station_id":"ce4bgj92rcd13ifvqbe0","pricing_plan_id":"cebpf4jnsgd1na2vs0mg"},{"bike_id":"cd0d541a-1764-4cf5-a13b-010599433779","system_id":"levelo_inurba_marseille","lat":43.2784,"lon":5.39192,"is_reserved":false,"is_disabled":false,"rental_uris":{"android":"levelo://app?vid=cd0d541a-1764-4cf5-a13b-010599433779","ios":"levelo://app?vid=cd0d541a-1764-4cf5-a13b-010599433779"},"vehicle_type_id":"4","last_reported":1742144877,"current_range_meters":7200,"station_id":"ce4bhjp2rcd13ifvqga0","pricing_plan_id":"cebpf4jnsgd1na2vs0mg"},{"bike_id":"ca0098e1-b8e7-478d-9f14-c0056de32770","system_id":"levelo_inurba_marseille","lat":43.3064,"lon":5.40097,"is_reserved":false,"is_disabled":false,"rental_uris":{"android":"levelo://app?vid=ca0098e1-b8e7-478d-9f14-c0056de32770","ios":"levelo://app?vid=ca0098e1-b8e7-478d-9f14-c0056de32770"},"vehicle_type_id":"4","last_reported":1742144877,"current_range_meters":7200,"station_id":"ce4bgv12rcd13ifvqcp0","pricing_plan_id":"cebpf4jnsgd1na2vs0mg"},{"bike_id":"cd599479-cb87-429c-83a1-742e20b1c9d7","system_id":"levelo_inurba_marseille","lat":43.23187,"lon":5.39974,"is_reserved":false,"is_disabled":false,"rental_uris":{"android":"levelo://app?vid=cd599479-cb87-429c-83a1-742e20b1c9d7","ios":"levelo://app?vid=cd599479-cb87-429c-83a1-742e20b1c9d7"},"vehicle_type_id":"4","last_reported":1742144877,"current_range_meters":7200,"station_id":"ce4bhn12rcd13ifvqgqg","pricing_plan_id":"cebpf4jnsgd1na2vs0mg"},{"bike_id":"9625f194-a853-4767-bda8-0eedb08b2cb3","system_id":"levelo_inurba_marseille","lat":43.28723,"lon":5.40011,"is_reserved":false,"is_disabled":true,"rental_uris":{"android":"levelo://app?vid=9625f194-a853-4767-bda8-0eedb08b2cb3","ios":"levelo://app?vid=9625f194-a853-4767-bda8-0eedb08b2cb3"},"vehicle_type_id":"4","last_reported":1742144877,"current_range_meters":7200,"station_id":"ce4bho92rcd13ifvqh3g","pricing_plan_id":"cebpf4jnsgd1na2vs0mg"},{"bike_id":"46c6d215-b80c-4eba-99a4-33b1a539191c","system_id":"levelo_inurba_marseille","lat":43.30953,"lon":5.39043,"is_reserved":false,"is_disabled":false,"rental_uris":{"android":"levelo://app?vid=46c6d215-b80c-4eba-99a4-33b1a539191c","ios":"levelo://app?vid=46c6d215-b80c-4eba-99a4-33b1a539191c"},"vehicle_type_id":"4","last_reported":1742144877,"current_range_meters":7200,"station_id":"ce4bgup2rcd13ifvqco0","pricing_plan_id":"cebpf4jnsgd1na2vs0mg"},{"bike_id":"f2b7b04e-8089-4d6c-9db8-5e21bca75c26","system_id":"levelo_inurba_marseille","lat":43.27833,"lon":5.39191,"is_reserved":false,"is_disabled":true,"rental_uris":{"android":"levelo://app?vid=f2b7b04e-8089-4d6c-9db8-5e21bca75c26","ios":"levelo://app?vid=f2b7b04e-8089-4d6c-9db8-5e21bca75c26"},"vehicle_type_id":"4","last_reported":1742144877,"current_range_meters":7200,"station_id":"ce4bhjp2rcd13ifvqga0","pricing_plan_id":"cebpf4jnsgd1na2vs0mg"},{"bike_id":"7df0d40d-01fa-4964-8588-0ebf67fd3731","system_id":"levelo_inurba_marseille","lat":43.29872,"lon":5.39739,"is_reserved":false,"is_disabled":false,"rental_uris":{"android":"levelo://app?vid=7df0d40d-01fa-4964-8588-0ebf67fd3731","ios":"levelo://app?vid=7df0d40d-01fa-4964-8588-0ebf67fd3731"},"vehicle_type_id":"4","last_reported":1742144877,"current_range_meters":8000,"station_id":"ce4bh0h2rcd13ifvqd50","pricing_plan_id":"cebpf4jnsgd1na2vs0mg"},{"bike_id":"2127c283-3bf3-4081-9791-ba201cf5a542","system_id":"levelo_inurba_marseille","lat":43.30484,"lon":5.37343,"is_reserved":false,"is_disabled":true,"rental_uris":{"android":"levelo://app?vid=2127c283-3bf3-4081-9791-ba201cf5a542","ios":"levelo://app?vid=2127c283-3bf3-4081-9791-ba201cf5a542"},"vehicle_type_id":"4","last_reported":1742144877,"current_range_meters":8000,"station_id":"","pricing_plan_id":"cebpf4jnsgd1na2vs0mg"},{"bike_id":"743c9fbf-42df-4986-bc8c-9b4a2bc386be","system_id":"levelo_inurba_marseille","lat":43.24086,"lon":5.37768,"is_reserved":false,"is_disabled":false,"rental_uris":{"android":"levelo://app?vid=743c9fbf-42df-4986-bc8c-9b4a2bc386be","ios":"levelo://app?vid=743c9fbf-42df-4986-bc8c-9b4a2bc386be"},"vehicle_type_id":"4","last_reported":1742144877,"current_range_meters":8000,"station_id":"ce4bhnp2rcd13ifvqgvg","pricing_plan_id":"cebpf4jnsgd1na2vs0mg"},{"bike_id":"82e4859a-e942-44b1-82e8-bca3ed8730b3","system_id":"levelo_inurba_marseille","lat":43.24848,"lon":5.37475,"is_reserved":false,"is_disabled":false,"rental_uris":{"android":"levelo://app?vid=82e4859a-e942-44b1-82e8-bca3ed8730b3","ios":"levelo://app?vid=82e4859a-e942-44b1-82e8-bca3ed8730b3"},"vehicle_type_id":"4","last_reported":1742144877,"current_range_meters":8000,"station_id":"","pricing_plan_id":"cebpf4jnsgd1na2vs0mg"},{"bike_id":"96f7561b-f39a-46ec-9eb4-8935e1a6b641","system_id":"levelo_inurba_marseille","lat":43.26943,"lon":5.40252,"is_reserved":false,"is_disabled":false,"rental_uris":{"android":"levelo://app?vid=96f7561b-f39a-46ec-9eb4-8935e1a6b641","ios":"levelo://app?vid=96f7561b-f39a-46ec-9eb4-8935e1a6b641"},"vehicle_type_id":"4","last_reported":1742144877,"current_range_meters":8000,"station_id":"cjm6bp8fraef2m0cb0m0","pricing_plan_id":"cebpf4jnsgd1na2vs0mg"},{"bike_id":"31710fca-ccfa-43a5-ac6f-5ec923018ebf","system_id":"levelo_inurba_marseille","lat":43.27432,"lon":5.42084,"is_reserved":false,"is_disabled":false,"rental_uris":{"android":"levelo://app?vid=31710fca-ccfa-43a5-ac6f-5ec923018ebf","ios":"levelo://app?vid=31710fca-ccfa-43a5-ac6f-5ec923018ebf"},"vehicle_type_id":"4","last_reported":1742144877,"current_range_meters":8000,"station_id":"","pricing_plan_id":"cebpf4jnsgd1na2vs0mg"},{"bike_id":"0102a975-ca16-4d1e-8694-d919e87a2584","system_id":"levelo_inurba_marseille","lat":43.29554,"lon":5.42283,"is_reserved":false,"is_disabled":false,"rental_uris":{"android":"levelo://app?vid=0102a975-ca16-4d1e-8694-d919e87a2584","ios":"levelo://app?vid=0102a975-ca16-4d1e-8694-d919e87a2584"},"vehicle_type_id":"4","last_reported":1742144877,"current_range_meters":8400,"station_id":"ce4bhph2rcd13ifvqhdg","pricing_plan_id":"cebpf4jnsgd1na2vs0mg"},{"bike_id":"d1b43707-f6b9-4ce1-8f98-f7f83a08cff6","system_id":"levelo_inurba_marseille","lat":43.29643,"lon":5.38088,"is_reserved":false,"is_disabled":false,"rental_uris":{"android":"levelo://app?vid=d1b43707-f6b9-4ce1-8f98-f7f83a08cff6","ios":"levelo://app?vid=d1b43707-f6b9-4ce1-8f98-f7f83a08cff6"},"vehicle_type_id":"4","last_reported":1742144877,"current_range_meters":8400,"station_id":"ce4bgl12rcd13ifvqbo0","pricing_plan_id":"cebpf4jnsgd1na2vs0mg"},{"bike_id":"6bcc0272-bfd9-406e-bb68-728f47e4643f","system_id":"levelo_inurba_marseille","lat":43.26198,"lon":5.37926,"is_reserved":false,"is_disabled":false,"rental_uris":{"android":"levelo://app?vid=6bcc0272-bfd9-406e-bb68-728f47e4643f","ios":"levelo://app?vid=6bcc0272-bfd9-406e-bb68-728f47e4643f"},"vehicle_type_id":"4","last_reported":1742144877,"current_range_meters":8400,"station_id":"ce4bhjp2rcd13ifvqg90","pricing_plan_id":"cebpf4jnsgd1na2vs0mg"},{"bike_id":"66f66de1-0278-4c34-ac67-84e7ce174ea5","system_id":"levelo_inurba_marseille","lat":43.27327,"lon":5.3907,"is_reserved":false,"is_disabled":false,"rental_uris":{"android":"levelo://app?vid=66f66de1-0278-4c34-ac67-84e7ce174ea5","ios":"levelo://app?vid=66f66de1-0278-4c34-ac67-84e7ce174ea5"},"vehicle_type_id":"4","last_reported":1742144877,"current_range_meters":8000,"station_id":"ce4bhgp2rcd13ifvqfe0","pricing_plan_id":"cebpf4jnsgd1na2vs0mg"},{"bike_id":"031e832d-5bb7-40f7-8762-339a6335f1c6","system_id":"levelo_inurba_marseille","lat":43.28911,"lon":5.38391,"is_reserved":false,"is_disabled":false,"rental_uris":{"android":"levelo://app?vid=031e832d-5bb7-40f7-8762-339a6335f1c6","ios":"levelo://app?vid=031e832d-5bb7-40f7-8762-339a6335f1c6"},"vehicle_type_id":"4","last_reported":1742144877,"current_range_meters":8400,"station_id":"ce4bh612rcd13ifvqe6g","pricing_plan_id":"cebpf4jnsgd1na2vs0mg"},{"bike_id":"6582e7c2-5aa5-4e6a-abc5-fa241e74aeb6","system_id":"levelo_inurba_marseille","lat":43.29893,"lon":5.43679,"is_reserved":false,"is_disabled":false,"rental_uris":{"android":"levelo://app?vid=6582e7c2-5aa5-4e6a-abc5-fa241e74aeb6","ios":"levelo://app?vid=6582e7c2-5aa5-4e6a-abc5-fa241e74aeb6"},"vehicle_type_id":"4","last_reported":1742144877,"current_range_meters":8800,"station_id":"ce4bhpp2rcd13ifvqhfg","pricing_plan_id":"cebpf4jnsgd1na2vs0mg"},{"bike_id":"69ec6018-bed3-4e83-96fb-93bfe6605a9e","system_id":"levelo_inurba_marseille","lat":43.29034,"lon":5.3864,"is_reserved":false,"is_disabled":false,"rental_uris":{"android":"levelo://app?vid=69ec6018-bed3-4e83-96fb-93bfe6605a9e","ios":"levelo://app?vid=69ec6018-bed3-4e83-96fb-93bfe6605a9e"},"vehicle_type_id":"4","last_reported":1742144877,"current_range_meters":8400,"station_id":"ce4bh4p2rcd13ifvqe0g","pricing_plan_id":"cebpf4jnsgd1na2vs0mg"},{"bike_id":"e5a52d1a-5360-4040-8c85-2904be116457","system_id":"levelo_inurba_marseille","lat":43.25587,"lon":5.38228,"is_reserved":false,"is_disabled":false,"rental_uris":{"android":"levelo://app?vid=e5a52d1a-5360-4040-8c85-2904be116457","ios":"levelo://app?vid=e5a52d1a-5360-4040-8c85-2904be116457"},"vehicle_type_id":"4","last_reported":1742144877,"current_range_meters":8400,"station_id":"ce4bhih2rcd13ifvqfs0","pricing_plan_id":"cebpf4jnsgd1na2vs0mg"},{"bike_id":"9723a7ee-46a6-4dce-b8e7-4fdddfaca225","system_id":"levelo_inurba_marseille","lat":43.31714,"lon":5.43706,"is_reserved":false,"is_disabled":false,"rental_uris":{"android":"levelo://app?vid=9723a7ee-46a6-4dce-b8e7-4fdddfaca225","ios":"levelo://app?vid=9723a7ee-46a6-4dce-b8e7-4fdddfaca225"},"vehicle_type_id":"4","last_reported":1742144877,"current_range_meters":13600,"station_id":"ce4bhp92rcd13ifvqhcg","pricing_plan_id":"cebpf4jnsgd1na2vs0mg"},{"bike_id":"a17866dc-3074-49fc-9a89-48869866e9d8","system_id":"levelo_inurba_marseille","lat":43.27216,"lon":5.39205,"is_reserved":false,"is_disabled":true,"rental_uris":{"android":"levelo://app?vid=a17866dc-3074-49fc-9a89-48869866e9d8","ios":"levelo://app?vid=a17866dc-3074-49fc-9a89-48869866e9d8"},"vehicle_type_id":"4","last_reported":1742144877,"current_range_meters":8400,"station_id":"ce4bhhp2rcd13ifvqfm0","pricing_plan_id":"cebpf4jnsgd1na2vs0mg"},{"bike_id":"ed258cb7-9851-491c-a0b2-e327c4e7bc83","system_id":"levelo_inurba_marseille","lat":43.2892,"lon":5.38397,"is_reserved":false,"is_disabled":false,"rental_uris":{"android":"levelo://app?vid=ed258cb7-9851-491c-a0b2-e327c4e7bc83","ios":"levelo://app?vid=ed258cb7-9851-491c-a0b2-e327c4e7bc83"},"vehicle_type_id":"4","last_reported":1742144877,"current_range_meters":8400,"station_id":"ce4bh612rcd13ifvqe6g","pricing_plan_id":"cebpf4jnsgd1na2vs0mg"},{"bike_id":"2f6e1317-3f90-44d7-a281-4242486590da","system_id":"levelo_inurba_marseille","lat":43.29584,"lon":5.38093,"is_reserved":false,"is_disabled":false,"rental_uris":{"android":"levelo://app?vid=2f6e1317-3f90-44d7-a281-4242486590da","ios":"levelo://app?vid=2f6e1317-3f90-44d7-a281-4242486590da"},"vehicle_type_id":"4","last_reported":1742144877,"current_range_meters":8400,"station_id":"ce4bgl12rcd13ifvqbo0","pricing_plan_id":"cebpf4jnsgd1na2vs0mg"},{"bike_id":"573143ae-3ef9-4f10-a482-9b6f457a06c2","system_id":"levelo_inurba_marseille","lat":43.23967,"lon":5.36628,"is_reserved":false,"is_disabled":false,"rental_uris":{"android":"levelo://app?vid=573143ae-3ef9-4f10-a482-9b6f457a06c2","ios":"levelo://app?vid=573143ae-3ef9-4f10-a482-9b6f457a06c2"},"vehicle_type_id":"4","last_reported":1742144877,"current_range_meters":8000,"station_id":"ce4bhi12rcd13ifvqfp0","pricing_plan_id":"cebpf4jnsgd1na2vs0mg"},{"bike_id":"3a766561-d5df-4bb1-accb-85c347f27a70","system_id":"levelo_inurba_marseille","lat":43.33762,"lon":5.39136,"is_reserved":false,"is_disabled":false,"rental_uris":{"android":"levelo://app?vid=3a766561-d5df-4bb1-accb-85c347f27a70","ios":"levelo://app?vid=3a766561-d5df-4bb1-accb-85c347f27a70"},"vehicle_type_id":"4","last_reported":1742144877,"current_range_meters":8400,"station_id":"ce4bhr92rcd13ifvqhsg","pricing_plan_id":"cebpf4jnsgd1na2vs0mg"},{"bike_id":"95bf4279-c6f7-4d5d-9702-9e48cd0a2130","system_id":"levelo_inurba_marseille","lat":43.25117,"lon":5.40313,"is_reserved":false,"is_disabled":false,"rental_uris":{"android":"levelo://app?vid=95bf4279-c6f7-4d5d-9702-9e48cd0a2130","ios":"levelo://app?vid=95bf4279-c6f7-4d5d-9702-9e48cd0a2130"},"vehicle_type_id":"4","last_reported":1742144877,"current_range_meters":8400,"station_id":"ce4bhlh2rcd13ifvqgig","pricing_plan_id":"cebpf4jnsgd1na2vs0mg"},{"bike_id":"1d97edf6-3c1c-4d80-8ded-35d074c6a44d","system_id":"levelo_inurba_marseille","lat":43.24082,"lon":5.37757,"is_reserved":false,"is_disabled":false,"rental_uris":{"android":"levelo://app?vid=1d97edf6-3c1c-4d80-8ded-35d074c6a44d","ios":"levelo://app?vid=1d97edf6-3c1c-4d80-8ded-35d074c6a44d"},"vehicle_type_id":"4","last_reported":1742144877,"current_range_meters":8000,"station_id":"ce4bhnp2rcd13ifvqgvg","pricing_plan_id":"cebpf4jnsgd1na2vs0mg"},{"bike_id":"c1ccf9ca-98f0-4eaf-9c83-bb7b5133d125","system_id":"levelo_inurba_marseille","lat":43.32118,"lon":5.36787,"is_reserved":false,"is_disabled":false,"rental_uris":{"android":"levelo://app?vid=c1ccf9ca-98f0-4eaf-9c83-bb7b5133d125","ios":"levelo://app?vid=c1ccf9ca-98f0-4eaf-9c83-bb7b5133d125"},"vehicle_type_id":"4","last_reported":1742144877,"current_range_meters":8400,"station_id":"ce4bhrh2rcd13ifvqhug","pricing_plan_id":"cebpf4jnsgd1na2vs0mg"},{"bike_id":"d3bd0ca2-58e0-4f19-bd33-980724ab7a39","system_id":"levelo_inurba_marseille","lat":43.30903,"lon":5.3964,"is_reserved":false,"is_disabled":true,"rental_uris":{"android":"levelo://app?vid=d3bd0ca2-58e0-4f19-bd33-980724ab7a39","ios":"levelo://app?vid=d3bd0ca2-58e0-4f19-bd33-980724ab7a39"},"vehicle_type_id":"4","last_reported":1742144877,"current_range_meters":8400,"station_id":"ce4bh012rcd13ifvqcv0","pricing_plan_id":"cebpf4jnsgd1na2vs0mg"},{"bike_id":"5f813939-abd0-4724-aebe-15fd911368cc","system_id":"levelo_inurba_marseille","lat":43.23189,"lon":5.35556,"is_reserved":false,"is_disabled":false,"rental_uris":{"android":"levelo://app?vid=5f813939-abd0-4724-aebe-15fd911368cc","ios":"levelo://app?vid=5f813939-abd0-4724-aebe-15fd911368cc"},"vehicle_type_id":"4","last_reported":1742144877,"current_range_meters":8400,"station_id":"ce4bhu92rcd13ifvqi70","pricing_plan_id":"cebpf4jnsgd1na2vs0mg"},{"bike_id":"71b342b8-694b-40d5-99e8-310baf77a970","system_id":"levelo_inurba_marseille","lat":43.23057,"lon":5.35491,"is_reserved":false,"is_disabled":false,"rental_uris":{"android":"levelo://app?vid=71b342b8-694b-40d5-99e8-310baf77a970","ios":"levelo://app?vid=71b342b8-694b-40d5-99e8-310baf77a970"},"vehicle_type_id":"4","last_reported":1742144877,"current_range_meters":8800,"station_id":"cpo3342slgdg3j2ifvpg","pricing_plan_id":"cebpf4jnsgd1na2vs0mg"},{"bike_id":"f4806f6b-90cc-4357-8538-1ba6d4b0b5e4","system_id":"levelo_inurba_marseille","lat":43.23191,"lon":5.35547,"is_reserved":false,"is_disabled":false,"rental_uris":{"android":"levelo://app?vid=f4806f6b-90cc-4357-8538-1ba6d4b0b5e4","ios":"levelo://app?vid=f4806f6b-90cc-4357-8538-1ba6d4b0b5e4"},"vehicle_type_id":"4","last_reported":1742144877,"current_range_meters":8800,"station_id":"ce4bhu92rcd13ifvqi70","pricing_plan_id":"cebpf4jnsgd1na2vs0mg"},{"bike_id":"fc071de1-2cc0-488a-a43e-f8037a5a9a49","system_id":"levelo_inurba_marseille","lat":43.23073,"lon":5.35483,"is_reserved":false,"is_disabled":false,"rental_uris":{"android":"levelo://app?vid=fc071de1-2cc0-488a-a43e-f8037a5a9a49","ios":"levelo://app?vid=fc071de1-2cc0-488a-a43e-f8037a5a9a49"},"vehicle_type_id":"4","last_reported":1742144877,"current_range_meters":8800,"station_id":"cpo3342slgdg3j2ifvpg","pricing_plan_id":"cebpf4jnsgd1na2vs0mg"},{"bike_id":"174c9c66-b172-484e-b7f9-5752aa18aabf","system_id":"levelo_inurba_marseille","lat":43.23057,"lon":5.35505,"is_reserved":false,"is_disabled":false,"rental_uris":{"android":"levelo://app?vid=174c9c66-b172-484e-b7f9-5752aa18aabf","ios":"levelo://app?vid=174c9c66-b172-484e-b7f9-5752aa18aabf"},"vehicle_type_id":"4","last_reported":1742144877,"current_range_meters":9200,"station_id":"cpo3342slgdg3j2ifvpg","pricing_plan_id":"cebpf4jnsgd1na2vs0mg"},{"bike_id":"48464515-ed00-4752-a54a-e2ef86c98058","system_id":"levelo_inurba_marseille","lat":43.29534,"lon":5.39399,"is_reserved":false,"is_disabled":false,"rental_uris":{"android":"levelo://app?vid=48464515-ed00-4752-a54a-e2ef86c98058","ios":"levelo://app?vid=48464515-ed00-4752-a54a-e2ef86c98058"},"vehicle_type_id":"4","last_reported":1742144877,"current_range_meters":8800,"station_id":"ce4bh292rcd13ifvqdf0","pricing_plan_id":"cebpf4jnsgd1na2vs0mg"},{"bike_id":"bd9b180c-2935-400d-bb83-8f65aca5f385","system_id":"levelo_inurba_marseille","lat":43.2957,"lon":5.3998,"is_reserved":false,"is_disabled":false,"rental_uris":{"android":"levelo://app?vid=bd9b180c-2935-400d-bb83-8f65aca5f385","ios":"levelo://app?vid=bd9b180c-2935-400d-bb83-8f65aca5f385"},"vehicle_type_id":"4","last_reported":1742144877,"current_range_meters":8800,"station_id":"ce4bh312rcd13ifvqdj0","pricing_plan_id":"cebpf4jnsgd1na2vs0mg"},{"bike_id":"2d8002fa-53fa-4109-bfe0-2f86286bdc53","system_id":"levelo_inurba_marseille","lat":43.29109,"lon":5.38159,"is_reserved":false,"is_disabled":false,"rental_uris":{"android":"levelo://app?vid=2d8002fa-53fa-4109-bfe0-2f86286bdc53","ios":"levelo://app?vid=2d8002fa-53fa-4109-bfe0-2f86286bdc53"},"vehicle_type_id":"4","last_reported":1742144877,"current_range_meters":8800,"station_id":"ce4bh512rcd13ifvqe2g","pricing_plan_id":"cebpf4jnsgd1na2vs0mg"},{"bike_id":"8c6dbfea-1934-47ca-9042-6526ad2a7d7f","system_id":"levelo_inurba_marseille","lat":43.27897,"lon":5.37997,"is_reserved":false,"is_disabled":false,"rental_uris":{"android":"levelo://app?vid=8c6dbfea-1934-47ca-9042-6526ad2a7d7f","ios":"levelo://app?vid=8c6dbfea-1934-47ca-9042-6526ad2a7d7f"},"vehicle_type_id":"4","last_reported":1742144877,"current_range_meters":9200,"station_id":"ce4bhf92rcd13ifvqf50","pricing_plan_id":"cebpf4jnsgd1na2vs0mg"},{"bike_id":"d1f8598a-61e3-43b0-a869-df93c47d5f17","system_id":"levelo_inurba_marseille","lat":43.2619,"lon":5.37448,"is_reserved":false,"is_disabled":false,"rental_uris":{"android":"levelo://app?vid=d1f8598a-61e3-43b0-a869-df93c47d5f17","ios":"levelo://app?vid=d1f8598a-61e3-43b0-a869-df93c47d5f17"},"vehicle_type_id":"4","last_reported":1742144877,"current_range_meters":9200,"station_id":"ce4bhgp2rcd13ifvqfc0","pricing_plan_id":"cebpf4jnsgd1na2vs0mg"},{"bike_id":"95470bdf-1288-42f8-b5d1-ca55dfddbad3","system_id":"levelo_inurba_marseille","lat":43.29604,"lon":5.38097,"is_reserved":false,"is_disabled":false,"rental_uris":{"android":"levelo://app?vid=95470bdf-1288-42f8-b5d1-ca55dfddbad3","ios":"levelo://app?vid=95470bdf-1288-42f8-b5d1-ca55dfddbad3"},"vehicle_type_id":"4","last_reported":1742144877,"current_range_meters":9200,"station_id":"ce4bgl12rcd13ifvqbo0","pricing_plan_id":"cebpf4jnsgd1na2vs0mg"},{"bike_id":"7580451b-7a2c-4e0c-9ee6-4c1d804936f3","system_id":"levelo_inurba_marseille","lat":43.29607,"lon":5.37732,"is_reserved":false,"is_disabled":false,"rental_uris":{"android":"levelo://app?vid=7580451b-7a2c-4e0c-9ee6-4c1d804936f3","ios":"levelo://app?vid=7580451b-7a2c-4e0c-9ee6-4c1d804936f3"},"vehicle_type_id":"4","last_reported":1742144877,"current_range_meters":9200,"station_id":"ce4bgi92rcd13ifvqb90","pricing_plan_id":"cebpf4jnsgd1na2vs0mg"},{"bike_id":"cd401088-d1d2-467a-8917-675127232815","system_id":"levelo_inurba_marseille","lat":43.30801,"lon":5.38151,"is_reserved":false,"is_disabled":false,"rental_uris":{"android":"levelo://app?vid=cd401088-d1d2-467a-8917-675127232815","ios":"levelo://app?vid=cd401088-d1d2-467a-8917-675127232815"},"vehicle_type_id":"4","last_reported":1742144877,"current_range_meters":9200,"station_id":"ce4bgt12rcd13ifvqce0","pricing_plan_id":"cebpf4jnsgd1na2vs0mg"},{"bike_id":"dc45fdcf-1c41-488a-8454-ab53299edeac","system_id":"levelo_inurba_marseille","lat":43.29199,"lon":5.35799,"is_reserved":false,"is_disabled":true,"rental_uris":{"android":"levelo://app?vid=dc45fdcf-1c41-488a-8454-ab53299edeac","ios":"levelo://app?vid=dc45fdcf-1c41-488a-8454-ab53299edeac"},"vehicle_type_id":"4","last_reported":1742144877,"current_range_meters":9600,"station_id":"ce4bhb12rcd13ifvqel0","pricing_plan_id":"cebpf4jnsgd1na2vs0mg"},{"bike_id":"9d25ab10-b586-41c8-b9a7-0817fdfad648","system_id":"levelo_inurba_marseille","lat":43.31084,"lon":5.42433,"is_reserved":false,"is_disabled":false,"rental_uris":{"android":"levelo://app?vid=9d25ab10-b586-41c8-b9a7-0817fdfad648","ios":"levelo://app?vid=9d25ab10-b586-41c8-b9a7-0817fdfad648"},"vehicle_type_id":"4","last_reported":1742144877,"current_range_meters":9600,"station_id":"ce4bhp92rcd13ifvqhag","pricing_plan_id":"cebpf4jnsgd1na2vs0mg"},{"bike_id":"f876773a-fec2-4503-8f9a-c65b00603ae5","system_id":"levelo_inurba_marseille","lat":43.24088,"lon":5.37763,"is_reserved":false,"is_disabled":false,"rental_uris":{"android":"levelo://app?vid=f876773a-fec2-4503-8f9a-c65b00603ae5","ios":"levelo://app?vid=f876773a-fec2-4503-8f9a-c65b00603ae5"},"vehicle_type_id":"4","last_reported":1742144877,"current_range_meters":9600,"station_id":"ce4bhnp2rcd13ifvqgvg","pricing_plan_id":"cebpf4jnsgd1na2vs0mg"},{"bike_id":"30a3f5aa-8adb-417a-a2c9-dedb0fb285b3","system_id":"levelo_inurba_marseille","lat":43.2898,"lon":5.37826,"is_reserved":false,"is_disabled":true,"rental_uris":{"android":"levelo://app?vid=30a3f5aa-8adb-417a-a2c9-dedb0fb285b3","ios":"levelo://app?vid=30a3f5aa-8adb-417a-a2c9-dedb0fb285b3"},"vehicle_type_id":"4","last_reported":1742144877,"current_range_meters":9600,"station_id":"ce4bh9p2rcd13ifvqed0","pricing_plan_id":"cebpf4jnsgd1na2vs0mg"},{"bike_id":"a57b0fd9-270d-471b-84cf-632566cbadc4","system_id":"levelo_inurba_marseille","lat":43.29876,"lon":5.39729,"is_reserved":false,"is_disabled":false,"rental_uris":{"android":"levelo://app?vid=a57b0fd9-270d-471b-84cf-632566cbadc4","ios":"levelo://app?vid=a57b0fd9-270d-471b-84cf-632566cbadc4"},"vehicle_type_id":"4","last_reported":1742144877,"current_range_meters":9200,"station_id":"ce4bh0h2rcd13ifvqd50","pricing_plan_id":"cebpf4jnsgd1na2vs0mg"},{"bike_id":"9e6dd499-ef79-469a-9c98-e4d20013679e","system_id":"levelo_inurba_marseille","lat":43.26809,"lon":5.40267,"is_reserved":false,"is_disabled":false,"rental_uris":{"android":"levelo://app?vid=9e6dd499-ef79-469a-9c98-e4d20013679e","ios":"levelo://app?vid=9e6dd499-ef79-469a-9c98-e4d20013679e"},"vehicle_type_id":"4","last_reported":1742144877,"current_range_meters":9600,"station_id":"ce501612rcd8frsf0b60","pricing_plan_id":"cebpf4jnsgd1na2vs0mg"},{"bike_id":"86a47bb9-e838-47df-93b5-b0b82b75e6c0","system_id":"levelo_inurba_marseille","lat":43.32364,"lon":5.38901,"is_reserved":false,"is_disabled":false,"rental_uris":{"android":"levelo://app?vid=86a47bb9-e838-47df-93b5-b0b82b75e6c0","ios":"levelo://app?vid=86a47bb9-e838-47df-93b5-b0b82b75e6c0"},"vehicle_type_id":"4","last_reported":1742144877,"current_range_meters":9600,"station_id":"ce4bhqp2rcd13ifvqhog","pricing_plan_id":"cebpf4jnsgd1na2vs0mg"},{"bike_id":"8bdb0756-f8cf-4091-86b0-2364702db622","system_id":"levelo_inurba_marseille","lat":43.2307,"lon":5.35493,"is_reserved":false,"is_disabled":false,"rental_uris":{"android":"levelo://app?vid=8bdb0756-f8cf-4091-86b0-2364702db622","ios":"levelo://app?vid=8bdb0756-f8cf-4091-86b0-2364702db622"},"vehicle_type_id":"4","last_reported":1742144877,"current_range_meters":9600,"station_id":"cpo3342slgdg3j2ifvpg","pricing_plan_id":"cebpf4jnsgd1na2vs0mg"},{"bike_id":"5c25250f-d311-4271-9060-e9e5bcb1f0ab","system_id":"levelo_inurba_marseille","lat":43.31688,"lon":5.4047,"is_reserved":false,"is_disabled":false,"rental_uris":{"android":"levelo://app?vid=5c25250f-d311-4271-9060-e9e5bcb1f0ab","ios":"levelo://app?vid=5c25250f-d311-4271-9060-e9e5bcb1f0ab"},"vehicle_type_id":"4","last_reported":1742144877,"current_range_meters":9600,"station_id":"ce4bh012rcd13ifvqd00","pricing_plan_id":"cebpf4jnsgd1na2vs0mg"},{"bike_id":"ec4c8fc9-399f-4f5a-b345-e19e03d811c3","system_id":"levelo_inurba_marseille","lat":43.27185,"lon":5.40993,"is_reserved":false,"is_disabled":true,"rental_uris":{"android":"levelo://app?vid=ec4c8fc9-399f-4f5a-b345-e19e03d811c3","ios":"levelo://app?vid=ec4c8fc9-399f-4f5a-b345-e19e03d811c3"},"vehicle_type_id":"4","last_reported":1742144877,"current_range_meters":9600,"station_id":"ce4bhl12rcd13ifvqgf0","pricing_plan_id":"cebpf4jnsgd1na2vs0mg"},{"bike_id":"9d8efe52-4253-46af-b40f-bf8652412f63","system_id":"levelo_inurba_marseille","lat":43.2951,"lon":5.39411,"is_reserved":false,"is_disabled":true,"rental_uris":{"android":"levelo://app?vid=9d8efe52-4253-46af-b40f-bf8652412f63","ios":"levelo://app?vid=9d8efe52-4253-46af-b40f-bf8652412f63"},"vehicle_type_id":"4","last_reported":1742144877,"current_range_meters":9600,"station_id":"ce4bh292rcd13ifvqdf0","pricing_plan_id":"cebpf4jnsgd1na2vs0mg"},{"bike_id":"63ccaa1b-7302-45e3-82a8-d904a69351b6","system_id":"levelo_inurba_marseille","lat":43.2396,"lon":5.36641,"is_reserved":false,"is_disabled":true,"rental_uris":{"android":"levelo://app?vid=63ccaa1b-7302-45e3-82a8-d904a69351b6","ios":"levelo://app?vid=63ccaa1b-7302-45e3-82a8-d904a69351b6"},"vehicle_type_id":"4","last_reported":1742144877,"current_range_meters":9600,"station_id":"ce4bhi12rcd13ifvqfp0","pricing_plan_id":"cebpf4jnsgd1na2vs0mg"},{"bike_id":"4a01d2c2-aea3-4118-a333-a66364444ade","system_id":"levelo_inurba_marseille","lat":43.27375,"lon":5.36257,"is_reserved":false,"is_disabled":false,"rental_uris":{"android":"levelo://app?vid=4a01d2c2-aea3-4118-a333-a66364444ade","ios":"levelo://app?vid=4a01d2c2-aea3-4118-a333-a66364444ade"},"vehicle_type_id":"4","last_reported":1742144877,"current_range_meters":9600,"station_id":"ce4bhbh2rcd13ifvqeo0","pricing_plan_id":"cebpf4jnsgd1na2vs0mg"},{"bike_id":"02903d83-44bb-40cf-a804-6798606e7bc6","system_id":"levelo_inurba_marseille","lat":43.2482,"lon":5.37456,"is_reserved":false,"is_disabled":false,"rental_uris":{"android":"levelo://app?vid=02903d83-44bb-40cf-a804-6798606e7bc6","ios":"levelo://app?vid=02903d83-44bb-40cf-a804-6798606e7bc6"},"vehicle_type_id":"4","last_reported":1742144877,"current_range_meters":9600,"station_id":"ce4bhgh2rcd13ifvqfb0","pricing_plan_id":"cebpf4jnsgd1na2vs0mg"},{"bike_id":"38de9398-607b-4e38-b181-28a0e85a0172","system_id":"levelo_inurba_marseille","lat":43.29015,"lon":5.38612,"is_reserved":false,"is_disabled":true,"rental_uris":{"android":"levelo://app?vid=38de9398-607b-4e38-b181-28a0e85a0172","ios":"levelo://app?vid=38de9398-607b-4e38-b181-28a0e85a0172"},"vehicle_type_id":"4","last_reported":1742144877,"current_range_meters":9600,"station_id":"ce4bh4p2rcd13ifvqe0g","pricing_plan_id":"cebpf4jnsgd1na2vs0mg"},{"bike_id":"7099c38a-2986-4dc9-9398-307b562f7d30","system_id":"levelo_inurba_marseille","lat":43.25956,"lon":5.40882,"is_reserved":false,"is_disabled":false,"rental_uris":{"android":"levelo://app?vid=7099c38a-2986-4dc9-9398-307b562f7d30","ios":"levelo://app?vid=7099c38a-2986-4dc9-9398-307b562f7d30"},"vehicle_type_id":"4","last_reported":1742144877,"current_range_meters":10000,"station_id":"ce4bhm92rcd13ifvqglg","pricing_plan_id":"cebpf4jnsgd1na2vs0mg"},{"bike_id":"d78a64ce-13c2-48bf-808e-e90b3704ad19","system_id":"levelo_inurba_marseille","lat":43.26939,"lon":5.40251,"is_reserved":false,"is_disabled":false,"rental_uris":{"android":"levelo://app?vid=d78a64ce-13c2-48bf-808e-e90b3704ad19","ios":"levelo://app?vid=d78a64ce-13c2-48bf-808e-e90b3704ad19"},"vehicle_type_id":"4","last_reported":1742144877,"current_range_meters":9600,"station_id":"cjm6bp8fraef2m0cb0m0","pricing_plan_id":"cebpf4jnsgd1na2vs0mg"},{"bike_id":"0ab3ace2-53b5-463c-b234-c0bfc0872b16","system_id":"levelo_inurba_marseille","lat":43.29629,"lon":5.38098,"is_reserved":false,"is_disabled":false,"rental_uris":{"android":"levelo://app?vid=0ab3ace2-53b5-463c-b234-c0bfc0872b16","ios":"levelo://app?vid=0ab3ace2-53b5-463c-b234-c0bfc0872b16"},"vehicle_type_id":"4","last_reported":1742144877,"current_range_meters":9600,"station_id":"ce4bgl12rcd13ifvqbo0","pricing_plan_id":"cebpf4jnsgd1na2vs0mg"},{"bike_id":"798e4424-938e-4a81-9e7c-4246567321c5","system_id":"levelo_inurba_marseille","lat":43.24865,"lon":5.4126,"is_reserved":false,"is_disabled":false,"rental_uris":{"android":"levelo://app?vid=798e4424-938e-4a81-9e7c-4246567321c5","ios":"levelo://app?vid=798e4424-938e-4a81-9e7c-4246567321c5"},"vehicle_type_id":"4","last_reported":1742144877,"current_range_meters":10000,"station_id":"","pricing_plan_id":"cebpf4jnsgd1na2vs0mg"},{"bike_id":"3f3e844d-8056-4826-a519-e24eec72528f","system_id":"levelo_inurba_marseille","lat":43.30664,"lon":5.36595,"is_reserved":false,"is_disabled":false,"rental_uris":{"android":"levelo://app?vid=3f3e844d-8056-4826-a519-e24eec72528f","ios":"levelo://app?vid=3f3e844d-8056-4826-a519-e24eec72528f"},"vehicle_type_id":"4","last_reported":1742144877,"current_range_meters":9600,"station_id":"","pricing_plan_id":"cebpf4jnsgd1na2vs0mg"},{"bike_id":"ba2e1d5d-83ef-49d9-9fd6-4799cd9abe31","system_id":"levelo_inurba_marseille","lat":43.3169,"lon":5.40468,"is_reserved":false,"is_disabled":false,"rental_uris":{"android":"levelo://app?vid=ba2e1d5d-83ef-49d9-9fd6-4799cd9abe31","ios":"levelo://app?vid=ba2e1d5d-83ef-49d9-9fd6-4799cd9abe31"},"vehicle_type_id":"4","last_reported":1742144877,"current_range_meters":9600,"station_id":"ce4bh012rcd13ifvqd00","pricing_plan_id":"cebpf4jnsgd1na2vs0mg"},{"bike_id":"1e9f3f53-e48b-47c9-8a7a-3842fe9d86ab","system_id":"levelo_inurba_marseille","lat":43.28733,"lon":5.40027,"is_reserved":false,"is_disabled":true,"rental_uris":{"android":"levelo://app?vid=1e9f3f53-e48b-47c9-8a7a-3842fe9d86ab","ios":"levelo://app?vid=1e9f3f53-e48b-47c9-8a7a-3842fe9d86ab"},"vehicle_type_id":"4","last_reported":1742144877,"current_range_meters":9600,"station_id":"ce4bho92rcd13ifvqh3g","pricing_plan_id":"cebpf4jnsgd1na2vs0mg"},{"bike_id":"3a6d84ee-e958-4f91-84af-46ee45b44fec","system_id":"levelo_inurba_marseille","lat":43.26571,"lon":5.38991,"is_reserved":false,"is_disabled":false,"rental_uris":{"android":"levelo://app?vid=3a6d84ee-e958-4f91-84af-46ee45b44fec","ios":"levelo://app?vid=3a6d84ee-e958-4f91-84af-46ee45b44fec"},"vehicle_type_id":"4","last_reported":1742144877,"current_range_meters":9600,"station_id":"ce4bhe12rcd13ifvqf30","pricing_plan_id":"cebpf4jnsgd1na2vs0mg"},{"bike_id":"ac5add07-adbf-4183-a9f2-85310ba4aa23","system_id":"levelo_inurba_marseille","lat":43.28401,"lon":5.3751,"is_reserved":false,"is_disabled":false,"rental_uris":{"android":"levelo://app?vid=ac5add07-adbf-4183-a9f2-85310ba4aa23","ios":"levelo://app?vid=ac5add07-adbf-4183-a9f2-85310ba4aa23"},"vehicle_type_id":"4","last_reported":1742144877,"current_range_meters":9600,"station_id":"ce4bh412rcd13ifvqds0","pricing_plan_id":"cebpf4jnsgd1na2vs0mg"},{"bike_id":"0ab69b64-2bc6-40ff-a351-b107bc084411","system_id":"levelo_inurba_marseille","lat":43.32496,"lon":5.3656,"is_reserved":false,"is_disabled":false,"rental_uris":{"android":"levelo://app?vid=0ab69b64-2bc6-40ff-a351-b107bc084411","ios":"levelo://app?vid=0ab69b64-2bc6-40ff-a351-b107bc084411"},"vehicle_type_id":"4","last_reported":1742144877,"current_range_meters":10000,"station_id":"ce4bhs12rcd13ifvqhvg","pricing_plan_id":"cebpf4jnsgd1na2vs0mg"},{"bike_id":"6aa15d5a-f172-4394-a1ab-c8c551ec5c7b","system_id":"levelo_inurba_marseille","lat":43.29106,"lon":5.38148,"is_reserved":false,"is_disabled":false,"rental_uris":{"android":"levelo://app?vid=6aa15d5a-f172-4394-a1ab-c8c551ec5c7b","ios":"levelo://app?vid=6aa15d5a-f172-4394-a1ab-c8c551ec5c7b"},"vehicle_type_id":"4","last_reported":1742144877,"current_range_meters":10000,"station_id":"ce4bh512rcd13ifvqe2g","pricing_plan_id":"cebpf4jnsgd1na2vs0mg"},{"bike_id":"761351a1-8385-476b-a1a2-e79666e9463b","system_id":"levelo_inurba_marseille","lat":43.30337,"lon":5.40428,"is_reserved":false,"is_disabled":false,"rental_uris":{"android":"levelo://app?vid=761351a1-8385-476b-a1a2-e79666e9463b","ios":"levelo://app?vid=761351a1-8385-476b-a1a2-e79666e9463b"},"vehicle_type_id":"4","last_reported":1742144877,"current_range_meters":10000,"station_id":"ce4bh012rcd13ifvqd10","pricing_plan_id":"cebpf4jnsgd1na2vs0mg"},{"bike_id":"098d86fc-c5a2-4828-aa74-3e07d06ddbf5","system_id":"levelo_inurba_marseille","lat":43.28848,"lon":5.35843,"is_reserved":false,"is_disabled":true,"rental_uris":{"android":"levelo://app?vid=098d86fc-c5a2-4828-aa74-3e07d06ddbf5","ios":"levelo://app?vid=098d86fc-c5a2-4828-aa74-3e07d06ddbf5"},"vehicle_type_id":"4","last_reported":1742144877,"current_range_meters":10000,"station_id":"ce4bhb12rcd13ifvqem0","pricing_plan_id":"cebpf4jnsgd1na2vs0mg"},{"bike_id":"4b861698-aa34-4689-b113-17ad3c86cac9","system_id":"levelo_inurba_marseille","lat":43.28932,"lon":5.38398,"is_reserved":false,"is_disabled":false,"rental_uris":{"android":"levelo://app?vid=4b861698-aa34-4689-b113-17ad3c86cac9","ios":"levelo://app?vid=4b861698-aa34-4689-b113-17ad3c86cac9"},"vehicle_type_id":"4","last_reported":1742144877,"current_range_meters":10000,"station_id":"ce4bh612rcd13ifvqe6g","pricing_plan_id":"cebpf4jnsgd1na2vs0mg"},{"bike_id":"b7b63fea-0d2d-470e-9010-ae3c906b73c3","system_id":"levelo_inurba_marseille","lat":43.29025,"lon":5.38647,"is_reserved":false,"is_disabled":false,"rental_uris":{"android":"levelo://app?vid=b7b63fea-0d2d-470e-9010-ae3c906b73c3","ios":"levelo://app?vid=b7b63fea-0d2d-470e-9010-ae3c906b73c3"},"vehicle_type_id":"4","last_reported":1742144877,"current_range_meters":10000,"station_id":"ce4bh4p2rcd13ifvqe0g","pricing_plan_id":"cebpf4jnsgd1na2vs0mg"},{"bike_id":"9fbd07b4-f8ec-47c8-8b77-af3d624fa697","system_id":"levelo_inurba_marseille","lat":43.29901,"lon":5.4366,"is_reserved":false,"is_disabled":false,"rental_uris":{"android":"levelo://app?vid=9fbd07b4-f8ec-47c8-8b77-af3d624fa697","ios":"levelo://app?vid=9fbd07b4-f8ec-47c8-8b77-af3d624fa697"},"vehicle_type_id":"4","last_reported":1742144877,"current_range_meters":10000,"station_id":"ce4bhpp2rcd13ifvqhfg","pricing_plan_id":"cebpf4jnsgd1na2vs0mg"},{"bike_id":"4b1426cb-648f-45df-a095-ae89ed465b04","system_id":"levelo_inurba_marseille","lat":43.25008,"lon":5.38911,"is_reserved":false,"is_disabled":false,"rental_uris":{"android":"levelo://app?vid=4b1426cb-648f-45df-a095-ae89ed465b04","ios":"levelo://app?vid=4b1426cb-648f-45df-a095-ae89ed465b04"},"vehicle_type_id":"4","last_reported":1742144877,"current_range_meters":10000,"station_id":"ce4bhgp2rcd13ifvqfd0","pricing_plan_id":"cebpf4jnsgd1na2vs0mg"},{"bike_id":"e6e989d9-0cc9-4f5c-8591-dd5acc7df7c8","system_id":"levelo_inurba_marseille","lat":43.25498,"lon":5.3765,"is_reserved":false,"is_disabled":false,"rental_uris":{"android":"levelo://app?vid=e6e989d9-0cc9-4f5c-8591-dd5acc7df7c8","ios":"levelo://app?vid=e6e989d9-0cc9-4f5c-8591-dd5acc7df7c8"},"vehicle_type_id":"4","last_reported":1742144877,"current_range_meters":9600,"station_id":"ce4bhh12rcd13ifvqff0","pricing_plan_id":"cebpf4jnsgd1na2vs0mg"},{"bike_id":"fc137773-94c5-4c85-b362-abc199012fb6","system_id":"levelo_inurba_marseille","lat":43.27617,"lon":5.36105,"is_reserved":false,"is_disabled":false,"rental_uris":{"android":"levelo://app?vid=fc137773-94c5-4c85-b362-abc199012fb6","ios":"levelo://app?vid=fc137773-94c5-4c85-b362-abc199012fb6"},"vehicle_type_id":"4","last_reported":1742144877,"current_range_meters":10000,"station_id":"ce4bgj92rcd13ifvqbe0","pricing_plan_id":"cebpf4jnsgd1na2vs0mg"},{"bike_id":"d2140e8e-fc46-4fb8-a675-866428dbf6bb","system_id":"levelo_inurba_marseille","lat":43.23044,"lon":5.35487,"is_reserved":false,"is_disabled":false,"rental_uris":{"android":"levelo://app?vid=d2140e8e-fc46-4fb8-a675-866428dbf6bb","ios":"levelo://app?vid=d2140e8e-fc46-4fb8-a675-866428dbf6bb"},"vehicle_type_id":"4","last_reported":1742144877,"current_range_meters":10000,"station_id":"cpo3342slgdg3j2ifvpg","pricing_plan_id":"cebpf4jnsgd1na2vs0mg"},{"bike_id":"94756700-44c5-4188-bce3-c15c7fb8b068","system_id":"levelo_inurba_marseille","lat":43.31685,"lon":5.40476,"is_reserved":false,"is_disabled":false,"rental_uris":{"android":"levelo://app?vid=94756700-44c5-4188-bce3-c15c7fb8b068","ios":"levelo://app?vid=94756700-44c5-4188-bce3-c15c7fb8b068"},"vehicle_type_id":"4","last_reported":1742144877,"current_range_meters":9600,"station_id":"ce4bh012rcd13ifvqd00","pricing_plan_id":"cebpf4jnsgd1na2vs0mg"},{"bike_id":"18f33ae7-3acb-407d-a5a7-4c104a302f2a","system_id":"levelo_inurba_marseille","lat":43.27625,"lon":5.36115,"is_reserved":false,"is_disabled":false,"rental_uris":{"android":"levelo://app?vid=18f33ae7-3acb-407d-a5a7-4c104a302f2a","ios":"levelo://app?vid=18f33ae7-3acb-407d-a5a7-4c104a302f2a"},"vehicle_type_id":"4","last_reported":1742144877,"current_range_meters":10000,"station_id":"ce4bgj92rcd13ifvqbe0","pricing_plan_id":"cebpf4jnsgd1na2vs0mg"},{"bike_id":"b881a216-a8e0-47ad-9c6d-ce879391627c","system_id":"levelo_inurba_marseille","lat":43.29936,"lon":5.36508,"is_reserved":false,"is_disabled":true,"rental_uris":{"android":"levelo://app?vid=b881a216-a8e0-47ad-9c6d-ce879391627c","ios":"levelo://app?vid=b881a216-a8e0-47ad-9c6d-ce879391627c"},"vehicle_type_id":"4","last_reported":1742144877,"current_range_meters":10800,"station_id":"ce4bgm92rcd13ifvqbr0","pricing_plan_id":"cebpf4jnsgd1na2vs0mg"},{"bike_id":"10a5dfbf-3aa3-4cf3-ac17-cd4d12fd6782","system_id":"levelo_inurba_marseille","lat":43.32358,"lon":5.3676,"is_reserved":false,"is_disabled":false,"rental_uris":{"android":"levelo://app?vid=10a5dfbf-3aa3-4cf3-ac17-cd4d12fd6782","ios":"levelo://app?vid=10a5dfbf-3aa3-4cf3-ac17-cd4d12fd6782"},"vehicle_type_id":"4","last_reported":1742144877,"current_range_meters":10800,"station_id":"ce4bhsh2rcd13ifvqi2g","pricing_plan_id":"cebpf4jnsgd1na2vs0mg"},{"bike_id":"0547a2e4-947d-4ca7-94f6-2a341df22e6b","system_id":"levelo_inurba_marseille","lat":43.29194,"lon":5.39318,"is_reserved":false,"is_disabled":false,"rental_uris":{"android":"levelo://app?vid=0547a2e4-947d-4ca7-94f6-2a341df22e6b","ios":"levelo://app?vid=0547a2e4-947d-4ca7-94f6-2a341df22e6b"},"vehicle_type_id":"4","last_reported":1742144877,"current_range_meters":10000,"station_id":"ce4bh192rcd13ifvqdd0","pricing_plan_id":"cebpf4jnsgd1na2vs0mg"},{"bike_id":"33d594ee-4ef9-4616-9495-f6e640305325","system_id":"levelo_inurba_marseille","lat":43.29879,"lon":5.39735,"is_reserved":false,"is_disabled":false,"rental_uris":{"android":"levelo://app?vid=33d594ee-4ef9-4616-9495-f6e640305325","ios":"levelo://app?vid=33d594ee-4ef9-4616-9495-f6e640305325"},"vehicle_type_id":"4","last_reported":1742144877,"current_range_meters":10800,"station_id":"ce4bh0h2rcd13ifvqd50","pricing_plan_id":"cebpf4jnsgd1na2vs0mg"},{"bike_id":"fcdfecc0-d519-4864-984c-ddffbbfe2bd7","system_id":"levelo_inurba_marseille","lat":43.27178,"lon":5.40994,"is_reserved":false,"is_disabled":false,"rental_uris":{"android":"levelo://app?vid=fcdfecc0-d519-4864-984c-ddffbbfe2bd7","ios":"levelo://app?vid=fcdfecc0-d519-4864-984c-ddffbbfe2bd7"},"vehicle_type_id":"4","last_reported":1742144877,"current_range_meters":10000,"station_id":"ce4bhl12rcd13ifvqgf0","pricing_plan_id":"cebpf4jnsgd1na2vs0mg"},{"bike_id":"25918a15-4b94-4c69-aaa3-b5f5e1c56790","system_id":"levelo_inurba_marseille","lat":43.25006,"lon":5.3893,"is_reserved":false,"is_disabled":false,"rental_uris":{"android":"levelo://app?vid=25918a15-4b94-4c69-aaa3-b5f5e1c56790","ios":"levelo://app?vid=25918a15-4b94-4c69-aaa3-b5f5e1c56790"},"vehicle_type_id":"4","last_reported":1742144877,"current_range_meters":10800,"station_id":"ce4bhgp2rcd13ifvqfd0","pricing_plan_id":"cebpf4jnsgd1na2vs0mg"},{"bike_id":"df8f2914-9236-4079-b112-a30d91d60d96","system_id":"levelo_inurba_marseille","lat":43.2908,"lon":5.38182,"is_reserved":false,"is_disabled":false,"rental_uris":{"android":"levelo://app?vid=df8f2914-9236-4079-b112-a30d91d60d96","ios":"levelo://app?vid=df8f2914-9236-4079-b112-a30d91d60d96"},"vehicle_type_id":"4","last_reported":1742144877,"current_range_meters":10800,"station_id":"ce4bh512rcd13ifvqe2g","pricing_plan_id":"cebpf4jnsgd1na2vs0mg"},{"bike_id":"4a80e346-e9af-4c14-9dc6-c1ade6c794ed","system_id":"levelo_inurba_marseille","lat":43.29104,"lon":5.38135,"is_reserved":false,"is_disabled":false,"rental_uris":{"android":"levelo://app?vid=4a80e346-e9af-4c14-9dc6-c1ade6c794ed","ios":"levelo://app?vid=4a80e346-e9af-4c14-9dc6-c1ade6c794ed"},"vehicle_type_id":"4","last_reported":1742144877,"current_range_meters":10800,"station_id":"ce4bh512rcd13ifvqe2g","pricing_plan_id":"cebpf4jnsgd1na2vs0mg"},{"bike_id":"fb92ce7f-273f-42f9-843b-fa211bfbdea0","system_id":"levelo_inurba_marseille","lat":43.28927,"lon":5.38402,"is_reserved":false,"is_disabled":false,"rental_uris":{"android":"levelo://app?vid=fb92ce7f-273f-42f9-843b-fa211bfbdea0","ios":"levelo://app?vid=fb92ce7f-273f-42f9-843b-fa211bfbdea0"},"vehicle_type_id":"4","last_reported":1742144877,"current_range_meters":10800,"station_id":"ce4bh612rcd13ifvqe6g","pricing_plan_id":"cebpf4jnsgd1na2vs0mg"},{"bike_id":"be903a13-7754-4f75-b7f8-09ab322961b1","system_id":"levelo_inurba_marseille","lat":43.31709,"lon":5.40458,"is_reserved":false,"is_disabled":false,"rental_uris":{"android":"levelo://app?vid=be903a13-7754-4f75-b7f8-09ab322961b1","ios":"levelo://app?vid=be903a13-7754-4f75-b7f8-09ab322961b1"},"vehicle_type_id":"4","last_reported":1742144877,"current_range_meters":10800,"station_id":"ce4bh012rcd13ifvqd00","pricing_plan_id":"cebpf4jnsgd1na2vs0mg"},{"bike_id":"1803870c-9ebc-4d41-974a-61e0c8ae9328","system_id":"levelo_inurba_marseille","lat":43.25497,"lon":5.37647,"is_reserved":false,"is_disabled":false,"rental_uris":{"android":"levelo://app?vid=1803870c-9ebc-4d41-974a-61e0c8ae9328","ios":"levelo://app?vid=1803870c-9ebc-4d41-974a-61e0c8ae9328"},"vehicle_type_id":"4","last_reported":1742144877,"current_range_meters":10800,"station_id":"ce4bhh12rcd13ifvqff0","pricing_plan_id":"cebpf4jnsgd1na2vs0mg"},{"bike_id":"fe5d0739-dc7c-4b67-987e-1459d41d63d2","system_id":"levelo_inurba_marseille","lat":43.27834,"lon":5.39205,"is_reserved":false,"is_disabled":false,"rental_uris":{"android":"levelo://app?vid=fe5d0739-dc7c-4b67-987e-1459d41d63d2","ios":"levelo://app?vid=fe5d0739-dc7c-4b67-987e-1459d41d63d2"},"vehicle_type_id":"4","last_reported":1742144877,"current_range_meters":10800,"station_id":"ce4bhjp2rcd13ifvqga0","pricing_plan_id":"cebpf4jnsgd1na2vs0mg"},{"bike_id":"d6cd0df4-ca0d-407c-ac60-8420479f0dd1","system_id":"levelo_inurba_marseille","lat":43.23055,"lon":5.35498,"is_reserved":false,"is_disabled":false,"rental_uris":{"android":"levelo://app?vid=d6cd0df4-ca0d-407c-ac60-8420479f0dd1","ios":"levelo://app?vid=d6cd0df4-ca0d-407c-ac60-8420479f0dd1"},"vehicle_type_id":"4","last_reported":1742144877,"current_range_meters":11200,"station_id":"cpo3342slgdg3j2ifvpg","pricing_plan_id":"cebpf4jnsgd1na2vs0mg"},{"bike_id":"a198f866-19c5-4b60-b86f-9dd4724a01be","system_id":"levelo_inurba_marseille","lat":43.30214,"lon":5.3947,"is_reserved":false,"is_disabled":false,"rental_uris":{"android":"levelo://app?vid=a198f866-19c5-4b60-b86f-9dd4724a01be","ios":"levelo://app?vid=a198f866-19c5-4b60-b86f-9dd4724a01be"},"vehicle_type_id":"4","last_reported":1742144877,"current_range_meters":11200,"station_id":"ce4bh0p2rcd13ifvqd70","pricing_plan_id":"cebpf4jnsgd1na2vs0mg"},{"bike_id":"2e6c3038-6eb8-46ce-bd43-53f0733e5db9","system_id":"levelo_inurba_marseille","lat":43.3211,"lon":5.36834,"is_reserved":false,"is_disabled":false,"rental_uris":{"android":"levelo://app?vid=2e6c3038-6eb8-46ce-bd43-53f0733e5db9","ios":"levelo://app?vid=2e6c3038-6eb8-46ce-bd43-53f0733e5db9"},"vehicle_type_id":"4","last_reported":1742144877,"current_range_meters":11200,"station_id":"","pricing_plan_id":"cebpf4jnsgd1na2vs0mg"},{"bike_id":"4a945509-81de-4386-a3ec-0c963fa0f055","system_id":"levelo_inurba_marseille","lat":43.28913,"lon":5.38392,"is_reserved":false,"is_disabled":false,"rental_uris":{"android":"levelo://app?vid=4a945509-81de-4386-a3ec-0c963fa0f055","ios":"levelo://app?vid=4a945509-81de-4386-a3ec-0c963fa0f055"},"vehicle_type_id":"4","last_reported":1742144877,"current_range_meters":11200,"station_id":"ce4bh612rcd13ifvqe6g","pricing_plan_id":"cebpf4jnsgd1na2vs0mg"},{"bike_id":"5a61a616-683f-484d-83ae-d7f61143d634","system_id":"levelo_inurba_marseille","lat":43.29527,"lon":5.4248,"is_reserved":false,"is_disabled":false,"rental_uris":{"android":"levelo://app?vid=5a61a616-683f-484d-83ae-d7f61143d634","ios":"levelo://app?vid=5a61a616-683f-484d-83ae-d7f61143d634"},"vehicle_type_id":"4","last_reported":1742144877,"current_range_meters":11600,"station_id":"","pricing_plan_id":"cebpf4jnsgd1na2vs0mg"},{"bike_id":"c1dfb457-5ebd-47b7-a869-febce18d4f3b","system_id":"levelo_inurba_marseille","lat":43.29001,"lon":5.35611,"is_reserved":false,"is_disabled":false,"rental_uris":{"android":"levelo://app?vid=c1dfb457-5ebd-47b7-a869-febce18d4f3b","ios":"levelo://app?vid=c1dfb457-5ebd-47b7-a869-febce18d4f3b"},"vehicle_type_id":"4","last_reported":1742144877,"current_range_meters":11200,"station_id":"ce4bhb92rcd13ifvqen0","pricing_plan_id":"cebpf4jnsgd1na2vs0mg"},{"bike_id":"684b4ac9-2381-47a1-8e72-684b8f37778d","system_id":"levelo_inurba_marseille","lat":43.29607,"lon":5.38096,"is_reserved":false,"is_disabled":false,"rental_uris":{"android":"levelo://app?vid=684b4ac9-2381-47a1-8e72-684b8f37778d","ios":"levelo://app?vid=684b4ac9-2381-47a1-8e72-684b8f37778d"},"vehicle_type_id":"4","last_reported":1742144877,"current_range_meters":11200,"station_id":"ce4bgl12rcd13ifvqbo0","pricing_plan_id":"cebpf4jnsgd1na2vs0mg"},{"bike_id":"659cfc6c-f2ba-4758-b6de-6943e7c2dc48","system_id":"levelo_inurba_marseille","lat":43.287,"lon":5.37395,"is_reserved":false,"is_disabled":true,"rental_uris":{"android":"levelo://app?vid=659cfc6c-f2ba-4758-b6de-6943e7c2dc48","ios":"levelo://app?vid=659cfc6c-f2ba-4758-b6de-6943e7c2dc48"},"vehicle_type_id":"4","last_reported":1742144877,"current_range_meters":11200,"station_id":"ce4bh3p2rcd13ifvqdq0","pricing_plan_id":"cebpf4jnsgd1na2vs0mg"},{"bike_id":"ce94305a-77be-4fec-8849-896816a114ef","system_id":"levelo_inurba_marseille","lat":43.28676,"lon":5.38641,"is_reserved":false,"is_disabled":false,"rental_uris":{"android":"levelo://app?vid=ce94305a-77be-4fec-8849-896816a114ef","ios":"levelo://app?vid=ce94305a-77be-4fec-8849-896816a114ef"},"vehicle_type_id":"4","last_reported":1742144877,"current_range_meters":11200,"station_id":"ce4bh492rcd13ifvqdug","pricing_plan_id":"cebpf4jnsgd1na2vs0mg"},{"bike_id":"c0d14a55-0953-4c59-b0cd-c76953277ffe","system_id":"levelo_inurba_marseille","lat":43.2972,"lon":5.44729,"is_reserved":false,"is_disabled":false,"rental_uris":{"android":"levelo://app?vid=c0d14a55-0953-4c59-b0cd-c76953277ffe","ios":"levelo://app?vid=c0d14a55-0953-4c59-b0cd-c76953277ffe"},"vehicle_type_id":"4","last_reported":1742144877,"current_range_meters":11200,"station_id":"","pricing_plan_id":"cebpf4jnsgd1na2vs0mg"},{"bike_id":"1f9a9668-f20a-4b32-9dce-dfb024996834","system_id":"levelo_inurba_marseille","lat":43.29017,"lon":5.38648,"is_reserved":false,"is_disabled":true,"rental_uris":{"android":"levelo://app?vid=1f9a9668-f20a-4b32-9dce-dfb024996834","ios":"levelo://app?vid=1f9a9668-f20a-4b32-9dce-dfb024996834"},"vehicle_type_id":"4","last_reported":1742144877,"current_range_meters":11200,"station_id":"ce4bh4p2rcd13ifvqe0g","pricing_plan_id":"cebpf4jnsgd1na2vs0mg"},{"bike_id":"5347502d-92da-4d7b-94b1-1aa2f08ecf79","system_id":"levelo_inurba_marseille","lat":43.29028,"lon":5.38644,"is_reserved":false,"is_disabled":false,"rental_uris":{"android":"levelo://app?vid=5347502d-92da-4d7b-94b1-1aa2f08ecf79","ios":"levelo://app?vid=5347502d-92da-4d7b-94b1-1aa2f08ecf79"},"vehicle_type_id":"4","last_reported":1742144877,"current_range_meters":11200,"station_id":"ce4bh4p2rcd13ifvqe0g","pricing_plan_id":"cebpf4jnsgd1na2vs0mg"},{"bike_id":"49fea2c2-9361-4fb5-954f-b44bbf354e43","system_id":"levelo_inurba_marseille","lat":43.32362,"lon":5.36761,"is_reserved":false,"is_disabled":false,"rental_uris":{"android":"levelo://app?vid=49fea2c2-9361-4fb5-954f-b44bbf354e43","ios":"levelo://app?vid=49fea2c2-9361-4fb5-954f-b44bbf354e43"},"vehicle_type_id":"4","last_reported":1742144877,"current_range_meters":11200,"station_id":"ce4bhsh2rcd13ifvqi2g","pricing_plan_id":"cebpf4jnsgd1na2vs0mg"},{"bike_id":"cba8a0c6-cc46-4e33-9bdc-9b2b55f997ad","system_id":"levelo_inurba_marseille","lat":43.28664,"lon":5.36352,"is_reserved":false,"is_disabled":false,"rental_uris":{"android":"levelo://app?vid=cba8a0c6-cc46-4e33-9bdc-9b2b55f997ad","ios":"levelo://app?vid=cba8a0c6-cc46-4e33-9bdc-9b2b55f997ad"},"vehicle_type_id":"4","last_reported":1742144877,"current_range_meters":10000,"station_id":"ce4bhah2rcd13ifvqej0","pricing_plan_id":"cebpf4jnsgd1na2vs0mg"},{"bike_id":"f13cb805-5e8b-468c-97a5-da60b9b8c554","system_id":"levelo_inurba_marseille","lat":43.24426,"lon":5.37087,"is_reserved":false,"is_disabled":false,"rental_uris":{"android":"levelo://app?vid=f13cb805-5e8b-468c-97a5-da60b9b8c554","ios":"levelo://app?vid=f13cb805-5e8b-468c-97a5-da60b9b8c554"},"vehicle_type_id":"4","last_reported":1742144877,"current_range_meters":11600,"station_id":"ce4bhhh2rcd13ifvqfk0","pricing_plan_id":"cebpf4jnsgd1na2vs0mg"},{"bike_id":"8cb79198-6119-4d9d-b83e-29601006fdd8","system_id":"levelo_inurba_marseille","lat":43.34138,"lon":5.409,"is_reserved":false,"is_disabled":false,"rental_uris":{"android":"levelo://app?vid=8cb79198-6119-4d9d-b83e-29601006fdd8","ios":"levelo://app?vid=8cb79198-6119-4d9d-b83e-29601006fdd8"},"vehicle_type_id":"4","last_reported":1742144877,"current_range_meters":11600,"station_id":"ce4bhqh2rcd13ifvqhlg","pricing_plan_id":"cebpf4jnsgd1na2vs0mg"},{"bike_id":"a207cc27-e974-4e80-8622-ded1c89b060e","system_id":"levelo_inurba_marseille","lat":43.29595,"lon":5.38097,"is_reserved":false,"is_disabled":false,"rental_uris":{"android":"levelo://app?vid=a207cc27-e974-4e80-8622-ded1c89b060e","ios":"levelo://app?vid=a207cc27-e974-4e80-8622-ded1c89b060e"},"vehicle_type_id":"4","last_reported":1742144877,"current_range_meters":11600,"station_id":"ce4bgl12rcd13ifvqbo0","pricing_plan_id":"cebpf4jnsgd1na2vs0mg"},{"bike_id":"5a50ecb6-598e-4c5f-b7c6-9c86e77bfc85","system_id":"levelo_inurba_marseille","lat":43.31327,"lon":5.39692,"is_reserved":false,"is_disabled":false,"rental_uris":{"android":"levelo://app?vid=5a50ecb6-598e-4c5f-b7c6-9c86e77bfc85","ios":"levelo://app?vid=5a50ecb6-598e-4c5f-b7c6-9c86e77bfc85"},"vehicle_type_id":"4","last_reported":1742144877,"current_range_meters":11200,"station_id":"ce4bgvp2rcd13ifvqcu0","pricing_plan_id":"cebpf4jnsgd1na2vs0mg"},{"bike_id":"ec5e31e2-9c84-4091-b656-01fe473797ba","system_id":"levelo_inurba_marseille","lat":43.28007,"lon":5.40029,"is_reserved":false,"is_disabled":false,"rental_uris":{"android":"levelo://app?vid=ec5e31e2-9c84-4091-b656-01fe473797ba","ios":"levelo://app?vid=ec5e31e2-9c84-4091-b656-01fe473797ba"},"vehicle_type_id":"4","last_reported":1742144877,"current_range_meters":11600,"station_id":"ce4bho92rcd13ifvqh4g","pricing_plan_id":"cebpf4jnsgd1na2vs0mg"},{"bike_id":"3d928bd2-00de-442b-bad1-65a812dd02fc","system_id":"levelo_inurba_marseille","lat":43.27378,"lon":5.36256,"is_reserved":false,"is_disabled":false,"rental_uris":{"android":"levelo://app?vid=3d928bd2-00de-442b-bad1-65a812dd02fc","ios":"levelo://app?vid=3d928bd2-00de-442b-bad1-65a812dd02fc"},"vehicle_type_id":"4","last_reported":1742144877,"current_range_meters":11600,"station_id":"ce4bhbh2rcd13ifvqeo0","pricing_plan_id":"cebpf4jnsgd1na2vs0mg"},{"bike_id":"ce157c99-2b38-44c1-b6a5-db708ae225d5","system_id":"levelo_inurba_marseille","lat":43.24091,"lon":5.37756,"is_reserved":false,"is_disabled":false,"rental_uris":{"android":"levelo://app?vid=ce157c99-2b38-44c1-b6a5-db708ae225d5","ios":"levelo://app?vid=ce157c99-2b38-44c1-b6a5-db708ae225d5"},"vehicle_type_id":"4","last_reported":1742144877,"current_range_meters":11600,"station_id":"ce4bhnp2rcd13ifvqgvg","pricing_plan_id":"cebpf4jnsgd1na2vs0mg"},{"bike_id":"6fd8daf0-65ad-4624-b769-49c0e8425010","system_id":"levelo_inurba_marseille","lat":43.29601,"lon":5.38095,"is_reserved":false,"is_disabled":false,"rental_uris":{"android":"levelo://app?vid=6fd8daf0-65ad-4624-b769-49c0e8425010","ios":"levelo://app?vid=6fd8daf0-65ad-4624-b769-49c0e8425010"},"vehicle_type_id":"4","last_reported":1742144877,"current_range_meters":11600,"station_id":"ce4bgl12rcd13ifvqbo0","pricing_plan_id":"cebpf4jnsgd1na2vs0mg"},{"bike_id":"8fa7ea8d-156d-42f2-95b3-ae3567fc37ee","system_id":"levelo_inurba_marseille","lat":43.23185,"lon":5.39968,"is_reserved":false,"is_disabled":false,"rental_uris":{"android":"levelo://app?vid=8fa7ea8d-156d-42f2-95b3-ae3567fc37ee","ios":"levelo://app?vid=8fa7ea8d-156d-42f2-95b3-ae3567fc37ee"},"vehicle_type_id":"4","last_reported":1742144877,"current_range_meters":11600,"station_id":"ce4bhn12rcd13ifvqgqg","pricing_plan_id":"cebpf4jnsgd1na2vs0mg"},{"bike_id":"5c360faa-0955-4975-b556-d7ad18786321","system_id":"levelo_inurba_marseille","lat":43.29093,"lon":5.3818,"is_reserved":false,"is_disabled":false,"rental_uris":{"android":"levelo://app?vid=5c360faa-0955-4975-b556-d7ad18786321","ios":"levelo://app?vid=5c360faa-0955-4975-b556-d7ad18786321"},"vehicle_type_id":"4","last_reported":1742144877,"current_range_meters":11600,"station_id":"ce4bh512rcd13ifvqe2g","pricing_plan_id":"cebpf4jnsgd1na2vs0mg"},{"bike_id":"7744a398-14ee-4b67-a148-5c9c6471def4","system_id":"levelo_inurba_marseille","lat":43.25465,"lon":5.37626,"is_reserved":false,"is_disabled":true,"rental_uris":{"android":"levelo://app?vid=7744a398-14ee-4b67-a148-5c9c6471def4","ios":"levelo://app?vid=7744a398-14ee-4b67-a148-5c9c6471def4"},"vehicle_type_id":"4","last_reported":1742144877,"current_range_meters":11600,"station_id":"ce4bhh12rcd13ifvqff0","pricing_plan_id":"cebpf4jnsgd1na2vs0mg"},{"bike_id":"760b38d2-79b4-4c3c-b4bb-02586e46e837","system_id":"levelo_inurba_marseille","lat":43.30804,"lon":5.3816,"is_reserved":false,"is_disabled":true,"rental_uris":{"android":"levelo://app?vid=760b38d2-79b4-4c3c-b4bb-02586e46e837","ios":"levelo://app?vid=760b38d2-79b4-4c3c-b4bb-02586e46e837"},"vehicle_type_id":"4","last_reported":1742144877,"current_range_meters":11600,"station_id":"ce4bgt12rcd13ifvqce0","pricing_plan_id":"cebpf4jnsgd1na2vs0mg"},{"bike_id":"78c04153-a34b-4305-9905-09fe86f14271","system_id":"levelo_inurba_marseille","lat":43.308823,"lon":5.396543,"is_reserved":false,"is_disabled":false,"rental_uris":{"android":"levelo://app?vid=78c04153-a34b-4305-9905-09fe86f14271","ios":"levelo://app?vid=78c04153-a34b-4305-9905-09fe86f14271"},"vehicle_type_id":"4","last_reported":1742144877,"current_range_meters":11600,"station_id":"ce4bh012rcd13ifvqcv0","pricing_plan_id":"cebpf4jnsgd1na2vs0mg"},{"bike_id":"b2a9b540-5556-439b-ae8d-6d46b27b801c","system_id":"levelo_inurba_marseille","lat":43.28344,"lon":5.38111,"is_reserved":false,"is_disabled":true,"rental_uris":{"android":"levelo://app?vid=b2a9b540-5556-439b-ae8d-6d46b27b801c","ios":"levelo://app?vid=b2a9b540-5556-439b-ae8d-6d46b27b801c"},