{"last_updated":1720544871,"ttl":30,"version":"2.2","data":{"bikes":[{"bike_id":"18c2ca58-5717-4ac7-8d1b-6eb60b1397cf","system_id":"levelo_inurba_marseille","lat":43.312239,"lon":5.368562,"is_reserved":false,"is_disabled":false,"rental_uris":{"android":"levelo://app?vid=18c2ca58-5717-4ac7-8d1b-6eb60b1397cf","ios":"levelo://app?vid=18c2ca58-5717-4ac7-8d1b-6eb60b1397cf"},"vehicle_type_id":"4","last_reported":1720544871,"current_range_meters":29600,"station_id":"ce4bgl92rcd13ifvqbq0","pricing_plan_id":"cebpf4jnsgd1na2vs0mg"},{"bike_id":"6a0e24a4-0778-440a-a538-010ccffa84da","system_id":"levelo_inurba_marseille","lat":43.30907,"lon":5.36863,"is_reserved":false,"is_disabled":false,"rental_uris":{"android":"levelo://app?vid=6a0e24a4-0778-440a-a538-010ccffa84da","ios":"levelo://app?vid=6a0e24a4-0778-440a-a538-010ccffa84da"},"vehicle_type_id":"4","last_reported":1720544871,"current_range_meters":0,"station_id":"ce4bgn92rcd13ifvqbvg","pricing_plan_id":"cebpf4jnsgd1na2vs0mg"},{"bike_id":"010056ea-7eb8-4f2d-a28e-f428bb92a1dd","system_id":"levelo_inurba_marseille","lat":43.309039,"lon":5.371797,"is_reserved":false,"is_disabled":false,"rental_uris":{"android":"levelo://app?vid=010056ea-7eb8-4f2d-a28e-f428bb92a1dd","ios":"levelo://app?vid=010056ea-7eb8-4f2d-a28e-f428bb92a1dd"},"vehicle_type_id":"4","last_reported":1720544871,"current_range_meters":2000,"station_id":"ce4bguh2rcd13ifvqckg","pricing_plan_id":"cebpf4jnsgd1na2vs0mg"},{"bike_id":"e9677f64-4d19-4550-9b24-f599839d17e7","system_id":"levelo_inurba_marseille","lat":43.31466,"lon":5.37386,"is_reserved":false,"is_disabled":false,"rental_uris":{"android":"levelo://app?vid=e9677f64-4d19-4550-9b24-f599839d17e7","ios":"levelo://app?vid=e9677f64-4d19-4550-9b24-f599839d17e7"},"vehicle_type_id":"4","last_reported":1720544871,"current_range_meters":19200,"station_id":"","pricing_plan_id":"cebpf4jnsgd1na2vs0mg"},{"bike_id":"525d1a09-10f2-4d1f-aaed-9579fe1b9575","system_id":"levelo_inurba_marseille","lat":43.30847,"lon":5.37476,"is_reserved":false,"is_disabled":false,"rental_uris":{"android":"levelo://app?vid=525d1a09-10f2-4d1f-aaed-9579fe1b9575","ios":"levelo://app?vid=525d1a09-10f2-4d1f-aaed-9579fe1b9575"},"vehicle_type_id":"4","last_reported":1720544871,"current_range_meters":14400,"station_id":"","pricing_plan_id":"cebpf4jnsgd1na2vs0mg"},{"bike_id":"8c90aab2-6655-436f-ab64-8724d8d01fab","system_id":"levelo_inurba_marseille","lat":43.30534,"lon":5.36661,"is_reserved":false,"is_disabled":false,"rental_uris":{"android":"levelo://app?vid=8c90aab2-6655-436f-ab64-8724d8d01fab","ios":"levelo://app?vid=8c90aab2-6655-436f-ab64-8724d8d01fab"},"vehicle_type_id":"4","last_reported":1720544871,"current_range_meters":20400,"station_id":"","pricing_plan_id":"cebpf4jnsgd1na2vs0mg"},{"bike_id":"6066395a-427c-4399-8c52-cf48c31b0152","system_id":"levelo_inurba_marseille","lat":43.311125,"lon":5.377624,"is_reserved":false,"is_disabled":false,"rental_uris":{"android":"levelo://app?vid=6066395a-427c-4399-8c52-cf48c31b0152","ios":"levelo://app?vid=6066395a-427c-4399-8c52-cf48c31b0152"},"vehicle_type_id":"4","last_reported":1720544871,"current_range_meters":19200,"station_id":"ce4bgt92rcd13ifvqcg0","pricing_plan_id":"cebpf4jnsgd1na2vs0mg"},{"bike_id":"6f185fc8-d840-4b89-ada8-012c67290009","system_id":"levelo_inurba_marseille","lat":43.30489,"lon":5.37124,"is_reserved":false,"is_disabled":false,"rental_uris":{"android":"levelo://app?vid=6f185fc8-d840-4b89-ada8-012c67290009","ios":"levelo://app?vid=6f185fc8-d840-4b89-ada8-012c67290009"},"vehicle_type_id":"4","last_reported":1720544871,"current_range_meters":30000,"station_id":"","pricing_plan_id":"cebpf4jnsgd1na2vs0mg"},{"bike_id":"15a80335-e3e9-4e2c-9472-349df5a345bb","system_id":"levelo_inurba_marseille","lat":43.307945,"lon":5.376487,"is_reserved":false,"is_disabled":false,"rental_uris":{"android":"levelo://app?vid=15a80335-e3e9-4e2c-9472-349df5a345bb","ios":"levelo://app?vid=15a80335-e3e9-4e2c-9472-349df5a345bb"},"vehicle_type_id":"4","last_reported":1720544871,"current_range_meters":5600,"station_id":"ce4bgv92rcd13ifvqcq0","pricing_plan_id":"cebpf4jnsgd1na2vs0mg"},{"bike_id":"14232d67-b16a-4131-b16e-5a21717a125e","system_id":"levelo_inurba_marseille","lat":43.317075,"lon":5.377367,"is_reserved":false,"is_disabled":false,"rental_uris":{"android":"levelo://app?vid=14232d67-b16a-4131-b16e-5a21717a125e","ios":"levelo://app?vid=14232d67-b16a-4131-b16e-5a21717a125e"},"vehicle_type_id":"4","last_reported":1720544871,"current_range_meters":8800,"station_id":"ce4bgth2rcd13ifvqch0","pricing_plan_id":"cebpf4jnsgd1na2vs0mg"},{"bike_id":"c45062aa-70d3-43ff-9ab1-de50f10abbd9","system_id":"levelo_inurba_marseille","lat":43.31707,"lon":5.37767,"is_reserved":false,"is_disabled":false,"rental_uris":{"android":"levelo://app?vid=c45062aa-70d3-43ff-9ab1-de50f10abbd9","ios":"levelo://app?vid=c45062aa-70d3-43ff-9ab1-de50f10abbd9"},"vehicle_type_id":"4","last_reported":1720544871,"current_range_meters":20800,"station_id":"ce4bgth2rcd13ifvqch0","pricing_plan_id":"cebpf4jnsgd1na2vs0mg"},{"bike_id":"7d567092-42dd-4355-b2b1-ed9c66a59dde","system_id":"levelo_inurba_marseille","lat":43.31315,"lon":5.379305,"is_reserved":false,"is_disabled":false,"rental_uris":{"android":"levelo://app?vid=7d567092-42dd-4355-b2b1-ed9c66a59dde","ios":"levelo://app?vid=7d567092-42dd-4355-b2b1-ed9c66a59dde"},"vehicle_type_id":"4","last_reported":1720544871,"current_range_meters":8000,"station_id":"ce4bhsp2rcd13ifvqi50","pricing_plan_id":"cebpf4jnsgd1na2vs0mg"},{"bike_id":"660a3582-d79e-4a45-a405-c6d9fae7c4cb","system_id":"levelo_inurba_marseille","lat":43.303046,"lon":5.368981,"is_reserved":false,"is_disabled":false,"rental_uris":{"android":"levelo://app?vid=660a3582-d79e-4a45-a405-c6d9fae7c4cb","ios":"levelo://app?vid=660a3582-d79e-4a45-a405-c6d9fae7c4cb"},"vehicle_type_id":"4","last_reported":1720544871,"current_range_meters":1200,"station_id":"ce4bgqh2rcd13ifvqc5g","pricing_plan_id":"cebpf4jnsgd1na2vs0mg"},{"bike_id":"ff51203f-c7c0-40b9-b30c-933ba1a40941","system_id":"levelo_inurba_marseille","lat":43.3153,"lon":5.38035,"is_reserved":false,"is_disabled":false,"rental_uris":{"android":"levelo://app?vid=ff51203f-c7c0-40b9-b30c-933ba1a40941","ios":"levelo://app?vid=ff51203f-c7c0-40b9-b30c-933ba1a40941"},"vehicle_type_id":"4","last_reported":1720544871,"current_range_meters":9200,"station_id":"ce4bhsp2rcd13ifvqi50","pricing_plan_id":"cebpf4jnsgd1na2vs0mg"},{"bike_id":"b002fede-79ce-4139-bb55-6a87446cf623","system_id":"levelo_inurba_marseille","lat":43.30207,"lon":5.36774,"is_reserved":false,"is_disabled":false,"rental_uris":{"android":"levelo://app?vid=b002fede-79ce-4139-bb55-6a87446cf623","ios":"levelo://app?vid=b002fede-79ce-4139-bb55-6a87446cf623"},"vehicle_type_id":"4","last_reported":1720544871,"current_range_meters":24800,"station_id":"","pricing_plan_id":"cebpf4jnsgd1na2vs0mg"},{"bike_id":"ef1562d8-d68b-4444-a3a0-a0d1f5d24a08","system_id":"levelo_inurba_marseille","lat":43.301939,"lon":5.366286,"is_reserved":false,"is_disabled":false,"rental_uris":{"android":"levelo://app?vid=ef1562d8-d68b-4444-a3a0-a0d1f5d24a08","ios":"levelo://app?vid=ef1562d8-d68b-4444-a3a0-a0d1f5d24a08"},"vehicle_type_id":"4","last_reported":1720544871,"current_range_meters":0,"station_id":"ce4bgrh2rcd13ifvqc8g","pricing_plan_id":"cebpf4jnsgd1na2vs0mg"},{"bike_id":"b203427b-738c-463e-9041-7a622312367a","system_id":"levelo_inurba_marseille","lat":43.301939,"lon":5.366286,"is_reserved":false,"is_disabled":false,"rental_uris":{"android":"levelo://app?vid=b203427b-738c-463e-9041-7a622312367a","ios":"levelo://app?vid=b203427b-738c-463e-9041-7a622312367a"},"vehicle_type_id":"4","last_reported":1720544871,"current_range_meters":0,"station_id":"ce4bgrh2rcd13ifvqc8g","pricing_plan_id":"cebpf4jnsgd1na2vs0mg"},{"bike_id":"e74a5e87-33e4-4ebd-873f-1a3980f40f5f","system_id":"levelo_inurba_marseille","lat":43.301008,"lon":5.368712,"is_reserved":false,"is_disabled":false,"rental_uris":{"android":"levelo://app?vid=e74a5e87-33e4-4ebd-873f-1a3980f40f5f","ios":"levelo://app?vid=e74a5e87-33e4-4ebd-873f-1a3980f40f5f"},"vehicle_type_id":"4","last_reported":1720544871,"current_range_meters":7600,"station_id":"","pricing_plan_id":"cebpf4jnsgd1na2vs0mg"},{"bike_id":"e4247a93-09e7-44b6-8340-b434deb41367","system_id":"levelo_inurba_marseille","lat":43.304606,"lon":5.379026,"is_reserved":false,"is_disabled":false,"rental_uris":{"android":"levelo://app?vid=e4247a93-09e7-44b6-8340-b434deb41367","ios":"levelo://app?vid=e4247a93-09e7-44b6-8340-b434deb41367"},"vehicle_type_id":"4","last_reported":1720544871,"current_range_meters":0,"station_id":"ce4bgup2rcd13ifvqcn0","pricing_plan_id":"cebpf4jnsgd1na2vs0mg"},{"bike_id":"48811dbe-01ce-415c-aab5-3e69ae1c9aa7","system_id":"levelo_inurba_marseille","lat":43.304606,"lon":5.379026,"is_reserved":false,"is_disabled":false,"rental_uris":{"android":"levelo://app?vid=48811dbe-01ce-415c-aab5-3e69ae1c9aa7","ios":"levelo://app?vid=48811dbe-01ce-415c-aab5-3e69ae1c9aa7"},"vehicle_type_id":"4","last_reported":1720544871,"current_range_meters":11600,"station_id":"ce4bgup2rcd13ifvqcn0","pricing_plan_id":"cebpf4jnsgd1na2vs0mg"},{"bike_id":"2f8cbb8a-6b58-472d-8339-b0d9c2e00778","system_id":"levelo_inurba_marseille","lat":43.324788,"lon":5.365771,"is_reserved":false,"is_disabled":false,"rental_uris":{"android":"levelo://app?vid=2f8cbb8a-6b58-472d-8339-b0d9c2e00778","ios":"levelo://app?vid=2f8cbb8a-6b58-472d-8339-b0d9c2e00778"},"vehicle_type_id":"4","last_reported":1720544871,"current_range_meters":16800,"station_id":"ce4bhs12rcd13ifvqhvg","pricing_plan_id":"cebpf4jnsgd1na2vs0mg"},{"bike_id":"6c161ef7-e331-47e0-a311-7d3881f22d83","system_id":"levelo_inurba_marseille","lat":43.324771,"lon":5.36557,"is_reserved":false,"is_disabled":false,"rental_uris":{"android":"levelo://app?vid=6c161ef7-e331-47e0-a311-7d3881f22d83","ios":"levelo://app?vid=6c161ef7-e331-47e0-a311-7d3881f22d83"},"vehicle_type_id":"4","last_reported":1720544871,"current_range_meters":32000,"station_id":"ce4bhs12rcd13ifvqhvg","pricing_plan_id":"cebpf4jnsgd1na2vs0mg"},{"bike_id":"2854fc22-ee9b-4be2-93ec-25bca00574cd","system_id":"levelo_inurba_marseille","lat":43.324771,"lon":5.36557,"is_reserved":false,"is_disabled":false,"rental_uris":{"android":"levelo://app?vid=2854fc22-ee9b-4be2-93ec-25bca00574cd","ios":"levelo://app?vid=2854fc22-ee9b-4be2-93ec-25bca00574cd"},"vehicle_type_id":"4","last_reported":1720544871,"current_range_meters":29600,"station_id":"ce4bhs12rcd13ifvqhvg","pricing_plan_id":"cebpf4jnsgd1na2vs0mg"},{"bike_id":"0d17c33d-d096-4d16-bc11-66a3a33d6c1e","system_id":"levelo_inurba_marseille","lat":43.3248,"lon":5.3656,"is_reserved":false,"is_disabled":false,"rental_uris":{"android":"levelo://app?vid=0d17c33d-d096-4d16-bc11-66a3a33d6c1e","ios":"levelo://app?vid=0d17c33d-d096-4d16-bc11-66a3a33d6c1e"},"vehicle_type_id":"4","last_reported":1720544871,"current_range_meters":27600,"station_id":"ce4bhs12rcd13ifvqhvg","pricing_plan_id":"cebpf4jnsgd1na2vs0mg"},{"bike_id":"a40e8641-70d0-4e45-8b2e-6af26f473c5b","system_id":"levelo_inurba_marseille","lat":43.324771,"lon":5.36557,"is_reserved":false,"is_disabled":false,"rental_uris":{"android":"levelo://app?vid=a40e8641-70d0-4e45-8b2e-6af26f473c5b","ios":"levelo://app?vid=a40e8641-70d0-4e45-8b2e-6af26f473c5b"},"vehicle_type_id":"4","last_reported":1720544871,"current_range_meters":31200,"station_id":"ce4bhs12rcd13ifvqhvg","pricing_plan_id":"cebpf4jnsgd1na2vs0mg"},{"bike_id":"736b006d-eb18-434f-8304-02f2a380b86d","system_id":"levelo_inurba_marseille","lat":43.324771,"lon":5.36557,"is_reserved":false,"is_disabled":false,"rental_uris":{"android":"levelo://app?vid=736b006d-eb18-434f-8304-02f2a380b86d","ios":"levelo://app?vid=736b006d-eb18-434f-8304-02f2a380b86d"},"vehicle_type_id":"4","last_reported":1720544871,"current_range_meters":32000,"station_id":"ce4bhs12rcd13ifvqhvg","pricing_plan_id":"cebpf4jnsgd1na2vs0mg"},{"bike_id":"99ed4cb1-c592-47b8-a272-7bfe4bc44b56","system_id":"levelo_inurba_marseille","lat":43.32482,"lon":5.365765,"is_reserved":false,"is_disabled":false,"rental_uris":{"android":"levelo://app?vid=99ed4cb1-c592-47b8-a272-7bfe4bc44b56","ios":"levelo://app?vid=99ed4cb1-c592-47b8-a272-7bfe4bc44b56"},"vehicle_type_id":"4","last_reported":1720544871,"current_range_meters":20000,"station_id":"ce4bhs12rcd13ifvqhvg","pricing_plan_id":"cebpf4jnsgd1na2vs0mg"},{"bike_id":"b66c4f64-689e-417f-b940-274f8cc1ece6","system_id":"levelo_inurba_marseille","lat":43.32482,"lon":5.36574,"is_reserved":false,"is_disabled":false,"rental_uris":{"android":"levelo://app?vid=b66c4f64-689e-417f-b940-274f8cc1ece6","ios":"levelo://app?vid=b66c4f64-689e-417f-b940-274f8cc1ece6"},"vehicle_type_id":"4","last_reported":1720544871,"current_range_meters":0,"station_id":"ce4bhs12rcd13ifvqhvg","pricing_plan_id":"cebpf4jnsgd1na2vs0mg"},{"bike_id":"ca590c58-eefb-43f3-a46a-22125ee46971","system_id":"levelo_inurba_marseille","lat":43.32483,"lon":5.36563,"is_reserved":false,"is_disabled":false,"rental_uris":{"android":"levelo://app?vid=ca590c58-eefb-43f3-a46a-22125ee46971","ios":"levelo://app?vid=ca590c58-eefb-43f3-a46a-22125ee46971"},"vehicle_type_id":"4","last_reported":1720544871,"current_range_meters":23200,"station_id":"ce4bhs12rcd13ifvqhvg","pricing_plan_id":"cebpf4jnsgd1na2vs0mg"},{"bike_id":"9dc9a6f5-5a77-4ad0-949e-5299f5781239","system_id":"levelo_inurba_marseille","lat":43.324771,"lon":5.36557,"is_reserved":false,"is_disabled":false,"rental_uris":{"android":"levelo://app?vid=9dc9a6f5-5a77-4ad0-949e-5299f5781239","ios":"levelo://app?vid=9dc9a6f5-5a77-4ad0-949e-5299f5781239"},"vehicle_type_id":"4","last_reported":1720544871,"current_range_meters":17600,"station_id":"ce4bhs12rcd13ifvqhvg","pricing_plan_id":"cebpf4jnsgd1na2vs0mg"},{"bike_id":"59ae1802-b91f-4962-9902-80a0d90677da","system_id":"levelo_inurba_marseille","lat":43.324771,"lon":5.36557,"is_reserved":false,"is_disabled":false,"rental_uris":{"android":"levelo://app?vid=59ae1802-b91f-4962-9902-80a0d90677da","ios":"levelo://app?vid=59ae1802-b91f-4962-9902-80a0d90677da"},"vehicle_type_id":"4","last_reported":1720544871,"current_range_meters":22000,"station_id":"ce4bhs12rcd13ifvqhvg","pricing_plan_id":"cebpf4jnsgd1na2vs0mg"},{"bike_id":"c1aa7e40-5514-4d91-90f5-78e60593c7a1","system_id":"levelo_inurba_marseille","lat":43.324771,"lon":5.36557,"is_reserved":false,"is_disabled":false,"rental_uris":{"android":"levelo://app?vid=c1aa7e40-5514-4d91-90f5-78e60593c7a1","ios":"levelo://app?vid=c1aa7e40-5514-4d91-90f5-78e60593c7a1"},"vehicle_type_id":"4","last_reported":1720544871,"current_range_meters":31600,"station_id":"ce4bhs12rcd13ifvqhvg","pricing_plan_id":"cebpf4jnsgd1na2vs0mg"},{"bike_id":"3b6f66fb-9e0a-4052-87c6-71ce8e2a90c6","system_id":"levelo_inurba_marseille","lat":43.32487,"lon":5.36573,"is_reserved":false,"is_disabled":false,"rental_uris":{"android":"levelo://app?vid=3b6f66fb-9e0a-4052-87c6-71ce8e2a90c6","ios":"levelo://app?vid=3b6f66fb-9e0a-4052-87c6-71ce8e2a90c6"},"vehicle_type_id":"4","last_reported":1720544871,"current_range_meters":18000,"station_id":"ce4bhs12rcd13ifvqhvg","pricing_plan_id":"cebpf4jnsgd1na2vs0mg"},{"bike_id":"53860622-9335-4cff-acda-1e8f5c589221","system_id":"levelo_inurba_marseille","lat":43.324771,"lon":5.36557,"is_reserved":false,"is_disabled":false,"rental_uris":{"android":"levelo://app?vid=53860622-9335-4cff-acda-1e8f5c589221","ios":"levelo://app?vid=53860622-9335-4cff-acda-1e8f5c589221"},"vehicle_type_id":"4","last_reported":1720544871,"current_range_meters":27200,"station_id":"ce4bhs12rcd13ifvqhvg","pricing_plan_id":"cebpf4jnsgd1na2vs0mg"},{"bike_id":"8ced7aaa-6723-4da1-b29e-eaa1acebe5a8","system_id":"levelo_inurba_marseille","lat":43.324771,"lon":5.36557,"is_reserved":false,"is_disabled":false,"rental_uris":{"android":"levelo://app?vid=8ced7aaa-6723-4da1-b29e-eaa1acebe5a8","ios":"levelo://app?vid=8ced7aaa-6723-4da1-b29e-eaa1acebe5a8"},"vehicle_type_id":"4","last_reported":1720544871,"current_range_meters":30800,"station_id":"ce4bhs12rcd13ifvqhvg","pricing_plan_id":"cebpf4jnsgd1na2vs0mg"},{"bike_id":"37a227cf-5ac6-4a9f-8964-734e74009f18","system_id":"levelo_inurba_marseille","lat":43.324771,"lon":5.36557,"is_reserved":false,"is_disabled":false,"rental_uris":{"android":"levelo://app?vid=37a227cf-5ac6-4a9f-8964-734e74009f18","ios":"levelo://app?vid=37a227cf-5ac6-4a9f-8964-734e74009f18"},"vehicle_type_id":"4","last_reported":1720544871,"current_range_meters":16400,"station_id":"ce4bhs12rcd13ifvqhvg","pricing_plan_id":"cebpf4jnsgd1na2vs0mg"},{"bike_id":"54c37e49-f076-45e3-828b-61dd8da04feb","system_id":"levelo_inurba_marseille","lat":43.324771,"lon":5.36557,"is_reserved":false,"is_disabled":false,"rental_uris":{"android":"levelo://app?vid=54c37e49-f076-45e3-828b-61dd8da04feb","ios":"levelo://app?vid=54c37e49-f076-45e3-828b-61dd8da04feb"},"vehicle_type_id":"4","last_reported":1720544871,"current_range_meters":26800,"station_id":"ce4bhs12rcd13ifvqhvg","pricing_plan_id":"cebpf4jnsgd1na2vs0mg"},{"bike_id":"3dcafee7-e8bd-431a-bc53-bf4727f68a3e","system_id":"levelo_inurba_marseille","lat":43.310804,"lon":5.38359,"is_reserved":false,"is_disabled":false,"rental_uris":{"android":"levelo://app?vid=3dcafee7-e8bd-431a-bc53-bf4727f68a3e","ios":"levelo://app?vid=3dcafee7-e8bd-431a-bc53-bf4727f68a3e"},"vehicle_type_id":"4","last_reported":1720544871,"current_range_meters":0,"station_id":"ce4bgv92rcd13ifvqcr0","pricing_plan_id":"cebpf4jnsgd1na2vs0mg"},{"bike_id":"c072cd33-e418-474b-bdaf-10a5a067d29b","system_id":"levelo_inurba_marseille","lat":43.310804,"lon":5.38359,"is_reserved":false,"is_disabled":false,"rental_uris":{"android":"levelo://app?vid=c072cd33-e418-474b-bdaf-10a5a067d29b","ios":"levelo://app?vid=c072cd33-e418-474b-bdaf-10a5a067d29b"},"vehicle_type_id":"4","last_reported":1720544871,"current_range_meters":0,"station_id":"ce4bgv92rcd13ifvqcr0","pricing_plan_id":"cebpf4jnsgd1na2vs0mg"},{"bike_id":"04c75544-eeb0-4cc1-8291-605f3a26a64a","system_id":"levelo_inurba_marseille","lat":43.302784,"lon":5.377158,"is_reserved":false,"is_disabled":false,"rental_uris":{"android":"levelo://app?vid=04c75544-eeb0-4cc1-8291-605f3a26a64a","ios":"levelo://app?vid=04c75544-eeb0-4cc1-8291-605f3a26a64a"},"vehicle_type_id":"4","last_reported":1720544871,"current_range_meters":21200,"station_id":"ce4bguh2rcd13ifvqcj0","pricing_plan_id":"cebpf4jnsgd1na2vs0mg"},{"bike_id":"bced072f-e8d2-4f6f-93b6-2c26ed91bd0c","system_id":"levelo_inurba_marseille","lat":43.302784,"lon":5.377158,"is_reserved":false,"is_disabled":false,"rental_uris":{"android":"levelo://app?vid=bced072f-e8d2-4f6f-93b6-2c26ed91bd0c","ios":"levelo://app?vid=bced072f-e8d2-4f6f-93b6-2c26ed91bd0c"},"vehicle_type_id":"4","last_reported":1720544871,"current_range_meters":2400,"station_id":"ce4bguh2rcd13ifvqcj0","pricing_plan_id":"cebpf4jnsgd1na2vs0mg"},{"bike_id":"e7e1da9e-7821-43d3-96b9-2e78a4742606","system_id":"levelo_inurba_marseille","lat":43.29941,"lon":5.36544,"is_reserved":false,"is_disabled":false,"rental_uris":{"android":"levelo://app?vid=e7e1da9e-7821-43d3-96b9-2e78a4742606","ios":"levelo://app?vid=e7e1da9e-7821-43d3-96b9-2e78a4742606"},"vehicle_type_id":"4","last_reported":1720544871,"current_range_meters":0,"station_id":"ce4bgm92rcd13ifvqbr0","pricing_plan_id":"cebpf4jnsgd1na2vs0mg"},{"bike_id":"b318781e-29e9-4a2a-aa5f-d963f5575ffb","system_id":"levelo_inurba_marseille","lat":43.305364,"lon":5.384119,"is_reserved":false,"is_disabled":false,"rental_uris":{"android":"levelo://app?vid=b318781e-29e9-4a2a-aa5f-d963f5575ffb","ios":"levelo://app?vid=b318781e-29e9-4a2a-aa5f-d963f5575ffb"},"vehicle_type_id":"4","last_reported":1720544871,"current_range_meters":2000,"station_id":"ce4bgg92rcd13ifvqb30","pricing_plan_id":"cebpf4jnsgd1na2vs0mg"},{"bike_id":"8be4738b-e15e-4c90-b6e7-e3a547767a89","system_id":"levelo_inurba_marseille","lat":43.305364,"lon":5.384119,"is_reserved":false,"is_disabled":false,"rental_uris":{"android":"levelo://app?vid=8be4738b-e15e-4c90-b6e7-e3a547767a89","ios":"levelo://app?vid=8be4738b-e15e-4c90-b6e7-e3a547767a89"},"vehicle_type_id":"4","last_reported":1720544871,"current_range_meters":13600,"station_id":"ce4bgg92rcd13ifvqb30","pricing_plan_id":"cebpf4jnsgd1na2vs0mg"},{"bike_id":"94832a7f-7025-477a-99dd-90c90c29be65","system_id":"levelo_inurba_marseille","lat":43.322897,"lon":5.382693,"is_reserved":false,"is_disabled":false,"rental_uris":{"android":"levelo://app?vid=94832a7f-7025-477a-99dd-90c90c29be65","ios":"levelo://app?vid=94832a7f-7025-477a-99dd-90c90c29be65"},"vehicle_type_id":"4","last_reported":1720544871,"current_range_meters":29200,"station_id":"ce4bhr12rcd13ifvqhqg","pricing_plan_id":"cebpf4jnsgd1na2vs0mg"},{"bike_id":"fb35f2d9-822e-4fb5-b5db-53bde9a7a5da","system_id":"levelo_inurba_marseille","lat":43.297163,"lon":5.365866,"is_reserved":false,"is_disabled":false,"rental_uris":{"android":"levelo://app?vid=fb35f2d9-822e-4fb5-b5db-53bde9a7a5da","ios":"levelo://app?vid=fb35f2d9-822e-4fb5-b5db-53bde9a7a5da"},"vehicle_type_id":"4","last_reported":1720544871,"current_range_meters":13600,"station_id":"ce4bgn12rcd13ifvqbt0","pricing_plan_id":"cebpf4jnsgd1na2vs0mg"},{"bike_id":"3060a047-e8e4-4f01-b242-61681f16cfe7","system_id":"levelo_inurba_marseille","lat":43.299028,"lon":5.381509,"is_reserved":false,"is_disabled":false,"rental_uris":{"android":"levelo://app?vid=3060a047-e8e4-4f01-b242-61681f16cfe7","ios":"levelo://app?vid=3060a047-e8e4-4f01-b242-61681f16cfe7"},"vehicle_type_id":"4","last_reported":1720544871,"current_range_meters":13200,"station_id":"ce4bgj12rcd13ifvqbc0","pricing_plan_id":"cebpf4jnsgd1na2vs0mg"},{"bike_id":"36b6dbd3-0b68-48a6-90b4-20607a5000d5","system_id":"levelo_inurba_marseille","lat":43.317557,"lon":5.390173,"is_reserved":false,"is_disabled":false,"rental_uris":{"android":"levelo://app?vid=36b6dbd3-0b68-48a6-90b4-20607a5000d5","ios":"levelo://app?vid=36b6dbd3-0b68-48a6-90b4-20607a5000d5"},"vehicle_type_id":"4","last_reported":1720544871,"current_range_meters":22800,"station_id":"ce4bhqp2rcd13ifvqhng","pricing_plan_id":"cebpf4jnsgd1na2vs0mg"},{"bike_id":"f2ef8d9a-064f-45d0-8ebb-e5111d7335fb","system_id":"levelo_inurba_marseille","lat":43.299243,"lon":5.374807,"is_reserved":false,"is_disabled":false,"rental_uris":{"android":"levelo://app?vid=f2ef8d9a-064f-45d0-8ebb-e5111d7335fb","ios":"levelo://app?vid=f2ef8d9a-064f-45d0-8ebb-e5111d7335fb"},"vehicle_type_id":"4","last_reported":1720544871,"current_range_meters":0,"station_id":"ce4bgjh2rcd13ifvqbg0","pricing_plan_id":"cebpf4jnsgd1na2vs0mg"},{"bike_id":"64e7c827-6244-4474-893a-c94d4bd6d657","system_id":"levelo_inurba_marseille","lat":43.298037,"lon":5.381066,"is_reserved":false,"is_disabled":false,"rental_uris":{"android":"levelo://app?vid=64e7c827-6244-4474-893a-c94d4bd6d657","ios":"levelo://app?vid=64e7c827-6244-4474-893a-c94d4bd6d657"},"vehicle_type_id":"4","last_reported":1720544871,"current_range_meters":0,"station_id":"ce4bgip2rcd13ifvqbb0","pricing_plan_id":"cebpf4jnsgd1na2vs0mg"},{"bike_id":"d6721b5c-b345-4ac4-8e12-f60319b39356","system_id":"levelo_inurba_marseille","lat":43.29574,"lon":5.3751,"is_reserved":false,"is_disabled":false,"rental_uris":{"android":"levelo://app?vid=d6721b5c-b345-4ac4-8e12-f60319b39356","ios":"levelo://app?vid=d6721b5c-b345-4ac4-8e12-f60319b39356"},"vehicle_type_id":"4","last_reported":1720544871,"current_range_meters":28800,"station_id":"ce4bgh92rcd13ifvqb50","pricing_plan_id":"cebpf4jnsgd1na2vs0mg"},{"bike_id":"d7712be0-b48b-4da1-911c-012534545145","system_id":"levelo_inurba_marseille","lat":43.29569,"lon":5.37513,"is_reserved":false,"is_disabled":false,"rental_uris":{"android":"levelo://app?vid=d7712be0-b48b-4da1-911c-012534545145","ios":"levelo://app?vid=d7712be0-b48b-4da1-911c-012534545145"},"vehicle_type_id":"4","last_reported":1720544871,"current_range_meters":0,"station_id":"ce4bgh92rcd13ifvqb50","pricing_plan_id":"cebpf4jnsgd1na2vs0mg"},{"bike_id":"821f3c17-d1da-4fc8-8ea2-5a00196a528e","system_id":"levelo_inurba_marseille","lat":43.304278,"lon":5.388868,"is_reserved":false,"is_disabled":false,"rental_uris":{"android":"levelo://app?vid=821f3c17-d1da-4fc8-8ea2-5a00196a528e","ios":"levelo://app?vid=821f3c17-d1da-4fc8-8ea2-5a00196a528e"},"vehicle_type_id":"4","last_reported":1720544871,"current_range_meters":3200,"station_id":"ce4bgk12rcd13ifvqbi0","pricing_plan_id":"cebpf4jnsgd1na2vs0mg"},{"bike_id":"4175db64-f3d0-4062-a462-4535b5d3f643","system_id":"levelo_inurba_marseille","lat":43.304278,"lon":5.388868,"is_reserved":false,"is_disabled":false,"rental_uris":{"android":"levelo://app?vid=4175db64-f3d0-4062-a462-4535b5d3f643","ios":"levelo://app?vid=4175db64-f3d0-4062-a462-4535b5d3f643"},"vehicle_type_id":"4","last_reported":1720544871,"current_range_meters":5200,"station_id":"ce4bgk12rcd13ifvqbi0","pricing_plan_id":"cebpf4jnsgd1na2vs0mg"},{"bike_id":"e3d1e072-a76b-485c-8f12-d5baa3a14b40","system_id":"levelo_inurba_marseille","lat":43.29978,"lon":5.38496,"is_reserved":false,"is_disabled":false,"rental_uris":{"android":"levelo://app?vid=e3d1e072-a76b-485c-8f12-d5baa3a14b40","ios":"levelo://app?vid=e3d1e072-a76b-485c-8f12-d5baa3a14b40"},"vehicle_type_id":"4","last_reported":1720544871,"current_range_meters":18800,"station_id":"ce4bgj92rcd13ifvqbd0","pricing_plan_id":"cebpf4jnsgd1na2vs0mg"},{"bike_id":"439328c0-323a-4c04-ad4b-92d67027552f","system_id":"levelo_inurba_marseille","lat":43.299717,"lon":5.384845,"is_reserved":false,"is_disabled":false,"rental_uris":{"android":"levelo://app?vid=439328c0-323a-4c04-ad4b-92d67027552f","ios":"levelo://app?vid=439328c0-323a-4c04-ad4b-92d67027552f"},"vehicle_type_id":"4","last_reported":1720544871,"current_range_meters":0,"station_id":"ce4bgj92rcd13ifvqbd0","pricing_plan_id":"cebpf4jnsgd1na2vs0mg"},{"bike_id":"0c12419c-9983-4dcf-a15a-7500f4fa562a","system_id":"levelo_inurba_marseille","lat":43.299707,"lon":5.384859,"is_reserved":false,"is_disabled":false,"rental_uris":{"android":"levelo://app?vid=0c12419c-9983-4dcf-a15a-7500f4fa562a","ios":"levelo://app?vid=0c12419c-9983-4dcf-a15a-7500f4fa562a"},"vehicle_type_id":"4","last_reported":1720544871,"current_range_meters":0,"station_id":"ce4bgj92rcd13ifvqbd0","pricing_plan_id":"cebpf4jnsgd1na2vs0mg"},{"bike_id":"f2a63bcb-b1af-4297-960e-0e3b445b6ad5","system_id":"levelo_inurba_marseille","lat":43.295279,"lon":5.375048,"is_reserved":false,"is_disabled":false,"rental_uris":{"android":"levelo://app?vid=f2a63bcb-b1af-4297-960e-0e3b445b6ad5","ios":"levelo://app?vid=f2a63bcb-b1af-4297-960e-0e3b445b6ad5"},"vehicle_type_id":"4","last_reported":1720544871,"current_range_meters":6800,"station_id":"ce4bgkp2rcd13ifvqbmg","pricing_plan_id":"cebpf4jnsgd1na2vs0mg"},{"bike_id":"10cf35e9-8b30-4201-ac0a-8c45c74efaac","system_id":"levelo_inurba_marseille","lat":43.32367,"lon":5.388836,"is_reserved":false,"is_disabled":false,"rental_uris":{"android":"levelo://app?vid=10cf35e9-8b30-4201-ac0a-8c45c74efaac","ios":"levelo://app?vid=10cf35e9-8b30-4201-ac0a-8c45c74efaac"},"vehicle_type_id":"4","last_reported":1720544871,"current_range_meters":10400,"station_id":"ce4bhqp2rcd13ifvqhog","pricing_plan_id":"cebpf4jnsgd1na2vs0mg"},{"bike_id":"f710d41b-745b-490b-8f15-bd50b1c64c72","system_id":"levelo_inurba_marseille","lat":43.32367,"lon":5.388836,"is_reserved":false,"is_disabled":false,"rental_uris":{"android":"levelo://app?vid=f710d41b-745b-490b-8f15-bd50b1c64c72","ios":"levelo://app?vid=f710d41b-745b-490b-8f15-bd50b1c64c72"},"vehicle_type_id":"4","last_reported":1720544871,"current_range_meters":0,"station_id":"ce4bhqp2rcd13ifvqhog","pricing_plan_id":"cebpf4jnsgd1na2vs0mg"},{"bike_id":"9e8672c9-9b2f-48a7-86ec-2ae73cb9ccf5","system_id":"levelo_inurba_marseille","lat":43.29606,"lon":5.38108,"is_reserved":false,"is_disabled":false,"rental_uris":{"android":"levelo://app?vid=9e8672c9-9b2f-48a7-86ec-2ae73cb9ccf5","ios":"levelo://app?vid=9e8672c9-9b2f-48a7-86ec-2ae73cb9ccf5"},"vehicle_type_id":"4","last_reported":1720544871,"current_range_meters":12000,"station_id":"ce4bgl12rcd13ifvqbo0","pricing_plan_id":"cebpf4jnsgd1na2vs0mg"},{"bike_id":"01ec1fec-1509-4a16-b778-2a95edba1959","system_id":"levelo_inurba_marseille","lat":43.29601,"lon":5.381084,"is_reserved":false,"is_disabled":false,"rental_uris":{"android":"levelo://app?vid=01ec1fec-1509-4a16-b778-2a95edba1959","ios":"levelo://app?vid=01ec1fec-1509-4a16-b778-2a95edba1959"},"vehicle_type_id":"4","last_reported":1720544871,"current_range_meters":0,"station_id":"ce4bgl12rcd13ifvqbo0","pricing_plan_id":"cebpf4jnsgd1na2vs0mg"},{"bike_id":"c12583e5-b4d6-45e2-a458-8799a1f033b8","system_id":"levelo_inurba_marseille","lat":43.3193,"lon":5.39236,"is_reserved":false,"is_disabled":false,"rental_uris":{"android":"levelo://app?vid=c12583e5-b4d6-45e2-a458-8799a1f033b8","ios":"levelo://app?vid=c12583e5-b4d6-45e2-a458-8799a1f033b8"},"vehicle_type_id":"4","last_reported":1720544871,"current_range_meters":7200,"station_id":"","pricing_plan_id":"cebpf4jnsgd1na2vs0mg"},{"bike_id":"c19a7889-4892-4098-abba-9148db1f8e1c","system_id":"levelo_inurba_marseille","lat":43.29602,"lon":5.381084,"is_reserved":false,"is_disabled":false,"rental_uris":{"android":"levelo://app?vid=c19a7889-4892-4098-abba-9148db1f8e1c","ios":"levelo://app?vid=c19a7889-4892-4098-abba-9148db1f8e1c"},"vehicle_type_id":"4","last_reported":1720544871,"current_range_meters":2000,"station_id":"ce4bgl12rcd13ifvqbo0","pricing_plan_id":"cebpf4jnsgd1na2vs0mg"},{"bike_id":"51cf0f19-2a89-4e26-b073-a73a011f4355","system_id":"levelo_inurba_marseille","lat":43.29309,"lon":5.3719,"is_reserved":false,"is_disabled":false,"rental_uris":{"android":"levelo://app?vid=51cf0f19-2a89-4e26-b073-a73a011f4355","ios":"levelo://app?vid=51cf0f19-2a89-4e26-b073-a73a011f4355"},"vehicle_type_id":"4","last_reported":1720544871,"current_range_meters":2000,"station_id":"ce4bgh92rcd13ifvqb40","pricing_plan_id":"cebpf4jnsgd1na2vs0mg"},{"bike_id":"232220ef-9ba9-4d0b-a66a-8eaa7e5e390d","system_id":"levelo_inurba_marseille","lat":43.293259,"lon":5.371586,"is_reserved":false,"is_disabled":false,"rental_uris":{"android":"levelo://app?vid=232220ef-9ba9-4d0b-a66a-8eaa7e5e390d","ios":"levelo://app?vid=232220ef-9ba9-4d0b-a66a-8eaa7e5e390d"},"vehicle_type_id":"4","last_reported":1720544871,"current_range_meters":17600,"station_id":"ce4bgh92rcd13ifvqb40","pricing_plan_id":"cebpf4jnsgd1na2vs0mg"},{"bike_id":"db140918-a641-49e3-ba3d-77748f781099","system_id":"levelo_inurba_marseille","lat":43.305994,"lon":5.393687,"is_reserved":false,"is_disabled":false,"rental_uris":{"android":"levelo://app?vid=db140918-a641-49e3-ba3d-77748f781099","ios":"levelo://app?vid=db140918-a641-49e3-ba3d-77748f781099"},"vehicle_type_id":"4","last_reported":1720544871,"current_range_meters":10800,"station_id":"ce4bh0p2rcd13ifvqd80","pricing_plan_id":"cebpf4jnsgd1na2vs0mg"},{"bike_id":"1e814bb8-c229-41bd-82d1-9cec7203ce8e","system_id":"levelo_inurba_marseille","lat":43.293009,"lon":5.374584,"is_reserved":false,"is_disabled":false,"rental_uris":{"android":"levelo://app?vid=1e814bb8-c229-41bd-82d1-9cec7203ce8e","ios":"levelo://app?vid=1e814bb8-c229-41bd-82d1-9cec7203ce8e"},"vehicle_type_id":"4","last_reported":1720544871,"current_range_meters":8800,"station_id":"ce4bgi12rcd13ifvqb70","pricing_plan_id":"cebpf4jnsgd1na2vs0mg"},{"bike_id":"e7e33898-b5dd-4187-9e6d-214452b541a0","system_id":"levelo_inurba_marseille","lat":43.305994,"lon":5.393687,"is_reserved":false,"is_disabled":false,"rental_uris":{"android":"levelo://app?vid=e7e33898-b5dd-4187-9e6d-214452b541a0","ios":"levelo://app?vid=e7e33898-b5dd-4187-9e6d-214452b541a0"},"vehicle_type_id":"4","last_reported":1720544871,"current_range_meters":0,"station_id":"ce4bh0p2rcd13ifvqd80","pricing_plan_id":"cebpf4jnsgd1na2vs0mg"},{"bike_id":"583cef80-1ff0-4ce7-9a91-7a70b47bd107","system_id":"levelo_inurba_marseille","lat":43.293009,"lon":5.374584,"is_reserved":false,"is_disabled":false,"rental_uris":{"android":"levelo://app?vid=583cef80-1ff0-4ce7-9a91-7a70b47bd107","ios":"levelo://app?vid=583cef80-1ff0-4ce7-9a91-7a70b47bd107"},"vehicle_type_id":"4","last_reported":1720544871,"current_range_meters":24800,"station_id":"ce4bgi12rcd13ifvqb70","pricing_plan_id":"cebpf4jnsgd1na2vs0mg"},{"bike_id":"b332c20c-d5bc-4357-8479-8ca025492382","system_id":"levelo_inurba_marseille","lat":43.30302,"lon":5.39205,"is_reserved":false,"is_disabled":false,"rental_uris":{"android":"levelo://app?vid=b332c20c-d5bc-4357-8479-8ca025492382","ios":"levelo://app?vid=b332c20c-d5bc-4357-8479-8ca025492382"},"vehicle_type_id":"4","last_reported":1720544871,"current_range_meters":0,"station_id":"ce4bgkh2rcd13ifvqbk0","pricing_plan_id":"cebpf4jnsgd1na2vs0mg"},{"bike_id":"dc4f3f4a-44c2-43f4-90bd-2cdec21a63c1","system_id":"levelo_inurba_marseille","lat":43.30311,"lon":5.39213,"is_reserved":false,"is_disabled":false,"rental_uris":{"android":"levelo://app?vid=dc4f3f4a-44c2-43f4-90bd-2cdec21a63c1","ios":"levelo://app?vid=dc4f3f4a-44c2-43f4-90bd-2cdec21a63c1"},"vehicle_type_id":"4","last_reported":1720544871,"current_range_meters":31200,"station_id":"ce4bgkh2rcd13ifvqbk0","pricing_plan_id":"cebpf4jnsgd1na2vs0mg"},{"bike_id":"8738f218-b9c4-4279-9b5a-6095b18582e0","system_id":"levelo_inurba_marseille","lat":43.30303,"lon":5.39209,"is_reserved":false,"is_disabled":false,"rental_uris":{"android":"levelo://app?vid=8738f218-b9c4-4279-9b5a-6095b18582e0","ios":"levelo://app?vid=8738f218-b9c4-4279-9b5a-6095b18582e0"},"vehicle_type_id":"4","last_reported":1720544871,"current_range_meters":0,"station_id":"ce4bgkh2rcd13ifvqbk0","pricing_plan_id":"cebpf4jnsgd1na2vs0mg"},{"bike_id":"1407ed63-3f84-4457-8753-2145a58b6c43","system_id":"levelo_inurba_marseille","lat":43.30302,"lon":5.39214,"is_reserved":false,"is_disabled":false,"rental_uris":{"android":"levelo://app?vid=1407ed63-3f84-4457-8753-2145a58b6c43","ios":"levelo://app?vid=1407ed63-3f84-4457-8753-2145a58b6c43"},"vehicle_type_id":"4","last_reported":1720544871,"current_range_meters":0,"station_id":"ce4bgkh2rcd13ifvqbk0","pricing_plan_id":"cebpf4jnsgd1na2vs0mg"},{"bike_id":"282733d4-c8c4-4602-8062-72413203cde4","system_id":"levelo_inurba_marseille","lat":43.2936,"lon":5.37835,"is_reserved":false,"is_disabled":false,"rental_uris":{"android":"levelo://app?vid=282733d4-c8c4-4602-8062-72413203cde4","ios":"levelo://app?vid=282733d4-c8c4-4602-8062-72413203cde4"},"vehicle_type_id":"4","last_reported":1720544871,"current_range_meters":400,"station_id":"ce4bgjh2rcd13ifvqbf0","pricing_plan_id":"cebpf4jnsgd1na2vs0mg"},{"bike_id":"ddf6128a-5772-4b22-bf55-c98aec0d8f7e","system_id":"levelo_inurba_marseille","lat":43.302992,"lon":5.392136,"is_reserved":false,"is_disabled":false,"rental_uris":{"android":"levelo://app?vid=ddf6128a-5772-4b22-bf55-c98aec0d8f7e","ios":"levelo://app?vid=ddf6128a-5772-4b22-bf55-c98aec0d8f7e"},"vehicle_type_id":"4","last_reported":1720544871,"current_range_meters":26800,"station_id":"ce4bgkh2rcd13ifvqbk0","pricing_plan_id":"cebpf4jnsgd1na2vs0mg"},{"bike_id":"16e395ef-f693-4717-8527-32a1f6b1bc87","system_id":"levelo_inurba_marseille","lat":43.302992,"lon":5.392136,"is_reserved":false,"is_disabled":false,"rental_uris":{"android":"levelo://app?vid=16e395ef-f693-4717-8527-32a1f6b1bc87","ios":"levelo://app?vid=16e395ef-f693-4717-8527-32a1f6b1bc87"},"vehicle_type_id":"4","last_reported":1720544871,"current_range_meters":400,"station_id":"ce4bgkh2rcd13ifvqbk0","pricing_plan_id":"cebpf4jnsgd1na2vs0mg"},{"bike_id":"cb4729b2-33b3-4a7a-8e39-a39471741b20","system_id":"levelo_inurba_marseille","lat":43.292314,"lon":5.360696,"is_reserved":false,"is_disabled":false,"rental_uris":{"android":"levelo://app?vid=cb4729b2-33b3-4a7a-8e39-a39471741b20","ios":"levelo://app?vid=cb4729b2-33b3-4a7a-8e39-a39471741b20"},"vehicle_type_id":"4","last_reported":1720544871,"current_range_meters":2800,"station_id":"ce4bhbh2rcd13ifvqeqg","pricing_plan_id":"cebpf4jnsgd1na2vs0mg"},{"bike_id":"fdd2a0b2-53d1-4164-89c3-df427b5d7113","system_id":"levelo_inurba_marseille","lat":43.29228,"lon":5.3606,"is_reserved":false,"is_disabled":false,"rental_uris":{"android":"levelo://app?vid=fdd2a0b2-53d1-4164-89c3-df427b5d7113","ios":"levelo://app?vid=fdd2a0b2-53d1-4164-89c3-df427b5d7113"},"vehicle_type_id":"4","last_reported":1720544871,"current_range_meters":22000,"station_id":"ce4bhbh2rcd13ifvqeqg","pricing_plan_id":"cebpf4jnsgd1na2vs0mg"},{"bike_id":"d12e399e-8310-4ed6-908b-16f938dd0797","system_id":"levelo_inurba_marseille","lat":43.29224,"lon":5.360651,"is_reserved":false,"is_disabled":false,"rental_uris":{"android":"levelo://app?vid=d12e399e-8310-4ed6-908b-16f938dd0797","ios":"levelo://app?vid=d12e399e-8310-4ed6-908b-16f938dd0797"},"vehicle_type_id":"4","last_reported":1720544871,"current_range_meters":0,"station_id":"ce4bhbh2rcd13ifvqeqg","pricing_plan_id":"cebpf4jnsgd1na2vs0mg"},{"bike_id":"dbe8dadb-92e0-4450-854a-1329fb678f24","system_id":"levelo_inurba_marseille","lat":43.29225,"lon":5.36056,"is_reserved":false,"is_disabled":false,"rental_uris":{"android":"levelo://app?vid=dbe8dadb-92e0-4450-854a-1329fb678f24","ios":"levelo://app?vid=dbe8dadb-92e0-4450-854a-1329fb678f24"},"vehicle_type_id":"4","last_reported":1720544871,"current_range_meters":0,"station_id":"ce4bhbh2rcd13ifvqeqg","pricing_plan_id":"cebpf4jnsgd1na2vs0mg"},{"bike_id":"ee92c97b-5a5e-45e5-a7d8-ba2e650153c9","system_id":"levelo_inurba_marseille","lat":43.298764,"lon":5.388973,"is_reserved":false,"is_disabled":false,"rental_uris":{"android":"levelo://app?vid=ee92c97b-5a5e-45e5-a7d8-ba2e650153c9","ios":"levelo://app?vid=ee92c97b-5a5e-45e5-a7d8-ba2e650153c9"},"vehicle_type_id":"4","last_reported":1720544871,"current_range_meters":12000,"station_id":"ce4bh392rcd13ifvqdl0","pricing_plan_id":"cebpf4jnsgd1na2vs0mg"},{"bike_id":"884f0edd-8c0c-42cc-bcd9-707b8f871bcf","system_id":"levelo_inurba_marseille","lat":43.298764,"lon":5.388973,"is_reserved":false,"is_disabled":false,"rental_uris":{"android":"levelo://app?vid=884f0edd-8c0c-42cc-bcd9-707b8f871bcf","ios":"levelo://app?vid=884f0edd-8c0c-42cc-bcd9-707b8f871bcf"},"vehicle_type_id":"4","last_reported":1720544871,"current_range_meters":3600,"station_id":"ce4bh392rcd13ifvqdl0","pricing_plan_id":"cebpf4jnsgd1na2vs0mg"},{"bike_id":"7ffe6f60-1bef-4411-9858-87c9f21d4a58","system_id":"levelo_inurba_marseille","lat":43.298764,"lon":5.388973,"is_reserved":false,"is_disabled":false,"rental_uris":{"android":"levelo://app?vid=7ffe6f60-1bef-4411-9858-87c9f21d4a58","ios":"levelo://app?vid=7ffe6f60-1bef-4411-9858-87c9f21d4a58"},"vehicle_type_id":"4","last_reported":1720544871,"current_range_meters":0,"station_id":"ce4bh392rcd13ifvqdl0","pricing_plan_id":"cebpf4jnsgd1na2vs0mg"},{"bike_id":"3e6b6e11-3db6-4bca-a5c9-01d9cadf83a9","system_id":"levelo_inurba_marseille","lat":43.291671,"lon":5.371575,"is_reserved":false,"is_disabled":false,"rental_uris":{"android":"levelo://app?vid=3e6b6e11-3db6-4bca-a5c9-01d9cadf83a9","ios":"levelo://app?vid=3e6b6e11-3db6-4bca-a5c9-01d9cadf83a9"},"vehicle_type_id":"4","last_reported":1720544871,"current_range_meters":0,"station_id":"ce4bha92rcd13ifvqeh0","pricing_plan_id":"cebpf4jnsgd1na2vs0mg"},{"bike_id":"e10b85f0-f159-4343-b0b9-488505f42c1b","system_id":"levelo_inurba_marseille","lat":43.292005,"lon":5.357875,"is_reserved":false,"is_disabled":false,"rental_uris":{"android":"levelo://app?vid=e10b85f0-f159-4343-b0b9-488505f42c1b","ios":"levelo://app?vid=e10b85f0-f159-4343-b0b9-488505f42c1b"},"vehicle_type_id":"4","last_reported":1720544871,"current_range_meters":26800,"station_id":"ce4bhb12rcd13ifvqel0","pricing_plan_id":"cebpf4jnsgd1na2vs0mg"},{"bike_id":"4a67105b-2fd9-4c66-8ae9-ad57ce9d2dc0","system_id":"levelo_inurba_marseille","lat":43.313291,"lon":5.396838,"is_reserved":false,"is_disabled":false,"rental_uris":{"android":"levelo://app?vid=4a67105b-2fd9-4c66-8ae9-ad57ce9d2dc0","ios":"levelo://app?vid=4a67105b-2fd9-4c66-8ae9-ad57ce9d2dc0"},"vehicle_type_id":"4","last_reported":1720544871,"current_range_meters":12400,"station_id":"ce4bgvp2rcd13ifvqcu0","pricing_plan_id":"cebpf4jnsgd1na2vs0mg"},{"bike_id":"c51bc883-4629-4af5-8772-27989bb1b9ea","system_id":"levelo_inurba_marseille","lat":43.313291,"lon":5.396838,"is_reserved":false,"is_disabled":false,"rental_uris":{"android":"levelo://app?vid=c51bc883-4629-4af5-8772-27989bb1b9ea","ios":"levelo://app?vid=c51bc883-4629-4af5-8772-27989bb1b9ea"},"vehicle_type_id":"4","last_reported":1720544871,"current_range_meters":20000,"station_id":"ce4bgvp2rcd13ifvqcu0","pricing_plan_id":"cebpf4jnsgd1na2vs0mg"},{"bike_id":"b42e3c0c-1f4c-4255-a479-2d9c7d2b3d17","system_id":"levelo_inurba_marseille","lat":43.313291,"lon":5.396838,"is_reserved":false,"is_disabled":false,"rental_uris":{"android":"levelo://app?vid=b42e3c0c-1f4c-4255-a479-2d9c7d2b3d17","ios":"levelo://app?vid=b42e3c0c-1f4c-4255-a479-2d9c7d2b3d17"},"vehicle_type_id":"4","last_reported":1720544871,"current_range_meters":7600,"station_id":"ce4bgvp2rcd13ifvqcu0","pricing_plan_id":"cebpf4jnsgd1na2vs0mg"},{"bike_id":"3f118639-948f-4cee-a57d-9589c0efe998","system_id":"levelo_inurba_marseille","lat":43.309047,"lon":5.396551,"is_reserved":false,"is_disabled":false,"rental_uris":{"android":"levelo://app?vid=3f118639-948f-4cee-a57d-9589c0efe998","ios":"levelo://app?vid=3f118639-948f-4cee-a57d-9589c0efe998"},"vehicle_type_id":"4","last_reported":1720544871,"current_range_meters":23200,"station_id":"ce4bh012rcd13ifvqcv0","pricing_plan_id":"cebpf4jnsgd1na2vs0mg"},{"bike_id":"d78bb46c-fbe4-4298-8dc9-8ca65bfd37e6","system_id":"levelo_inurba_marseille","lat":43.30885,"lon":5.39655,"is_reserved":false,"is_disabled":false,"rental_uris":{"android":"levelo://app?vid=d78bb46c-fbe4-4298-8dc9-8ca65bfd37e6","ios":"levelo://app?vid=d78bb46c-fbe4-4298-8dc9-8ca65bfd37e6"},"vehicle_type_id":"4","last_reported":1720544871,"current_range_meters":8400,"station_id":"ce4bh012rcd13ifvqcv0","pricing_plan_id":"cebpf4jnsgd1na2vs0mg"},{"bike_id":"41ecb22e-3326-4917-80dc-f5e137ef2dfe","system_id":"levelo_inurba_marseille","lat":43.309047,"lon":5.396551,"is_reserved":false,"is_disabled":false,"rental_uris":{"android":"levelo://app?vid=41ecb22e-3326-4917-80dc-f5e137ef2dfe","ios":"levelo://app?vid=41ecb22e-3326-4917-80dc-f5e137ef2dfe"},"vehicle_type_id":"4","last_reported":1720544871,"current_range_meters":8800,"station_id":"ce4bh012rcd13ifvqcv0","pricing_plan_id":"cebpf4jnsgd1na2vs0mg"},{"bike_id":"c7955534-1e2b-484e-ac4a-e67ead241ce5","system_id":"levelo_inurba_marseille","lat":43.30882,"lon":5.39659,"is_reserved":false,"is_disabled":false,"rental_uris":{"android":"levelo://app?vid=c7955534-1e2b-484e-ac4a-e67ead241ce5","ios":"levelo://app?vid=c7955534-1e2b-484e-ac4a-e67ead241ce5"},"vehicle_type_id":"4","last_reported":1720544871,"current_range_meters":0,"station_id":"ce4bh012rcd13ifvqcv0","pricing_plan_id":"cebpf4jnsgd1na2vs0mg"},{"bike_id":"db97f78f-60ce-4bad-bc1a-ca47c2289139","system_id":"levelo_inurba_marseille","lat":43.29111,"lon":5.3725,"is_reserved":false,"is_disabled":false,"rental_uris":{"android":"levelo://app?vid=db97f78f-60ce-4bad-bc1a-ca47c2289139","ios":"levelo://app?vid=db97f78f-60ce-4bad-bc1a-ca47c2289139"},"vehicle_type_id":"4","last_reported":1720544871,"current_range_meters":0,"station_id":"","pricing_plan_id":"cebpf4jnsgd1na2vs0mg"},{"bike_id":"644c55d7-aba5-4e61-a221-7ab2596edc09","system_id":"levelo_inurba_marseille","lat":43.29529,"lon":5.385581,"is_reserved":false,"is_disabled":false,"rental_uris":{"android":"levelo://app?vid=644c55d7-aba5-4e61-a221-7ab2596edc09","ios":"levelo://app?vid=644c55d7-aba5-4e61-a221-7ab2596edc09"},"vehicle_type_id":"4","last_reported":1720544871,"current_range_meters":19600,"station_id":"ce4bgih2rcd13ifvqba0","pricing_plan_id":"cebpf4jnsgd1na2vs0mg"},{"bike_id":"e2ce109a-348d-42da-909d-7c16f4895b36","system_id":"levelo_inurba_marseille","lat":43.29529,"lon":5.385581,"is_reserved":false,"is_disabled":false,"rental_uris":{"android":"levelo://app?vid=e2ce109a-348d-42da-909d-7c16f4895b36","ios":"levelo://app?vid=e2ce109a-348d-42da-909d-7c16f4895b36"},"vehicle_type_id":"4","last_reported":1720544871,"current_range_meters":3200,"station_id":"ce4bgih2rcd13ifvqba0","pricing_plan_id":"cebpf4jnsgd1na2vs0mg"},{"bike_id":"091bb443-d9fd-407c-82ab-1696a02dd84c","system_id":"levelo_inurba_marseille","lat":43.29529,"lon":5.385581,"is_reserved":false,"is_disabled":false,"rental_uris":{"android":"levelo://app?vid=091bb443-d9fd-407c-82ab-1696a02dd84c","ios":"levelo://app?vid=091bb443-d9fd-407c-82ab-1696a02dd84c"},"vehicle_type_id":"4","last_reported":1720544871,"current_range_meters":2800,"station_id":"ce4bgih2rcd13ifvqba0","pricing_plan_id":"cebpf4jnsgd1na2vs0mg"},{"bike_id":"17adae53-1cb7-4df7-9034-c57e300a3001","system_id":"levelo_inurba_marseille","lat":43.29529,"lon":5.385581,"is_reserved":false,"is_disabled":false,"rental_uris":{"android":"levelo://app?vid=17adae53-1cb7-4df7-9034-c57e300a3001","ios":"levelo://app?vid=17adae53-1cb7-4df7-9034-c57e300a3001"},"vehicle_type_id":"4","last_reported":1720544871,"current_range_meters":22000,"station_id":"ce4bgih2rcd13ifvqba0","pricing_plan_id":"cebpf4jnsgd1na2vs0mg"},{"bike_id":"9cc213c5-0a27-4d84-993a-08564db92741","system_id":"levelo_inurba_marseille","lat":43.29078,"lon":5.37173,"is_reserved":false,"is_disabled":false,"rental_uris":{"android":"levelo://app?vid=9cc213c5-0a27-4d84-993a-08564db92741","ios":"levelo://app?vid=9cc213c5-0a27-4d84-993a-08564db92741"},"vehicle_type_id":"4","last_reported":1720544871,"current_range_meters":0,"station_id":"ce4bh5p2rcd13ifvqe4g","pricing_plan_id":"cebpf4jnsgd1na2vs0mg"},{"bike_id":"8889da03-bab9-41cd-8913-4426c10df9c6","system_id":"levelo_inurba_marseille","lat":43.29297,"lon":5.38255,"is_reserved":false,"is_disabled":false,"rental_uris":{"android":"levelo://app?vid=8889da03-bab9-41cd-8913-4426c10df9c6","ios":"levelo://app?vid=8889da03-bab9-41cd-8913-4426c10df9c6"},"vehicle_type_id":"4","last_reported":1720544871,"current_range_meters":24800,"station_id":"","pricing_plan_id":"cebpf4jnsgd1na2vs0mg"},{"bike_id":"e7e4ab54-08a0-4856-8d42-55383f099e7d","system_id":"levelo_inurba_marseille","lat":43.302008,"lon":5.394694,"is_reserved":false,"is_disabled":false,"rental_uris":{"android":"levelo://app?vid=e7e4ab54-08a0-4856-8d42-55383f099e7d","ios":"levelo://app?vid=e7e4ab54-08a0-4856-8d42-55383f099e7d"},"vehicle_type_id":"4","last_reported":1720544871,"current_range_meters":17600,"station_id":"ce4bh0p2rcd13ifvqd70","pricing_plan_id":"cebpf4jnsgd1na2vs0mg"},{"bike_id":"25a9f72d-3d3d-46f8-acf6-2c5c349c46dc","system_id":"levelo_inurba_marseille","lat":43.2942,"lon":5.3862,"is_reserved":false,"is_disabled":false,"rental_uris":{"android":"levelo://app?vid=25a9f72d-3d3d-46f8-acf6-2c5c349c46dc","ios":"levelo://app?vid=25a9f72d-3d3d-46f8-acf6-2c5c349c46dc"},"vehicle_type_id":"4","last_reported":1720544871,"current_range_meters":4000,"station_id":"","pricing_plan_id":"cebpf4jnsgd1na2vs0mg"},{"bike_id":"63891f04-6311-404c-8d32-4cf7e0877533","system_id":"levelo_inurba_marseille","lat":43.294153,"lon":5.386305,"is_reserved":false,"is_disabled":false,"rental_uris":{"android":"levelo://app?vid=63891f04-6311-404c-8d32-4cf7e0877533","ios":"levelo://app?vid=63891f04-6311-404c-8d32-4cf7e0877533"},"vehicle_type_id":"4","last_reported":1720544871,"current_range_meters":3200,"station_id":"ce4bh2h2rcd13ifvqdh0","pricing_plan_id":"cebpf4jnsgd1na2vs0mg"},{"bike_id":"1e7c5e9d-76fa-4422-9d04-8544f64a4f53","system_id":"levelo_inurba_marseille","lat":43.289184,"lon":5.366408,"is_reserved":false,"is_disabled":false,"rental_uris":{"android":"levelo://app?vid=1e7c5e9d-76fa-4422-9d04-8544f64a4f53","ios":"levelo://app?vid=1e7c5e9d-76fa-4422-9d04-8544f64a4f53"},"vehicle_type_id":"4","last_reported":1720544871,"current_range_meters":0,"station_id":"ce4bhap2rcd13ifvqek0","pricing_plan_id":"cebpf4jnsgd1na2vs0mg"},{"bike_id":"8e5501c4-b399-4e77-92a3-247f50bd19ec","system_id":"levelo_inurba_marseille","lat":43.290327,"lon":5.375711,"is_reserved":false,"is_disabled":false,"rental_uris":{"android":"levelo://app?vid=8e5501c4-b399-4e77-92a3-247f50bd19ec","ios":"levelo://app?vid=8e5501c4-b399-4e77-92a3-247f50bd19ec"},"vehicle_type_id":"4","last_reported":1720544871,"current_range_meters":25200,"station_id":"ce4bh692rcd13ifvqe90","pricing_plan_id":"cebpf4jnsgd1na2vs0mg"},{"bike_id":"2a5a451a-c4d2-4e5c-a80b-46058b648fe4","system_id":"levelo_inurba_marseille","lat":43.290327,"lon":5.375711,"is_reserved":false,"is_disabled":false,"rental_uris":{"android":"levelo://app?vid=2a5a451a-c4d2-4e5c-a80b-46058b648fe4","ios":"levelo://app?vid=2a5a451a-c4d2-4e5c-a80b-46058b648fe4"},"vehicle_type_id":"4","last_reported":1720544871,"current_range_meters":7200,"station_id":"ce4bh692rcd13ifvqe90","pricing_plan_id":"cebpf4jnsgd1na2vs0mg"},{"bike_id":"504ef3f0-b250-434f-9509-97a9b56d4a1b","system_id":"levelo_inurba_marseille","lat":43.294153,"lon":5.386305,"is_reserved":false,"is_disabled":false,"rental_uris":{"android":"levelo://app?vid=504ef3f0-b250-434f-9509-97a9b56d4a1b","ios":"levelo://app?vid=504ef3f0-b250-434f-9509-97a9b56d4a1b"},"vehicle_type_id":"4","last_reported":1720544871,"current_range_meters":0,"station_id":"ce4bh2h2rcd13ifvqdh0","pricing_plan_id":"cebpf4jnsgd1na2vs0mg"},{"bike_id":"7b5c3510-59f5-474b-8e80-2b15b154cc58","system_id":"levelo_inurba_marseille","lat":43.289184,"lon":5.366408,"is_reserved":false,"is_disabled":false,"rental_uris":{"android":"levelo://app?vid=7b5c3510-59f5-474b-8e80-2b15b154cc58","ios":"levelo://app?vid=7b5c3510-59f5-474b-8e80-2b15b154cc58"},"vehicle_type_id":"4","last_reported":1720544871,"current_range_meters":15200,"station_id":"ce4bhap2rcd13ifvqek0","pricing_plan_id":"cebpf4jnsgd1na2vs0mg"},{"bike_id":"4460c03b-df49-427f-bb9d-6526e69d93cc","system_id":"levelo_inurba_marseille","lat":43.289184,"lon":5.366408,"is_reserved":false,"is_disabled":false,"rental_uris":{"android":"levelo://app?vid=4460c03b-df49-427f-bb9d-6526e69d93cc","ios":"levelo://app?vid=4460c03b-df49-427f-bb9d-6526e69d93cc"},"vehicle_type_id":"4","last_reported":1720544871,"current_range_meters":28000,"station_id":"ce4bhap2rcd13ifvqek0","pricing_plan_id":"cebpf4jnsgd1na2vs0mg"},{"bike_id":"3859f29a-982f-48f1-91cc-db34fa26df80","system_id":"levelo_inurba_marseille","lat":43.28929,"lon":5.36402,"is_reserved":false,"is_disabled":false,"rental_uris":{"android":"levelo://app?vid=3859f29a-982f-48f1-91cc-db34fa26df80","ios":"levelo://app?vid=3859f29a-982f-48f1-91cc-db34fa26df80"},"vehicle_type_id":"4","last_reported":1720544871,"current_range_meters":26800,"station_id":"ce4bhc92rcd13ifvqetg","pricing_plan_id":"cebpf4jnsgd1na2vs0mg"},{"bike_id":"17f60e6a-b96d-46ef-a507-e5eb7c9424a8","system_id":"levelo_inurba_marseille","lat":43.29268,"lon":5.38443,"is_reserved":false,"is_disabled":false,"rental_uris":{"android":"levelo://app?vid=17f60e6a-b96d-46ef-a507-e5eb7c9424a8","ios":"levelo://app?vid=17f60e6a-b96d-46ef-a507-e5eb7c9424a8"},"vehicle_type_id":"4","last_reported":1720544871,"current_range_meters":0,"station_id":"ce4bh692rcd13ifvqea0","pricing_plan_id":"cebpf4jnsgd1na2vs0mg"},{"bike_id":"1334bcb8-26f8-48fd-8405-b223b1e74ed7","system_id":"levelo_inurba_marseille","lat":43.292642,"lon":5.384254,"is_reserved":false,"is_disabled":false,"rental_uris":{"android":"levelo://app?vid=1334bcb8-26f8-48fd-8405-b223b1e74ed7","ios":"levelo://app?vid=1334bcb8-26f8-48fd-8405-b223b1e74ed7"},"vehicle_type_id":"4","last_reported":1720544871,"current_range_meters":14400,"station_id":"ce4bh692rcd13ifvqea0","pricing_plan_id":"cebpf4jnsgd1na2vs0mg"},{"bike_id":"be9db364-b956-47e4-8752-dd60d3c69369","system_id":"levelo_inurba_marseille","lat":43.292644,"lon":5.384257,"is_reserved":false,"is_disabled":false,"rental_uris":{"android":"levelo://app?vid=be9db364-b956-47e4-8752-dd60d3c69369","ios":"levelo://app?vid=be9db364-b956-47e4-8752-dd60d3c69369"},"vehicle_type_id":"4","last_reported":1720544871,"current_range_meters":25200,"station_id":"ce4bh692rcd13ifvqea0","pricing_plan_id":"cebpf4jnsgd1na2vs0mg"},{"bike_id":"910645f4-01d6-4a68-bc15-a68f293e1c0a","system_id":"levelo_inurba_marseille","lat":43.292644,"lon":5.384257,"is_reserved":false,"is_disabled":false,"rental_uris":{"android":"levelo://app?vid=910645f4-01d6-4a68-bc15-a68f293e1c0a","ios":"levelo://app?vid=910645f4-01d6-4a68-bc15-a68f293e1c0a"},"vehicle_type_id":"4","last_reported":1720544871,"current_range_meters":10800,"station_id":"ce4bh692rcd13ifvqea0","pricing_plan_id":"cebpf4jnsgd1na2vs0mg"},{"bike_id":"7d5ce3f9-8ff5-48d6-bc72-c44117f6b5e9","system_id":"levelo_inurba_marseille","lat":43.29258,"lon":5.38442,"is_reserved":false,"is_disabled":false,"rental_uris":{"android":"levelo://app?vid=7d5ce3f9-8ff5-48d6-bc72-c44117f6b5e9","ios":"levelo://app?vid=7d5ce3f9-8ff5-48d6-bc72-c44117f6b5e9"},"vehicle_type_id":"4","last_reported":1720544871,"current_range_meters":9600,"station_id":"ce4bh692rcd13ifvqea0","pricing_plan_id":"cebpf4jnsgd1na2vs0mg"},{"bike_id":"7818ddbb-92bf-411e-888b-3f8f40470502","system_id":"levelo_inurba_marseille","lat":43.290104,"lon":5.356111,"is_reserved":false,"is_disabled":false,"rental_uris":{"android":"levelo://app?vid=7818ddbb-92bf-411e-888b-3f8f40470502","ios":"levelo://app?vid=7818ddbb-92bf-411e-888b-3f8f40470502"},"vehicle_type_id":"4","last_reported":1720544871,"current_range_meters":11200,"station_id":"ce4bhb92rcd13ifvqen0","pricing_plan_id":"cebpf4jnsgd1na2vs0mg"},{"bike_id":"2e6cb935-1dc0-41ed-8322-7fbdd42ecf75","system_id":"levelo_inurba_marseille","lat":43.290104,"lon":5.356111,"is_reserved":false,"is_disabled":false,"rental_uris":{"android":"levelo://app?vid=2e6cb935-1dc0-41ed-8322-7fbdd42ecf75","ios":"levelo://app?vid=2e6cb935-1dc0-41ed-8322-7fbdd42ecf75"},"vehicle_type_id":"4","last_reported":1720544871,"current_range_meters":0,"station_id":"ce4bhb92rcd13ifvqen0","pricing_plan_id":"cebpf4jnsgd1na2vs0mg"},{"bike_id":"1d579856-187a-4a07-ab9e-a6d70581edcf","system_id":"levelo_inurba_marseille","lat":43.290074,"lon":5.356101,"is_reserved":false,"is_disabled":false,"rental_uris":{"android":"levelo://app?vid=1d579856-187a-4a07-ab9e-a6d70581edcf","ios":"levelo://app?vid=1d579856-187a-4a07-ab9e-a6d70581edcf"},"vehicle_type_id":"4","last_reported":1720544871,"current_range_meters":4000,"station_id":"ce4bhb92rcd13ifvqen0","pricing_plan_id":"cebpf4jnsgd1na2vs0mg"},{"bike_id":"dbe40ed7-27d8-4ad5-9500-69cd482baab4","system_id":"levelo_inurba_marseille","lat":43.32907,"lon":5.3911,"is_reserved":false,"is_disabled":false,"rental_uris":{"android":"levelo://app?vid=dbe40ed7-27d8-4ad5-9500-69cd482baab4","ios":"levelo://app?vid=dbe40ed7-27d8-4ad5-9500-69cd482baab4"},"vehicle_type_id":"4","last_reported":1720544871,"current_range_meters":21200,"station_id":"","pricing_plan_id":"cebpf4jnsgd1na2vs0mg"},{"bike_id":"2df20d02-6368-42a4-8a46-c0e4bd88fd89","system_id":"levelo_inurba_marseille","lat":43.290104,"lon":5.356111,"is_reserved":false,"is_disabled":false,"rental_uris":{"android":"levelo://app?vid=2df20d02-6368-42a4-8a46-c0e4bd88fd89","ios":"levelo://app?vid=2df20d02-6368-42a4-8a46-c0e4bd88fd89"},"vehicle_type_id":"4","last_reported":1720544871,"current_range_meters":0,"station_id":"ce4bhb92rcd13ifvqen0","pricing_plan_id":"cebpf4jnsgd1na2vs0mg"},{"bike_id":"21c21233-b748-4530-bb72-77e1fec24059","system_id":"levelo_inurba_marseille","lat":43.290104,"lon":5.356111,"is_reserved":false,"is_disabled":false,"rental_uris":{"android":"levelo://app?vid=21c21233-b748-4530-bb72-77e1fec24059","ios":"levelo://app?vid=21c21233-b748-4530-bb72-77e1fec24059"},"vehicle_type_id":"4","last_reported":1720544871,"current_range_meters":25200,"station_id":"ce4bhb92rcd13ifvqen0","pricing_plan_id":"cebpf4jnsgd1na2vs0mg"},{"bike_id":"61a16a07-636a-46c3-bcc6-6a50ea095ed3","system_id":"levelo_inurba_marseille","lat":43.290103,"lon":5.356114,"is_reserved":false,"is_disabled":false,"rental_uris":{"android":"levelo://app?vid=61a16a07-636a-46c3-bcc6-6a50ea095ed3","ios":"levelo://app?vid=61a16a07-636a-46c3-bcc6-6a50ea095ed3"},"vehicle_type_id":"4","last_reported":1720544871,"current_range_meters":1200,"station_id":"ce4bhb92rcd13ifvqen0","pricing_plan_id":"cebpf4jnsgd1na2vs0mg"},{"bike_id":"2519aec7-840d-4ebb-943b-603bd3b87551","system_id":"levelo_inurba_marseille","lat":43.290104,"lon":5.356111,"is_reserved":false,"is_disabled":false,"rental_uris":{"android":"levelo://app?vid=2519aec7-840d-4ebb-943b-603bd3b87551","ios":"levelo://app?vid=2519aec7-840d-4ebb-943b-603bd3b87551"},"vehicle_type_id":"4","last_reported":1720544871,"current_range_meters":2400,"station_id":"ce4bhb92rcd13ifvqen0","pricing_plan_id":"cebpf4jnsgd1na2vs0mg"},{"bike_id":"61b5ec0b-0db5-4c27-8309-3573738c35f8","system_id":"levelo_inurba_marseille","lat":43.290103,"lon":5.356114,"is_reserved":false,"is_disabled":false,"rental_uris":{"android":"levelo://app?vid=61b5ec0b-0db5-4c27-8309-3573738c35f8","ios":"levelo://app?vid=61b5ec0b-0db5-4c27-8309-3573738c35f8"},"vehicle_type_id":"4","last_reported":1720544871,"current_range_meters":4400,"station_id":"ce4bhb92rcd13ifvqen0","pricing_plan_id":"cebpf4jnsgd1na2vs0mg"},{"bike_id":"5f465ebf-ecd8-44e5-8f34-5ccf0c56ba41","system_id":"levelo_inurba_marseille","lat":43.295169,"lon":5.390426,"is_reserved":false,"is_disabled":false,"rental_uris":{"android":"levelo://app?vid=5f465ebf-ecd8-44e5-8f34-5ccf0c56ba41","ios":"levelo://app?vid=5f465ebf-ecd8-44e5-8f34-5ccf0c56ba41"},"vehicle_type_id":"4","last_reported":1720544871,"current_range_meters":0,"station_id":"ce4bh3p2rcd13ifvqdp0","pricing_plan_id":"cebpf4jnsgd1na2vs0mg"},{"bike_id":"7d9a9846-6326-4a32-9e7c-477863e5140a","system_id":"levelo_inurba_marseille","lat":43.295169,"lon":5.390426,"is_reserved":false,"is_disabled":false,"rental_uris":{"android":"levelo://app?vid=7d9a9846-6326-4a32-9e7c-477863e5140a","ios":"levelo://app?vid=7d9a9846-6326-4a32-9e7c-477863e5140a"},"vehicle_type_id":"4","last_reported":1720544871,"current_range_meters":11200,"station_id":"ce4bh3p2rcd13ifvqdp0","pricing_plan_id":"cebpf4jnsgd1na2vs0mg"},{"bike_id":"043010ee-6d1f-4413-b967-23385ebf3384","system_id":"levelo_inurba_marseille","lat":43.28983,"lon":5.37834,"is_reserved":false,"is_disabled":false,"rental_uris":{"android":"levelo://app?vid=043010ee-6d1f-4413-b967-23385ebf3384","ios":"levelo://app?vid=043010ee-6d1f-4413-b967-23385ebf3384"},"vehicle_type_id":"4","last_reported":1720544871,"current_range_meters":0,"station_id":"ce4bh9p2rcd13ifvqed0","pricing_plan_id":"cebpf4jnsgd1na2vs0mg"},{"bike_id":"6f47d478-1fdb-4152-ba4e-8841a6fda1c9","system_id":"levelo_inurba_marseille","lat":43.29779,"lon":5.39338,"is_reserved":false,"is_disabled":false,"rental_uris":{"android":"levelo://app?vid=6f47d478-1fdb-4152-ba4e-8841a6fda1c9","ios":"levelo://app?vid=6f47d478-1fdb-4152-ba4e-8841a6fda1c9"},"vehicle_type_id":"4","last_reported":1720544871,"current_range_meters":3200,"station_id":"chh1huq6cuj3fo74tm60","pricing_plan_id":"cebpf4jnsgd1na2vs0mg"},{"bike_id":"31b0ce13-5f4c-4ae1-a593-b3879dcd1ecd","system_id":"levelo_inurba_marseille","lat":43.297815,"lon":5.393548,"is_reserved":false,"is_disabled":false,"rental_uris":{"android":"levelo://app?vid=31b0ce13-5f4c-4ae1-a593-b3879dcd1ecd","ios":"levelo://app?vid=31b0ce13-5f4c-4ae1-a593-b3879dcd1ecd"},"vehicle_type_id":"4","last_reported":1720544871,"current_range_meters":11200,"station_id":"chh1huq6cuj3fo74tm60","pricing_plan_id":"cebpf4jnsgd1na2vs0mg"},{"bike_id":"23ea5db5-1d56-4bb3-b5dd-c7eb31aff044","system_id":"levelo_inurba_marseille","lat":43.29778,"lon":5.393447,"is_reserved":false,"is_disabled":false,"rental_uris":{"android":"levelo://app?vid=23ea5db5-1d56-4bb3-b5dd-c7eb31aff044","ios":"levelo://app?vid=23ea5db5-1d56-4bb3-b5dd-c7eb31aff044"},"vehicle_type_id":"4","last_reported":1720544871,"current_range_meters":9600,"station_id":"","pricing_plan_id":"cebpf4jnsgd1na2vs0mg"},{"bike_id":"4e3f5305-531a-4783-8293-b84120a54dc2","system_id":"levelo_inurba_marseille","lat":43.29522,"lon":5.39032,"is_reserved":false,"is_disabled":false,"rental_uris":{"android":"levelo://app?vid=4e3f5305-531a-4783-8293-b84120a54dc2","ios":"levelo://app?vid=4e3f5305-531a-4783-8293-b84120a54dc2"},"vehicle_type_id":"4","last_reported":1720544871,"current_range_meters":14800,"station_id":"ce4bh3p2rcd13ifvqdp0","pricing_plan_id":"cebpf4jnsgd1na2vs0mg"},{"bike_id":"61d7b7fc-a606-4ad4-8931-346c8a39c61f","system_id":"levelo_inurba_marseille","lat":43.330442,"lon":5.389148,"is_reserved":false,"is_disabled":false,"rental_uris":{"android":"levelo://app?vid=61d7b7fc-a606-4ad4-8931-346c8a39c61f","ios":"levelo://app?vid=61d7b7fc-a606-4ad4-8931-346c8a39c61f"},"vehicle_type_id":"4","last_reported":1720544871,"current_range_meters":19600,"station_id":"ce4bhr92rcd13ifvqhrg","pricing_plan_id":"cebpf4jnsgd1na2vs0mg"},{"bike_id":"39a164a8-7759-4a5c-a11f-033aa004c19a","system_id":"levelo_inurba_marseille","lat":43.33029,"lon":5.39047,"is_reserved":false,"is_disabled":false,"rental_uris":{"android":"levelo://app?vid=39a164a8-7759-4a5c-a11f-033aa004c19a","ios":"levelo://app?vid=39a164a8-7759-4a5c-a11f-033aa004c19a"},"vehicle_type_id":"4","last_reported":1720544871,"current_range_meters":2400,"station_id":"ce4bhr92rcd13ifvqhrg","pricing_plan_id":"cebpf4jnsgd1na2vs0mg"},{"bike_id":"9c577aaa-aa18-4c2e-a9b8-15f7680fc606","system_id":"levelo_inurba_marseille","lat":43.2901,"lon":5.381269,"is_reserved":false,"is_disabled":false,"rental_uris":{"android":"levelo://app?vid=9c577aaa-aa18-4c2e-a9b8-15f7680fc606","ios":"levelo://app?vid=9c577aaa-aa18-4c2e-a9b8-15f7680fc606"},"vehicle_type_id":"4","last_reported":1720544871,"current_range_meters":2400,"station_id":"ce4bh4p2rcd13ifvqe1g","pricing_plan_id":"cebpf4jnsgd1na2vs0mg"},{"bike_id":"7c13f321-158e-443d-b810-fa0e637a6925","system_id":"levelo_inurba_marseille","lat":43.28855,"lon":5.35848,"is_reserved":false,"is_disabled":false,"rental_uris":{"android":"levelo://app?vid=7c13f321-158e-443d-b810-fa0e637a6925","ios":"levelo://app?vid=7c13f321-158e-443d-b810-fa0e637a6925"},"vehicle_type_id":"4","last_reported":1720544871,"current_range_meters":0,"station_id":"ce4bhb12rcd13ifvqem0","pricing_plan_id":"cebpf4jnsgd1na2vs0mg"},{"bike_id":"058afc60-826d-47ad-9fd9-05b4acca4015","system_id":"levelo_inurba_marseille","lat":43.28856,"lon":5.358371,"is_reserved":false,"is_disabled":false,"rental_uris":{"android":"levelo://app?vid=058afc60-826d-47ad-9fd9-05b4acca4015","ios":"levelo://app?vid=058afc60-826d-47ad-9fd9-05b4acca4015"},"vehicle_type_id":"4","last_reported":1720544871,"current_range_meters":26000,"station_id":"ce4bhb12rcd13ifvqem0","pricing_plan_id":"cebpf4jnsgd1na2vs0mg"},{"bike_id":"dd84a21e-98b5-4d8e-a3d4-ea17eed94e78","system_id":"levelo_inurba_marseille","lat":43.28856,"lon":5.358371,"is_reserved":false,"is_disabled":false,"rental_uris":{"android":"levelo://app?vid=dd84a21e-98b5-4d8e-a3d4-ea17eed94e78","ios":"levelo://app?vid=dd84a21e-98b5-4d8e-a3d4-ea17eed94e78"},"vehicle_type_id":"4","last_reported":1720544871,"current_range_meters":28000,"station_id":"ce4bhb12rcd13ifvqem0","pricing_plan_id":"cebpf4jnsgd1na2vs0mg"},{"bike_id":"b06f2ac2-ef47-4daa-9e8b-44e16b0e1c5d","system_id":"levelo_inurba_marseille","lat":43.28856,"lon":5.358371,"is_reserved":false,"is_disabled":false,"rental_uris":{"android":"levelo://app?vid=b06f2ac2-ef47-4daa-9e8b-44e16b0e1c5d","ios":"levelo://app?vid=b06f2ac2-ef47-4daa-9e8b-44e16b0e1c5d"},"vehicle_type_id":"4","last_reported":1720544871,"current_range_meters":0,"station_id":"ce4bhb12rcd13ifvqem0","pricing_plan_id":"cebpf4jnsgd1na2vs0mg"},{"bike_id":"1e16449a-8ca7-47b3-a4e1-56db73dd72c0","system_id":"levelo_inurba_marseille","lat":43.33764,"lon":5.374522,"is_reserved":false,"is_disabled":false,"rental_uris":{"android":"levelo://app?vid=1e16449a-8ca7-47b3-a4e1-56db73dd72c0","ios":"levelo://app?vid=1e16449a-8ca7-47b3-a4e1-56db73dd72c0"},"vehicle_type_id":"4","last_reported":1720544871,"current_range_meters":18800,"station_id":"","pricing_plan_id":"cebpf4jnsgd1na2vs0mg"},{"bike_id":"038d4caf-9a70-4f47-bcbe-0cf48f63f66f","system_id":"levelo_inurba_marseille","lat":43.306412,"lon":5.401035,"is_reserved":false,"is_disabled":false,"rental_uris":{"android":"levelo://app?vid=038d4caf-9a70-4f47-bcbe-0cf48f63f66f","ios":"levelo://app?vid=038d4caf-9a70-4f47-bcbe-0cf48f63f66f"},"vehicle_type_id":"4","last_reported":1720544871,"current_range_meters":24800,"station_id":"ce4bh112rcd13ifvqda0","pricing_plan_id":"cebpf4jnsgd1na2vs0mg"},{"bike_id":"fd0d1061-a6b3-416f-8a8b-66e95af3935d","system_id":"levelo_inurba_marseille","lat":43.306412,"lon":5.401035,"is_reserved":false,"is_disabled":false,"rental_uris":{"android":"levelo://app?vid=fd0d1061-a6b3-416f-8a8b-66e95af3935d","ios":"levelo://app?vid=fd0d1061-a6b3-416f-8a8b-66e95af3935d"},"vehicle_type_id":"4","last_reported":1720544871,"current_range_meters":6000,"station_id":"ce4bh112rcd13ifvqda0","pricing_plan_id":"cebpf4jnsgd1na2vs0mg"},{"bike_id":"e1b0be1f-246c-4b6f-ac41-0633c1bab2fe","system_id":"levelo_inurba_marseille","lat":43.306412,"lon":5.401035,"is_reserved":false,"is_disabled":false,"rental_uris":{"android":"levelo://app?vid=e1b0be1f-246c-4b6f-ac41-0633c1bab2fe","ios":"levelo://app?vid=e1b0be1f-246c-4b6f-ac41-0633c1bab2fe"},"vehicle_type_id":"4","last_reported":1720544871,"current_range_meters":0,"station_id":"ce4bh112rcd13ifvqda0","pricing_plan_id":"cebpf4jnsgd1na2vs0mg"},{"bike_id":"fd552a03-1985-4e17-902d-2e2db1a276d0","system_id":"levelo_inurba_marseille","lat":43.301117,"lon":5.398795,"is_reserved":false,"is_disabled":false,"rental_uris":{"android":"levelo://app?vid=fd552a03-1985-4e17-902d-2e2db1a276d0","ios":"levelo://app?vid=fd552a03-1985-4e17-902d-2e2db1a276d0"},"vehicle_type_id":"4","last_reported":1720544871,"current_range_meters":0,"station_id":"ce4bh0h2rcd13ifvqd40","pricing_plan_id":"cebpf4jnsgd1na2vs0mg"},{"bike_id":"415867b7-7434-4706-8c9a-3fc6aa0c32a5","system_id":"levelo_inurba_marseille","lat":43.29885,"lon":5.39734,"is_reserved":false,"is_disabled":false,"rental_uris":{"android":"levelo://app?vid=415867b7-7434-4706-8c9a-3fc6aa0c32a5","ios":"levelo://app?vid=415867b7-7434-4706-8c9a-3fc6aa0c32a5"},"vehicle_type_id":"4","last_reported":1720544871,"current_range_meters":22000,"station_id":"ce4bh0h2rcd13ifvqd50","pricing_plan_id":"cebpf4jnsgd1na2vs0mg"},{"bike_id":"0b8bfdde-45ed-4ff9-aabe-84cce769f03d","system_id":"levelo_inurba_marseille","lat":43.298681,"lon":5.397225,"is_reserved":false,"is_disabled":false,"rental_uris":{"android":"levelo://app?vid=0b8bfdde-45ed-4ff9-aabe-84cce769f03d","ios":"levelo://app?vid=0b8bfdde-45ed-4ff9-aabe-84cce769f03d"},"vehicle_type_id":"4","last_reported":1720544871,"current_range_meters":0,"station_id":"ce4bh0h2rcd13ifvqd50","pricing_plan_id":"cebpf4jnsgd1na2vs0mg"},{"bike_id":"76294c30-c01e-4f5d-9231-7c32545e64e7","system_id":"levelo_inurba_marseille","lat":43.298681,"lon":5.397225,"is_reserved":false,"is_disabled":false,"rental_uris":{"android":"levelo://app?vid=76294c30-c01e-4f5d-9231-7c32545e64e7","ios":"levelo://app?vid=76294c30-c01e-4f5d-9231-7c32545e64e7"},"vehicle_type_id":"4","last_reported":1720544871,"current_range_meters":0,"station_id":"ce4bh0h2rcd13ifvqd50","pricing_plan_id":"cebpf4jnsgd1na2vs0mg"},{"bike_id":"d7abdcc1-710c-45e6-9823-e2a59eed611e","system_id":"levelo_inurba_marseille","lat":43.298818,"lon":5.397423,"is_reserved":false,"is_disabled":false,"rental_uris":{"android":"levelo://app?vid=d7abdcc1-710c-45e6-9823-e2a59eed611e","ios":"levelo://app?vid=d7abdcc1-710c-45e6-9823-e2a59eed611e"},"vehicle_type_id":"4","last_reported":1720544871,"current_range_meters":21600,"station_id":"ce4bh0h2rcd13ifvqd50","pricing_plan_id":"cebpf4jnsgd1na2vs0mg"},{"bike_id":"d1261fa4-ac47-4aee-9291-fb02daa95033","system_id":"levelo_inurba_marseille","lat":43.286591,"lon":5.363346,"is_reserved":false,"is_disabled":false,"rental_uris":{"android":"levelo://app?vid=d1261fa4-ac47-4aee-9291-fb02daa95033","ios":"levelo://app?vid=d1261fa4-ac47-4aee-9291-fb02daa95033"},"vehicle_type_id":"4","last_reported":1720544871,"current_range_meters":3200,"station_id":"ce4bhah2rcd13ifvqej0","pricing_plan_id":"cebpf4jnsgd1na2vs0mg"},{"bike_id":"b73e1a5a-3dfa-47f1-a235-da10206d0831","system_id":"levelo_inurba_marseille","lat":43.286591,"lon":5.363346,"is_reserved":false,"is_disabled":false,"rental_uris":{"android":"levelo://app?vid=b73e1a5a-3dfa-47f1-a235-da10206d0831","ios":"levelo://app?vid=b73e1a5a-3dfa-47f1-a235-da10206d0831"},"vehicle_type_id":"4","last_reported":1720544871,"current_range_meters":14800,"station_id":"ce4bhah2rcd13ifvqej0","pricing_plan_id":"cebpf4jnsgd1na2vs0mg"},{"bike_id":"4151d2ac-4c97-4f4c-9547-f21e66883f02","system_id":"levelo_inurba_marseille","lat":43.29866,"lon":5.39737,"is_reserved":false,"is_disabled":false,"rental_uris":{"android":"levelo://app?vid=4151d2ac-4c97-4f4c-9547-f21e66883f02","ios":"levelo://app?vid=4151d2ac-4c97-4f4c-9547-f21e66883f02"},"vehicle_type_id":"4","last_reported":1720544871,"current_range_meters":10000,"station_id":"ce4bh0h2rcd13ifvqd50","pricing_plan_id":"cebpf4jnsgd1na2vs0mg"},{"bike_id":"807fb2de-ab76-4867-9564-8627ffe8a407","system_id":"levelo_inurba_marseille","lat":43.298681,"lon":5.397225,"is_reserved":false,"is_disabled":false,"rental_uris":{"android":"levelo://app?vid=807fb2de-ab76-4867-9564-8627ffe8a407","ios":"levelo://app?vid=807fb2de-ab76-4867-9564-8627ffe8a407"},"vehicle_type_id":"4","last_reported":1720544871,"current_range_meters":22000,"station_id":"ce4bh0h2rcd13ifvqd50","pricing_plan_id":"cebpf4jnsgd1na2vs0mg"},{"bike_id":"b02ca3a0-e4fd-4630-8d13-df6ca69558f0","system_id":"levelo_inurba_marseille","lat":43.295247,"lon":5.394013,"is_reserved":false,"is_disabled":false,"rental_uris":{"android":"levelo://app?vid=b02ca3a0-e4fd-4630-8d13-df6ca69558f0","ios":"levelo://app?vid=b02ca3a0-e4fd-4630-8d13-df6ca69558f0"},"vehicle_type_id":"4","last_reported":1720544871,"current_range_meters":0,"station_id":"ce4bh292rcd13ifvqdf0","pricing_plan_id":"cebpf4jnsgd1na2vs0mg"},{"bike_id":"0bd99210-2d56-444f-b6c8-f44ce34ae74f","system_id":"levelo_inurba_marseille","lat":43.295196,"lon":5.39397,"is_reserved":false,"is_disabled":false,"rental_uris":{"android":"levelo://app?vid=0bd99210-2d56-444f-b6c8-f44ce34ae74f","ios":"levelo://app?vid=0bd99210-2d56-444f-b6c8-f44ce34ae74f"},"vehicle_type_id":"4","last_reported":1720544871,"current_range_meters":0,"station_id":"ce4bh292rcd13ifvqdf0","pricing_plan_id":"cebpf4jnsgd1na2vs0mg"},{"bike_id":"af3e74a7-0b3d-4fe3-955f-266509c50b43","system_id":"levelo_inurba_marseille","lat":43.295196,"lon":5.39397,"is_reserved":false,"is_disabled":false,"rental_uris":{"android":"levelo://app?vid=af3e74a7-0b3d-4fe3-955f-266509c50b43","ios":"levelo://app?vid=af3e74a7-0b3d-4fe3-955f-266509c50b43"},"vehicle_type_id":"4","last_reported":1720544871,"current_range_meters":12800,"station_id":"ce4bh292rcd13ifvqdf0","pricing_plan_id":"cebpf4jnsgd1na2vs0mg"},{"bike_id":"85aa6acf-6eac-4e9b-85df-a66d2ea81343","system_id":"levelo_inurba_marseille","lat":43.29517,"lon":5.39405,"is_reserved":false,"is_disabled":false,"rental_uris":{"android":"levelo://app?vid=85aa6acf-6eac-4e9b-85df-a66d2ea81343","ios":"levelo://app?vid=85aa6acf-6eac-4e9b-85df-a66d2ea81343"},"vehicle_type_id":"4","last_reported":1720544871,"current_range_meters":0,"station_id":"ce4bh292rcd13ifvqdf0","pricing_plan_id":"cebpf4jnsgd1na2vs0mg"},{"bike_id":"dbddb750-5774-4613-8a07-2b52da4868c0","system_id":"levelo_inurba_marseille","lat":43.29513,"lon":5.39402,"is_reserved":false,"is_disabled":false,"rental_uris":{"android":"levelo://app?vid=dbddb750-5774-4613-8a07-2b52da4868c0","ios":"levelo://app?vid=dbddb750-5774-4613-8a07-2b52da4868c0"},"vehicle_type_id":"4","last_reported":1720544871,"current_range_meters":9600,"station_id":"ce4bh292rcd13ifvqdf0","pricing_plan_id":"cebpf4jnsgd1na2vs0mg"},{"bike_id":"fd41f8ee-5940-46de-8aeb-5fd0965b5245","system_id":"levelo_inurba_marseille","lat":43.2951,"lon":5.39399,"is_reserved":false,"is_disabled":false,"rental_uris":{"android":"levelo://app?vid=fd41f8ee-5940-46de-8aeb-5fd0965b5245","ios":"levelo://app?vid=fd41f8ee-5940-46de-8aeb-5fd0965b5245"},"vehicle_type_id":"4","last_reported":1720544871,"current_range_meters":14400,"station_id":"ce4bh292rcd13ifvqdf0","pricing_plan_id":"cebpf4jnsgd1na2vs0mg"},{"bike_id":"45a6d758-c51b-4e02-82b1-13622f9ed38d","system_id":"levelo_inurba_marseille","lat":43.29034,"lon":5.38644,"is_reserved":false,"is_disabled":false,"rental_uris":{"android":"levelo://app?vid=45a6d758-c51b-4e02-82b1-13622f9ed38d","ios":"levelo://app?vid=45a6d758-c51b-4e02-82b1-13622f9ed38d"},"vehicle_type_id":"4","last_reported":1720544871,"current_range_meters":7200,"station_id":"ce4bh4p2rcd13ifvqe0g","pricing_plan_id":"cebpf4jnsgd1na2vs0mg"},{"bike_id":"deeed1e5-0f4f-45b9-aa67-c22a32d0667d","system_id":"levelo_inurba_marseille","lat":43.286039,"lon":5.370681,"is_reserved":false,"is_disabled":false,"rental_uris":{"android":"levelo://app?vid=deeed1e5-0f4f-45b9-aa67-c22a32d0667d","ios":"levelo://app?vid=deeed1e5-0f4f-45b9-aa67-c22a32d0667d"},"vehicle_type_id":"4","last_reported":1720544871,"current_range_meters":13200,"station_id":"ce4bht12rcd13ifvqi60","pricing_plan_id":"cebpf4jnsgd1na2vs0mg"},{"bike_id":"09b23e95-4ec1-42c2-a431-0cb7067b73b7","system_id":"levelo_inurba_marseille","lat":43.287184,"lon":5.37937,"is_reserved":false,"is_disabled":false,"rental_uris":{"android":"levelo://app?vid=09b23e95-4ec1-42c2-a431-0cb7067b73b7","ios":"levelo://app?vid=09b23e95-4ec1-42c2-a431-0cb7067b73b7"},"vehicle_type_id":"4","last_reported":1720544871,"current_range_meters":3600,"station_id":"ce4bh9p2rcd13ifvqec0","pricing_plan_id":"cebpf4jnsgd1na2vs0mg"},{"bike_id":"ac728c52-f0dd-4d61-8726-bfd0c78d3ac0","system_id":"levelo_inurba_marseille","lat":43.28717,"lon":5.3795,"is_reserved":false,"is_disabled":false,"rental_uris":{"android":"levelo://app?vid=ac728c52-f0dd-4d61-8726-bfd0c78d3ac0","ios":"levelo://app?vid=ac728c52-f0dd-4d61-8726-bfd0c78d3ac0"},"vehicle_type_id":"4","last_reported":1720544871,"current_range_meters":0,"station_id":"ce4bh9p2rcd13ifvqec0","pricing_plan_id":"cebpf4jnsgd1na2vs0mg"},{"bike_id":"dfeb9b78-c1b2-49fd-ba1a-ee516f9942b0","system_id":"levelo_inurba_marseille","lat":43.31833,"lon":5.40375,"is_reserved":false,"is_disabled":false,"rental_uris":{"android":"levelo://app?vid=dfeb9b78-c1b2-49fd-ba1a-ee516f9942b0","ios":"levelo://app?vid=dfeb9b78-c1b2-49fd-ba1a-ee516f9942b0"},"vehicle_type_id":"4","last_reported":1720544871,"current_range_meters":20400,"station_id":"","pricing_plan_id":"cebpf4jnsgd1na2vs0mg"},{"bike_id":"959dffb5-8a80-4fff-9729-4b21ca3dd31f","system_id":"levelo_inurba_marseille","lat":43.316821,"lon":5.404737,"is_reserved":false,"is_disabled":false,"rental_uris":{"android":"levelo://app?vid=959dffb5-8a80-4fff-9729-4b21ca3dd31f","ios":"levelo://app?vid=959dffb5-8a80-4fff-9729-4b21ca3dd31f"},"vehicle_type_id":"4","last_reported":1720544871,"current_range_meters":24400,"station_id":"ce4bh012rcd13ifvqd00","pricing_plan_id":"cebpf4jnsgd1na2vs0mg"},{"bike_id":"132307e4-e1ed-4ffc-9fa4-7fd6c307f03b","system_id":"levelo_inurba_marseille","lat":43.28465,"lon":5.35897,"is_reserved":false,"is_disabled":false,"rental_uris":{"android":"levelo://app?vid=132307e4-e1ed-4ffc-9fa4-7fd6c307f03b","ios":"levelo://app?vid=132307e4-e1ed-4ffc-9fa4-7fd6c307f03b"},"vehicle_type_id":"4","last_reported":1720544871,"current_range_meters":30000,"station_id":"ce4bhah2rcd13ifvqei0","pricing_plan_id":"cebpf4jnsgd1na2vs0mg"},{"bike_id":"01fb8d4a-b655-41cb-b63c-4779fbbf4510","system_id":"levelo_inurba_marseille","lat":43.28463,"lon":5.35898,"is_reserved":false,"is_disabled":false,"rental_uris":{"android":"levelo://app?vid=01fb8d4a-b655-41cb-b63c-4779fbbf4510","ios":"levelo://app?vid=01fb8d4a-b655-41cb-b63c-4779fbbf4510"},"vehicle_type_id":"4","last_reported":1720544871,"current_range_meters":2400,"station_id":"ce4bhah2rcd13ifvqei0","pricing_plan_id":"cebpf4jnsgd1na2vs0mg"},{"bike_id":"dcc52c96-8bff-4953-9e82-7d97c070dbd8","system_id":"levelo_inurba_marseille","lat":43.28462,"lon":5.35898,"is_reserved":false,"is_disabled":false,"rental_uris":{"android":"levelo://app?vid=dcc52c96-8bff-4953-9e82-7d97c070dbd8","ios":"levelo://app?vid=dcc52c96-8bff-4953-9e82-7d97c070dbd8"},"vehicle_type_id":"4","last_reported":1720544871,"current_range_meters":12400,"station_id":"ce4bhah2rcd13ifvqei0","pricing_plan_id":"cebpf4jnsgd1na2vs0mg"},{"bike_id":"e4b49945-ed5d-4031-8311-7c4cd58a6740","system_id":"levelo_inurba_marseille","lat":43.284538,"lon":5.358657,"is_reserved":false,"is_disabled":false,"rental_uris":{"android":"levelo://app?vid=e4b49945-ed5d-4031-8311-7c4cd58a6740","ios":"levelo://app?vid=e4b49945-ed5d-4031-8311-7c4cd58a6740"},"vehicle_type_id":"4","last_reported":1720544871,"current_range_meters":0,"station_id":"ce4bhah2rcd13ifvqei0","pricing_plan_id":"cebpf4jnsgd1na2vs0mg"},{"bike_id":"cf20adca-ea9c-4425-a7c4-0aa3d5355359","system_id":"levelo_inurba_marseille","lat":43.284538,"lon":5.358657,"is_reserved":false,"is_disabled":false,"rental_uris":{"android":"levelo://app?vid=cf20adca-ea9c-4425-a7c4-0aa3d5355359","ios":"levelo://app?vid=cf20adca-ea9c-4425-a7c4-0aa3d5355359"},"vehicle_type_id":"4","last_reported":1720544871,"current_range_meters":26000,"station_id":"ce4bhah2rcd13ifvqei0","pricing_plan_id":"cebpf4jnsgd1na2vs0mg"},{"bike_id":"7d65134b-5dd4-4b98-974d-ac94ea1bf9f3","system_id":"levelo_inurba_marseille","lat":43.28458,"lon":5.35887,"is_reserved":false,"is_disabled":false,"rental_uris":{"android":"levelo://app?vid=7d65134b-5dd4-4b98-974d-ac94ea1bf9f3","ios":"levelo://app?vid=7d65134b-5dd4-4b98-974d-ac94ea1bf9f3"},"vehicle_type_id":"4","last_reported":1720544871,"current_range_meters":0,"station_id":"ce4bhah2rcd13ifvqei0","pricing_plan_id":"cebpf4jnsgd1na2vs0mg"},{"bike_id":"e157b0ad-66ee-442a-8e76-8a2bbbede17c","system_id":"levelo_inurba_marseille","lat":43.284534,"lon":5.358662,"is_reserved":false,"is_disabled":false,"rental_uris":{"android":"levelo://app?vid=e157b0ad-66ee-442a-8e76-8a2bbbede17c","ios":"levelo://app?vid=e157b0ad-66ee-442a-8e76-8a2bbbede17c"},"vehicle_type_id":"4","last_reported":1720544871,"current_range_meters":3200,"station_id":"ce4bhah2rcd13ifvqei0","pricing_plan_id":"cebpf4jnsgd1na2vs0mg"},{"bike_id":"3bd71963-f95d-483c-9700-8d2d2a5d010c","system_id":"levelo_inurba_marseille","lat":43.284534,"lon":5.358662,"is_reserved":false,"is_disabled":false,"rental_uris":{"android":"levelo://app?vid=3bd71963-f95d-483c-9700-8d2d2a5d010c","ios":"levelo://app?vid=3bd71963-f95d-483c-9700-8d2d2a5d010c"},"vehicle_type_id":"4","last_reported":1720544871,"current_range_meters":14000,"station_id":"ce4bhah2rcd13ifvqei0","pricing_plan_id":"cebpf4jnsgd1na2vs0mg"},{"bike_id":"9c19b7e9-c120-4c3e-b587-fe33c8f7b06c","system_id":"levelo_inurba_marseille","lat":43.284534,"lon":5.358662,"is_reserved":false,"is_disabled":false,"rental_uris":{"android":"levelo://app?vid=9c19b7e9-c120-4c3e-b587-fe33c8f7b06c","ios":"levelo://app?vid=9c19b7e9-c120-4c3e-b587-fe33c8f7b06c"},"vehicle_type_id":"4","last_reported":1720544871,"current_range_meters":21200,"station_id":"ce4bhah2rcd13ifvqei0","pricing_plan_id":"cebpf4jnsgd1na2vs0mg"},{"bike_id":"0b0ee859-2c17-4065-bb85-67d37b269b16","system_id":"levelo_inurba_marseille","lat":43.284538,"lon":5.358657,"is_reserved":false,"is_disabled":false,"rental_uris":{"android":"levelo://app?vid=0b0ee859-2c17-4065-bb85-67d37b269b16","ios":"levelo://app?vid=0b0ee859-2c17-4065-bb85-67d37b269b16"},"vehicle_type_id":"4","last_reported":1720544871,"current_range_meters":0,"station_id":"ce4bhah2rcd13ifvqei0","pricing_plan_id":"cebpf4jnsgd1na2vs0mg"},{"bike_id":"dfc73375-eeb9-4a12-a6ed-7e46b2f6d916","system_id":"levelo_inurba_marseille","lat":43.28626,"lon":5.35103,"is_reserved":false,"is_disabled":false,"rental_uris":{"android":"levelo://app?vid=dfc73375-eeb9-4a12-a6ed-7e46b2f6d916","ios":"levelo://app?vid=dfc73375-eeb9-4a12-a6ed-7e46b2f6d916"},"vehicle_type_id":"4","last_reported":1720544871,"current_range_meters":12800,"station_id":"ce4bhch2rcd13ifvqeug","pricing_plan_id":"cebpf4jnsgd1na2vs0mg"},{"bike_id":"5791ce4f-2fdb-475b-a6ff-c82ec6762250","system_id":"levelo_inurba_marseille","lat":43.28624,"lon":5.35106,"is_reserved":false,"is_disabled":false,"rental_uris":{"android":"levelo://app?vid=5791ce4f-2fdb-475b-a6ff-c82ec6762250","ios":"levelo://app?vid=5791ce4f-2fdb-475b-a6ff-c82ec6762250"},"vehicle_type_id":"4","last_reported":1720544871,"current_range_meters":20400,"station_id":"ce4bhch2rcd13ifvqeug","pricing_plan_id":"cebpf4jnsgd1na2vs0mg"},{"bike_id":"39ff8ffb-5891-4bf5-a853-096c30c080ed","system_id":"levelo_inurba_marseille","lat":43.2862,"lon":5.35114,"is_reserved":false,"is_disabled":false,"rental_uris":{"android":"levelo://app?vid=39ff8ffb-5891-4bf5-a853-096c30c080ed","ios":"levelo://app?vid=39ff8ffb-5891-4bf5-a853-096c30c080ed"},"vehicle_type_id":"4","last_reported":1720544871,"current_range_meters":21600,"station_id":"ce4bhch2rcd13ifvqeug","pricing_plan_id":"cebpf4jnsgd1na2vs0mg"},{"bike_id":"19e08398-d192-4470-ac0b-ddbd481444eb","system_id":"levelo_inurba_marseille","lat":43.2862,"lon":5.35112,"is_reserved":false,"is_disabled":false,"rental_uris":{"android":"levelo://app?vid=19e08398-d192-4470-ac0b-ddbd481444eb","ios":"levelo://app?vid=19e08398-d192-4470-ac0b-ddbd481444eb"},"vehicle_type_id":"4","last_reported":1720544871,"current_range_meters":17600,"station_id":"ce4bhch2rcd13ifvqeug","pricing_plan_id":"cebpf4jnsgd1na2vs0mg"},{"bike_id":"c0882c48-9bef-4f27-a200-243f90c08448","system_id":"levelo_inurba_marseille","lat":43.28621,"lon":5.35104,"is_reserved":false,"is_disabled":false,"rental_uris":{"android":"levelo://app?vid=c0882c48-9bef-4f27-a200-243f90c08448","ios":"levelo://app?vid=c0882c48-9bef-4f27-a200-243f90c08448"},"vehicle_type_id":"4","last_reported":1720544871,"current_range_meters":31200,"station_id":"ce4bhch2rcd13ifvqeug","pricing_plan_id":"cebpf4jnsgd1na2vs0mg"},{"bike_id":"2949de70-eede-41dc-a2d1-ec1bb7576c0f","system_id":"levelo_inurba_marseille","lat":43.28617,"lon":5.35115,"is_reserved":false,"is_disabled":false,"rental_uris":{"android":"levelo://app?vid=2949de70-eede-41dc-a2d1-ec1bb7576c0f","ios":"levelo://app?vid=2949de70-eede-41dc-a2d1-ec1bb7576c0f"},"vehicle_type_id":"4","last_reported":1720544871,"current_range_meters":8000,"station_id":"ce4bhch2rcd13ifvqeug","pricing_plan_id":"cebpf4jnsgd1na2vs0mg"},{"bike_id":"8a71ff54-007f-416d-943d-cf596675b053","system_id":"levelo_inurba_marseille","lat":43.28619,"lon":5.35108,"is_reserved":false,"is_disabled":false,"rental_uris":{"android":"levelo://app?vid=8a71ff54-007f-416d-943d-cf596675b053","ios":"levelo://app?vid=8a71ff54-007f-416d-943d-cf596675b053"},"vehicle_type_id":"4","last_reported":1720544871,"current_range_meters":10800,"station_id":"ce4bhch2rcd13ifvqeug","pricing_plan_id":"cebpf4jnsgd1na2vs0mg"},{"bike_id":"1f9b1daa-a840-4698-8295-f9162e95f182","system_id":"levelo_inurba_marseille","lat":43.28619,"lon":5.35108,"is_reserved":false,"is_disabled":false,"rental_uris":{"android":"levelo://app?vid=1f9b1daa-a840-4698-8295-f9162e95f182","ios":"levelo://app?vid=1f9b1daa-a840-4698-8295-f9162e95f182"},"vehicle_type_id":"4","last_reported":1720544871,"current_range_meters":14400,"station_id":"ce4bhch2rcd13ifvqeug","pricing_plan_id":"cebpf4jnsgd1na2vs0mg"},{"bike_id":"d2ac6cbd-9dd9-462c-b44d-547393cbfaa4","system_id":"levelo_inurba_marseille","lat":43.28618,"lon":5.3511,"is_reserved":false,"is_disabled":false,"rental_uris":{"android":"levelo://app?vid=d2ac6cbd-9dd9-462c-b44d-547393cbfaa4","ios":"levelo://app?vid=d2ac6cbd-9dd9-462c-b44d-547393cbfaa4"},"vehicle_type_id":"4","last_reported":1720544871,"current_range_meters":26800,"station_id":"ce4bhch2rcd13ifvqeug","pricing_plan_id":"cebpf4jnsgd1na2vs0mg"},{"bike_id":"c8bd1c3a-edfc-4cc9-b237-a10ce222a7bc","system_id":"levelo_inurba_marseille","lat":43.2862,"lon":5.35102,"is_reserved":false,"is_disabled":false,"rental_uris":{"android":"levelo://app?vid=c8bd1c3a-edfc-4cc9-b237-a10ce222a7bc","ios":"levelo://app?vid=c8bd1c3a-edfc-4cc9-b237-a10ce222a7bc"},"vehicle_type_id":"4","last_reported":1720544871,"current_range_meters":17200,"station_id":"ce4bhch2rcd13ifvqeug","pricing_plan_id":"cebpf4jnsgd1na2vs0mg"},{"bike_id":"45fb50a3-7a67-46ca-a8be-1d661c855fa4","system_id":"levelo_inurba_marseille","lat":43.28616,"lon":5.35112,"is_reserved":false,"is_disabled":false,"rental_uris":{"android":"levelo://app?vid=45fb50a3-7a67-46ca-a8be-1d661c855fa4","ios":"levelo://app?vid=45fb50a3-7a67-46ca-a8be-1d661c855fa4"},"vehicle_type_id":"4","last_reported":1720544871,"current_range_meters":0,"station_id":"ce4bhch2rcd13ifvqeug","pricing_plan_id":"cebpf4jnsgd1na2vs0mg"},{"bike_id":"75ab508c-0647-4477-adca-7f1c7b139503","system_id":"levelo_inurba_marseille","lat":43.28618,"lon":5.35104,"is_reserved":false,"is_disabled":false,"rental_uris":{"android":"levelo://app?vid=75ab508c-0647-4477-adca-7f1c7b139503","ios":"levelo://app?vid=75ab508c-0647-4477-adca-7f1c7b139503"},"vehicle_type_id":"4","last_reported":1720544871,"current_range_meters":19200,"station_id":"ce4bhch2rcd13ifvqeug","pricing_plan_id":"cebpf4jnsgd1na2vs0mg"},{"bike_id":"e73814c2-5022-4baa-89aa-acb8020fd607","system_id":"levelo_inurba_marseille","lat":43.28617,"lon":5.35106,"is_reserved":false,"is_disabled":false,"rental_uris":{"android":"levelo://app?vid=e73814c2-5022-4baa-89aa-acb8020fd607","ios":"levelo://app?vid=e73814c2-5022-4baa-89aa-acb8020fd607"},"vehicle_type_id":"4","last_reported":1720544871,"current_range_meters":24000,"station_id":"ce4bhch2rcd13ifvqeug","pricing_plan_id":"cebpf4jnsgd1na2vs0mg"},{"bike_id":"8ca12937-9413-4ada-b0b7-4b9dc50dc24c","system_id":"levelo_inurba_marseille","lat":43.286175,"lon":5.351027,"is_reserved":false,"is_disabled":false,"rental_uris":{"android":"levelo://app?vid=8ca12937-9413-4ada-b0b7-4b9dc50dc24c","ios":"levelo://app?vid=8ca12937-9413-4ada-b0b7-4b9dc50dc24c"},"vehicle_type_id":"4","last_reported":1720544871,"current_range_meters":31200,"station_id":"ce4bhch2rcd13ifvqeug","pricing_plan_id":"cebpf4jnsgd1na2vs0mg"},{"bike_id":"508cb613-1590-40f1-81e4-7d8ff95829fb","system_id":"levelo_inurba_marseille","lat":43.28619,"lon":5.35098,"is_reserved":false,"is_disabled":false,"rental_uris":{"android":"levelo://app?vid=508cb613-1590-40f1-81e4-7d8ff95829fb","ios":"levelo://app?vid=508cb613-1590-40f1-81e4-7d8ff95829fb"},"vehicle_type_id":"4","last_reported":1720544871,"current_range_meters":10400,"station_id":"ce4bhch2rcd13ifvqeug","pricing_plan_id":"cebpf4jnsgd1na2vs0mg"},{"bike_id":"184e9db7-3ce5-46bc-837d-b13519a59fda","system_id":"levelo_inurba_marseille","lat":43.285856,"lon":5.350771,"is_reserved":false,"is_disabled":false,"rental_uris":{"android":"levelo://app?vid=184e9db7-3ce5-46bc-837d-b13519a59fda","ios":"levelo://app?vid=184e9db7-3ce5-46bc-837d-b13519a59fda"},"vehicle_type_id":"4","last_reported":1720544871,"current_range_meters":24400,"station_id":"ce4bhch2rcd13ifvqeug","pricing_plan_id":"cebpf4jnsgd1na2vs0mg"},{"bike_id":"7013413f-4923-44db-8d61-dd97490ca7b8","system_id":"levelo_inurba_marseille","lat":43.28618,"lon":5.35101,"is_reserved":false,"is_disabled":false,"rental_uris":{"android":"levelo://app?vid=7013413f-4923-44db-8d61-dd97490ca7b8","ios":"levelo://app?vid=7013413f-4923-44db-8d61-dd97490ca7b8"},"vehicle_type_id":"4","last_reported":1720544871,"current_range_meters":31200,"station_id":"ce4bhch2rcd13ifvqeug","pricing_plan_id":"cebpf4jnsgd1na2vs0mg"},{"bike_id":"11813080-add3-4d49-9d5e-9ec5ce5a765e","system_id":"levelo_inurba_marseille","lat":43.28614,"lon":5.35113,"is_reserved":false,"is_disabled":false,"rental_uris":{"android":"levelo://app?vid=11813080-add3-4d49-9d5e-9ec5ce5a765e","ios":"levelo://app?vid=11813080-add3-4d49-9d5e-9ec5ce5a765e"},"vehicle_type_id":"4","last_reported":1720544871,"current_range_meters":24000,"station_id":"ce4bhch2rcd13ifvqeug","pricing_plan_id":"cebpf4jnsgd1na2vs0mg"},{"bike_id":"e8b1124a-6ec0-4eee-ad87-fd42dc6edc97","system_id":"levelo_inurba_marseille","lat":43.28617,"lon":5.35101,"is_reserved":false,"is_disabled":false,"rental_uris":{"android":"levelo://app?vid=e8b1124a-6ec0-4eee-ad87-fd42dc6edc97","ios":"levelo://app?vid=e8b1124a-6ec0-4eee-ad87-fd42dc6edc97"},"vehicle_type_id":"4","last_reported":1720544871,"current_range_meters":8400,"station_id":"ce4bhch2rcd13ifvqeug","pricing_plan_id":"cebpf4jnsgd1na2vs0mg"},{"bike_id":"ad94c228-11e1-4220-a0db-18d2b548d3ab","system_id":"levelo_inurba_marseille","lat":43.285856,"lon":5.350771,"is_reserved":false,"is_disabled":false,"rental_uris":{"android":"levelo://app?vid=ad94c228-11e1-4220-a0db-18d2b548d3ab","ios":"levelo://app?vid=ad94c228-11e1-4220-a0db-18d2b548d3ab"},"vehicle_type_id":"4","last_reported":1720544871,"current_range_meters":23200,"station_id":"ce4bhch2rcd13ifvqeug","pricing_plan_id":"cebpf4jnsgd1na2vs0mg"},{"bike_id":"24fccee2-40e0-4862-84dc-5e275010a0eb","system_id":"levelo_inurba_marseille","lat":43.28617,"lon":5.351,"is_reserved":false,"is_disabled":false,"rental_uris":{"android":"levelo://app?vid=24fccee2-40e0-4862-84dc-5e275010a0eb","ios":"levelo://app?vid=24fccee2-40e0-4862-84dc-5e275010a0eb"},"vehicle_type_id":"4","last_reported":1720544871,"current_range_meters":19200,"station_id":"ce4bhch2rcd13ifvqeug","pricing_plan_id":"cebpf4jnsgd1na2vs0mg"},{"bike_id":"c2cfa58c-f3bd-4b69-b0e1-f409f20ca7e5","system_id":"levelo_inurba_marseille","lat":43.28616,"lon":5.35103,"is_reserved":false,"is_disabled":false,"rental_uris":{"android":"levelo://app?vid=c2cfa58c-f3bd-4b69-b0e1-f409f20ca7e5","ios":"levelo://app?vid=c2cfa58c-f3bd-4b69-b0e1-f409f20ca7e5"},"vehicle_type_id":"4","last_reported":1720544871,"current_range_meters":8800,"station_id":"ce4bhch2rcd13ifvqeug","pricing_plan_id":"cebpf4jnsgd1na2vs0mg"},{"bike_id":"88cb204e-53de-4603-8631-58b8fdaf6db2","system_id":"levelo_inurba_marseille","lat":43.28617,"lon":5.35099,"is_reserved":false,"is_disabled":false,"rental_uris":{"android":"levelo://app?vid=88cb204e-53de-4603-8631-58b8fdaf6db2","ios":"levelo://app?vid=88cb204e-53de-4603-8631-58b8fdaf6db2"},"vehicle_type_id":"4","last_reported":1720544871,"current_range_meters":28800,"station_id":"ce4bhch2rcd13ifvqeug","pricing_plan_id":"cebpf4jnsgd1na2vs0mg"},{"bike_id":"257e8646-867d-4535-8733-5889c14156e3","system_id":"levelo_inurba_marseille","lat":43.28617,"lon":5.35099,"is_reserved":false,"is_disabled":false,"rental_uris":{"android":"levelo://app?vid=257e8646-867d-4535-8733-5889c14156e3","ios":"levelo://app?vid=257e8646-867d-4535-8733-5889c14156e3"},"vehicle_type_id":"4","last_reported":1720544871,"current_range_meters":14400,"station_id":"ce4bhch2rcd13ifvqeug","pricing_plan_id":"cebpf4jnsgd1na2vs0mg"},{"bike_id":"beb7f690-3214-4ac1-802b-8ae5e43d796f","system_id":"levelo_inurba_marseille","lat":43.28616,"lon":5.35101,"is_reserved":false,"is_disabled":false,"rental_uris":{"android":"levelo://app?vid=beb7f690-3214-4ac1-802b-8ae5e43d796f","ios":"levelo://app?vid=beb7f690-3214-4ac1-802b-8ae5e43d796f"},"vehicle_type_id":"4","last_reported":1720544871,"current_range_meters":31200,"station_id":"ce4bhch2rcd13ifvqeug","pricing_plan_id":"cebpf4jnsgd1na2vs0mg"},{"bike_id":"3cb5dad0-13f1-40fb-a8f5-59f5fcda2b71","system_id":"levelo_inurba_marseille","lat":43.28615,"lon":5.35103,"is_reserved":false,"is_disabled":false,"rental_uris":{"android":"levelo://app?vid=3cb5dad0-13f1-40fb-a8f5-59f5fcda2b71","ios":"levelo://app?vid=3cb5dad0-13f1-40fb-a8f5-59f5fcda2b71"},"vehicle_type_id":"4","last_reported":1720544871,"current_range_meters":9600,"station_id":"ce4bhch2rcd13ifvqeug","pricing_plan_id":"cebpf4jnsgd1na2vs0mg"},{"bike_id":"b940fcc2-88c5-44b8-8f3f-8cacdd716089","system_id":"levelo_inurba_marseille","lat":43.28617,"lon":5.35096,"is_reserved":false,"is_disabled":false,"rental_uris":{"android":"levelo://app?vid=b940fcc2-88c5-44b8-8f3f-8cacdd716089","ios":"levelo://app?vid=b940fcc2-88c5-44b8-8f3f-8cacdd716089"},"vehicle_type_id":"4","last_reported":1720544871,"current_range_meters":16400,"station_id":"ce4bhch2rcd13ifvqeug","pricing_plan_id":"cebpf4jnsgd1na2vs0mg"},{"bike_id":"32d601b1-ed9a-4cdc-834f-4db8d72dc7a1","system_id":"levelo_inurba_marseille","lat":43.28616,"lon":5.35098,"is_reserved":false,"is_disabled":false,"rental_uris":{"android":"levelo://app?vid=32d601b1-ed9a-4cdc-834f-4db8d72dc7a1","ios":"levelo://app?vid=32d601b1-ed9a-4cdc-834f-4db8d72dc7a1"},"vehicle_type_id":"4","last_reported":1720544871,"current_range_meters":22400,"station_id":"ce4bhch2rcd13ifvqeug","pricing_plan_id":"cebpf4jnsgd1na2vs0mg"},{"bike_id":"d09a821c-f69c-4488-911f-68f2d7322d22","system_id":"levelo_inurba_marseille","lat":43.285856,"lon":5.350771,"is_reserved":false,"is_disabled":false,"rental_uris":{"android":"levelo://app?vid=d09a821c-f69c-4488-911f-68f2d7322d22","ios":"levelo://app?vid=d09a821c-f69c-4488-911f-68f2d7322d22"},"vehicle_type_id":"4","last_reported":1720544871,"current_range_meters":27200,"station_id":"ce4bhch2rcd13ifvqeug","pricing_plan_id":"cebpf4jnsgd1na2vs0mg"},{"bike_id":"d7a6ef0b-f596-4967-87d2-bbd9004d69c8","system_id":"levelo_inurba_marseille","lat":43.28613,"lon":5.35105,"is_reserved":false,"is_disabled":false,"rental_uris":{"android":"levelo://app?vid=d7a6ef0b-f596-4967-87d2-bbd9004d69c8","ios":"levelo://app?vid=d7a6ef0b-f596-4967-87d2-bbd9004d69c8"},"vehicle_type_id":"4","last_reported":1720544871,"current_range_meters":31200,"station_id":"ce4bhch2rcd13ifvqeug","pricing_plan_id":"cebpf4jnsgd1na2vs0mg"},{"bike_id":"7c26f16b-2d49-42f6-b5e9-9ef47ff93d2c","system_id":"levelo_inurba_marseille","lat":43.28613,"lon":5.35103,"is_reserved":false,"is_disabled":false,"rental_uris":{"android":"levelo://app?vid=7c26f16b-2d49-42f6-b5e9-9ef47ff93d2c","ios":"levelo://app?vid=7c26f16b-2d49-42f6-b5e9-9ef47ff93d2c"},"vehicle_type_id":"4","last_reported":1720544871,"current_range_meters":30800,"station_id":"ce4bhch2rcd13ifvqeug","pricing_plan_id":"cebpf4jnsgd1na2vs0mg"},{"bike_id":"1810f710-7008-42b9-8aca-413256801dc8","system_id":"levelo_inurba_marseille","lat":43.28614,"lon":5.35097,"is_reserved":false,"is_disabled":false,"rental_uris":{"android":"levelo://app?vid=1810f710-7008-42b9-8aca-413256801dc8","ios":"levelo://app?vid=1810f710-7008-42b9-8aca-413256801dc8"},"vehicle_type_id":"4","last_reported":1720544871,"current_range_meters":10800,"station_id":"ce4bhch2rcd13ifvqeug","pricing_plan_id":"cebpf4jnsgd1na2vs0mg"},{"bike_id":"45f9cc6b-9eee-4e7d-907a-1e80548b1e58","system_id":"levelo_inurba_marseille","lat":43.28613,"lon":5.351,"is_reserved":false,"is_disabled":false,"rental_uris":{"android":"levelo://app?vid=45f9cc6b-9eee-4e7d-907a-1e80548b1e58","ios":"levelo://app?vid=45f9cc6b-9eee-4e7d-907a-1e80548b1e58"},"vehicle_type_id":"4","last_reported":1720544871,"current_range_meters":18400,"station_id":"ce4bhch2rcd13ifvqeug","pricing_plan_id":"cebpf4jnsgd1na2vs0mg"},{"bike_id":"fee6cee3-4f1e-4392-b52b-efeddf89a78e","system_id":"levelo_inurba_marseille","lat":43.2861,"lon":5.35109,"is_reserved":false,"is_disabled":false,"rental_uris":{"android":"levelo://app?vid=fee6cee3-4f1e-4392-b52b-efeddf89a78e","ios":"levelo://app?vid=fee6cee3-4f1e-4392-b52b-efeddf89a78e"},"vehicle_type_id":"4","last_reported":1720544871,"current_range_meters":5200,"station_id":"ce4bhch2rcd13ifvqeug","pricing_plan_id":"cebpf4jnsgd1na2vs0mg"},{"bike_id":"2cf7ba37-c939-47bc-a3d6-43a68153c975","system_id":"levelo_inurba_marseille","lat":43.28613,"lon":5.35096,"is_reserved":false,"is_disabled":false,"rental_uris":{"android":"levelo://app?vid=2cf7ba37-c939-47bc-a3d6-43a68153c975","ios":"levelo://app?vid=2cf7ba37-c939-47bc-a3d6-43a68153c975"},"vehicle_type_id":"4","last_reported":1720544871,"current_range_meters":31200,"station_id":"ce4bhch2rcd13ifvqeug","pricing_plan_id":"cebpf4jnsgd1na2vs0mg"},{"bike_id":"83c9d379-8f3c-443f-80b6-18e50afbb42b","system_id":"levelo_inurba_marseille","lat":43.2861,"lon":5.35103,"is_reserved":false,"is_disabled":false,"rental_uris":{"android":"levelo://app?vid=83c9d379-8f3c-443f-80b6-18e50afbb42b","ios":"levelo://app?vid=83c9d379-8f3c-443f-80b6-18e50afbb42b"},"vehicle_type_id":"4","last_reported":1720544871,"current_range_meters":10400,"station_id":"ce4bhch2rcd13ifvqeug","pricing_plan_id":"cebpf4jnsgd1na2vs0mg"},{"bike_id":"07ce4274-a4c5-41b2-a973-0319ea2354f8","system_id":"levelo_inurba_marseille","lat":43.295713,"lon":5.399639,"is_reserved":false,"is_disabled":false,"rental_uris":{"android":"levelo://app?vid=07ce4274-a4c5-41b2-a973-0319ea2354f8","ios":"levelo://app?vid=07ce4274-a4c5-41b2-a973-0319ea2354f8"},"vehicle_type_id":"4","last_reported":1720544871,"current_range_meters":22400,"station_id":"ce4bh312rcd13ifvqdj0","pricing_plan_id":"cebpf4jnsgd1na2vs0mg"},{"bike_id":"e8519929-d685-45d2-ade3-e87cabe1a8e5","system_id":"levelo_inurba_marseille","lat":43.286595,"lon":5.386795,"is_reserved":false,"is_disabled":false,"rental_uris":{"android":"levelo://app?vid=e8519929-d685-45d2-ade3-e87cabe1a8e5","ios":"levelo://app?vid=e8519929-d685-45d2-ade3-e87cabe1a8e5"},"vehicle_type_id":"4","last_reported":1720544871,"current_range_meters":23200,"station_id":"ce4bh492rcd13ifvqdug","pricing_plan_id":"cebpf4jnsgd1na2vs0mg"},{"bike_id":"8de68f04-c936-49f3-ba7b-b7b158bbda4b","system_id":"levelo_inurba_marseille","lat":43.33725,"lon":5.391814,"is_reserved":false,"is_disabled":false,"rental_uris":{"android":"levelo://app?vid=8de68f04-c936-49f3-ba7b-b7b158bbda4b","ios":"levelo://app?vid=8de68f04-c936-49f3-ba7b-b7b158bbda4b"},"vehicle_type_id":"4","last_reported":1720544871,"current_range_meters":0,"station_id":"ce4bhr92rcd13ifvqhsg","pricing_plan_id":"cebpf4jnsgd1na2vs0mg"},{"bike_id":"4b345a73-1e5e-44cb-955c-6ed8b8b806ef","system_id":"levelo_inurba_marseille","lat":43.32345,"lon":5.40621,"is_reserved":false,"is_disabled":false,"rental_uris":{"android":"levelo://app?vid=4b345a73-1e5e-44cb-955c-6ed8b8b806ef","ios":"levelo://app?vid=4b345a73-1e5e-44cb-955c-6ed8b8b806ef"},"vehicle_type_id":"4","last_reported":1720544871,"current_range_meters":13200,"station_id":"ce4bhq92rcd13ifvqhjg","pricing_plan_id":"cebpf4jnsgd1na2vs0mg"},{"bike_id":"b6ca40b0-9869-4a34-8c94-84a3130c34a7","system_id":"levelo_inurba_marseille","lat":43.284793,"lon":5.384113,"is_reserved":false,"is_disabled":false,"rental_uris":{"android":"levelo://app?vid=b6ca40b0-9869-4a34-8c94-84a3130c34a7","ios":"levelo://app?vid=b6ca40b0-9869-4a34-8c94-84a3130c34a7"},"vehicle_type_id":"4","last_reported":1720544871,"current_range_meters":0,"station_id":"ce4bh512rcd13ifvqe3g","pricing_plan_id":"cebpf4jnsgd1na2vs0mg"},{"bike_id":"ef4e9b25-bb19-41ff-8c28-06c4c5a37a81","system_id":"levelo_inurba_marseille","lat":43.33735,"lon":5.39187,"is_reserved":false,"is_disabled":false,"rental_uris":{"android":"levelo://app?vid=ef4e9b25-bb19-41ff-8c28-06c4c5a37a81","ios":"levelo://app?vid=ef4e9b25-bb19-41ff-8c28-06c4c5a37a81"},"vehicle_type_id":"4","last_reported":1720544871,"current_range_meters":0,"station_id":"ce4bhr92rcd13ifvqhsg","pricing_plan_id":"cebpf4jnsgd1na2vs0mg"},{"bike_id":"ac51a78b-7d12-4533-a9cc-f35e4ec09b50","system_id":"levelo_inurba_marseille","lat":43.284787,"lon":5.384116,"is_reserved":false,"is_disabled":false,"rental_uris":{"android":"levelo://app?vid=ac51a78b-7d12-4533-a9cc-f35e4ec09b50","ios":"levelo://app?vid=ac51a78b-7d12-4533-a9cc-f35e4ec09b50"},"vehicle_type_id":"4","last_reported":1720544871,"current_range_meters":4800,"station_id":"ce4bh512rcd13ifvqe3g","pricing_plan_id":"cebpf4jnsgd1na2vs0mg"},{"bike_id":"6f862113-dd7d-4dd2-8bf4-73ec63e2f9dc","system_id":"levelo_inurba_marseille","lat":43.29795,"lon":5.404086,"is_reserved":false,"is_disabled":false,"rental_uris":{"android":"levelo://app?vid=6f862113-dd7d-4dd2-8bf4-73ec63e2f9dc","ios":"levelo://app?vid=6f862113-dd7d-4dd2-8bf4-73ec63e2f9dc"},"vehicle_type_id":"4","last_reported":1720544871,"current_range_meters":400,"station_id":"ce4bh112rcd13ifvqd90","pricing_plan_id":"cebpf4jnsgd1na2vs0mg"},{"bike_id":"48097bc3-ce26-4a62-b5df-fa728dcfb9e7","system_id":"levelo_inurba_marseille","lat":43.297946,"lon":5.404063,"is_reserved":false,"is_disabled":false,"rental_uris":{"android":"levelo://app?vid=48097bc3-ce26-4a62-b5df-fa728dcfb9e7","ios":"levelo://app?vid=48097bc3-ce26-4a62-b5df-fa728dcfb9e7"},"vehicle_type_id":"4","last_reported":1720544871,"current_range_meters":3200,"station_id":"ce4bh112rcd13ifvqd90","pricing_plan_id":"cebpf4jnsgd1na2vs0mg"},{"bike_id":"48b04eea-f349-4c5d-a5ff-ca46d130352a","system_id":"levelo_inurba_marseille","lat":43.28361,"lon":5.380998,"is_reserved":false,"is_disabled":false,"rental_uris":{"android":"levelo://app?vid=48b04eea-f349-4c5d-a5ff-ca46d130352a","ios":"levelo://app?vid=48b04eea-f349-4c5d-a5ff-ca46d130352a"},"vehicle_type_id":"4","last_reported":1720544871,"current_range_meters":18000,"station_id":"ce4bh412rcd13ifvqdr0","pricing_plan_id":"cebpf4jnsgd1na2vs0mg"},