{"last_updated":1715343185,"ttl":30,"version":"2.2","data":{"bikes":[{"bike_id":"f650b31f-4c75-4f77-a57d-8e0f2ae5813b","system_id":"levelo_inurba_marseille","lat":43.31341,"lon":5.367098,"is_reserved":false,"is_disabled":false,"rental_uris":{"android":"levelo://app?vid=f650b31f-4c75-4f77-a57d-8e0f2ae5813b","ios":"levelo://app?vid=f650b31f-4c75-4f77-a57d-8e0f2ae5813b"},"vehicle_type_id":"4","last_reported":1715343185,"current_range_meters":23600,"station_id":"ce4bgr92rcd13ifvqc6g","pricing_plan_id":"cebpf4jnsgd1na2vs0mg"},{"bike_id":"7d8d4ae6-35d9-4c26-9634-708d915a3371","system_id":"levelo_inurba_marseille","lat":43.313391,"lon":5.36706,"is_reserved":false,"is_disabled":false,"rental_uris":{"android":"levelo://app?vid=7d8d4ae6-35d9-4c26-9634-708d915a3371","ios":"levelo://app?vid=7d8d4ae6-35d9-4c26-9634-708d915a3371"},"vehicle_type_id":"4","last_reported":1715343185,"current_range_meters":21200,"station_id":"ce4bgr92rcd13ifvqc6g","pricing_plan_id":"cebpf4jnsgd1na2vs0mg"},{"bike_id":"25f6a9b6-d4db-41ae-a120-6029260a5e46","system_id":"levelo_inurba_marseille","lat":43.31341,"lon":5.367098,"is_reserved":false,"is_disabled":false,"rental_uris":{"android":"levelo://app?vid=25f6a9b6-d4db-41ae-a120-6029260a5e46","ios":"levelo://app?vid=25f6a9b6-d4db-41ae-a120-6029260a5e46"},"vehicle_type_id":"4","last_reported":1715343185,"current_range_meters":24400,"station_id":"ce4bgr92rcd13ifvqc6g","pricing_plan_id":"cebpf4jnsgd1na2vs0mg"},{"bike_id":"ba53ce85-d7a3-440c-b593-0f6e22d1364c","system_id":"levelo_inurba_marseille","lat":43.31341,"lon":5.367098,"is_reserved":false,"is_disabled":false,"rental_uris":{"android":"levelo://app?vid=ba53ce85-d7a3-440c-b593-0f6e22d1364c","ios":"levelo://app?vid=ba53ce85-d7a3-440c-b593-0f6e22d1364c"},"vehicle_type_id":"4","last_reported":1715343185,"current_range_meters":26400,"station_id":"ce4bgr92rcd13ifvqc6g","pricing_plan_id":"cebpf4jnsgd1na2vs0mg"},{"bike_id":"d2634683-fc23-40bb-8ad5-a2dc0a881dbe","system_id":"levelo_inurba_marseille","lat":43.31341,"lon":5.367098,"is_reserved":false,"is_disabled":false,"rental_uris":{"android":"levelo://app?vid=d2634683-fc23-40bb-8ad5-a2dc0a881dbe","ios":"levelo://app?vid=d2634683-fc23-40bb-8ad5-a2dc0a881dbe"},"vehicle_type_id":"4","last_reported":1715343185,"current_range_meters":8000,"station_id":"ce4bgr92rcd13ifvqc6g","pricing_plan_id":"cebpf4jnsgd1na2vs0mg"},{"bike_id":"78a20fbd-7e86-46c8-b6ba-63cce54473f6","system_id":"levelo_inurba_marseille","lat":43.31341,"lon":5.367098,"is_reserved":false,"is_disabled":false,"rental_uris":{"android":"levelo://app?vid=78a20fbd-7e86-46c8-b6ba-63cce54473f6","ios":"levelo://app?vid=78a20fbd-7e86-46c8-b6ba-63cce54473f6"},"vehicle_type_id":"4","last_reported":1715343185,"current_range_meters":4400,"station_id":"ce4bgr92rcd13ifvqc6g","pricing_plan_id":"cebpf4jnsgd1na2vs0mg"},{"bike_id":"e3ef52a1-9fee-43fc-80b2-3c37e46f535e","system_id":"levelo_inurba_marseille","lat":43.31341,"lon":5.367098,"is_reserved":false,"is_disabled":false,"rental_uris":{"android":"levelo://app?vid=e3ef52a1-9fee-43fc-80b2-3c37e46f535e","ios":"levelo://app?vid=e3ef52a1-9fee-43fc-80b2-3c37e46f535e"},"vehicle_type_id":"4","last_reported":1715343185,"current_range_meters":16000,"station_id":"ce4bgr92rcd13ifvqc6g","pricing_plan_id":"cebpf4jnsgd1na2vs0mg"},{"bike_id":"08833084-ebd9-4242-babf-d0fe328950d4","system_id":"levelo_inurba_marseille","lat":43.31341,"lon":5.367098,"is_reserved":false,"is_disabled":false,"rental_uris":{"android":"levelo://app?vid=08833084-ebd9-4242-babf-d0fe328950d4","ios":"levelo://app?vid=08833084-ebd9-4242-babf-d0fe328950d4"},"vehicle_type_id":"4","last_reported":1715343185,"current_range_meters":11200,"station_id":"ce4bgr92rcd13ifvqc6g","pricing_plan_id":"cebpf4jnsgd1na2vs0mg"},{"bike_id":"c34df0f1-e4dc-4627-9bcb-bb59089d5ff1","system_id":"levelo_inurba_marseille","lat":43.31341,"lon":5.367098,"is_reserved":false,"is_disabled":false,"rental_uris":{"android":"levelo://app?vid=c34df0f1-e4dc-4627-9bcb-bb59089d5ff1","ios":"levelo://app?vid=c34df0f1-e4dc-4627-9bcb-bb59089d5ff1"},"vehicle_type_id":"4","last_reported":1715343185,"current_range_meters":18000,"station_id":"ce4bgr92rcd13ifvqc6g","pricing_plan_id":"cebpf4jnsgd1na2vs0mg"},{"bike_id":"b6d5adf7-e3cf-42dc-bd46-9e38f2887abe","system_id":"levelo_inurba_marseille","lat":43.31246,"lon":5.36861,"is_reserved":false,"is_disabled":false,"rental_uris":{"android":"levelo://app?vid=b6d5adf7-e3cf-42dc-bd46-9e38f2887abe","ios":"levelo://app?vid=b6d5adf7-e3cf-42dc-bd46-9e38f2887abe"},"vehicle_type_id":"4","last_reported":1715343185,"current_range_meters":11200,"station_id":"ce4bgl92rcd13ifvqbq0","pricing_plan_id":"cebpf4jnsgd1na2vs0mg"},{"bike_id":"5c0dc91a-9758-4818-a5d4-94f1518fcaa1","system_id":"levelo_inurba_marseille","lat":43.312239,"lon":5.368562,"is_reserved":false,"is_disabled":false,"rental_uris":{"android":"levelo://app?vid=5c0dc91a-9758-4818-a5d4-94f1518fcaa1","ios":"levelo://app?vid=5c0dc91a-9758-4818-a5d4-94f1518fcaa1"},"vehicle_type_id":"4","last_reported":1715343185,"current_range_meters":8800,"station_id":"ce4bgl92rcd13ifvqbq0","pricing_plan_id":"cebpf4jnsgd1na2vs0mg"},{"bike_id":"061b97ad-3f07-473e-b7b3-ccbb33c17305","system_id":"levelo_inurba_marseille","lat":43.312239,"lon":5.368562,"is_reserved":false,"is_disabled":false,"rental_uris":{"android":"levelo://app?vid=061b97ad-3f07-473e-b7b3-ccbb33c17305","ios":"levelo://app?vid=061b97ad-3f07-473e-b7b3-ccbb33c17305"},"vehicle_type_id":"4","last_reported":1715343185,"current_range_meters":11200,"station_id":"ce4bgl92rcd13ifvqbq0","pricing_plan_id":"cebpf4jnsgd1na2vs0mg"},{"bike_id":"d2821e35-4a86-4a78-90fb-e35dd7223a86","system_id":"levelo_inurba_marseille","lat":43.312239,"lon":5.368562,"is_reserved":false,"is_disabled":false,"rental_uris":{"android":"levelo://app?vid=d2821e35-4a86-4a78-90fb-e35dd7223a86","ios":"levelo://app?vid=d2821e35-4a86-4a78-90fb-e35dd7223a86"},"vehicle_type_id":"4","last_reported":1715343185,"current_range_meters":3600,"station_id":"ce4bgl92rcd13ifvqbq0","pricing_plan_id":"cebpf4jnsgd1na2vs0mg"},{"bike_id":"e255dee6-0472-4a92-9856-f73ef461f5b4","system_id":"levelo_inurba_marseille","lat":43.309076,"lon":5.368465,"is_reserved":false,"is_disabled":false,"rental_uris":{"android":"levelo://app?vid=e255dee6-0472-4a92-9856-f73ef461f5b4","ios":"levelo://app?vid=e255dee6-0472-4a92-9856-f73ef461f5b4"},"vehicle_type_id":"4","last_reported":1715343185,"current_range_meters":6400,"station_id":"ce4bgn92rcd13ifvqbvg","pricing_plan_id":"cebpf4jnsgd1na2vs0mg"},{"bike_id":"19488914-c6b5-4808-a86d-2511cb80f7fb","system_id":"levelo_inurba_marseille","lat":43.309076,"lon":5.368465,"is_reserved":false,"is_disabled":false,"rental_uris":{"android":"levelo://app?vid=19488914-c6b5-4808-a86d-2511cb80f7fb","ios":"levelo://app?vid=19488914-c6b5-4808-a86d-2511cb80f7fb"},"vehicle_type_id":"4","last_reported":1715343185,"current_range_meters":18800,"station_id":"ce4bgn92rcd13ifvqbvg","pricing_plan_id":"cebpf4jnsgd1na2vs0mg"},{"bike_id":"2f7f90d2-3481-4c40-8314-cb097fc48dce","system_id":"levelo_inurba_marseille","lat":43.309076,"lon":5.368465,"is_reserved":false,"is_disabled":false,"rental_uris":{"android":"levelo://app?vid=2f7f90d2-3481-4c40-8314-cb097fc48dce","ios":"levelo://app?vid=2f7f90d2-3481-4c40-8314-cb097fc48dce"},"vehicle_type_id":"4","last_reported":1715343185,"current_range_meters":31600,"station_id":"ce4bgn92rcd13ifvqbvg","pricing_plan_id":"cebpf4jnsgd1na2vs0mg"},{"bike_id":"e53240f1-be92-44bc-bb82-1837368a6b4b","system_id":"levelo_inurba_marseille","lat":43.309076,"lon":5.368465,"is_reserved":false,"is_disabled":false,"rental_uris":{"android":"levelo://app?vid=e53240f1-be92-44bc-bb82-1837368a6b4b","ios":"levelo://app?vid=e53240f1-be92-44bc-bb82-1837368a6b4b"},"vehicle_type_id":"4","last_reported":1715343185,"current_range_meters":26400,"station_id":"ce4bgn92rcd13ifvqbvg","pricing_plan_id":"cebpf4jnsgd1na2vs0mg"},{"bike_id":"afc4e590-7a44-4ed2-940c-6673831ba0f7","system_id":"levelo_inurba_marseille","lat":43.314811,"lon":5.373103,"is_reserved":false,"is_disabled":false,"rental_uris":{"android":"levelo://app?vid=afc4e590-7a44-4ed2-940c-6673831ba0f7","ios":"levelo://app?vid=afc4e590-7a44-4ed2-940c-6673831ba0f7"},"vehicle_type_id":"4","last_reported":1715343185,"current_range_meters":0,"station_id":"ce4bgt12rcd13ifvqcd0","pricing_plan_id":"cebpf4jnsgd1na2vs0mg"},{"bike_id":"a355db8b-0501-4de0-af9c-878ac6daea2e","system_id":"levelo_inurba_marseille","lat":43.309034,"lon":5.371783,"is_reserved":false,"is_disabled":false,"rental_uris":{"android":"levelo://app?vid=a355db8b-0501-4de0-af9c-878ac6daea2e","ios":"levelo://app?vid=a355db8b-0501-4de0-af9c-878ac6daea2e"},"vehicle_type_id":"4","last_reported":1715343185,"current_range_meters":24000,"station_id":"ce4bguh2rcd13ifvqckg","pricing_plan_id":"cebpf4jnsgd1na2vs0mg"},{"bike_id":"8b6599f7-03db-4451-ac8d-4d3785478e4f","system_id":"levelo_inurba_marseille","lat":43.3089,"lon":5.37191,"is_reserved":false,"is_disabled":false,"rental_uris":{"android":"levelo://app?vid=8b6599f7-03db-4451-ac8d-4d3785478e4f","ios":"levelo://app?vid=8b6599f7-03db-4451-ac8d-4d3785478e4f"},"vehicle_type_id":"4","last_reported":1715343185,"current_range_meters":24400,"station_id":"","pricing_plan_id":"cebpf4jnsgd1na2vs0mg"},{"bike_id":"1686b7b9-5819-451f-b394-7b4a99aabb8b","system_id":"levelo_inurba_marseille","lat":43.314811,"lon":5.373104,"is_reserved":false,"is_disabled":false,"rental_uris":{"android":"levelo://app?vid=1686b7b9-5819-451f-b394-7b4a99aabb8b","ios":"levelo://app?vid=1686b7b9-5819-451f-b394-7b4a99aabb8b"},"vehicle_type_id":"4","last_reported":1715343185,"current_range_meters":9200,"station_id":"ce4bgt12rcd13ifvqcd0","pricing_plan_id":"cebpf4jnsgd1na2vs0mg"},{"bike_id":"2d258795-af12-4463-b946-977eef674e9c","system_id":"levelo_inurba_marseille","lat":43.309034,"lon":5.371783,"is_reserved":false,"is_disabled":false,"rental_uris":{"android":"levelo://app?vid=2d258795-af12-4463-b946-977eef674e9c","ios":"levelo://app?vid=2d258795-af12-4463-b946-977eef674e9c"},"vehicle_type_id":"4","last_reported":1715343185,"current_range_meters":16400,"station_id":"ce4bguh2rcd13ifvqckg","pricing_plan_id":"cebpf4jnsgd1na2vs0mg"},{"bike_id":"88503318-c6d5-4e13-9cf4-9bb537903c27","system_id":"levelo_inurba_marseille","lat":43.309034,"lon":5.371783,"is_reserved":false,"is_disabled":false,"rental_uris":{"android":"levelo://app?vid=88503318-c6d5-4e13-9cf4-9bb537903c27","ios":"levelo://app?vid=88503318-c6d5-4e13-9cf4-9bb537903c27"},"vehicle_type_id":"4","last_reported":1715343185,"current_range_meters":26400,"station_id":"ce4bguh2rcd13ifvqckg","pricing_plan_id":"cebpf4jnsgd1na2vs0mg"},{"bike_id":"613563bd-c8ce-43b3-a855-b92c6f99add6","system_id":"levelo_inurba_marseille","lat":43.314811,"lon":5.373104,"is_reserved":false,"is_disabled":false,"rental_uris":{"android":"levelo://app?vid=613563bd-c8ce-43b3-a855-b92c6f99add6","ios":"levelo://app?vid=613563bd-c8ce-43b3-a855-b92c6f99add6"},"vehicle_type_id":"4","last_reported":1715343185,"current_range_meters":10800,"station_id":"ce4bgt12rcd13ifvqcd0","pricing_plan_id":"cebpf4jnsgd1na2vs0mg"},{"bike_id":"a7e41f6f-a23c-40d7-adcb-5f2136477824","system_id":"levelo_inurba_marseille","lat":43.309039,"lon":5.371797,"is_reserved":false,"is_disabled":false,"rental_uris":{"android":"levelo://app?vid=a7e41f6f-a23c-40d7-adcb-5f2136477824","ios":"levelo://app?vid=a7e41f6f-a23c-40d7-adcb-5f2136477824"},"vehicle_type_id":"4","last_reported":1715343185,"current_range_meters":10400,"station_id":"ce4bguh2rcd13ifvqckg","pricing_plan_id":"cebpf4jnsgd1na2vs0mg"},{"bike_id":"564d83b1-5a2c-44fb-adcb-f5af7aa4b682","system_id":"levelo_inurba_marseille","lat":43.305714,"lon":5.365633,"is_reserved":false,"is_disabled":false,"rental_uris":{"android":"levelo://app?vid=564d83b1-5a2c-44fb-adcb-f5af7aa4b682","ios":"levelo://app?vid=564d83b1-5a2c-44fb-adcb-f5af7aa4b682"},"vehicle_type_id":"4","last_reported":1715343185,"current_range_meters":0,"station_id":"ce4bgs12rcd13ifvqcag","pricing_plan_id":"cebpf4jnsgd1na2vs0mg"},{"bike_id":"3f6384ee-000e-474b-b04c-d78482d69218","system_id":"levelo_inurba_marseille","lat":43.305714,"lon":5.365633,"is_reserved":false,"is_disabled":false,"rental_uris":{"android":"levelo://app?vid=3f6384ee-000e-474b-b04c-d78482d69218","ios":"levelo://app?vid=3f6384ee-000e-474b-b04c-d78482d69218"},"vehicle_type_id":"4","last_reported":1715343185,"current_range_meters":0,"station_id":"ce4bgs12rcd13ifvqcag","pricing_plan_id":"cebpf4jnsgd1na2vs0mg"},{"bike_id":"b7ca8049-5161-4ed4-ad27-4d9d2c8bdc67","system_id":"levelo_inurba_marseille","lat":43.305714,"lon":5.365633,"is_reserved":false,"is_disabled":false,"rental_uris":{"android":"levelo://app?vid=b7ca8049-5161-4ed4-ad27-4d9d2c8bdc67","ios":"levelo://app?vid=b7ca8049-5161-4ed4-ad27-4d9d2c8bdc67"},"vehicle_type_id":"4","last_reported":1715343185,"current_range_meters":4800,"station_id":"ce4bgs12rcd13ifvqcag","pricing_plan_id":"cebpf4jnsgd1na2vs0mg"},{"bike_id":"77cb7024-6ccd-4ee6-b604-13bcb657e102","system_id":"levelo_inurba_marseille","lat":43.305714,"lon":5.365633,"is_reserved":false,"is_disabled":false,"rental_uris":{"android":"levelo://app?vid=77cb7024-6ccd-4ee6-b604-13bcb657e102","ios":"levelo://app?vid=77cb7024-6ccd-4ee6-b604-13bcb657e102"},"vehicle_type_id":"4","last_reported":1715343185,"current_range_meters":6800,"station_id":"ce4bgs12rcd13ifvqcag","pricing_plan_id":"cebpf4jnsgd1na2vs0mg"},{"bike_id":"f4da004a-3d91-4e1a-80bf-d9eb7d2fb652","system_id":"levelo_inurba_marseille","lat":43.305706,"lon":5.365654,"is_reserved":false,"is_disabled":false,"rental_uris":{"android":"levelo://app?vid=f4da004a-3d91-4e1a-80bf-d9eb7d2fb652","ios":"levelo://app?vid=f4da004a-3d91-4e1a-80bf-d9eb7d2fb652"},"vehicle_type_id":"4","last_reported":1715343185,"current_range_meters":0,"station_id":"ce4bgs12rcd13ifvqcag","pricing_plan_id":"cebpf4jnsgd1na2vs0mg"},{"bike_id":"1881f7c3-e47a-4bb2-890b-6eb5ab4cf5eb","system_id":"levelo_inurba_marseille","lat":43.305706,"lon":5.365654,"is_reserved":false,"is_disabled":false,"rental_uris":{"android":"levelo://app?vid=1881f7c3-e47a-4bb2-890b-6eb5ab4cf5eb","ios":"levelo://app?vid=1881f7c3-e47a-4bb2-890b-6eb5ab4cf5eb"},"vehicle_type_id":"4","last_reported":1715343185,"current_range_meters":0,"station_id":"ce4bgs12rcd13ifvqcag","pricing_plan_id":"cebpf4jnsgd1na2vs0mg"},{"bike_id":"414c4aaa-aea4-4009-873b-d7cd91bcada5","system_id":"levelo_inurba_marseille","lat":43.305706,"lon":5.365654,"is_reserved":false,"is_disabled":false,"rental_uris":{"android":"levelo://app?vid=414c4aaa-aea4-4009-873b-d7cd91bcada5","ios":"levelo://app?vid=414c4aaa-aea4-4009-873b-d7cd91bcada5"},"vehicle_type_id":"4","last_reported":1715343185,"current_range_meters":400,"station_id":"ce4bgs12rcd13ifvqcag","pricing_plan_id":"cebpf4jnsgd1na2vs0mg"},{"bike_id":"a2115585-334b-4ac7-b999-3c330727f415","system_id":"levelo_inurba_marseille","lat":43.306112,"lon":5.372241,"is_reserved":false,"is_disabled":false,"rental_uris":{"android":"levelo://app?vid=a2115585-334b-4ac7-b999-3c330727f415","ios":"levelo://app?vid=a2115585-334b-4ac7-b999-3c330727f415"},"vehicle_type_id":"4","last_reported":1715343185,"current_range_meters":10400,"station_id":"ce4bgqh2rcd13ifvqc4g","pricing_plan_id":"cebpf4jnsgd1na2vs0mg"},{"bike_id":"fcd98269-254b-4212-ba40-85638ae1027c","system_id":"levelo_inurba_marseille","lat":43.305989,"lon":5.37225,"is_reserved":false,"is_disabled":false,"rental_uris":{"android":"levelo://app?vid=fcd98269-254b-4212-ba40-85638ae1027c","ios":"levelo://app?vid=fcd98269-254b-4212-ba40-85638ae1027c"},"vehicle_type_id":"4","last_reported":1715343185,"current_range_meters":31600,"station_id":"ce4bgqh2rcd13ifvqc4g","pricing_plan_id":"cebpf4jnsgd1na2vs0mg"},{"bike_id":"9abb2a58-cbc7-4eb2-b82f-5c13fe71c45c","system_id":"levelo_inurba_marseille","lat":43.306,"lon":5.37224,"is_reserved":false,"is_disabled":false,"rental_uris":{"android":"levelo://app?vid=9abb2a58-cbc7-4eb2-b82f-5c13fe71c45c","ios":"levelo://app?vid=9abb2a58-cbc7-4eb2-b82f-5c13fe71c45c"},"vehicle_type_id":"4","last_reported":1715343185,"current_range_meters":0,"station_id":"ce4bgqh2rcd13ifvqc4g","pricing_plan_id":"cebpf4jnsgd1na2vs0mg"},{"bike_id":"d01964fc-ab61-4c1e-96fb-d4ebc2a0c4e3","system_id":"levelo_inurba_marseille","lat":43.30597,"lon":5.37217,"is_reserved":false,"is_disabled":false,"rental_uris":{"android":"levelo://app?vid=d01964fc-ab61-4c1e-96fb-d4ebc2a0c4e3","ios":"levelo://app?vid=d01964fc-ab61-4c1e-96fb-d4ebc2a0c4e3"},"vehicle_type_id":"4","last_reported":1715343185,"current_range_meters":8800,"station_id":"ce4bgqh2rcd13ifvqc4g","pricing_plan_id":"cebpf4jnsgd1na2vs0mg"},{"bike_id":"412fefdf-a4ff-46fb-b7d5-089e96199c4f","system_id":"levelo_inurba_marseille","lat":43.305989,"lon":5.37225,"is_reserved":false,"is_disabled":false,"rental_uris":{"android":"levelo://app?vid=412fefdf-a4ff-46fb-b7d5-089e96199c4f","ios":"levelo://app?vid=412fefdf-a4ff-46fb-b7d5-089e96199c4f"},"vehicle_type_id":"4","last_reported":1715343185,"current_range_meters":28800,"station_id":"ce4bgqh2rcd13ifvqc4g","pricing_plan_id":"cebpf4jnsgd1na2vs0mg"},{"bike_id":"c504d1c9-5232-4720-9db7-f6443a482a78","system_id":"levelo_inurba_marseille","lat":43.305989,"lon":5.37225,"is_reserved":false,"is_disabled":false,"rental_uris":{"android":"levelo://app?vid=c504d1c9-5232-4720-9db7-f6443a482a78","ios":"levelo://app?vid=c504d1c9-5232-4720-9db7-f6443a482a78"},"vehicle_type_id":"4","last_reported":1715343185,"current_range_meters":31600,"station_id":"ce4bgqh2rcd13ifvqc4g","pricing_plan_id":"cebpf4jnsgd1na2vs0mg"},{"bike_id":"82e6560b-c917-4e10-a84a-8ec83f37a54c","system_id":"levelo_inurba_marseille","lat":43.311131,"lon":5.377651,"is_reserved":false,"is_disabled":false,"rental_uris":{"android":"levelo://app?vid=82e6560b-c917-4e10-a84a-8ec83f37a54c","ios":"levelo://app?vid=82e6560b-c917-4e10-a84a-8ec83f37a54c"},"vehicle_type_id":"4","last_reported":1715343185,"current_range_meters":16400,"station_id":"ce4bgt92rcd13ifvqcg0","pricing_plan_id":"cebpf4jnsgd1na2vs0mg"},{"bike_id":"99e4018b-7a52-45a9-bd93-8a3be19a570b","system_id":"levelo_inurba_marseille","lat":43.311131,"lon":5.377651,"is_reserved":false,"is_disabled":false,"rental_uris":{"android":"levelo://app?vid=99e4018b-7a52-45a9-bd93-8a3be19a570b","ios":"levelo://app?vid=99e4018b-7a52-45a9-bd93-8a3be19a570b"},"vehicle_type_id":"4","last_reported":1715343185,"current_range_meters":800,"station_id":"ce4bgt92rcd13ifvqcg0","pricing_plan_id":"cebpf4jnsgd1na2vs0mg"},{"bike_id":"8be7ad7b-9e73-4170-9811-7f09ca9edd67","system_id":"levelo_inurba_marseille","lat":43.305449,"lon":5.37264,"is_reserved":false,"is_disabled":false,"rental_uris":{"android":"levelo://app?vid=8be7ad7b-9e73-4170-9811-7f09ca9edd67","ios":"levelo://app?vid=8be7ad7b-9e73-4170-9811-7f09ca9edd67"},"vehicle_type_id":"4","last_reported":1715343185,"current_range_meters":0,"station_id":"","pricing_plan_id":"cebpf4jnsgd1na2vs0mg"},{"bike_id":"c6e4b13a-2dff-4355-bb9f-dc07202e0752","system_id":"levelo_inurba_marseille","lat":43.307945,"lon":5.376487,"is_reserved":false,"is_disabled":false,"rental_uris":{"android":"levelo://app?vid=c6e4b13a-2dff-4355-bb9f-dc07202e0752","ios":"levelo://app?vid=c6e4b13a-2dff-4355-bb9f-dc07202e0752"},"vehicle_type_id":"4","last_reported":1715343185,"current_range_meters":15200,"station_id":"ce4bgv92rcd13ifvqcq0","pricing_plan_id":"cebpf4jnsgd1na2vs0mg"},{"bike_id":"6f45efd0-cded-4a17-a9ec-428ae7460d7b","system_id":"levelo_inurba_marseille","lat":43.307945,"lon":5.376487,"is_reserved":false,"is_disabled":false,"rental_uris":{"android":"levelo://app?vid=6f45efd0-cded-4a17-a9ec-428ae7460d7b","ios":"levelo://app?vid=6f45efd0-cded-4a17-a9ec-428ae7460d7b"},"vehicle_type_id":"4","last_reported":1715343185,"current_range_meters":7600,"station_id":"ce4bgv92rcd13ifvqcq0","pricing_plan_id":"cebpf4jnsgd1na2vs0mg"},{"bike_id":"a8420d12-5ea1-4553-ba77-74153419b9a1","system_id":"levelo_inurba_marseille","lat":43.307945,"lon":5.376487,"is_reserved":false,"is_disabled":false,"rental_uris":{"android":"levelo://app?vid=a8420d12-5ea1-4553-ba77-74153419b9a1","ios":"levelo://app?vid=a8420d12-5ea1-4553-ba77-74153419b9a1"},"vehicle_type_id":"4","last_reported":1715343185,"current_range_meters":31600,"station_id":"ce4bgv92rcd13ifvqcq0","pricing_plan_id":"cebpf4jnsgd1na2vs0mg"},{"bike_id":"a6b1ed71-0643-49b5-919c-35a4029a3655","system_id":"levelo_inurba_marseille","lat":43.307945,"lon":5.376487,"is_reserved":false,"is_disabled":false,"rental_uris":{"android":"levelo://app?vid=a6b1ed71-0643-49b5-919c-35a4029a3655","ios":"levelo://app?vid=a6b1ed71-0643-49b5-919c-35a4029a3655"},"vehicle_type_id":"4","last_reported":1715343185,"current_range_meters":31600,"station_id":"ce4bgv92rcd13ifvqcq0","pricing_plan_id":"cebpf4jnsgd1na2vs0mg"},{"bike_id":"be39a73b-7e3f-43dc-925b-8c90de764054","system_id":"levelo_inurba_marseille","lat":43.307945,"lon":5.376487,"is_reserved":false,"is_disabled":false,"rental_uris":{"android":"levelo://app?vid=be39a73b-7e3f-43dc-925b-8c90de764054","ios":"levelo://app?vid=be39a73b-7e3f-43dc-925b-8c90de764054"},"vehicle_type_id":"4","last_reported":1715343185,"current_range_meters":28800,"station_id":"ce4bgv92rcd13ifvqcq0","pricing_plan_id":"cebpf4jnsgd1na2vs0mg"},{"bike_id":"389e16a6-9402-4896-aa2c-8e05897fcd10","system_id":"levelo_inurba_marseille","lat":43.317075,"lon":5.377367,"is_reserved":false,"is_disabled":false,"rental_uris":{"android":"levelo://app?vid=389e16a6-9402-4896-aa2c-8e05897fcd10","ios":"levelo://app?vid=389e16a6-9402-4896-aa2c-8e05897fcd10"},"vehicle_type_id":"4","last_reported":1715343185,"current_range_meters":31200,"station_id":"ce4bgth2rcd13ifvqch0","pricing_plan_id":"cebpf4jnsgd1na2vs0mg"},{"bike_id":"8ea8bf01-7726-44de-a6a0-df6004409e37","system_id":"levelo_inurba_marseille","lat":43.317075,"lon":5.377367,"is_reserved":false,"is_disabled":false,"rental_uris":{"android":"levelo://app?vid=8ea8bf01-7726-44de-a6a0-df6004409e37","ios":"levelo://app?vid=8ea8bf01-7726-44de-a6a0-df6004409e37"},"vehicle_type_id":"4","last_reported":1715343185,"current_range_meters":13600,"station_id":"ce4bgth2rcd13ifvqch0","pricing_plan_id":"cebpf4jnsgd1na2vs0mg"},{"bike_id":"6504061c-f87e-481b-bda7-1a79d913b74e","system_id":"levelo_inurba_marseille","lat":43.317075,"lon":5.377367,"is_reserved":false,"is_disabled":false,"rental_uris":{"android":"levelo://app?vid=6504061c-f87e-481b-bda7-1a79d913b74e","ios":"levelo://app?vid=6504061c-f87e-481b-bda7-1a79d913b74e"},"vehicle_type_id":"4","last_reported":1715343185,"current_range_meters":16800,"station_id":"ce4bgth2rcd13ifvqch0","pricing_plan_id":"cebpf4jnsgd1na2vs0mg"},{"bike_id":"8060688a-34f2-4b45-b0c4-fb23044b5d4e","system_id":"levelo_inurba_marseille","lat":43.317075,"lon":5.377367,"is_reserved":false,"is_disabled":false,"rental_uris":{"android":"levelo://app?vid=8060688a-34f2-4b45-b0c4-fb23044b5d4e","ios":"levelo://app?vid=8060688a-34f2-4b45-b0c4-fb23044b5d4e"},"vehicle_type_id":"4","last_reported":1715343185,"current_range_meters":21200,"station_id":"ce4bgth2rcd13ifvqch0","pricing_plan_id":"cebpf4jnsgd1na2vs0mg"},{"bike_id":"0a8a0d58-ade7-4a66-8168-c0d037e5e4b5","system_id":"levelo_inurba_marseille","lat":43.317075,"lon":5.377367,"is_reserved":false,"is_disabled":false,"rental_uris":{"android":"levelo://app?vid=0a8a0d58-ade7-4a66-8168-c0d037e5e4b5","ios":"levelo://app?vid=0a8a0d58-ade7-4a66-8168-c0d037e5e4b5"},"vehicle_type_id":"4","last_reported":1715343185,"current_range_meters":18400,"station_id":"ce4bgth2rcd13ifvqch0","pricing_plan_id":"cebpf4jnsgd1na2vs0mg"},{"bike_id":"3ef18bba-aea9-4094-a8f1-35ece24e6bd6","system_id":"levelo_inurba_marseille","lat":43.303046,"lon":5.368981,"is_reserved":false,"is_disabled":false,"rental_uris":{"android":"levelo://app?vid=3ef18bba-aea9-4094-a8f1-35ece24e6bd6","ios":"levelo://app?vid=3ef18bba-aea9-4094-a8f1-35ece24e6bd6"},"vehicle_type_id":"4","last_reported":1715343185,"current_range_meters":1600,"station_id":"ce4bgqh2rcd13ifvqc5g","pricing_plan_id":"cebpf4jnsgd1na2vs0mg"},{"bike_id":"575a7d8a-43d6-40cd-a156-4ccfc42883bd","system_id":"levelo_inurba_marseille","lat":43.303046,"lon":5.368981,"is_reserved":false,"is_disabled":false,"rental_uris":{"android":"levelo://app?vid=575a7d8a-43d6-40cd-a156-4ccfc42883bd","ios":"levelo://app?vid=575a7d8a-43d6-40cd-a156-4ccfc42883bd"},"vehicle_type_id":"4","last_reported":1715343185,"current_range_meters":19600,"station_id":"ce4bgqh2rcd13ifvqc5g","pricing_plan_id":"cebpf4jnsgd1na2vs0mg"},{"bike_id":"a92c08bf-0c0f-45e0-ae77-dd5ff25cb179","system_id":"levelo_inurba_marseille","lat":43.301939,"lon":5.366286,"is_reserved":false,"is_disabled":false,"rental_uris":{"android":"levelo://app?vid=a92c08bf-0c0f-45e0-ae77-dd5ff25cb179","ios":"levelo://app?vid=a92c08bf-0c0f-45e0-ae77-dd5ff25cb179"},"vehicle_type_id":"4","last_reported":1715343185,"current_range_meters":20000,"station_id":"ce4bgrh2rcd13ifvqc8g","pricing_plan_id":"cebpf4jnsgd1na2vs0mg"},{"bike_id":"2a0153ea-41ce-4571-bca4-37ee6a9b3f0e","system_id":"levelo_inurba_marseille","lat":43.301939,"lon":5.366286,"is_reserved":false,"is_disabled":false,"rental_uris":{"android":"levelo://app?vid=2a0153ea-41ce-4571-bca4-37ee6a9b3f0e","ios":"levelo://app?vid=2a0153ea-41ce-4571-bca4-37ee6a9b3f0e"},"vehicle_type_id":"4","last_reported":1715343185,"current_range_meters":26800,"station_id":"ce4bgrh2rcd13ifvqc8g","pricing_plan_id":"cebpf4jnsgd1na2vs0mg"},{"bike_id":"e1d302c9-4a49-4b22-82f7-41ec61707196","system_id":"levelo_inurba_marseille","lat":43.308481,"lon":5.380911,"is_reserved":false,"is_disabled":false,"rental_uris":{"android":"levelo://app?vid=e1d302c9-4a49-4b22-82f7-41ec61707196","ios":"levelo://app?vid=e1d302c9-4a49-4b22-82f7-41ec61707196"},"vehicle_type_id":"4","last_reported":1715343185,"current_range_meters":0,"station_id":"ce4bgt12rcd13ifvqce0","pricing_plan_id":"cebpf4jnsgd1na2vs0mg"},{"bike_id":"0082fa79-4bb1-4531-aa5e-020b623e88bf","system_id":"levelo_inurba_marseille","lat":43.308012,"lon":5.381511,"is_reserved":false,"is_disabled":false,"rental_uris":{"android":"levelo://app?vid=0082fa79-4bb1-4531-aa5e-020b623e88bf","ios":"levelo://app?vid=0082fa79-4bb1-4531-aa5e-020b623e88bf"},"vehicle_type_id":"4","last_reported":1715343185,"current_range_meters":26800,"station_id":"ce4bgt12rcd13ifvqce0","pricing_plan_id":"cebpf4jnsgd1na2vs0mg"},{"bike_id":"7752e0b5-fbfb-4525-893b-c0739f830435","system_id":"levelo_inurba_marseille","lat":43.308012,"lon":5.381511,"is_reserved":false,"is_disabled":false,"rental_uris":{"android":"levelo://app?vid=7752e0b5-fbfb-4525-893b-c0739f830435","ios":"levelo://app?vid=7752e0b5-fbfb-4525-893b-c0739f830435"},"vehicle_type_id":"4","last_reported":1715343185,"current_range_meters":30400,"station_id":"ce4bgt12rcd13ifvqce0","pricing_plan_id":"cebpf4jnsgd1na2vs0mg"},{"bike_id":"c3746c73-6aa3-45e4-a351-efbd7965cd98","system_id":"levelo_inurba_marseille","lat":43.308012,"lon":5.381511,"is_reserved":false,"is_disabled":false,"rental_uris":{"android":"levelo://app?vid=c3746c73-6aa3-45e4-a351-efbd7965cd98","ios":"levelo://app?vid=c3746c73-6aa3-45e4-a351-efbd7965cd98"},"vehicle_type_id":"4","last_reported":1715343185,"current_range_meters":4400,"station_id":"ce4bgt12rcd13ifvqce0","pricing_plan_id":"cebpf4jnsgd1na2vs0mg"},{"bike_id":"d982f591-690a-4d45-b7cc-01b52a28fa43","system_id":"levelo_inurba_marseille","lat":43.308012,"lon":5.381511,"is_reserved":false,"is_disabled":false,"rental_uris":{"android":"levelo://app?vid=d982f591-690a-4d45-b7cc-01b52a28fa43","ios":"levelo://app?vid=d982f591-690a-4d45-b7cc-01b52a28fa43"},"vehicle_type_id":"4","last_reported":1715343185,"current_range_meters":27600,"station_id":"ce4bgt12rcd13ifvqce0","pricing_plan_id":"cebpf4jnsgd1na2vs0mg"},{"bike_id":"f52b301c-d6fe-4def-8e58-d4c5a36d081d","system_id":"levelo_inurba_marseille","lat":43.304606,"lon":5.379026,"is_reserved":false,"is_disabled":false,"rental_uris":{"android":"levelo://app?vid=f52b301c-d6fe-4def-8e58-d4c5a36d081d","ios":"levelo://app?vid=f52b301c-d6fe-4def-8e58-d4c5a36d081d"},"vehicle_type_id":"4","last_reported":1715343185,"current_range_meters":31200,"station_id":"ce4bgup2rcd13ifvqcn0","pricing_plan_id":"cebpf4jnsgd1na2vs0mg"},{"bike_id":"15548a4d-a4a5-4ab1-a198-1033e49d52c3","system_id":"levelo_inurba_marseille","lat":43.304606,"lon":5.379026,"is_reserved":false,"is_disabled":false,"rental_uris":{"android":"levelo://app?vid=15548a4d-a4a5-4ab1-a198-1033e49d52c3","ios":"levelo://app?vid=15548a4d-a4a5-4ab1-a198-1033e49d52c3"},"vehicle_type_id":"4","last_reported":1715343185,"current_range_meters":10400,"station_id":"ce4bgup2rcd13ifvqcn0","pricing_plan_id":"cebpf4jnsgd1na2vs0mg"},{"bike_id":"2ba1b97b-2448-4f29-9c7f-950e765f8630","system_id":"levelo_inurba_marseille","lat":43.304606,"lon":5.379026,"is_reserved":false,"is_disabled":false,"rental_uris":{"android":"levelo://app?vid=2ba1b97b-2448-4f29-9c7f-950e765f8630","ios":"levelo://app?vid=2ba1b97b-2448-4f29-9c7f-950e765f8630"},"vehicle_type_id":"4","last_reported":1715343185,"current_range_meters":0,"station_id":"ce4bgup2rcd13ifvqcn0","pricing_plan_id":"cebpf4jnsgd1na2vs0mg"},{"bike_id":"ea0b99d8-8d4e-4e26-a38a-9de74956d192","system_id":"levelo_inurba_marseille","lat":43.304606,"lon":5.379026,"is_reserved":false,"is_disabled":false,"rental_uris":{"android":"levelo://app?vid=ea0b99d8-8d4e-4e26-a38a-9de74956d192","ios":"levelo://app?vid=ea0b99d8-8d4e-4e26-a38a-9de74956d192"},"vehicle_type_id":"4","last_reported":1715343185,"current_range_meters":6800,"station_id":"ce4bgup2rcd13ifvqcn0","pricing_plan_id":"cebpf4jnsgd1na2vs0mg"},{"bike_id":"82b063cc-deed-4514-a9c8-c7a62f9a6066","system_id":"levelo_inurba_marseille","lat":43.304606,"lon":5.379026,"is_reserved":false,"is_disabled":false,"rental_uris":{"android":"levelo://app?vid=82b063cc-deed-4514-a9c8-c7a62f9a6066","ios":"levelo://app?vid=82b063cc-deed-4514-a9c8-c7a62f9a6066"},"vehicle_type_id":"4","last_reported":1715343185,"current_range_meters":30800,"station_id":"ce4bgup2rcd13ifvqcn0","pricing_plan_id":"cebpf4jnsgd1na2vs0mg"},{"bike_id":"33810ea1-5372-4f13-bc44-dd9a992b7ee4","system_id":"levelo_inurba_marseille","lat":43.304606,"lon":5.379026,"is_reserved":false,"is_disabled":false,"rental_uris":{"android":"levelo://app?vid=33810ea1-5372-4f13-bc44-dd9a992b7ee4","ios":"levelo://app?vid=33810ea1-5372-4f13-bc44-dd9a992b7ee4"},"vehicle_type_id":"4","last_reported":1715343185,"current_range_meters":11600,"station_id":"ce4bgup2rcd13ifvqcn0","pricing_plan_id":"cebpf4jnsgd1na2vs0mg"},{"bike_id":"dbe46ed8-5499-4fe0-bdf8-c2029f1b5d21","system_id":"levelo_inurba_marseille","lat":43.304606,"lon":5.379026,"is_reserved":false,"is_disabled":false,"rental_uris":{"android":"levelo://app?vid=dbe46ed8-5499-4fe0-bdf8-c2029f1b5d21","ios":"levelo://app?vid=dbe46ed8-5499-4fe0-bdf8-c2029f1b5d21"},"vehicle_type_id":"4","last_reported":1715343185,"current_range_meters":5600,"station_id":"ce4bgup2rcd13ifvqcn0","pricing_plan_id":"cebpf4jnsgd1na2vs0mg"},{"bike_id":"f0e9be9b-7911-496c-a2bd-56455e8e52d5","system_id":"levelo_inurba_marseille","lat":43.304606,"lon":5.379026,"is_reserved":false,"is_disabled":false,"rental_uris":{"android":"levelo://app?vid=f0e9be9b-7911-496c-a2bd-56455e8e52d5","ios":"levelo://app?vid=f0e9be9b-7911-496c-a2bd-56455e8e52d5"},"vehicle_type_id":"4","last_reported":1715343185,"current_range_meters":13200,"station_id":"ce4bgup2rcd13ifvqcn0","pricing_plan_id":"cebpf4jnsgd1na2vs0mg"},{"bike_id":"4a5dde25-e950-44de-94f7-2c7d7cc977a3","system_id":"levelo_inurba_marseille","lat":43.304606,"lon":5.379026,"is_reserved":false,"is_disabled":false,"rental_uris":{"android":"levelo://app?vid=4a5dde25-e950-44de-94f7-2c7d7cc977a3","ios":"levelo://app?vid=4a5dde25-e950-44de-94f7-2c7d7cc977a3"},"vehicle_type_id":"4","last_reported":1715343185,"current_range_meters":22000,"station_id":"ce4bgup2rcd13ifvqcn0","pricing_plan_id":"cebpf4jnsgd1na2vs0mg"},{"bike_id":"ce352551-a866-4971-8d08-c9eba3938cd9","system_id":"levelo_inurba_marseille","lat":43.32474,"lon":5.36579,"is_reserved":false,"is_disabled":false,"rental_uris":{"android":"levelo://app?vid=ce352551-a866-4971-8d08-c9eba3938cd9","ios":"levelo://app?vid=ce352551-a866-4971-8d08-c9eba3938cd9"},"vehicle_type_id":"4","last_reported":1715343185,"current_range_meters":20400,"station_id":"ce4bhs12rcd13ifvqhvg","pricing_plan_id":"cebpf4jnsgd1na2vs0mg"},{"bike_id":"ca917bde-b6a2-455f-9352-068fa3e12e48","system_id":"levelo_inurba_marseille","lat":43.324771,"lon":5.36557,"is_reserved":false,"is_disabled":false,"rental_uris":{"android":"levelo://app?vid=ca917bde-b6a2-455f-9352-068fa3e12e48","ios":"levelo://app?vid=ca917bde-b6a2-455f-9352-068fa3e12e48"},"vehicle_type_id":"4","last_reported":1715343185,"current_range_meters":19200,"station_id":"ce4bhs12rcd13ifvqhvg","pricing_plan_id":"cebpf4jnsgd1na2vs0mg"},{"bike_id":"d247ca2c-9065-4109-a602-a67cbda4b16e","system_id":"levelo_inurba_marseille","lat":43.32475,"lon":5.36566,"is_reserved":false,"is_disabled":false,"rental_uris":{"android":"levelo://app?vid=d247ca2c-9065-4109-a602-a67cbda4b16e","ios":"levelo://app?vid=d247ca2c-9065-4109-a602-a67cbda4b16e"},"vehicle_type_id":"4","last_reported":1715343185,"current_range_meters":6000,"station_id":"ce4bhs12rcd13ifvqhvg","pricing_plan_id":"cebpf4jnsgd1na2vs0mg"},{"bike_id":"24fc6448-4135-4312-badc-b9e6aeefbea2","system_id":"levelo_inurba_marseille","lat":43.32477,"lon":5.36573,"is_reserved":false,"is_disabled":false,"rental_uris":{"android":"levelo://app?vid=24fc6448-4135-4312-badc-b9e6aeefbea2","ios":"levelo://app?vid=24fc6448-4135-4312-badc-b9e6aeefbea2"},"vehicle_type_id":"4","last_reported":1715343185,"current_range_meters":8400,"station_id":"ce4bhs12rcd13ifvqhvg","pricing_plan_id":"cebpf4jnsgd1na2vs0mg"},{"bike_id":"e23fc6b0-d9bd-4442-b282-7d148f921891","system_id":"levelo_inurba_marseille","lat":43.324769,"lon":5.365634,"is_reserved":false,"is_disabled":false,"rental_uris":{"android":"levelo://app?vid=e23fc6b0-d9bd-4442-b282-7d148f921891","ios":"levelo://app?vid=e23fc6b0-d9bd-4442-b282-7d148f921891"},"vehicle_type_id":"4","last_reported":1715343185,"current_range_meters":5200,"station_id":"ce4bhs12rcd13ifvqhvg","pricing_plan_id":"cebpf4jnsgd1na2vs0mg"},{"bike_id":"d94c9dec-b58f-4640-ae8d-6b4b27755d83","system_id":"levelo_inurba_marseille","lat":43.324771,"lon":5.36557,"is_reserved":false,"is_disabled":false,"rental_uris":{"android":"levelo://app?vid=d94c9dec-b58f-4640-ae8d-6b4b27755d83","ios":"levelo://app?vid=d94c9dec-b58f-4640-ae8d-6b4b27755d83"},"vehicle_type_id":"4","last_reported":1715343185,"current_range_meters":22800,"station_id":"ce4bhs12rcd13ifvqhvg","pricing_plan_id":"cebpf4jnsgd1na2vs0mg"},{"bike_id":"54819f20-19f1-4ad1-8573-8adbbc0809a6","system_id":"levelo_inurba_marseille","lat":43.324782,"lon":5.36568,"is_reserved":false,"is_disabled":false,"rental_uris":{"android":"levelo://app?vid=54819f20-19f1-4ad1-8573-8adbbc0809a6","ios":"levelo://app?vid=54819f20-19f1-4ad1-8573-8adbbc0809a6"},"vehicle_type_id":"4","last_reported":1715343185,"current_range_meters":0,"station_id":"ce4bhs12rcd13ifvqhvg","pricing_plan_id":"cebpf4jnsgd1na2vs0mg"},{"bike_id":"bbfa8011-29f5-45ca-984f-bd86503370c0","system_id":"levelo_inurba_marseille","lat":43.324796,"lon":5.365849,"is_reserved":false,"is_disabled":false,"rental_uris":{"android":"levelo://app?vid=bbfa8011-29f5-45ca-984f-bd86503370c0","ios":"levelo://app?vid=bbfa8011-29f5-45ca-984f-bd86503370c0"},"vehicle_type_id":"4","last_reported":1715343185,"current_range_meters":25600,"station_id":"ce4bhs12rcd13ifvqhvg","pricing_plan_id":"cebpf4jnsgd1na2vs0mg"},{"bike_id":"4eb92f76-c358-440b-bc3d-a815e556ffe4","system_id":"levelo_inurba_marseille","lat":43.324771,"lon":5.36557,"is_reserved":false,"is_disabled":false,"rental_uris":{"android":"levelo://app?vid=4eb92f76-c358-440b-bc3d-a815e556ffe4","ios":"levelo://app?vid=4eb92f76-c358-440b-bc3d-a815e556ffe4"},"vehicle_type_id":"4","last_reported":1715343185,"current_range_meters":7200,"station_id":"ce4bhs12rcd13ifvqhvg","pricing_plan_id":"cebpf4jnsgd1na2vs0mg"},{"bike_id":"feac33d5-a119-4018-a3a2-3cda58472530","system_id":"levelo_inurba_marseille","lat":43.324799,"lon":5.36569,"is_reserved":false,"is_disabled":false,"rental_uris":{"android":"levelo://app?vid=feac33d5-a119-4018-a3a2-3cda58472530","ios":"levelo://app?vid=feac33d5-a119-4018-a3a2-3cda58472530"},"vehicle_type_id":"4","last_reported":1715343185,"current_range_meters":14400,"station_id":"ce4bhs12rcd13ifvqhvg","pricing_plan_id":"cebpf4jnsgd1na2vs0mg"},{"bike_id":"4d8e0117-c2ae-44fb-b080-7e9d703b9e51","system_id":"levelo_inurba_marseille","lat":43.3248,"lon":5.36571,"is_reserved":false,"is_disabled":false,"rental_uris":{"android":"levelo://app?vid=4d8e0117-c2ae-44fb-b080-7e9d703b9e51","ios":"levelo://app?vid=4d8e0117-c2ae-44fb-b080-7e9d703b9e51"},"vehicle_type_id":"4","last_reported":1715343185,"current_range_meters":2800,"station_id":"ce4bhs12rcd13ifvqhvg","pricing_plan_id":"cebpf4jnsgd1na2vs0mg"},{"bike_id":"2daf7a28-e839-46c5-8778-4f3ae1af4498","system_id":"levelo_inurba_marseille","lat":43.3248,"lon":5.36566,"is_reserved":false,"is_disabled":false,"rental_uris":{"android":"levelo://app?vid=2daf7a28-e839-46c5-8778-4f3ae1af4498","ios":"levelo://app?vid=2daf7a28-e839-46c5-8778-4f3ae1af4498"},"vehicle_type_id":"4","last_reported":1715343185,"current_range_meters":2400,"station_id":"ce4bhs12rcd13ifvqhvg","pricing_plan_id":"cebpf4jnsgd1na2vs0mg"},{"bike_id":"a1a5056f-afd6-4fe8-bf8d-db5a443d86b8","system_id":"levelo_inurba_marseille","lat":43.324771,"lon":5.36557,"is_reserved":false,"is_disabled":false,"rental_uris":{"android":"levelo://app?vid=a1a5056f-afd6-4fe8-bf8d-db5a443d86b8","ios":"levelo://app?vid=a1a5056f-afd6-4fe8-bf8d-db5a443d86b8"},"vehicle_type_id":"4","last_reported":1715343185,"current_range_meters":29600,"station_id":"ce4bhs12rcd13ifvqhvg","pricing_plan_id":"cebpf4jnsgd1na2vs0mg"},{"bike_id":"e2632a34-1f69-412a-b2ca-8192db3e2d87","system_id":"levelo_inurba_marseille","lat":43.324771,"lon":5.36557,"is_reserved":false,"is_disabled":false,"rental_uris":{"android":"levelo://app?vid=e2632a34-1f69-412a-b2ca-8192db3e2d87","ios":"levelo://app?vid=e2632a34-1f69-412a-b2ca-8192db3e2d87"},"vehicle_type_id":"4","last_reported":1715343185,"current_range_meters":30400,"station_id":"ce4bhs12rcd13ifvqhvg","pricing_plan_id":"cebpf4jnsgd1na2vs0mg"},{"bike_id":"f53c1d0f-2423-4a14-bbca-e042fc2aade0","system_id":"levelo_inurba_marseille","lat":43.324813,"lon":5.365671,"is_reserved":false,"is_disabled":false,"rental_uris":{"android":"levelo://app?vid=f53c1d0f-2423-4a14-bbca-e042fc2aade0","ios":"levelo://app?vid=f53c1d0f-2423-4a14-bbca-e042fc2aade0"},"vehicle_type_id":"4","last_reported":1715343185,"current_range_meters":2800,"station_id":"ce4bhs12rcd13ifvqhvg","pricing_plan_id":"cebpf4jnsgd1na2vs0mg"},{"bike_id":"444dd81b-d8ec-4a7d-b194-54a8bba6f187","system_id":"levelo_inurba_marseille","lat":43.324811,"lon":5.365624,"is_reserved":false,"is_disabled":false,"rental_uris":{"android":"levelo://app?vid=444dd81b-d8ec-4a7d-b194-54a8bba6f187","ios":"levelo://app?vid=444dd81b-d8ec-4a7d-b194-54a8bba6f187"},"vehicle_type_id":"4","last_reported":1715343185,"current_range_meters":5200,"station_id":"ce4bhs12rcd13ifvqhvg","pricing_plan_id":"cebpf4jnsgd1na2vs0mg"},{"bike_id":"5e74104e-a577-4a7b-a64e-72d6c02eda14","system_id":"levelo_inurba_marseille","lat":43.324821,"lon":5.365746,"is_reserved":false,"is_disabled":false,"rental_uris":{"android":"levelo://app?vid=5e74104e-a577-4a7b-a64e-72d6c02eda14","ios":"levelo://app?vid=5e74104e-a577-4a7b-a64e-72d6c02eda14"},"vehicle_type_id":"4","last_reported":1715343185,"current_range_meters":19600,"station_id":"ce4bhs12rcd13ifvqhvg","pricing_plan_id":"cebpf4jnsgd1na2vs0mg"},{"bike_id":"7a2f7a01-e89e-42ef-8b85-00ec52b75b2a","system_id":"levelo_inurba_marseille","lat":43.324817,"lon":5.36557,"is_reserved":false,"is_disabled":false,"rental_uris":{"android":"levelo://app?vid=7a2f7a01-e89e-42ef-8b85-00ec52b75b2a","ios":"levelo://app?vid=7a2f7a01-e89e-42ef-8b85-00ec52b75b2a"},"vehicle_type_id":"4","last_reported":1715343185,"current_range_meters":4000,"station_id":"ce4bhs12rcd13ifvqhvg","pricing_plan_id":"cebpf4jnsgd1na2vs0mg"},{"bike_id":"2febb0ee-a21d-447a-a8c4-590c86129938","system_id":"levelo_inurba_marseille","lat":43.324771,"lon":5.36557,"is_reserved":false,"is_disabled":false,"rental_uris":{"android":"levelo://app?vid=2febb0ee-a21d-447a-a8c4-590c86129938","ios":"levelo://app?vid=2febb0ee-a21d-447a-a8c4-590c86129938"},"vehicle_type_id":"4","last_reported":1715343185,"current_range_meters":27600,"station_id":"ce4bhs12rcd13ifvqhvg","pricing_plan_id":"cebpf4jnsgd1na2vs0mg"},{"bike_id":"d1b4e1b5-938c-45f6-b01a-00001534d859","system_id":"levelo_inurba_marseille","lat":43.32483,"lon":5.36567,"is_reserved":false,"is_disabled":false,"rental_uris":{"android":"levelo://app?vid=d1b4e1b5-938c-45f6-b01a-00001534d859","ios":"levelo://app?vid=d1b4e1b5-938c-45f6-b01a-00001534d859"},"vehicle_type_id":"4","last_reported":1715343185,"current_range_meters":25200,"station_id":"ce4bhs12rcd13ifvqhvg","pricing_plan_id":"cebpf4jnsgd1na2vs0mg"},{"bike_id":"c71be1e7-df55-45ea-a2b7-f8717e1182c6","system_id":"levelo_inurba_marseille","lat":43.324844,"lon":5.365622,"is_reserved":false,"is_disabled":false,"rental_uris":{"android":"levelo://app?vid=c71be1e7-df55-45ea-a2b7-f8717e1182c6","ios":"levelo://app?vid=c71be1e7-df55-45ea-a2b7-f8717e1182c6"},"vehicle_type_id":"4","last_reported":1715343185,"current_range_meters":17600,"station_id":"ce4bhs12rcd13ifvqhvg","pricing_plan_id":"cebpf4jnsgd1na2vs0mg"},{"bike_id":"164645ae-7129-4725-bf89-15b685d686fe","system_id":"levelo_inurba_marseille","lat":43.324771,"lon":5.36557,"is_reserved":false,"is_disabled":false,"rental_uris":{"android":"levelo://app?vid=164645ae-7129-4725-bf89-15b685d686fe","ios":"levelo://app?vid=164645ae-7129-4725-bf89-15b685d686fe"},"vehicle_type_id":"4","last_reported":1715343185,"current_range_meters":10000,"station_id":"ce4bhs12rcd13ifvqhvg","pricing_plan_id":"cebpf4jnsgd1na2vs0mg"},{"bike_id":"91478fe3-2938-4333-8c6f-cdf51d0a8a60","system_id":"levelo_inurba_marseille","lat":43.32489,"lon":5.36587,"is_reserved":false,"is_disabled":false,"rental_uris":{"android":"levelo://app?vid=91478fe3-2938-4333-8c6f-cdf51d0a8a60","ios":"levelo://app?vid=91478fe3-2938-4333-8c6f-cdf51d0a8a60"},"vehicle_type_id":"4","last_reported":1715343185,"current_range_meters":22800,"station_id":"ce4bhs12rcd13ifvqhvg","pricing_plan_id":"cebpf4jnsgd1na2vs0mg"},{"bike_id":"a7155c93-a0c1-4f0f-9793-bd0ddb0e7eb5","system_id":"levelo_inurba_marseille","lat":43.3108,"lon":5.38352,"is_reserved":false,"is_disabled":false,"rental_uris":{"android":"levelo://app?vid=a7155c93-a0c1-4f0f-9793-bd0ddb0e7eb5","ios":"levelo://app?vid=a7155c93-a0c1-4f0f-9793-bd0ddb0e7eb5"},"vehicle_type_id":"4","last_reported":1715343185,"current_range_meters":14800,"station_id":"ce4bgv92rcd13ifvqcr0","pricing_plan_id":"cebpf4jnsgd1na2vs0mg"},{"bike_id":"d8593c11-485e-45af-98ca-69d8580800d7","system_id":"levelo_inurba_marseille","lat":43.302784,"lon":5.377158,"is_reserved":false,"is_disabled":false,"rental_uris":{"android":"levelo://app?vid=d8593c11-485e-45af-98ca-69d8580800d7","ios":"levelo://app?vid=d8593c11-485e-45af-98ca-69d8580800d7"},"vehicle_type_id":"4","last_reported":1715343185,"current_range_meters":4000,"station_id":"ce4bguh2rcd13ifvqcj0","pricing_plan_id":"cebpf4jnsgd1na2vs0mg"},{"bike_id":"2a491af9-fd15-4787-95e8-98d1c5767252","system_id":"levelo_inurba_marseille","lat":43.301429,"lon":5.37413,"is_reserved":false,"is_disabled":false,"rental_uris":{"android":"levelo://app?vid=2a491af9-fd15-4787-95e8-98d1c5767252","ios":"levelo://app?vid=2a491af9-fd15-4787-95e8-98d1c5767252"},"vehicle_type_id":"4","last_reported":1715343185,"current_range_meters":19600,"station_id":"ce4bgs92rcd13ifvqcc0","pricing_plan_id":"cebpf4jnsgd1na2vs0mg"},{"bike_id":"48a0e26b-09f2-49c3-869a-e1ccf690a942","system_id":"levelo_inurba_marseille","lat":43.302784,"lon":5.377158,"is_reserved":false,"is_disabled":false,"rental_uris":{"android":"levelo://app?vid=48a0e26b-09f2-49c3-869a-e1ccf690a942","ios":"levelo://app?vid=48a0e26b-09f2-49c3-869a-e1ccf690a942"},"vehicle_type_id":"4","last_reported":1715343185,"current_range_meters":8000,"station_id":"ce4bguh2rcd13ifvqcj0","pricing_plan_id":"cebpf4jnsgd1na2vs0mg"},{"bike_id":"2391ca64-0954-4d18-9c00-2e0fcbb9f94e","system_id":"levelo_inurba_marseille","lat":43.302784,"lon":5.377158,"is_reserved":false,"is_disabled":false,"rental_uris":{"android":"levelo://app?vid=2391ca64-0954-4d18-9c00-2e0fcbb9f94e","ios":"levelo://app?vid=2391ca64-0954-4d18-9c00-2e0fcbb9f94e"},"vehicle_type_id":"4","last_reported":1715343185,"current_range_meters":21600,"station_id":"ce4bguh2rcd13ifvqcj0","pricing_plan_id":"cebpf4jnsgd1na2vs0mg"},{"bike_id":"343c227a-37cd-4224-9413-e7301507bddf","system_id":"levelo_inurba_marseille","lat":43.301429,"lon":5.37413,"is_reserved":false,"is_disabled":false,"rental_uris":{"android":"levelo://app?vid=343c227a-37cd-4224-9413-e7301507bddf","ios":"levelo://app?vid=343c227a-37cd-4224-9413-e7301507bddf"},"vehicle_type_id":"4","last_reported":1715343185,"current_range_meters":12400,"station_id":"ce4bgs92rcd13ifvqcc0","pricing_plan_id":"cebpf4jnsgd1na2vs0mg"},{"bike_id":"56f113e2-7e16-4659-b5c6-a618c8070da8","system_id":"levelo_inurba_marseille","lat":43.31994,"lon":5.3815,"is_reserved":false,"is_disabled":false,"rental_uris":{"android":"levelo://app?vid=56f113e2-7e16-4659-b5c6-a618c8070da8","ios":"levelo://app?vid=56f113e2-7e16-4659-b5c6-a618c8070da8"},"vehicle_type_id":"4","last_reported":1715343185,"current_range_meters":26000,"station_id":"ce4bhr12rcd13ifvqhpg","pricing_plan_id":"cebpf4jnsgd1na2vs0mg"},{"bike_id":"1d064e32-6d16-4dea-8a5f-2813acaf56fe","system_id":"levelo_inurba_marseille","lat":43.319985,"lon":5.381549,"is_reserved":false,"is_disabled":false,"rental_uris":{"android":"levelo://app?vid=1d064e32-6d16-4dea-8a5f-2813acaf56fe","ios":"levelo://app?vid=1d064e32-6d16-4dea-8a5f-2813acaf56fe"},"vehicle_type_id":"4","last_reported":1715343185,"current_range_meters":20000,"station_id":"ce4bhr12rcd13ifvqhpg","pricing_plan_id":"cebpf4jnsgd1na2vs0mg"},{"bike_id":"539eca61-7624-4584-9382-5e706aa077dc","system_id":"levelo_inurba_marseille","lat":43.319932,"lon":5.38163,"is_reserved":false,"is_disabled":false,"rental_uris":{"android":"levelo://app?vid=539eca61-7624-4584-9382-5e706aa077dc","ios":"levelo://app?vid=539eca61-7624-4584-9382-5e706aa077dc"},"vehicle_type_id":"4","last_reported":1715343185,"current_range_meters":24800,"station_id":"ce4bhr12rcd13ifvqhpg","pricing_plan_id":"cebpf4jnsgd1na2vs0mg"},{"bike_id":"a6f374fd-e960-44fe-af4d-465065f24cba","system_id":"levelo_inurba_marseille","lat":43.313571,"lon":5.384829,"is_reserved":false,"is_disabled":false,"rental_uris":{"android":"levelo://app?vid=a6f374fd-e960-44fe-af4d-465065f24cba","ios":"levelo://app?vid=a6f374fd-e960-44fe-af4d-465065f24cba"},"vehicle_type_id":"4","last_reported":1715343185,"current_range_meters":13600,"station_id":"ce4bgt92rcd13ifvqcf0","pricing_plan_id":"cebpf4jnsgd1na2vs0mg"},{"bike_id":"4fe8fb08-2e51-4f47-b545-c321061141c4","system_id":"levelo_inurba_marseille","lat":43.31359,"lon":5.38493,"is_reserved":false,"is_disabled":false,"rental_uris":{"android":"levelo://app?vid=4fe8fb08-2e51-4f47-b545-c321061141c4","ios":"levelo://app?vid=4fe8fb08-2e51-4f47-b545-c321061141c4"},"vehicle_type_id":"4","last_reported":1715343185,"current_range_meters":0,"station_id":"ce4bgt92rcd13ifvqcf0","pricing_plan_id":"cebpf4jnsgd1na2vs0mg"},{"bike_id":"e5bacad8-4e0a-4814-a5a8-ce16bbfebb8f","system_id":"levelo_inurba_marseille","lat":43.313571,"lon":5.384829,"is_reserved":false,"is_disabled":false,"rental_uris":{"android":"levelo://app?vid=e5bacad8-4e0a-4814-a5a8-ce16bbfebb8f","ios":"levelo://app?vid=e5bacad8-4e0a-4814-a5a8-ce16bbfebb8f"},"vehicle_type_id":"4","last_reported":1715343185,"current_range_meters":19600,"station_id":"ce4bgt92rcd13ifvqcf0","pricing_plan_id":"cebpf4jnsgd1na2vs0mg"},{"bike_id":"df14b6b4-6efa-47c4-b8a7-120c393e7f54","system_id":"levelo_inurba_marseille","lat":43.31373,"lon":5.385,"is_reserved":false,"is_disabled":false,"rental_uris":{"android":"levelo://app?vid=df14b6b4-6efa-47c4-b8a7-120c393e7f54","ios":"levelo://app?vid=df14b6b4-6efa-47c4-b8a7-120c393e7f54"},"vehicle_type_id":"4","last_reported":1715343185,"current_range_meters":30400,"station_id":"ce4bgt92rcd13ifvqcf0","pricing_plan_id":"cebpf4jnsgd1na2vs0mg"},{"bike_id":"7674ea52-a101-4ba7-8828-1f0abb9c1302","system_id":"levelo_inurba_marseille","lat":43.299222,"lon":5.365554,"is_reserved":false,"is_disabled":false,"rental_uris":{"android":"levelo://app?vid=7674ea52-a101-4ba7-8828-1f0abb9c1302","ios":"levelo://app?vid=7674ea52-a101-4ba7-8828-1f0abb9c1302"},"vehicle_type_id":"4","last_reported":1715343185,"current_range_meters":7200,"station_id":"ce4bgm92rcd13ifvqbr0","pricing_plan_id":"cebpf4jnsgd1na2vs0mg"},{"bike_id":"100d1116-94eb-4b78-b004-6c189aae9872","system_id":"levelo_inurba_marseille","lat":43.299222,"lon":5.365554,"is_reserved":false,"is_disabled":false,"rental_uris":{"android":"levelo://app?vid=100d1116-94eb-4b78-b004-6c189aae9872","ios":"levelo://app?vid=100d1116-94eb-4b78-b004-6c189aae9872"},"vehicle_type_id":"4","last_reported":1715343185,"current_range_meters":22400,"station_id":"ce4bgm92rcd13ifvqbr0","pricing_plan_id":"cebpf4jnsgd1na2vs0mg"},{"bike_id":"d5bd99eb-3970-4688-9ca5-6dc442664a7d","system_id":"levelo_inurba_marseille","lat":43.299375,"lon":5.365438,"is_reserved":false,"is_disabled":false,"rental_uris":{"android":"levelo://app?vid=d5bd99eb-3970-4688-9ca5-6dc442664a7d","ios":"levelo://app?vid=d5bd99eb-3970-4688-9ca5-6dc442664a7d"},"vehicle_type_id":"4","last_reported":1715343185,"current_range_meters":20400,"station_id":"ce4bgm92rcd13ifvqbr0","pricing_plan_id":"cebpf4jnsgd1na2vs0mg"},{"bike_id":"2b2d43de-edaa-4597-95bf-fd001f08a35f","system_id":"levelo_inurba_marseille","lat":43.299775,"lon":5.371778,"is_reserved":false,"is_disabled":false,"rental_uris":{"android":"levelo://app?vid=2b2d43de-edaa-4597-95bf-fd001f08a35f","ios":"levelo://app?vid=2b2d43de-edaa-4597-95bf-fd001f08a35f"},"vehicle_type_id":"4","last_reported":1715343185,"current_range_meters":21600,"station_id":"ce4bgr92rcd13ifvqc7g","pricing_plan_id":"cebpf4jnsgd1na2vs0mg"},{"bike_id":"42365bc7-631f-4dc3-80b7-4c7479feed5b","system_id":"levelo_inurba_marseille","lat":43.299222,"lon":5.365554,"is_reserved":false,"is_disabled":false,"rental_uris":{"android":"levelo://app?vid=42365bc7-631f-4dc3-80b7-4c7479feed5b","ios":"levelo://app?vid=42365bc7-631f-4dc3-80b7-4c7479feed5b"},"vehicle_type_id":"4","last_reported":1715343185,"current_range_meters":17600,"station_id":"ce4bgm92rcd13ifvqbr0","pricing_plan_id":"cebpf4jnsgd1na2vs0mg"},{"bike_id":"a4234e6b-7abb-4c00-bd29-19ffe4fd3481","system_id":"levelo_inurba_marseille","lat":43.29934,"lon":5.36543,"is_reserved":false,"is_disabled":false,"rental_uris":{"android":"levelo://app?vid=a4234e6b-7abb-4c00-bd29-19ffe4fd3481","ios":"levelo://app?vid=a4234e6b-7abb-4c00-bd29-19ffe4fd3481"},"vehicle_type_id":"4","last_reported":1715343185,"current_range_meters":5200,"station_id":"ce4bgm92rcd13ifvqbr0","pricing_plan_id":"cebpf4jnsgd1na2vs0mg"},{"bike_id":"84524a57-81fb-4780-8d44-29e8a0399565","system_id":"levelo_inurba_marseille","lat":43.29933,"lon":5.3655,"is_reserved":false,"is_disabled":false,"rental_uris":{"android":"levelo://app?vid=84524a57-81fb-4780-8d44-29e8a0399565","ios":"levelo://app?vid=84524a57-81fb-4780-8d44-29e8a0399565"},"vehicle_type_id":"4","last_reported":1715343185,"current_range_meters":7200,"station_id":"ce4bgm92rcd13ifvqbr0","pricing_plan_id":"cebpf4jnsgd1na2vs0mg"},{"bike_id":"5d5d9d52-a18c-4e0a-9b32-49908f86a7c2","system_id":"levelo_inurba_marseille","lat":43.299222,"lon":5.365554,"is_reserved":false,"is_disabled":false,"rental_uris":{"android":"levelo://app?vid=5d5d9d52-a18c-4e0a-9b32-49908f86a7c2","ios":"levelo://app?vid=5d5d9d52-a18c-4e0a-9b32-49908f86a7c2"},"vehicle_type_id":"4","last_reported":1715343185,"current_range_meters":0,"station_id":"ce4bgm92rcd13ifvqbr0","pricing_plan_id":"cebpf4jnsgd1na2vs0mg"},{"bike_id":"d785b89d-dfbc-4c63-823f-c7d442907320","system_id":"levelo_inurba_marseille","lat":43.29573,"lon":5.367355,"is_reserved":false,"is_disabled":false,"rental_uris":{"android":"levelo://app?vid=d785b89d-dfbc-4c63-823f-c7d442907320","ios":"levelo://app?vid=d785b89d-dfbc-4c63-823f-c7d442907320"},"vehicle_type_id":"4","last_reported":1715343185,"current_range_meters":8800,"station_id":"ce4bgph2rcd13ifvqc2g","pricing_plan_id":"cebpf4jnsgd1na2vs0mg"},{"bike_id":"20c53264-843c-4349-a93d-1fcd7eb73607","system_id":"levelo_inurba_marseille","lat":43.298433,"lon":5.362774,"is_reserved":false,"is_disabled":false,"rental_uris":{"android":"levelo://app?vid=20c53264-843c-4349-a93d-1fcd7eb73607","ios":"levelo://app?vid=20c53264-843c-4349-a93d-1fcd7eb73607"},"vehicle_type_id":"4","last_reported":1715343185,"current_range_meters":0,"station_id":"ce4bgpp2rcd13ifvqc3g","pricing_plan_id":"cebpf4jnsgd1na2vs0mg"},{"bike_id":"d8903505-46d4-4b7e-ac9c-a55c5621fb69","system_id":"levelo_inurba_marseille","lat":43.298433,"lon":5.362774,"is_reserved":false,"is_disabled":false,"rental_uris":{"android":"levelo://app?vid=d8903505-46d4-4b7e-ac9c-a55c5621fb69","ios":"levelo://app?vid=d8903505-46d4-4b7e-ac9c-a55c5621fb69"},"vehicle_type_id":"4","last_reported":1715343185,"current_range_meters":2400,"station_id":"ce4bgpp2rcd13ifvqc3g","pricing_plan_id":"cebpf4jnsgd1na2vs0mg"},{"bike_id":"3f34942b-96f8-4a22-9d53-aa8b3f2f4a3e","system_id":"levelo_inurba_marseille","lat":43.298433,"lon":5.362774,"is_reserved":false,"is_disabled":false,"rental_uris":{"android":"levelo://app?vid=3f34942b-96f8-4a22-9d53-aa8b3f2f4a3e","ios":"levelo://app?vid=3f34942b-96f8-4a22-9d53-aa8b3f2f4a3e"},"vehicle_type_id":"4","last_reported":1715343185,"current_range_meters":25600,"station_id":"ce4bgpp2rcd13ifvqc3g","pricing_plan_id":"cebpf4jnsgd1na2vs0mg"},{"bike_id":"952852b9-6d46-4f22-b0d4-ddb36421e55e","system_id":"levelo_inurba_marseille","lat":43.298433,"lon":5.362774,"is_reserved":false,"is_disabled":false,"rental_uris":{"android":"levelo://app?vid=952852b9-6d46-4f22-b0d4-ddb36421e55e","ios":"levelo://app?vid=952852b9-6d46-4f22-b0d4-ddb36421e55e"},"vehicle_type_id":"4","last_reported":1715343185,"current_range_meters":32000,"station_id":"ce4bgpp2rcd13ifvqc3g","pricing_plan_id":"cebpf4jnsgd1na2vs0mg"},{"bike_id":"56fc3e6b-d80a-4e16-90b9-8fc21db002c8","system_id":"levelo_inurba_marseille","lat":43.298433,"lon":5.362774,"is_reserved":false,"is_disabled":false,"rental_uris":{"android":"levelo://app?vid=56fc3e6b-d80a-4e16-90b9-8fc21db002c8","ios":"levelo://app?vid=56fc3e6b-d80a-4e16-90b9-8fc21db002c8"},"vehicle_type_id":"4","last_reported":1715343185,"current_range_meters":31600,"station_id":"ce4bgpp2rcd13ifvqc3g","pricing_plan_id":"cebpf4jnsgd1na2vs0mg"},{"bike_id":"1239124f-cdce-4018-a997-87843e7aa7a1","system_id":"levelo_inurba_marseille","lat":43.298433,"lon":5.362774,"is_reserved":false,"is_disabled":false,"rental_uris":{"android":"levelo://app?vid=1239124f-cdce-4018-a997-87843e7aa7a1","ios":"levelo://app?vid=1239124f-cdce-4018-a997-87843e7aa7a1"},"vehicle_type_id":"4","last_reported":1715343185,"current_range_meters":5200,"station_id":"ce4bgpp2rcd13ifvqc3g","pricing_plan_id":"cebpf4jnsgd1na2vs0mg"},{"bike_id":"d4e3383a-eec9-4e68-8a9d-c339e100041b","system_id":"levelo_inurba_marseille","lat":43.298433,"lon":5.362774,"is_reserved":false,"is_disabled":false,"rental_uris":{"android":"levelo://app?vid=d4e3383a-eec9-4e68-8a9d-c339e100041b","ios":"levelo://app?vid=d4e3383a-eec9-4e68-8a9d-c339e100041b"},"vehicle_type_id":"4","last_reported":1715343185,"current_range_meters":10000,"station_id":"ce4bgpp2rcd13ifvqc3g","pricing_plan_id":"cebpf4jnsgd1na2vs0mg"},{"bike_id":"eb2e3cdc-caf3-4bf0-8300-96d07a7188b8","system_id":"levelo_inurba_marseille","lat":43.299243,"lon":5.37481,"is_reserved":false,"is_disabled":false,"rental_uris":{"android":"levelo://app?vid=eb2e3cdc-caf3-4bf0-8300-96d07a7188b8","ios":"levelo://app?vid=eb2e3cdc-caf3-4bf0-8300-96d07a7188b8"},"vehicle_type_id":"4","last_reported":1715343185,"current_range_meters":22400,"station_id":"ce4bgjh2rcd13ifvqbg0","pricing_plan_id":"cebpf4jnsgd1na2vs0mg"},{"bike_id":"eefa0793-9e4d-42c3-9256-544a271947de","system_id":"levelo_inurba_marseille","lat":43.297794,"lon":5.370888,"is_reserved":false,"is_disabled":false,"rental_uris":{"android":"levelo://app?vid=eefa0793-9e4d-42c3-9256-544a271947de","ios":"levelo://app?vid=eefa0793-9e4d-42c3-9256-544a271947de"},"vehicle_type_id":"4","last_reported":1715343185,"current_range_meters":30800,"station_id":"ce4bgop2rcd13ifvqc1g","pricing_plan_id":"cebpf4jnsgd1na2vs0mg"},{"bike_id":"cb4631b8-b69b-43f1-a9a4-8e87cf28083e","system_id":"levelo_inurba_marseille","lat":43.29767,"lon":5.36993,"is_reserved":false,"is_disabled":false,"rental_uris":{"android":"levelo://app?vid=cb4631b8-b69b-43f1-a9a4-8e87cf28083e","ios":"levelo://app?vid=cb4631b8-b69b-43f1-a9a4-8e87cf28083e"},"vehicle_type_id":"4","last_reported":1715343185,"current_range_meters":24000,"station_id":"","pricing_plan_id":"cebpf4jnsgd1na2vs0mg"},{"bike_id":"30a7e269-8d82-414d-9c68-13e4bb8a920e","system_id":"levelo_inurba_marseille","lat":43.322872,"lon":5.382756,"is_reserved":false,"is_disabled":false,"rental_uris":{"android":"levelo://app?vid=30a7e269-8d82-414d-9c68-13e4bb8a920e","ios":"levelo://app?vid=30a7e269-8d82-414d-9c68-13e4bb8a920e"},"vehicle_type_id":"4","last_reported":1715343185,"current_range_meters":25200,"station_id":"ce4bhr12rcd13ifvqhqg","pricing_plan_id":"cebpf4jnsgd1na2vs0mg"},{"bike_id":"f6477297-9f24-4300-8731-51da854623c0","system_id":"levelo_inurba_marseille","lat":43.322872,"lon":5.382756,"is_reserved":false,"is_disabled":false,"rental_uris":{"android":"levelo://app?vid=f6477297-9f24-4300-8731-51da854623c0","ios":"levelo://app?vid=f6477297-9f24-4300-8731-51da854623c0"},"vehicle_type_id":"4","last_reported":1715343185,"current_range_meters":8800,"station_id":"ce4bhr12rcd13ifvqhqg","pricing_plan_id":"cebpf4jnsgd1na2vs0mg"},{"bike_id":"9367d0e3-67fe-4072-b940-578537a1d2b5","system_id":"levelo_inurba_marseille","lat":43.322917,"lon":5.382677,"is_reserved":false,"is_disabled":false,"rental_uris":{"android":"levelo://app?vid=9367d0e3-67fe-4072-b940-578537a1d2b5","ios":"levelo://app?vid=9367d0e3-67fe-4072-b940-578537a1d2b5"},"vehicle_type_id":"4","last_reported":1715343185,"current_range_meters":30400,"station_id":"ce4bhr12rcd13ifvqhqg","pricing_plan_id":"cebpf4jnsgd1na2vs0mg"},{"bike_id":"573aa27b-2156-4f81-8d51-bc7b216e1df8","system_id":"levelo_inurba_marseille","lat":43.297774,"lon":5.370875,"is_reserved":false,"is_disabled":false,"rental_uris":{"android":"levelo://app?vid=573aa27b-2156-4f81-8d51-bc7b216e1df8","ios":"levelo://app?vid=573aa27b-2156-4f81-8d51-bc7b216e1df8"},"vehicle_type_id":"4","last_reported":1715343185,"current_range_meters":28400,"station_id":"ce4bgop2rcd13ifvqc1g","pricing_plan_id":"cebpf4jnsgd1na2vs0mg"},{"bike_id":"eea9a8ee-c9f0-4ef3-942b-e84a9418210b","system_id":"levelo_inurba_marseille","lat":43.29708,"lon":5.36599,"is_reserved":false,"is_disabled":false,"rental_uris":{"android":"levelo://app?vid=eea9a8ee-c9f0-4ef3-942b-e84a9418210b","ios":"levelo://app?vid=eea9a8ee-c9f0-4ef3-942b-e84a9418210b"},"vehicle_type_id":"4","last_reported":1715343185,"current_range_meters":0,"station_id":"","pricing_plan_id":"cebpf4jnsgd1na2vs0mg"},{"bike_id":"9a19a205-7b0f-41c6-8b36-b61d5c7b32af","system_id":"levelo_inurba_marseille","lat":43.297057,"lon":5.36592,"is_reserved":false,"is_disabled":false,"rental_uris":{"android":"levelo://app?vid=9a19a205-7b0f-41c6-8b36-b61d5c7b32af","ios":"levelo://app?vid=9a19a205-7b0f-41c6-8b36-b61d5c7b32af"},"vehicle_type_id":"4","last_reported":1715343185,"current_range_meters":16400,"station_id":"ce4bgn12rcd13ifvqbt0","pricing_plan_id":"cebpf4jnsgd1na2vs0mg"},{"bike_id":"5f44167b-e7b3-41cc-b345-12a8daf97977","system_id":"levelo_inurba_marseille","lat":43.29698,"lon":5.36608,"is_reserved":false,"is_disabled":false,"rental_uris":{"android":"levelo://app?vid=5f44167b-e7b3-41cc-b345-12a8daf97977","ios":"levelo://app?vid=5f44167b-e7b3-41cc-b345-12a8daf97977"},"vehicle_type_id":"4","last_reported":1715343185,"current_range_meters":16000,"station_id":"ce4bgn12rcd13ifvqbt0","pricing_plan_id":"cebpf4jnsgd1na2vs0mg"},{"bike_id":"51d5b3fd-24b7-4584-aa24-a3d3b1164cc9","system_id":"levelo_inurba_marseille","lat":43.297163,"lon":5.365866,"is_reserved":false,"is_disabled":false,"rental_uris":{"android":"levelo://app?vid=51d5b3fd-24b7-4584-aa24-a3d3b1164cc9","ios":"levelo://app?vid=51d5b3fd-24b7-4584-aa24-a3d3b1164cc9"},"vehicle_type_id":"4","last_reported":1715343185,"current_range_meters":0,"station_id":"ce4bgn12rcd13ifvqbt0","pricing_plan_id":"cebpf4jnsgd1na2vs0mg"},{"bike_id":"9c78bee4-2d8b-4b8c-9010-f95aa8fe8f17","system_id":"levelo_inurba_marseille","lat":43.29573,"lon":5.367355,"is_reserved":false,"is_disabled":false,"rental_uris":{"android":"levelo://app?vid=9c78bee4-2d8b-4b8c-9010-f95aa8fe8f17","ios":"levelo://app?vid=9c78bee4-2d8b-4b8c-9010-f95aa8fe8f17"},"vehicle_type_id":"4","last_reported":1715343185,"current_range_meters":7200,"station_id":"ce4bgph2rcd13ifvqc2g","pricing_plan_id":"cebpf4jnsgd1na2vs0mg"},{"bike_id":"3a27f951-062b-40a4-bf41-e145d74ab97d","system_id":"levelo_inurba_marseille","lat":43.29573,"lon":5.367355,"is_reserved":false,"is_disabled":false,"rental_uris":{"android":"levelo://app?vid=3a27f951-062b-40a4-bf41-e145d74ab97d","ios":"levelo://app?vid=3a27f951-062b-40a4-bf41-e145d74ab97d"},"vehicle_type_id":"4","last_reported":1715343185,"current_range_meters":12400,"station_id":"ce4bgph2rcd13ifvqc2g","pricing_plan_id":"cebpf4jnsgd1na2vs0mg"},{"bike_id":"327e44c3-4c8e-456a-b8c7-4f652ef0e515","system_id":"levelo_inurba_marseille","lat":43.309589,"lon":5.390258,"is_reserved":false,"is_disabled":false,"rental_uris":{"android":"levelo://app?vid=327e44c3-4c8e-456a-b8c7-4f652ef0e515","ios":"levelo://app?vid=327e44c3-4c8e-456a-b8c7-4f652ef0e515"},"vehicle_type_id":"4","last_reported":1715343185,"current_range_meters":0,"station_id":"ce4bgup2rcd13ifvqco0","pricing_plan_id":"cebpf4jnsgd1na2vs0mg"},{"bike_id":"811c74be-be5c-48d3-b1a3-20d258347400","system_id":"levelo_inurba_marseille","lat":43.29573,"lon":5.367355,"is_reserved":false,"is_disabled":false,"rental_uris":{"android":"levelo://app?vid=811c74be-be5c-48d3-b1a3-20d258347400","ios":"levelo://app?vid=811c74be-be5c-48d3-b1a3-20d258347400"},"vehicle_type_id":"4","last_reported":1715343185,"current_range_meters":9200,"station_id":"ce4bgph2rcd13ifvqc2g","pricing_plan_id":"cebpf4jnsgd1na2vs0mg"},{"bike_id":"f61f7f61-f05e-473f-8cfb-279326040f4e","system_id":"levelo_inurba_marseille","lat":43.29573,"lon":5.367355,"is_reserved":false,"is_disabled":false,"rental_uris":{"android":"levelo://app?vid=f61f7f61-f05e-473f-8cfb-279326040f4e","ios":"levelo://app?vid=f61f7f61-f05e-473f-8cfb-279326040f4e"},"vehicle_type_id":"4","last_reported":1715343185,"current_range_meters":13600,"station_id":"ce4bgph2rcd13ifvqc2g","pricing_plan_id":"cebpf4jnsgd1na2vs0mg"},{"bike_id":"a14f510d-02b7-4a4b-9b0a-9e1c5c8e18f1","system_id":"levelo_inurba_marseille","lat":43.29573,"lon":5.367355,"is_reserved":false,"is_disabled":false,"rental_uris":{"android":"levelo://app?vid=a14f510d-02b7-4a4b-9b0a-9e1c5c8e18f1","ios":"levelo://app?vid=a14f510d-02b7-4a4b-9b0a-9e1c5c8e18f1"},"vehicle_type_id":"4","last_reported":1715343185,"current_range_meters":9600,"station_id":"ce4bgph2rcd13ifvqc2g","pricing_plan_id":"cebpf4jnsgd1na2vs0mg"},{"bike_id":"4be2e92e-ddd3-4d8d-9d1f-7c7f46981dff","system_id":"levelo_inurba_marseille","lat":43.29573,"lon":5.367355,"is_reserved":false,"is_disabled":false,"rental_uris":{"android":"levelo://app?vid=4be2e92e-ddd3-4d8d-9d1f-7c7f46981dff","ios":"levelo://app?vid=4be2e92e-ddd3-4d8d-9d1f-7c7f46981dff"},"vehicle_type_id":"4","last_reported":1715343185,"current_range_meters":24400,"station_id":"ce4bgph2rcd13ifvqc2g","pricing_plan_id":"cebpf4jnsgd1na2vs0mg"},{"bike_id":"7d1e0652-6a6c-485a-9864-6f681ca242f9","system_id":"levelo_inurba_marseille","lat":43.29573,"lon":5.367355,"is_reserved":false,"is_disabled":false,"rental_uris":{"android":"levelo://app?vid=7d1e0652-6a6c-485a-9864-6f681ca242f9","ios":"levelo://app?vid=7d1e0652-6a6c-485a-9864-6f681ca242f9"},"vehicle_type_id":"4","last_reported":1715343185,"current_range_meters":12800,"station_id":"ce4bgph2rcd13ifvqc2g","pricing_plan_id":"cebpf4jnsgd1na2vs0mg"},{"bike_id":"70395873-d423-49e6-91c0-77336c3ab180","system_id":"levelo_inurba_marseille","lat":43.29573,"lon":5.367355,"is_reserved":false,"is_disabled":false,"rental_uris":{"android":"levelo://app?vid=70395873-d423-49e6-91c0-77336c3ab180","ios":"levelo://app?vid=70395873-d423-49e6-91c0-77336c3ab180"},"vehicle_type_id":"4","last_reported":1715343185,"current_range_meters":8400,"station_id":"ce4bgph2rcd13ifvqc2g","pricing_plan_id":"cebpf4jnsgd1na2vs0mg"},{"bike_id":"6af7f939-e93d-4626-9f65-04e2f6e24123","system_id":"levelo_inurba_marseille","lat":43.29573,"lon":5.367355,"is_reserved":false,"is_disabled":false,"rental_uris":{"android":"levelo://app?vid=6af7f939-e93d-4626-9f65-04e2f6e24123","ios":"levelo://app?vid=6af7f939-e93d-4626-9f65-04e2f6e24123"},"vehicle_type_id":"4","last_reported":1715343185,"current_range_meters":19600,"station_id":"ce4bgph2rcd13ifvqc2g","pricing_plan_id":"cebpf4jnsgd1na2vs0mg"},{"bike_id":"b29a0013-9865-4e48-b210-11ffee9f9850","system_id":"levelo_inurba_marseille","lat":43.29573,"lon":5.367355,"is_reserved":false,"is_disabled":false,"rental_uris":{"android":"levelo://app?vid=b29a0013-9865-4e48-b210-11ffee9f9850","ios":"levelo://app?vid=b29a0013-9865-4e48-b210-11ffee9f9850"},"vehicle_type_id":"4","last_reported":1715343185,"current_range_meters":21600,"station_id":"ce4bgph2rcd13ifvqc2g","pricing_plan_id":"cebpf4jnsgd1na2vs0mg"},{"bike_id":"553cb16e-4081-4ea2-a29f-8303f9051e71","system_id":"levelo_inurba_marseille","lat":43.29573,"lon":5.367355,"is_reserved":false,"is_disabled":false,"rental_uris":{"android":"levelo://app?vid=553cb16e-4081-4ea2-a29f-8303f9051e71","ios":"levelo://app?vid=553cb16e-4081-4ea2-a29f-8303f9051e71"},"vehicle_type_id":"4","last_reported":1715343185,"current_range_meters":4400,"station_id":"ce4bgph2rcd13ifvqc2g","pricing_plan_id":"cebpf4jnsgd1na2vs0mg"},{"bike_id":"824c21f3-994c-4cb0-8418-f87a2bf80a6f","system_id":"levelo_inurba_marseille","lat":43.29573,"lon":5.367355,"is_reserved":false,"is_disabled":false,"rental_uris":{"android":"levelo://app?vid=824c21f3-994c-4cb0-8418-f87a2bf80a6f","ios":"levelo://app?vid=824c21f3-994c-4cb0-8418-f87a2bf80a6f"},"vehicle_type_id":"4","last_reported":1715343185,"current_range_meters":14000,"station_id":"ce4bgph2rcd13ifvqc2g","pricing_plan_id":"cebpf4jnsgd1na2vs0mg"},{"bike_id":"501b187e-cb8e-4ec6-bcc2-3580c8fe8d34","system_id":"levelo_inurba_marseille","lat":43.29573,"lon":5.367355,"is_reserved":false,"is_disabled":false,"rental_uris":{"android":"levelo://app?vid=501b187e-cb8e-4ec6-bcc2-3580c8fe8d34","ios":"levelo://app?vid=501b187e-cb8e-4ec6-bcc2-3580c8fe8d34"},"vehicle_type_id":"4","last_reported":1715343185,"current_range_meters":1600,"station_id":"ce4bgph2rcd13ifvqc2g","pricing_plan_id":"cebpf4jnsgd1na2vs0mg"},{"bike_id":"d8bf087a-bb76-477d-b5f0-037be1b03543","system_id":"levelo_inurba_marseille","lat":43.29573,"lon":5.367355,"is_reserved":false,"is_disabled":false,"rental_uris":{"android":"levelo://app?vid=d8bf087a-bb76-477d-b5f0-037be1b03543","ios":"levelo://app?vid=d8bf087a-bb76-477d-b5f0-037be1b03543"},"vehicle_type_id":"4","last_reported":1715343185,"current_range_meters":23600,"station_id":"ce4bgph2rcd13ifvqc2g","pricing_plan_id":"cebpf4jnsgd1na2vs0mg"},{"bike_id":"3d79ff95-0414-4fc0-a2c3-a657fc04e925","system_id":"levelo_inurba_marseille","lat":43.2973,"lon":5.37684,"is_reserved":false,"is_disabled":false,"rental_uris":{"android":"levelo://app?vid=3d79ff95-0414-4fc0-a2c3-a657fc04e925","ios":"levelo://app?vid=3d79ff95-0414-4fc0-a2c3-a657fc04e925"},"vehicle_type_id":"4","last_reported":1715343185,"current_range_meters":0,"station_id":"ce4bgkh2rcd13ifvqbl0","pricing_plan_id":"cebpf4jnsgd1na2vs0mg"},{"bike_id":"ca1a2783-fca2-455d-bb2a-131c0b22e50b","system_id":"levelo_inurba_marseille","lat":43.296935,"lon":5.376544,"is_reserved":false,"is_disabled":false,"rental_uris":{"android":"levelo://app?vid=ca1a2783-fca2-455d-bb2a-131c0b22e50b","ios":"levelo://app?vid=ca1a2783-fca2-455d-bb2a-131c0b22e50b"},"vehicle_type_id":"4","last_reported":1715343185,"current_range_meters":29200,"station_id":"ce4bgkh2rcd13ifvqbl0","pricing_plan_id":"cebpf4jnsgd1na2vs0mg"},{"bike_id":"17413d4e-e41f-4311-ab93-b9210839b659","system_id":"levelo_inurba_marseille","lat":43.299028,"lon":5.381509,"is_reserved":false,"is_disabled":false,"rental_uris":{"android":"levelo://app?vid=17413d4e-e41f-4311-ab93-b9210839b659","ios":"levelo://app?vid=17413d4e-e41f-4311-ab93-b9210839b659"},"vehicle_type_id":"4","last_reported":1715343185,"current_range_meters":30800,"station_id":"ce4bgj12rcd13ifvqbc0","pricing_plan_id":"cebpf4jnsgd1na2vs0mg"},{"bike_id":"32dc94a0-b518-4103-bd90-e8f99b5a279e","system_id":"levelo_inurba_marseille","lat":43.309589,"lon":5.390258,"is_reserved":false,"is_disabled":false,"rental_uris":{"android":"levelo://app?vid=32dc94a0-b518-4103-bd90-e8f99b5a279e","ios":"levelo://app?vid=32dc94a0-b518-4103-bd90-e8f99b5a279e"},"vehicle_type_id":"4","last_reported":1715343185,"current_range_meters":16000,"station_id":"ce4bgup2rcd13ifvqco0","pricing_plan_id":"cebpf4jnsgd1na2vs0mg"},{"bike_id":"b01bf2a2-aec2-437f-9231-aa66afe2de99","system_id":"levelo_inurba_marseille","lat":43.309589,"lon":5.390258,"is_reserved":false,"is_disabled":false,"rental_uris":{"android":"levelo://app?vid=b01bf2a2-aec2-437f-9231-aa66afe2de99","ios":"levelo://app?vid=b01bf2a2-aec2-437f-9231-aa66afe2de99"},"vehicle_type_id":"4","last_reported":1715343185,"current_range_meters":17600,"station_id":"ce4bgup2rcd13ifvqco0","pricing_plan_id":"cebpf4jnsgd1na2vs0mg"},{"bike_id":"38f27dd5-4298-424e-ac86-197b6b4f3d94","system_id":"levelo_inurba_marseille","lat":43.309589,"lon":5.390258,"is_reserved":false,"is_disabled":false,"rental_uris":{"android":"levelo://app?vid=38f27dd5-4298-424e-ac86-197b6b4f3d94","ios":"levelo://app?vid=38f27dd5-4298-424e-ac86-197b6b4f3d94"},"vehicle_type_id":"4","last_reported":1715343185,"current_range_meters":26000,"station_id":"ce4bgup2rcd13ifvqco0","pricing_plan_id":"cebpf4jnsgd1na2vs0mg"},{"bike_id":"8c307f51-0748-4d58-9c9b-42957eb57fec","system_id":"levelo_inurba_marseille","lat":43.296921,"lon":5.376579,"is_reserved":false,"is_disabled":false,"rental_uris":{"android":"levelo://app?vid=8c307f51-0748-4d58-9c9b-42957eb57fec","ios":"levelo://app?vid=8c307f51-0748-4d58-9c9b-42957eb57fec"},"vehicle_type_id":"4","last_reported":1715343185,"current_range_meters":20000,"station_id":"ce4bgkh2rcd13ifvqbl0","pricing_plan_id":"cebpf4jnsgd1na2vs0mg"},{"bike_id":"d507c3d6-7d18-47ff-863a-4225af44f257","system_id":"levelo_inurba_marseille","lat":43.309589,"lon":5.390258,"is_reserved":false,"is_disabled":false,"rental_uris":{"android":"levelo://app?vid=d507c3d6-7d18-47ff-863a-4225af44f257","ios":"levelo://app?vid=d507c3d6-7d18-47ff-863a-4225af44f257"},"vehicle_type_id":"4","last_reported":1715343185,"current_range_meters":25600,"station_id":"ce4bgup2rcd13ifvqco0","pricing_plan_id":"cebpf4jnsgd1na2vs0mg"},{"bike_id":"da179edf-56e8-4999-af3e-e5722ef7c59c","system_id":"levelo_inurba_marseille","lat":43.309589,"lon":5.390258,"is_reserved":false,"is_disabled":false,"rental_uris":{"android":"levelo://app?vid=da179edf-56e8-4999-af3e-e5722ef7c59c","ios":"levelo://app?vid=da179edf-56e8-4999-af3e-e5722ef7c59c"},"vehicle_type_id":"4","last_reported":1715343185,"current_range_meters":10400,"station_id":"ce4bgup2rcd13ifvqco0","pricing_plan_id":"cebpf4jnsgd1na2vs0mg"},{"bike_id":"ff1b500e-3b3f-44c5-ba2a-1b701afc8198","system_id":"levelo_inurba_marseille","lat":43.30949,"lon":5.39042,"is_reserved":false,"is_disabled":false,"rental_uris":{"android":"levelo://app?vid=ff1b500e-3b3f-44c5-ba2a-1b701afc8198","ios":"levelo://app?vid=ff1b500e-3b3f-44c5-ba2a-1b701afc8198"},"vehicle_type_id":"4","last_reported":1715343185,"current_range_meters":0,"station_id":"ce4bgup2rcd13ifvqco0","pricing_plan_id":"cebpf4jnsgd1na2vs0mg"},{"bike_id":"9a987703-ef37-4c15-ae3e-2949e7f8f8f3","system_id":"levelo_inurba_marseille","lat":43.309589,"lon":5.390258,"is_reserved":false,"is_disabled":false,"rental_uris":{"android":"levelo://app?vid=9a987703-ef37-4c15-ae3e-2949e7f8f8f3","ios":"levelo://app?vid=9a987703-ef37-4c15-ae3e-2949e7f8f8f3"},"vehicle_type_id":"4","last_reported":1715343185,"current_range_meters":31600,"station_id":"ce4bgup2rcd13ifvqco0","pricing_plan_id":"cebpf4jnsgd1na2vs0mg"},{"bike_id":"3cda7343-c6a5-45fb-a446-ff0578a92ef7","system_id":"levelo_inurba_marseille","lat":43.296263,"lon":5.377094,"is_reserved":false,"is_disabled":false,"rental_uris":{"android":"levelo://app?vid=3cda7343-c6a5-45fb-a446-ff0578a92ef7","ios":"levelo://app?vid=3cda7343-c6a5-45fb-a446-ff0578a92ef7"},"vehicle_type_id":"4","last_reported":1715343185,"current_range_meters":30400,"station_id":"ce4bgi92rcd13ifvqb90","pricing_plan_id":"cebpf4jnsgd1na2vs0mg"},{"bike_id":"adbc988a-f9db-471d-a5df-2c9bf9eca648","system_id":"levelo_inurba_marseille","lat":43.295748,"lon":5.37522,"is_reserved":false,"is_disabled":false,"rental_uris":{"android":"levelo://app?vid=adbc988a-f9db-471d-a5df-2c9bf9eca648","ios":"levelo://app?vid=adbc988a-f9db-471d-a5df-2c9bf9eca648"},"vehicle_type_id":"4","last_reported":1715343185,"current_range_meters":4800,"station_id":"ce4bgh92rcd13ifvqb50","pricing_plan_id":"cebpf4jnsgd1na2vs0mg"},{"bike_id":"31c46685-223f-46d2-90a1-277db03f9e32","system_id":"levelo_inurba_marseille","lat":43.29572,"lon":5.37499,"is_reserved":false,"is_disabled":false,"rental_uris":{"android":"levelo://app?vid=31c46685-223f-46d2-90a1-277db03f9e32","ios":"levelo://app?vid=31c46685-223f-46d2-90a1-277db03f9e32"},"vehicle_type_id":"4","last_reported":1715343185,"current_range_meters":0,"station_id":"ce4bgh92rcd13ifvqb50","pricing_plan_id":"cebpf4jnsgd1na2vs0mg"},{"bike_id":"ff22f092-32d0-4994-8219-7eecb0dec1cb","system_id":"levelo_inurba_marseille","lat":43.295748,"lon":5.37522,"is_reserved":false,"is_disabled":false,"rental_uris":{"android":"levelo://app?vid=ff22f092-32d0-4994-8219-7eecb0dec1cb","ios":"levelo://app?vid=ff22f092-32d0-4994-8219-7eecb0dec1cb"},"vehicle_type_id":"4","last_reported":1715343185,"current_range_meters":2800,"station_id":"ce4bgh92rcd13ifvqb50","pricing_plan_id":"cebpf4jnsgd1na2vs0mg"},{"bike_id":"d0260c25-7e27-401f-90a8-f4a718323189","system_id":"levelo_inurba_marseille","lat":43.295279,"lon":5.375048,"is_reserved":false,"is_disabled":false,"rental_uris":{"android":"levelo://app?vid=d0260c25-7e27-401f-90a8-f4a718323189","ios":"levelo://app?vid=d0260c25-7e27-401f-90a8-f4a718323189"},"vehicle_type_id":"4","last_reported":1715343185,"current_range_meters":12800,"station_id":"ce4bgkp2rcd13ifvqbmg","pricing_plan_id":"cebpf4jnsgd1na2vs0mg"},{"bike_id":"7975004a-c011-4550-b08c-65484b245b1d","system_id":"levelo_inurba_marseille","lat":43.295279,"lon":5.375048,"is_reserved":false,"is_disabled":false,"rental_uris":{"android":"levelo://app?vid=7975004a-c011-4550-b08c-65484b245b1d","ios":"levelo://app?vid=7975004a-c011-4550-b08c-65484b245b1d"},"vehicle_type_id":"4","last_reported":1715343185,"current_range_meters":16400,"station_id":"ce4bgkp2rcd13ifvqbmg","pricing_plan_id":"cebpf4jnsgd1na2vs0mg"},{"bike_id":"78e8bb4d-e738-44a8-9798-b23f73df991f","system_id":"levelo_inurba_marseille","lat":43.2952,"lon":5.37504,"is_reserved":false,"is_disabled":false,"rental_uris":{"android":"levelo://app?vid=78e8bb4d-e738-44a8-9798-b23f73df991f","ios":"levelo://app?vid=78e8bb4d-e738-44a8-9798-b23f73df991f"},"vehicle_type_id":"4","last_reported":1715343185,"current_range_meters":0,"station_id":"ce4bgkp2rcd13ifvqbmg","pricing_plan_id":"cebpf4jnsgd1na2vs0mg"},{"bike_id":"0587e7a7-f2bc-4843-b533-6f21d342ed27","system_id":"levelo_inurba_marseille","lat":43.32367,"lon":5.388836,"is_reserved":false,"is_disabled":false,"rental_uris":{"android":"levelo://app?vid=0587e7a7-f2bc-4843-b533-6f21d342ed27","ios":"levelo://app?vid=0587e7a7-f2bc-4843-b533-6f21d342ed27"},"vehicle_type_id":"4","last_reported":1715343185,"current_range_meters":6400,"station_id":"ce4bhqp2rcd13ifvqhog","pricing_plan_id":"cebpf4jnsgd1na2vs0mg"},{"bike_id":"0d147fa7-f952-49c0-a0c1-e2f598332d50","system_id":"levelo_inurba_marseille","lat":43.29603,"lon":5.38107,"is_reserved":false,"is_disabled":false,"rental_uris":{"android":"levelo://app?vid=0d147fa7-f952-49c0-a0c1-e2f598332d50","ios":"levelo://app?vid=0d147fa7-f952-49c0-a0c1-e2f598332d50"},"vehicle_type_id":"4","last_reported":1715343185,"current_range_meters":13200,"station_id":"ce4bgl12rcd13ifvqbo0","pricing_plan_id":"cebpf4jnsgd1na2vs0mg"},{"bike_id":"a1f5dc5f-a90a-46f9-a8aa-3db52a457fa2","system_id":"levelo_inurba_marseille","lat":43.29593,"lon":5.38102,"is_reserved":false,"is_disabled":false,"rental_uris":{"android":"levelo://app?vid=a1f5dc5f-a90a-46f9-a8aa-3db52a457fa2","ios":"levelo://app?vid=a1f5dc5f-a90a-46f9-a8aa-3db52a457fa2"},"vehicle_type_id":"4","last_reported":1715343185,"current_range_meters":31600,"station_id":"ce4bgl12rcd13ifvqbo0","pricing_plan_id":"cebpf4jnsgd1na2vs0mg"},{"bike_id":"fb5c9c46-9941-4270-800f-b34a860d7b68","system_id":"levelo_inurba_marseille","lat":43.295903,"lon":5.381004,"is_reserved":false,"is_disabled":false,"rental_uris":{"android":"levelo://app?vid=fb5c9c46-9941-4270-800f-b34a860d7b68","ios":"levelo://app?vid=fb5c9c46-9941-4270-800f-b34a860d7b68"},"vehicle_type_id":"4","last_reported":1715343185,"current_range_meters":31200,"station_id":"ce4bgl12rcd13ifvqbo0","pricing_plan_id":"cebpf4jnsgd1na2vs0mg"},{"bike_id":"fbfa8182-7dcb-491b-ae0e-f0642c538db3","system_id":"levelo_inurba_marseille","lat":43.293259,"lon":5.371586,"is_reserved":false,"is_disabled":false,"rental_uris":{"android":"levelo://app?vid=fbfa8182-7dcb-491b-ae0e-f0642c538db3","ios":"levelo://app?vid=fbfa8182-7dcb-491b-ae0e-f0642c538db3"},"vehicle_type_id":"4","last_reported":1715343185,"current_range_meters":0,"station_id":"ce4bgh92rcd13ifvqb40","pricing_plan_id":"cebpf4jnsgd1na2vs0mg"},{"bike_id":"8a90e7e5-529d-4d1f-bed3-95ae58122de4","system_id":"levelo_inurba_marseille","lat":43.293259,"lon":5.371586,"is_reserved":false,"is_disabled":false,"rental_uris":{"android":"levelo://app?vid=8a90e7e5-529d-4d1f-bed3-95ae58122de4","ios":"levelo://app?vid=8a90e7e5-529d-4d1f-bed3-95ae58122de4"},"vehicle_type_id":"4","last_reported":1715343185,"current_range_meters":0,"station_id":"ce4bgh92rcd13ifvqb40","pricing_plan_id":"cebpf4jnsgd1na2vs0mg"},{"bike_id":"00c6623a-d056-4d39-8260-b42dd206eb4b","system_id":"levelo_inurba_marseille","lat":43.292705,"lon":5.368099,"is_reserved":false,"is_disabled":false,"rental_uris":{"android":"levelo://app?vid=00c6623a-d056-4d39-8260-b42dd206eb4b","ios":"levelo://app?vid=00c6623a-d056-4d39-8260-b42dd206eb4b"},"vehicle_type_id":"4","last_reported":1715343185,"current_range_meters":27600,"station_id":"ce4bhbp2rcd13ifvqesg","pricing_plan_id":"cebpf4jnsgd1na2vs0mg"},{"bike_id":"93457e40-9f6e-4ef0-9424-b412c04427fd","system_id":"levelo_inurba_marseille","lat":43.293009,"lon":5.374584,"is_reserved":false,"is_disabled":false,"rental_uris":{"android":"levelo://app?vid=93457e40-9f6e-4ef0-9424-b412c04427fd","ios":"levelo://app?vid=93457e40-9f6e-4ef0-9424-b412c04427fd"},"vehicle_type_id":"4","last_reported":1715343185,"current_range_meters":26000,"station_id":"ce4bgi12rcd13ifvqb70","pricing_plan_id":"cebpf4jnsgd1na2vs0mg"},{"bike_id":"00d2035e-b21f-4059-93ed-e3f1a7356f3d","system_id":"levelo_inurba_marseille","lat":43.305994,"lon":5.393687,"is_reserved":false,"is_disabled":false,"rental_uris":{"android":"levelo://app?vid=00d2035e-b21f-4059-93ed-e3f1a7356f3d","ios":"levelo://app?vid=00d2035e-b21f-4059-93ed-e3f1a7356f3d"},"vehicle_type_id":"4","last_reported":1715343185,"current_range_meters":29600,"station_id":"ce4bh0p2rcd13ifvqd80","pricing_plan_id":"cebpf4jnsgd1na2vs0mg"},{"bike_id":"11d92601-d0e6-43ea-927c-a238e013f39f","system_id":"levelo_inurba_marseille","lat":43.303002,"lon":5.392142,"is_reserved":false,"is_disabled":false,"rental_uris":{"android":"levelo://app?vid=11d92601-d0e6-43ea-927c-a238e013f39f","ios":"levelo://app?vid=11d92601-d0e6-43ea-927c-a238e013f39f"},"vehicle_type_id":"4","last_reported":1715343185,"current_range_meters":0,"station_id":"ce4bgkh2rcd13ifvqbk0","pricing_plan_id":"cebpf4jnsgd1na2vs0mg"},{"bike_id":"9b80c204-1803-47cb-946f-a80aaef798e8","system_id":"levelo_inurba_marseille","lat":43.29375,"lon":5.37862,"is_reserved":false,"is_disabled":false,"rental_uris":{"android":"levelo://app?vid=9b80c204-1803-47cb-946f-a80aaef798e8","ios":"levelo://app?vid=9b80c204-1803-47cb-946f-a80aaef798e8"},"vehicle_type_id":"4","last_reported":1715343185,"current_range_meters":0,"station_id":"ce4bgjh2rcd13ifvqbf0","pricing_plan_id":"cebpf4jnsgd1na2vs0mg"},{"bike_id":"49b49fdf-0efe-4165-bc93-c826fe8f25fe","system_id":"levelo_inurba_marseille","lat":43.2936,"lon":5.37835,"is_reserved":false,"is_disabled":false,"rental_uris":{"android":"levelo://app?vid=49b49fdf-0efe-4165-bc93-c826fe8f25fe","ios":"levelo://app?vid=49b49fdf-0efe-4165-bc93-c826fe8f25fe"},"vehicle_type_id":"4","last_reported":1715343185,"current_range_meters":6800,"station_id":"ce4bgjh2rcd13ifvqbf0","pricing_plan_id":"cebpf4jnsgd1na2vs0mg"},{"bike_id":"7d93e902-211b-4d43-96a6-4b45be51ae71","system_id":"levelo_inurba_marseille","lat":43.2936,"lon":5.37835,"is_reserved":false,"is_disabled":false,"rental_uris":{"android":"levelo://app?vid=7d93e902-211b-4d43-96a6-4b45be51ae71","ios":"levelo://app?vid=7d93e902-211b-4d43-96a6-4b45be51ae71"},"vehicle_type_id":"4","last_reported":1715343185,"current_range_meters":1200,"station_id":"ce4bgjh2rcd13ifvqbf0","pricing_plan_id":"cebpf4jnsgd1na2vs0mg"},{"bike_id":"bafe2399-c1f4-486e-9ff0-3f0581e9d57e","system_id":"levelo_inurba_marseille","lat":43.30085,"lon":5.390856,"is_reserved":false,"is_disabled":false,"rental_uris":{"android":"levelo://app?vid=bafe2399-c1f4-486e-9ff0-3f0581e9d57e","ios":"levelo://app?vid=bafe2399-c1f4-486e-9ff0-3f0581e9d57e"},"vehicle_type_id":"4","last_reported":1715343185,"current_range_meters":4400,"station_id":"ce4bh192rcd13ifvqdb0","pricing_plan_id":"cebpf4jnsgd1na2vs0mg"},{"bike_id":"da279b5c-7886-4502-8169-3c1a8b8f7e8a","system_id":"levelo_inurba_marseille","lat":43.292005,"lon":5.357875,"is_reserved":false,"is_disabled":false,"rental_uris":{"android":"levelo://app?vid=da279b5c-7886-4502-8169-3c1a8b8f7e8a","ios":"levelo://app?vid=da279b5c-7886-4502-8169-3c1a8b8f7e8a"},"vehicle_type_id":"4","last_reported":1715343185,"current_range_meters":0,"station_id":"ce4bhb12rcd13ifvqel0","pricing_plan_id":"cebpf4jnsgd1na2vs0mg"},{"bike_id":"8997612e-36be-45eb-9540-76938f45249d","system_id":"levelo_inurba_marseille","lat":43.292005,"lon":5.357875,"is_reserved":false,"is_disabled":false,"rental_uris":{"android":"levelo://app?vid=8997612e-36be-45eb-9540-76938f45249d","ios":"levelo://app?vid=8997612e-36be-45eb-9540-76938f45249d"},"vehicle_type_id":"4","last_reported":1715343185,"current_range_meters":9200,"station_id":"ce4bhb12rcd13ifvqel0","pricing_plan_id":"cebpf4jnsgd1na2vs0mg"},{"bike_id":"4caa7ff9-0282-4e58-8443-5cb0f6d094d4","system_id":"levelo_inurba_marseille","lat":43.309038,"lon":5.396546,"is_reserved":false,"is_disabled":false,"rental_uris":{"android":"levelo://app?vid=4caa7ff9-0282-4e58-8443-5cb0f6d094d4","ios":"levelo://app?vid=4caa7ff9-0282-4e58-8443-5cb0f6d094d4"},"vehicle_type_id":"4","last_reported":1715343185,"current_range_meters":29600,"station_id":"ce4bh012rcd13ifvqcv0","pricing_plan_id":"cebpf4jnsgd1na2vs0mg"},{"bike_id":"4c028033-8030-434f-9301-d896820a5b3b","system_id":"levelo_inurba_marseille","lat":43.292005,"lon":5.357875,"is_reserved":false,"is_disabled":false,"rental_uris":{"android":"levelo://app?vid=4c028033-8030-434f-9301-d896820a5b3b","ios":"levelo://app?vid=4c028033-8030-434f-9301-d896820a5b3b"},"vehicle_type_id":"4","last_reported":1715343185,"current_range_meters":15600,"station_id":"ce4bhb12rcd13ifvqel0","pricing_plan_id":"cebpf4jnsgd1na2vs0mg"},{"bike_id":"0b2b5533-95c8-44be-9057-4ea763c923b0","system_id":"levelo_inurba_marseille","lat":43.313291,"lon":5.396838,"is_reserved":false,"is_disabled":false,"rental_uris":{"android":"levelo://app?vid=0b2b5533-95c8-44be-9057-4ea763c923b0","ios":"levelo://app?vid=0b2b5533-95c8-44be-9057-4ea763c923b0"},"vehicle_type_id":"4","last_reported":1715343185,"current_range_meters":12400,"station_id":"ce4bgvp2rcd13ifvqcu0","pricing_plan_id":"cebpf4jnsgd1na2vs0mg"},{"bike_id":"f02fee11-d3f1-4b01-b6b1-e4829b33f2b8","system_id":"levelo_inurba_marseille","lat":43.291994,"lon":5.357886,"is_reserved":false,"is_disabled":false,"rental_uris":{"android":"levelo://app?vid=f02fee11-d3f1-4b01-b6b1-e4829b33f2b8","ios":"levelo://app?vid=f02fee11-d3f1-4b01-b6b1-e4829b33f2b8"},"vehicle_type_id":"4","last_reported":1715343185,"current_range_meters":27600,"station_id":"ce4bhb12rcd13ifvqel0","pricing_plan_id":"cebpf4jnsgd1na2vs0mg"},{"bike_id":"59f5ef54-533f-418c-8e08-ddef8e9cde29","system_id":"levelo_inurba_marseille","lat":43.313291,"lon":5.396838,"is_reserved":false,"is_disabled":false,"rental_uris":{"android":"levelo://app?vid=59f5ef54-533f-418c-8e08-ddef8e9cde29","ios":"levelo://app?vid=59f5ef54-533f-418c-8e08-ddef8e9cde29"},"vehicle_type_id":"4","last_reported":1715343185,"current_range_meters":17200,"station_id":"ce4bgvp2rcd13ifvqcu0","pricing_plan_id":"cebpf4jnsgd1na2vs0mg"},{"bike_id":"e6aa93ab-f505-4faa-94e4-e36f869e56ad","system_id":"levelo_inurba_marseille","lat":43.31331,"lon":5.39696,"is_reserved":false,"is_disabled":false,"rental_uris":{"android":"levelo://app?vid=e6aa93ab-f505-4faa-94e4-e36f869e56ad","ios":"levelo://app?vid=e6aa93ab-f505-4faa-94e4-e36f869e56ad"},"vehicle_type_id":"4","last_reported":1715343185,"current_range_meters":0,"station_id":"ce4bgvp2rcd13ifvqcu0","pricing_plan_id":"cebpf4jnsgd1na2vs0mg"},{"bike_id":"3cff9198-8536-482d-abba-ac4f6dbc9a92","system_id":"levelo_inurba_marseille","lat":43.309047,"lon":5.396551,"is_reserved":false,"is_disabled":false,"rental_uris":{"android":"levelo://app?vid=3cff9198-8536-482d-abba-ac4f6dbc9a92","ios":"levelo://app?vid=3cff9198-8536-482d-abba-ac4f6dbc9a92"},"vehicle_type_id":"4","last_reported":1715343185,"current_range_meters":23600,"station_id":"ce4bh012rcd13ifvqcv0","pricing_plan_id":"cebpf4jnsgd1na2vs0mg"},{"bike_id":"1357ea72-8235-47e6-8eb4-3557a8c30f02","system_id":"levelo_inurba_marseille","lat":43.29529,"lon":5.385581,"is_reserved":false,"is_disabled":false,"rental_uris":{"android":"levelo://app?vid=1357ea72-8235-47e6-8eb4-3557a8c30f02","ios":"levelo://app?vid=1357ea72-8235-47e6-8eb4-3557a8c30f02"},"vehicle_type_id":"4","last_reported":1715343185,"current_range_meters":5200,"station_id":"ce4bgih2rcd13ifvqba0","pricing_plan_id":"cebpf4jnsgd1na2vs0mg"},{"bike_id":"8bc71e52-59a5-4d21-986a-b1112e30ba0c","system_id":"levelo_inurba_marseille","lat":43.29529,"lon":5.385581,"is_reserved":false,"is_disabled":false,"rental_uris":{"android":"levelo://app?vid=8bc71e52-59a5-4d21-986a-b1112e30ba0c","ios":"levelo://app?vid=8bc71e52-59a5-4d21-986a-b1112e30ba0c"},"vehicle_type_id":"4","last_reported":1715343185,"current_range_meters":17600,"station_id":"ce4bgih2rcd13ifvqba0","pricing_plan_id":"cebpf4jnsgd1na2vs0mg"},{"bike_id":"5d1515ff-d10a-4b53-947f-e9c41578e960","system_id":"levelo_inurba_marseille","lat":43.290779,"lon":5.371482,"is_reserved":false,"is_disabled":false,"rental_uris":{"android":"levelo://app?vid=5d1515ff-d10a-4b53-947f-e9c41578e960","ios":"levelo://app?vid=5d1515ff-d10a-4b53-947f-e9c41578e960"},"vehicle_type_id":"4","last_reported":1715343185,"current_range_meters":25600,"station_id":"ce4bh5p2rcd13ifvqe4g","pricing_plan_id":"cebpf4jnsgd1na2vs0mg"},{"bike_id":"a73261b5-a2ad-43de-97f4-23c035dd1617","system_id":"levelo_inurba_marseille","lat":43.289635,"lon":5.366831,"is_reserved":false,"is_disabled":false,"rental_uris":{"android":"levelo://app?vid=a73261b5-a2ad-43de-97f4-23c035dd1617","ios":"levelo://app?vid=a73261b5-a2ad-43de-97f4-23c035dd1617"},"vehicle_type_id":"4","last_reported":1715343185,"current_range_meters":0,"station_id":"ce4bhap2rcd13ifvqek0","pricing_plan_id":"cebpf4jnsgd1na2vs0mg"},{"bike_id":"8039bc5a-03bb-4ec1-8cc2-59b7d213b563","system_id":"levelo_inurba_marseille","lat":43.290387,"lon":5.375753,"is_reserved":false,"is_disabled":false,"rental_uris":{"android":"levelo://app?vid=8039bc5a-03bb-4ec1-8cc2-59b7d213b563","ios":"levelo://app?vid=8039bc5a-03bb-4ec1-8cc2-59b7d213b563"},"vehicle_type_id":"4","last_reported":1715343185,"current_range_meters":3600,"station_id":"ce4bh692rcd13ifvqe90","pricing_plan_id":"cebpf4jnsgd1na2vs0mg"},{"bike_id":"55ace7f1-0146-4e55-9cf1-4cce1ddae79e","system_id":"levelo_inurba_marseille","lat":43.294162,"lon":5.386292,"is_reserved":false,"is_disabled":false,"rental_uris":{"android":"levelo://app?vid=55ace7f1-0146-4e55-9cf1-4cce1ddae79e","ios":"levelo://app?vid=55ace7f1-0146-4e55-9cf1-4cce1ddae79e"},"vehicle_type_id":"4","last_reported":1715343185,"current_range_meters":25600,"station_id":"ce4bh2h2rcd13ifvqdh0","pricing_plan_id":"cebpf4jnsgd1na2vs0mg"},{"bike_id":"c4c8dd7d-a32d-4d44-918e-0a6396d75749","system_id":"levelo_inurba_marseille","lat":43.29036,"lon":5.37576,"is_reserved":false,"is_disabled":false,"rental_uris":{"android":"levelo://app?vid=c4c8dd7d-a32d-4d44-918e-0a6396d75749","ios":"levelo://app?vid=c4c8dd7d-a32d-4d44-918e-0a6396d75749"},"vehicle_type_id":"4","last_reported":1715343185,"current_range_meters":14000,"station_id":"ce4bh692rcd13ifvqe90","pricing_plan_id":"cebpf4jnsgd1na2vs0mg"},{"bike_id":"23af1ce9-1dda-4ec7-bd89-410deb6bf371","system_id":"levelo_inurba_marseille","lat":43.289451,"lon":5.366368,"is_reserved":false,"is_disabled":false,"rental_uris":{"android":"levelo://app?vid=23af1ce9-1dda-4ec7-bd89-410deb6bf371","ios":"levelo://app?vid=23af1ce9-1dda-4ec7-bd89-410deb6bf371"},"vehicle_type_id":"4","last_reported":1715343185,"current_range_meters":0,"station_id":"ce4bhap2rcd13ifvqek0","pricing_plan_id":"cebpf4jnsgd1na2vs0mg"},{"bike_id":"ab09a223-5481-4da9-a56a-6e9d6263212e","system_id":"levelo_inurba_marseille","lat":43.289444,"lon":5.366501,"is_reserved":false,"is_disabled":false,"rental_uris":{"android":"levelo://app?vid=ab09a223-5481-4da9-a56a-6e9d6263212e","ios":"levelo://app?vid=ab09a223-5481-4da9-a56a-6e9d6263212e"},"vehicle_type_id":"4","last_reported":1715343185,"current_range_meters":26000,"station_id":"","pricing_plan_id":"cebpf4jnsgd1na2vs0mg"},{"bike_id":"85063b58-c6b8-47e8-9d33-7ec2784757bf","system_id":"levelo_inurba_marseille","lat":43.28944,"lon":5.36638,"is_reserved":false,"is_disabled":false,"rental_uris":{"android":"levelo://app?vid=85063b58-c6b8-47e8-9d33-7ec2784757bf","ios":"levelo://app?vid=85063b58-c6b8-47e8-9d33-7ec2784757bf"},"vehicle_type_id":"4","last_reported":1715343185,"current_range_meters":0,"station_id":"ce4bhap2rcd13ifvqek0","pricing_plan_id":"cebpf4jnsgd1na2vs0mg"},{"bike_id":"04552235-8e1f-477f-a28d-821f8829eae9","system_id":"levelo_inurba_marseille","lat":43.289468,"lon":5.363719,"is_reserved":false,"is_disabled":false,"rental_uris":{"android":"levelo://app?vid=04552235-8e1f-477f-a28d-821f8829eae9","ios":"levelo://app?vid=04552235-8e1f-477f-a28d-821f8829eae9"},"vehicle_type_id":"4","last_reported":1715343185,"current_range_meters":6400,"station_id":"ce4bhc92rcd13ifvqetg","pricing_plan_id":"cebpf4jnsgd1na2vs0mg"},{"bike_id":"da8ca0b2-7915-4d93-932f-67421adcbd41","system_id":"levelo_inurba_marseille","lat":43.304274,"lon":5.397513,"is_reserved":false,"is_disabled":false,"rental_uris":{"android":"levelo://app?vid=da8ca0b2-7915-4d93-932f-67421adcbd41","ios":"levelo://app?vid=da8ca0b2-7915-4d93-932f-67421adcbd41"},"vehicle_type_id":"4","last_reported":1715343185,"current_range_meters":9200,"station_id":"ce4bh092rcd13ifvqd20","pricing_plan_id":"cebpf4jnsgd1na2vs0mg"},{"bike_id":"2a68e5a1-3fb5-420d-8e50-09162f39d2d1","system_id":"levelo_inurba_marseille","lat":43.292642,"lon":5.384254,"is_reserved":false,"is_disabled":false,"rental_uris":{"android":"levelo://app?vid=2a68e5a1-3fb5-420d-8e50-09162f39d2d1","ios":"levelo://app?vid=2a68e5a1-3fb5-420d-8e50-09162f39d2d1"},"vehicle_type_id":"4","last_reported":1715343185,"current_range_meters":28400,"station_id":"ce4bh692rcd13ifvqea0","pricing_plan_id":"cebpf4jnsgd1na2vs0mg"},{"bike_id":"cfce8d46-aaec-4ad3-a2c0-21c9d2025b5d","system_id":"levelo_inurba_marseille","lat":43.292644,"lon":5.384257,"is_reserved":false,"is_disabled":false,"rental_uris":{"android":"levelo://app?vid=cfce8d46-aaec-4ad3-a2c0-21c9d2025b5d","ios":"levelo://app?vid=cfce8d46-aaec-4ad3-a2c0-21c9d2025b5d"},"vehicle_type_id":"4","last_reported":1715343185,"current_range_meters":0,"station_id":"ce4bh692rcd13ifvqea0","pricing_plan_id":"cebpf4jnsgd1na2vs0mg"},{"bike_id":"eb36e49c-6658-4b93-a43f-905c4fe0fd7b","system_id":"levelo_inurba_marseille","lat":43.290104,"lon":5.356111,"is_reserved":false,"is_disabled":false,"rental_uris":{"android":"levelo://app?vid=eb36e49c-6658-4b93-a43f-905c4fe0fd7b","ios":"levelo://app?vid=eb36e49c-6658-4b93-a43f-905c4fe0fd7b"},"vehicle_type_id":"4","last_reported":1715343185,"current_range_meters":14800,"station_id":"ce4bhb92rcd13ifvqen0","pricing_plan_id":"cebpf4jnsgd1na2vs0mg"},{"bike_id":"c547c507-9d8b-4b2a-b05d-a0c700dd41c5","system_id":"levelo_inurba_marseille","lat":43.290104,"lon":5.356111,"is_reserved":false,"is_disabled":false,"rental_uris":{"android":"levelo://app?vid=c547c507-9d8b-4b2a-b05d-a0c700dd41c5","ios":"levelo://app?vid=c547c507-9d8b-4b2a-b05d-a0c700dd41c5"},"vehicle_type_id":"4","last_reported":1715343185,"current_range_meters":0,"station_id":"ce4bhb92rcd13ifvqen0","pricing_plan_id":"cebpf4jnsgd1na2vs0mg"},{"bike_id":"701aedf2-1e02-4fd6-9486-b2faf12d32ad","system_id":"levelo_inurba_marseille","lat":43.290104,"lon":5.356111,"is_reserved":false,"is_disabled":false,"rental_uris":{"android":"levelo://app?vid=701aedf2-1e02-4fd6-9486-b2faf12d32ad","ios":"levelo://app?vid=701aedf2-1e02-4fd6-9486-b2faf12d32ad"},"vehicle_type_id":"4","last_reported":1715343185,"current_range_meters":24800,"station_id":"ce4bhb92rcd13ifvqen0","pricing_plan_id":"cebpf4jnsgd1na2vs0mg"},{"bike_id":"db389d8b-8b55-463e-9e50-e44f5053c666","system_id":"levelo_inurba_marseille","lat":43.290103,"lon":5.356114,"is_reserved":false,"is_disabled":false,"rental_uris":{"android":"levelo://app?vid=db389d8b-8b55-463e-9e50-e44f5053c666","ios":"levelo://app?vid=db389d8b-8b55-463e-9e50-e44f5053c666"},"vehicle_type_id":"4","last_reported":1715343185,"current_range_meters":12800,"station_id":"ce4bhb92rcd13ifvqen0","pricing_plan_id":"cebpf4jnsgd1na2vs0mg"},{"bike_id":"77f0c343-eeaf-4932-9f2a-44cb52949fba","system_id":"levelo_inurba_marseille","lat":43.290995,"lon":5.381361,"is_reserved":false,"is_disabled":false,"rental_uris":{"android":"levelo://app?vid=77f0c343-eeaf-4932-9f2a-44cb52949fba","ios":"levelo://app?vid=77f0c343-eeaf-4932-9f2a-44cb52949fba"},"vehicle_type_id":"4","last_reported":1715343185,"current_range_meters":3200,"station_id":"ce4bh512rcd13ifvqe2g","pricing_plan_id":"cebpf4jnsgd1na2vs0mg"},{"bike_id":"81bf1126-174d-4612-8e08-2225c51e239b","system_id":"levelo_inurba_marseille","lat":43.290995,"lon":5.381361,"is_reserved":false,"is_disabled":false,"rental_uris":{"android":"levelo://app?vid=81bf1126-174d-4612-8e08-2225c51e239b","ios":"levelo://app?vid=81bf1126-174d-4612-8e08-2225c51e239b"},"vehicle_type_id":"4","last_reported":1715343185,"current_range_meters":12800,"station_id":"ce4bh512rcd13ifvqe2g","pricing_plan_id":"cebpf4jnsgd1na2vs0mg"},{"bike_id":"dd893c40-1c1e-4574-bda7-1c2990cc91a3","system_id":"levelo_inurba_marseille","lat":43.28989,"lon":5.35605,"is_reserved":false,"is_disabled":false,"rental_uris":{"android":"levelo://app?vid=dd893c40-1c1e-4574-bda7-1c2990cc91a3","ios":"levelo://app?vid=dd893c40-1c1e-4574-bda7-1c2990cc91a3"},"vehicle_type_id":"4","last_reported":1715343185,"current_range_meters":0,"station_id":"ce4bhb92rcd13ifvqen0","pricing_plan_id":"cebpf4jnsgd1na2vs0mg"},{"bike_id":"6a23ad25-3869-4f28-a8ba-f5b431e487b5","system_id":"levelo_inurba_marseille","lat":43.295169,"lon":5.390426,"is_reserved":false,"is_disabled":false,"rental_uris":{"android":"levelo://app?vid=6a23ad25-3869-4f28-a8ba-f5b431e487b5","ios":"levelo://app?vid=6a23ad25-3869-4f28-a8ba-f5b431e487b5"},"vehicle_type_id":"4","last_reported":1715343185,"current_range_meters":27600,"station_id":"ce4bh3p2rcd13ifvqdp0","pricing_plan_id":"cebpf4jnsgd1na2vs0mg"},{"bike_id":"f16d97ab-7ef0-4154-806c-9ef5ff6cf268","system_id":"levelo_inurba_marseille","lat":43.289743,"lon":5.378304,"is_reserved":false,"is_disabled":false,"rental_uris":{"android":"levelo://app?vid=f16d97ab-7ef0-4154-806c-9ef5ff6cf268","ios":"levelo://app?vid=f16d97ab-7ef0-4154-806c-9ef5ff6cf268"},"vehicle_type_id":"4","last_reported":1715343185,"current_range_meters":0,"station_id":"ce4bh9p2rcd13ifvqed0","pricing_plan_id":"cebpf4jnsgd1na2vs0mg"},{"bike_id":"3c641496-3644-4527-b9ed-29ecfd54e14c","system_id":"levelo_inurba_marseille","lat":43.295169,"lon":5.390426,"is_reserved":false,"is_disabled":false,"rental_uris":{"android":"levelo://app?vid=3c641496-3644-4527-b9ed-29ecfd54e14c","ios":"levelo://app?vid=3c641496-3644-4527-b9ed-29ecfd54e14c"},"vehicle_type_id":"4","last_reported":1715343185,"current_range_meters":0,"station_id":"ce4bh3p2rcd13ifvqdp0","pricing_plan_id":"cebpf4jnsgd1na2vs0mg"},{"bike_id":"b61eb8cf-2c36-4d2d-a034-476b67a196b1","system_id":"levelo_inurba_marseille","lat":43.295169,"lon":5.390426,"is_reserved":false,"is_disabled":false,"rental_uris":{"android":"levelo://app?vid=b61eb8cf-2c36-4d2d-a034-476b67a196b1","ios":"levelo://app?vid=b61eb8cf-2c36-4d2d-a034-476b67a196b1"},"vehicle_type_id":"4","last_reported":1715343185,"current_range_meters":400,"station_id":"ce4bh3p2rcd13ifvqdp0","pricing_plan_id":"cebpf4jnsgd1na2vs0mg"},{"bike_id":"7efe3def-c9bb-493a-a616-b1de777fa85a","system_id":"levelo_inurba_marseille","lat":43.289743,"lon":5.378304,"is_reserved":false,"is_disabled":false,"rental_uris":{"android":"levelo://app?vid=7efe3def-c9bb-493a-a616-b1de777fa85a","ios":"levelo://app?vid=7efe3def-c9bb-493a-a616-b1de777fa85a"},"vehicle_type_id":"4","last_reported":1715343185,"current_range_meters":2000,"station_id":"ce4bh9p2rcd13ifvqed0","pricing_plan_id":"cebpf4jnsgd1na2vs0mg"},{"bike_id":"c24b2134-c59f-4472-8b55-e9c351b29417","system_id":"levelo_inurba_marseille","lat":43.28968,"lon":5.37842,"is_reserved":false,"is_disabled":false,"rental_uris":{"android":"levelo://app?vid=c24b2134-c59f-4472-8b55-e9c351b29417","ios":"levelo://app?vid=c24b2134-c59f-4472-8b55-e9c351b29417"},"vehicle_type_id":"4","last_reported":1715343185,"current_range_meters":0,"station_id":"ce4bh9p2rcd13ifvqed0","pricing_plan_id":"cebpf4jnsgd1na2vs0mg"},{"bike_id":"5ab184c0-b1d8-49c1-9e77-7b643f52e079","system_id":"levelo_inurba_marseille","lat":43.2901,"lon":5.381269,"is_reserved":false,"is_disabled":false,"rental_uris":{"android":"levelo://app?vid=5ab184c0-b1d8-49c1-9e77-7b643f52e079","ios":"levelo://app?vid=5ab184c0-b1d8-49c1-9e77-7b643f52e079"},"vehicle_type_id":"4","last_reported":1715343185,"current_range_meters":26800,"station_id":"ce4bh4p2rcd13ifvqe1g","pricing_plan_id":"cebpf4jnsgd1na2vs0mg"},{"bike_id":"79ddd039-4774-4871-9395-a038a400ae81","system_id":"levelo_inurba_marseille","lat":43.28856,"lon":5.358371,"is_reserved":false,"is_disabled":false,"rental_uris":{"android":"levelo://app?vid=79ddd039-4774-4871-9395-a038a400ae81","ios":"levelo://app?vid=79ddd039-4774-4871-9395-a038a400ae81"},"vehicle_type_id":"4","last_reported":1715343185,"current_range_meters":23200,"station_id":"ce4bhb12rcd13ifvqem0","pricing_plan_id":"cebpf4jnsgd1na2vs0mg"},{"bike_id":"a6fe3be9-2ae1-42ce-9d62-911bb3dea5fa","system_id":"levelo_inurba_marseille","lat":43.28856,"lon":5.358371,"is_reserved":false,"is_disabled":false,"rental_uris":{"android":"levelo://app?vid=a6fe3be9-2ae1-42ce-9d62-911bb3dea5fa","ios":"levelo://app?vid=a6fe3be9-2ae1-42ce-9d62-911bb3dea5fa"},"vehicle_type_id":"4","last_reported":1715343185,"current_range_meters":32000,"station_id":"ce4bhb12rcd13ifvqem0","pricing_plan_id":"cebpf4jnsgd1na2vs0mg"},