{"last_updated":1721146150,"ttl":30,"version":"2.2","data":{"bikes":[{"bike_id":"9a19b204-33dc-45b3-a4c8-692ea94ab490","system_id":"levelo_inurba_marseille","lat":43.30625,"lon":5.36574,"is_reserved":false,"is_disabled":false,"rental_uris":{"android":"levelo://app?vid=9a19b204-33dc-45b3-a4c8-692ea94ab490","ios":"levelo://app?vid=9a19b204-33dc-45b3-a4c8-692ea94ab490"},"vehicle_type_id":"4","last_reported":1721146150,"current_range_meters":18800,"station_id":"","pricing_plan_id":"cebpf4jnsgd1na2vs0mg"},{"bike_id":"51f696a8-5b48-43ef-9d51-00c054627931","system_id":"levelo_inurba_marseille","lat":43.30548,"lon":5.36538,"is_reserved":false,"is_disabled":false,"rental_uris":{"android":"levelo://app?vid=51f696a8-5b48-43ef-9d51-00c054627931","ios":"levelo://app?vid=51f696a8-5b48-43ef-9d51-00c054627931"},"vehicle_type_id":"4","last_reported":1721146150,"current_range_meters":27200,"station_id":"ce4bgs12rcd13ifvqcag","pricing_plan_id":"cebpf4jnsgd1na2vs0mg"},{"bike_id":"aa9d151f-7337-4d9b-9309-e41c6f060b6a","system_id":"levelo_inurba_marseille","lat":43.31115,"lon":5.37766,"is_reserved":false,"is_disabled":false,"rental_uris":{"android":"levelo://app?vid=aa9d151f-7337-4d9b-9309-e41c6f060b6a","ios":"levelo://app?vid=aa9d151f-7337-4d9b-9309-e41c6f060b6a"},"vehicle_type_id":"4","last_reported":1721146150,"current_range_meters":0,"station_id":"ce4bgt92rcd13ifvqcg0","pricing_plan_id":"cebpf4jnsgd1na2vs0mg"},{"bike_id":"2a402113-08ff-4557-9986-26b32491335a","system_id":"levelo_inurba_marseille","lat":43.311131,"lon":5.377651,"is_reserved":false,"is_disabled":false,"rental_uris":{"android":"levelo://app?vid=2a402113-08ff-4557-9986-26b32491335a","ios":"levelo://app?vid=2a402113-08ff-4557-9986-26b32491335a"},"vehicle_type_id":"4","last_reported":1721146150,"current_range_meters":26800,"station_id":"ce4bgt92rcd13ifvqcg0","pricing_plan_id":"cebpf4jnsgd1na2vs0mg"},{"bike_id":"89656fc8-1715-44e4-a268-fbe838454d27","system_id":"levelo_inurba_marseille","lat":43.3112,"lon":5.377718,"is_reserved":false,"is_disabled":false,"rental_uris":{"android":"levelo://app?vid=89656fc8-1715-44e4-a268-fbe838454d27","ios":"levelo://app?vid=89656fc8-1715-44e4-a268-fbe838454d27"},"vehicle_type_id":"4","last_reported":1721146150,"current_range_meters":0,"station_id":"ce4bgt92rcd13ifvqcg0","pricing_plan_id":"cebpf4jnsgd1na2vs0mg"},{"bike_id":"e1082ece-e71f-4145-9920-09051b675513","system_id":"levelo_inurba_marseille","lat":43.311346,"lon":5.377767,"is_reserved":false,"is_disabled":false,"rental_uris":{"android":"levelo://app?vid=e1082ece-e71f-4145-9920-09051b675513","ios":"levelo://app?vid=e1082ece-e71f-4145-9920-09051b675513"},"vehicle_type_id":"4","last_reported":1721146150,"current_range_meters":16000,"station_id":"","pricing_plan_id":"cebpf4jnsgd1na2vs0mg"},{"bike_id":"2ac44eaf-61d3-4b90-8b82-f4397bfd4ac6","system_id":"levelo_inurba_marseille","lat":43.311131,"lon":5.377651,"is_reserved":false,"is_disabled":false,"rental_uris":{"android":"levelo://app?vid=2ac44eaf-61d3-4b90-8b82-f4397bfd4ac6","ios":"levelo://app?vid=2ac44eaf-61d3-4b90-8b82-f4397bfd4ac6"},"vehicle_type_id":"4","last_reported":1721146150,"current_range_meters":22400,"station_id":"ce4bgt92rcd13ifvqcg0","pricing_plan_id":"cebpf4jnsgd1na2vs0mg"},{"bike_id":"13e6a5db-95c2-4fbb-bac1-7247a01de470","system_id":"levelo_inurba_marseille","lat":43.307945,"lon":5.376487,"is_reserved":false,"is_disabled":false,"rental_uris":{"android":"levelo://app?vid=13e6a5db-95c2-4fbb-bac1-7247a01de470","ios":"levelo://app?vid=13e6a5db-95c2-4fbb-bac1-7247a01de470"},"vehicle_type_id":"4","last_reported":1721146150,"current_range_meters":29600,"station_id":"ce4bgv92rcd13ifvqcq0","pricing_plan_id":"cebpf4jnsgd1na2vs0mg"},{"bike_id":"d89e05d4-1ec6-48f1-948b-bbca82680765","system_id":"levelo_inurba_marseille","lat":43.30911,"lon":5.38032,"is_reserved":false,"is_disabled":false,"rental_uris":{"android":"levelo://app?vid=d89e05d4-1ec6-48f1-948b-bbca82680765","ios":"levelo://app?vid=d89e05d4-1ec6-48f1-948b-bbca82680765"},"vehicle_type_id":"4","last_reported":1721146150,"current_range_meters":4400,"station_id":"","pricing_plan_id":"cebpf4jnsgd1na2vs0mg"},{"bike_id":"501e95b0-a3c7-4431-ad00-91e66ce4ecd1","system_id":"levelo_inurba_marseille","lat":43.308012,"lon":5.381511,"is_reserved":false,"is_disabled":false,"rental_uris":{"android":"levelo://app?vid=501e95b0-a3c7-4431-ad00-91e66ce4ecd1","ios":"levelo://app?vid=501e95b0-a3c7-4431-ad00-91e66ce4ecd1"},"vehicle_type_id":"4","last_reported":1721146150,"current_range_meters":0,"station_id":"ce4bgt12rcd13ifvqce0","pricing_plan_id":"cebpf4jnsgd1na2vs0mg"},{"bike_id":"5d417f71-4370-47e6-ad6c-0405913e0cef","system_id":"levelo_inurba_marseille","lat":43.308012,"lon":5.381511,"is_reserved":false,"is_disabled":false,"rental_uris":{"android":"levelo://app?vid=5d417f71-4370-47e6-ad6c-0405913e0cef","ios":"levelo://app?vid=5d417f71-4370-47e6-ad6c-0405913e0cef"},"vehicle_type_id":"4","last_reported":1721146150,"current_range_meters":10000,"station_id":"ce4bgt12rcd13ifvqce0","pricing_plan_id":"cebpf4jnsgd1na2vs0mg"},{"bike_id":"89f8717d-da34-4d37-aa12-12503fa36189","system_id":"levelo_inurba_marseille","lat":43.324771,"lon":5.36557,"is_reserved":false,"is_disabled":false,"rental_uris":{"android":"levelo://app?vid=89f8717d-da34-4d37-aa12-12503fa36189","ios":"levelo://app?vid=89f8717d-da34-4d37-aa12-12503fa36189"},"vehicle_type_id":"4","last_reported":1721146150,"current_range_meters":28000,"station_id":"ce4bhs12rcd13ifvqhvg","pricing_plan_id":"cebpf4jnsgd1na2vs0mg"},{"bike_id":"d5974727-6022-472d-8788-664ca55524dd","system_id":"levelo_inurba_marseille","lat":43.324771,"lon":5.36557,"is_reserved":false,"is_disabled":false,"rental_uris":{"android":"levelo://app?vid=d5974727-6022-472d-8788-664ca55524dd","ios":"levelo://app?vid=d5974727-6022-472d-8788-664ca55524dd"},"vehicle_type_id":"4","last_reported":1721146150,"current_range_meters":0,"station_id":"ce4bhs12rcd13ifvqhvg","pricing_plan_id":"cebpf4jnsgd1na2vs0mg"},{"bike_id":"49b2293c-b060-43df-a016-470af1956e22","system_id":"levelo_inurba_marseille","lat":43.310804,"lon":5.38359,"is_reserved":false,"is_disabled":false,"rental_uris":{"android":"levelo://app?vid=49b2293c-b060-43df-a016-470af1956e22","ios":"levelo://app?vid=49b2293c-b060-43df-a016-470af1956e22"},"vehicle_type_id":"4","last_reported":1721146150,"current_range_meters":1200,"station_id":"ce4bgv92rcd13ifvqcr0","pricing_plan_id":"cebpf4jnsgd1na2vs0mg"},{"bike_id":"92e1b0e8-3341-48a7-b6db-34d93a22f5bf","system_id":"levelo_inurba_marseille","lat":43.317557,"lon":5.390173,"is_reserved":false,"is_disabled":false,"rental_uris":{"android":"levelo://app?vid=92e1b0e8-3341-48a7-b6db-34d93a22f5bf","ios":"levelo://app?vid=92e1b0e8-3341-48a7-b6db-34d93a22f5bf"},"vehicle_type_id":"4","last_reported":1721146150,"current_range_meters":6800,"station_id":"ce4bhqp2rcd13ifvqhng","pricing_plan_id":"cebpf4jnsgd1na2vs0mg"},{"bike_id":"b128c508-3dff-4e5e-83ce-08ba8fc809f5","system_id":"levelo_inurba_marseille","lat":43.313571,"lon":5.384829,"is_reserved":false,"is_disabled":false,"rental_uris":{"android":"levelo://app?vid=b128c508-3dff-4e5e-83ce-08ba8fc809f5","ios":"levelo://app?vid=b128c508-3dff-4e5e-83ce-08ba8fc809f5"},"vehicle_type_id":"4","last_reported":1721146150,"current_range_meters":14800,"station_id":"ce4bgt92rcd13ifvqcf0","pricing_plan_id":"cebpf4jnsgd1na2vs0mg"},{"bike_id":"ca73a6c2-11ad-4c39-b376-25a1a7808262","system_id":"levelo_inurba_marseille","lat":43.309395,"lon":5.38632,"is_reserved":false,"is_disabled":false,"rental_uris":{"android":"levelo://app?vid=ca73a6c2-11ad-4c39-b376-25a1a7808262","ios":"levelo://app?vid=ca73a6c2-11ad-4c39-b376-25a1a7808262"},"vehicle_type_id":"4","last_reported":1721146150,"current_range_meters":26000,"station_id":"","pricing_plan_id":"cebpf4jnsgd1na2vs0mg"},{"bike_id":"b5e9e298-e705-4dd6-8d9c-73d6685416be","system_id":"levelo_inurba_marseille","lat":43.305364,"lon":5.384119,"is_reserved":false,"is_disabled":false,"rental_uris":{"android":"levelo://app?vid=b5e9e298-e705-4dd6-8d9c-73d6685416be","ios":"levelo://app?vid=b5e9e298-e705-4dd6-8d9c-73d6685416be"},"vehicle_type_id":"4","last_reported":1721146150,"current_range_meters":4800,"station_id":"ce4bgg92rcd13ifvqb30","pricing_plan_id":"cebpf4jnsgd1na2vs0mg"},{"bike_id":"e40e9d74-0f10-4e60-85c6-e8f03a7d65de","system_id":"levelo_inurba_marseille","lat":43.298433,"lon":5.362774,"is_reserved":false,"is_disabled":false,"rental_uris":{"android":"levelo://app?vid=e40e9d74-0f10-4e60-85c6-e8f03a7d65de","ios":"levelo://app?vid=e40e9d74-0f10-4e60-85c6-e8f03a7d65de"},"vehicle_type_id":"4","last_reported":1721146150,"current_range_meters":9200,"station_id":"ce4bgpp2rcd13ifvqc3g","pricing_plan_id":"cebpf4jnsgd1na2vs0mg"},{"bike_id":"f186ca8b-78f9-477c-a46b-af30eba46d7c","system_id":"levelo_inurba_marseille","lat":43.299243,"lon":5.374807,"is_reserved":false,"is_disabled":false,"rental_uris":{"android":"levelo://app?vid=f186ca8b-78f9-477c-a46b-af30eba46d7c","ios":"levelo://app?vid=f186ca8b-78f9-477c-a46b-af30eba46d7c"},"vehicle_type_id":"4","last_reported":1721146150,"current_range_meters":0,"station_id":"ce4bgjh2rcd13ifvqbg0","pricing_plan_id":"cebpf4jnsgd1na2vs0mg"},{"bike_id":"d97be1d6-10df-47e5-b1ca-c45d629362e1","system_id":"levelo_inurba_marseille","lat":43.31171,"lon":5.38712,"is_reserved":false,"is_disabled":false,"rental_uris":{"android":"levelo://app?vid=d97be1d6-10df-47e5-b1ca-c45d629362e1","ios":"levelo://app?vid=d97be1d6-10df-47e5-b1ca-c45d629362e1"},"vehicle_type_id":"4","last_reported":1721146150,"current_range_meters":0,"station_id":"ce4bgv12rcd13ifvqcp0","pricing_plan_id":"cebpf4jnsgd1na2vs0mg"},{"bike_id":"1c69c7ff-ab68-4f65-a5ee-a6f544f23dcc","system_id":"levelo_inurba_marseille","lat":43.311722,"lon":5.387247,"is_reserved":false,"is_disabled":false,"rental_uris":{"android":"levelo://app?vid=1c69c7ff-ab68-4f65-a5ee-a6f544f23dcc","ios":"levelo://app?vid=1c69c7ff-ab68-4f65-a5ee-a6f544f23dcc"},"vehicle_type_id":"4","last_reported":1721146150,"current_range_meters":400,"station_id":"ce4bgv12rcd13ifvqcp0","pricing_plan_id":"cebpf4jnsgd1na2vs0mg"},{"bike_id":"309ac172-0086-4ad9-a818-86f4ae2a6409","system_id":"levelo_inurba_marseille","lat":43.311722,"lon":5.387247,"is_reserved":false,"is_disabled":false,"rental_uris":{"android":"levelo://app?vid=309ac172-0086-4ad9-a818-86f4ae2a6409","ios":"levelo://app?vid=309ac172-0086-4ad9-a818-86f4ae2a6409"},"vehicle_type_id":"4","last_reported":1721146150,"current_range_meters":0,"station_id":"ce4bgv12rcd13ifvqcp0","pricing_plan_id":"cebpf4jnsgd1na2vs0mg"},{"bike_id":"7597b9ea-4c6e-4cc0-85fb-e213bf6c7bca","system_id":"levelo_inurba_marseille","lat":43.32292,"lon":5.38268,"is_reserved":false,"is_disabled":false,"rental_uris":{"android":"levelo://app?vid=7597b9ea-4c6e-4cc0-85fb-e213bf6c7bca","ios":"levelo://app?vid=7597b9ea-4c6e-4cc0-85fb-e213bf6c7bca"},"vehicle_type_id":"4","last_reported":1721146150,"current_range_meters":24800,"station_id":"ce4bhr12rcd13ifvqhqg","pricing_plan_id":"cebpf4jnsgd1na2vs0mg"},{"bike_id":"56b0b953-2fb0-4fbc-a4a2-4bffb3e26635","system_id":"levelo_inurba_marseille","lat":43.297163,"lon":5.365866,"is_reserved":false,"is_disabled":false,"rental_uris":{"android":"levelo://app?vid=56b0b953-2fb0-4fbc-a4a2-4bffb3e26635","ios":"levelo://app?vid=56b0b953-2fb0-4fbc-a4a2-4bffb3e26635"},"vehicle_type_id":"4","last_reported":1721146150,"current_range_meters":0,"station_id":"ce4bgn12rcd13ifvqbt0","pricing_plan_id":"cebpf4jnsgd1na2vs0mg"},{"bike_id":"6d9837d0-d9a0-4c83-8892-bf3ab8ae35d8","system_id":"levelo_inurba_marseille","lat":43.29624,"lon":5.37177,"is_reserved":false,"is_disabled":false,"rental_uris":{"android":"levelo://app?vid=6d9837d0-d9a0-4c83-8892-bf3ab8ae35d8","ios":"levelo://app?vid=6d9837d0-d9a0-4c83-8892-bf3ab8ae35d8"},"vehicle_type_id":"4","last_reported":1721146150,"current_range_meters":18800,"station_id":"ce4bgnh2rcd13ifvqc0g","pricing_plan_id":"cebpf4jnsgd1na2vs0mg"},{"bike_id":"d15b1a99-6325-4d85-b40a-88abf7ebfdca","system_id":"levelo_inurba_marseille","lat":43.29573,"lon":5.367355,"is_reserved":false,"is_disabled":false,"rental_uris":{"android":"levelo://app?vid=d15b1a99-6325-4d85-b40a-88abf7ebfdca","ios":"levelo://app?vid=d15b1a99-6325-4d85-b40a-88abf7ebfdca"},"vehicle_type_id":"4","last_reported":1721146150,"current_range_meters":1200,"station_id":"ce4bgph2rcd13ifvqc2g","pricing_plan_id":"cebpf4jnsgd1na2vs0mg"},{"bike_id":"7da31d59-68ab-4bfe-a1d8-6841454596d2","system_id":"levelo_inurba_marseille","lat":43.296935,"lon":5.376544,"is_reserved":false,"is_disabled":false,"rental_uris":{"android":"levelo://app?vid=7da31d59-68ab-4bfe-a1d8-6841454596d2","ios":"levelo://app?vid=7da31d59-68ab-4bfe-a1d8-6841454596d2"},"vehicle_type_id":"4","last_reported":1721146150,"current_range_meters":0,"station_id":"ce4bgkh2rcd13ifvqbl0","pricing_plan_id":"cebpf4jnsgd1na2vs0mg"},{"bike_id":"e67e859c-c1a0-4ffa-9c57-65f18bb12c1a","system_id":"levelo_inurba_marseille","lat":43.317557,"lon":5.390173,"is_reserved":false,"is_disabled":false,"rental_uris":{"android":"levelo://app?vid=e67e859c-c1a0-4ffa-9c57-65f18bb12c1a","ios":"levelo://app?vid=e67e859c-c1a0-4ffa-9c57-65f18bb12c1a"},"vehicle_type_id":"4","last_reported":1721146150,"current_range_meters":13200,"station_id":"ce4bhqp2rcd13ifvqhng","pricing_plan_id":"cebpf4jnsgd1na2vs0mg"},{"bike_id":"5ad264c2-fcb9-4df4-84d3-debe323cc7dd","system_id":"levelo_inurba_marseille","lat":43.317557,"lon":5.390173,"is_reserved":false,"is_disabled":false,"rental_uris":{"android":"levelo://app?vid=5ad264c2-fcb9-4df4-84d3-debe323cc7dd","ios":"levelo://app?vid=5ad264c2-fcb9-4df4-84d3-debe323cc7dd"},"vehicle_type_id":"4","last_reported":1721146150,"current_range_meters":19600,"station_id":"ce4bhqp2rcd13ifvqhng","pricing_plan_id":"cebpf4jnsgd1na2vs0mg"},{"bike_id":"2656b470-adde-44d4-94ec-2bc12f2e31e7","system_id":"levelo_inurba_marseille","lat":43.295748,"lon":5.37522,"is_reserved":false,"is_disabled":false,"rental_uris":{"android":"levelo://app?vid=2656b470-adde-44d4-94ec-2bc12f2e31e7","ios":"levelo://app?vid=2656b470-adde-44d4-94ec-2bc12f2e31e7"},"vehicle_type_id":"4","last_reported":1721146150,"current_range_meters":0,"station_id":"ce4bgh92rcd13ifvqb50","pricing_plan_id":"cebpf4jnsgd1na2vs0mg"},{"bike_id":"a3480020-c0cb-4568-bd8f-0101108a8cc5","system_id":"levelo_inurba_marseille","lat":43.295841,"lon":5.375282,"is_reserved":false,"is_disabled":false,"rental_uris":{"android":"levelo://app?vid=a3480020-c0cb-4568-bd8f-0101108a8cc5","ios":"levelo://app?vid=a3480020-c0cb-4568-bd8f-0101108a8cc5"},"vehicle_type_id":"4","last_reported":1721146150,"current_range_meters":0,"station_id":"","pricing_plan_id":"cebpf4jnsgd1na2vs0mg"},{"bike_id":"b242a046-4eb6-4848-8b5e-94ed7278ee1a","system_id":"levelo_inurba_marseille","lat":43.304278,"lon":5.388868,"is_reserved":false,"is_disabled":false,"rental_uris":{"android":"levelo://app?vid=b242a046-4eb6-4848-8b5e-94ed7278ee1a","ios":"levelo://app?vid=b242a046-4eb6-4848-8b5e-94ed7278ee1a"},"vehicle_type_id":"4","last_reported":1721146150,"current_range_meters":13200,"station_id":"ce4bgk12rcd13ifvqbi0","pricing_plan_id":"cebpf4jnsgd1na2vs0mg"},{"bike_id":"e42c113e-0766-4dfb-bc24-d195efb144a1","system_id":"levelo_inurba_marseille","lat":43.295748,"lon":5.37522,"is_reserved":false,"is_disabled":false,"rental_uris":{"android":"levelo://app?vid=e42c113e-0766-4dfb-bc24-d195efb144a1","ios":"levelo://app?vid=e42c113e-0766-4dfb-bc24-d195efb144a1"},"vehicle_type_id":"4","last_reported":1721146150,"current_range_meters":0,"station_id":"ce4bgh92rcd13ifvqb50","pricing_plan_id":"cebpf4jnsgd1na2vs0mg"},{"bike_id":"239e0100-b84f-4d5b-85c7-945abfb4d8fa","system_id":"levelo_inurba_marseille","lat":43.29553,"lon":5.37723,"is_reserved":false,"is_disabled":false,"rental_uris":{"android":"levelo://app?vid=239e0100-b84f-4d5b-85c7-945abfb4d8fa","ios":"levelo://app?vid=239e0100-b84f-4d5b-85c7-945abfb4d8fa"},"vehicle_type_id":"4","last_reported":1721146150,"current_range_meters":4800,"station_id":"","pricing_plan_id":"cebpf4jnsgd1na2vs0mg"},{"bike_id":"feeed9a0-810e-4903-8537-c069eb064158","system_id":"levelo_inurba_marseille","lat":43.31552,"lon":5.39246,"is_reserved":false,"is_disabled":false,"rental_uris":{"android":"levelo://app?vid=feeed9a0-810e-4903-8537-c069eb064158","ios":"levelo://app?vid=feeed9a0-810e-4903-8537-c069eb064158"},"vehicle_type_id":"4","last_reported":1721146150,"current_range_meters":0,"station_id":"","pricing_plan_id":"cebpf4jnsgd1na2vs0mg"},{"bike_id":"cd2ec312-9de5-488d-b816-f4f566a595c1","system_id":"levelo_inurba_marseille","lat":43.317557,"lon":5.390173,"is_reserved":false,"is_disabled":false,"rental_uris":{"android":"levelo://app?vid=cd2ec312-9de5-488d-b816-f4f566a595c1","ios":"levelo://app?vid=cd2ec312-9de5-488d-b816-f4f566a595c1"},"vehicle_type_id":"4","last_reported":1721146150,"current_range_meters":28400,"station_id":"ce4bhqp2rcd13ifvqhng","pricing_plan_id":"cebpf4jnsgd1na2vs0mg"},{"bike_id":"af419e4e-507e-47a0-943b-04f3fe800bc0","system_id":"levelo_inurba_marseille","lat":43.293249,"lon":5.371578,"is_reserved":false,"is_disabled":false,"rental_uris":{"android":"levelo://app?vid=af419e4e-507e-47a0-943b-04f3fe800bc0","ios":"levelo://app?vid=af419e4e-507e-47a0-943b-04f3fe800bc0"},"vehicle_type_id":"4","last_reported":1721146150,"current_range_meters":6400,"station_id":"ce4bgh92rcd13ifvqb40","pricing_plan_id":"cebpf4jnsgd1na2vs0mg"},{"bike_id":"455e75d3-4a4e-4dde-b333-5ae7706defe5","system_id":"levelo_inurba_marseille","lat":43.293249,"lon":5.371578,"is_reserved":false,"is_disabled":false,"rental_uris":{"android":"levelo://app?vid=455e75d3-4a4e-4dde-b333-5ae7706defe5","ios":"levelo://app?vid=455e75d3-4a4e-4dde-b333-5ae7706defe5"},"vehicle_type_id":"4","last_reported":1721146150,"current_range_meters":400,"station_id":"ce4bgh92rcd13ifvqb40","pricing_plan_id":"cebpf4jnsgd1na2vs0mg"},{"bike_id":"567768d4-0eca-46aa-81ff-af91c2a0fe2c","system_id":"levelo_inurba_marseille","lat":43.293259,"lon":5.371586,"is_reserved":false,"is_disabled":false,"rental_uris":{"android":"levelo://app?vid=567768d4-0eca-46aa-81ff-af91c2a0fe2c","ios":"levelo://app?vid=567768d4-0eca-46aa-81ff-af91c2a0fe2c"},"vehicle_type_id":"4","last_reported":1721146150,"current_range_meters":800,"station_id":"ce4bgh92rcd13ifvqb40","pricing_plan_id":"cebpf4jnsgd1na2vs0mg"},{"bike_id":"79114ec9-255f-45e7-95c9-e9f245f0981a","system_id":"levelo_inurba_marseille","lat":43.29281,"lon":5.36837,"is_reserved":false,"is_disabled":false,"rental_uris":{"android":"levelo://app?vid=79114ec9-255f-45e7-95c9-e9f245f0981a","ios":"levelo://app?vid=79114ec9-255f-45e7-95c9-e9f245f0981a"},"vehicle_type_id":"4","last_reported":1721146150,"current_range_meters":23600,"station_id":"ce4bhbp2rcd13ifvqesg","pricing_plan_id":"cebpf4jnsgd1na2vs0mg"},{"bike_id":"d2c9f6c3-e05a-4663-aeb7-7d909b2b883d","system_id":"levelo_inurba_marseille","lat":43.292749,"lon":5.368402,"is_reserved":false,"is_disabled":false,"rental_uris":{"android":"levelo://app?vid=d2c9f6c3-e05a-4663-aeb7-7d909b2b883d","ios":"levelo://app?vid=d2c9f6c3-e05a-4663-aeb7-7d909b2b883d"},"vehicle_type_id":"4","last_reported":1721146150,"current_range_meters":0,"station_id":"ce4bhbp2rcd13ifvqesg","pricing_plan_id":"cebpf4jnsgd1na2vs0mg"},{"bike_id":"97d12ca0-fa39-4aeb-b9ab-fc1d6426f9dd","system_id":"levelo_inurba_marseille","lat":43.29275,"lon":5.36848,"is_reserved":false,"is_disabled":false,"rental_uris":{"android":"levelo://app?vid=97d12ca0-fa39-4aeb-b9ab-fc1d6426f9dd","ios":"levelo://app?vid=97d12ca0-fa39-4aeb-b9ab-fc1d6426f9dd"},"vehicle_type_id":"4","last_reported":1721146150,"current_range_meters":0,"station_id":"ce4bhbp2rcd13ifvqesg","pricing_plan_id":"cebpf4jnsgd1na2vs0mg"},{"bike_id":"162758f1-f3eb-424d-8602-894607c2d39f","system_id":"levelo_inurba_marseille","lat":43.303002,"lon":5.392142,"is_reserved":false,"is_disabled":false,"rental_uris":{"android":"levelo://app?vid=162758f1-f3eb-424d-8602-894607c2d39f","ios":"levelo://app?vid=162758f1-f3eb-424d-8602-894607c2d39f"},"vehicle_type_id":"4","last_reported":1721146150,"current_range_meters":3200,"station_id":"ce4bgkh2rcd13ifvqbk0","pricing_plan_id":"cebpf4jnsgd1na2vs0mg"},{"bike_id":"693f64f8-63f0-4da7-a8b8-e4cf5100915a","system_id":"levelo_inurba_marseille","lat":43.2936,"lon":5.37835,"is_reserved":false,"is_disabled":false,"rental_uris":{"android":"levelo://app?vid=693f64f8-63f0-4da7-a8b8-e4cf5100915a","ios":"levelo://app?vid=693f64f8-63f0-4da7-a8b8-e4cf5100915a"},"vehicle_type_id":"4","last_reported":1721146150,"current_range_meters":0,"station_id":"ce4bgjh2rcd13ifvqbf0","pricing_plan_id":"cebpf4jnsgd1na2vs0mg"},{"bike_id":"f24e7c2d-ae3a-4ce7-9475-43190f48a55b","system_id":"levelo_inurba_marseille","lat":43.29221,"lon":5.36071,"is_reserved":false,"is_disabled":false,"rental_uris":{"android":"levelo://app?vid=f24e7c2d-ae3a-4ce7-9475-43190f48a55b","ios":"levelo://app?vid=f24e7c2d-ae3a-4ce7-9475-43190f48a55b"},"vehicle_type_id":"4","last_reported":1721146150,"current_range_meters":0,"station_id":"ce4bhbh2rcd13ifvqeqg","pricing_plan_id":"cebpf4jnsgd1na2vs0mg"},{"bike_id":"3564f23e-e64a-4d5c-81d6-36be8a64717a","system_id":"levelo_inurba_marseille","lat":43.292311,"lon":5.360731,"is_reserved":false,"is_disabled":false,"rental_uris":{"android":"levelo://app?vid=3564f23e-e64a-4d5c-81d6-36be8a64717a","ios":"levelo://app?vid=3564f23e-e64a-4d5c-81d6-36be8a64717a"},"vehicle_type_id":"4","last_reported":1721146150,"current_range_meters":20800,"station_id":"ce4bhbh2rcd13ifvqeqg","pricing_plan_id":"cebpf4jnsgd1na2vs0mg"},{"bike_id":"f912c3c8-f0b7-4db8-bad2-4eca3790509c","system_id":"levelo_inurba_marseille","lat":43.29893,"lon":5.38886,"is_reserved":false,"is_disabled":false,"rental_uris":{"android":"levelo://app?vid=f912c3c8-f0b7-4db8-bad2-4eca3790509c","ios":"levelo://app?vid=f912c3c8-f0b7-4db8-bad2-4eca3790509c"},"vehicle_type_id":"4","last_reported":1721146150,"current_range_meters":0,"station_id":"ce4bh392rcd13ifvqdl0","pricing_plan_id":"cebpf4jnsgd1na2vs0mg"},{"bike_id":"8144a09e-bed7-49c4-b03a-c28a0bcfe1fe","system_id":"levelo_inurba_marseille","lat":43.292311,"lon":5.360731,"is_reserved":false,"is_disabled":false,"rental_uris":{"android":"levelo://app?vid=8144a09e-bed7-49c4-b03a-c28a0bcfe1fe","ios":"levelo://app?vid=8144a09e-bed7-49c4-b03a-c28a0bcfe1fe"},"vehicle_type_id":"4","last_reported":1721146150,"current_range_meters":0,"station_id":"ce4bhbh2rcd13ifvqeqg","pricing_plan_id":"cebpf4jnsgd1na2vs0mg"},{"bike_id":"aa9d931f-281a-4e1f-89ae-fc80b58e8366","system_id":"levelo_inurba_marseille","lat":43.291675,"lon":5.371583,"is_reserved":false,"is_disabled":false,"rental_uris":{"android":"levelo://app?vid=aa9d931f-281a-4e1f-89ae-fc80b58e8366","ios":"levelo://app?vid=aa9d931f-281a-4e1f-89ae-fc80b58e8366"},"vehicle_type_id":"4","last_reported":1721146150,"current_range_meters":26800,"station_id":"ce4bha92rcd13ifvqeh0","pricing_plan_id":"cebpf4jnsgd1na2vs0mg"},{"bike_id":"12b8459a-6a87-4648-bb13-5fdd4422523f","system_id":"levelo_inurba_marseille","lat":43.298764,"lon":5.388973,"is_reserved":false,"is_disabled":false,"rental_uris":{"android":"levelo://app?vid=12b8459a-6a87-4648-bb13-5fdd4422523f","ios":"levelo://app?vid=12b8459a-6a87-4648-bb13-5fdd4422523f"},"vehicle_type_id":"4","last_reported":1721146150,"current_range_meters":19200,"station_id":"ce4bh392rcd13ifvqdl0","pricing_plan_id":"cebpf4jnsgd1na2vs0mg"},{"bike_id":"685f29f8-4a9f-43de-a79b-00b2ae88f6d9","system_id":"levelo_inurba_marseille","lat":43.291671,"lon":5.371575,"is_reserved":false,"is_disabled":false,"rental_uris":{"android":"levelo://app?vid=685f29f8-4a9f-43de-a79b-00b2ae88f6d9","ios":"levelo://app?vid=685f29f8-4a9f-43de-a79b-00b2ae88f6d9"},"vehicle_type_id":"4","last_reported":1721146150,"current_range_meters":22000,"station_id":"ce4bha92rcd13ifvqeh0","pricing_plan_id":"cebpf4jnsgd1na2vs0mg"},{"bike_id":"d2eb49f7-53da-4dcb-ac0d-599273fd4122","system_id":"levelo_inurba_marseille","lat":43.298764,"lon":5.388973,"is_reserved":false,"is_disabled":false,"rental_uris":{"android":"levelo://app?vid=d2eb49f7-53da-4dcb-ac0d-599273fd4122","ios":"levelo://app?vid=d2eb49f7-53da-4dcb-ac0d-599273fd4122"},"vehicle_type_id":"4","last_reported":1721146150,"current_range_meters":0,"station_id":"ce4bh392rcd13ifvqdl0","pricing_plan_id":"cebpf4jnsgd1na2vs0mg"},{"bike_id":"952f932d-3a6e-4d1d-8b0c-ead2d2155ad9","system_id":"levelo_inurba_marseille","lat":43.292005,"lon":5.357875,"is_reserved":false,"is_disabled":false,"rental_uris":{"android":"levelo://app?vid=952f932d-3a6e-4d1d-8b0c-ead2d2155ad9","ios":"levelo://app?vid=952f932d-3a6e-4d1d-8b0c-ead2d2155ad9"},"vehicle_type_id":"4","last_reported":1721146150,"current_range_meters":6800,"station_id":"ce4bhb12rcd13ifvqel0","pricing_plan_id":"cebpf4jnsgd1na2vs0mg"},{"bike_id":"37817e8b-8f84-401c-80d7-ad79765bb891","system_id":"levelo_inurba_marseille","lat":43.291994,"lon":5.357886,"is_reserved":false,"is_disabled":false,"rental_uris":{"android":"levelo://app?vid=37817e8b-8f84-401c-80d7-ad79765bb891","ios":"levelo://app?vid=37817e8b-8f84-401c-80d7-ad79765bb891"},"vehicle_type_id":"4","last_reported":1721146150,"current_range_meters":12000,"station_id":"ce4bhb12rcd13ifvqel0","pricing_plan_id":"cebpf4jnsgd1na2vs0mg"},{"bike_id":"90e9e63c-f934-486b-b431-55b2081e9975","system_id":"levelo_inurba_marseille","lat":43.291994,"lon":5.357886,"is_reserved":false,"is_disabled":false,"rental_uris":{"android":"levelo://app?vid=90e9e63c-f934-486b-b431-55b2081e9975","ios":"levelo://app?vid=90e9e63c-f934-486b-b431-55b2081e9975"},"vehicle_type_id":"4","last_reported":1721146150,"current_range_meters":13600,"station_id":"ce4bhb12rcd13ifvqel0","pricing_plan_id":"cebpf4jnsgd1na2vs0mg"},{"bike_id":"d0e4b405-d452-4902-b91a-9783e8af68ba","system_id":"levelo_inurba_marseille","lat":43.291994,"lon":5.357886,"is_reserved":false,"is_disabled":false,"rental_uris":{"android":"levelo://app?vid=d0e4b405-d452-4902-b91a-9783e8af68ba","ios":"levelo://app?vid=d0e4b405-d452-4902-b91a-9783e8af68ba"},"vehicle_type_id":"4","last_reported":1721146150,"current_range_meters":0,"station_id":"ce4bhb12rcd13ifvqel0","pricing_plan_id":"cebpf4jnsgd1na2vs0mg"},{"bike_id":"85787c39-94a1-4926-b872-28c59dac7722","system_id":"levelo_inurba_marseille","lat":43.292005,"lon":5.357875,"is_reserved":false,"is_disabled":false,"rental_uris":{"android":"levelo://app?vid=85787c39-94a1-4926-b872-28c59dac7722","ios":"levelo://app?vid=85787c39-94a1-4926-b872-28c59dac7722"},"vehicle_type_id":"4","last_reported":1721146150,"current_range_meters":6800,"station_id":"ce4bhb12rcd13ifvqel0","pricing_plan_id":"cebpf4jnsgd1na2vs0mg"},{"bike_id":"84d351ee-e88f-4ffd-930f-b1c05a1de92f","system_id":"levelo_inurba_marseille","lat":43.292005,"lon":5.357875,"is_reserved":false,"is_disabled":false,"rental_uris":{"android":"levelo://app?vid=84d351ee-e88f-4ffd-930f-b1c05a1de92f","ios":"levelo://app?vid=84d351ee-e88f-4ffd-930f-b1c05a1de92f"},"vehicle_type_id":"4","last_reported":1721146150,"current_range_meters":17600,"station_id":"ce4bhb12rcd13ifvqel0","pricing_plan_id":"cebpf4jnsgd1na2vs0mg"},{"bike_id":"d09c312d-9ff3-4b63-b6ba-c24e53b8c00a","system_id":"levelo_inurba_marseille","lat":43.309038,"lon":5.396546,"is_reserved":false,"is_disabled":false,"rental_uris":{"android":"levelo://app?vid=d09c312d-9ff3-4b63-b6ba-c24e53b8c00a","ios":"levelo://app?vid=d09c312d-9ff3-4b63-b6ba-c24e53b8c00a"},"vehicle_type_id":"4","last_reported":1721146150,"current_range_meters":1200,"station_id":"ce4bh012rcd13ifvqcv0","pricing_plan_id":"cebpf4jnsgd1na2vs0mg"},{"bike_id":"3cdc5452-32f5-4bc3-87dc-4c548da6054f","system_id":"levelo_inurba_marseille","lat":43.313291,"lon":5.396838,"is_reserved":false,"is_disabled":false,"rental_uris":{"android":"levelo://app?vid=3cdc5452-32f5-4bc3-87dc-4c548da6054f","ios":"levelo://app?vid=3cdc5452-32f5-4bc3-87dc-4c548da6054f"},"vehicle_type_id":"4","last_reported":1721146150,"current_range_meters":2400,"station_id":"ce4bgvp2rcd13ifvqcu0","pricing_plan_id":"cebpf4jnsgd1na2vs0mg"},{"bike_id":"49fdcf1b-f0bf-47cb-9bea-98fe2342ef0b","system_id":"levelo_inurba_marseille","lat":43.29529,"lon":5.385581,"is_reserved":false,"is_disabled":false,"rental_uris":{"android":"levelo://app?vid=49fdcf1b-f0bf-47cb-9bea-98fe2342ef0b","ios":"levelo://app?vid=49fdcf1b-f0bf-47cb-9bea-98fe2342ef0b"},"vehicle_type_id":"4","last_reported":1721146150,"current_range_meters":800,"station_id":"ce4bgih2rcd13ifvqba0","pricing_plan_id":"cebpf4jnsgd1na2vs0mg"},{"bike_id":"0ae73193-1fc9-4c77-8566-2292420afae0","system_id":"levelo_inurba_marseille","lat":43.290098,"lon":5.367976,"is_reserved":false,"is_disabled":false,"rental_uris":{"android":"levelo://app?vid=0ae73193-1fc9-4c77-8566-2292420afae0","ios":"levelo://app?vid=0ae73193-1fc9-4c77-8566-2292420afae0"},"vehicle_type_id":"4","last_reported":1721146150,"current_range_meters":9600,"station_id":"","pricing_plan_id":"cebpf4jnsgd1na2vs0mg"},{"bike_id":"cacdc1b9-71af-4b98-897e-444d853cffea","system_id":"levelo_inurba_marseille","lat":43.290406,"lon":5.359101,"is_reserved":false,"is_disabled":false,"rental_uris":{"android":"levelo://app?vid=cacdc1b9-71af-4b98-897e-444d853cffea","ios":"levelo://app?vid=cacdc1b9-71af-4b98-897e-444d853cffea"},"vehicle_type_id":"4","last_reported":1721146150,"current_range_meters":0,"station_id":"ce4bha92rcd13ifvqeg0","pricing_plan_id":"cebpf4jnsgd1na2vs0mg"},{"bike_id":"0313392b-d31a-471f-a70a-195fbda67cbe","system_id":"levelo_inurba_marseille","lat":43.29426,"lon":5.38617,"is_reserved":false,"is_disabled":false,"rental_uris":{"android":"levelo://app?vid=0313392b-d31a-471f-a70a-195fbda67cbe","ios":"levelo://app?vid=0313392b-d31a-471f-a70a-195fbda67cbe"},"vehicle_type_id":"4","last_reported":1721146150,"current_range_meters":11200,"station_id":"ce4bhbh2rcd13ifvqepg","pricing_plan_id":"cebpf4jnsgd1na2vs0mg"},{"bike_id":"7e4e32e0-3b82-4a1a-b0d6-17627ba30752","system_id":"levelo_inurba_marseille","lat":43.294162,"lon":5.386292,"is_reserved":false,"is_disabled":false,"rental_uris":{"android":"levelo://app?vid=7e4e32e0-3b82-4a1a-b0d6-17627ba30752","ios":"levelo://app?vid=7e4e32e0-3b82-4a1a-b0d6-17627ba30752"},"vehicle_type_id":"4","last_reported":1721146150,"current_range_meters":25600,"station_id":"ce4bh2h2rcd13ifvqdh0","pricing_plan_id":"cebpf4jnsgd1na2vs0mg"},{"bike_id":"e14fcc67-ece8-43d4-9fa2-7cc9d4ad0c9e","system_id":"levelo_inurba_marseille","lat":43.294153,"lon":5.386305,"is_reserved":false,"is_disabled":false,"rental_uris":{"android":"levelo://app?vid=e14fcc67-ece8-43d4-9fa2-7cc9d4ad0c9e","ios":"levelo://app?vid=e14fcc67-ece8-43d4-9fa2-7cc9d4ad0c9e"},"vehicle_type_id":"4","last_reported":1721146150,"current_range_meters":12400,"station_id":"ce4bh2h2rcd13ifvqdh0","pricing_plan_id":"cebpf4jnsgd1na2vs0mg"},{"bike_id":"d06c99fd-ac05-48ca-ac8b-0c064bfd49b2","system_id":"levelo_inurba_marseille","lat":43.294153,"lon":5.386305,"is_reserved":false,"is_disabled":false,"rental_uris":{"android":"levelo://app?vid=d06c99fd-ac05-48ca-ac8b-0c064bfd49b2","ios":"levelo://app?vid=d06c99fd-ac05-48ca-ac8b-0c064bfd49b2"},"vehicle_type_id":"4","last_reported":1721146150,"current_range_meters":26400,"station_id":"ce4bh2h2rcd13ifvqdh0","pricing_plan_id":"cebpf4jnsgd1na2vs0mg"},{"bike_id":"5c04a174-16a0-4e95-8ab0-6f7685a0e1e2","system_id":"levelo_inurba_marseille","lat":43.294153,"lon":5.386305,"is_reserved":false,"is_disabled":false,"rental_uris":{"android":"levelo://app?vid=5c04a174-16a0-4e95-8ab0-6f7685a0e1e2","ios":"levelo://app?vid=5c04a174-16a0-4e95-8ab0-6f7685a0e1e2"},"vehicle_type_id":"4","last_reported":1721146150,"current_range_meters":27600,"station_id":"ce4bh2h2rcd13ifvqdh0","pricing_plan_id":"cebpf4jnsgd1na2vs0mg"},{"bike_id":"93aee315-43ac-4277-a223-ea3bf6898b23","system_id":"levelo_inurba_marseille","lat":43.294162,"lon":5.386292,"is_reserved":false,"is_disabled":false,"rental_uris":{"android":"levelo://app?vid=93aee315-43ac-4277-a223-ea3bf6898b23","ios":"levelo://app?vid=93aee315-43ac-4277-a223-ea3bf6898b23"},"vehicle_type_id":"4","last_reported":1721146150,"current_range_meters":0,"station_id":"ce4bh2h2rcd13ifvqdh0","pricing_plan_id":"cebpf4jnsgd1na2vs0mg"},{"bike_id":"82e4ad56-5273-4a2e-b00c-1625638a8bfd","system_id":"levelo_inurba_marseille","lat":43.289184,"lon":5.366408,"is_reserved":false,"is_disabled":false,"rental_uris":{"android":"levelo://app?vid=82e4ad56-5273-4a2e-b00c-1625638a8bfd","ios":"levelo://app?vid=82e4ad56-5273-4a2e-b00c-1625638a8bfd"},"vehicle_type_id":"4","last_reported":1721146150,"current_range_meters":3600,"station_id":"ce4bhap2rcd13ifvqek0","pricing_plan_id":"cebpf4jnsgd1na2vs0mg"},{"bike_id":"716c6d23-96cb-4f9f-87c9-2f446a0adf58","system_id":"levelo_inurba_marseille","lat":43.31569,"lon":5.3988,"is_reserved":false,"is_disabled":false,"rental_uris":{"android":"levelo://app?vid=716c6d23-96cb-4f9f-87c9-2f446a0adf58","ios":"levelo://app?vid=716c6d23-96cb-4f9f-87c9-2f446a0adf58"},"vehicle_type_id":"4","last_reported":1721146150,"current_range_meters":13600,"station_id":"","pricing_plan_id":"cebpf4jnsgd1na2vs0mg"},{"bike_id":"c4b8fefe-3f5d-423d-9770-319c5db95ccd","system_id":"levelo_inurba_marseille","lat":43.289184,"lon":5.366408,"is_reserved":false,"is_disabled":false,"rental_uris":{"android":"levelo://app?vid=c4b8fefe-3f5d-423d-9770-319c5db95ccd","ios":"levelo://app?vid=c4b8fefe-3f5d-423d-9770-319c5db95ccd"},"vehicle_type_id":"4","last_reported":1721146150,"current_range_meters":8400,"station_id":"ce4bhap2rcd13ifvqek0","pricing_plan_id":"cebpf4jnsgd1na2vs0mg"},{"bike_id":"8eb80074-a7c3-4c29-b916-d20df1f61f6f","system_id":"levelo_inurba_marseille","lat":43.292644,"lon":5.384257,"is_reserved":false,"is_disabled":false,"rental_uris":{"android":"levelo://app?vid=8eb80074-a7c3-4c29-b916-d20df1f61f6f","ios":"levelo://app?vid=8eb80074-a7c3-4c29-b916-d20df1f61f6f"},"vehicle_type_id":"4","last_reported":1721146150,"current_range_meters":17600,"station_id":"ce4bh692rcd13ifvqea0","pricing_plan_id":"cebpf4jnsgd1na2vs0mg"},{"bike_id":"f4bbfec1-14ab-4dfa-b698-924396d645f1","system_id":"levelo_inurba_marseille","lat":43.29015,"lon":5.35598,"is_reserved":false,"is_disabled":false,"rental_uris":{"android":"levelo://app?vid=f4bbfec1-14ab-4dfa-b698-924396d645f1","ios":"levelo://app?vid=f4bbfec1-14ab-4dfa-b698-924396d645f1"},"vehicle_type_id":"4","last_reported":1721146150,"current_range_meters":0,"station_id":"","pricing_plan_id":"cebpf4jnsgd1na2vs0mg"},{"bike_id":"b4fddbb7-37ca-4379-aeca-19f607a75405","system_id":"levelo_inurba_marseille","lat":43.29008,"lon":5.35612,"is_reserved":false,"is_disabled":false,"rental_uris":{"android":"levelo://app?vid=b4fddbb7-37ca-4379-aeca-19f607a75405","ios":"levelo://app?vid=b4fddbb7-37ca-4379-aeca-19f607a75405"},"vehicle_type_id":"4","last_reported":1721146150,"current_range_meters":31200,"station_id":"ce4bhb92rcd13ifvqen0","pricing_plan_id":"cebpf4jnsgd1na2vs0mg"},{"bike_id":"a5448066-9f3f-44e3-a4ac-e225f770945e","system_id":"levelo_inurba_marseille","lat":43.29009,"lon":5.35608,"is_reserved":false,"is_disabled":false,"rental_uris":{"android":"levelo://app?vid=a5448066-9f3f-44e3-a4ac-e225f770945e","ios":"levelo://app?vid=a5448066-9f3f-44e3-a4ac-e225f770945e"},"vehicle_type_id":"4","last_reported":1721146150,"current_range_meters":20400,"station_id":"ce4bhb92rcd13ifvqen0","pricing_plan_id":"cebpf4jnsgd1na2vs0mg"},{"bike_id":"04648e3c-eba6-4327-b5b4-c3658377e6e0","system_id":"levelo_inurba_marseille","lat":43.290103,"lon":5.356114,"is_reserved":false,"is_disabled":false,"rental_uris":{"android":"levelo://app?vid=04648e3c-eba6-4327-b5b4-c3658377e6e0","ios":"levelo://app?vid=04648e3c-eba6-4327-b5b4-c3658377e6e0"},"vehicle_type_id":"4","last_reported":1721146150,"current_range_meters":23600,"station_id":"ce4bhb92rcd13ifvqen0","pricing_plan_id":"cebpf4jnsgd1na2vs0mg"},{"bike_id":"ec71c2ab-8614-4b28-9811-c791ccebb20c","system_id":"levelo_inurba_marseille","lat":43.29006,"lon":5.35612,"is_reserved":false,"is_disabled":false,"rental_uris":{"android":"levelo://app?vid=ec71c2ab-8614-4b28-9811-c791ccebb20c","ios":"levelo://app?vid=ec71c2ab-8614-4b28-9811-c791ccebb20c"},"vehicle_type_id":"4","last_reported":1721146150,"current_range_meters":31200,"station_id":"ce4bhb92rcd13ifvqen0","pricing_plan_id":"cebpf4jnsgd1na2vs0mg"},{"bike_id":"f11fa217-66a2-4900-8ab7-6d33d8e0b40d","system_id":"levelo_inurba_marseille","lat":43.29003,"lon":5.35616,"is_reserved":false,"is_disabled":false,"rental_uris":{"android":"levelo://app?vid=f11fa217-66a2-4900-8ab7-6d33d8e0b40d","ios":"levelo://app?vid=f11fa217-66a2-4900-8ab7-6d33d8e0b40d"},"vehicle_type_id":"4","last_reported":1721146150,"current_range_meters":22000,"station_id":"ce4bhb92rcd13ifvqen0","pricing_plan_id":"cebpf4jnsgd1na2vs0mg"},{"bike_id":"5e37cd7f-9b9d-43e6-b98a-41f3ae1382bb","system_id":"levelo_inurba_marseille","lat":43.292644,"lon":5.384257,"is_reserved":false,"is_disabled":false,"rental_uris":{"android":"levelo://app?vid=5e37cd7f-9b9d-43e6-b98a-41f3ae1382bb","ios":"levelo://app?vid=5e37cd7f-9b9d-43e6-b98a-41f3ae1382bb"},"vehicle_type_id":"4","last_reported":1721146150,"current_range_meters":10400,"station_id":"ce4bh692rcd13ifvqea0","pricing_plan_id":"cebpf4jnsgd1na2vs0mg"},{"bike_id":"4d849b5b-ac5d-41d7-bf48-f33c67d59101","system_id":"levelo_inurba_marseille","lat":43.29002,"lon":5.35611,"is_reserved":false,"is_disabled":false,"rental_uris":{"android":"levelo://app?vid=4d849b5b-ac5d-41d7-bf48-f33c67d59101","ios":"levelo://app?vid=4d849b5b-ac5d-41d7-bf48-f33c67d59101"},"vehicle_type_id":"4","last_reported":1721146150,"current_range_meters":27600,"station_id":"ce4bhb92rcd13ifvqen0","pricing_plan_id":"cebpf4jnsgd1na2vs0mg"},{"bike_id":"64d48e3f-9c95-407d-9fac-08b4bed52f46","system_id":"levelo_inurba_marseille","lat":43.28998,"lon":5.35612,"is_reserved":false,"is_disabled":false,"rental_uris":{"android":"levelo://app?vid=64d48e3f-9c95-407d-9fac-08b4bed52f46","ios":"levelo://app?vid=64d48e3f-9c95-407d-9fac-08b4bed52f46"},"vehicle_type_id":"4","last_reported":1721146150,"current_range_meters":31200,"station_id":"ce4bhb92rcd13ifvqen0","pricing_plan_id":"cebpf4jnsgd1na2vs0mg"},{"bike_id":"6330dc30-84d0-4361-aa3d-99b06198c9fe","system_id":"levelo_inurba_marseille","lat":43.28997,"lon":5.35614,"is_reserved":false,"is_disabled":false,"rental_uris":{"android":"levelo://app?vid=6330dc30-84d0-4361-aa3d-99b06198c9fe","ios":"levelo://app?vid=6330dc30-84d0-4361-aa3d-99b06198c9fe"},"vehicle_type_id":"4","last_reported":1721146150,"current_range_meters":31200,"station_id":"ce4bhb92rcd13ifvqen0","pricing_plan_id":"cebpf4jnsgd1na2vs0mg"},{"bike_id":"a8c079cf-6429-4593-8ca9-5fb587f37e2c","system_id":"levelo_inurba_marseille","lat":43.295169,"lon":5.390426,"is_reserved":false,"is_disabled":false,"rental_uris":{"android":"levelo://app?vid=a8c079cf-6429-4593-8ca9-5fb587f37e2c","ios":"levelo://app?vid=a8c079cf-6429-4593-8ca9-5fb587f37e2c"},"vehicle_type_id":"4","last_reported":1721146150,"current_range_meters":26800,"station_id":"ce4bh3p2rcd13ifvqdp0","pricing_plan_id":"cebpf4jnsgd1na2vs0mg"},{"bike_id":"840e7119-ab9c-4002-90ce-900c73573dfe","system_id":"levelo_inurba_marseille","lat":43.290995,"lon":5.381361,"is_reserved":false,"is_disabled":false,"rental_uris":{"android":"levelo://app?vid=840e7119-ab9c-4002-90ce-900c73573dfe","ios":"levelo://app?vid=840e7119-ab9c-4002-90ce-900c73573dfe"},"vehicle_type_id":"4","last_reported":1721146150,"current_range_meters":22800,"station_id":"ce4bh512rcd13ifvqe2g","pricing_plan_id":"cebpf4jnsgd1na2vs0mg"},{"bike_id":"653221a7-7445-4bac-859b-5d4aebcf844b","system_id":"levelo_inurba_marseille","lat":43.28981,"lon":5.37831,"is_reserved":false,"is_disabled":false,"rental_uris":{"android":"levelo://app?vid=653221a7-7445-4bac-859b-5d4aebcf844b","ios":"levelo://app?vid=653221a7-7445-4bac-859b-5d4aebcf844b"},"vehicle_type_id":"4","last_reported":1721146150,"current_range_meters":0,"station_id":"ce4bh9p2rcd13ifvqed0","pricing_plan_id":"cebpf4jnsgd1na2vs0mg"},{"bike_id":"ac10efbb-04e7-44f0-b868-961e1f9b8b59","system_id":"levelo_inurba_marseille","lat":43.295169,"lon":5.390426,"is_reserved":false,"is_disabled":false,"rental_uris":{"android":"levelo://app?vid=ac10efbb-04e7-44f0-b868-961e1f9b8b59","ios":"levelo://app?vid=ac10efbb-04e7-44f0-b868-961e1f9b8b59"},"vehicle_type_id":"4","last_reported":1721146150,"current_range_meters":400,"station_id":"ce4bh3p2rcd13ifvqdp0","pricing_plan_id":"cebpf4jnsgd1na2vs0mg"},{"bike_id":"6fbb33f3-f293-41d9-bcdc-96bae87e773c","system_id":"levelo_inurba_marseille","lat":43.330442,"lon":5.389148,"is_reserved":false,"is_disabled":false,"rental_uris":{"android":"levelo://app?vid=6fbb33f3-f293-41d9-bcdc-96bae87e773c","ios":"levelo://app?vid=6fbb33f3-f293-41d9-bcdc-96bae87e773c"},"vehicle_type_id":"4","last_reported":1721146150,"current_range_meters":18800,"station_id":"ce4bhr92rcd13ifvqhrg","pricing_plan_id":"cebpf4jnsgd1na2vs0mg"},{"bike_id":"0eaa70a5-1ea7-486f-b8d2-5478cb8370b2","system_id":"levelo_inurba_marseille","lat":43.29527,"lon":5.39037,"is_reserved":false,"is_disabled":false,"rental_uris":{"android":"levelo://app?vid=0eaa70a5-1ea7-486f-b8d2-5478cb8370b2","ios":"levelo://app?vid=0eaa70a5-1ea7-486f-b8d2-5478cb8370b2"},"vehicle_type_id":"4","last_reported":1721146150,"current_range_meters":0,"station_id":"ce4bh3p2rcd13ifvqdp0","pricing_plan_id":"cebpf4jnsgd1na2vs0mg"},{"bike_id":"dc172541-18fb-427f-b7bc-ba04b3174414","system_id":"levelo_inurba_marseille","lat":43.330442,"lon":5.389148,"is_reserved":false,"is_disabled":false,"rental_uris":{"android":"levelo://app?vid=dc172541-18fb-427f-b7bc-ba04b3174414","ios":"levelo://app?vid=dc172541-18fb-427f-b7bc-ba04b3174414"},"vehicle_type_id":"4","last_reported":1721146150,"current_range_meters":400,"station_id":"ce4bhr92rcd13ifvqhrg","pricing_plan_id":"cebpf4jnsgd1na2vs0mg"},{"bike_id":"451549ac-435a-4c34-b1bc-50e61d1fc113","system_id":"levelo_inurba_marseille","lat":43.330442,"lon":5.389148,"is_reserved":false,"is_disabled":false,"rental_uris":{"android":"levelo://app?vid=451549ac-435a-4c34-b1bc-50e61d1fc113","ios":"levelo://app?vid=451549ac-435a-4c34-b1bc-50e61d1fc113"},"vehicle_type_id":"4","last_reported":1721146150,"current_range_meters":27600,"station_id":"ce4bhr92rcd13ifvqhrg","pricing_plan_id":"cebpf4jnsgd1na2vs0mg"},{"bike_id":"e8883de8-a48b-40f9-bb99-6fe292f8ed4a","system_id":"levelo_inurba_marseille","lat":43.330442,"lon":5.389148,"is_reserved":false,"is_disabled":false,"rental_uris":{"android":"levelo://app?vid=e8883de8-a48b-40f9-bb99-6fe292f8ed4a","ios":"levelo://app?vid=e8883de8-a48b-40f9-bb99-6fe292f8ed4a"},"vehicle_type_id":"4","last_reported":1721146150,"current_range_meters":23200,"station_id":"ce4bhr92rcd13ifvqhrg","pricing_plan_id":"cebpf4jnsgd1na2vs0mg"},{"bike_id":"68e1cc20-a925-4ae3-86bd-af6fd167aea9","system_id":"levelo_inurba_marseille","lat":43.330442,"lon":5.389148,"is_reserved":false,"is_disabled":false,"rental_uris":{"android":"levelo://app?vid=68e1cc20-a925-4ae3-86bd-af6fd167aea9","ios":"levelo://app?vid=68e1cc20-a925-4ae3-86bd-af6fd167aea9"},"vehicle_type_id":"4","last_reported":1721146150,"current_range_meters":15600,"station_id":"ce4bhr92rcd13ifvqhrg","pricing_plan_id":"cebpf4jnsgd1na2vs0mg"},{"bike_id":"a40a1eb4-4932-4543-ab54-fdc38dc75d84","system_id":"levelo_inurba_marseille","lat":43.310802,"lon":5.400798,"is_reserved":false,"is_disabled":false,"rental_uris":{"android":"levelo://app?vid=a40a1eb4-4932-4543-ab54-fdc38dc75d84","ios":"levelo://app?vid=a40a1eb4-4932-4543-ab54-fdc38dc75d84"},"vehicle_type_id":"4","last_reported":1721146150,"current_range_meters":22400,"station_id":"","pricing_plan_id":"cebpf4jnsgd1na2vs0mg"},{"bike_id":"805c6e78-f34b-4eeb-9420-6e14a1dd60d5","system_id":"levelo_inurba_marseille","lat":43.2901,"lon":5.381269,"is_reserved":false,"is_disabled":false,"rental_uris":{"android":"levelo://app?vid=805c6e78-f34b-4eeb-9420-6e14a1dd60d5","ios":"levelo://app?vid=805c6e78-f34b-4eeb-9420-6e14a1dd60d5"},"vehicle_type_id":"4","last_reported":1721146150,"current_range_meters":24000,"station_id":"ce4bh4p2rcd13ifvqe1g","pricing_plan_id":"cebpf4jnsgd1na2vs0mg"},{"bike_id":"43112b69-68d4-4e73-b477-32ca1ccd31a9","system_id":"levelo_inurba_marseille","lat":43.2901,"lon":5.381269,"is_reserved":false,"is_disabled":false,"rental_uris":{"android":"levelo://app?vid=43112b69-68d4-4e73-b477-32ca1ccd31a9","ios":"levelo://app?vid=43112b69-68d4-4e73-b477-32ca1ccd31a9"},"vehicle_type_id":"4","last_reported":1721146150,"current_range_meters":0,"station_id":"ce4bh4p2rcd13ifvqe1g","pricing_plan_id":"cebpf4jnsgd1na2vs0mg"},{"bike_id":"31c1cc20-dd03-4220-bca7-845e5de4673d","system_id":"levelo_inurba_marseille","lat":43.28856,"lon":5.358371,"is_reserved":false,"is_disabled":false,"rental_uris":{"android":"levelo://app?vid=31c1cc20-dd03-4220-bca7-845e5de4673d","ios":"levelo://app?vid=31c1cc20-dd03-4220-bca7-845e5de4673d"},"vehicle_type_id":"4","last_reported":1721146150,"current_range_meters":1200,"station_id":"ce4bhb12rcd13ifvqem0","pricing_plan_id":"cebpf4jnsgd1na2vs0mg"},{"bike_id":"ff21c96b-73e8-4ee2-88dc-77e5d4fce7f7","system_id":"levelo_inurba_marseille","lat":43.2901,"lon":5.381269,"is_reserved":false,"is_disabled":false,"rental_uris":{"android":"levelo://app?vid=ff21c96b-73e8-4ee2-88dc-77e5d4fce7f7","ios":"levelo://app?vid=ff21c96b-73e8-4ee2-88dc-77e5d4fce7f7"},"vehicle_type_id":"4","last_reported":1721146150,"current_range_meters":0,"station_id":"ce4bh4p2rcd13ifvqe1g","pricing_plan_id":"cebpf4jnsgd1na2vs0mg"},{"bike_id":"b5c9def3-5060-4dae-8ce6-72beb1881fc3","system_id":"levelo_inurba_marseille","lat":43.28856,"lon":5.358371,"is_reserved":false,"is_disabled":false,"rental_uris":{"android":"levelo://app?vid=b5c9def3-5060-4dae-8ce6-72beb1881fc3","ios":"levelo://app?vid=b5c9def3-5060-4dae-8ce6-72beb1881fc3"},"vehicle_type_id":"4","last_reported":1721146150,"current_range_meters":14800,"station_id":"ce4bhb12rcd13ifvqem0","pricing_plan_id":"cebpf4jnsgd1na2vs0mg"},{"bike_id":"5fdde737-af59-4cdb-bc87-940d757bc373","system_id":"levelo_inurba_marseille","lat":43.28856,"lon":5.358371,"is_reserved":false,"is_disabled":false,"rental_uris":{"android":"levelo://app?vid=5fdde737-af59-4cdb-bc87-940d757bc373","ios":"levelo://app?vid=5fdde737-af59-4cdb-bc87-940d757bc373"},"vehicle_type_id":"4","last_reported":1721146150,"current_range_meters":22000,"station_id":"ce4bhb12rcd13ifvqem0","pricing_plan_id":"cebpf4jnsgd1na2vs0mg"},{"bike_id":"241f7f64-d95b-4d83-b196-88d05a14b91a","system_id":"levelo_inurba_marseille","lat":43.28848,"lon":5.35848,"is_reserved":false,"is_disabled":false,"rental_uris":{"android":"levelo://app?vid=241f7f64-d95b-4d83-b196-88d05a14b91a","ios":"levelo://app?vid=241f7f64-d95b-4d83-b196-88d05a14b91a"},"vehicle_type_id":"4","last_reported":1721146150,"current_range_meters":0,"station_id":"ce4bhb12rcd13ifvqem0","pricing_plan_id":"cebpf4jnsgd1na2vs0mg"},{"bike_id":"ffba9479-7cfc-4efd-be77-29da7a0badae","system_id":"levelo_inurba_marseille","lat":43.33743,"lon":5.37482,"is_reserved":false,"is_disabled":false,"rental_uris":{"android":"levelo://app?vid=ffba9479-7cfc-4efd-be77-29da7a0badae","ios":"levelo://app?vid=ffba9479-7cfc-4efd-be77-29da7a0badae"},"vehicle_type_id":"4","last_reported":1721146150,"current_range_meters":28400,"station_id":"","pricing_plan_id":"cebpf4jnsgd1na2vs0mg"},{"bike_id":"0091de75-016b-45ba-9fb9-87214e1f255e","system_id":"levelo_inurba_marseille","lat":43.337534,"lon":5.374489,"is_reserved":false,"is_disabled":false,"rental_uris":{"android":"levelo://app?vid=0091de75-016b-45ba-9fb9-87214e1f255e","ios":"levelo://app?vid=0091de75-016b-45ba-9fb9-87214e1f255e"},"vehicle_type_id":"4","last_reported":1721146150,"current_range_meters":20800,"station_id":"","pricing_plan_id":"cebpf4jnsgd1na2vs0mg"},{"bike_id":"14a2ccd3-51a3-44d4-8a38-da66449fe25f","system_id":"levelo_inurba_marseille","lat":43.287802,"lon":5.373668,"is_reserved":false,"is_disabled":false,"rental_uris":{"android":"levelo://app?vid=14a2ccd3-51a3-44d4-8a38-da66449fe25f","ios":"levelo://app?vid=14a2ccd3-51a3-44d4-8a38-da66449fe25f"},"vehicle_type_id":"4","last_reported":1721146150,"current_range_meters":8400,"station_id":"","pricing_plan_id":"cebpf4jnsgd1na2vs0mg"},{"bike_id":"1af5f287-d103-48a7-b5e1-e8059521cf33","system_id":"levelo_inurba_marseille","lat":43.337572,"lon":5.37456,"is_reserved":false,"is_disabled":false,"rental_uris":{"android":"levelo://app?vid=1af5f287-d103-48a7-b5e1-e8059521cf33","ios":"levelo://app?vid=1af5f287-d103-48a7-b5e1-e8059521cf33"},"vehicle_type_id":"4","last_reported":1721146150,"current_range_meters":30000,"station_id":"","pricing_plan_id":"cebpf4jnsgd1na2vs0mg"},{"bike_id":"6d86028a-7fba-4d34-8c2b-1bb6866deb60","system_id":"levelo_inurba_marseille","lat":43.337579,"lon":5.374557,"is_reserved":false,"is_disabled":false,"rental_uris":{"android":"levelo://app?vid=6d86028a-7fba-4d34-8c2b-1bb6866deb60","ios":"levelo://app?vid=6d86028a-7fba-4d34-8c2b-1bb6866deb60"},"vehicle_type_id":"4","last_reported":1721146150,"current_range_meters":19200,"station_id":"","pricing_plan_id":"cebpf4jnsgd1na2vs0mg"},{"bike_id":"b2b18a9f-3b9d-48ab-b545-eb2b3432a036","system_id":"levelo_inurba_marseille","lat":43.33766,"lon":5.374353,"is_reserved":false,"is_disabled":false,"rental_uris":{"android":"levelo://app?vid=b2b18a9f-3b9d-48ab-b545-eb2b3432a036","ios":"levelo://app?vid=b2b18a9f-3b9d-48ab-b545-eb2b3432a036"},"vehicle_type_id":"4","last_reported":1721146150,"current_range_meters":28000,"station_id":"","pricing_plan_id":"cebpf4jnsgd1na2vs0mg"},{"bike_id":"efea0c1a-9233-4ab8-a745-eca80a25a57b","system_id":"levelo_inurba_marseille","lat":43.33758,"lon":5.37486,"is_reserved":false,"is_disabled":false,"rental_uris":{"android":"levelo://app?vid=efea0c1a-9233-4ab8-a745-eca80a25a57b","ios":"levelo://app?vid=efea0c1a-9233-4ab8-a745-eca80a25a57b"},"vehicle_type_id":"4","last_reported":1721146150,"current_range_meters":6000,"station_id":"","pricing_plan_id":"cebpf4jnsgd1na2vs0mg"},{"bike_id":"59d3ee0a-15e6-4bb5-88d9-262f805555c4","system_id":"levelo_inurba_marseille","lat":43.337661,"lon":5.374567,"is_reserved":false,"is_disabled":false,"rental_uris":{"android":"levelo://app?vid=59d3ee0a-15e6-4bb5-88d9-262f805555c4","ios":"levelo://app?vid=59d3ee0a-15e6-4bb5-88d9-262f805555c4"},"vehicle_type_id":"4","last_reported":1721146150,"current_range_meters":27200,"station_id":"","pricing_plan_id":"cebpf4jnsgd1na2vs0mg"},{"bike_id":"7084d9f0-e423-4e4a-b248-7c0acc689dc5","system_id":"levelo_inurba_marseille","lat":43.3377,"lon":5.37476,"is_reserved":false,"is_disabled":false,"rental_uris":{"android":"levelo://app?vid=7084d9f0-e423-4e4a-b248-7c0acc689dc5","ios":"levelo://app?vid=7084d9f0-e423-4e4a-b248-7c0acc689dc5"},"vehicle_type_id":"4","last_reported":1721146150,"current_range_meters":28400,"station_id":"","pricing_plan_id":"cebpf4jnsgd1na2vs0mg"},{"bike_id":"615362c3-adf7-479f-ad13-f59812cb2fcf","system_id":"levelo_inurba_marseille","lat":43.337784,"lon":5.37433,"is_reserved":false,"is_disabled":false,"rental_uris":{"android":"levelo://app?vid=615362c3-adf7-479f-ad13-f59812cb2fcf","ios":"levelo://app?vid=615362c3-adf7-479f-ad13-f59812cb2fcf"},"vehicle_type_id":"4","last_reported":1721146150,"current_range_meters":28400,"station_id":"","pricing_plan_id":"cebpf4jnsgd1na2vs0mg"},{"bike_id":"8d97f54b-e650-4185-a093-32b9e8a5b007","system_id":"levelo_inurba_marseille","lat":43.28727,"lon":5.36078,"is_reserved":false,"is_disabled":false,"rental_uris":{"android":"levelo://app?vid=8d97f54b-e650-4185-a093-32b9e8a5b007","ios":"levelo://app?vid=8d97f54b-e650-4185-a093-32b9e8a5b007"},"vehicle_type_id":"4","last_reported":1721146150,"current_range_meters":16400,"station_id":"cki0cbj6b192h4jlfktg","pricing_plan_id":"cebpf4jnsgd1na2vs0mg"},{"bike_id":"820b4399-c19a-4cd2-acc7-7a1f1c4f31ce","system_id":"levelo_inurba_marseille","lat":43.286634,"lon":5.363534,"is_reserved":false,"is_disabled":false,"rental_uris":{"android":"levelo://app?vid=820b4399-c19a-4cd2-acc7-7a1f1c4f31ce","ios":"levelo://app?vid=820b4399-c19a-4cd2-acc7-7a1f1c4f31ce"},"vehicle_type_id":"4","last_reported":1721146150,"current_range_meters":0,"station_id":"ce4bhah2rcd13ifvqej0","pricing_plan_id":"cebpf4jnsgd1na2vs0mg"},{"bike_id":"fa5da912-848a-4df5-811d-a2c79c7327d5","system_id":"levelo_inurba_marseille","lat":43.286961,"lon":5.373785,"is_reserved":false,"is_disabled":false,"rental_uris":{"android":"levelo://app?vid=fa5da912-848a-4df5-811d-a2c79c7327d5","ios":"levelo://app?vid=fa5da912-848a-4df5-811d-a2c79c7327d5"},"vehicle_type_id":"4","last_reported":1721146150,"current_range_meters":5200,"station_id":"ce4bh3p2rcd13ifvqdq0","pricing_plan_id":"cebpf4jnsgd1na2vs0mg"},{"bike_id":"28a4c1a1-65a3-4673-b5bc-77ae47b4b719","system_id":"levelo_inurba_marseille","lat":43.286935,"lon":5.373914,"is_reserved":false,"is_disabled":false,"rental_uris":{"android":"levelo://app?vid=28a4c1a1-65a3-4673-b5bc-77ae47b4b719","ios":"levelo://app?vid=28a4c1a1-65a3-4673-b5bc-77ae47b4b719"},"vehicle_type_id":"4","last_reported":1721146150,"current_range_meters":0,"station_id":"ce4bh3p2rcd13ifvqdq0","pricing_plan_id":"cebpf4jnsgd1na2vs0mg"},{"bike_id":"ed2aaf82-37fe-4a0d-96c2-5d206fbefc10","system_id":"levelo_inurba_marseille","lat":43.30242,"lon":5.40046,"is_reserved":false,"is_disabled":false,"rental_uris":{"android":"levelo://app?vid=ed2aaf82-37fe-4a0d-96c2-5d206fbefc10","ios":"levelo://app?vid=ed2aaf82-37fe-4a0d-96c2-5d206fbefc10"},"vehicle_type_id":"4","last_reported":1721146150,"current_range_meters":24400,"station_id":"","pricing_plan_id":"cebpf4jnsgd1na2vs0mg"},{"bike_id":"1a589f4f-f054-4d8b-b4ac-ab803a3f93fc","system_id":"levelo_inurba_marseille","lat":43.28932,"lon":5.38409,"is_reserved":false,"is_disabled":false,"rental_uris":{"android":"levelo://app?vid=1a589f4f-f054-4d8b-b4ac-ab803a3f93fc","ios":"levelo://app?vid=1a589f4f-f054-4d8b-b4ac-ab803a3f93fc"},"vehicle_type_id":"4","last_reported":1721146150,"current_range_meters":0,"station_id":"ce4bh612rcd13ifvqe6g","pricing_plan_id":"cebpf4jnsgd1na2vs0mg"},{"bike_id":"e99c201b-5d81-473f-8d8b-648c1b02cdd8","system_id":"levelo_inurba_marseille","lat":43.30246,"lon":5.40058,"is_reserved":false,"is_disabled":false,"rental_uris":{"android":"levelo://app?vid=e99c201b-5d81-473f-8d8b-648c1b02cdd8","ios":"levelo://app?vid=e99c201b-5d81-473f-8d8b-648c1b02cdd8"},"vehicle_type_id":"4","last_reported":1721146150,"current_range_meters":29200,"station_id":"ce4bgvh2rcd13ifvqcs0","pricing_plan_id":"cebpf4jnsgd1na2vs0mg"},{"bike_id":"4a1949b6-904c-4655-ab3e-7dd09aa234c8","system_id":"levelo_inurba_marseille","lat":43.290274,"lon":5.386439,"is_reserved":false,"is_disabled":false,"rental_uris":{"android":"levelo://app?vid=4a1949b6-904c-4655-ab3e-7dd09aa234c8","ios":"levelo://app?vid=4a1949b6-904c-4655-ab3e-7dd09aa234c8"},"vehicle_type_id":"4","last_reported":1721146150,"current_range_meters":0,"station_id":"ce4bh4p2rcd13ifvqe0g","pricing_plan_id":"cebpf4jnsgd1na2vs0mg"},{"bike_id":"f9755cbf-c990-45b4-97b5-e4c6aeeaf526","system_id":"levelo_inurba_marseille","lat":43.302759,"lon":5.400793,"is_reserved":false,"is_disabled":false,"rental_uris":{"android":"levelo://app?vid=f9755cbf-c990-45b4-97b5-e4c6aeeaf526","ios":"levelo://app?vid=f9755cbf-c990-45b4-97b5-e4c6aeeaf526"},"vehicle_type_id":"4","last_reported":1721146150,"current_range_meters":0,"station_id":"ce4bgvh2rcd13ifvqcs0","pricing_plan_id":"cebpf4jnsgd1na2vs0mg"},{"bike_id":"f3cb1dff-6748-4bac-8aad-d4531fb37e3e","system_id":"levelo_inurba_marseille","lat":43.29026,"lon":5.38651,"is_reserved":false,"is_disabled":false,"rental_uris":{"android":"levelo://app?vid=f3cb1dff-6748-4bac-8aad-d4531fb37e3e","ios":"levelo://app?vid=f3cb1dff-6748-4bac-8aad-d4531fb37e3e"},"vehicle_type_id":"4","last_reported":1721146150,"current_range_meters":0,"station_id":"ce4bh4p2rcd13ifvqe0g","pricing_plan_id":"cebpf4jnsgd1na2vs0mg"},{"bike_id":"e9e9affe-b98c-4859-881e-9605ca066e24","system_id":"levelo_inurba_marseille","lat":43.302759,"lon":5.400793,"is_reserved":false,"is_disabled":false,"rental_uris":{"android":"levelo://app?vid=e9e9affe-b98c-4859-881e-9605ca066e24","ios":"levelo://app?vid=e9e9affe-b98c-4859-881e-9605ca066e24"},"vehicle_type_id":"4","last_reported":1721146150,"current_range_meters":9200,"station_id":"ce4bgvh2rcd13ifvqcs0","pricing_plan_id":"cebpf4jnsgd1na2vs0mg"},{"bike_id":"3555f9da-8162-4e3d-b1ce-cf62d08d69d9","system_id":"levelo_inurba_marseille","lat":43.28611,"lon":5.3706,"is_reserved":false,"is_disabled":false,"rental_uris":{"android":"levelo://app?vid=3555f9da-8162-4e3d-b1ce-cf62d08d69d9","ios":"levelo://app?vid=3555f9da-8162-4e3d-b1ce-cf62d08d69d9"},"vehicle_type_id":"4","last_reported":1721146150,"current_range_meters":0,"station_id":"","pricing_plan_id":"cebpf4jnsgd1na2vs0mg"},{"bike_id":"4bc1f3eb-9543-4c75-8123-b1e0fcff0bea","system_id":"levelo_inurba_marseille","lat":43.296263,"lon":5.40601,"is_reserved":false,"is_disabled":false,"rental_uris":{"android":"levelo://app?vid=4bc1f3eb-9543-4c75-8123-b1e0fcff0bea","ios":"levelo://app?vid=4bc1f3eb-9543-4c75-8123-b1e0fcff0bea"},"vehicle_type_id":"4","last_reported":1721146150,"current_range_meters":0,"station_id":"ce4bh0h2rcd13ifvqd60","pricing_plan_id":"cebpf4jnsgd1na2vs0mg"},{"bike_id":"54d832e6-9316-498b-b9d3-cfda035a1c3f","system_id":"levelo_inurba_marseille","lat":43.287184,"lon":5.37937,"is_reserved":false,"is_disabled":false,"rental_uris":{"android":"levelo://app?vid=54d832e6-9316-498b-b9d3-cfda035a1c3f","ios":"levelo://app?vid=54d832e6-9316-498b-b9d3-cfda035a1c3f"},"vehicle_type_id":"4","last_reported":1721146150,"current_range_meters":0,"station_id":"ce4bh9p2rcd13ifvqec0","pricing_plan_id":"cebpf4jnsgd1na2vs0mg"},{"bike_id":"a6d4877b-ad52-47e7-ba92-54afb7a0f388","system_id":"levelo_inurba_marseille","lat":43.316828,"lon":5.404723,"is_reserved":false,"is_disabled":false,"rental_uris":{"android":"levelo://app?vid=a6d4877b-ad52-47e7-ba92-54afb7a0f388","ios":"levelo://app?vid=a6d4877b-ad52-47e7-ba92-54afb7a0f388"},"vehicle_type_id":"4","last_reported":1721146150,"current_range_meters":11200,"station_id":"ce4bh012rcd13ifvqd00","pricing_plan_id":"cebpf4jnsgd1na2vs0mg"},{"bike_id":"d0bc4474-2dfd-46be-80f9-84c4c1bcb076","system_id":"levelo_inurba_marseille","lat":43.286859,"lon":5.351781,"is_reserved":false,"is_disabled":false,"rental_uris":{"android":"levelo://app?vid=d0bc4474-2dfd-46be-80f9-84c4c1bcb076","ios":"levelo://app?vid=d0bc4474-2dfd-46be-80f9-84c4c1bcb076"},"vehicle_type_id":"4","last_reported":1721146150,"current_range_meters":18000,"station_id":"","pricing_plan_id":"cebpf4jnsgd1na2vs0mg"},{"bike_id":"c80ef7e7-97ab-45d1-b36f-359fb8d7310d","system_id":"levelo_inurba_marseille","lat":43.29202,"lon":5.39314,"is_reserved":false,"is_disabled":false,"rental_uris":{"android":"levelo://app?vid=c80ef7e7-97ab-45d1-b36f-359fb8d7310d","ios":"levelo://app?vid=c80ef7e7-97ab-45d1-b36f-359fb8d7310d"},"vehicle_type_id":"4","last_reported":1721146150,"current_range_meters":0,"station_id":"ce4bh192rcd13ifvqdd0","pricing_plan_id":"cebpf4jnsgd1na2vs0mg"},{"bike_id":"c831842d-e804-4130-8f46-80ca9f11ab09","system_id":"levelo_inurba_marseille","lat":43.291994,"lon":5.392907,"is_reserved":false,"is_disabled":false,"rental_uris":{"android":"levelo://app?vid=c831842d-e804-4130-8f46-80ca9f11ab09","ios":"levelo://app?vid=c831842d-e804-4130-8f46-80ca9f11ab09"},"vehicle_type_id":"4","last_reported":1721146150,"current_range_meters":21200,"station_id":"ce4bh192rcd13ifvqdd0","pricing_plan_id":"cebpf4jnsgd1na2vs0mg"},{"bike_id":"928c9564-a333-4004-972e-338f86016e2e","system_id":"levelo_inurba_marseille","lat":43.291994,"lon":5.392907,"is_reserved":false,"is_disabled":false,"rental_uris":{"android":"levelo://app?vid=928c9564-a333-4004-972e-338f86016e2e","ios":"levelo://app?vid=928c9564-a333-4004-972e-338f86016e2e"},"vehicle_type_id":"4","last_reported":1721146150,"current_range_meters":400,"station_id":"ce4bh192rcd13ifvqdd0","pricing_plan_id":"cebpf4jnsgd1na2vs0mg"},{"bike_id":"ebc26c92-2df9-46a4-ab32-752fb3f64cd0","system_id":"levelo_inurba_marseille","lat":43.291994,"lon":5.392907,"is_reserved":false,"is_disabled":false,"rental_uris":{"android":"levelo://app?vid=ebc26c92-2df9-46a4-ab32-752fb3f64cd0","ios":"levelo://app?vid=ebc26c92-2df9-46a4-ab32-752fb3f64cd0"},"vehicle_type_id":"4","last_reported":1721146150,"current_range_meters":28800,"station_id":"ce4bh192rcd13ifvqdd0","pricing_plan_id":"cebpf4jnsgd1na2vs0mg"},{"bike_id":"ab5529cd-8fcf-48ab-a7b6-8145b25e5aa9","system_id":"levelo_inurba_marseille","lat":43.29193,"lon":5.39322,"is_reserved":false,"is_disabled":false,"rental_uris":{"android":"levelo://app?vid=ab5529cd-8fcf-48ab-a7b6-8145b25e5aa9","ios":"levelo://app?vid=ab5529cd-8fcf-48ab-a7b6-8145b25e5aa9"},"vehicle_type_id":"4","last_reported":1721146150,"current_range_meters":0,"station_id":"ce4bh192rcd13ifvqdd0","pricing_plan_id":"cebpf4jnsgd1na2vs0mg"},{"bike_id":"1718b075-a36f-472d-a2e3-f7d9b2d044c6","system_id":"levelo_inurba_marseille","lat":43.284538,"lon":5.358657,"is_reserved":false,"is_disabled":false,"rental_uris":{"android":"levelo://app?vid=1718b075-a36f-472d-a2e3-f7d9b2d044c6","ios":"levelo://app?vid=1718b075-a36f-472d-a2e3-f7d9b2d044c6"},"vehicle_type_id":"4","last_reported":1721146150,"current_range_meters":0,"station_id":"ce4bhah2rcd13ifvqei0","pricing_plan_id":"cebpf4jnsgd1na2vs0mg"},{"bike_id":"515c49fd-27db-4cb8-9fd7-11e3aa0c3e0d","system_id":"levelo_inurba_marseille","lat":43.284534,"lon":5.358662,"is_reserved":false,"is_disabled":false,"rental_uris":{"android":"levelo://app?vid=515c49fd-27db-4cb8-9fd7-11e3aa0c3e0d","ios":"levelo://app?vid=515c49fd-27db-4cb8-9fd7-11e3aa0c3e0d"},"vehicle_type_id":"4","last_reported":1721146150,"current_range_meters":28800,"station_id":"ce4bhah2rcd13ifvqei0","pricing_plan_id":"cebpf4jnsgd1na2vs0mg"},{"bike_id":"001db0ca-8c86-4b9f-a3bb-59eb5316242e","system_id":"levelo_inurba_marseille","lat":43.284534,"lon":5.358662,"is_reserved":false,"is_disabled":false,"rental_uris":{"android":"levelo://app?vid=001db0ca-8c86-4b9f-a3bb-59eb5316242e","ios":"levelo://app?vid=001db0ca-8c86-4b9f-a3bb-59eb5316242e"},"vehicle_type_id":"4","last_reported":1721146150,"current_range_meters":16000,"station_id":"ce4bhah2rcd13ifvqei0","pricing_plan_id":"cebpf4jnsgd1na2vs0mg"},{"bike_id":"d526d484-3dc7-46cf-8dec-99f1d478e32c","system_id":"levelo_inurba_marseille","lat":43.28623,"lon":5.35112,"is_reserved":false,"is_disabled":false,"rental_uris":{"android":"levelo://app?vid=d526d484-3dc7-46cf-8dec-99f1d478e32c","ios":"levelo://app?vid=d526d484-3dc7-46cf-8dec-99f1d478e32c"},"vehicle_type_id":"4","last_reported":1721146150,"current_range_meters":12400,"station_id":"ce4bhch2rcd13ifvqeug","pricing_plan_id":"cebpf4jnsgd1na2vs0mg"},{"bike_id":"c4a8c93c-ddb6-4269-b92d-cb3102cafe92","system_id":"levelo_inurba_marseille","lat":43.285856,"lon":5.350771,"is_reserved":false,"is_disabled":false,"rental_uris":{"android":"levelo://app?vid=c4a8c93c-ddb6-4269-b92d-cb3102cafe92","ios":"levelo://app?vid=c4a8c93c-ddb6-4269-b92d-cb3102cafe92"},"vehicle_type_id":"4","last_reported":1721146150,"current_range_meters":12000,"station_id":"ce4bhch2rcd13ifvqeug","pricing_plan_id":"cebpf4jnsgd1na2vs0mg"},{"bike_id":"b64be1ed-0016-469b-b3c2-d6cb668a6f4c","system_id":"levelo_inurba_marseille","lat":43.294314,"lon":5.397498,"is_reserved":false,"is_disabled":false,"rental_uris":{"android":"levelo://app?vid=b64be1ed-0016-469b-b3c2-d6cb668a6f4c","ios":"levelo://app?vid=b64be1ed-0016-469b-b3c2-d6cb668a6f4c"},"vehicle_type_id":"4","last_reported":1721146150,"current_range_meters":1200,"station_id":"ce4bh3h2rcd13ifvqdo0","pricing_plan_id":"cebpf4jnsgd1na2vs0mg"},{"bike_id":"62f2fec3-cf0c-4aaf-bfd6-78860f678192","system_id":"levelo_inurba_marseille","lat":43.285856,"lon":5.350771,"is_reserved":false,"is_disabled":false,"rental_uris":{"android":"levelo://app?vid=62f2fec3-cf0c-4aaf-bfd6-78860f678192","ios":"levelo://app?vid=62f2fec3-cf0c-4aaf-bfd6-78860f678192"},"vehicle_type_id":"4","last_reported":1721146150,"current_range_meters":22400,"station_id":"ce4bhch2rcd13ifvqeug","pricing_plan_id":"cebpf4jnsgd1na2vs0mg"},{"bike_id":"02900cf0-3e29-4325-bf1b-a57c25ba95b6","system_id":"levelo_inurba_marseille","lat":43.285856,"lon":5.350771,"is_reserved":false,"is_disabled":false,"rental_uris":{"android":"levelo://app?vid=02900cf0-3e29-4325-bf1b-a57c25ba95b6","ios":"levelo://app?vid=02900cf0-3e29-4325-bf1b-a57c25ba95b6"},"vehicle_type_id":"4","last_reported":1721146150,"current_range_meters":0,"station_id":"ce4bhch2rcd13ifvqeug","pricing_plan_id":"cebpf4jnsgd1na2vs0mg"},{"bike_id":"f039073f-cd06-4ff4-9305-f8c84e9fa7d8","system_id":"levelo_inurba_marseille","lat":43.285856,"lon":5.350771,"is_reserved":false,"is_disabled":false,"rental_uris":{"android":"levelo://app?vid=f039073f-cd06-4ff4-9305-f8c84e9fa7d8","ios":"levelo://app?vid=f039073f-cd06-4ff4-9305-f8c84e9fa7d8"},"vehicle_type_id":"4","last_reported":1721146150,"current_range_meters":31200,"station_id":"ce4bhch2rcd13ifvqeug","pricing_plan_id":"cebpf4jnsgd1na2vs0mg"},{"bike_id":"4aebe56a-ab8e-439d-a8d0-5df8ace4d6df","system_id":"levelo_inurba_marseille","lat":43.2862,"lon":5.35108,"is_reserved":false,"is_disabled":false,"rental_uris":{"android":"levelo://app?vid=4aebe56a-ab8e-439d-a8d0-5df8ace4d6df","ios":"levelo://app?vid=4aebe56a-ab8e-439d-a8d0-5df8ace4d6df"},"vehicle_type_id":"4","last_reported":1721146150,"current_range_meters":0,"station_id":"ce4bhch2rcd13ifvqeug","pricing_plan_id":"cebpf4jnsgd1na2vs0mg"},{"bike_id":"ae6ae208-f228-4dc1-897b-55076bc8502d","system_id":"levelo_inurba_marseille","lat":43.2862,"lon":5.35107,"is_reserved":false,"is_disabled":false,"rental_uris":{"android":"levelo://app?vid=ae6ae208-f228-4dc1-897b-55076bc8502d","ios":"levelo://app?vid=ae6ae208-f228-4dc1-897b-55076bc8502d"},"vehicle_type_id":"4","last_reported":1721146150,"current_range_meters":4800,"station_id":"ce4bhch2rcd13ifvqeug","pricing_plan_id":"cebpf4jnsgd1na2vs0mg"},{"bike_id":"2a5865b3-7e15-4280-9cbc-cbd42b2ceb3c","system_id":"levelo_inurba_marseille","lat":43.28619,"lon":5.35109,"is_reserved":false,"is_disabled":false,"rental_uris":{"android":"levelo://app?vid=2a5865b3-7e15-4280-9cbc-cbd42b2ceb3c","ios":"levelo://app?vid=2a5865b3-7e15-4280-9cbc-cbd42b2ceb3c"},"vehicle_type_id":"4","last_reported":1721146150,"current_range_meters":0,"station_id":"ce4bhch2rcd13ifvqeug","pricing_plan_id":"cebpf4jnsgd1na2vs0mg"},{"bike_id":"3fe0794b-4bc5-40de-bd84-3d56beb371ff","system_id":"levelo_inurba_marseille","lat":43.28617,"lon":5.35114,"is_reserved":false,"is_disabled":false,"rental_uris":{"android":"levelo://app?vid=3fe0794b-4bc5-40de-bd84-3d56beb371ff","ios":"levelo://app?vid=3fe0794b-4bc5-40de-bd84-3d56beb371ff"},"vehicle_type_id":"4","last_reported":1721146150,"current_range_meters":24400,"station_id":"","pricing_plan_id":"cebpf4jnsgd1na2vs0mg"},{"bike_id":"f55ef841-f187-4c7f-945a-d11f27ede85c","system_id":"levelo_inurba_marseille","lat":43.285856,"lon":5.350771,"is_reserved":false,"is_disabled":false,"rental_uris":{"android":"levelo://app?vid=f55ef841-f187-4c7f-945a-d11f27ede85c","ios":"levelo://app?vid=f55ef841-f187-4c7f-945a-d11f27ede85c"},"vehicle_type_id":"4","last_reported":1721146150,"current_range_meters":10800,"station_id":"ce4bhch2rcd13ifvqeug","pricing_plan_id":"cebpf4jnsgd1na2vs0mg"},{"bike_id":"1481753a-9f9d-41f9-a0ac-f64acbb0f4e6","system_id":"levelo_inurba_marseille","lat":43.28618,"lon":5.3511,"is_reserved":false,"is_disabled":false,"rental_uris":{"android":"levelo://app?vid=1481753a-9f9d-41f9-a0ac-f64acbb0f4e6","ios":"levelo://app?vid=1481753a-9f9d-41f9-a0ac-f64acbb0f4e6"},"vehicle_type_id":"4","last_reported":1721146150,"current_range_meters":15200,"station_id":"ce4bhch2rcd13ifvqeug","pricing_plan_id":"cebpf4jnsgd1na2vs0mg"},{"bike_id":"0098dd6c-e2ce-4c18-8944-b8398ffcfd69","system_id":"levelo_inurba_marseille","lat":43.285856,"lon":5.350771,"is_reserved":false,"is_disabled":false,"rental_uris":{"android":"levelo://app?vid=0098dd6c-e2ce-4c18-8944-b8398ffcfd69","ios":"levelo://app?vid=0098dd6c-e2ce-4c18-8944-b8398ffcfd69"},"vehicle_type_id":"4","last_reported":1721146150,"current_range_meters":4800,"station_id":"ce4bhch2rcd13ifvqeug","pricing_plan_id":"cebpf4jnsgd1na2vs0mg"},{"bike_id":"b566480e-abf5-42de-9858-c95a922cc5cd","system_id":"levelo_inurba_marseille","lat":43.2862,"lon":5.35102,"is_reserved":false,"is_disabled":false,"rental_uris":{"android":"levelo://app?vid=b566480e-abf5-42de-9858-c95a922cc5cd","ios":"levelo://app?vid=b566480e-abf5-42de-9858-c95a922cc5cd"},"vehicle_type_id":"4","last_reported":1721146150,"current_range_meters":0,"station_id":"ce4bhch2rcd13ifvqeug","pricing_plan_id":"cebpf4jnsgd1na2vs0mg"},{"bike_id":"e4399a94-9626-42e3-919f-55bc1fab779a","system_id":"levelo_inurba_marseille","lat":43.285856,"lon":5.350771,"is_reserved":false,"is_disabled":false,"rental_uris":{"android":"levelo://app?vid=e4399a94-9626-42e3-919f-55bc1fab779a","ios":"levelo://app?vid=e4399a94-9626-42e3-919f-55bc1fab779a"},"vehicle_type_id":"4","last_reported":1721146150,"current_range_meters":10800,"station_id":"ce4bhch2rcd13ifvqeug","pricing_plan_id":"cebpf4jnsgd1na2vs0mg"},{"bike_id":"3b7f46fb-9c30-45cc-86ce-1d1b8e2f7d85","system_id":"levelo_inurba_marseille","lat":43.285856,"lon":5.350771,"is_reserved":false,"is_disabled":false,"rental_uris":{"android":"levelo://app?vid=3b7f46fb-9c30-45cc-86ce-1d1b8e2f7d85","ios":"levelo://app?vid=3b7f46fb-9c30-45cc-86ce-1d1b8e2f7d85"},"vehicle_type_id":"4","last_reported":1721146150,"current_range_meters":14400,"station_id":"ce4bhch2rcd13ifvqeug","pricing_plan_id":"cebpf4jnsgd1na2vs0mg"},{"bike_id":"9bdf4de5-89d0-4c14-92be-8df29e9ccdc6","system_id":"levelo_inurba_marseille","lat":43.28617,"lon":5.35108,"is_reserved":false,"is_disabled":false,"rental_uris":{"android":"levelo://app?vid=9bdf4de5-89d0-4c14-92be-8df29e9ccdc6","ios":"levelo://app?vid=9bdf4de5-89d0-4c14-92be-8df29e9ccdc6"},"vehicle_type_id":"4","last_reported":1721146150,"current_range_meters":14400,"station_id":"ce4bhch2rcd13ifvqeug","pricing_plan_id":"cebpf4jnsgd1na2vs0mg"},{"bike_id":"04934713-0ea3-4b2e-8018-9b52cf68c5f4","system_id":"levelo_inurba_marseille","lat":43.28618,"lon":5.35104,"is_reserved":false,"is_disabled":false,"rental_uris":{"android":"levelo://app?vid=04934713-0ea3-4b2e-8018-9b52cf68c5f4","ios":"levelo://app?vid=04934713-0ea3-4b2e-8018-9b52cf68c5f4"},"vehicle_type_id":"4","last_reported":1721146150,"current_range_meters":1600,"station_id":"ce4bhch2rcd13ifvqeug","pricing_plan_id":"cebpf4jnsgd1na2vs0mg"},{"bike_id":"47f7a41d-503b-4805-be4f-3d68afbfab4b","system_id":"levelo_inurba_marseille","lat":43.2862,"lon":5.35097,"is_reserved":false,"is_disabled":false,"rental_uris":{"android":"levelo://app?vid=47f7a41d-503b-4805-be4f-3d68afbfab4b","ios":"levelo://app?vid=47f7a41d-503b-4805-be4f-3d68afbfab4b"},"vehicle_type_id":"4","last_reported":1721146150,"current_range_meters":26800,"station_id":"ce4bhch2rcd13ifvqeug","pricing_plan_id":"cebpf4jnsgd1na2vs0mg"},{"bike_id":"af594c4c-5d6f-4964-8b72-0b5bfe5258f9","system_id":"levelo_inurba_marseille","lat":43.28616,"lon":5.35108,"is_reserved":false,"is_disabled":false,"rental_uris":{"android":"levelo://app?vid=af594c4c-5d6f-4964-8b72-0b5bfe5258f9","ios":"levelo://app?vid=af594c4c-5d6f-4964-8b72-0b5bfe5258f9"},"vehicle_type_id":"4","last_reported":1721146150,"current_range_meters":10400,"station_id":"ce4bhch2rcd13ifvqeug","pricing_plan_id":"cebpf4jnsgd1na2vs0mg"},{"bike_id":"2be5894c-5150-4b5c-991f-c3ccd0977cd9","system_id":"levelo_inurba_marseille","lat":43.28612,"lon":5.35119,"is_reserved":false,"is_disabled":false,"rental_uris":{"android":"levelo://app?vid=2be5894c-5150-4b5c-991f-c3ccd0977cd9","ios":"levelo://app?vid=2be5894c-5150-4b5c-991f-c3ccd0977cd9"},"vehicle_type_id":"4","last_reported":1721146150,"current_range_meters":22800,"station_id":"","pricing_plan_id":"cebpf4jnsgd1na2vs0mg"},{"bike_id":"52cb5dbf-367f-4587-b981-712e8f08102e","system_id":"levelo_inurba_marseille","lat":43.28616,"lon":5.35106,"is_reserved":false,"is_disabled":false,"rental_uris":{"android":"levelo://app?vid=52cb5dbf-367f-4587-b981-712e8f08102e","ios":"levelo://app?vid=52cb5dbf-367f-4587-b981-712e8f08102e"},"vehicle_type_id":"4","last_reported":1721146150,"current_range_meters":24800,"station_id":"ce4bhch2rcd13ifvqeug","pricing_plan_id":"cebpf4jnsgd1na2vs0mg"},{"bike_id":"30be74bf-718b-4732-89fb-3332c507d839","system_id":"levelo_inurba_marseille","lat":43.28615,"lon":5.35106,"is_reserved":false,"is_disabled":false,"rental_uris":{"android":"levelo://app?vid=30be74bf-718b-4732-89fb-3332c507d839","ios":"levelo://app?vid=30be74bf-718b-4732-89fb-3332c507d839"},"vehicle_type_id":"4","last_reported":1721146150,"current_range_meters":7600,"station_id":"ce4bhch2rcd13ifvqeug","pricing_plan_id":"cebpf4jnsgd1na2vs0mg"},{"bike_id":"97f115ed-d382-49ec-bc15-112bb1161496","system_id":"levelo_inurba_marseille","lat":43.285856,"lon":5.350771,"is_reserved":false,"is_disabled":false,"rental_uris":{"android":"levelo://app?vid=97f115ed-d382-49ec-bc15-112bb1161496","ios":"levelo://app?vid=97f115ed-d382-49ec-bc15-112bb1161496"},"vehicle_type_id":"4","last_reported":1721146150,"current_range_meters":11600,"station_id":"ce4bhch2rcd13ifvqeug","pricing_plan_id":"cebpf4jnsgd1na2vs0mg"},{"bike_id":"240559f4-5318-4a19-914a-ecf668f16163","system_id":"levelo_inurba_marseille","lat":43.28616,"lon":5.35098,"is_reserved":false,"is_disabled":false,"rental_uris":{"android":"levelo://app?vid=240559f4-5318-4a19-914a-ecf668f16163","ios":"levelo://app?vid=240559f4-5318-4a19-914a-ecf668f16163"},"vehicle_type_id":"4","last_reported":1721146150,"current_range_meters":27600,"station_id":"ce4bhch2rcd13ifvqeug","pricing_plan_id":"cebpf4jnsgd1na2vs0mg"},{"bike_id":"ec58b304-2fe1-4998-8542-7b2852b5c02f","system_id":"levelo_inurba_marseille","lat":43.28616,"lon":5.35098,"is_reserved":false,"is_disabled":false,"rental_uris":{"android":"levelo://app?vid=ec58b304-2fe1-4998-8542-7b2852b5c02f","ios":"levelo://app?vid=ec58b304-2fe1-4998-8542-7b2852b5c02f"},"vehicle_type_id":"4","last_reported":1721146150,"current_range_meters":31200,"station_id":"ce4bhch2rcd13ifvqeug","pricing_plan_id":"cebpf4jnsgd1na2vs0mg"},{"bike_id":"16c5cbff-a1e5-4214-a6df-8868feb170bf","system_id":"levelo_inurba_marseille","lat":43.285856,"lon":5.350771,"is_reserved":false,"is_disabled":false,"rental_uris":{"android":"levelo://app?vid=16c5cbff-a1e5-4214-a6df-8868feb170bf","ios":"levelo://app?vid=16c5cbff-a1e5-4214-a6df-8868feb170bf"},"vehicle_type_id":"4","last_reported":1721146150,"current_range_meters":25200,"station_id":"ce4bhch2rcd13ifvqeug","pricing_plan_id":"cebpf4jnsgd1na2vs0mg"},{"bike_id":"641e2d99-8ce9-4fcc-80fd-2f28dded8e95","system_id":"levelo_inurba_marseille","lat":43.286113,"lon":5.351052,"is_reserved":false,"is_disabled":false,"rental_uris":{"android":"levelo://app?vid=641e2d99-8ce9-4fcc-80fd-2f28dded8e95","ios":"levelo://app?vid=641e2d99-8ce9-4fcc-80fd-2f28dded8e95"},"vehicle_type_id":"4","last_reported":1721146150,"current_range_meters":0,"station_id":"ce4bh512rcd13ifvqe3g","pricing_plan_id":"cebpf4jnsgd1na2vs0mg"},{"bike_id":"b2244f57-d571-4b1e-abd6-c2c61ae06592","system_id":"levelo_inurba_marseille","lat":43.28613,"lon":5.35098,"is_reserved":false,"is_disabled":false,"rental_uris":{"android":"levelo://app?vid=b2244f57-d571-4b1e-abd6-c2c61ae06592","ios":"levelo://app?vid=b2244f57-d571-4b1e-abd6-c2c61ae06592"},"vehicle_type_id":"4","last_reported":1721146150,"current_range_meters":14800,"station_id":"ce4bhch2rcd13ifvqeug","pricing_plan_id":"cebpf4jnsgd1na2vs0mg"},{"bike_id":"62be4142-cea2-435a-ac2d-a7af037cc62b","system_id":"levelo_inurba_marseille","lat":43.2861,"lon":5.35107,"is_reserved":false,"is_disabled":false,"rental_uris":{"android":"levelo://app?vid=62be4142-cea2-435a-ac2d-a7af037cc62b","ios":"levelo://app?vid=62be4142-cea2-435a-ac2d-a7af037cc62b"},"vehicle_type_id":"4","last_reported":1721146150,"current_range_meters":30400,"station_id":"ce4bhch2rcd13ifvqeug","pricing_plan_id":"cebpf4jnsgd1na2vs0mg"},{"bike_id":"70e37ba4-e4b2-44a2-a2fe-feedb1fecbdd","system_id":"levelo_inurba_marseille","lat":43.285856,"lon":5.350771,"is_reserved":false,"is_disabled":false,"rental_uris":{"android":"levelo://app?vid=70e37ba4-e4b2-44a2-a2fe-feedb1fecbdd","ios":"levelo://app?vid=70e37ba4-e4b2-44a2-a2fe-feedb1fecbdd"},"vehicle_type_id":"4","last_reported":1721146150,"current_range_meters":31200,"station_id":"ce4bhch2rcd13ifvqeug","pricing_plan_id":"cebpf4jnsgd1na2vs0mg"},{"bike_id":"10916c92-65b7-49d5-b90b-e6b7017e01f7","system_id":"levelo_inurba_marseille","lat":43.28607,"lon":5.35096,"is_reserved":false,"is_disabled":false,"rental_uris":{"android":"levelo://app?vid=10916c92-65b7-49d5-b90b-e6b7017e01f7","ios":"levelo://app?vid=10916c92-65b7-49d5-b90b-e6b7017e01f7"},"vehicle_type_id":"4","last_reported":1721146150,"current_range_meters":22400,"station_id":"ce4bhch2rcd13ifvqeug","pricing_plan_id":"cebpf4jnsgd1na2vs0mg"},{"bike_id":"b0bf6331-3873-4f49-9743-57c5c37d980a","system_id":"levelo_inurba_marseille","lat":43.295713,"lon":5.399639,"is_reserved":false,"is_disabled":false,"rental_uris":{"android":"levelo://app?vid=b0bf6331-3873-4f49-9743-57c5c37d980a","ios":"levelo://app?vid=b0bf6331-3873-4f49-9743-57c5c37d980a"},"vehicle_type_id":"4","last_reported":1721146150,"current_range_meters":0,"station_id":"ce4bh312rcd13ifvqdj0","pricing_plan_id":"cebpf4jnsgd1na2vs0mg"},{"bike_id":"d086431f-0aea-4f4f-a42b-9722fd2ea2d4","system_id":"levelo_inurba_marseille","lat":43.286595,"lon":5.386795,"is_reserved":false,"is_disabled":false,"rental_uris":{"android":"levelo://app?vid=d086431f-0aea-4f4f-a42b-9722fd2ea2d4","ios":"levelo://app?vid=d086431f-0aea-4f4f-a42b-9722fd2ea2d4"},"vehicle_type_id":"4","last_reported":1721146150,"current_range_meters":4800,"station_id":"ce4bh492rcd13ifvqdug","pricing_plan_id":"cebpf4jnsgd1na2vs0mg"},{"bike_id":"e777468a-2ec5-46f4-9dd3-3ca9a93a838a","system_id":"levelo_inurba_marseille","lat":43.28677,"lon":5.38671,"is_reserved":false,"is_disabled":false,"rental_uris":{"android":"levelo://app?vid=e777468a-2ec5-46f4-9dd3-3ca9a93a838a","ios":"levelo://app?vid=e777468a-2ec5-46f4-9dd3-3ca9a93a838a"},"vehicle_type_id":"4","last_reported":1721146150,"current_range_meters":0,"station_id":"ce4bh492rcd13ifvqdug","pricing_plan_id":"cebpf4jnsgd1na2vs0mg"},{"bike_id":"bf2896eb-aa36-4837-ba7e-1eb786b03e00","system_id":"levelo_inurba_marseille","lat":43.298037,"lon":5.381066,"is_reserved":false,"is_disabled":false,"rental_uris":{"android":"levelo://app?vid=bf2896eb-aa36-4837-ba7e-1eb786b03e00","ios":"levelo://app?vid=bf2896eb-aa36-4837-ba7e-1eb786b03e00"},"vehicle_type_id":"4","last_reported":1721146150,"current_range_meters":18400,"station_id":"ce4bgip2rcd13ifvqbb0","pricing_plan_id":"cebpf4jnsgd1na2vs0mg"},{"bike_id":"88a79bc8-1241-4a71-b58b-d75b2cff9f6e","system_id":"levelo_inurba_marseille","lat":43.31892,"lon":5.40742,"is_reserved":false,"is_disabled":false,"rental_uris":{"android":"levelo://app?vid=88a79bc8-1241-4a71-b58b-d75b2cff9f6e","ios":"levelo://app?vid=88a79bc8-1241-4a71-b58b-d75b2cff9f6e"},"vehicle_type_id":"4","last_reported":1721146150,"current_range_meters":29600,"station_id":"ce4bhq12rcd13ifvqhig","pricing_plan_id":"cebpf4jnsgd1na2vs0mg"},{"bike_id":"3639068f-2f5e-4c3b-8fa9-aa7fbdbd23e7","system_id":"levelo_inurba_marseille","lat":43.33717,"lon":5.391857,"is_reserved":false,"is_disabled":false,"rental_uris":{"android":"levelo://app?vid=3639068f-2f5e-4c3b-8fa9-aa7fbdbd23e7","ios":"levelo://app?vid=3639068f-2f5e-4c3b-8fa9-aa7fbdbd23e7"},"vehicle_type_id":"4","last_reported":1721146150,"current_range_meters":13200,"station_id":"ce4bhr92rcd13ifvqhsg","pricing_plan_id":"cebpf4jnsgd1na2vs0mg"},{"bike_id":"9e34b8b2-ac65-4e0f-90cd-3de02a29c50c","system_id":"levelo_inurba_marseille","lat":43.28498,"lon":5.38557,"is_reserved":false,"is_disabled":false,"rental_uris":{"android":"levelo://app?vid=9e34b8b2-ac65-4e0f-90cd-3de02a29c50c","ios":"levelo://app?vid=9e34b8b2-ac65-4e0f-90cd-3de02a29c50c"},"vehicle_type_id":"4","last_reported":1721146150,"current_range_meters":11200,"station_id":"ce4bh8p2rcd13ifvqeb0","pricing_plan_id":"cebpf4jnsgd1na2vs0mg"},{"bike_id":"3a68378c-0923-4600-ba47-2c119c2b4095","system_id":"levelo_inurba_marseille","lat":43.28441,"lon":5.34975,"is_reserved":false,"is_disabled":false,"rental_uris":{"android":"levelo://app?vid=3a68378c-0923-4600-ba47-2c119c2b4095","ios":"levelo://app?vid=3a68378c-0923-4600-ba47-2c119c2b4095"},"vehicle_type_id":"4","last_reported":1721146150,"current_range_meters":14000,"station_id":"ce4bhbh2rcd13ifvqepg","pricing_plan_id":"cebpf4jnsgd1na2vs0mg"},{"bike_id":"0b9ee10b-5ce1-4d2d-afba-996c77552231","system_id":"levelo_inurba_marseille","lat":43.28493,"lon":5.38566,"is_reserved":false,"is_disabled":false,"rental_uris":{"android":"levelo://app?vid=0b9ee10b-5ce1-4d2d-afba-996c77552231","ios":"levelo://app?vid=0b9ee10b-5ce1-4d2d-afba-996c77552231"},"vehicle_type_id":"4","last_reported":1721146150,"current_range_meters":0,"station_id":"ce4bh8p2rcd13ifvqeb0","pricing_plan_id":"cebpf4jnsgd1na2vs0mg"},{"bike_id":"4981ebd3-5136-4429-98f6-8eff81af20d2","system_id":"levelo_inurba_marseille","lat":43.284219,"lon":5.3497,"is_reserved":false,"is_disabled":false,"rental_uris":{"android":"levelo://app?vid=4981ebd3-5136-4429-98f6-8eff81af20d2","ios":"levelo://app?vid=4981ebd3-5136-4429-98f6-8eff81af20d2"},"vehicle_type_id":"4","last_reported":1721146150,"current_range_meters":4400,"station_id":"ce4bhbh2rcd13ifvqepg","pricing_plan_id":"cebpf4jnsgd1na2vs0mg"},{"bike_id":"d6d2377a-c1a0-4511-aa10-19bfa75d22c6","system_id":"levelo_inurba_marseille","lat":43.28427,"lon":5.34982,"is_reserved":false,"is_disabled":false,"rental_uris":{"android":"levelo://app?vid=d6d2377a-c1a0-4511-aa10-19bfa75d22c6","ios":"levelo://app?vid=d6d2377a-c1a0-4511-aa10-19bfa75d22c6"},"vehicle_type_id":"4","last_reported":1721146150,"current_range_meters":3600,"station_id":"ce4bhbh2rcd13ifvqepg","pricing_plan_id":"cebpf4jnsgd1na2vs0mg"},{"bike_id":"0ca611eb-7bc1-453f-9095-006925196b90","system_id":"levelo_inurba_marseille","lat":43.284215,"lon":5.349968,"is_reserved":false,"is_disabled":false,"rental_uris":{"android":"levelo://app?vid=0ca611eb-7bc1-453f-9095-006925196b90","ios":"levelo://app?vid=0ca611eb-7bc1-453f-9095-006925196b90"},"vehicle_type_id":"4","last_reported":1721146150,"current_range_meters":5200,"station_id":"ce4bhbh2rcd13ifvqepg","pricing_plan_id":"cebpf4jnsgd1na2vs0mg"},{"bike_id":"882c24f6-e4a6-4a6d-8397-cefb9ffe7802","system_id":"levelo_inurba_marseille","lat":43.28423,"lon":5.34991,"is_reserved":false,"is_disabled":false,"rental_uris":{"android":"levelo://app?vid=882c24f6-e4a6-4a6d-8397-cefb9ffe7802","ios":"levelo://app?vid=882c24f6-e4a6-4a6d-8397-cefb9ffe7802"},"vehicle_type_id":"4","last_reported":1721146150,"current_range_meters":14800,"station_id":"ce4bhbh2rcd13ifvqepg","pricing_plan_id":"cebpf4jnsgd1na2vs0mg"},{"bike_id":"061fb7fe-369a-4a14-9755-16e00440af2b","system_id":"levelo_inurba_marseille","lat":43.28421,"lon":5.34995,"is_reserved":false,"is_disabled":false,"rental_uris":{"android":"levelo://app?vid=061fb7fe-369a-4a14-9755-16e00440af2b","ios":"levelo://app?vid=061fb7fe-369a-4a14-9755-16e00440af2b"},"vehicle_type_id":"4","last_reported":1721146150,"current_range_meters":0,"station_id":"ce4bhbh2rcd13ifvqepg","pricing_plan_id":"cebpf4jnsgd1na2vs0mg"},{"bike_id":"a0a7f92f-65a8-4fc9-b820-512e457a2aa7","system_id":"levelo_inurba_marseille","lat":43.28425,"lon":5.34982,"is_reserved":false,"is_disabled":false,"rental_uris":{"android":"levelo://app?vid=a0a7f92f-65a8-4fc9-b820-512e457a2aa7","ios":"levelo://app?vid=a0a7f92f-65a8-4fc9-b820-512e457a2aa7"},"vehicle_type_id":"4","last_reported":1721146150,"current_range_meters":30400,"station_id":"ce4bhbh2rcd13ifvqepg","pricing_plan_id":"cebpf4jnsgd1na2vs0mg"},{"bike_id":"83bc8e67-d0b8-4092-8558-c51b4d06682d","system_id":"levelo_inurba_marseille","lat":43.284226,"lon":5.349894,"is_reserved":false,"is_disabled":false,"rental_uris":{"android":"levelo://app?vid=83bc8e67-d0b8-4092-8558-c51b4d06682d","ios":"levelo://app?vid=83bc8e67-d0b8-4092-8558-c51b4d06682d"},"vehicle_type_id":"4","last_reported":1721146150,"current_range_meters":21200,"station_id":"ce4bhbh2rcd13ifvqepg","pricing_plan_id":"cebpf4jnsgd1na2vs0mg"},{"bike_id":"b5309b77-c416-4b91-ab06-1ee242600763","system_id":"levelo_inurba_marseille","lat":43.284229,"lon":5.349866,"is_reserved":false,"is_disabled":false,"rental_uris":{"android":"levelo://app?vid=b5309b77-c416-4b91-ab06-1ee242600763","ios":"levelo://app?vid=b5309b77-c416-4b91-ab06-1ee242600763"},"vehicle_type_id":"4","last_reported":1721146150,"current_range_meters":14400,"station_id":"ce4bhbh2rcd13ifvqepg","pricing_plan_id":"cebpf4jnsgd1na2vs0mg"},{"bike_id":"15bfa21a-d5a9-4816-b07c-916e8574680f","system_id":"levelo_inurba_marseille","lat":43.28421,"lon":5.34992,"is_reserved":false,"is_disabled":false,"rental_uris":{"android":"levelo://app?vid=15bfa21a-d5a9-4816-b07c-916e8574680f","ios":"levelo://app?vid=15bfa21a-d5a9-4816-b07c-916e8574680f"},"vehicle_type_id":"4","last_reported":1721146150,"current_range_meters":2000,"station_id":"ce4bhbh2rcd13ifvqepg","pricing_plan_id":"cebpf4jnsgd1na2vs0mg"},{"bike_id":"b6ccf455-5a5c-4965-95d4-ef221fb55a02","system_id":"levelo_inurba_marseille","lat":43.2842,"lon":5.34992,"is_reserved":false,"is_disabled":false,"rental_uris":{"android":"levelo://app?vid=b6ccf455-5a5c-4965-95d4-ef221fb55a02","ios":"levelo://app?vid=b6ccf455-5a5c-4965-95d4-ef221fb55a02"},"vehicle_type_id":"4","last_reported":1721146150,"current_range_meters":12000,"station_id":"ce4bhbh2rcd13ifvqepg","pricing_plan_id":"cebpf4jnsgd1na2vs0mg"},{"bike_id":"f0994eaa-52ce-48d2-905d-2a8ebc264758","system_id":"levelo_inurba_marseille","lat":43.284208,"lon":5.349865,"is_reserved":false,"is_disabled":false,"rental_uris":{"android":"levelo://app?vid=f0994eaa-52ce-48d2-905d-2a8ebc264758","ios":"levelo://app?vid=f0994eaa-52ce-48d2-905d-2a8ebc264758"},"vehicle_type_id":"4","last_reported":1721146150,"current_range_meters":20800,"station_id":"ce4bhbh2rcd13ifvqepg","pricing_plan_id":"cebpf4jnsgd1na2vs0mg"},{"bike_id":"483d516d-d003-4735-be5d-bc3f7bfae3a4","system_id":"levelo_inurba_marseille","lat":43.28417,"lon":5.34998,"is_reserved":false,"is_disabled":false,"rental_uris":{"android":"levelo://app?vid=483d516d-d003-4735-be5d-bc3f7bfae3a4","ios":"levelo://app?vid=483d516d-d003-4735-be5d-bc3f7bfae3a4"},"vehicle_type_id":"4","last_reported":1721146150,"current_range_meters":26400,"station_id":"ce4bhbh2rcd13ifvqepg","pricing_plan_id":"cebpf4jnsgd1na2vs0mg"},{"bike_id":"4c09d844-0134-41ba-83f6-386245d4bd48","system_id":"levelo_inurba_marseille","lat":43.284211,"lon":5.349851,"is_reserved":false,"is_disabled":false,"rental_uris":{"android":"levelo://app?vid=4c09d844-0134-41ba-83f6-386245d4bd48","ios":"levelo://app?vid=4c09d844-0134-41ba-83f6-386245d4bd48"},"vehicle_type_id":"4","last_reported":1721146150,"current_range_meters":26400,"station_id":"ce4bhbh2rcd13ifvqepg","pricing_plan_id":"cebpf4jnsgd1na2vs0mg"},{"bike_id":"f99689f9-d80a-422e-a824-f0024afe6686","system_id":"levelo_inurba_marseille","lat":43.2842,"lon":5.34987,"is_reserved":false,"is_disabled":false,"rental_uris":{"android":"levelo://app?vid=f99689f9-d80a-422e-a824-f0024afe6686","ios":"levelo://app?vid=f99689f9-d80a-422e-a824-f0024afe6686"},"vehicle_type_id":"4","last_reported":1721146150,"current_range_meters":0,"station_id":"ce4bhbh2rcd13ifvqepg","pricing_plan_id":"cebpf4jnsgd1na2vs0mg"},{"bike_id":"7c4ec844-3a33-4167-ae4d-0de550a7d38d","system_id":"levelo_inurba_marseille","lat":43.284219,"lon":5.3497,"is_reserved":false,"is_disabled":false,"rental_uris":{"android":"levelo://app?vid=7c4ec844-3a33-4167-ae4d-0de550a7d38d","ios":"levelo://app?vid=7c4ec844-3a33-4167-ae4d-0de550a7d38d"},"vehicle_type_id":"4","last_reported":1721146150,"current_range_meters":10400,"station_id":"ce4bhbh2rcd13ifvqepg","pricing_plan_id":"cebpf4jnsgd1na2vs0mg"},{"bike_id":"b3aabe3a-058a-44ad-b9cb-cdf5a372e8d7","system_id":"levelo_inurba_marseille","lat":43.284219,"lon":5.3497,"is_reserved":false,"is_disabled":false,"rental_uris":{"android":"levelo://app?vid=b3aabe3a-058a-44ad-b9cb-cdf5a372e8d7","ios":"levelo://app?vid=b3aabe3a-058a-44ad-b9cb-cdf5a372e8d7"},"vehicle_type_id":"4","last_reported":1721146150,"current_range_meters":5600,"station_id":"ce4bhbh2rcd13ifvqepg","pricing_plan_id":"cebpf4jnsgd1na2vs0mg"},{"bike_id":"5866faa6-7b97-4a98-8d58-0a30af6c08e2","system_id":"levelo_inurba_marseille","lat":43.28418,"lon":5.34991,"is_reserved":false,"is_disabled":false,"rental_uris":{"android":"levelo://app?vid=5866faa6-7b97-4a98-8d58-0a30af6c08e2","ios":"levelo://app?vid=5866faa6-7b97-4a98-8d58-0a30af6c08e2"},"vehicle_type_id":"4","last_reported":1721146150,"current_range_meters":0,"station_id":"ce4bhbh2rcd13ifvqepg","pricing_plan_id":"cebpf4jnsgd1na2vs0mg"},{"bike_id":"1abb6c91-fd6d-470a-81a6-fae451e10b11","system_id":"levelo_inurba_marseille","lat":43.284219,"lon":5.3497,"is_reserved":false,"is_disabled":false,"rental_uris":{"android":"levelo://app?vid=1abb6c91-fd6d-470a-81a6-fae451e10b11","ios":"levelo://app?vid=1abb6c91-fd6d-470a-81a6-fae451e10b11"},"vehicle_type_id":"4","last_reported":1721146150,"current_range_meters":2800,"station_id":"ce4bhbh2rcd13ifvqepg","pricing_plan_id":"cebpf4jnsgd1na2vs0mg"},{"bike_id":"ef417811-1271-4f89-9713-b77befbc9ec5","system_id":"levelo_inurba_marseille","lat":43.284217,"lon":5.349697,"is_reserved":false,"is_disabled":false,"rental_uris":{"android":"levelo://app?vid=ef417811-1271-4f89-9713-b77befbc9ec5","ios":"levelo://app?vid=ef417811-1271-4f89-9713-b77befbc9ec5"},"vehicle_type_id":"4","last_reported":1721146150,"current_range_meters":23600,"station_id":"ce4bhbh2rcd13ifvqepg","pricing_plan_id":"cebpf4jnsgd1na2vs0mg"},{"bike_id":"6dc99a35-ad63-4005-bb9e-c18cc152de6d","system_id":"levelo_inurba_marseille","lat":43.28416,"lon":5.34996,"is_reserved":false,"is_disabled":false,"rental_uris":{"android":"levelo://app?vid=6dc99a35-ad63-4005-bb9e-c18cc152de6d","ios":"levelo://app?vid=6dc99a35-ad63-4005-bb9e-c18cc152de6d"},"vehicle_type_id":"4","last_reported":1721146150,"current_range_meters":23200,"station_id":"ce4bhbh2rcd13ifvqepg","pricing_plan_id":"cebpf4jnsgd1na2vs0mg"},{"bike_id":"d5192af1-82d3-4a80-9d52-13ca0e56b0e3","system_id":"levelo_inurba_marseille","lat":43.28418,"lon":5.34986,"is_reserved":false,"is_disabled":false,"rental_uris":{"android":"levelo://app?vid=d5192af1-82d3-4a80-9d52-13ca0e56b0e3","ios":"levelo://app?vid=d5192af1-82d3-4a80-9d52-13ca0e56b0e3"},"vehicle_type_id":"4","last_reported":1721146150,"current_range_meters":31200,"station_id":"ce4bhbh2rcd13ifvqepg","pricing_plan_id":"cebpf4jnsgd1na2vs0mg"},{"bike_id":"271e6c9d-4927-4585-bcfc-2d4364589388","system_id":"levelo_inurba_marseille","lat":43.28416,"lon":5.34991,"is_reserved":false,"is_disabled":false,"rental_uris":{"android":"levelo://app?vid=271e6c9d-4927-4585-bcfc-2d4364589388","ios":"levelo://app?vid=271e6c9d-4927-4585-bcfc-2d4364589388"},"vehicle_type_id":"4","last_reported":1721146150,"current_range_meters":0,"station_id":"ce4bhbh2rcd13ifvqepg","pricing_plan_id":"cebpf4jnsgd1na2vs0mg"},{"bike_id":"54183889-dfbb-433f-b171-813454d4936b","system_id":"levelo_inurba_marseille","lat":43.28421,"lon":5.34975,"is_reserved":false,"is_disabled":false,"rental_uris":{"android":"levelo://app?vid=54183889-dfbb-433f-b171-813454d4936b","ios":"levelo://app?vid=54183889-dfbb-433f-b171-813454d4936b"},"vehicle_type_id":"4","last_reported":1721146150,"current_range_meters":27200,"station_id":"ce4bhbh2rcd13ifvqepg","pricing_plan_id":"cebpf4jnsgd1na2vs0mg"},{"bike_id":"61992a17-c448-4d90-8b5c-0f706b671a5c","system_id":"levelo_inurba_marseille","lat":43.28417,"lon":5.34984,"is_reserved":false,"is_disabled":false,"rental_uris":{"android":"levelo://app?vid=61992a17-c448-4d90-8b5c-0f706b671a5c","ios":"levelo://app?vid=61992a17-c448-4d90-8b5c-0f706b671a5c"},"vehicle_type_id":"4","last_reported":1721146150,"current_range_meters":0,"station_id":"ce4bhbh2rcd13ifvqepg","pricing_plan_id":"cebpf4jnsgd1na2vs0mg"},{"bike_id":"39f6c9c8-bdfa-4997-9101-d77763ccb530","system_id":"levelo_inurba_marseille","lat":43.284155,"lon":5.349867,"is_reserved":false,"is_disabled":false,"rental_uris":{"android":"levelo://app?vid=39f6c9c8-bdfa-4997-9101-d77763ccb530","ios":"levelo://app?vid=39f6c9c8-bdfa-4997-9101-d77763ccb530"},"vehicle_type_id":"4","last_reported":1721146150,"current_range_meters":18800,"station_id":"ce4bhbh2rcd13ifvqepg","pricing_plan_id":"cebpf4jnsgd1na2vs0mg"},{"bike_id":"ffb7dafd-e58b-47c1-8b1a-61c27732ae8f","system_id":"levelo_inurba_marseille","lat":43.284154,"lon":5.349856,"is_reserved":false,"is_disabled":false,"rental_uris":{"android":"levelo://app?vid=ffb7dafd-e58b-47c1-8b1a-61c27732ae8f","ios":"levelo://app?vid=ffb7dafd-e58b-47c1-8b1a-61c27732ae8f"},"vehicle_type_id":"4","last_reported":1721146150,"current_range_meters":15600,"station_id":"ce4bhbh2rcd13ifvqepg","pricing_plan_id":"cebpf4jnsgd1na2vs0mg"},{"bike_id":"c2a52344-bcb9-4f15-aa67-d893b5c9d81e","system_id":"levelo_inurba_marseille","lat":43.284214,"lon":5.349706,"is_reserved":false,"is_disabled":false,"rental_uris":{"android":"levelo://app?vid=c2a52344-bcb9-4f15-aa67-d893b5c9d81e","ios":"levelo://app?vid=c2a52344-bcb9-4f15-aa67-d893b5c9d81e"},"vehicle_type_id":"4","last_reported":1721146150,"current_range_meters":31200,"station_id":"ce4bhbh2rcd13ifvqepg","pricing_plan_id":"cebpf4jnsgd1na2vs0mg"},{"bike_id":"2f3224b4-46ee-478f-b5a2-8de3743daff9","system_id":"levelo_inurba_marseille","lat":43.28413,"lon":5.34993,"is_reserved":false,"is_disabled":false,"rental_uris":{"android":"levelo://app?vid=2f3224b4-46ee-478f-b5a2-8de3743daff9","ios":"levelo://app?vid=2f3224b4-46ee-478f-b5a2-8de3743daff9"},"vehicle_type_id":"4","last_reported":1721146150,"current_range_meters":14400,"station_id":"ce4bhbh2rcd13ifvqepg","pricing_plan_id":"cebpf4jnsgd1na2vs0mg"},{"bike_id":"4a0041fb-ec88-4cec-91aa-fb18eecc075d","system_id":"levelo_inurba_marseille","lat":43.28416,"lon":5.34983,"is_reserved":false,"is_disabled":false,"rental_uris":{"android":"levelo://app?vid=4a0041fb-ec88-4cec-91aa-fb18eecc075d","ios":"levelo://app?vid=4a0041fb-ec88-4cec-91aa-fb18eecc075d"},"vehicle_type_id":"4","last_reported":1721146150,"current_range_meters":4000,"station_id":"ce4bhbh2rcd13ifvqepg","pricing_plan_id":"cebpf4jnsgd1na2vs0mg"},{"bike_id":"40f1c7e2-6d1c-4596-af0d-d018ffd335d3","system_id":"levelo_inurba_marseille","lat":43.28414,"lon":5.34985,"is_reserved":false,"is_disabled":false,"rental_uris":{"android":"levelo://app?vid=40f1c7e2-6d1c-4596-af0d-d018ffd335d3","ios":"levelo://app?vid=40f1c7e2-6d1c-4596-af0d-d018ffd335d3"},"vehicle_type_id":"4","last_reported":1721146150,"current_range_meters":4800,"station_id":"ce4bhbh2rcd13ifvqepg","pricing_plan_id":"cebpf4jnsgd1na2vs0mg"},{"bike_id":"7043db07-f80a-4bb1-8c9a-62f4cc17c51c","system_id":"levelo_inurba_marseille","lat":43.284117,"lon":5.349912,"is_reserved":false,"is_disabled":false,"rental_uris":{"android":"levelo://app?vid=7043db07-f80a-4bb1-8c9a-62f4cc17c51c","ios":"levelo://app?vid=7043db07-f80a-4bb1-8c9a-62f4cc17c51c"},"vehicle_type_id":"4","last_reported":1721146150,"current_range_meters":13600,"station_id":"ce4bhbh2rcd13ifvqepg","pricing_plan_id":"cebpf4jnsgd1na2vs0mg"},{"bike_id":"da9c2e00-5174-4a82-a71f-a4bd9f1b6ea6","system_id":"levelo_inurba_marseille","lat":43.284122,"lon":5.34987,"is_reserved":false,"is_disabled":false,"rental_uris":{"android":"levelo://app?vid=da9c2e00-5174-4a82-a71f-a4bd9f1b6ea6","ios":"levelo://app?vid=da9c2e00-5174-4a82-a71f-a4bd9f1b6ea6"},"vehicle_type_id":"4","last_reported":1721146150,"current_range_meters":22400,"station_id":"ce4bhbh2rcd13ifvqepg","pricing_plan_id":"cebpf4jnsgd1na2vs0mg"},{"bike_id":"6478ff65-27b9-4d8f-9e81-c38878e0c83c","system_id":"levelo_inurba_marseille","lat":43.284106,"lon":5.349892,"is_reserved":false,"is_disabled":false,"rental_uris":{"android":"levelo://app?vid=6478ff65-27b9-4d8f-9e81-c38878e0c83c","ios":"levelo://app?vid=6478ff65-27b9-4d8f-9e81-c38878e0c83c"},"vehicle_type_id":"4","last_reported":1721146150,"current_range_meters":16400,"station_id":"ce4bhbh2rcd13ifvqepg","pricing_plan_id":"cebpf4jnsgd1na2vs0mg"},{"bike_id":"a0926a93-8047-40fa-b2fb-dd9c98f7b9d2","system_id":"levelo_inurba_marseille","lat":43.284214,"lon":5.349706,"is_reserved":false,"is_disabled":false,"rental_uris":{"android":"levelo://app?vid=a0926a93-8047-40fa-b2fb-dd9c98f7b9d2","ios":"levelo://app?vid=a0926a93-8047-40fa-b2fb-dd9c98f7b9d2"},"vehicle_type_id":"4","last_reported":1721146150,"current_range_meters":20400,"station_id":"ce4bhbh2rcd13ifvqepg","pricing_plan_id":"cebpf4jnsgd1na2vs0mg"},{"bike_id":"99939a62-c2d1-4a2c-a7a6-10ee5a82dbf6","system_id":"levelo_inurba_marseille","lat":43.2841,"lon":5.34987,"is_reserved":false,"is_disabled":false,"rental_uris":{"android":"levelo://app?vid=99939a62-c2d1-4a2c-a7a6-10ee5a82dbf6","ios":"levelo://app?vid=99939a62-c2d1-4a2c-a7a6-10ee5a82dbf6"},"vehicle_type_id":"4","last_reported":1721146150,"current_range_meters":28400,"station_id":"ce4bhbh2rcd13ifvqepg","pricing_plan_id":"cebpf4jnsgd1na2vs0mg"},{"bike_id":"83fe76c1-c788-4312-993f-001ac4c24f51","system_id":"levelo_inurba_marseille","lat":43.284083,"lon":5.349922,"is_reserved":false,"is_disabled":false,"rental_uris":{"android":"levelo://app?vid=83fe76c1-c788-4312-993f-001ac4c24f51","ios":"levelo://app?vid=83fe76c1-c788-4312-993f-001ac4c24f51"},"vehicle_type_id":"4","last_reported":1721146150,"current_range_meters":8400,"station_id":"ce4bhbh2rcd13ifvqepg","pricing_plan_id":"cebpf4jnsgd1na2vs0mg"},{"bike_id":"eaf73ca9-b860-40a2-a5f2-7ad300cb4f5c","system_id":"levelo_inurba_marseille","lat":43.284093,"lon":5.34989,"is_reserved":false,"is_disabled":false,"rental_uris":{"android":"levelo://app?vid=eaf73ca9-b860-40a2-a5f2-7ad300cb4f5c","ios":"levelo://app?vid=eaf73ca9-b860-40a2-a5f2-7ad300cb4f5c"},"vehicle_type_id":"4","last_reported":1721146150,"current_range_meters":31200,"station_id":"ce4bhbh2rcd13ifvqepg","pricing_plan_id":"cebpf4jnsgd1na2vs0mg"},{"bike_id":"ed96bfdb-b6be-4d43-b8cf-7c9ce6f84437","system_id":"levelo_inurba_marseille","lat":43.28407,"lon":5.34995,"is_reserved":false,"is_disabled":false,"rental_uris":{"android":"levelo://app?vid=ed96bfdb-b6be-4d43-b8cf-7c9ce6f84437","ios":"levelo://app?vid=ed96bfdb-b6be-4d43-b8cf-7c9ce6f84437"},"vehicle_type_id":"4","last_reported":1721146150,"current_range_meters":31200,"station_id":"ce4bhbh2rcd13ifvqepg","pricing_plan_id":"cebpf4jnsgd1na2vs0mg"},{"bike_id":"025833b0-fec3-491f-9e68-0c98e7ad99c1","system_id":"levelo_inurba_marseille","lat":43.284214,"lon":5.349706,"is_reserved":false,"is_disabled":false,"rental_uris":{"android":"levelo://app?vid=025833b0-fec3-491f-9e68-0c98e7ad99c1","ios":"levelo://app?vid=025833b0-fec3-491f-9e68-0c98e7ad99c1"},"vehicle_type_id":"4","last_reported":1721146150,"current_range_meters":20800,"station_id":"ce4bhbh2rcd13ifvqepg","pricing_plan_id":"cebpf4jnsgd1na2vs0mg"},{"bike_id":"55be032a-0861-4167-b1da-79dda31b8b65","system_id":"levelo_inurba_marseille","lat":43.28285,"lon":5.3507,"is_reserved":false,"is_disabled":false,"rental_uris":{"android":"levelo://app?vid=55be032a-0861-4167-b1da-79dda31b8b65","ios":"levelo://app?vid=55be032a-0861-4167-b1da-79dda31b8b65"},"vehicle_type_id":"4","last_reported":1721146150,"current_range_meters":12400,"station_id":"ce4bhbp2rcd13ifvqerg","pricing_plan_id":"cebpf4jnsgd1na2vs0mg"},{"bike_id":"75d147b2-c9e3-4a6f-8e9c-f41d1b450496","system_id":"levelo_inurba_marseille","lat":43.2828,"lon":5.35074,"is_reserved":false,"is_disabled":false,"rental_uris":{"android":"levelo://app?vid=75d147b2-c9e3-4a6f-8e9c-f41d1b450496","ios":"levelo://app?vid=75d147b2-c9e3-4a6f-8e9c-f41d1b450496"},"vehicle_type_id":"4","last_reported":1721146150,"current_range_meters":8400,"station_id":"ce4bhbp2rcd13ifvqerg","pricing_plan_id":"cebpf4jnsgd1na2vs0mg"},{"bike_id":"362b4081-76d6-4116-87d3-23e1f4d8ca7f","system_id":"levelo_inurba_marseille","lat":43.282744,"lon":5.350533,"is_reserved":false,"is_disabled":false,"rental_uris":{"android":"levelo://app?vid=362b4081-76d6-4116-87d3-23e1f4d8ca7f","ios":"levelo://app?vid=362b4081-76d6-4116-87d3-23e1f4d8ca7f"},"vehicle_type_id":"4","last_reported":1721146150,"current_range_meters":30800,"station_id":"ce4bhbp2rcd13ifvqerg","pricing_plan_id":"cebpf4jnsgd1na2vs0mg"},{"bike_id":"ae8c6308-4696-4253-8ccb-68e2e29c6959","system_id":"levelo_inurba_marseille","lat":43.282744,"lon":5.350533,"is_reserved":false,"is_disabled":false,"rental_uris":{"android":"levelo://app?vid=ae8c6308-4696-4253-8ccb-68e2e29c6959","ios":"levelo://app?vid=ae8c6308-4696-4253-8ccb-68e2e29c6959"},