{"last_updated":1778413222,"ttl":60,"version":"2.2","data":{"bikes":[{"bike_id":"ef4c0d2f-d37c-409b-be4c-7cceaa4aabfa","system_id":"levelo_inurba_marseille","lat":43.28483,"lon":5.4838,"is_reserved":false,"is_disabled":false,"rental_uris":{"android":"levelo://app?vid=ef4c0d2f-d37c-409b-be4c-7cceaa4aabfa","ios":"levelo://app?vid=ef4c0d2f-d37c-409b-be4c-7cceaa4aabfa"},"vehicle_type_id":"4","last_reported":1778413223,"current_range_meters":2800,"station_id":"","pricing_plan_id":"cebpf4jnsgd1na2vs0mg"},{"bike_id":"4b3eec1f-86e7-4ded-b60a-f8c098d7495f","system_id":"levelo_inurba_marseille","lat":43.284,"lon":5.37564,"is_reserved":false,"is_disabled":false,"rental_uris":{"android":"levelo://app?vid=4b3eec1f-86e7-4ded-b60a-f8c098d7495f","ios":"levelo://app?vid=4b3eec1f-86e7-4ded-b60a-f8c098d7495f"},"vehicle_type_id":"4","last_reported":1778413223,"current_range_meters":2800,"station_id":"ce4bh412rcd13ifvqds0","pricing_plan_id":"cebpf4jnsgd1na2vs0mg"},{"bike_id":"8fdbe986-716a-4dce-a50d-3af695e9688c","system_id":"levelo_inurba_marseille","lat":43.33559,"lon":5.37474,"is_reserved":false,"is_disabled":false,"rental_uris":{"android":"levelo://app?vid=8fdbe986-716a-4dce-a50d-3af695e9688c","ios":"levelo://app?vid=8fdbe986-716a-4dce-a50d-3af695e9688c"},"vehicle_type_id":"4","last_reported":1778413223,"current_range_meters":2800,"station_id":"st_d46tts09ee8s73dlu43g","pricing_plan_id":"cebpf4jnsgd1na2vs0mg"},{"bike_id":"da4afe0e-9372-4f03-8560-f9fa6533a984","system_id":"levelo_inurba_marseille","lat":43.2558,"lon":5.38231,"is_reserved":false,"is_disabled":false,"rental_uris":{"android":"levelo://app?vid=da4afe0e-9372-4f03-8560-f9fa6533a984","ios":"levelo://app?vid=da4afe0e-9372-4f03-8560-f9fa6533a984"},"vehicle_type_id":"4","last_reported":1778413223,"current_range_meters":2800,"station_id":"ce4bhih2rcd13ifvqfs0","pricing_plan_id":"cebpf4jnsgd1na2vs0mg"},{"bike_id":"edd39cc9-0ca9-4de9-bb9c-cdf6105a047f","system_id":"levelo_inurba_marseille","lat":43.29599,"lon":5.36721,"is_reserved":false,"is_disabled":true,"rental_uris":{"android":"levelo://app?vid=edd39cc9-0ca9-4de9-bb9c-cdf6105a047f","ios":"levelo://app?vid=edd39cc9-0ca9-4de9-bb9c-cdf6105a047f"},"vehicle_type_id":"4","last_reported":1778413223,"current_range_meters":2800,"station_id":"ce4bgph2rcd13ifvqc2g","pricing_plan_id":"cebpf4jnsgd1na2vs0mg"},{"bike_id":"3258ac86-dcfd-4a5c-9953-5d19079448de","system_id":"levelo_inurba_marseille","lat":43.29971,"lon":5.38496,"is_reserved":false,"is_disabled":false,"rental_uris":{"android":"levelo://app?vid=3258ac86-dcfd-4a5c-9953-5d19079448de","ios":"levelo://app?vid=3258ac86-dcfd-4a5c-9953-5d19079448de"},"vehicle_type_id":"4","last_reported":1778413223,"current_range_meters":2800,"station_id":"ce4bgj92rcd13ifvqbd0","pricing_plan_id":"cebpf4jnsgd1na2vs0mg"},{"bike_id":"136865c1-861e-4808-bdd6-86bfc13f7ee6","system_id":"levelo_inurba_marseille","lat":43.24603,"lon":5.41787,"is_reserved":false,"is_disabled":false,"rental_uris":{"android":"levelo://app?vid=136865c1-861e-4808-bdd6-86bfc13f7ee6","ios":"levelo://app?vid=136865c1-861e-4808-bdd6-86bfc13f7ee6"},"vehicle_type_id":"4","last_reported":1778413223,"current_range_meters":2800,"station_id":"","pricing_plan_id":"cebpf4jnsgd1na2vs0mg"},{"bike_id":"f30a7c82-07ca-48e2-b65a-bb0caebfaee2","system_id":"levelo_inurba_marseille","lat":43.28494,"lon":5.38413,"is_reserved":false,"is_disabled":false,"rental_uris":{"android":"levelo://app?vid=f30a7c82-07ca-48e2-b65a-bb0caebfaee2","ios":"levelo://app?vid=f30a7c82-07ca-48e2-b65a-bb0caebfaee2"},"vehicle_type_id":"4","last_reported":1778413223,"current_range_meters":3200,"station_id":"ce4bh512rcd13ifvqe3g","pricing_plan_id":"cebpf4jnsgd1na2vs0mg"},{"bike_id":"e6bd8138-3d56-4ae6-9878-8794caa087c5","system_id":"levelo_inurba_marseille","lat":43.2447,"lon":5.42528,"is_reserved":false,"is_disabled":true,"rental_uris":{"android":"levelo://app?vid=e6bd8138-3d56-4ae6-9878-8794caa087c5","ios":"levelo://app?vid=e6bd8138-3d56-4ae6-9878-8794caa087c5"},"vehicle_type_id":"4","last_reported":1778413223,"current_range_meters":3200,"station_id":"st_d4a3vfp97mjs738cd8kg","pricing_plan_id":"cebpf4jnsgd1na2vs0mg"},{"bike_id":"22bbb124-6e20-4369-8d4f-79f7a2d5ba7a","system_id":"levelo_inurba_marseille","lat":43.29214,"lon":5.36057,"is_reserved":false,"is_disabled":false,"rental_uris":{"android":"levelo://app?vid=22bbb124-6e20-4369-8d4f-79f7a2d5ba7a","ios":"levelo://app?vid=22bbb124-6e20-4369-8d4f-79f7a2d5ba7a"},"vehicle_type_id":"4","last_reported":1778413223,"current_range_meters":3200,"station_id":"ce4bhbh2rcd13ifvqeqg","pricing_plan_id":"cebpf4jnsgd1na2vs0mg"},{"bike_id":"434b844d-3701-4f6b-b586-f90d25e5d1f0","system_id":"levelo_inurba_marseille","lat":43.30092,"lon":5.37922,"is_reserved":false,"is_disabled":false,"rental_uris":{"android":"levelo://app?vid=434b844d-3701-4f6b-b586-f90d25e5d1f0","ios":"levelo://app?vid=434b844d-3701-4f6b-b586-f90d25e5d1f0"},"vehicle_type_id":"4","last_reported":1778413223,"current_range_meters":3200,"station_id":"","pricing_plan_id":"cebpf4jnsgd1na2vs0mg"},{"bike_id":"80ce62aa-95db-4134-a27f-af6f321881d8","system_id":"levelo_inurba_marseille","lat":43.3303,"lon":5.39033,"is_reserved":false,"is_disabled":false,"rental_uris":{"android":"levelo://app?vid=80ce62aa-95db-4134-a27f-af6f321881d8","ios":"levelo://app?vid=80ce62aa-95db-4134-a27f-af6f321881d8"},"vehicle_type_id":"4","last_reported":1778413223,"current_range_meters":3200,"station_id":"ce4bhr92rcd13ifvqhrg","pricing_plan_id":"cebpf4jnsgd1na2vs0mg"},{"bike_id":"22734838-df81-491d-9e42-8951d7ea9f37","system_id":"levelo_inurba_marseille","lat":43.27058,"lon":5.42252,"is_reserved":false,"is_disabled":false,"rental_uris":{"android":"levelo://app?vid=22734838-df81-491d-9e42-8951d7ea9f37","ios":"levelo://app?vid=22734838-df81-491d-9e42-8951d7ea9f37"},"vehicle_type_id":"4","last_reported":1778413223,"current_range_meters":3200,"station_id":"ce4bhk92rcd13ifvqgb0","pricing_plan_id":"cebpf4jnsgd1na2vs0mg"},{"bike_id":"1e4ed85e-7c0c-4567-85eb-0d46a6ec1853","system_id":"levelo_inurba_marseille","lat":43.31232,"lon":5.36839,"is_reserved":false,"is_disabled":false,"rental_uris":{"android":"levelo://app?vid=1e4ed85e-7c0c-4567-85eb-0d46a6ec1853","ios":"levelo://app?vid=1e4ed85e-7c0c-4567-85eb-0d46a6ec1853"},"vehicle_type_id":"4","last_reported":1778413223,"current_range_meters":3200,"station_id":"ce4bgl92rcd13ifvqbq0","pricing_plan_id":"cebpf4jnsgd1na2vs0mg"},{"bike_id":"0905bf26-d1df-4967-bcf7-a2c7f347956a","system_id":"levelo_inurba_marseille","lat":43.28949,"lon":5.39623,"is_reserved":false,"is_disabled":true,"rental_uris":{"android":"levelo://app?vid=0905bf26-d1df-4967-bcf7-a2c7f347956a","ios":"levelo://app?vid=0905bf26-d1df-4967-bcf7-a2c7f347956a"},"vehicle_type_id":"4","last_reported":1778413223,"current_range_meters":3600,"station_id":"ce4bh3h2rcd13ifvqdn0","pricing_plan_id":"cebpf4jnsgd1na2vs0mg"},{"bike_id":"234d937c-0a51-4b7b-a5da-54c58b1cfe2d","system_id":"levelo_inurba_marseille","lat":43.30549,"lon":5.36682,"is_reserved":false,"is_disabled":true,"rental_uris":{"android":"levelo://app?vid=234d937c-0a51-4b7b-a5da-54c58b1cfe2d","ios":"levelo://app?vid=234d937c-0a51-4b7b-a5da-54c58b1cfe2d"},"vehicle_type_id":"4","last_reported":1778413223,"current_range_meters":3600,"station_id":"ce4bgrp2rcd13ifvqc9g","pricing_plan_id":"cebpf4jnsgd1na2vs0mg"},{"bike_id":"f422b51e-1ef9-42a2-8365-1d33f807a8e0","system_id":"levelo_inurba_marseille","lat":43.23897,"lon":5.37449,"is_reserved":false,"is_disabled":true,"rental_uris":{"android":"levelo://app?vid=f422b51e-1ef9-42a2-8365-1d33f807a8e0","ios":"levelo://app?vid=f422b51e-1ef9-42a2-8365-1d33f807a8e0"},"vehicle_type_id":"4","last_reported":1778413223,"current_range_meters":3600,"station_id":"st_d6sm7csbq4hs73f8fpjg","pricing_plan_id":"cebpf4jnsgd1na2vs0mg"},{"bike_id":"7eb2b478-c255-4368-b1eb-66e0e2af9eed","system_id":"levelo_inurba_marseille","lat":43.29294,"lon":5.37153,"is_reserved":false,"is_disabled":true,"rental_uris":{"android":"levelo://app?vid=7eb2b478-c255-4368-b1eb-66e0e2af9eed","ios":"levelo://app?vid=7eb2b478-c255-4368-b1eb-66e0e2af9eed"},"vehicle_type_id":"4","last_reported":1778413223,"current_range_meters":3600,"station_id":"ce4bgh92rcd13ifvqb40","pricing_plan_id":"cebpf4jnsgd1na2vs0mg"},{"bike_id":"b1eefa37-96ae-4f95-a344-438091e1d04d","system_id":"levelo_inurba_marseille","lat":43.31046,"lon":5.3935,"is_reserved":false,"is_disabled":false,"rental_uris":{"android":"levelo://app?vid=b1eefa37-96ae-4f95-a344-438091e1d04d","ios":"levelo://app?vid=b1eefa37-96ae-4f95-a344-438091e1d04d"},"vehicle_type_id":"4","last_reported":1778413223,"current_range_meters":3600,"station_id":"","pricing_plan_id":"cebpf4jnsgd1na2vs0mg"},{"bike_id":"74a938f2-f578-4294-9976-174677fe2f35","system_id":"levelo_inurba_marseille","lat":43.29528,"lon":5.43296,"is_reserved":false,"is_disabled":false,"rental_uris":{"android":"levelo://app?vid=74a938f2-f578-4294-9976-174677fe2f35","ios":"levelo://app?vid=74a938f2-f578-4294-9976-174677fe2f35"},"vehicle_type_id":"4","last_reported":1778413223,"current_range_meters":3600,"station_id":"st_d3j5ugp08ojc73fj9d10","pricing_plan_id":"cebpf4jnsgd1na2vs0mg"},{"bike_id":"627ea465-4e71-4046-a508-023e31352421","system_id":"levelo_inurba_marseille","lat":43.25067,"lon":5.40478,"is_reserved":false,"is_disabled":false,"rental_uris":{"android":"levelo://app?vid=627ea465-4e71-4046-a508-023e31352421","ios":"levelo://app?vid=627ea465-4e71-4046-a508-023e31352421"},"vehicle_type_id":"4","last_reported":1778413223,"current_range_meters":3600,"station_id":"","pricing_plan_id":"cebpf4jnsgd1na2vs0mg"},{"bike_id":"4acb43ed-3642-4736-9baa-453b9005f3a4","system_id":"levelo_inurba_marseille","lat":43.29619,"lon":5.38626,"is_reserved":false,"is_disabled":false,"rental_uris":{"android":"levelo://app?vid=4acb43ed-3642-4736-9baa-453b9005f3a4","ios":"levelo://app?vid=4acb43ed-3642-4736-9baa-453b9005f3a4"},"vehicle_type_id":"4","last_reported":1778413223,"current_range_meters":3600,"station_id":"","pricing_plan_id":"cebpf4jnsgd1na2vs0mg"},{"bike_id":"959457cd-ffeb-435f-abd7-e609cfbc4e6a","system_id":"levelo_inurba_marseille","lat":43.27515,"lon":5.41583,"is_reserved":false,"is_disabled":false,"rental_uris":{"android":"levelo://app?vid=959457cd-ffeb-435f-abd7-e609cfbc4e6a","ios":"levelo://app?vid=959457cd-ffeb-435f-abd7-e609cfbc4e6a"},"vehicle_type_id":"4","last_reported":1778413223,"current_range_meters":4000,"station_id":"st_d6im8g6chgec73a5pndg","pricing_plan_id":"cebpf4jnsgd1na2vs0mg"},{"bike_id":"cdd278be-6985-4e01-a1e8-4899861427d9","system_id":"levelo_inurba_marseille","lat":43.25823,"lon":5.39429,"is_reserved":false,"is_disabled":false,"rental_uris":{"android":"levelo://app?vid=cdd278be-6985-4e01-a1e8-4899861427d9","ios":"levelo://app?vid=cdd278be-6985-4e01-a1e8-4899861427d9"},"vehicle_type_id":"4","last_reported":1778413223,"current_range_meters":4000,"station_id":"ce4bhip2rcd13ifvqft0","pricing_plan_id":"cebpf4jnsgd1na2vs0mg"},{"bike_id":"6db9c57b-6677-4695-80b6-c7178c535653","system_id":"levelo_inurba_marseille","lat":43.2871,"lon":5.37938,"is_reserved":false,"is_disabled":false,"rental_uris":{"android":"levelo://app?vid=6db9c57b-6677-4695-80b6-c7178c535653","ios":"levelo://app?vid=6db9c57b-6677-4695-80b6-c7178c535653"},"vehicle_type_id":"4","last_reported":1778413223,"current_range_meters":4000,"station_id":"ce4bh9p2rcd13ifvqec0","pricing_plan_id":"cebpf4jnsgd1na2vs0mg"},{"bike_id":"b8425fa1-a298-4679-ba8a-777546e14eca","system_id":"levelo_inurba_marseille","lat":43.33772,"lon":5.37428,"is_reserved":false,"is_disabled":false,"rental_uris":{"android":"levelo://app?vid=b8425fa1-a298-4679-ba8a-777546e14eca","ios":"levelo://app?vid=b8425fa1-a298-4679-ba8a-777546e14eca"},"vehicle_type_id":"4","last_reported":1778413223,"current_range_meters":4000,"station_id":"","pricing_plan_id":"cebpf4jnsgd1na2vs0mg"},{"bike_id":"02ca854b-9eb5-4b3b-9aed-30ac625b84d4","system_id":"levelo_inurba_marseille","lat":43.31344,"lon":5.36709,"is_reserved":false,"is_disabled":true,"rental_uris":{"android":"levelo://app?vid=02ca854b-9eb5-4b3b-9aed-30ac625b84d4","ios":"levelo://app?vid=02ca854b-9eb5-4b3b-9aed-30ac625b84d4"},"vehicle_type_id":"4","last_reported":1778413223,"current_range_meters":4000,"station_id":"ce4bgr92rcd13ifvqc6g","pricing_plan_id":"cebpf4jnsgd1na2vs0mg"},{"bike_id":"8b44ba2e-1d6c-43b5-a876-15143d2a8370","system_id":"levelo_inurba_marseille","lat":43.25343,"lon":5.42148,"is_reserved":false,"is_disabled":false,"rental_uris":{"android":"levelo://app?vid=8b44ba2e-1d6c-43b5-a876-15143d2a8370","ios":"levelo://app?vid=8b44ba2e-1d6c-43b5-a876-15143d2a8370"},"vehicle_type_id":"4","last_reported":1778413223,"current_range_meters":4400,"station_id":"st_d2m65c5bi1j21697t3ng","pricing_plan_id":"cebpf4jnsgd1na2vs0mg"},{"bike_id":"97f964d8-1b4e-4439-a5e5-5bf9eca1819d","system_id":"levelo_inurba_marseille","lat":43.26367,"lon":5.4106,"is_reserved":false,"is_disabled":false,"rental_uris":{"android":"levelo://app?vid=97f964d8-1b4e-4439-a5e5-5bf9eca1819d","ios":"levelo://app?vid=97f964d8-1b4e-4439-a5e5-5bf9eca1819d"},"vehicle_type_id":"4","last_reported":1778413223,"current_range_meters":4400,"station_id":"st_d4e5ca6na9uc73bfl5fg","pricing_plan_id":"cebpf4jnsgd1na2vs0mg"},{"bike_id":"531ee511-6f3d-455f-ae7f-c006a9c98a90","system_id":"levelo_inurba_marseille","lat":43.225387,"lon":5.348394,"is_reserved":false,"is_disabled":false,"rental_uris":{"android":"levelo://app?vid=531ee511-6f3d-455f-ae7f-c006a9c98a90","ios":"levelo://app?vid=531ee511-6f3d-455f-ae7f-c006a9c98a90"},"vehicle_type_id":"4","last_reported":1778413223,"current_range_meters":4400,"station_id":"st_cvj5dfep6f1abm77gieg","pricing_plan_id":"cebpf4jnsgd1na2vs0mg"},{"bike_id":"34c84195-4aae-442d-945e-b93b3ba7aa71","system_id":"levelo_inurba_marseille","lat":43.28896,"lon":5.39306,"is_reserved":false,"is_disabled":false,"rental_uris":{"android":"levelo://app?vid=34c84195-4aae-442d-945e-b93b3ba7aa71","ios":"levelo://app?vid=34c84195-4aae-442d-945e-b93b3ba7aa71"},"vehicle_type_id":"4","last_reported":1778413223,"current_range_meters":4400,"station_id":"","pricing_plan_id":"cebpf4jnsgd1na2vs0mg"},{"bike_id":"2a1755c6-621b-4ee0-b02e-fcd7e30106ff","system_id":"levelo_inurba_marseille","lat":43.29748,"lon":5.39393,"is_reserved":false,"is_disabled":true,"rental_uris":{"android":"levelo://app?vid=2a1755c6-621b-4ee0-b02e-fcd7e30106ff","ios":"levelo://app?vid=2a1755c6-621b-4ee0-b02e-fcd7e30106ff"},"vehicle_type_id":"4","last_reported":1778413223,"current_range_meters":4400,"station_id":"chh1huq6cuj3fo74tm60","pricing_plan_id":"cebpf4jnsgd1na2vs0mg"},{"bike_id":"3c5f0f52-deec-4478-b1b8-43df5890b0b6","system_id":"levelo_inurba_marseille","lat":43.23963,"lon":5.36619,"is_reserved":false,"is_disabled":false,"rental_uris":{"android":"levelo://app?vid=3c5f0f52-deec-4478-b1b8-43df5890b0b6","ios":"levelo://app?vid=3c5f0f52-deec-4478-b1b8-43df5890b0b6"},"vehicle_type_id":"4","last_reported":1778413223,"current_range_meters":4400,"station_id":"ce4bhi12rcd13ifvqfp0","pricing_plan_id":"cebpf4jnsgd1na2vs0mg"},{"bike_id":"80b9e211-badd-4f7e-a66f-384437473295","system_id":"levelo_inurba_marseille","lat":43.24175,"lon":5.39722,"is_reserved":false,"is_disabled":false,"rental_uris":{"android":"levelo://app?vid=80b9e211-badd-4f7e-a66f-384437473295","ios":"levelo://app?vid=80b9e211-badd-4f7e-a66f-384437473295"},"vehicle_type_id":"4","last_reported":1778413223,"current_range_meters":4400,"station_id":"ce4bhn12rcd13ifvqgpg","pricing_plan_id":"cebpf4jnsgd1na2vs0mg"},{"bike_id":"d5ae5a53-b560-4264-b289-6842df419639","system_id":"levelo_inurba_marseille","lat":43.28099,"lon":5.37836,"is_reserved":false,"is_disabled":false,"rental_uris":{"android":"levelo://app?vid=d5ae5a53-b560-4264-b289-6842df419639","ios":"levelo://app?vid=d5ae5a53-b560-4264-b289-6842df419639"},"vehicle_type_id":"4","last_reported":1778413223,"current_range_meters":4400,"station_id":"ce4bha12rcd13ifvqee0","pricing_plan_id":"cebpf4jnsgd1na2vs0mg"},{"bike_id":"723180a2-46e6-40de-8f0a-9b3af8fce124","system_id":"levelo_inurba_marseille","lat":43.23794,"lon":5.36591,"is_reserved":false,"is_disabled":false,"rental_uris":{"android":"levelo://app?vid=723180a2-46e6-40de-8f0a-9b3af8fce124","ios":"levelo://app?vid=723180a2-46e6-40de-8f0a-9b3af8fce124"},"vehicle_type_id":"4","last_reported":1778413223,"current_range_meters":4400,"station_id":"st_d3nk18o9ro0c73en2l3g","pricing_plan_id":"cebpf4jnsgd1na2vs0mg"},{"bike_id":"76645867-9226-4148-a6ac-b7d91fe256ae","system_id":"levelo_inurba_marseille","lat":43.299219,"lon":5.374608,"is_reserved":false,"is_disabled":true,"rental_uris":{"android":"levelo://app?vid=76645867-9226-4148-a6ac-b7d91fe256ae","ios":"levelo://app?vid=76645867-9226-4148-a6ac-b7d91fe256ae"},"vehicle_type_id":"4","last_reported":1778413223,"current_range_meters":4400,"station_id":"ce4bgjh2rcd13ifvqbg0","pricing_plan_id":"cebpf4jnsgd1na2vs0mg"},{"bike_id":"27f6656a-9fd5-40a9-8cc7-449213dc575f","system_id":"levelo_inurba_marseille","lat":43.26492,"lon":5.39543,"is_reserved":false,"is_disabled":false,"rental_uris":{"android":"levelo://app?vid=27f6656a-9fd5-40a9-8cc7-449213dc575f","ios":"levelo://app?vid=27f6656a-9fd5-40a9-8cc7-449213dc575f"},"vehicle_type_id":"4","last_reported":1778413223,"current_range_meters":4800,"station_id":"ce4bhi12rcd13ifvqfq0","pricing_plan_id":"cebpf4jnsgd1na2vs0mg"},{"bike_id":"c31f8dc1-48f0-4c4a-868e-cc2eddf36421","system_id":"levelo_inurba_marseille","lat":43.2891,"lon":5.38386,"is_reserved":false,"is_disabled":false,"rental_uris":{"android":"levelo://app?vid=c31f8dc1-48f0-4c4a-868e-cc2eddf36421","ios":"levelo://app?vid=c31f8dc1-48f0-4c4a-868e-cc2eddf36421"},"vehicle_type_id":"4","last_reported":1778413223,"current_range_meters":4800,"station_id":"ce4bh612rcd13ifvqe6g","pricing_plan_id":"cebpf4jnsgd1na2vs0mg"},{"bike_id":"62029c7a-9150-40a6-8c1e-bccec197e4c8","system_id":"levelo_inurba_marseille","lat":43.30251,"lon":5.40063,"is_reserved":false,"is_disabled":false,"rental_uris":{"android":"levelo://app?vid=62029c7a-9150-40a6-8c1e-bccec197e4c8","ios":"levelo://app?vid=62029c7a-9150-40a6-8c1e-bccec197e4c8"},"vehicle_type_id":"4","last_reported":1778413223,"current_range_meters":4800,"station_id":"ce4bgvh2rcd13ifvqcs0","pricing_plan_id":"cebpf4jnsgd1na2vs0mg"},{"bike_id":"21d54a23-f5a6-4470-993a-1d0aaef89cb7","system_id":"levelo_inurba_marseille","lat":43.23889,"lon":5.37425,"is_reserved":false,"is_disabled":false,"rental_uris":{"android":"levelo://app?vid=21d54a23-f5a6-4470-993a-1d0aaef89cb7","ios":"levelo://app?vid=21d54a23-f5a6-4470-993a-1d0aaef89cb7"},"vehicle_type_id":"4","last_reported":1778413223,"current_range_meters":4800,"station_id":"st_d6sm7csbq4hs73f8fpjg","pricing_plan_id":"cebpf4jnsgd1na2vs0mg"},{"bike_id":"788c6596-04bd-4976-b536-b308fb8e9b88","system_id":"levelo_inurba_marseille","lat":43.29208,"lon":5.39307,"is_reserved":false,"is_disabled":false,"rental_uris":{"android":"levelo://app?vid=788c6596-04bd-4976-b536-b308fb8e9b88","ios":"levelo://app?vid=788c6596-04bd-4976-b536-b308fb8e9b88"},"vehicle_type_id":"4","last_reported":1778413223,"current_range_meters":4800,"station_id":"ce4bh192rcd13ifvqdd0","pricing_plan_id":"cebpf4jnsgd1na2vs0mg"},{"bike_id":"e5efed17-75a8-473b-9644-10fe13cb0c36","system_id":"levelo_inurba_marseille","lat":43.30311,"lon":5.39207,"is_reserved":false,"is_disabled":false,"rental_uris":{"android":"levelo://app?vid=e5efed17-75a8-473b-9644-10fe13cb0c36","ios":"levelo://app?vid=e5efed17-75a8-473b-9644-10fe13cb0c36"},"vehicle_type_id":"4","last_reported":1778413223,"current_range_meters":4800,"station_id":"ce4bgkh2rcd13ifvqbk0","pricing_plan_id":"cebpf4jnsgd1na2vs0mg"},{"bike_id":"cf94fcfa-3b09-40c5-a2f6-47b309a864f6","system_id":"levelo_inurba_marseille","lat":43.26057,"lon":5.39389,"is_reserved":false,"is_disabled":false,"rental_uris":{"android":"levelo://app?vid=cf94fcfa-3b09-40c5-a2f6-47b309a864f6","ios":"levelo://app?vid=cf94fcfa-3b09-40c5-a2f6-47b309a864f6"},"vehicle_type_id":"4","last_reported":1778413223,"current_range_meters":4800,"station_id":"ce4bhh92rcd13ifvqfj0","pricing_plan_id":"cebpf4jnsgd1na2vs0mg"},{"bike_id":"4f2b66b9-d2be-480c-a44a-c9a32982cb61","system_id":"levelo_inurba_marseille","lat":43.286647,"lon":5.383252,"is_reserved":false,"is_disabled":true,"rental_uris":{"android":"levelo://app?vid=4f2b66b9-d2be-480c-a44a-c9a32982cb61","ios":"levelo://app?vid=4f2b66b9-d2be-480c-a44a-c9a32982cb61"},"vehicle_type_id":"4","last_reported":1778413223,"current_range_meters":5600,"station_id":"ce4bh192rcd13ifvqdd0","pricing_plan_id":"cebpf4jnsgd1na2vs0mg"},{"bike_id":"24b614b1-21fe-4a2b-a521-7a850622da21","system_id":"levelo_inurba_marseille","lat":43.23966,"lon":5.36555,"is_reserved":false,"is_disabled":false,"rental_uris":{"android":"levelo://app?vid=24b614b1-21fe-4a2b-a521-7a850622da21","ios":"levelo://app?vid=24b614b1-21fe-4a2b-a521-7a850622da21"},"vehicle_type_id":"4","last_reported":1778413223,"current_range_meters":5600,"station_id":"","pricing_plan_id":"cebpf4jnsgd1na2vs0mg"},{"bike_id":"6185c6b4-782e-4ff8-b9f0-cc828921242d","system_id":"levelo_inurba_marseille","lat":43.27077,"lon":5.42241,"is_reserved":false,"is_disabled":false,"rental_uris":{"android":"levelo://app?vid=6185c6b4-782e-4ff8-b9f0-cc828921242d","ios":"levelo://app?vid=6185c6b4-782e-4ff8-b9f0-cc828921242d"},"vehicle_type_id":"4","last_reported":1778413223,"current_range_meters":5600,"station_id":"ce4bhk92rcd13ifvqgb0","pricing_plan_id":"cebpf4jnsgd1na2vs0mg"},{"bike_id":"02ff9fbc-bcee-4ec1-ba28-2ffabeaef12d","system_id":"levelo_inurba_marseille","lat":43.24457,"lon":5.42535,"is_reserved":false,"is_disabled":false,"rental_uris":{"android":"levelo://app?vid=02ff9fbc-bcee-4ec1-ba28-2ffabeaef12d","ios":"levelo://app?vid=02ff9fbc-bcee-4ec1-ba28-2ffabeaef12d"},"vehicle_type_id":"4","last_reported":1778413223,"current_range_meters":5600,"station_id":"st_d4a3vfp97mjs738cd8kg","pricing_plan_id":"cebpf4jnsgd1na2vs0mg"},{"bike_id":"58f02a01-2d6b-42fb-b6cf-a6eb2f8162a4","system_id":"levelo_inurba_marseille","lat":43.26064,"lon":5.39662,"is_reserved":false,"is_disabled":false,"rental_uris":{"android":"levelo://app?vid=58f02a01-2d6b-42fb-b6cf-a6eb2f8162a4","ios":"levelo://app?vid=58f02a01-2d6b-42fb-b6cf-a6eb2f8162a4"},"vehicle_type_id":"4","last_reported":1778413223,"current_range_meters":5600,"station_id":"","pricing_plan_id":"cebpf4jnsgd1na2vs0mg"},{"bike_id":"ad0b2aab-2f74-4520-8fd7-3b14417a3c91","system_id":"levelo_inurba_marseille","lat":43.27836,"lon":5.39198,"is_reserved":false,"is_disabled":false,"rental_uris":{"android":"levelo://app?vid=ad0b2aab-2f74-4520-8fd7-3b14417a3c91","ios":"levelo://app?vid=ad0b2aab-2f74-4520-8fd7-3b14417a3c91"},"vehicle_type_id":"4","last_reported":1778413223,"current_range_meters":5600,"station_id":"ce4bhjp2rcd13ifvqga0","pricing_plan_id":"cebpf4jnsgd1na2vs0mg"},{"bike_id":"d9ef7576-95cc-4eb4-afb7-35f5b4fefa6e","system_id":"levelo_inurba_marseille","lat":43.30635,"lon":5.39341,"is_reserved":false,"is_disabled":true,"rental_uris":{"android":"levelo://app?vid=d9ef7576-95cc-4eb4-afb7-35f5b4fefa6e","ios":"levelo://app?vid=d9ef7576-95cc-4eb4-afb7-35f5b4fefa6e"},"vehicle_type_id":"4","last_reported":1778413223,"current_range_meters":5600,"station_id":"ce4bh0p2rcd13ifvqd80","pricing_plan_id":"cebpf4jnsgd1na2vs0mg"},{"bike_id":"0a517897-1481-464c-a297-fc37db476b67","system_id":"levelo_inurba_marseille","lat":43.32102,"lon":5.36769,"is_reserved":false,"is_disabled":false,"rental_uris":{"android":"levelo://app?vid=0a517897-1481-464c-a297-fc37db476b67","ios":"levelo://app?vid=0a517897-1481-464c-a297-fc37db476b67"},"vehicle_type_id":"4","last_reported":1778413223,"current_range_meters":5600,"station_id":"ce4bhrh2rcd13ifvqhug","pricing_plan_id":"cebpf4jnsgd1na2vs0mg"},{"bike_id":"32795945-afa6-4fab-a236-e6fc5b6d6f56","system_id":"levelo_inurba_marseille","lat":43.242,"lon":5.39697,"is_reserved":false,"is_disabled":false,"rental_uris":{"android":"levelo://app?vid=32795945-afa6-4fab-a236-e6fc5b6d6f56","ios":"levelo://app?vid=32795945-afa6-4fab-a236-e6fc5b6d6f56"},"vehicle_type_id":"4","last_reported":1778413223,"current_range_meters":5600,"station_id":"ce4bhn12rcd13ifvqgpg","pricing_plan_id":"cebpf4jnsgd1na2vs0mg"},{"bike_id":"808c4ecd-9bba-4ef5-91dc-62b4109dcc93","system_id":"levelo_inurba_marseille","lat":43.29548,"lon":5.38516,"is_reserved":false,"is_disabled":true,"rental_uris":{"android":"levelo://app?vid=808c4ecd-9bba-4ef5-91dc-62b4109dcc93","ios":"levelo://app?vid=808c4ecd-9bba-4ef5-91dc-62b4109dcc93"},"vehicle_type_id":"4","last_reported":1778413223,"current_range_meters":5600,"station_id":"ce4bgih2rcd13ifvqba0","pricing_plan_id":"cebpf4jnsgd1na2vs0mg"},{"bike_id":"a6a60149-ea74-4dce-b409-ebc1a0b75a1f","system_id":"levelo_inurba_marseille","lat":43.30522,"lon":5.38449,"is_reserved":false,"is_disabled":true,"rental_uris":{"android":"levelo://app?vid=a6a60149-ea74-4dce-b409-ebc1a0b75a1f","ios":"levelo://app?vid=a6a60149-ea74-4dce-b409-ebc1a0b75a1f"},"vehicle_type_id":"4","last_reported":1778413223,"current_range_meters":5600,"station_id":"ce4bgg92rcd13ifvqb30","pricing_plan_id":"cebpf4jnsgd1na2vs0mg"},{"bike_id":"3a7a6490-34c7-4e66-a967-52dc19722c9c","system_id":"levelo_inurba_marseille","lat":43.25379,"lon":5.39419,"is_reserved":false,"is_disabled":false,"rental_uris":{"android":"levelo://app?vid=3a7a6490-34c7-4e66-a967-52dc19722c9c","ios":"levelo://app?vid=3a7a6490-34c7-4e66-a967-52dc19722c9c"},"vehicle_type_id":"4","last_reported":1778413223,"current_range_meters":5600,"station_id":"","pricing_plan_id":"cebpf4jnsgd1na2vs0mg"},{"bike_id":"ecc1b93b-a121-40a6-a1a0-780ffc6b17a4","system_id":"levelo_inurba_marseille","lat":43.29043,"lon":5.3997,"is_reserved":false,"is_disabled":true,"rental_uris":{"android":"levelo://app?vid=ecc1b93b-a121-40a6-a1a0-780ffc6b17a4","ios":"levelo://app?vid=ecc1b93b-a121-40a6-a1a0-780ffc6b17a4"},"vehicle_type_id":"4","last_reported":1778413223,"current_range_meters":5600,"station_id":"ce4bh392rcd13ifvqdm0","pricing_plan_id":"cebpf4jnsgd1na2vs0mg"},{"bike_id":"508b81e2-8edb-4359-9f74-838062243b58","system_id":"levelo_inurba_marseille","lat":43.29792,"lon":5.38113,"is_reserved":false,"is_disabled":false,"rental_uris":{"android":"levelo://app?vid=508b81e2-8edb-4359-9f74-838062243b58","ios":"levelo://app?vid=508b81e2-8edb-4359-9f74-838062243b58"},"vehicle_type_id":"4","last_reported":1778413223,"current_range_meters":6000,"station_id":"ce4bgip2rcd13ifvqbb0","pricing_plan_id":"cebpf4jnsgd1na2vs0mg"},{"bike_id":"8b2f527f-8def-4236-a93a-fafed41bb4fa","system_id":"levelo_inurba_marseille","lat":43.24078,"lon":5.37728,"is_reserved":false,"is_disabled":false,"rental_uris":{"android":"levelo://app?vid=8b2f527f-8def-4236-a93a-fafed41bb4fa","ios":"levelo://app?vid=8b2f527f-8def-4236-a93a-fafed41bb4fa"},"vehicle_type_id":"4","last_reported":1778413223,"current_range_meters":6000,"station_id":"ce4bhnp2rcd13ifvqgvg","pricing_plan_id":"cebpf4jnsgd1na2vs0mg"},{"bike_id":"0bff19b0-759c-4974-b971-6d7bfa56b685","system_id":"levelo_inurba_marseille","lat":43.2981,"lon":5.44055,"is_reserved":false,"is_disabled":false,"rental_uris":{"android":"levelo://app?vid=0bff19b0-759c-4974-b971-6d7bfa56b685","ios":"levelo://app?vid=0bff19b0-759c-4974-b971-6d7bfa56b685"},"vehicle_type_id":"4","last_reported":1778413223,"current_range_meters":6000,"station_id":"st_d3jp68qikq2c7381ktn0","pricing_plan_id":"cebpf4jnsgd1na2vs0mg"},{"bike_id":"6aac3783-57e1-4b8b-830c-35d0b6c20a86","system_id":"levelo_inurba_marseille","lat":43.28598,"lon":5.35137,"is_reserved":false,"is_disabled":false,"rental_uris":{"android":"levelo://app?vid=6aac3783-57e1-4b8b-830c-35d0b6c20a86","ios":"levelo://app?vid=6aac3783-57e1-4b8b-830c-35d0b6c20a86"},"vehicle_type_id":"4","last_reported":1778413223,"current_range_meters":6000,"station_id":"ce4bhch2rcd13ifvqeug","pricing_plan_id":"cebpf4jnsgd1na2vs0mg"},{"bike_id":"d6aa3b2f-3029-4676-9089-14b4fb6bf286","system_id":"levelo_inurba_marseille","lat":43.28618,"lon":5.46864,"is_reserved":false,"is_disabled":false,"rental_uris":{"android":"levelo://app?vid=d6aa3b2f-3029-4676-9089-14b4fb6bf286","ios":"levelo://app?vid=d6aa3b2f-3029-4676-9089-14b4fb6bf286"},"vehicle_type_id":"4","last_reported":1778413223,"current_range_meters":6000,"station_id":"","pricing_plan_id":"cebpf4jnsgd1na2vs0mg"},{"bike_id":"0995efab-767d-445b-9eb8-2b7662b1bd82","system_id":"levelo_inurba_marseille","lat":43.27541,"lon":5.38447,"is_reserved":false,"is_disabled":false,"rental_uris":{"android":"levelo://app?vid=0995efab-767d-445b-9eb8-2b7662b1bd82","ios":"levelo://app?vid=0995efab-767d-445b-9eb8-2b7662b1bd82"},"vehicle_type_id":"4","last_reported":1778413223,"current_range_meters":6000,"station_id":"ce4bhh92rcd13ifvqfi0","pricing_plan_id":"cebpf4jnsgd1na2vs0mg"},{"bike_id":"ff41f028-e74e-477a-8abb-51c0d2444223","system_id":"levelo_inurba_marseille","lat":43.25109,"lon":5.40285,"is_reserved":false,"is_disabled":false,"rental_uris":{"android":"levelo://app?vid=ff41f028-e74e-477a-8abb-51c0d2444223","ios":"levelo://app?vid=ff41f028-e74e-477a-8abb-51c0d2444223"},"vehicle_type_id":"4","last_reported":1778413223,"current_range_meters":6000,"station_id":"ce4bhlh2rcd13ifvqgig","pricing_plan_id":"cebpf4jnsgd1na2vs0mg"},{"bike_id":"356d0e42-b55c-457d-ab9b-54ff4b66852d","system_id":"levelo_inurba_marseille","lat":43.28705,"lon":5.3793,"is_reserved":false,"is_disabled":true,"rental_uris":{"android":"levelo://app?vid=356d0e42-b55c-457d-ab9b-54ff4b66852d","ios":"levelo://app?vid=356d0e42-b55c-457d-ab9b-54ff4b66852d"},"vehicle_type_id":"4","last_reported":1778413223,"current_range_meters":6000,"station_id":"ce4bh9p2rcd13ifvqec0","pricing_plan_id":"cebpf4jnsgd1na2vs0mg"},{"bike_id":"4d55de62-e87a-4e91-8f38-f3128df68a5b","system_id":"levelo_inurba_marseille","lat":43.2657,"lon":5.38986,"is_reserved":false,"is_disabled":false,"rental_uris":{"android":"levelo://app?vid=4d55de62-e87a-4e91-8f38-f3128df68a5b","ios":"levelo://app?vid=4d55de62-e87a-4e91-8f38-f3128df68a5b"},"vehicle_type_id":"4","last_reported":1778413223,"current_range_meters":6400,"station_id":"ce4bhe12rcd13ifvqf30","pricing_plan_id":"cebpf4jnsgd1na2vs0mg"},{"bike_id":"8c36f14f-0ea0-4eaf-8ef4-0bf3049421ef","system_id":"levelo_inurba_marseille","lat":43.30178,"lon":5.3997,"is_reserved":false,"is_disabled":false,"rental_uris":{"android":"levelo://app?vid=8c36f14f-0ea0-4eaf-8ef4-0bf3049421ef","ios":"levelo://app?vid=8c36f14f-0ea0-4eaf-8ef4-0bf3049421ef"},"vehicle_type_id":"4","last_reported":1778413223,"current_range_meters":6400,"station_id":"","pricing_plan_id":"cebpf4jnsgd1na2vs0mg"},{"bike_id":"8de89280-2a61-4268-b817-bf90021f9ced","system_id":"levelo_inurba_marseille","lat":43.321,"lon":5.36779,"is_reserved":false,"is_disabled":false,"rental_uris":{"android":"levelo://app?vid=8de89280-2a61-4268-b817-bf90021f9ced","ios":"levelo://app?vid=8de89280-2a61-4268-b817-bf90021f9ced"},"vehicle_type_id":"4","last_reported":1778413223,"current_range_meters":6400,"station_id":"ce4bhrh2rcd13ifvqhug","pricing_plan_id":"cebpf4jnsgd1na2vs0mg"},{"bike_id":"6dec282d-38ec-4336-8ede-9a1772e1298f","system_id":"levelo_inurba_marseille","lat":43.29656,"lon":5.38002,"is_reserved":false,"is_disabled":false,"rental_uris":{"android":"levelo://app?vid=6dec282d-38ec-4336-8ede-9a1772e1298f","ios":"levelo://app?vid=6dec282d-38ec-4336-8ede-9a1772e1298f"},"vehicle_type_id":"4","last_reported":1778413223,"current_range_meters":6400,"station_id":"","pricing_plan_id":"cebpf4jnsgd1na2vs0mg"},{"bike_id":"e5f0fbb4-b8dc-4aa1-9466-61d5f4ac958f","system_id":"levelo_inurba_marseille","lat":43.29053,"lon":5.38135,"is_reserved":false,"is_disabled":true,"rental_uris":{"android":"levelo://app?vid=e5f0fbb4-b8dc-4aa1-9466-61d5f4ac958f","ios":"levelo://app?vid=e5f0fbb4-b8dc-4aa1-9466-61d5f4ac958f"},"vehicle_type_id":"4","last_reported":1778413223,"current_range_meters":6400,"station_id":"ce4bh4p2rcd13ifvqe1g","pricing_plan_id":"cebpf4jnsgd1na2vs0mg"},{"bike_id":"2a10f88f-9d4c-47c3-8c89-9fe21d53aeab","system_id":"levelo_inurba_marseille","lat":43.28384,"lon":5.37519,"is_reserved":false,"is_disabled":true,"rental_uris":{"android":"levelo://app?vid=2a10f88f-9d4c-47c3-8c89-9fe21d53aeab","ios":"levelo://app?vid=2a10f88f-9d4c-47c3-8c89-9fe21d53aeab"},"vehicle_type_id":"4","last_reported":1778413223,"current_range_meters":6400,"station_id":"ce4bh412rcd13ifvqds0","pricing_plan_id":"cebpf4jnsgd1na2vs0mg"},{"bike_id":"81bbcbc7-4353-4875-9f91-8af474a59e40","system_id":"levelo_inurba_marseille","lat":43.2974,"lon":5.37086,"is_reserved":false,"is_disabled":false,"rental_uris":{"android":"levelo://app?vid=81bbcbc7-4353-4875-9f91-8af474a59e40","ios":"levelo://app?vid=81bbcbc7-4353-4875-9f91-8af474a59e40"},"vehicle_type_id":"4","last_reported":1778413223,"current_range_meters":6400,"station_id":"","pricing_plan_id":"cebpf4jnsgd1na2vs0mg"},{"bike_id":"1a6c2568-b2fa-4c03-a8b7-04ff60ab04d0","system_id":"levelo_inurba_marseille","lat":43.30435,"lon":5.38876,"is_reserved":false,"is_disabled":true,"rental_uris":{"android":"levelo://app?vid=1a6c2568-b2fa-4c03-a8b7-04ff60ab04d0","ios":"levelo://app?vid=1a6c2568-b2fa-4c03-a8b7-04ff60ab04d0"},"vehicle_type_id":"4","last_reported":1778413223,"current_range_meters":6400,"station_id":"ce4bgk12rcd13ifvqbi0","pricing_plan_id":"cebpf4jnsgd1na2vs0mg"},{"bike_id":"eacb7b92-6b7b-4d35-a248-3bcc1fda158e","system_id":"levelo_inurba_marseille","lat":43.28851,"lon":5.39299,"is_reserved":false,"is_disabled":false,"rental_uris":{"android":"levelo://app?vid=eacb7b92-6b7b-4d35-a248-3bcc1fda158e","ios":"levelo://app?vid=eacb7b92-6b7b-4d35-a248-3bcc1fda158e"},"vehicle_type_id":"4","last_reported":1778413223,"current_range_meters":6400,"station_id":"ce4bh2p2rcd13ifvqdi0","pricing_plan_id":"cebpf4jnsgd1na2vs0mg"},{"bike_id":"7038e266-7dfa-42fa-8e91-50f179aa7f0e","system_id":"levelo_inurba_marseille","lat":43.33547,"lon":5.37462,"is_reserved":false,"is_disabled":false,"rental_uris":{"android":"levelo://app?vid=7038e266-7dfa-42fa-8e91-50f179aa7f0e","ios":"levelo://app?vid=7038e266-7dfa-42fa-8e91-50f179aa7f0e"},"vehicle_type_id":"4","last_reported":1778413223,"current_range_meters":6400,"station_id":"st_d46tts09ee8s73dlu43g","pricing_plan_id":"cebpf4jnsgd1na2vs0mg"},{"bike_id":"ad824b62-ba8d-40e6-a073-14a810f8f6bf","system_id":"levelo_inurba_marseille","lat":43.26084,"lon":5.39352,"is_reserved":false,"is_disabled":false,"rental_uris":{"android":"levelo://app?vid=ad824b62-ba8d-40e6-a073-14a810f8f6bf","ios":"levelo://app?vid=ad824b62-ba8d-40e6-a073-14a810f8f6bf"},"vehicle_type_id":"4","last_reported":1778413223,"current_range_meters":6400,"station_id":"ce4bhh92rcd13ifvqfj0","pricing_plan_id":"cebpf4jnsgd1na2vs0mg"},{"bike_id":"ebd3fe94-4292-471b-8c30-f3cf66aea4e9","system_id":"levelo_inurba_marseille","lat":43.29574,"lon":5.39965,"is_reserved":false,"is_disabled":false,"rental_uris":{"android":"levelo://app?vid=ebd3fe94-4292-471b-8c30-f3cf66aea4e9","ios":"levelo://app?vid=ebd3fe94-4292-471b-8c30-f3cf66aea4e9"},"vehicle_type_id":"4","last_reported":1778413223,"current_range_meters":6400,"station_id":"ce4bh312rcd13ifvqdj0","pricing_plan_id":"cebpf4jnsgd1na2vs0mg"},{"bike_id":"5e1f5986-ff69-4a2b-bb48-a1076b1b32aa","system_id":"levelo_inurba_marseille","lat":43.29287,"lon":5.37409,"is_reserved":false,"is_disabled":false,"rental_uris":{"android":"levelo://app?vid=5e1f5986-ff69-4a2b-bb48-a1076b1b32aa","ios":"levelo://app?vid=5e1f5986-ff69-4a2b-bb48-a1076b1b32aa"},"vehicle_type_id":"4","last_reported":1778413223,"current_range_meters":6400,"station_id":"ce4bgi12rcd13ifvqb70","pricing_plan_id":"cebpf4jnsgd1na2vs0mg"},{"bike_id":"147a4cde-83e7-4d1a-9487-5b4c45228b9b","system_id":"levelo_inurba_marseille","lat":43.33165,"lon":5.37736,"is_reserved":false,"is_disabled":false,"rental_uris":{"android":"levelo://app?vid=147a4cde-83e7-4d1a-9487-5b4c45228b9b","ios":"levelo://app?vid=147a4cde-83e7-4d1a-9487-5b4c45228b9b"},"vehicle_type_id":"4","last_reported":1778413223,"current_range_meters":6400,"station_id":"st_d46cu089ee8s73dldbu0","pricing_plan_id":"cebpf4jnsgd1na2vs0mg"},{"bike_id":"7017c387-278c-4b8c-9782-aa80dc34ecbe","system_id":"levelo_inurba_marseille","lat":43.2392,"lon":5.3744,"is_reserved":false,"is_disabled":true,"rental_uris":{"android":"levelo://app?vid=7017c387-278c-4b8c-9782-aa80dc34ecbe","ios":"levelo://app?vid=7017c387-278c-4b8c-9782-aa80dc34ecbe"},"vehicle_type_id":"4","last_reported":1778413223,"current_range_meters":6400,"station_id":"st_d6sm7csbq4hs73f8fpjg","pricing_plan_id":"cebpf4jnsgd1na2vs0mg"},{"bike_id":"8351b836-b458-4e50-bd94-7b7b9083100d","system_id":"levelo_inurba_marseille","lat":43.28591,"lon":5.35131,"is_reserved":false,"is_disabled":false,"rental_uris":{"android":"levelo://app?vid=8351b836-b458-4e50-bd94-7b7b9083100d","ios":"levelo://app?vid=8351b836-b458-4e50-bd94-7b7b9083100d"},"vehicle_type_id":"4","last_reported":1778413223,"current_range_meters":6800,"station_id":"ce4bhch2rcd13ifvqeug","pricing_plan_id":"cebpf4jnsgd1na2vs0mg"},{"bike_id":"9dc61640-987a-437c-ada7-637d7471e1db","system_id":"levelo_inurba_marseille","lat":43.33174,"lon":5.37661,"is_reserved":false,"is_disabled":false,"rental_uris":{"android":"levelo://app?vid=9dc61640-987a-437c-ada7-637d7471e1db","ios":"levelo://app?vid=9dc61640-987a-437c-ada7-637d7471e1db"},"vehicle_type_id":"4","last_reported":1778413223,"current_range_meters":6800,"station_id":"st_d46cu089ee8s73dldbu0","pricing_plan_id":"cebpf4jnsgd1na2vs0mg"},{"bike_id":"91b5d280-2bb5-4ceb-9570-2a9f60af535a","system_id":"levelo_inurba_marseille","lat":43.272082,"lon":5.391808,"is_reserved":false,"is_disabled":true,"rental_uris":{"android":"levelo://app?vid=91b5d280-2bb5-4ceb-9570-2a9f60af535a","ios":"levelo://app?vid=91b5d280-2bb5-4ceb-9570-2a9f60af535a"},"vehicle_type_id":"4","last_reported":1778413223,"current_range_meters":6800,"station_id":"ce4bhgp2rcd13ifvqfe0","pricing_plan_id":"cebpf4jnsgd1na2vs0mg"},{"bike_id":"9eff7a20-b88b-404e-ade4-6b726e99236c","system_id":"levelo_inurba_marseille","lat":43.29254,"lon":5.35966,"is_reserved":false,"is_disabled":false,"rental_uris":{"android":"levelo://app?vid=9eff7a20-b88b-404e-ade4-6b726e99236c","ios":"levelo://app?vid=9eff7a20-b88b-404e-ade4-6b726e99236c"},"vehicle_type_id":"4","last_reported":1778413223,"current_range_meters":6800,"station_id":"","pricing_plan_id":"cebpf4jnsgd1na2vs0mg"},{"bike_id":"b290f664-26ce-4cbf-a24e-48ed4a55f316","system_id":"levelo_inurba_marseille","lat":43.31508,"lon":5.37276,"is_reserved":false,"is_disabled":false,"rental_uris":{"android":"levelo://app?vid=b290f664-26ce-4cbf-a24e-48ed4a55f316","ios":"levelo://app?vid=b290f664-26ce-4cbf-a24e-48ed4a55f316"},"vehicle_type_id":"4","last_reported":1778413223,"current_range_meters":6800,"station_id":"ce4bgt12rcd13ifvqcd0","pricing_plan_id":"cebpf4jnsgd1na2vs0mg"},{"bike_id":"d5f0dc25-4592-44f7-8db4-ee52a35f69ad","system_id":"levelo_inurba_marseille","lat":43.28482,"lon":5.48373,"is_reserved":false,"is_disabled":false,"rental_uris":{"android":"levelo://app?vid=d5f0dc25-4592-44f7-8db4-ee52a35f69ad","ios":"levelo://app?vid=d5f0dc25-4592-44f7-8db4-ee52a35f69ad"},"vehicle_type_id":"4","last_reported":1778413223,"current_range_meters":6800,"station_id":"","pricing_plan_id":"cebpf4jnsgd1na2vs0mg"},{"bike_id":"17cc4c0a-4b5f-4e18-aeb2-472d34557615","system_id":"levelo_inurba_marseille","lat":43.2871,"lon":5.46664,"is_reserved":false,"is_disabled":false,"rental_uris":{"android":"levelo://app?vid=17cc4c0a-4b5f-4e18-aeb2-472d34557615","ios":"levelo://app?vid=17cc4c0a-4b5f-4e18-aeb2-472d34557615"},"vehicle_type_id":"4","last_reported":1778413223,"current_range_meters":6800,"station_id":"st_d6tc3vkotcvc738tfjhg","pricing_plan_id":"cebpf4jnsgd1na2vs0mg"},{"bike_id":"ac56e288-0c98-4129-92cc-664390ad3613","system_id":"levelo_inurba_marseille","lat":43.29795,"lon":5.38084,"is_reserved":false,"is_disabled":false,"rental_uris":{"android":"levelo://app?vid=ac56e288-0c98-4129-92cc-664390ad3613","ios":"levelo://app?vid=ac56e288-0c98-4129-92cc-664390ad3613"},"vehicle_type_id":"4","last_reported":1778413223,"current_range_meters":6800,"station_id":"ce4bgip2rcd13ifvqbb0","pricing_plan_id":"cebpf4jnsgd1na2vs0mg"},{"bike_id":"f45407bf-b640-4699-817f-ec6b18da5b01","system_id":"levelo_inurba_marseille","lat":43.25006,"lon":5.38918,"is_reserved":false,"is_disabled":false,"rental_uris":{"android":"levelo://app?vid=f45407bf-b640-4699-817f-ec6b18da5b01","ios":"levelo://app?vid=f45407bf-b640-4699-817f-ec6b18da5b01"},"vehicle_type_id":"4","last_reported":1778413223,"current_range_meters":6800,"station_id":"ce4bhgp2rcd13ifvqfd0","pricing_plan_id":"cebpf4jnsgd1na2vs0mg"},{"bike_id":"9a1f8574-8e1d-406f-8cbe-db5fc10d7aee","system_id":"levelo_inurba_marseille","lat":43.29572,"lon":5.38105,"is_reserved":false,"is_disabled":false,"rental_uris":{"android":"levelo://app?vid=9a1f8574-8e1d-406f-8cbe-db5fc10d7aee","ios":"levelo://app?vid=9a1f8574-8e1d-406f-8cbe-db5fc10d7aee"},"vehicle_type_id":"4","last_reported":1778413223,"current_range_meters":6800,"station_id":"ce4bgl12rcd13ifvqbo0","pricing_plan_id":"cebpf4jnsgd1na2vs0mg"},{"bike_id":"d73a348f-506a-4563-b9e7-3bfd8874d77d","system_id":"levelo_inurba_marseille","lat":43.2954,"lon":5.39389,"is_reserved":false,"is_disabled":false,"rental_uris":{"android":"levelo://app?vid=d73a348f-506a-4563-b9e7-3bfd8874d77d","ios":"levelo://app?vid=d73a348f-506a-4563-b9e7-3bfd8874d77d"},"vehicle_type_id":"4","last_reported":1778413223,"current_range_meters":6800,"station_id":"ce4bh292rcd13ifvqdf0","pricing_plan_id":"cebpf4jnsgd1na2vs0mg"},{"bike_id":"0152740e-06db-4ade-88eb-e3632fbb8a1f","system_id":"levelo_inurba_marseille","lat":43.28314,"lon":5.35093,"is_reserved":false,"is_disabled":true,"rental_uris":{"android":"levelo://app?vid=0152740e-06db-4ade-88eb-e3632fbb8a1f","ios":"levelo://app?vid=0152740e-06db-4ade-88eb-e3632fbb8a1f"},"vehicle_type_id":"4","last_reported":1778413223,"current_range_meters":6800,"station_id":"","pricing_plan_id":"cebpf4jnsgd1na2vs0mg"},{"bike_id":"f7bc66b2-32bb-4344-aa07-ab64be4a4c51","system_id":"levelo_inurba_marseille","lat":43.2954,"lon":5.38541,"is_reserved":false,"is_disabled":false,"rental_uris":{"android":"levelo://app?vid=f7bc66b2-32bb-4344-aa07-ab64be4a4c51","ios":"levelo://app?vid=f7bc66b2-32bb-4344-aa07-ab64be4a4c51"},"vehicle_type_id":"4","last_reported":1778413223,"current_range_meters":6800,"station_id":"ce4bgih2rcd13ifvqba0","pricing_plan_id":"cebpf4jnsgd1na2vs0mg"},{"bike_id":"45f8fdb7-2cb1-45b9-8a88-adeab1f325d7","system_id":"levelo_inurba_marseille","lat":43.29219,"lon":5.38338,"is_reserved":false,"is_disabled":false,"rental_uris":{"android":"levelo://app?vid=45f8fdb7-2cb1-45b9-8a88-adeab1f325d7","ios":"levelo://app?vid=45f8fdb7-2cb1-45b9-8a88-adeab1f325d7"},"vehicle_type_id":"4","last_reported":1778413223,"current_range_meters":6800,"station_id":"","pricing_plan_id":"cebpf4jnsgd1na2vs0mg"},{"bike_id":"5e506c32-8063-47a0-a03b-0e18aefd7f60","system_id":"levelo_inurba_marseille","lat":43.24074,"lon":5.37709,"is_reserved":false,"is_disabled":true,"rental_uris":{"android":"levelo://app?vid=5e506c32-8063-47a0-a03b-0e18aefd7f60","ios":"levelo://app?vid=5e506c32-8063-47a0-a03b-0e18aefd7f60"},"vehicle_type_id":"4","last_reported":1778413223,"current_range_meters":7200,"station_id":"ce4bhnp2rcd13ifvqgvg","pricing_plan_id":"cebpf4jnsgd1na2vs0mg"},{"bike_id":"5d33716e-5ee6-4385-b03b-431189cd1e85","system_id":"levelo_inurba_marseille","lat":43.31385,"lon":5.38478,"is_reserved":false,"is_disabled":false,"rental_uris":{"android":"levelo://app?vid=5d33716e-5ee6-4385-b03b-431189cd1e85","ios":"levelo://app?vid=5d33716e-5ee6-4385-b03b-431189cd1e85"},"vehicle_type_id":"4","last_reported":1778413223,"current_range_meters":7200,"station_id":"ce4bgt92rcd13ifvqcf0","pricing_plan_id":"cebpf4jnsgd1na2vs0mg"},{"bike_id":"fce79078-48bc-4d3e-a1b0-a9eb686a3f15","system_id":"levelo_inurba_marseille","lat":43.2948,"lon":5.38411,"is_reserved":false,"is_disabled":false,"rental_uris":{"android":"levelo://app?vid=fce79078-48bc-4d3e-a1b0-a9eb686a3f15","ios":"levelo://app?vid=fce79078-48bc-4d3e-a1b0-a9eb686a3f15"},"vehicle_type_id":"4","last_reported":1778413223,"current_range_meters":7200,"station_id":"","pricing_plan_id":"cebpf4jnsgd1na2vs0mg"},{"bike_id":"51ac79da-73b8-40fe-8601-c8f3e1221081","system_id":"levelo_inurba_marseille","lat":43.29053,"lon":5.3995,"is_reserved":false,"is_disabled":false,"rental_uris":{"android":"levelo://app?vid=51ac79da-73b8-40fe-8601-c8f3e1221081","ios":"levelo://app?vid=51ac79da-73b8-40fe-8601-c8f3e1221081"},"vehicle_type_id":"4","last_reported":1778413223,"current_range_meters":7200,"station_id":"ce4bh392rcd13ifvqdm0","pricing_plan_id":"cebpf4jnsgd1na2vs0mg"},{"bike_id":"943cf82b-777f-474d-9abb-0bc061b7cd0c","system_id":"levelo_inurba_marseille","lat":43.29685,"lon":5.36612,"is_reserved":false,"is_disabled":true,"rental_uris":{"android":"levelo://app?vid=943cf82b-777f-474d-9abb-0bc061b7cd0c","ios":"levelo://app?vid=943cf82b-777f-474d-9abb-0bc061b7cd0c"},"vehicle_type_id":"4","last_reported":1778413223,"current_range_meters":7200,"station_id":"ce4bgn12rcd13ifvqbt0","pricing_plan_id":"cebpf4jnsgd1na2vs0mg"},{"bike_id":"6be1be21-8155-4845-b665-1dad8a6c6bf4","system_id":"levelo_inurba_marseille","lat":43.2861,"lon":5.35102,"is_reserved":false,"is_disabled":true,"rental_uris":{"android":"levelo://app?vid=6be1be21-8155-4845-b665-1dad8a6c6bf4","ios":"levelo://app?vid=6be1be21-8155-4845-b665-1dad8a6c6bf4"},"vehicle_type_id":"4","last_reported":1778413223,"current_range_meters":7200,"station_id":"ce4bhch2rcd13ifvqeug","pricing_plan_id":"cebpf4jnsgd1na2vs0mg"},{"bike_id":"cca4e647-b5e4-4944-aac2-32256c49aa1e","system_id":"levelo_inurba_marseille","lat":43.29938,"lon":5.37236,"is_reserved":false,"is_disabled":false,"rental_uris":{"android":"levelo://app?vid=cca4e647-b5e4-4944-aac2-32256c49aa1e","ios":"levelo://app?vid=cca4e647-b5e4-4944-aac2-32256c49aa1e"},"vehicle_type_id":"4","last_reported":1778413223,"current_range_meters":7200,"station_id":"","pricing_plan_id":"cebpf4jnsgd1na2vs0mg"},{"bike_id":"53fd011c-fc38-4d28-9eaf-736be2f711af","system_id":"levelo_inurba_marseille","lat":43.255823,"lon":5.382314,"is_reserved":false,"is_disabled":false,"rental_uris":{"android":"levelo://app?vid=53fd011c-fc38-4d28-9eaf-736be2f711af","ios":"levelo://app?vid=53fd011c-fc38-4d28-9eaf-736be2f711af"},"vehicle_type_id":"4","last_reported":1778413223,"current_range_meters":8000,"station_id":"ce4bhih2rcd13ifvqfs0","pricing_plan_id":"cebpf4jnsgd1na2vs0mg"},{"bike_id":"66969438-299e-490d-ab31-e463b9efa104","system_id":"levelo_inurba_marseille","lat":43.28492,"lon":5.48381,"is_reserved":false,"is_disabled":false,"rental_uris":{"android":"levelo://app?vid=66969438-299e-490d-ab31-e463b9efa104","ios":"levelo://app?vid=66969438-299e-490d-ab31-e463b9efa104"},"vehicle_type_id":"4","last_reported":1778413223,"current_range_meters":8000,"station_id":"","pricing_plan_id":"cebpf4jnsgd1na2vs0mg"},{"bike_id":"d55796ed-4e9c-4094-8c61-04073e5fd354","system_id":"levelo_inurba_marseille","lat":43.28182,"lon":5.42619,"is_reserved":false,"is_disabled":false,"rental_uris":{"android":"levelo://app?vid=d55796ed-4e9c-4094-8c61-04073e5fd354","ios":"levelo://app?vid=d55796ed-4e9c-4094-8c61-04073e5fd354"},"vehicle_type_id":"4","last_reported":1778413223,"current_range_meters":8000,"station_id":"ce4bhnh2rcd13ifvqgug","pricing_plan_id":"cebpf4jnsgd1na2vs0mg"},{"bike_id":"16eab437-1b4d-450b-9a42-7bf3620c7694","system_id":"levelo_inurba_marseille","lat":43.290019,"lon":5.356235,"is_reserved":false,"is_disabled":true,"rental_uris":{"android":"levelo://app?vid=16eab437-1b4d-450b-9a42-7bf3620c7694","ios":"levelo://app?vid=16eab437-1b4d-450b-9a42-7bf3620c7694"},"vehicle_type_id":"4","last_reported":1778413223,"current_range_meters":8000,"station_id":"","pricing_plan_id":"cebpf4jnsgd1na2vs0mg"},{"bike_id":"2506be62-85f3-41a6-b103-e5faab53b5ba","system_id":"levelo_inurba_marseille","lat":43.27572,"lon":5.3842,"is_reserved":false,"is_disabled":true,"rental_uris":{"android":"levelo://app?vid=2506be62-85f3-41a6-b103-e5faab53b5ba","ios":"levelo://app?vid=2506be62-85f3-41a6-b103-e5faab53b5ba"},"vehicle_type_id":"4","last_reported":1778413223,"current_range_meters":8000,"station_id":"ce4bhh92rcd13ifvqfi0","pricing_plan_id":"cebpf4jnsgd1na2vs0mg"},{"bike_id":"b12a35cf-71d1-4ef4-a233-6a85ad56a1b8","system_id":"levelo_inurba_marseille","lat":43.26551,"lon":5.37295,"is_reserved":false,"is_disabled":false,"rental_uris":{"android":"levelo://app?vid=b12a35cf-71d1-4ef4-a233-6a85ad56a1b8","ios":"levelo://app?vid=b12a35cf-71d1-4ef4-a233-6a85ad56a1b8"},"vehicle_type_id":"4","last_reported":1778413223,"current_range_meters":8000,"station_id":"ce4bhg12rcd13ifvqf70","pricing_plan_id":"cebpf4jnsgd1na2vs0mg"},{"bike_id":"f3663f60-dbbf-48c6-8470-0b2e2be6f100","system_id":"levelo_inurba_marseille","lat":43.26429,"lon":5.41059,"is_reserved":false,"is_disabled":false,"rental_uris":{"android":"levelo://app?vid=f3663f60-dbbf-48c6-8470-0b2e2be6f100","ios":"levelo://app?vid=f3663f60-dbbf-48c6-8470-0b2e2be6f100"},"vehicle_type_id":"4","last_reported":1778413223,"current_range_meters":8000,"station_id":"st_d4e5ca6na9uc73bfl5fg","pricing_plan_id":"cebpf4jnsgd1na2vs0mg"},{"bike_id":"5f01b0f6-dc5d-489c-88ed-241b6f876ee6","system_id":"levelo_inurba_marseille","lat":43.23959,"lon":5.36657,"is_reserved":false,"is_disabled":false,"rental_uris":{"android":"levelo://app?vid=5f01b0f6-dc5d-489c-88ed-241b6f876ee6","ios":"levelo://app?vid=5f01b0f6-dc5d-489c-88ed-241b6f876ee6"},"vehicle_type_id":"4","last_reported":1778413223,"current_range_meters":8000,"station_id":"ce4bhi12rcd13ifvqfp0","pricing_plan_id":"cebpf4jnsgd1na2vs0mg"},{"bike_id":"fd218b19-8f33-4a74-8ae4-8251c7a63f98","system_id":"levelo_inurba_marseille","lat":43.24631,"lon":5.43142,"is_reserved":false,"is_disabled":false,"rental_uris":{"android":"levelo://app?vid=fd218b19-8f33-4a74-8ae4-8251c7a63f98","ios":"levelo://app?vid=fd218b19-8f33-4a74-8ae4-8251c7a63f98"},"vehicle_type_id":"4","last_reported":1778413223,"current_range_meters":8000,"station_id":"st_d2m6c4gdas8pm72e190g","pricing_plan_id":"cebpf4jnsgd1na2vs0mg"},{"bike_id":"8395579b-8f38-41a7-86cb-d8270590e280","system_id":"levelo_inurba_marseille","lat":43.25697,"lon":5.41113,"is_reserved":false,"is_disabled":false,"rental_uris":{"android":"levelo://app?vid=8395579b-8f38-41a7-86cb-d8270590e280","ios":"levelo://app?vid=8395579b-8f38-41a7-86cb-d8270590e280"},"vehicle_type_id":"4","last_reported":1778413223,"current_range_meters":8000,"station_id":"ce4bhkp2rcd13ifvqgd0","pricing_plan_id":"cebpf4jnsgd1na2vs0mg"},{"bike_id":"6e69119c-e4fc-49a8-b5c0-840533fdf37f","system_id":"levelo_inurba_marseille","lat":43.30089,"lon":5.39096,"is_reserved":false,"is_disabled":false,"rental_uris":{"android":"levelo://app?vid=6e69119c-e4fc-49a8-b5c0-840533fdf37f","ios":"levelo://app?vid=6e69119c-e4fc-49a8-b5c0-840533fdf37f"},"vehicle_type_id":"4","last_reported":1778413223,"current_range_meters":8000,"station_id":"ce4bh192rcd13ifvqdb0","pricing_plan_id":"cebpf4jnsgd1na2vs0mg"},{"bike_id":"f35da4d2-6d4d-4400-b509-96ae95895e01","system_id":"levelo_inurba_marseille","lat":43.29686,"lon":5.36598,"is_reserved":false,"is_disabled":false,"rental_uris":{"android":"levelo://app?vid=f35da4d2-6d4d-4400-b509-96ae95895e01","ios":"levelo://app?vid=f35da4d2-6d4d-4400-b509-96ae95895e01"},"vehicle_type_id":"4","last_reported":1778413223,"current_range_meters":8000,"station_id":"ce4bgn12rcd13ifvqbt0","pricing_plan_id":"cebpf4jnsgd1na2vs0mg"},{"bike_id":"43ec9c65-e87a-4e85-86f3-9260a882dc04","system_id":"levelo_inurba_marseille","lat":43.30131,"lon":5.43108,"is_reserved":false,"is_disabled":true,"rental_uris":{"android":"levelo://app?vid=43ec9c65-e87a-4e85-86f3-9260a882dc04","ios":"levelo://app?vid=43ec9c65-e87a-4e85-86f3-9260a882dc04"},"vehicle_type_id":"4","last_reported":1778413223,"current_range_meters":8000,"station_id":"st_d3js3co5814s73ftftug","pricing_plan_id":"cebpf4jnsgd1na2vs0mg"},{"bike_id":"64ee1d1b-107a-4763-9db4-d26752131c23","system_id":"levelo_inurba_marseille","lat":43.25081,"lon":5.39508,"is_reserved":false,"is_disabled":false,"rental_uris":{"android":"levelo://app?vid=64ee1d1b-107a-4763-9db4-d26752131c23","ios":"levelo://app?vid=64ee1d1b-107a-4763-9db4-d26752131c23"},"vehicle_type_id":"4","last_reported":1778413223,"current_range_meters":8000,"station_id":"ce4bhm12rcd13ifvqgkg","pricing_plan_id":"cebpf4jnsgd1na2vs0mg"},{"bike_id":"75080958-6db0-478b-8bb0-690429df5fb5","system_id":"levelo_inurba_marseille","lat":43.29794,"lon":5.38094,"is_reserved":false,"is_disabled":false,"rental_uris":{"android":"levelo://app?vid=75080958-6db0-478b-8bb0-690429df5fb5","ios":"levelo://app?vid=75080958-6db0-478b-8bb0-690429df5fb5"},"vehicle_type_id":"4","last_reported":1778413223,"current_range_meters":8000,"station_id":"ce4bgip2rcd13ifvqbb0","pricing_plan_id":"cebpf4jnsgd1na2vs0mg"},{"bike_id":"c639e12e-5922-4ca3-9c44-60abefd2e632","system_id":"levelo_inurba_marseille","lat":43.30696,"lon":5.40051,"is_reserved":false,"is_disabled":false,"rental_uris":{"android":"levelo://app?vid=c639e12e-5922-4ca3-9c44-60abefd2e632","ios":"levelo://app?vid=c639e12e-5922-4ca3-9c44-60abefd2e632"},"vehicle_type_id":"4","last_reported":1778413223,"current_range_meters":8000,"station_id":"","pricing_plan_id":"cebpf4jnsgd1na2vs0mg"},{"bike_id":"a2bc18bc-742d-49ea-bbf9-2554b9cd98da","system_id":"levelo_inurba_marseille","lat":43.2602,"lon":5.38604,"is_reserved":false,"is_disabled":false,"rental_uris":{"android":"levelo://app?vid=a2bc18bc-742d-49ea-bbf9-2554b9cd98da","ios":"levelo://app?vid=a2bc18bc-742d-49ea-bbf9-2554b9cd98da"},"vehicle_type_id":"4","last_reported":1778413223,"current_range_meters":8000,"station_id":"","pricing_plan_id":"cebpf4jnsgd1na2vs0mg"},{"bike_id":"4d77ae6f-27b2-4640-9353-6e3312852823","system_id":"levelo_inurba_marseille","lat":43.29276,"lon":5.38444,"is_reserved":false,"is_disabled":false,"rental_uris":{"android":"levelo://app?vid=4d77ae6f-27b2-4640-9353-6e3312852823","ios":"levelo://app?vid=4d77ae6f-27b2-4640-9353-6e3312852823"},"vehicle_type_id":"4","last_reported":1778413223,"current_range_meters":8000,"station_id":"ce4bh692rcd13ifvqea0","pricing_plan_id":"cebpf4jnsgd1na2vs0mg"},{"bike_id":"3dee3b98-a392-4211-8e97-e2f36b1c9829","system_id":"levelo_inurba_marseille","lat":43.2655,"lon":5.39021,"is_reserved":false,"is_disabled":false,"rental_uris":{"android":"levelo://app?vid=3dee3b98-a392-4211-8e97-e2f36b1c9829","ios":"levelo://app?vid=3dee3b98-a392-4211-8e97-e2f36b1c9829"},"vehicle_type_id":"4","last_reported":1778413223,"current_range_meters":8000,"station_id":"ce4bhe12rcd13ifvqf30","pricing_plan_id":"cebpf4jnsgd1na2vs0mg"},{"bike_id":"a1d66207-ff5d-4a71-b148-d595e314ee4a","system_id":"levelo_inurba_marseille","lat":43.28793,"lon":5.42416,"is_reserved":false,"is_disabled":false,"rental_uris":{"android":"levelo://app?vid=a1d66207-ff5d-4a71-b148-d595e314ee4a","ios":"levelo://app?vid=a1d66207-ff5d-4a71-b148-d595e314ee4a"},"vehicle_type_id":"4","last_reported":1778413223,"current_range_meters":8000,"station_id":"","pricing_plan_id":"cebpf4jnsgd1na2vs0mg"},{"bike_id":"f66d24f2-bc98-4d48-b2ac-6f874acf2979","system_id":"levelo_inurba_marseille","lat":43.28074,"lon":5.38202,"is_reserved":false,"is_disabled":false,"rental_uris":{"android":"levelo://app?vid=f66d24f2-bc98-4d48-b2ac-6f874acf2979","ios":"levelo://app?vid=f66d24f2-bc98-4d48-b2ac-6f874acf2979"},"vehicle_type_id":"4","last_reported":1778413223,"current_range_meters":8000,"station_id":"","pricing_plan_id":"cebpf4jnsgd1na2vs0mg"},{"bike_id":"e88067db-06e7-43fb-8b26-0f29cfb1ca74","system_id":"levelo_inurba_marseille","lat":43.28712,"lon":5.46649,"is_reserved":false,"is_disabled":false,"rental_uris":{"android":"levelo://app?vid=e88067db-06e7-43fb-8b26-0f29cfb1ca74","ios":"levelo://app?vid=e88067db-06e7-43fb-8b26-0f29cfb1ca74"},"vehicle_type_id":"4","last_reported":1778413223,"current_range_meters":8000,"station_id":"st_d6tc3vkotcvc738tfjhg","pricing_plan_id":"cebpf4jnsgd1na2vs0mg"},{"bike_id":"e6752511-3e96-4c0a-9e61-ec643cdb2faa","system_id":"levelo_inurba_marseille","lat":43.26395,"lon":5.41065,"is_reserved":false,"is_disabled":false,"rental_uris":{"android":"levelo://app?vid=e6752511-3e96-4c0a-9e61-ec643cdb2faa","ios":"levelo://app?vid=e6752511-3e96-4c0a-9e61-ec643cdb2faa"},"vehicle_type_id":"4","last_reported":1778413223,"current_range_meters":8000,"station_id":"st_d4e5ca6na9uc73bfl5fg","pricing_plan_id":"cebpf4jnsgd1na2vs0mg"},{"bike_id":"8557714d-e3e1-4a96-b88e-fb047190a977","system_id":"levelo_inurba_marseille","lat":43.29785,"lon":5.38102,"is_reserved":false,"is_disabled":false,"rental_uris":{"android":"levelo://app?vid=8557714d-e3e1-4a96-b88e-fb047190a977","ios":"levelo://app?vid=8557714d-e3e1-4a96-b88e-fb047190a977"},"vehicle_type_id":"4","last_reported":1778413223,"current_range_meters":8400,"station_id":"ce4bgip2rcd13ifvqbb0","pricing_plan_id":"cebpf4jnsgd1na2vs0mg"},{"bike_id":"bd013f89-14e0-4bf4-b551-5f21536228af","system_id":"levelo_inurba_marseille","lat":43.26051,"lon":5.39387,"is_reserved":false,"is_disabled":false,"rental_uris":{"android":"levelo://app?vid=bd013f89-14e0-4bf4-b551-5f21536228af","ios":"levelo://app?vid=bd013f89-14e0-4bf4-b551-5f21536228af"},"vehicle_type_id":"4","last_reported":1778413223,"current_range_meters":8400,"station_id":"ce4bhh92rcd13ifvqfj0","pricing_plan_id":"cebpf4jnsgd1na2vs0mg"},{"bike_id":"9978bf29-8be4-416d-9e1c-7cc044f2b9f1","system_id":"levelo_inurba_marseille","lat":43.32603,"lon":5.37895,"is_reserved":false,"is_disabled":false,"rental_uris":{"android":"levelo://app?vid=9978bf29-8be4-416d-9e1c-7cc044f2b9f1","ios":"levelo://app?vid=9978bf29-8be4-416d-9e1c-7cc044f2b9f1"},"vehicle_type_id":"4","last_reported":1778413223,"current_range_meters":8400,"station_id":"","pricing_plan_id":"cebpf4jnsgd1na2vs0mg"},{"bike_id":"b0924cdd-95f4-4ebb-bc68-4b287e16c53b","system_id":"levelo_inurba_marseille","lat":43.30944,"lon":5.4015,"is_reserved":false,"is_disabled":true,"rental_uris":{"android":"levelo://app?vid=b0924cdd-95f4-4ebb-bc68-4b287e16c53b","ios":"levelo://app?vid=b0924cdd-95f4-4ebb-bc68-4b287e16c53b"},"vehicle_type_id":"4","last_reported":1778413223,"current_range_meters":8400,"station_id":"ce4bgvp2rcd13ifvqct0","pricing_plan_id":"cebpf4jnsgd1na2vs0mg"},{"bike_id":"d6e11961-a2ee-4bd5-94e1-17a162f7b084","system_id":"levelo_inurba_marseille","lat":43.29603,"lon":5.38094,"is_reserved":false,"is_disabled":false,"rental_uris":{"android":"levelo://app?vid=d6e11961-a2ee-4bd5-94e1-17a162f7b084","ios":"levelo://app?vid=d6e11961-a2ee-4bd5-94e1-17a162f7b084"},"vehicle_type_id":"4","last_reported":1778413223,"current_range_meters":8400,"station_id":"ce4bgl12rcd13ifvqbo0","pricing_plan_id":"cebpf4jnsgd1na2vs0mg"},{"bike_id":"1eaa8a9d-dfec-4534-8038-aaa7b3c7258c","system_id":"levelo_inurba_marseille","lat":43.29716,"lon":5.37706,"is_reserved":false,"is_disabled":false,"rental_uris":{"android":"levelo://app?vid=1eaa8a9d-dfec-4534-8038-aaa7b3c7258c","ios":"levelo://app?vid=1eaa8a9d-dfec-4534-8038-aaa7b3c7258c"},"vehicle_type_id":"4","last_reported":1778413223,"current_range_meters":8400,"station_id":"ce4bgkh2rcd13ifvqbl0","pricing_plan_id":"cebpf4jnsgd1na2vs0mg"},{"bike_id":"05873d3e-2f07-45ee-9c3a-8f47e65ca722","system_id":"levelo_inurba_marseille","lat":43.29862,"lon":5.39722,"is_reserved":false,"is_disabled":true,"rental_uris":{"android":"levelo://app?vid=05873d3e-2f07-45ee-9c3a-8f47e65ca722","ios":"levelo://app?vid=05873d3e-2f07-45ee-9c3a-8f47e65ca722"},"vehicle_type_id":"4","last_reported":1778413223,"current_range_meters":8400,"station_id":"ce4bh0h2rcd13ifvqd50","pricing_plan_id":"cebpf4jnsgd1na2vs0mg"},{"bike_id":"e16f3497-994b-4a5e-a623-feda354f6eb9","system_id":"levelo_inurba_marseille","lat":43.29469,"lon":5.43323,"is_reserved":false,"is_disabled":false,"rental_uris":{"android":"levelo://app?vid=e16f3497-994b-4a5e-a623-feda354f6eb9","ios":"levelo://app?vid=e16f3497-994b-4a5e-a623-feda354f6eb9"},"vehicle_type_id":"4","last_reported":1778413223,"current_range_meters":8400,"station_id":"st_d3j5ugp08ojc73fj9d10","pricing_plan_id":"cebpf4jnsgd1na2vs0mg"},{"bike_id":"dfa6dd59-77bd-4892-9b0a-54e6272c910a","system_id":"levelo_inurba_marseille","lat":43.26234,"lon":5.40447,"is_reserved":false,"is_disabled":false,"rental_uris":{"android":"levelo://app?vid=dfa6dd59-77bd-4892-9b0a-54e6272c910a","ios":"levelo://app?vid=dfa6dd59-77bd-4892-9b0a-54e6272c910a"},"vehicle_type_id":"4","last_reported":1778413223,"current_range_meters":8400,"station_id":"ce4bhmh2rcd13ifvqgmg","pricing_plan_id":"cebpf4jnsgd1na2vs0mg"},{"bike_id":"4516e97d-1ec7-4f67-bd2c-30129b674d6c","system_id":"levelo_inurba_marseille","lat":43.28616,"lon":5.35092,"is_reserved":false,"is_disabled":true,"rental_uris":{"android":"levelo://app?vid=4516e97d-1ec7-4f67-bd2c-30129b674d6c","ios":"levelo://app?vid=4516e97d-1ec7-4f67-bd2c-30129b674d6c"},"vehicle_type_id":"4","last_reported":1778413223,"current_range_meters":8400,"station_id":"ce4bhch2rcd13ifvqeug","pricing_plan_id":"cebpf4jnsgd1na2vs0mg"},{"bike_id":"829aeb58-c649-476d-904d-bd92827ec395","system_id":"levelo_inurba_marseille","lat":43.30889,"lon":5.41212,"is_reserved":false,"is_disabled":false,"rental_uris":{"android":"levelo://app?vid=829aeb58-c649-476d-904d-bd92827ec395","ios":"levelo://app?vid=829aeb58-c649-476d-904d-bd92827ec395"},"vehicle_type_id":"4","last_reported":1778413223,"current_range_meters":8400,"station_id":"","pricing_plan_id":"cebpf4jnsgd1na2vs0mg"},{"bike_id":"019248d2-541c-4fa1-abbd-e47be97aa96b","system_id":"levelo_inurba_marseille","lat":43.25356,"lon":5.42146,"is_reserved":false,"is_disabled":true,"rental_uris":{"android":"levelo://app?vid=019248d2-541c-4fa1-abbd-e47be97aa96b","ios":"levelo://app?vid=019248d2-541c-4fa1-abbd-e47be97aa96b"},"vehicle_type_id":"4","last_reported":1778413223,"current_range_meters":8400,"station_id":"st_d2m65c5bi1j21697t3ng","pricing_plan_id":"cebpf4jnsgd1na2vs0mg"},{"bike_id":"9419e6b1-d07e-4865-bc84-49f308e929ec","system_id":"levelo_inurba_marseille","lat":43.23307,"lon":5.35813,"is_reserved":false,"is_disabled":false,"rental_uris":{"android":"levelo://app?vid=9419e6b1-d07e-4865-bc84-49f308e929ec","ios":"levelo://app?vid=9419e6b1-d07e-4865-bc84-49f308e929ec"},"vehicle_type_id":"4","last_reported":1778413223,"current_range_meters":8400,"station_id":"","pricing_plan_id":"cebpf4jnsgd1na2vs0mg"},{"bike_id":"90b935f7-9484-4e0c-abe3-8fc7dfec46f4","system_id":"levelo_inurba_marseille","lat":43.29529,"lon":5.38529,"is_reserved":false,"is_disabled":false,"rental_uris":{"android":"levelo://app?vid=90b935f7-9484-4e0c-abe3-8fc7dfec46f4","ios":"levelo://app?vid=90b935f7-9484-4e0c-abe3-8fc7dfec46f4"},"vehicle_type_id":"4","last_reported":1778413223,"current_range_meters":8400,"station_id":"ce4bgih2rcd13ifvqba0","pricing_plan_id":"cebpf4jnsgd1na2vs0mg"},{"bike_id":"02849ecd-84ae-4972-8247-931607cdaec0","system_id":"levelo_inurba_marseille","lat":43.28612,"lon":5.35112,"is_reserved":false,"is_disabled":false,"rental_uris":{"android":"levelo://app?vid=02849ecd-84ae-4972-8247-931607cdaec0","ios":"levelo://app?vid=02849ecd-84ae-4972-8247-931607cdaec0"},"vehicle_type_id":"4","last_reported":1778413223,"current_range_meters":8400,"station_id":"ce4bhch2rcd13ifvqeug","pricing_plan_id":"cebpf4jnsgd1na2vs0mg"},{"bike_id":"cccda472-7561-4978-9b74-a8c6197a578e","system_id":"levelo_inurba_marseille","lat":43.3317,"lon":5.37672,"is_reserved":false,"is_disabled":false,"rental_uris":{"android":"levelo://app?vid=cccda472-7561-4978-9b74-a8c6197a578e","ios":"levelo://app?vid=cccda472-7561-4978-9b74-a8c6197a578e"},"vehicle_type_id":"4","last_reported":1778413223,"current_range_meters":8400,"station_id":"st_d46cu089ee8s73dldbu0","pricing_plan_id":"cebpf4jnsgd1na2vs0mg"},{"bike_id":"2f4766aa-762b-4654-81e1-9ae2179c325b","system_id":"levelo_inurba_marseille","lat":43.278125,"lon":5.407006,"is_reserved":false,"is_disabled":false,"rental_uris":{"android":"levelo://app?vid=2f4766aa-762b-4654-81e1-9ae2179c325b","ios":"levelo://app?vid=2f4766aa-762b-4654-81e1-9ae2179c325b"},"vehicle_type_id":"4","last_reported":1778413223,"current_range_meters":8400,"station_id":"ce4bhnh2rcd13ifvqgtg","pricing_plan_id":"cebpf4jnsgd1na2vs0mg"},{"bike_id":"0a5d24e1-c278-44ad-85d5-b890195fcd96","system_id":"levelo_inurba_marseille","lat":43.28617,"lon":5.35107,"is_reserved":false,"is_disabled":false,"rental_uris":{"android":"levelo://app?vid=0a5d24e1-c278-44ad-85d5-b890195fcd96","ios":"levelo://app?vid=0a5d24e1-c278-44ad-85d5-b890195fcd96"},"vehicle_type_id":"4","last_reported":1778413223,"current_range_meters":8800,"station_id":"ce4bhch2rcd13ifvqeug","pricing_plan_id":"cebpf4jnsgd1na2vs0mg"},{"bike_id":"7f14ac2a-95a1-4ff9-8272-a58b1f33bddd","system_id":"levelo_inurba_marseille","lat":43.32363,"lon":5.38855,"is_reserved":false,"is_disabled":false,"rental_uris":{"android":"levelo://app?vid=7f14ac2a-95a1-4ff9-8272-a58b1f33bddd","ios":"levelo://app?vid=7f14ac2a-95a1-4ff9-8272-a58b1f33bddd"},"vehicle_type_id":"4","last_reported":1778413223,"current_range_meters":8800,"station_id":"ce4bhqp2rcd13ifvqhog","pricing_plan_id":"cebpf4jnsgd1na2vs0mg"},{"bike_id":"3a4bb4b4-1621-4140-b074-79bb089190b9","system_id":"levelo_inurba_marseille","lat":43.33054,"lon":5.37578,"is_reserved":false,"is_disabled":false,"rental_uris":{"android":"levelo://app?vid=3a4bb4b4-1621-4140-b074-79bb089190b9","ios":"levelo://app?vid=3a4bb4b4-1621-4140-b074-79bb089190b9"},"vehicle_type_id":"4","last_reported":1778413223,"current_range_meters":8800,"station_id":"","pricing_plan_id":"cebpf4jnsgd1na2vs0mg"},{"bike_id":"31398a4d-4b5e-484e-bd5a-d9f31bc295bd","system_id":"levelo_inurba_marseille","lat":43.25087,"lon":5.39518,"is_reserved":false,"is_disabled":false,"rental_uris":{"android":"levelo://app?vid=31398a4d-4b5e-484e-bd5a-d9f31bc295bd","ios":"levelo://app?vid=31398a4d-4b5e-484e-bd5a-d9f31bc295bd"},"vehicle_type_id":"4","last_reported":1778413223,"current_range_meters":8800,"station_id":"ce4bhm12rcd13ifvqgkg","pricing_plan_id":"cebpf4jnsgd1na2vs0mg"},{"bike_id":"3be48547-9755-4740-8c69-194d026c42aa","system_id":"levelo_inurba_marseille","lat":43.28409,"lon":5.37529,"is_reserved":false,"is_disabled":true,"rental_uris":{"android":"levelo://app?vid=3be48547-9755-4740-8c69-194d026c42aa","ios":"levelo://app?vid=3be48547-9755-4740-8c69-194d026c42aa"},"vehicle_type_id":"4","last_reported":1778413223,"current_range_meters":8800,"station_id":"ce4bh412rcd13ifvqds0","pricing_plan_id":"cebpf4jnsgd1na2vs0mg"},{"bike_id":"0fdd2634-3a09-446a-be37-6d2e2fa070de","system_id":"levelo_inurba_marseille","lat":43.28863,"lon":5.42527,"is_reserved":false,"is_disabled":false,"rental_uris":{"android":"levelo://app?vid=0fdd2634-3a09-446a-be37-6d2e2fa070de","ios":"levelo://app?vid=0fdd2634-3a09-446a-be37-6d2e2fa070de"},"vehicle_type_id":"4","last_reported":1778413223,"current_range_meters":8800,"station_id":"st_d3b462108ojc7389ooeg","pricing_plan_id":"cebpf4jnsgd1na2vs0mg"},{"bike_id":"444159f6-104e-4154-8676-04b8c81ae491","system_id":"levelo_inurba_marseille","lat":43.29267,"lon":5.36848,"is_reserved":false,"is_disabled":false,"rental_uris":{"android":"levelo://app?vid=444159f6-104e-4154-8676-04b8c81ae491","ios":"levelo://app?vid=444159f6-104e-4154-8676-04b8c81ae491"},"vehicle_type_id":"4","last_reported":1778413223,"current_range_meters":8800,"station_id":"ce4bhbp2rcd13ifvqesg","pricing_plan_id":"cebpf4jnsgd1na2vs0mg"},{"bike_id":"f3e5f4c8-4e21-43e7-b783-e32e46d7b1d8","system_id":"levelo_inurba_marseille","lat":43.29627,"lon":5.36189,"is_reserved":false,"is_disabled":false,"rental_uris":{"android":"levelo://app?vid=f3e5f4c8-4e21-43e7-b783-e32e46d7b1d8","ios":"levelo://app?vid=f3e5f4c8-4e21-43e7-b783-e32e46d7b1d8"},"vehicle_type_id":"4","last_reported":1778413223,"current_range_meters":8800,"station_id":"","pricing_plan_id":"cebpf4jnsgd1na2vs0mg"},{"bike_id":"80386a2b-e970-41f0-870f-0b66294b34a1","system_id":"levelo_inurba_marseille","lat":43.26411,"lon":5.4105,"is_reserved":false,"is_disabled":false,"rental_uris":{"android":"levelo://app?vid=80386a2b-e970-41f0-870f-0b66294b34a1","ios":"levelo://app?vid=80386a2b-e970-41f0-870f-0b66294b34a1"},"vehicle_type_id":"4","last_reported":1778413223,"current_range_meters":8800,"station_id":"st_d4e5ca6na9uc73bfl5fg","pricing_plan_id":"cebpf4jnsgd1na2vs0mg"},{"bike_id":"523bae21-47ff-42d4-800f-6f372ba97d90","system_id":"levelo_inurba_marseille","lat":43.30943,"lon":5.40154,"is_reserved":false,"is_disabled":false,"rental_uris":{"android":"levelo://app?vid=523bae21-47ff-42d4-800f-6f372ba97d90","ios":"levelo://app?vid=523bae21-47ff-42d4-800f-6f372ba97d90"},"vehicle_type_id":"4","last_reported":1778413223,"current_range_meters":8800,"station_id":"ce4bgvp2rcd13ifvqct0","pricing_plan_id":"cebpf4jnsgd1na2vs0mg"},{"bike_id":"f0727bb7-b933-4d55-a165-2af7c22b34c1","system_id":"levelo_inurba_marseille","lat":43.2259,"lon":5.41624,"is_reserved":false,"is_disabled":false,"rental_uris":{"android":"levelo://app?vid=f0727bb7-b933-4d55-a165-2af7c22b34c1","ios":"levelo://app?vid=f0727bb7-b933-4d55-a165-2af7c22b34c1"},"vehicle_type_id":"4","last_reported":1778413223,"current_range_meters":8800,"station_id":"st_d2o4gvlbi1j2169b742g","pricing_plan_id":"cebpf4jnsgd1na2vs0mg"},{"bike_id":"1d18ceb8-8246-4fa1-b8b0-48b436a72bf8","system_id":"levelo_inurba_marseille","lat":43.25081,"lon":5.39511,"is_reserved":false,"is_disabled":false,"rental_uris":{"android":"levelo://app?vid=1d18ceb8-8246-4fa1-b8b0-48b436a72bf8","ios":"levelo://app?vid=1d18ceb8-8246-4fa1-b8b0-48b436a72bf8"},"vehicle_type_id":"4","last_reported":1778413223,"current_range_meters":8800,"station_id":"ce4bhm12rcd13ifvqgkg","pricing_plan_id":"cebpf4jnsgd1na2vs0mg"},{"bike_id":"ad206cfa-883b-417b-b1ab-804ae7af3a6b","system_id":"levelo_inurba_marseille","lat":43.31361,"lon":5.38475,"is_reserved":false,"is_disabled":false,"rental_uris":{"android":"levelo://app?vid=ad206cfa-883b-417b-b1ab-804ae7af3a6b","ios":"levelo://app?vid=ad206cfa-883b-417b-b1ab-804ae7af3a6b"},"vehicle_type_id":"4","last_reported":1778413223,"current_range_meters":8800,"station_id":"ce4bgt92rcd13ifvqcf0","pricing_plan_id":"cebpf4jnsgd1na2vs0mg"},{"bike_id":"c690f58c-1038-42b0-b77d-6adb62e7af97","system_id":"levelo_inurba_marseille","lat":43.29539,"lon":5.3853,"is_reserved":false,"is_disabled":false,"rental_uris":{"android":"levelo://app?vid=c690f58c-1038-42b0-b77d-6adb62e7af97","ios":"levelo://app?vid=c690f58c-1038-42b0-b77d-6adb62e7af97"},"vehicle_type_id":"4","last_reported":1778413223,"current_range_meters":8800,"station_id":"ce4bgih2rcd13ifvqba0","pricing_plan_id":"cebpf4jnsgd1na2vs0mg"},{"bike_id":"4be48e83-9343-4c3a-b884-b414c3010644","system_id":"levelo_inurba_marseille","lat":43.25871,"lon":5.39879,"is_reserved":false,"is_disabled":true,"rental_uris":{"android":"levelo://app?vid=4be48e83-9343-4c3a-b884-b414c3010644","ios":"levelo://app?vid=4be48e83-9343-4c3a-b884-b414c3010644"},"vehicle_type_id":"4","last_reported":1778413223,"current_range_meters":8800,"station_id":"ce4bhl92rcd13ifvqghg","pricing_plan_id":"cebpf4jnsgd1na2vs0mg"},{"bike_id":"dfac2de4-d362-4feb-b799-9a59741ee828","system_id":"levelo_inurba_marseille","lat":43.22887,"lon":5.44465,"is_reserved":false,"is_disabled":false,"rental_uris":{"android":"levelo://app?vid=dfac2de4-d362-4feb-b799-9a59741ee828","ios":"levelo://app?vid=dfac2de4-d362-4feb-b799-9a59741ee828"},"vehicle_type_id":"4","last_reported":1778413223,"current_range_meters":8800,"station_id":"","pricing_plan_id":"cebpf4jnsgd1na2vs0mg"},{"bike_id":"f68eafe7-37e6-4918-999d-6742c2fd3eb9","system_id":"levelo_inurba_marseille","lat":43.27693,"lon":5.3887,"is_reserved":false,"is_disabled":false,"rental_uris":{"android":"levelo://app?vid=f68eafe7-37e6-4918-999d-6742c2fd3eb9","ios":"levelo://app?vid=f68eafe7-37e6-4918-999d-6742c2fd3eb9"},"vehicle_type_id":"4","last_reported":1778413223,"current_range_meters":9200,"station_id":"ce4bhi12rcd13ifvqfo0","pricing_plan_id":"cebpf4jnsgd1na2vs0mg"},{"bike_id":"a8ab762c-d0c1-412c-af4c-fcf3f887c4f5","system_id":"levelo_inurba_marseille","lat":43.28616,"lon":5.35105,"is_reserved":false,"is_disabled":false,"rental_uris":{"android":"levelo://app?vid=a8ab762c-d0c1-412c-af4c-fcf3f887c4f5","ios":"levelo://app?vid=a8ab762c-d0c1-412c-af4c-fcf3f887c4f5"},"vehicle_type_id":"4","last_reported":1778413223,"current_range_meters":9200,"station_id":"ce4bhch2rcd13ifvqeug","pricing_plan_id":"cebpf4jnsgd1na2vs0mg"},{"bike_id":"f4e10281-e824-4c0a-91b8-fcbe0cd3e4b4","system_id":"levelo_inurba_marseille","lat":43.279185,"lon":5.39575,"is_reserved":false,"is_disabled":false,"rental_uris":{"android":"levelo://app?vid=f4e10281-e824-4c0a-91b8-fcbe0cd3e4b4","ios":"levelo://app?vid=f4e10281-e824-4c0a-91b8-fcbe0cd3e4b4"},"vehicle_type_id":"4","last_reported":1778413223,"current_range_meters":9200,"station_id":"ce4bhf92rcd13ifvqf40","pricing_plan_id":"cebpf4jnsgd1na2vs0mg"},{"bike_id":"439c580c-91fb-4f07-899b-17e34535b7cf","system_id":"levelo_inurba_marseille","lat":43.28712,"lon":5.37973,"is_reserved":false,"is_disabled":true,"rental_uris":{"android":"levelo://app?vid=439c580c-91fb-4f07-899b-17e34535b7cf","ios":"levelo://app?vid=439c580c-91fb-4f07-899b-17e34535b7cf"},"vehicle_type_id":"4","last_reported":1778413223,"current_range_meters":9200,"station_id":"ce4bh9p2rcd13ifvqec0","pricing_plan_id":"cebpf4jnsgd1na2vs0mg"},{"bike_id":"a7628563-6042-4b75-8cb9-b4afa4523e3b","system_id":"levelo_inurba_marseille","lat":43.25129,"lon":5.40318,"is_reserved":false,"is_disabled":false,"rental_uris":{"android":"levelo://app?vid=a7628563-6042-4b75-8cb9-b4afa4523e3b","ios":"levelo://app?vid=a7628563-6042-4b75-8cb9-b4afa4523e3b"},"vehicle_type_id":"4","last_reported":1778413223,"current_range_meters":9200,"station_id":"ce4bhlh2rcd13ifvqgig","pricing_plan_id":"cebpf4jnsgd1na2vs0mg"},{"bike_id":"9bb74d20-8aee-4a2e-996c-43ecf8d7375f","system_id":"levelo_inurba_marseille","lat":43.24677,"lon":5.38151,"is_reserved":false,"is_disabled":true,"rental_uris":{"android":"levelo://app?vid=9bb74d20-8aee-4a2e-996c-43ecf8d7375f","ios":"levelo://app?vid=9bb74d20-8aee-4a2e-996c-43ecf8d7375f"},"vehicle_type_id":"4","last_reported":1778413223,"current_range_meters":9200,"station_id":"ce4bhih2rcd13ifvqfr0","pricing_plan_id":"cebpf4jnsgd1na2vs0mg"},{"bike_id":"5c5f1b2c-364a-42ea-b18e-b314ba5bf6e3","system_id":"levelo_inurba_marseille","lat":43.28422,"lon":5.3496,"is_reserved":false,"is_disabled":true,"rental_uris":{"android":"levelo://app?vid=5c5f1b2c-364a-42ea-b18e-b314ba5bf6e3","ios":"levelo://app?vid=5c5f1b2c-364a-42ea-b18e-b314ba5bf6e3"},"vehicle_type_id":"4","last_reported":1778413223,"current_range_meters":9200,"station_id":"ce4bhbh2rcd13ifvqepg","pricing_plan_id":"cebpf4jnsgd1na2vs0mg"},{"bike_id":"8a87fd28-2b34-4f41-bc5d-c682c1f5b7e2","system_id":"levelo_inurba_marseille","lat":43.24802,"lon":5.37442,"is_reserved":false,"is_disabled":false,"rental_uris":{"android":"levelo://app?vid=8a87fd28-2b34-4f41-bc5d-c682c1f5b7e2","ios":"levelo://app?vid=8a87fd28-2b34-4f41-bc5d-c682c1f5b7e2"},"vehicle_type_id":"4","last_reported":1778413223,"current_range_meters":9200,"station_id":"ce4bhgh2rcd13ifvqfb0","pricing_plan_id":"cebpf4jnsgd1na2vs0mg"},{"bike_id":"7f8259ee-8b23-4439-b2fc-a47177d820db","system_id":"levelo_inurba_marseille","lat":43.29699,"lon":5.37277,"is_reserved":false,"is_disabled":false,"rental_uris":{"android":"levelo://app?vid=7f8259ee-8b23-4439-b2fc-a47177d820db","ios":"levelo://app?vid=7f8259ee-8b23-4439-b2fc-a47177d820db"},"vehicle_type_id":"4","last_reported":1778413223,"current_range_meters":9200,"station_id":"ce4bgk12rcd13ifvqbj0","pricing_plan_id":"cebpf4jnsgd1na2vs0mg"},{"bike_id":"1f120ac7-7ee8-43e5-8a49-7d8f26aa9f00","system_id":"levelo_inurba_marseille","lat":43.30194,"lon":5.39444,"is_reserved":false,"is_disabled":false,"rental_uris":{"android":"levelo://app?vid=1f120ac7-7ee8-43e5-8a49-7d8f26aa9f00","ios":"levelo://app?vid=1f120ac7-7ee8-43e5-8a49-7d8f26aa9f00"},"vehicle_type_id":"4","last_reported":1778413223,"current_range_meters":9200,"station_id":"ce4bh0p2rcd13ifvqd70","pricing_plan_id":"cebpf4jnsgd1na2vs0mg"},{"bike_id":"0e20409f-126f-499f-882f-c3ac5aee5a50","system_id":"levelo_inurba_marseille","lat":43.28923,"lon":5.38376,"is_reserved":false,"is_disabled":false,"rental_uris":{"android":"levelo://app?vid=0e20409f-126f-499f-882f-c3ac5aee5a50","ios":"levelo://app?vid=0e20409f-126f-499f-882f-c3ac5aee5a50"},"vehicle_type_id":"4","last_reported":1778413223,"current_range_meters":9200,"station_id":"ce4bh612rcd13ifvqe6g","pricing_plan_id":"cebpf4jnsgd1na2vs0mg"},{"bike_id":"f4a19dde-e4e0-4d27-9004-98553f2d57b5","system_id":"levelo_inurba_marseille","lat":43.33164,"lon":5.37665,"is_reserved":false,"is_disabled":false,"rental_uris":{"android":"levelo://app?vid=f4a19dde-e4e0-4d27-9004-98553f2d57b5","ios":"levelo://app?vid=f4a19dde-e4e0-4d27-9004-98553f2d57b5"},"vehicle_type_id":"4","last_reported":1778413223,"current_range_meters":9200,"station_id":"st_d46cu089ee8s73dldbu0","pricing_plan_id":"cebpf4jnsgd1na2vs0mg"},{"bike_id":"680b6d6f-97fe-453c-83fc-f6305ceec7f5","system_id":"levelo_inurba_marseille","lat":43.28683,"lon":5.38646,"is_reserved":false,"is_disabled":false,"rental_uris":{"android":"levelo://app?vid=680b6d6f-97fe-453c-83fc-f6305ceec7f5","ios":"levelo://app?vid=680b6d6f-97fe-453c-83fc-f6305ceec7f5"},"vehicle_type_id":"4","last_reported":1778413223,"current_range_meters":9600,"station_id":"ce4bh492rcd13ifvqdug","pricing_plan_id":"cebpf4jnsgd1na2vs0mg"},{"bike_id":"07918b41-207e-49db-a428-6e9431456524","system_id":"levelo_inurba_marseille","lat":43.25111,"lon":5.40331,"is_reserved":false,"is_disabled":false,"rental_uris":{"android":"levelo://app?vid=07918b41-207e-49db-a428-6e9431456524","ios":"levelo://app?vid=07918b41-207e-49db-a428-6e9431456524"},"vehicle_type_id":"4","last_reported":1778413223,"current_range_meters":9600,"station_id":"ce4bhlh2rcd13ifvqgig","pricing_plan_id":"cebpf4jnsgd1na2vs0mg"},{"bike_id":"ff28cff5-db61-4054-aa44-f20eb6ede6ec","system_id":"levelo_inurba_marseille","lat":43.2962,"lon":5.37709,"is_reserved":false,"is_disabled":false,"rental_uris":{"android":"levelo://app?vid=ff28cff5-db61-4054-aa44-f20eb6ede6ec","ios":"levelo://app?vid=ff28cff5-db61-4054-aa44-f20eb6ede6ec"},"vehicle_type_id":"4","last_reported":1778413223,"current_range_meters":9600,"station_id":"ce4bgi92rcd13ifvqb90","pricing_plan_id":"cebpf4jnsgd1na2vs0mg"},{"bike_id":"2b88d797-c69c-4cd8-8813-ae069eb3fffd","system_id":"levelo_inurba_marseille","lat":43.2862,"lon":5.35107,"is_reserved":false,"is_disabled":false,"rental_uris":{"android":"levelo://app?vid=2b88d797-c69c-4cd8-8813-ae069eb3fffd","ios":"levelo://app?vid=2b88d797-c69c-4cd8-8813-ae069eb3fffd"},"vehicle_type_id":"4","last_reported":1778413223,"current_range_meters":9600,"station_id":"ce4bhch2rcd13ifvqeug","pricing_plan_id":"cebpf4jnsgd1na2vs0mg"},{"bike_id":"09fa49d6-2f72-44fb-aecc-f42e40eb9080","system_id":"levelo_inurba_marseille","lat":43.25749,"lon":5.41095,"is_reserved":false,"is_disabled":false,"rental_uris":{"android":"levelo://app?vid=09fa49d6-2f72-44fb-aecc-f42e40eb9080","ios":"levelo://app?vid=09fa49d6-2f72-44fb-aecc-f42e40eb9080"},"vehicle_type_id":"4","last_reported":1778413223,"current_range_meters":9600,"station_id":"ce4bhkp2rcd13ifvqgd0","pricing_plan_id":"cebpf4jnsgd1na2vs0mg"},{"bike_id":"4c32ad07-663c-485f-82eb-d96acfe1fee5","system_id":"levelo_inurba_marseille","lat":43.32901,"lon":5.38276,"is_reserved":false,"is_disabled":false,"rental_uris":{"android":"levelo://app?vid=4c32ad07-663c-485f-82eb-d96acfe1fee5","ios":"levelo://app?vid=4c32ad07-663c-485f-82eb-d96acfe1fee5"},"vehicle_type_id":"4","last_reported":1778413223,"current_range_meters":9600,"station_id":"","pricing_plan_id":"cebpf4jnsgd1na2vs0mg"},{"bike_id":"9fb94e69-3038-4e70-b37c-9e41dddc049b","system_id":"levelo_inurba_marseille","lat":43.28332,"lon":5.38097,"is_reserved":false,"is_disabled":true,"rental_uris":{"android":"levelo://app?vid=9fb94e69-3038-4e70-b37c-9e41dddc049b","ios":"levelo://app?vid=9fb94e69-3038-4e70-b37c-9e41dddc049b"},"vehicle_type_id":"4","last_reported":1778413223,"current_range_meters":9600,"station_id":"ce4bh412rcd13ifvqdr0","pricing_plan_id":"cebpf4jnsgd1na2vs0mg"},{"bike_id":"41ecb6d4-6eb0-4766-b142-ca32b6634c39","system_id":"levelo_inurba_marseille","lat":43.33142,"lon":5.37721,"is_reserved":false,"is_disabled":false,"rental_uris":{"android":"levelo://app?vid=41ecb6d4-6eb0-4766-b142-ca32b6634c39","ios":"levelo://app?vid=41ecb6d4-6eb0-4766-b142-ca32b6634c39"},"vehicle_type_id":"4","last_reported":1778413223,"current_range_meters":9600,"station_id":"st_d46cu089ee8s73dldbu0","pricing_plan_id":"cebpf4jnsgd1na2vs0mg"},{"bike_id":"797bac3f-8664-4b04-96a9-75a861ebb4c2","system_id":"levelo_inurba_marseille","lat":43.29966,"lon":5.38501,"is_reserved":false,"is_disabled":false,"rental_uris":{"android":"levelo://app?vid=797bac3f-8664-4b04-96a9-75a861ebb4c2","ios":"levelo://app?vid=797bac3f-8664-4b04-96a9-75a861ebb4c2"},"vehicle_type_id":"4","last_reported":1778413223,"current_range_meters":9600,"station_id":"ce4bgj92rcd13ifvqbd0","pricing_plan_id":"cebpf4jnsgd1na2vs0mg"},{"bike_id":"fac5e78c-2d15-4073-a563-3fb2a4e40b4c","system_id":"levelo_inurba_marseille","lat":43.30885,"lon":5.39647,"is_reserved":false,"is_disabled":false,"rental_uris":{"android":"levelo://app?vid=fac5e78c-2d15-4073-a563-3fb2a4e40b4c","ios":"levelo://app?vid=fac5e78c-2d15-4073-a563-3fb2a4e40b4c"},"vehicle_type_id":"4","last_reported":1778413223,"current_range_meters":9600,"station_id":"ce4bh012rcd13ifvqcv0","pricing_plan_id":"cebpf4jnsgd1na2vs0mg"},{"bike_id":"21a7f896-b278-4e64-96ff-f2d3e49aae77","system_id":"levelo_inurba_marseille","lat":43.24631,"lon":5.43137,"is_reserved":false,"is_disabled":true,"rental_uris":{"android":"levelo://app?vid=21a7f896-b278-4e64-96ff-f2d3e49aae77","ios":"levelo://app?vid=21a7f896-b278-4e64-96ff-f2d3e49aae77"},"vehicle_type_id":"4","last_reported":1778413223,"current_range_meters":9600,"station_id":"st_d2m6c4gdas8pm72e190g","pricing_plan_id":"cebpf4jnsgd1na2vs0mg"},{"bike_id":"0f88bb22-2b72-469a-9d43-5e69793019fe","system_id":"levelo_inurba_marseille","lat":43.25005,"lon":5.38917,"is_reserved":false,"is_disabled":false,"rental_uris":{"android":"levelo://app?vid=0f88bb22-2b72-469a-9d43-5e69793019fe","ios":"levelo://app?vid=0f88bb22-2b72-469a-9d43-5e69793019fe"},"vehicle_type_id":"4","last_reported":1778413223,"current_range_meters":9600,"station_id":"ce4bhgp2rcd13ifvqfd0","pricing_plan_id":"cebpf4jnsgd1na2vs0mg"},{"bike_id":"5692a726-40ad-429a-82b7-460d1c6e019b","system_id":"levelo_inurba_marseille","lat":43.286934,"lon":5.399818,"is_reserved":false,"is_disabled":false,"rental_uris":{"android":"levelo://app?vid=5692a726-40ad-429a-82b7-460d1c6e019b","ios":"levelo://app?vid=5692a726-40ad-429a-82b7-460d1c6e019b"},"vehicle_type_id":"4","last_reported":1778413223,"current_range_meters":9600,"station_id":"ce4bho92rcd13ifvqh3g","pricing_plan_id":"cebpf4jnsgd1na2vs0mg"},{"bike_id":"e4b1fac6-69c2-489d-ae0e-ada92a3e6412","system_id":"levelo_inurba_marseille","lat":43.24181,"lon":5.39729,"is_reserved":false,"is_disabled":false,"rental_uris":{"android":"levelo://app?vid=e4b1fac6-69c2-489d-ae0e-ada92a3e6412","ios":"levelo://app?vid=e4b1fac6-69c2-489d-ae0e-ada92a3e6412"},"vehicle_type_id":"4","last_reported":1778413223,"current_range_meters":10000,"station_id":"ce4bhn12rcd13ifvqgpg","pricing_plan_id":"cebpf4jnsgd1na2vs0mg"},{"bike_id":"fa97b013-cf20-4697-baec-25d48d14dd9d","system_id":"levelo_inurba_marseille","lat":43.29248,"lon":5.3844,"is_reserved":false,"is_disabled":true,"rental_uris":{"android":"levelo://app?vid=fa97b013-cf20-4697-baec-25d48d14dd9d","ios":"levelo://app?vid=fa97b013-cf20-4697-baec-25d48d14dd9d"},"vehicle_type_id":"4","last_reported":1778413223,"current_range_meters":10000,"station_id":"ce4bh692rcd13ifvqea0","pricing_plan_id":"cebpf4jnsgd1na2vs0mg"},{"bike_id":"7c0caa52-21c5-41d5-bddb-76a38bb998b8","system_id":"levelo_inurba_marseille","lat":43.29806,"lon":5.44095,"is_reserved":false,"is_disabled":false,"rental_uris":{"android":"levelo://app?vid=7c0caa52-21c5-41d5-bddb-76a38bb998b8","ios":"levelo://app?vid=7c0caa52-21c5-41d5-bddb-76a38bb998b8"},"vehicle_type_id":"4","last_reported":1778413223,"current_range_meters":10000,"station_id":"st_d3jp68qikq2c7381ktn0","pricing_plan_id":"cebpf4jnsgd1na2vs0mg"},{"bike_id":"b8253c6e-2e65-422a-b604-6720af1ef768","system_id":"levelo_inurba_marseille","lat":43.33166,"lon":5.37686,"is_reserved":false,"is_disabled":false,"rental_uris":{"android":"levelo://app?vid=b8253c6e-2e65-422a-b604-6720af1ef768","ios":"levelo://app?vid=b8253c6e-2e65-422a-b604-6720af1ef768"},"vehicle_type_id":"4","last_reported":1778413223,"current_range_meters":10000,"station_id":"st_d46cu089ee8s73dldbu0","pricing_plan_id":"cebpf4jnsgd1na2vs0mg"},{"bike_id":"398b6917-c8b8-4a0f-8545-4ed8e3e8a340","system_id":"levelo_inurba_marseille","lat":43.29757,"lon":5.37088,"is_reserved":false,"is_disabled":false,"rental_uris":{"android":"levelo://app?vid=398b6917-c8b8-4a0f-8545-4ed8e3e8a340","ios":"levelo://app?vid=398b6917-c8b8-4a0f-8545-4ed8e3e8a340"},"vehicle_type_id":"4","last_reported":1778413223,"current_range_meters":10000,"station_id":"ce4bgop2rcd13ifvqc1g","pricing_plan_id":"cebpf4jnsgd1na2vs0mg"},{"bike_id":"982c6655-755d-4e56-84af-cb19c1fd0817","system_id":"levelo_inurba_marseille","lat":43.29943,"lon":5.36539,"is_reserved":false,"is_disabled":false,"rental_uris":{"android":"levelo://app?vid=982c6655-755d-4e56-84af-cb19c1fd0817","ios":"levelo://app?vid=982c6655-755d-4e56-84af-cb19c1fd0817"},"vehicle_type_id":"4","last_reported":1778413223,"current_range_meters":10000,"station_id":"ce4bgm92rcd13ifvqbr0","pricing_plan_id":"cebpf4jnsgd1na2vs0mg"},{"bike_id":"6c221b35-333b-451f-b80c-c18ff57def2c","system_id":"levelo_inurba_marseille","lat":43.32127,"lon":5.36755,"is_reserved":false,"is_disabled":false,"rental_uris":{"android":"levelo://app?vid=6c221b35-333b-451f-b80c-c18ff57def2c","ios":"levelo://app?vid=6c221b35-333b-451f-b80c-c18ff57def2c"},"vehicle_type_id":"4","last_reported":1778413223,"current_range_meters":10000,"station_id":"ce4bhrh2rcd13ifvqhug","pricing_plan_id":"cebpf4jnsgd1na2vs0mg"},{"bike_id":"f0f401d4-150c-4cfa-919d-efdf4f923085","system_id":"levelo_inurba_marseille","lat":43.2391,"lon":5.37445,"is_reserved":false,"is_disabled":true,"rental_uris":{"android":"levelo://app?vid=f0f401d4-150c-4cfa-919d-efdf4f923085","ios":"levelo://app?vid=f0f401d4-150c-4cfa-919d-efdf4f923085"},"vehicle_type_id":"4","last_reported":1778413223,"current_range_meters":10000,"station_id":"st_d6sm7csbq4hs73f8fpjg","pricing_plan_id":"cebpf4jnsgd1na2vs0mg"},{"bike_id":"5a5f96c2-f665-462b-8d3c-826ece6c9c38","system_id":"levelo_inurba_marseille","lat":43.29264,"lon":5.36849,"is_reserved":false,"is_disabled":false,"rental_uris":{"android":"levelo://app?vid=5a5f96c2-f665-462b-8d3c-826ece6c9c38","ios":"levelo://app?vid=5a5f96c2-f665-462b-8d3c-826ece6c9c38"},"vehicle_type_id":"4","last_reported":1778413223,"current_range_meters":10000,"station_id":"ce4bhbp2rcd13ifvqesg","pricing_plan_id":"cebpf4jnsgd1na2vs0mg"},{"bike_id":"118bc792-3082-4259-9001-327353767cf5","system_id":"levelo_inurba_marseille","lat":43.28941,"lon":5.38374,"is_reserved":false,"is_disabled":false,"rental_uris":{"android":"levelo://app?vid=118bc792-3082-4259-9001-327353767cf5","ios":"levelo://app?vid=118bc792-3082-4259-9001-327353767cf5"},"vehicle_type_id":"4","last_reported":1778413223,"current_range_meters":10000,"station_id":"ce4bh612rcd13ifvqe6g","pricing_plan_id":"cebpf4jnsgd1na2vs0mg"},{"bike_id":"96178097-25e8-4e8a-b55e-03e212451214","system_id":"levelo_inurba_marseille","lat":43.32506,"lon":5.41461,"is_reserved":false,"is_disabled":false,"rental_uris":{"android":"levelo://app?vid=96178097-25e8-4e8a-b55e-03e212451214","ios":"levelo://app?vid=96178097-25e8-4e8a-b55e-03e212451214"},"vehicle_type_id":"4","last_reported":1778413223,"current_range_meters":10000,"station_id":"ce4bhq12rcd13ifvqhhg","pricing_plan_id":"cebpf4jnsgd1na2vs0mg"},{"bike_id":"55f6c61f-7d61-407f-80c7-c8e09e4b0ac9","system_id":"levelo_inurba_marseille","lat":43.24327,"lon":5.3751,"is_reserved":false,"is_disabled":false,"rental_uris":{"android":"levelo://app?vid=55f6c61f-7d61-407f-80c7-c8e09e4b0ac9","ios":"levelo://app?vid=55f6c61f-7d61-407f-80c7-c8e09e4b0ac9"},"vehicle_type_id":"4","last_reported":1778413223,"current_range_meters":10000,"station_id":"","pricing_plan_id":"cebpf4jnsgd1na2vs0mg"},{"bike_id":"6491640b-eb05-4fdc-b092-d0a35fa5fbb1","system_id":"levelo_inurba_marseille","lat":43.29847,"lon":5.36266,"is_reserved":false,"is_disabled":false,"rental_uris":{"android":"levelo://app?vid=6491640b-eb05-4fdc-b092-d0a35fa5fbb1","ios":"levelo://app?vid=6491640b-eb05-4fdc-b092-d0a35fa5fbb1"},"vehicle_type_id":"4","last_reported":1778413223,"current_range_meters":10000,"station_id":"ce4bgpp2rcd13ifvqc3g","pricing_plan_id":"cebpf4jnsgd1na2vs0mg"},{"bike_id":"8b637697-371a-4320-9dd5-804ddcdea538","system_id":"levelo_inurba_marseille","lat":43.26953,"lon":5.38631,"is_reserved":false,"is_disabled":false,"rental_uris":{"android":"levelo://app?vid=8b637697-371a-4320-9dd5-804ddcdea538","ios":"levelo://app?vid=8b637697-371a-4320-9dd5-804ddcdea538"},"vehicle_type_id":"4","last_reported":1778413223,"current_range_meters":10800,"station_id":"ce4bhh92rcd13ifvqfh0","pricing_plan_id":"cebpf4jnsgd1na2vs0mg"},{"bike_id":"cd81dc15-2aeb-4eda-87f7-678a39dfce13","system_id":"levelo_inurba_marseille","lat":43.24072,"lon":5.37757,"is_reserved":false,"is_disabled":false,"rental_uris":{"android":"levelo://app?vid=cd81dc15-2aeb-4eda-87f7-678a39dfce13","ios":"levelo://app?vid=cd81dc15-2aeb-4eda-87f7-678a39dfce13"},"vehicle_type_id":"4","last_reported":1778413223,"current_range_meters":10800,"station_id":"ce4bhnp2rcd13ifvqgvg","pricing_plan_id":"cebpf4jnsgd1na2vs0mg"},{"bike_id":"00efdd2b-c9e8-4ab6-a23d-aba82ba51e81","system_id":"levelo_inurba_marseille","lat":43.25121,"lon":5.40317,"is_reserved":false,"is_disabled":false,"rental_uris":{"android":"levelo://app?vid=00efdd2b-c9e8-4ab6-a23d-aba82ba51e81","ios":"levelo://app?vid=00efdd2b-c9e8-4ab6-a23d-aba82ba51e81"},"vehicle_type_id":"4","last_reported":1778413223,"current_range_meters":10800,"station_id":"ce4bhlh2rcd13ifvqgig","pricing_plan_id":"cebpf4jnsgd1na2vs0mg"},{"bike_id":"aa77ea44-d77e-48bc-af16-69d497b15ff0","system_id":"levelo_inurba_marseille","lat":43.27065,"lon":5.38312,"is_reserved":false,"is_disabled":false,"rental_uris":{"android":"levelo://app?vid=aa77ea44-d77e-48bc-af16-69d497b15ff0","ios":"levelo://app?vid=aa77ea44-d77e-48bc-af16-69d497b15ff0"},"vehicle_type_id":"4","last_reported":1778413223,"current_range_meters":10800,"station_id":"st_d3n2fo6cfp8s73cte1j0","pricing_plan_id":"cebpf4jnsgd1na2vs0mg"},{"bike_id":"b5b0524a-16d5-40b7-8ca1-117d09866cbf","system_id":"levelo_inurba_marseille","lat":43.33962,"lon":5.41671,"is_reserved":false,"is_disabled":false,"rental_uris":{"android":"levelo://app?vid=b5b0524a-16d5-40b7-8ca1-117d09866cbf","ios":"levelo://app?vid=b5b0524a-16d5-40b7-8ca1-117d09866cbf"},"vehicle_type_id":"4","last_reported":1778413223,"current_range_meters":10800,"station_id":"","pricing_plan_id":"cebpf4jnsgd1na2vs0mg"},{"bike_id":"4fdcba3b-1bc2-45ad-94e1-d86a8a275f6e","system_id":"levelo_inurba_marseille","lat":43.24092,"lon":5.37749,"is_reserved":false,"is_disabled":false,"rental_uris":{"android":"levelo://app?vid=4fdcba3b-1bc2-45ad-94e1-d86a8a275f6e","ios":"levelo://app?vid=4fdcba3b-1bc2-45ad-94e1-d86a8a275f6e"},"vehicle_type_id":"4","last_reported":1778413223,"current_range_meters":10800,"station_id":"ce4bhnp2rcd13ifvqgvg","pricing_plan_id":"cebpf4jnsgd1na2vs0mg"},{"bike_id":"429fd185-2c80-4e4e-9c37-a4fcb7e71fd3","system_id":"levelo_inurba_marseille","lat":43.29247,"lon":5.37616,"is_reserved":false,"is_disabled":false,"rental_uris":{"android":"levelo://app?vid=429fd185-2c80-4e4e-9c37-a4fcb7e71fd3","ios":"levelo://app?vid=429fd185-2c80-4e4e-9c37-a4fcb7e71fd3"},"vehicle_type_id":"4","last_reported":1778413223,"current_range_meters":10800,"station_id":"ce4bgi12rcd13ifvqb80","pricing_plan_id":"cebpf4jnsgd1na2vs0mg"},{"bike_id":"782b02f9-c57b-456b-a4bf-832d640b8f92","system_id":"levelo_inurba_marseille","lat":43.2574,"lon":5.41086,"is_reserved":false,"is_disabled":false,"rental_uris":{"android":"levelo://app?vid=782b02f9-c57b-456b-a4bf-832d640b8f92","ios":"levelo://app?vid=782b02f9-c57b-456b-a4bf-832d640b8f92"},"vehicle_type_id":"4","last_reported":1778413223,"current_range_meters":10800,"station_id":"ce4bhkp2rcd13ifvqgd0","pricing_plan_id":"cebpf4jnsgd1na2vs0mg"},{"bike_id":"c8c8414b-7858-4873-a96b-5bce6005136b","system_id":"levelo_inurba_marseille","lat":43.31659,"lon":5.39556,"is_reserved":false,"is_disabled":false,"rental_uris":{"android":"levelo://app?vid=c8c8414b-7858-4873-a96b-5bce6005136b","ios":"levelo://app?vid=c8c8414b-7858-4873-a96b-5bce6005136b"},"vehicle_type_id":"4","last_reported":1778413223,"current_range_meters":10800,"station_id":"","pricing_plan_id":"cebpf4jnsgd1na2vs0mg"},{"bike_id":"57394a6b-0e54-4a7c-b04a-d450a2ab5e79","system_id":"levelo_inurba_marseille","lat":43.25518,"lon":5.37645,"is_reserved":false,"is_disabled":true,"rental_uris":{"android":"levelo://app?vid=57394a6b-0e54-4a7c-b04a-d450a2ab5e79","ios":"levelo://app?vid=57394a6b-0e54-4a7c-b04a-d450a2ab5e79"},"vehicle_type_id":"4","last_reported":1778413223,"current_range_meters":10800,"station_id":"ce4bhh12rcd13ifvqff0","pricing_plan_id":"cebpf4jnsgd1na2vs0mg"},{"bike_id":"dcc22f37-5fa6-4c68-be77-31c82f5d0b3f","system_id":"levelo_inurba_marseille","lat":43.26552,"lon":5.3728,"is_reserved":false,"is_disabled":false,"rental_uris":{"android":"levelo://app?vid=dcc22f37-5fa6-4c68-be77-31c82f5d0b3f","ios":"levelo://app?vid=dcc22f37-5fa6-4c68-be77-31c82f5d0b3f"},"vehicle_type_id":"4","last_reported":1778413223,"current_range_meters":10800,"station_id":"ce4bhg12rcd13ifvqf70","pricing_plan_id":"cebpf4jnsgd1na2vs0mg"},{"bike_id":"75d44f43-cf7b-4662-8428-a2cc94a2980d","system_id":"levelo_inurba_marseille","lat":43.28845,"lon":5.42517,"is_reserved":false,"is_disabled":false,"rental_uris":{"android":"levelo://app?vid=75d44f43-cf7b-4662-8428-a2cc94a2980d","ios":"levelo://app?vid=75d44f43-cf7b-4662-8428-a2cc94a2980d"},"vehicle_type_id":"4","last_reported":1778413223,"current_range_meters":10800,"station_id":"st_d3b462108ojc7389ooeg","pricing_plan_id":"cebpf4jnsgd1na2vs0mg"},{"bike_id":"de5e63f3-90b9-4eb1-8a88-6b8b6b27e91d","system_id":"levelo_inurba_marseille","lat":43.23194,"lon":5.35556,"is_reserved":false,"is_disabled":true,"rental_uris":{"android":"levelo://app?vid=de5e63f3-90b9-4eb1-8a88-6b8b6b27e91d","ios":"levelo://app?vid=de5e63f3-90b9-4eb1-8a88-6b8b6b27e91d"},"vehicle_type_id":"4","last_reported":1778413223,"current_range_meters":10800,"station_id":"ce4bhu92rcd13ifvqi70","pricing_plan_id":"cebpf4jnsgd1na2vs0mg"},{"bike_id":"ded3ddf8-605b-4d28-b69f-a3d3077311b9","system_id":"levelo_inurba_marseille","lat":43.29896,"lon":5.39714,"is_reserved":false,"is_disabled":true,"rental_uris":{"android":"levelo://app?vid=ded3ddf8-605b-4d28-b69f-a3d3077311b9","ios":"levelo://app?vid=ded3ddf8-605b-4d28-b69f-a3d3077311b9"},"vehicle_type_id":"4","last_reported":1778413223,"current_range_meters":10800,"station_id":"ce4bh0h2rcd13ifvqd50","pricing_plan_id":"cebpf4jnsgd1na2vs0mg"},{"bike_id":"b904f9de-fa59-44ef-bc68-b76dbf72e21b","system_id":"levelo_inurba_marseille","lat":43.31572,"lon":5.38837,"is_reserved":false,"is_disabled":false,"rental_uris":{"android":"levelo://app?vid=b904f9de-fa59-44ef-bc68-b76dbf72e21b","ios":"levelo://app?vid=b904f9de-fa59-44ef-bc68-b76dbf72e21b"},"vehicle_type_id":"4","last_reported":1778413223,"current_range_meters":10800,"station_id":"","pricing_plan_id":"cebpf4jnsgd1na2vs0mg"},{"bike_id":"74c9276e-bf9a-48c3-9e42-36092b4b8ec7","system_id":"levelo_inurba_marseille","lat":43.30537,"lon":5.36543,"is_reserved":false,"is_disabled":false,"rental_uris":{"android":"levelo://app?vid=74c9276e-bf9a-48c3-9e42-36092b4b8ec7","ios":"levelo://app?vid=74c9276e-bf9a-48c3-9e42-36092b4b8ec7"},"vehicle_type_id":"4","last_reported":1778413223,"current_range_meters":11200,"station_id":"ce4bgs12rcd13ifvqcag","pricing_plan_id":"cebpf4jnsgd1na2vs0mg"},{"bike_id":"3513c7c9-429c-4027-9626-3747f3ee85c7","system_id":"levelo_inurba_marseille","lat":43.33534,"lon":5.37467,"is_reserved":false,"is_disabled":false,"rental_uris":{"android":"levelo://app?vid=3513c7c9-429c-4027-9626-3747f3ee85c7","ios":"levelo://app?vid=3513c7c9-429c-4027-9626-3747f3ee85c7"},"vehicle_type_id":"4","last_reported":1778413223,"current_range_meters":11200,"station_id":"st_d46tts09ee8s73dlu43g","pricing_plan_id":"cebpf4jnsgd1na2vs0mg"},{"bike_id":"ad00b11e-25ed-4de4-94e7-98286bb87fc0","system_id":"levelo_inurba_marseille","lat":43.29845,"lon":5.37712,"is_reserved":false,"is_disabled":false,"rental_uris":{"android":"levelo://app?vid=ad00b11e-25ed-4de4-94e7-98286bb87fc0","ios":"levelo://app?vid=ad00b11e-25ed-4de4-94e7-98286bb87fc0"},"vehicle_type_id":"4","last_reported":1778413223,"current_range_meters":11200,"station_id":"","pricing_plan_id":"cebpf4jnsgd1na2vs0mg"},{"bike_id":"73cbb9a5-b252-42aa-8192-5783eedf76ff","system_id":"levelo_inurba_marseille","lat":43.33553,"lon":5.37446,"is_reserved":false,"is_disabled":false,"rental_uris":{"android":"levelo://app?vid=73cbb9a5-b252-42aa-8192-5783eedf76ff","ios":"levelo://app?vid=73cbb9a5-b252-42aa-8192-5783eedf76ff"},"vehicle_type_id":"4","last_reported":1778413223,"current_range_meters":11200,"station_id":"st_d46tts09ee8s73dlu43g","pricing_plan_id":"cebpf4jnsgd1na2vs0mg"},{"bike_id":"b049c2aa-2cea-498f-81be-f260a25852a3","system_id":"levelo_inurba_marseille","lat":43.27931,"lon":5.39563,"is_reserved":false,"is_disabled":false,"rental_uris":{"android":"levelo://app?vid=b049c2aa-2cea-498f-81be-f260a25852a3","ios":"levelo://app?vid=b049c2aa-2cea-498f-81be-f260a25852a3"},"vehicle_type_id":"4","last_reported":1778413223,"current_range_meters":11200,"station_id":"ce4bhf92rcd13ifvqf40","pricing_plan_id":"cebpf4jnsgd1na2vs0mg"},{"bike_id":"b4f04336-ea80-4ec6-9ea3-d8670d15b1ea","system_id":"levelo_inurba_marseille","lat":43.30471,"lon":5.37892,"is_reserved":false,"is_disabled":false,"rental_uris":{"android":"levelo://app?vid=b4f04336-ea80-4ec6-9ea3-d8670d15b1ea","ios":"levelo://app?vid=b4f04336-ea80-4ec6-9ea3-d8670d15b1ea"},"vehicle_type_id":"4","last_reported":1778413223,"current_range_meters":11200,"station_id":"ce4bgup2rcd13ifvqcn0","pricing_plan_id":"cebpf4jnsgd1na2vs0mg"},{"bike_id":"d70685b8-d744-4edb-9381-a881a163ba01","system_id":"levelo_inurba_marseille","lat":43.29555,"lon":5.38995,"is_reserved":false,"is_disabled":true,"rental_uris":{"android":"levelo://app?vid=d70685b8-d744-4edb-9381-a881a163ba01","ios":"levelo://app?vid=d70685b8-d744-4edb-9381-a881a163ba01"},"vehicle_type_id":"4","last_reported":1778413223,"current_range_meters":11200,"station_id":"","pricing_plan_id":"cebpf4jnsgd1na2vs0mg"},{"bike_id":"3fc0738b-e8d0-4ed2-90fb-94836bfb34cd","system_id":"levelo_inurba_marseille","lat":43.29557,"lon":5.36753,"is_reserved":false,"is_disabled":false,"rental_uris":{"android":"levelo://app?vid=3fc0738b-e8d0-4ed2-90fb-94836bfb34cd","ios":"levelo://app?vid=3fc0738b-e8d0-4ed2-90fb-94836bfb34cd"},"vehicle_type_id":"4","last_reported":1778413223,"current_range_meters":11200,"station_id":"ce4bgph2rcd13ifvqc2g","pricing_plan_id":"cebpf4jnsgd1na2vs0mg"},{"bike_id":"635e37d3-7b93-4e97-82bd-bbf4c4561837","system_id":"levelo_inurba_marseille","lat":43.32238,"lon":5.36884,"is_reserved":false,"is_disabled":false,"rental_uris":{"android":"levelo://app?vid=635e37d3-7b93-4e97-82bd-bbf4c4561837","ios":"levelo://app?vid=635e37d3-7b93-4e97-82bd-bbf4c4561837"},"vehicle_type_id":"4","last_reported":1778413223,"current_range_meters":11200,"station_id":"","pricing_plan_id":"cebpf4jnsgd1na2vs0mg"},{"bike_id":"4c34fc06-cd5d-4370-99e5-d73fa1876b4f","system_id":"levelo_inurba_marseille","lat":43.29539,"lon":5.38525,"is_reserved":false,"is_disabled":false,"rental_uris":{"android":"levelo://app?vid=4c34fc06-cd5d-4370-99e5-d73fa1876b4f","ios":"levelo://app?vid=4c34fc06-cd5d-4370-99e5-d73fa1876b4f"},"vehicle_type_id":"4","last_reported":1778413223,"current_range_meters":11200,"station_id":"ce4bgih2rcd13ifvqba0","pricing_plan_id":"cebpf4jnsgd1na2vs0mg"},{"bike_id":"6aab0cb1-6509-4b5b-a541-50139cd834c5","system_id":"levelo_inurba_marseille","lat":43.25813,"lon":5.39433,"is_reserved":false,"is_disabled":false,"rental_uris":{"android":"levelo://app?vid=6aab0cb1-6509-4b5b-a541-50139cd834c5","ios":"levelo://app?vid=6aab0cb1-6509-4b5b-a541-50139cd834c5"},