{"last_updated":1740827192,"ttl":60,"version":"2.2","data":{"bikes":[{"bike_id":"0e6e3900-a846-4069-8bfd-1d9cbe5e5532","system_id":"levelo_inurba_marseille","lat":43.27073,"lon":5.42278,"is_reserved":false,"is_disabled":false,"rental_uris":{"android":"levelo://app?vid=0e6e3900-a846-4069-8bfd-1d9cbe5e5532","ios":"levelo://app?vid=0e6e3900-a846-4069-8bfd-1d9cbe5e5532"},"vehicle_type_id":"4","last_reported":1740827192,"current_range_meters":2800,"station_id":"ce4bhk92rcd13ifvqgb0","pricing_plan_id":"cebpf4jnsgd1na2vs0mg"},{"bike_id":"f5911492-ebf0-4b6b-9008-ce589edc62b6","system_id":"levelo_inurba_marseille","lat":43.31717,"lon":5.43708,"is_reserved":false,"is_disabled":false,"rental_uris":{"android":"levelo://app?vid=f5911492-ebf0-4b6b-9008-ce589edc62b6","ios":"levelo://app?vid=f5911492-ebf0-4b6b-9008-ce589edc62b6"},"vehicle_type_id":"4","last_reported":1740827192,"current_range_meters":2800,"station_id":"ce4bhp92rcd13ifvqhcg","pricing_plan_id":"cebpf4jnsgd1na2vs0mg"},{"bike_id":"4e21c123-fed3-4db6-ad81-45cccdae0542","system_id":"levelo_inurba_marseille","lat":43.24172,"lon":5.36402,"is_reserved":false,"is_disabled":false,"rental_uris":{"android":"levelo://app?vid=4e21c123-fed3-4db6-ad81-45cccdae0542","ios":"levelo://app?vid=4e21c123-fed3-4db6-ad81-45cccdae0542"},"vehicle_type_id":"4","last_reported":1740827192,"current_range_meters":2800,"station_id":"cpo36qri1sfpv3e86is0","pricing_plan_id":"cebpf4jnsgd1na2vs0mg"},{"bike_id":"2a398520-3240-4d1e-8947-c64008cd4a40","system_id":"levelo_inurba_marseille","lat":43.2397,"lon":5.36653,"is_reserved":false,"is_disabled":false,"rental_uris":{"android":"levelo://app?vid=2a398520-3240-4d1e-8947-c64008cd4a40","ios":"levelo://app?vid=2a398520-3240-4d1e-8947-c64008cd4a40"},"vehicle_type_id":"4","last_reported":1740827192,"current_range_meters":3200,"station_id":"ce4bhi12rcd13ifvqfp0","pricing_plan_id":"cebpf4jnsgd1na2vs0mg"},{"bike_id":"43c32004-94fe-4598-87ba-734917dbcf43","system_id":"levelo_inurba_marseille","lat":43.29273,"lon":5.37621,"is_reserved":false,"is_disabled":false,"rental_uris":{"android":"levelo://app?vid=43c32004-94fe-4598-87ba-734917dbcf43","ios":"levelo://app?vid=43c32004-94fe-4598-87ba-734917dbcf43"},"vehicle_type_id":"4","last_reported":1740827192,"current_range_meters":3600,"station_id":"ce4bgi12rcd13ifvqb80","pricing_plan_id":"cebpf4jnsgd1na2vs0mg"},{"bike_id":"b11a914b-b913-4c68-b84d-f3b2c4830d44","system_id":"levelo_inurba_marseille","lat":43.30122,"lon":5.3983,"is_reserved":false,"is_disabled":false,"rental_uris":{"android":"levelo://app?vid=b11a914b-b913-4c68-b84d-f3b2c4830d44","ios":"levelo://app?vid=b11a914b-b913-4c68-b84d-f3b2c4830d44"},"vehicle_type_id":"4","last_reported":1740827192,"current_range_meters":4000,"station_id":"ce4bh0h2rcd13ifvqd40","pricing_plan_id":"cebpf4jnsgd1na2vs0mg"},{"bike_id":"b7e2c369-d84f-4338-9533-a63aa3a15001","system_id":"levelo_inurba_marseille","lat":43.31718,"lon":5.43706,"is_reserved":false,"is_disabled":false,"rental_uris":{"android":"levelo://app?vid=b7e2c369-d84f-4338-9533-a63aa3a15001","ios":"levelo://app?vid=b7e2c369-d84f-4338-9533-a63aa3a15001"},"vehicle_type_id":"4","last_reported":1740827192,"current_range_meters":4000,"station_id":"ce4bhp92rcd13ifvqhcg","pricing_plan_id":"cebpf4jnsgd1na2vs0mg"},{"bike_id":"f8b25d90-893f-43e7-b6af-489918142ddb","system_id":"levelo_inurba_marseille","lat":43.29591,"lon":5.38098,"is_reserved":false,"is_disabled":false,"rental_uris":{"android":"levelo://app?vid=f8b25d90-893f-43e7-b6af-489918142ddb","ios":"levelo://app?vid=f8b25d90-893f-43e7-b6af-489918142ddb"},"vehicle_type_id":"4","last_reported":1740827192,"current_range_meters":4000,"station_id":"ce4bgl12rcd13ifvqbo0","pricing_plan_id":"cebpf4jnsgd1na2vs0mg"},{"bike_id":"17ddbbb5-11e9-4dea-8d48-8df35a23e77a","system_id":"levelo_inurba_marseille","lat":43.31757,"lon":5.3903,"is_reserved":false,"is_disabled":false,"rental_uris":{"android":"levelo://app?vid=17ddbbb5-11e9-4dea-8d48-8df35a23e77a","ios":"levelo://app?vid=17ddbbb5-11e9-4dea-8d48-8df35a23e77a"},"vehicle_type_id":"4","last_reported":1740827192,"current_range_meters":4000,"station_id":"ce4bhqp2rcd13ifvqhng","pricing_plan_id":"cebpf4jnsgd1na2vs0mg"},{"bike_id":"e3401556-705b-48ad-8614-973349e61380","system_id":"levelo_inurba_marseille","lat":43.2439,"lon":5.37069,"is_reserved":false,"is_disabled":false,"rental_uris":{"android":"levelo://app?vid=e3401556-705b-48ad-8614-973349e61380","ios":"levelo://app?vid=e3401556-705b-48ad-8614-973349e61380"},"vehicle_type_id":"4","last_reported":1740827192,"current_range_meters":4000,"station_id":"ce4bhhh2rcd13ifvqfk0","pricing_plan_id":"cebpf4jnsgd1na2vs0mg"},{"bike_id":"6522d80d-7c58-4f12-bfee-e0b14e82ccd0","system_id":"levelo_inurba_marseille","lat":43.26775,"lon":5.39502,"is_reserved":false,"is_disabled":false,"rental_uris":{"android":"levelo://app?vid=6522d80d-7c58-4f12-bfee-e0b14e82ccd0","ios":"levelo://app?vid=6522d80d-7c58-4f12-bfee-e0b14e82ccd0"},"vehicle_type_id":"4","last_reported":1740827192,"current_range_meters":4000,"station_id":"ce4bhh12rcd13ifvqfg0","pricing_plan_id":"cebpf4jnsgd1na2vs0mg"},{"bike_id":"f32ea091-8d65-493c-8fff-13bbf53faa68","system_id":"levelo_inurba_marseille","lat":43.31716,"lon":5.43661,"is_reserved":false,"is_disabled":false,"rental_uris":{"android":"levelo://app?vid=f32ea091-8d65-493c-8fff-13bbf53faa68","ios":"levelo://app?vid=f32ea091-8d65-493c-8fff-13bbf53faa68"},"vehicle_type_id":"4","last_reported":1740827192,"current_range_meters":4400,"station_id":"ce4bhp92rcd13ifvqhcg","pricing_plan_id":"cebpf4jnsgd1na2vs0mg"},{"bike_id":"a27f3d2a-4873-43ee-b07d-a65d2ad35878","system_id":"levelo_inurba_marseille","lat":43.26039,"lon":5.37546,"is_reserved":false,"is_disabled":false,"rental_uris":{"android":"levelo://app?vid=a27f3d2a-4873-43ee-b07d-a65d2ad35878","ios":"levelo://app?vid=a27f3d2a-4873-43ee-b07d-a65d2ad35878"},"vehicle_type_id":"4","last_reported":1740827192,"current_range_meters":6000,"station_id":"ce4bhgh2rcd13ifvqfa0","pricing_plan_id":"cebpf4jnsgd1na2vs0mg"},{"bike_id":"7ac68d95-cc77-4a81-b7d3-0ec3ea1428f6","system_id":"levelo_inurba_marseille","lat":43.30461,"lon":5.379116,"is_reserved":false,"is_disabled":false,"rental_uris":{"android":"levelo://app?vid=7ac68d95-cc77-4a81-b7d3-0ec3ea1428f6","ios":"levelo://app?vid=7ac68d95-cc77-4a81-b7d3-0ec3ea1428f6"},"vehicle_type_id":"4","last_reported":1740827192,"current_range_meters":4800,"station_id":"ce4bgup2rcd13ifvqcn0","pricing_plan_id":"cebpf4jnsgd1na2vs0mg"},{"bike_id":"bcc6ec3f-ff83-406a-8f7f-5ddf2f4f0714","system_id":"levelo_inurba_marseille","lat":43.29558,"lon":5.42288,"is_reserved":false,"is_disabled":false,"rental_uris":{"android":"levelo://app?vid=bcc6ec3f-ff83-406a-8f7f-5ddf2f4f0714","ios":"levelo://app?vid=bcc6ec3f-ff83-406a-8f7f-5ddf2f4f0714"},"vehicle_type_id":"4","last_reported":1740827192,"current_range_meters":4800,"station_id":"ce4bhph2rcd13ifvqhdg","pricing_plan_id":"cebpf4jnsgd1na2vs0mg"},{"bike_id":"2bb95473-2807-4488-887b-8d96029f040f","system_id":"levelo_inurba_marseille","lat":43.2927,"lon":5.3685,"is_reserved":false,"is_disabled":false,"rental_uris":{"android":"levelo://app?vid=2bb95473-2807-4488-887b-8d96029f040f","ios":"levelo://app?vid=2bb95473-2807-4488-887b-8d96029f040f"},"vehicle_type_id":"4","last_reported":1740827192,"current_range_meters":4800,"station_id":"ce4bhbp2rcd13ifvqesg","pricing_plan_id":"cebpf4jnsgd1na2vs0mg"},{"bike_id":"121f184f-90a0-4e66-9d33-06a22d0922f3","system_id":"levelo_inurba_marseille","lat":43.2418,"lon":5.36406,"is_reserved":false,"is_disabled":false,"rental_uris":{"android":"levelo://app?vid=121f184f-90a0-4e66-9d33-06a22d0922f3","ios":"levelo://app?vid=121f184f-90a0-4e66-9d33-06a22d0922f3"},"vehicle_type_id":"4","last_reported":1740827192,"current_range_meters":4800,"station_id":"cpo36qri1sfpv3e86is0","pricing_plan_id":"cebpf4jnsgd1na2vs0mg"},{"bike_id":"0e07936b-b5f4-4ce0-90ff-73c063994f1c","system_id":"levelo_inurba_marseille","lat":43.30487,"lon":5.37252,"is_reserved":false,"is_disabled":false,"rental_uris":{"android":"levelo://app?vid=0e07936b-b5f4-4ce0-90ff-73c063994f1c","ios":"levelo://app?vid=0e07936b-b5f4-4ce0-90ff-73c063994f1c"},"vehicle_type_id":"4","last_reported":1740827192,"current_range_meters":4800,"station_id":"","pricing_plan_id":"cebpf4jnsgd1na2vs0mg"},{"bike_id":"ea23b982-9dc3-408a-9aab-57abffb568ef","system_id":"levelo_inurba_marseille","lat":43.30598,"lon":5.3723,"is_reserved":false,"is_disabled":false,"rental_uris":{"android":"levelo://app?vid=ea23b982-9dc3-408a-9aab-57abffb568ef","ios":"levelo://app?vid=ea23b982-9dc3-408a-9aab-57abffb568ef"},"vehicle_type_id":"4","last_reported":1740827192,"current_range_meters":4800,"station_id":"ce4bgqh2rcd13ifvqc4g","pricing_plan_id":"cebpf4jnsgd1na2vs0mg"},{"bike_id":"1768d455-afa5-409e-b157-707b45669e2d","system_id":"levelo_inurba_marseille","lat":43.26573,"lon":5.39002,"is_reserved":false,"is_disabled":false,"rental_uris":{"android":"levelo://app?vid=1768d455-afa5-409e-b157-707b45669e2d","ios":"levelo://app?vid=1768d455-afa5-409e-b157-707b45669e2d"},"vehicle_type_id":"4","last_reported":1740827192,"current_range_meters":5600,"station_id":"ce4bhe12rcd13ifvqf30","pricing_plan_id":"cebpf4jnsgd1na2vs0mg"},{"bike_id":"67ce8cfb-6f6b-425f-bc83-c1ca88627e6b","system_id":"levelo_inurba_marseille","lat":43.29276,"lon":5.37608,"is_reserved":false,"is_disabled":false,"rental_uris":{"android":"levelo://app?vid=67ce8cfb-6f6b-425f-bc83-c1ca88627e6b","ios":"levelo://app?vid=67ce8cfb-6f6b-425f-bc83-c1ca88627e6b"},"vehicle_type_id":"4","last_reported":1740827192,"current_range_meters":5600,"station_id":"ce4bgi12rcd13ifvqb80","pricing_plan_id":"cebpf4jnsgd1na2vs0mg"},{"bike_id":"0f5db7bd-77b0-4dcf-ac77-64f65e9f587d","system_id":"levelo_inurba_marseille","lat":43.29908,"lon":5.3815,"is_reserved":false,"is_disabled":false,"rental_uris":{"android":"levelo://app?vid=0f5db7bd-77b0-4dcf-ac77-64f65e9f587d","ios":"levelo://app?vid=0f5db7bd-77b0-4dcf-ac77-64f65e9f587d"},"vehicle_type_id":"4","last_reported":1740827192,"current_range_meters":5600,"station_id":"ce4bgj12rcd13ifvqbc0","pricing_plan_id":"cebpf4jnsgd1na2vs0mg"},{"bike_id":"d9072eb9-0d80-4c0c-8587-f003cfc30c87","system_id":"levelo_inurba_marseille","lat":43.25588,"lon":5.38237,"is_reserved":false,"is_disabled":false,"rental_uris":{"android":"levelo://app?vid=d9072eb9-0d80-4c0c-8587-f003cfc30c87","ios":"levelo://app?vid=d9072eb9-0d80-4c0c-8587-f003cfc30c87"},"vehicle_type_id":"4","last_reported":1740827192,"current_range_meters":5600,"station_id":"ce4bhih2rcd13ifvqfs0","pricing_plan_id":"cebpf4jnsgd1na2vs0mg"},{"bike_id":"c1bb1b5e-e587-42ff-bb86-a94bb278a3a4","system_id":"levelo_inurba_marseille","lat":43.29792,"lon":5.38118,"is_reserved":false,"is_disabled":false,"rental_uris":{"android":"levelo://app?vid=c1bb1b5e-e587-42ff-bb86-a94bb278a3a4","ios":"levelo://app?vid=c1bb1b5e-e587-42ff-bb86-a94bb278a3a4"},"vehicle_type_id":"4","last_reported":1740827192,"current_range_meters":5600,"station_id":"ce4bgip2rcd13ifvqbb0","pricing_plan_id":"cebpf4jnsgd1na2vs0mg"},{"bike_id":"de0a6258-8e61-4af0-9a9b-47831064c55f","system_id":"levelo_inurba_marseille","lat":43.23147,"lon":5.4372,"is_reserved":false,"is_disabled":false,"rental_uris":{"android":"levelo://app?vid=de0a6258-8e61-4af0-9a9b-47831064c55f","ios":"levelo://app?vid=de0a6258-8e61-4af0-9a9b-47831064c55f"},"vehicle_type_id":"4","last_reported":1740827192,"current_range_meters":5600,"station_id":"ce4bhmp2rcd13ifvqgog","pricing_plan_id":"cebpf4jnsgd1na2vs0mg"},{"bike_id":"49e0a034-277f-4658-83cf-83e39377ef50","system_id":"levelo_inurba_marseille","lat":43.29536,"lon":5.37912,"is_reserved":false,"is_disabled":false,"rental_uris":{"android":"levelo://app?vid=49e0a034-277f-4658-83cf-83e39377ef50","ios":"levelo://app?vid=49e0a034-277f-4658-83cf-83e39377ef50"},"vehicle_type_id":"4","last_reported":1740827192,"current_range_meters":6000,"station_id":"","pricing_plan_id":"cebpf4jnsgd1na2vs0mg"},{"bike_id":"c8a651e6-531a-46ab-a6dc-31bbee135b70","system_id":"levelo_inurba_marseille","lat":43.25144,"lon":5.40318,"is_reserved":false,"is_disabled":false,"rental_uris":{"android":"levelo://app?vid=c8a651e6-531a-46ab-a6dc-31bbee135b70","ios":"levelo://app?vid=c8a651e6-531a-46ab-a6dc-31bbee135b70"},"vehicle_type_id":"4","last_reported":1740827192,"current_range_meters":6000,"station_id":"ce4bhlh2rcd13ifvqgig","pricing_plan_id":"cebpf4jnsgd1na2vs0mg"},{"bike_id":"ecd63a47-83f4-4fc9-a092-26e51f3167dc","system_id":"levelo_inurba_marseille","lat":43.29933,"lon":5.36545,"is_reserved":false,"is_disabled":false,"rental_uris":{"android":"levelo://app?vid=ecd63a47-83f4-4fc9-a092-26e51f3167dc","ios":"levelo://app?vid=ecd63a47-83f4-4fc9-a092-26e51f3167dc"},"vehicle_type_id":"4","last_reported":1740827192,"current_range_meters":6400,"station_id":"ce4bgm92rcd13ifvqbr0","pricing_plan_id":"cebpf4jnsgd1na2vs0mg"},{"bike_id":"d81e3de4-23fb-4256-9352-a66135130910","system_id":"levelo_inurba_marseille","lat":43.29813,"lon":5.38078,"is_reserved":false,"is_disabled":false,"rental_uris":{"android":"levelo://app?vid=d81e3de4-23fb-4256-9352-a66135130910","ios":"levelo://app?vid=d81e3de4-23fb-4256-9352-a66135130910"},"vehicle_type_id":"4","last_reported":1740827192,"current_range_meters":6400,"station_id":"ce4bgip2rcd13ifvqbb0","pricing_plan_id":"cebpf4jnsgd1na2vs0mg"},{"bike_id":"417cc637-7a77-404a-8fcd-e598ba8eebb1","system_id":"levelo_inurba_marseille","lat":43.29597,"lon":5.3773,"is_reserved":false,"is_disabled":false,"rental_uris":{"android":"levelo://app?vid=417cc637-7a77-404a-8fcd-e598ba8eebb1","ios":"levelo://app?vid=417cc637-7a77-404a-8fcd-e598ba8eebb1"},"vehicle_type_id":"4","last_reported":1740827192,"current_range_meters":6400,"station_id":"ce4bgi92rcd13ifvqb90","pricing_plan_id":"cebpf4jnsgd1na2vs0mg"},{"bike_id":"1b68ecd0-5b8b-42f7-8935-66c68f854edc","system_id":"levelo_inurba_marseille","lat":43.30355,"lon":5.41887,"is_reserved":false,"is_disabled":false,"rental_uris":{"android":"levelo://app?vid=1b68ecd0-5b8b-42f7-8935-66c68f854edc","ios":"levelo://app?vid=1b68ecd0-5b8b-42f7-8935-66c68f854edc"},"vehicle_type_id":"4","last_reported":1740827192,"current_range_meters":6400,"station_id":"ce4bhop2rcd13ifvqh7g","pricing_plan_id":"cebpf4jnsgd1na2vs0mg"},{"bike_id":"3de9aeda-1f9a-4bbc-8b90-e02a49e56ca9","system_id":"levelo_inurba_marseille","lat":43.231885,"lon":5.355574,"is_reserved":false,"is_disabled":false,"rental_uris":{"android":"levelo://app?vid=3de9aeda-1f9a-4bbc-8b90-e02a49e56ca9","ios":"levelo://app?vid=3de9aeda-1f9a-4bbc-8b90-e02a49e56ca9"},"vehicle_type_id":"4","last_reported":1740827192,"current_range_meters":6400,"station_id":"ce4bhu92rcd13ifvqi70","pricing_plan_id":"cebpf4jnsgd1na2vs0mg"},{"bike_id":"2dc9b508-b7dd-4ac5-8448-63b3d6bac779","system_id":"levelo_inurba_marseille","lat":43.3031,"lon":5.36893,"is_reserved":false,"is_disabled":false,"rental_uris":{"android":"levelo://app?vid=2dc9b508-b7dd-4ac5-8448-63b3d6bac779","ios":"levelo://app?vid=2dc9b508-b7dd-4ac5-8448-63b3d6bac779"},"vehicle_type_id":"4","last_reported":1740827192,"current_range_meters":6400,"station_id":"ce4bgqh2rcd13ifvqc5g","pricing_plan_id":"cebpf4jnsgd1na2vs0mg"},{"bike_id":"bcb3dd3d-4bbe-4a55-8cc6-0ab0579bcdbe","system_id":"levelo_inurba_marseille","lat":43.31712,"lon":5.37762,"is_reserved":false,"is_disabled":false,"rental_uris":{"android":"levelo://app?vid=bcb3dd3d-4bbe-4a55-8cc6-0ab0579bcdbe","ios":"levelo://app?vid=bcb3dd3d-4bbe-4a55-8cc6-0ab0579bcdbe"},"vehicle_type_id":"4","last_reported":1740827192,"current_range_meters":6400,"station_id":"ce4bgth2rcd13ifvqch0","pricing_plan_id":"cebpf4jnsgd1na2vs0mg"},{"bike_id":"d4918d6a-5525-4be8-b0c4-7af64b54343d","system_id":"levelo_inurba_marseille","lat":43.24174,"lon":5.36399,"is_reserved":false,"is_disabled":false,"rental_uris":{"android":"levelo://app?vid=d4918d6a-5525-4be8-b0c4-7af64b54343d","ios":"levelo://app?vid=d4918d6a-5525-4be8-b0c4-7af64b54343d"},"vehicle_type_id":"4","last_reported":1740827192,"current_range_meters":6800,"station_id":"cpo36qri1sfpv3e86is0","pricing_plan_id":"cebpf4jnsgd1na2vs0mg"},{"bike_id":"5327f625-0311-4e62-a895-ceadc4ce1f5f","system_id":"levelo_inurba_marseille","lat":43.27073,"lon":5.42248,"is_reserved":false,"is_disabled":false,"rental_uris":{"android":"levelo://app?vid=5327f625-0311-4e62-a895-ceadc4ce1f5f","ios":"levelo://app?vid=5327f625-0311-4e62-a895-ceadc4ce1f5f"},"vehicle_type_id":"4","last_reported":1740827192,"current_range_meters":6800,"station_id":"ce4bhk92rcd13ifvqgb0","pricing_plan_id":"cebpf4jnsgd1na2vs0mg"},{"bike_id":"a0b4d9f1-d5f9-4f90-a46f-d6395b493a8e","system_id":"levelo_inurba_marseille","lat":43.3033,"lon":5.40436,"is_reserved":false,"is_disabled":false,"rental_uris":{"android":"levelo://app?vid=a0b4d9f1-d5f9-4f90-a46f-d6395b493a8e","ios":"levelo://app?vid=a0b4d9f1-d5f9-4f90-a46f-d6395b493a8e"},"vehicle_type_id":"4","last_reported":1740827192,"current_range_meters":6800,"station_id":"ce4bh012rcd13ifvqd10","pricing_plan_id":"cebpf4jnsgd1na2vs0mg"},{"bike_id":"5e8cc711-5f15-45a7-b2d3-8702ade06ddc","system_id":"levelo_inurba_marseille","lat":43.29439,"lon":5.39759,"is_reserved":false,"is_disabled":false,"rental_uris":{"android":"levelo://app?vid=5e8cc711-5f15-45a7-b2d3-8702ade06ddc","ios":"levelo://app?vid=5e8cc711-5f15-45a7-b2d3-8702ade06ddc"},"vehicle_type_id":"4","last_reported":1740827192,"current_range_meters":6800,"station_id":"ce4bh3h2rcd13ifvqdo0","pricing_plan_id":"cebpf4jnsgd1na2vs0mg"},{"bike_id":"0eb726cf-dede-4df2-bdd0-a778a2d75252","system_id":"levelo_inurba_marseille","lat":43.32352,"lon":5.40617,"is_reserved":false,"is_disabled":false,"rental_uris":{"android":"levelo://app?vid=0eb726cf-dede-4df2-bdd0-a778a2d75252","ios":"levelo://app?vid=0eb726cf-dede-4df2-bdd0-a778a2d75252"},"vehicle_type_id":"4","last_reported":1740827192,"current_range_meters":6800,"station_id":"ce4bhq92rcd13ifvqhjg","pricing_plan_id":"cebpf4jnsgd1na2vs0mg"},{"bike_id":"9eb62bd7-0fdc-491b-9eef-be0a9f73fbfb","system_id":"levelo_inurba_marseille","lat":43.24184,"lon":5.36401,"is_reserved":false,"is_disabled":false,"rental_uris":{"android":"levelo://app?vid=9eb62bd7-0fdc-491b-9eef-be0a9f73fbfb","ios":"levelo://app?vid=9eb62bd7-0fdc-491b-9eef-be0a9f73fbfb"},"vehicle_type_id":"4","last_reported":1740827192,"current_range_meters":7200,"station_id":"cpo36qri1sfpv3e86is0","pricing_plan_id":"cebpf4jnsgd1na2vs0mg"},{"bike_id":"e845bf52-a25e-4912-aaba-f98c45384e4f","system_id":"levelo_inurba_marseille","lat":43.295706,"lon":5.375265,"is_reserved":false,"is_disabled":false,"rental_uris":{"android":"levelo://app?vid=e845bf52-a25e-4912-aaba-f98c45384e4f","ios":"levelo://app?vid=e845bf52-a25e-4912-aaba-f98c45384e4f"},"vehicle_type_id":"4","last_reported":1740827192,"current_range_meters":7200,"station_id":"ce4bh0h2rcd13ifvqd40","pricing_plan_id":"cebpf4jnsgd1na2vs0mg"},{"bike_id":"17dae8ce-6695-4447-96d6-11c8ba81bed6","system_id":"levelo_inurba_marseille","lat":43.26692,"lon":5.38269,"is_reserved":false,"is_disabled":false,"rental_uris":{"android":"levelo://app?vid=17dae8ce-6695-4447-96d6-11c8ba81bed6","ios":"levelo://app?vid=17dae8ce-6695-4447-96d6-11c8ba81bed6"},"vehicle_type_id":"4","last_reported":1740827192,"current_range_meters":7200,"station_id":"ce4bhg92rcd13ifvqf90","pricing_plan_id":"cebpf4jnsgd1na2vs0mg"},{"bike_id":"a1866f5d-c65f-4013-a887-862db84a5c62","system_id":"levelo_inurba_marseille","lat":43.26699,"lon":5.38265,"is_reserved":false,"is_disabled":false,"rental_uris":{"android":"levelo://app?vid=a1866f5d-c65f-4013-a887-862db84a5c62","ios":"levelo://app?vid=a1866f5d-c65f-4013-a887-862db84a5c62"},"vehicle_type_id":"4","last_reported":1740827192,"current_range_meters":7200,"station_id":"ce4bhg92rcd13ifvqf90","pricing_plan_id":"cebpf4jnsgd1na2vs0mg"},{"bike_id":"c82b7589-f546-493e-80eb-659b13ef09e8","system_id":"levelo_inurba_marseille","lat":43.29628,"lon":5.3716,"is_reserved":false,"is_disabled":false,"rental_uris":{"android":"levelo://app?vid=c82b7589-f546-493e-80eb-659b13ef09e8","ios":"levelo://app?vid=c82b7589-f546-493e-80eb-659b13ef09e8"},"vehicle_type_id":"4","last_reported":1740827192,"current_range_meters":7200,"station_id":"ce4bgnh2rcd13ifvqc0g","pricing_plan_id":"cebpf4jnsgd1na2vs0mg"},{"bike_id":"28bcfa11-2814-4959-b6ed-96206f960e90","system_id":"levelo_inurba_marseille","lat":43.29813,"lon":5.38082,"is_reserved":false,"is_disabled":false,"rental_uris":{"android":"levelo://app?vid=28bcfa11-2814-4959-b6ed-96206f960e90","ios":"levelo://app?vid=28bcfa11-2814-4959-b6ed-96206f960e90"},"vehicle_type_id":"4","last_reported":1740827192,"current_range_meters":7200,"station_id":"ce4bgip2rcd13ifvqbb0","pricing_plan_id":"cebpf4jnsgd1na2vs0mg"},{"bike_id":"d36301ff-065c-4644-9520-d9e8e53fafb9","system_id":"levelo_inurba_marseille","lat":43.27207,"lon":5.392,"is_reserved":false,"is_disabled":true,"rental_uris":{"android":"levelo://app?vid=d36301ff-065c-4644-9520-d9e8e53fafb9","ios":"levelo://app?vid=d36301ff-065c-4644-9520-d9e8e53fafb9"},"vehicle_type_id":"4","last_reported":1740827192,"current_range_meters":7200,"station_id":"ce4bhhp2rcd13ifvqfm0","pricing_plan_id":"cebpf4jnsgd1na2vs0mg"},{"bike_id":"d653e336-1cf9-47f2-9441-15e65abb981a","system_id":"levelo_inurba_marseille","lat":43.27413,"lon":5.41475,"is_reserved":false,"is_disabled":false,"rental_uris":{"android":"levelo://app?vid=d653e336-1cf9-47f2-9441-15e65abb981a","ios":"levelo://app?vid=d653e336-1cf9-47f2-9441-15e65abb981a"},"vehicle_type_id":"4","last_reported":1740827192,"current_range_meters":7200,"station_id":"","pricing_plan_id":"cebpf4jnsgd1na2vs0mg"},{"bike_id":"44a9b49b-687c-42ec-b31a-1a2a7b71f3f8","system_id":"levelo_inurba_marseille","lat":43.23185,"lon":5.39988,"is_reserved":false,"is_disabled":false,"rental_uris":{"android":"levelo://app?vid=44a9b49b-687c-42ec-b31a-1a2a7b71f3f8","ios":"levelo://app?vid=44a9b49b-687c-42ec-b31a-1a2a7b71f3f8"},"vehicle_type_id":"4","last_reported":1740827192,"current_range_meters":8000,"station_id":"ce4bhn12rcd13ifvqgqg","pricing_plan_id":"cebpf4jnsgd1na2vs0mg"},{"bike_id":"bed9b119-3005-48bf-8892-99f3cec7c091","system_id":"levelo_inurba_marseille","lat":43.290348,"lon":5.375734,"is_reserved":false,"is_disabled":false,"rental_uris":{"android":"levelo://app?vid=bed9b119-3005-48bf-8892-99f3cec7c091","ios":"levelo://app?vid=bed9b119-3005-48bf-8892-99f3cec7c091"},"vehicle_type_id":"4","last_reported":1740827192,"current_range_meters":7200,"station_id":"ce4bhh92rcd13ifvqfi0","pricing_plan_id":"cebpf4jnsgd1na2vs0mg"},{"bike_id":"dd60f76d-fffa-4214-af3d-9bc0d7f49810","system_id":"levelo_inurba_marseille","lat":43.32052,"lon":5.41549,"is_reserved":false,"is_disabled":false,"rental_uris":{"android":"levelo://app?vid=dd60f76d-fffa-4214-af3d-9bc0d7f49810","ios":"levelo://app?vid=dd60f76d-fffa-4214-af3d-9bc0d7f49810"},"vehicle_type_id":"4","last_reported":1740827192,"current_range_meters":8000,"station_id":"ce4bhq92rcd13ifvqhkg","pricing_plan_id":"cebpf4jnsgd1na2vs0mg"},{"bike_id":"6ca892ae-0d05-45ed-92f0-ddd4752766d6","system_id":"levelo_inurba_marseille","lat":43.28418,"lon":5.37509,"is_reserved":false,"is_disabled":false,"rental_uris":{"android":"levelo://app?vid=6ca892ae-0d05-45ed-92f0-ddd4752766d6","ios":"levelo://app?vid=6ca892ae-0d05-45ed-92f0-ddd4752766d6"},"vehicle_type_id":"4","last_reported":1740827192,"current_range_meters":8000,"station_id":"ce4bh412rcd13ifvqds0","pricing_plan_id":"cebpf4jnsgd1na2vs0mg"},{"bike_id":"468cc411-5a10-46f4-8919-d9a120794357","system_id":"levelo_inurba_marseille","lat":43.28001,"lon":5.4003,"is_reserved":false,"is_disabled":false,"rental_uris":{"android":"levelo://app?vid=468cc411-5a10-46f4-8919-d9a120794357","ios":"levelo://app?vid=468cc411-5a10-46f4-8919-d9a120794357"},"vehicle_type_id":"4","last_reported":1740827192,"current_range_meters":8000,"station_id":"ce4bho92rcd13ifvqh4g","pricing_plan_id":"cebpf4jnsgd1na2vs0mg"},{"bike_id":"d5481c01-2984-43f7-9ca9-876cf6aa8921","system_id":"levelo_inurba_marseille","lat":43.27985,"lon":5.40034,"is_reserved":false,"is_disabled":false,"rental_uris":{"android":"levelo://app?vid=d5481c01-2984-43f7-9ca9-876cf6aa8921","ios":"levelo://app?vid=d5481c01-2984-43f7-9ca9-876cf6aa8921"},"vehicle_type_id":"4","last_reported":1740827192,"current_range_meters":8000,"station_id":"ce4bho92rcd13ifvqh4g","pricing_plan_id":"cebpf4jnsgd1na2vs0mg"},{"bike_id":"e8e574a6-d13a-4906-9b60-657faa08b971","system_id":"levelo_inurba_marseille","lat":43.26823,"lon":5.40253,"is_reserved":false,"is_disabled":true,"rental_uris":{"android":"levelo://app?vid=e8e574a6-d13a-4906-9b60-657faa08b971","ios":"levelo://app?vid=e8e574a6-d13a-4906-9b60-657faa08b971"},"vehicle_type_id":"4","last_reported":1740827192,"current_range_meters":8000,"station_id":"ce501612rcd8frsf0b60","pricing_plan_id":"cebpf4jnsgd1na2vs0mg"},{"bike_id":"8dbd79ab-8d7e-44ba-9f11-4afd7e562df1","system_id":"levelo_inurba_marseille","lat":43.25004,"lon":5.38929,"is_reserved":false,"is_disabled":false,"rental_uris":{"android":"levelo://app?vid=8dbd79ab-8d7e-44ba-9f11-4afd7e562df1","ios":"levelo://app?vid=8dbd79ab-8d7e-44ba-9f11-4afd7e562df1"},"vehicle_type_id":"4","last_reported":1740827192,"current_range_meters":8000,"station_id":"ce4bhgp2rcd13ifvqfd0","pricing_plan_id":"cebpf4jnsgd1na2vs0mg"},{"bike_id":"be047da3-12fb-470e-9d78-68641c40dc2c","system_id":"levelo_inurba_marseille","lat":43.286797,"lon":5.409547,"is_reserved":false,"is_disabled":false,"rental_uris":{"android":"levelo://app?vid=be047da3-12fb-470e-9d78-68641c40dc2c","ios":"levelo://app?vid=be047da3-12fb-470e-9d78-68641c40dc2c"},"vehicle_type_id":"4","last_reported":1740827192,"current_range_meters":8000,"station_id":"","pricing_plan_id":"cebpf4jnsgd1na2vs0mg"},{"bike_id":"bb113d46-ee53-44da-bdcc-afcf6081c369","system_id":"levelo_inurba_marseille","lat":43.27921,"lon":5.39589,"is_reserved":false,"is_disabled":false,"rental_uris":{"android":"levelo://app?vid=bb113d46-ee53-44da-bdcc-afcf6081c369","ios":"levelo://app?vid=bb113d46-ee53-44da-bdcc-afcf6081c369"},"vehicle_type_id":"4","last_reported":1740827192,"current_range_meters":8400,"station_id":"ce4bhf92rcd13ifvqf40","pricing_plan_id":"cebpf4jnsgd1na2vs0mg"},{"bike_id":"749fee80-dfaa-43de-aa58-d21bbf5e0792","system_id":"levelo_inurba_marseille","lat":43.23192,"lon":5.3998,"is_reserved":false,"is_disabled":false,"rental_uris":{"android":"levelo://app?vid=749fee80-dfaa-43de-aa58-d21bbf5e0792","ios":"levelo://app?vid=749fee80-dfaa-43de-aa58-d21bbf5e0792"},"vehicle_type_id":"4","last_reported":1740827192,"current_range_meters":8400,"station_id":"ce4bhn12rcd13ifvqgqg","pricing_plan_id":"cebpf4jnsgd1na2vs0mg"},{"bike_id":"5c2768b5-3995-4560-93e0-4c52577baaa9","system_id":"levelo_inurba_marseille","lat":43.24395,"lon":5.37073,"is_reserved":false,"is_disabled":false,"rental_uris":{"android":"levelo://app?vid=5c2768b5-3995-4560-93e0-4c52577baaa9","ios":"levelo://app?vid=5c2768b5-3995-4560-93e0-4c52577baaa9"},"vehicle_type_id":"4","last_reported":1740827192,"current_range_meters":8400,"station_id":"ce4bhhh2rcd13ifvqfk0","pricing_plan_id":"cebpf4jnsgd1na2vs0mg"},{"bike_id":"52cf7821-da1e-494c-a5b9-17f0d0b017f9","system_id":"levelo_inurba_marseille","lat":43.30148,"lon":5.38067,"is_reserved":false,"is_disabled":false,"rental_uris":{"android":"levelo://app?vid=52cf7821-da1e-494c-a5b9-17f0d0b017f9","ios":"levelo://app?vid=52cf7821-da1e-494c-a5b9-17f0d0b017f9"},"vehicle_type_id":"4","last_reported":1740827192,"current_range_meters":8400,"station_id":"ce4bgjp2rcd13ifvqbh0","pricing_plan_id":"cebpf4jnsgd1na2vs0mg"},{"bike_id":"7f9d29b9-10fe-48ff-80d1-ad7215756f99","system_id":"levelo_inurba_marseille","lat":43.29526,"lon":5.37494,"is_reserved":false,"is_disabled":false,"rental_uris":{"android":"levelo://app?vid=7f9d29b9-10fe-48ff-80d1-ad7215756f99","ios":"levelo://app?vid=7f9d29b9-10fe-48ff-80d1-ad7215756f99"},"vehicle_type_id":"4","last_reported":1740827192,"current_range_meters":8400,"station_id":"ce4bgkp2rcd13ifvqbmg","pricing_plan_id":"cebpf4jnsgd1na2vs0mg"},{"bike_id":"35a4782e-5d2e-4fb8-8175-5ce018572fa7","system_id":"levelo_inurba_marseille","lat":43.29987,"lon":5.37711,"is_reserved":false,"is_disabled":false,"rental_uris":{"android":"levelo://app?vid=35a4782e-5d2e-4fb8-8175-5ce018572fa7","ios":"levelo://app?vid=35a4782e-5d2e-4fb8-8175-5ce018572fa7"},"vehicle_type_id":"4","last_reported":1740827192,"current_range_meters":8400,"station_id":"","pricing_plan_id":"cebpf4jnsgd1na2vs0mg"},{"bike_id":"a5841749-abe8-4b38-b48c-2deb88c2d094","system_id":"levelo_inurba_marseille","lat":43.31672,"lon":5.37781,"is_reserved":false,"is_disabled":false,"rental_uris":{"android":"levelo://app?vid=a5841749-abe8-4b38-b48c-2deb88c2d094","ios":"levelo://app?vid=a5841749-abe8-4b38-b48c-2deb88c2d094"},"vehicle_type_id":"4","last_reported":1740827192,"current_range_meters":8400,"station_id":"ce4bgth2rcd13ifvqch0","pricing_plan_id":"cebpf4jnsgd1na2vs0mg"},{"bike_id":"7182befa-9a6c-49d3-acb0-e8c44e21d25e","system_id":"levelo_inurba_marseille","lat":43.256,"lon":5.38241,"is_reserved":false,"is_disabled":false,"rental_uris":{"android":"levelo://app?vid=7182befa-9a6c-49d3-acb0-e8c44e21d25e","ios":"levelo://app?vid=7182befa-9a6c-49d3-acb0-e8c44e21d25e"},"vehicle_type_id":"4","last_reported":1740827192,"current_range_meters":8800,"station_id":"ce4bhih2rcd13ifvqfs0","pricing_plan_id":"cebpf4jnsgd1na2vs0mg"},{"bike_id":"1ef83ca4-2f4d-464d-9fb6-924b48a09432","system_id":"levelo_inurba_marseille","lat":43.29435,"lon":5.39764,"is_reserved":false,"is_disabled":true,"rental_uris":{"android":"levelo://app?vid=1ef83ca4-2f4d-464d-9fb6-924b48a09432","ios":"levelo://app?vid=1ef83ca4-2f4d-464d-9fb6-924b48a09432"},"vehicle_type_id":"4","last_reported":1740827192,"current_range_meters":8800,"station_id":"ce4bh3h2rcd13ifvqdo0","pricing_plan_id":"cebpf4jnsgd1na2vs0mg"},{"bike_id":"257c4849-dc72-4ebc-b295-ab798a49160b","system_id":"levelo_inurba_marseille","lat":43.26178,"lon":5.38087,"is_reserved":false,"is_disabled":false,"rental_uris":{"android":"levelo://app?vid=257c4849-dc72-4ebc-b295-ab798a49160b","ios":"levelo://app?vid=257c4849-dc72-4ebc-b295-ab798a49160b"},"vehicle_type_id":"4","last_reported":1740827192,"current_range_meters":8800,"station_id":"","pricing_plan_id":"cebpf4jnsgd1na2vs0mg"},{"bike_id":"a00c4679-fd36-4b40-8f17-44a0c041a3ce","system_id":"levelo_inurba_marseille","lat":43.272114,"lon":5.391845,"is_reserved":false,"is_disabled":false,"rental_uris":{"android":"levelo://app?vid=a00c4679-fd36-4b40-8f17-44a0c041a3ce","ios":"levelo://app?vid=a00c4679-fd36-4b40-8f17-44a0c041a3ce"},"vehicle_type_id":"4","last_reported":1740827192,"current_range_meters":8800,"station_id":"ce4bhhp2rcd13ifvqfm0","pricing_plan_id":"cebpf4jnsgd1na2vs0mg"},{"bike_id":"20b99df9-03ab-4841-80fa-c0d486f288be","system_id":"levelo_inurba_marseille","lat":43.23206,"lon":5.35547,"is_reserved":false,"is_disabled":false,"rental_uris":{"android":"levelo://app?vid=20b99df9-03ab-4841-80fa-c0d486f288be","ios":"levelo://app?vid=20b99df9-03ab-4841-80fa-c0d486f288be"},"vehicle_type_id":"4","last_reported":1740827192,"current_range_meters":8800,"station_id":"ce4bhu92rcd13ifvqi70","pricing_plan_id":"cebpf4jnsgd1na2vs0mg"},{"bike_id":"6652c5e5-555d-4356-9f39-91bf5bb45b9b","system_id":"levelo_inurba_marseille","lat":43.24391,"lon":5.37055,"is_reserved":false,"is_disabled":false,"rental_uris":{"android":"levelo://app?vid=6652c5e5-555d-4356-9f39-91bf5bb45b9b","ios":"levelo://app?vid=6652c5e5-555d-4356-9f39-91bf5bb45b9b"},"vehicle_type_id":"4","last_reported":1740827192,"current_range_meters":8400,"station_id":"ce4bhhh2rcd13ifvqfk0","pricing_plan_id":"cebpf4jnsgd1na2vs0mg"},{"bike_id":"3f5e4c77-943b-4a46-b257-614bf13afec4","system_id":"levelo_inurba_marseille","lat":43.241719,"lon":5.363992,"is_reserved":false,"is_disabled":false,"rental_uris":{"android":"levelo://app?vid=3f5e4c77-943b-4a46-b257-614bf13afec4","ios":"levelo://app?vid=3f5e4c77-943b-4a46-b257-614bf13afec4"},"vehicle_type_id":"4","last_reported":1740827192,"current_range_meters":8800,"station_id":"cpo36qri1sfpv3e86is0","pricing_plan_id":"cebpf4jnsgd1na2vs0mg"},{"bike_id":"ff47444c-d4ab-4b37-b9b7-392fc261fa0c","system_id":"levelo_inurba_marseille","lat":43.29303,"lon":5.37457,"is_reserved":false,"is_disabled":false,"rental_uris":{"android":"levelo://app?vid=ff47444c-d4ab-4b37-b9b7-392fc261fa0c","ios":"levelo://app?vid=ff47444c-d4ab-4b37-b9b7-392fc261fa0c"},"vehicle_type_id":"4","last_reported":1740827192,"current_range_meters":8800,"station_id":"ce4bgi12rcd13ifvqb70","pricing_plan_id":"cebpf4jnsgd1na2vs0mg"},{"bike_id":"a5fd71ea-4807-4e2d-a716-448c8cd70326","system_id":"levelo_inurba_marseille","lat":43.2657,"lon":5.37273,"is_reserved":false,"is_disabled":true,"rental_uris":{"android":"levelo://app?vid=a5fd71ea-4807-4e2d-a716-448c8cd70326","ios":"levelo://app?vid=a5fd71ea-4807-4e2d-a716-448c8cd70326"},"vehicle_type_id":"4","last_reported":1740827192,"current_range_meters":8800,"station_id":"ce4bhg12rcd13ifvqf70","pricing_plan_id":"cebpf4jnsgd1na2vs0mg"},{"bike_id":"87b985b0-b21a-457b-876e-995bf2ff8f5e","system_id":"levelo_inurba_marseille","lat":43.32132,"lon":5.36824,"is_reserved":false,"is_disabled":false,"rental_uris":{"android":"levelo://app?vid=87b985b0-b21a-457b-876e-995bf2ff8f5e","ios":"levelo://app?vid=87b985b0-b21a-457b-876e-995bf2ff8f5e"},"vehicle_type_id":"4","last_reported":1740827192,"current_range_meters":8800,"station_id":"ce4bhrh2rcd13ifvqhug","pricing_plan_id":"cebpf4jnsgd1na2vs0mg"},{"bike_id":"2e5b1c00-cc3f-4398-9d7c-2f6eede7d980","system_id":"levelo_inurba_marseille","lat":43.30137,"lon":5.39863,"is_reserved":false,"is_disabled":false,"rental_uris":{"android":"levelo://app?vid=2e5b1c00-cc3f-4398-9d7c-2f6eede7d980","ios":"levelo://app?vid=2e5b1c00-cc3f-4398-9d7c-2f6eede7d980"},"vehicle_type_id":"4","last_reported":1740827192,"current_range_meters":8800,"station_id":"ce4bh0h2rcd13ifvqd40","pricing_plan_id":"cebpf4jnsgd1na2vs0mg"},{"bike_id":"cdbfdffb-89b1-4d70-bee8-abb35a1756d1","system_id":"levelo_inurba_marseille","lat":43.31479,"lon":5.37312,"is_reserved":false,"is_disabled":false,"rental_uris":{"android":"levelo://app?vid=cdbfdffb-89b1-4d70-bee8-abb35a1756d1","ios":"levelo://app?vid=cdbfdffb-89b1-4d70-bee8-abb35a1756d1"},"vehicle_type_id":"4","last_reported":1740827192,"current_range_meters":9200,"station_id":"ce4bgt12rcd13ifvqcd0","pricing_plan_id":"cebpf4jnsgd1na2vs0mg"},{"bike_id":"bd4d047f-c101-4bc6-bd96-59ee035f5a00","system_id":"levelo_inurba_marseille","lat":43.28735,"lon":5.38921,"is_reserved":false,"is_disabled":false,"rental_uris":{"android":"levelo://app?vid=bd4d047f-c101-4bc6-bd96-59ee035f5a00","ios":"levelo://app?vid=bd4d047f-c101-4bc6-bd96-59ee035f5a00"},"vehicle_type_id":"4","last_reported":1740827192,"current_range_meters":9200,"station_id":"","pricing_plan_id":"cebpf4jnsgd1na2vs0mg"},{"bike_id":"a2c1d376-2010-48be-b404-e3397a6876d2","system_id":"levelo_inurba_marseille","lat":43.258256,"lon":5.394362,"is_reserved":false,"is_disabled":false,"rental_uris":{"android":"levelo://app?vid=a2c1d376-2010-48be-b404-e3397a6876d2","ios":"levelo://app?vid=a2c1d376-2010-48be-b404-e3397a6876d2"},"vehicle_type_id":"4","last_reported":1740827192,"current_range_meters":9200,"station_id":"ce4bhip2rcd13ifvqft0","pricing_plan_id":"cebpf4jnsgd1na2vs0mg"},{"bike_id":"8cfa07b2-90e7-48f4-aa06-13fb479135d6","system_id":"levelo_inurba_marseille","lat":43.27212,"lon":5.39177,"is_reserved":false,"is_disabled":false,"rental_uris":{"android":"levelo://app?vid=8cfa07b2-90e7-48f4-aa06-13fb479135d6","ios":"levelo://app?vid=8cfa07b2-90e7-48f4-aa06-13fb479135d6"},"vehicle_type_id":"4","last_reported":1740827192,"current_range_meters":9200,"station_id":"ce4bhhp2rcd13ifvqfm0","pricing_plan_id":"cebpf4jnsgd1na2vs0mg"},{"bike_id":"12a95157-6fda-48d3-9459-4d7bc67ef055","system_id":"levelo_inurba_marseille","lat":43.29601,"lon":5.381141,"is_reserved":false,"is_disabled":false,"rental_uris":{"android":"levelo://app?vid=12a95157-6fda-48d3-9459-4d7bc67ef055","ios":"levelo://app?vid=12a95157-6fda-48d3-9459-4d7bc67ef055"},"vehicle_type_id":"4","last_reported":1740827192,"current_range_meters":4000,"station_id":"ce4bhoh2rcd13ifvqh5g","pricing_plan_id":"cebpf4jnsgd1na2vs0mg"},{"bike_id":"a25a4bca-1a72-419f-af06-cf47c412ca14","system_id":"levelo_inurba_marseille","lat":43.30822,"lon":5.4352,"is_reserved":false,"is_disabled":false,"rental_uris":{"android":"levelo://app?vid=a25a4bca-1a72-419f-af06-cf47c412ca14","ios":"levelo://app?vid=a25a4bca-1a72-419f-af06-cf47c412ca14"},"vehicle_type_id":"4","last_reported":1740827192,"current_range_meters":9200,"station_id":"ce4bhph2rcd13ifvqheg","pricing_plan_id":"cebpf4jnsgd1na2vs0mg"},{"bike_id":"9e42e9e4-eb67-430e-8cbc-7677584d04af","system_id":"levelo_inurba_marseille","lat":43.2999,"lon":5.38505,"is_reserved":false,"is_disabled":false,"rental_uris":{"android":"levelo://app?vid=9e42e9e4-eb67-430e-8cbc-7677584d04af","ios":"levelo://app?vid=9e42e9e4-eb67-430e-8cbc-7677584d04af"},"vehicle_type_id":"4","last_reported":1740827192,"current_range_meters":9200,"station_id":"ce4bgj92rcd13ifvqbd0","pricing_plan_id":"cebpf4jnsgd1na2vs0mg"},{"bike_id":"4f7b2684-ba4b-4ef0-a5ff-da741786320e","system_id":"levelo_inurba_marseille","lat":43.33031,"lon":5.39044,"is_reserved":false,"is_disabled":false,"rental_uris":{"android":"levelo://app?vid=4f7b2684-ba4b-4ef0-a5ff-da741786320e","ios":"levelo://app?vid=4f7b2684-ba4b-4ef0-a5ff-da741786320e"},"vehicle_type_id":"4","last_reported":1740827192,"current_range_meters":9200,"station_id":"ce4bhr92rcd13ifvqhrg","pricing_plan_id":"cebpf4jnsgd1na2vs0mg"},{"bike_id":"fa32e183-306a-47e5-ad8c-fff869084beb","system_id":"levelo_inurba_marseille","lat":43.29741,"lon":5.38103,"is_reserved":false,"is_disabled":false,"rental_uris":{"android":"levelo://app?vid=fa32e183-306a-47e5-ad8c-fff869084beb","ios":"levelo://app?vid=fa32e183-306a-47e5-ad8c-fff869084beb"},"vehicle_type_id":"4","last_reported":1740827192,"current_range_meters":9200,"station_id":"ce4bgip2rcd13ifvqbb0","pricing_plan_id":"cebpf4jnsgd1na2vs0mg"},{"bike_id":"ef1cc04d-7156-4a12-8da8-2490dc4cc5b5","system_id":"levelo_inurba_marseille","lat":43.23201,"lon":5.39965,"is_reserved":false,"is_disabled":false,"rental_uris":{"android":"levelo://app?vid=ef1cc04d-7156-4a12-8da8-2490dc4cc5b5","ios":"levelo://app?vid=ef1cc04d-7156-4a12-8da8-2490dc4cc5b5"},"vehicle_type_id":"4","last_reported":1740827192,"current_range_meters":9200,"station_id":"ce4bhn12rcd13ifvqgqg","pricing_plan_id":"cebpf4jnsgd1na2vs0mg"},{"bike_id":"9073b302-d78a-4a08-9ad0-ebeb81529b44","system_id":"levelo_inurba_marseille","lat":43.23158,"lon":5.43711,"is_reserved":false,"is_disabled":false,"rental_uris":{"android":"levelo://app?vid=9073b302-d78a-4a08-9ad0-ebeb81529b44","ios":"levelo://app?vid=9073b302-d78a-4a08-9ad0-ebeb81529b44"},"vehicle_type_id":"4","last_reported":1740827192,"current_range_meters":9600,"station_id":"ce4bhmp2rcd13ifvqgog","pricing_plan_id":"cebpf4jnsgd1na2vs0mg"},{"bike_id":"a613865e-ace9-475e-9746-954f6987bb41","system_id":"levelo_inurba_marseille","lat":43.30647,"lon":5.40073,"is_reserved":false,"is_disabled":false,"rental_uris":{"android":"levelo://app?vid=a613865e-ace9-475e-9746-954f6987bb41","ios":"levelo://app?vid=a613865e-ace9-475e-9746-954f6987bb41"},"vehicle_type_id":"4","last_reported":1740827192,"current_range_meters":9200,"station_id":"ce4bh112rcd13ifvqda0","pricing_plan_id":"cebpf4jnsgd1na2vs0mg"},{"bike_id":"ef7409b7-cd15-445e-84f8-7102fec0f5f8","system_id":"levelo_inurba_marseille","lat":43.29298,"lon":5.37463,"is_reserved":false,"is_disabled":false,"rental_uris":{"android":"levelo://app?vid=ef7409b7-cd15-445e-84f8-7102fec0f5f8","ios":"levelo://app?vid=ef7409b7-cd15-445e-84f8-7102fec0f5f8"},"vehicle_type_id":"4","last_reported":1740827192,"current_range_meters":9600,"station_id":"ce4bgi12rcd13ifvqb70","pricing_plan_id":"cebpf4jnsgd1na2vs0mg"},{"bike_id":"ad63f7de-e082-486a-986c-5f0cb3c10b35","system_id":"levelo_inurba_marseille","lat":43.29306,"lon":5.37157,"is_reserved":false,"is_disabled":false,"rental_uris":{"android":"levelo://app?vid=ad63f7de-e082-486a-986c-5f0cb3c10b35","ios":"levelo://app?vid=ad63f7de-e082-486a-986c-5f0cb3c10b35"},"vehicle_type_id":"4","last_reported":1740827192,"current_range_meters":9600,"station_id":"ce4bgh92rcd13ifvqb40","pricing_plan_id":"cebpf4jnsgd1na2vs0mg"},{"bike_id":"364b209e-752e-45ea-b26c-06b2552c1833","system_id":"levelo_inurba_marseille","lat":43.23209,"lon":5.35568,"is_reserved":false,"is_disabled":false,"rental_uris":{"android":"levelo://app?vid=364b209e-752e-45ea-b26c-06b2552c1833","ios":"levelo://app?vid=364b209e-752e-45ea-b26c-06b2552c1833"},"vehicle_type_id":"4","last_reported":1740827192,"current_range_meters":9600,"station_id":"ce4bhu92rcd13ifvqi70","pricing_plan_id":"cebpf4jnsgd1na2vs0mg"},{"bike_id":"4d0fc528-2de5-47b3-9a57-aa4b2f0a1fd8","system_id":"levelo_inurba_marseille","lat":43.23151,"lon":5.43715,"is_reserved":false,"is_disabled":false,"rental_uris":{"android":"levelo://app?vid=4d0fc528-2de5-47b3-9a57-aa4b2f0a1fd8","ios":"levelo://app?vid=4d0fc528-2de5-47b3-9a57-aa4b2f0a1fd8"},"vehicle_type_id":"4","last_reported":1740827192,"current_range_meters":9600,"station_id":"ce4bhmp2rcd13ifvqgog","pricing_plan_id":"cebpf4jnsgd1na2vs0mg"},{"bike_id":"98de9d11-d196-4982-b9e0-115d621359f3","system_id":"levelo_inurba_marseille","lat":43.279425,"lon":5.415151,"is_reserved":false,"is_disabled":false,"rental_uris":{"android":"levelo://app?vid=98de9d11-d196-4982-b9e0-115d621359f3","ios":"levelo://app?vid=98de9d11-d196-4982-b9e0-115d621359f3"},"vehicle_type_id":"4","last_reported":1740827192,"current_range_meters":9200,"station_id":"ce4bgvp2rcd13ifvqct0","pricing_plan_id":"cebpf4jnsgd1na2vs0mg"},{"bike_id":"5ebfd1a0-c249-4c98-835d-9c17b0f393bf","system_id":"levelo_inurba_marseille","lat":43.30173,"lon":5.38082,"is_reserved":false,"is_disabled":false,"rental_uris":{"android":"levelo://app?vid=5ebfd1a0-c249-4c98-835d-9c17b0f393bf","ios":"levelo://app?vid=5ebfd1a0-c249-4c98-835d-9c17b0f393bf"},"vehicle_type_id":"4","last_reported":1740827192,"current_range_meters":9600,"station_id":"ce4bgjp2rcd13ifvqbh0","pricing_plan_id":"cebpf4jnsgd1na2vs0mg"},{"bike_id":"49e9cdc7-76a5-4b66-ae2d-61c73beb73a8","system_id":"levelo_inurba_marseille","lat":43.24198,"lon":5.36382,"is_reserved":false,"is_disabled":false,"rental_uris":{"android":"levelo://app?vid=49e9cdc7-76a5-4b66-ae2d-61c73beb73a8","ios":"levelo://app?vid=49e9cdc7-76a5-4b66-ae2d-61c73beb73a8"},"vehicle_type_id":"4","last_reported":1740827192,"current_range_meters":9600,"station_id":"cpo36qri1sfpv3e86is0","pricing_plan_id":"cebpf4jnsgd1na2vs0mg"},{"bike_id":"1ca99755-49f9-43e3-bafb-4e2fd2f86821","system_id":"levelo_inurba_marseille","lat":43.28974,"lon":5.37826,"is_reserved":false,"is_disabled":false,"rental_uris":{"android":"levelo://app?vid=1ca99755-49f9-43e3-bafb-4e2fd2f86821","ios":"levelo://app?vid=1ca99755-49f9-43e3-bafb-4e2fd2f86821"},"vehicle_type_id":"4","last_reported":1740827192,"current_range_meters":9600,"station_id":"ce4bh9p2rcd13ifvqed0","pricing_plan_id":"cebpf4jnsgd1na2vs0mg"},{"bike_id":"05cc6ffa-20dc-486a-9bd5-c3143ae1663b","system_id":"levelo_inurba_marseille","lat":43.27924,"lon":5.39583,"is_reserved":false,"is_disabled":false,"rental_uris":{"android":"levelo://app?vid=05cc6ffa-20dc-486a-9bd5-c3143ae1663b","ios":"levelo://app?vid=05cc6ffa-20dc-486a-9bd5-c3143ae1663b"},"vehicle_type_id":"4","last_reported":1740827192,"current_range_meters":9600,"station_id":"ce4bhf92rcd13ifvqf40","pricing_plan_id":"cebpf4jnsgd1na2vs0mg"},{"bike_id":"593edb3c-7add-4a3d-9dbe-95cef549de0d","system_id":"levelo_inurba_marseille","lat":43.230668,"lon":5.354922,"is_reserved":false,"is_disabled":false,"rental_uris":{"android":"levelo://app?vid=593edb3c-7add-4a3d-9dbe-95cef549de0d","ios":"levelo://app?vid=593edb3c-7add-4a3d-9dbe-95cef549de0d"},"vehicle_type_id":"4","last_reported":1740827192,"current_range_meters":9600,"station_id":"cpo3342slgdg3j2ifvpg","pricing_plan_id":"cebpf4jnsgd1na2vs0mg"},{"bike_id":"38e4208e-f256-4294-9ec9-809b58394803","system_id":"levelo_inurba_marseille","lat":43.31342,"lon":5.39704,"is_reserved":false,"is_disabled":false,"rental_uris":{"android":"levelo://app?vid=38e4208e-f256-4294-9ec9-809b58394803","ios":"levelo://app?vid=38e4208e-f256-4294-9ec9-809b58394803"},"vehicle_type_id":"4","last_reported":1740827192,"current_range_meters":10000,"station_id":"ce4bgvp2rcd13ifvqcu0","pricing_plan_id":"cebpf4jnsgd1na2vs0mg"},{"bike_id":"f9388811-58f6-490f-9417-8dcd21feeb24","system_id":"levelo_inurba_marseille","lat":43.279999,"lon":5.400082,"is_reserved":false,"is_disabled":false,"rental_uris":{"android":"levelo://app?vid=f9388811-58f6-490f-9417-8dcd21feeb24","ios":"levelo://app?vid=f9388811-58f6-490f-9417-8dcd21feeb24"},"vehicle_type_id":"4","last_reported":1740827192,"current_range_meters":10000,"station_id":"","pricing_plan_id":"cebpf4jnsgd1na2vs0mg"},{"bike_id":"bddf37d4-a2ae-4c74-bcad-602e7e9ee614","system_id":"levelo_inurba_marseille","lat":43.2467,"lon":5.38156,"is_reserved":false,"is_disabled":false,"rental_uris":{"android":"levelo://app?vid=bddf37d4-a2ae-4c74-bcad-602e7e9ee614","ios":"levelo://app?vid=bddf37d4-a2ae-4c74-bcad-602e7e9ee614"},"vehicle_type_id":"4","last_reported":1740827192,"current_range_meters":10000,"station_id":"ce4bhih2rcd13ifvqfr0","pricing_plan_id":"cebpf4jnsgd1na2vs0mg"},{"bike_id":"3899cc99-9f44-41a2-ae71-74851855f1e5","system_id":"levelo_inurba_marseille","lat":43.24998,"lon":5.38957,"is_reserved":false,"is_disabled":false,"rental_uris":{"android":"levelo://app?vid=3899cc99-9f44-41a2-ae71-74851855f1e5","ios":"levelo://app?vid=3899cc99-9f44-41a2-ae71-74851855f1e5"},"vehicle_type_id":"4","last_reported":1740827192,"current_range_meters":10000,"station_id":"ce4bhgp2rcd13ifvqfd0","pricing_plan_id":"cebpf4jnsgd1na2vs0mg"},{"bike_id":"60d4e3af-a938-45a6-a89b-d7fe9130f2cc","system_id":"levelo_inurba_marseille","lat":43.24179,"lon":5.39705,"is_reserved":false,"is_disabled":false,"rental_uris":{"android":"levelo://app?vid=60d4e3af-a938-45a6-a89b-d7fe9130f2cc","ios":"levelo://app?vid=60d4e3af-a938-45a6-a89b-d7fe9130f2cc"},"vehicle_type_id":"4","last_reported":1740827192,"current_range_meters":10000,"station_id":"ce4bhn12rcd13ifvqgpg","pricing_plan_id":"cebpf4jnsgd1na2vs0mg"},{"bike_id":"42ab645f-6133-4c33-8a11-10b01ea5cb07","system_id":"levelo_inurba_marseille","lat":43.30827,"lon":5.38137,"is_reserved":false,"is_disabled":false,"rental_uris":{"android":"levelo://app?vid=42ab645f-6133-4c33-8a11-10b01ea5cb07","ios":"levelo://app?vid=42ab645f-6133-4c33-8a11-10b01ea5cb07"},"vehicle_type_id":"4","last_reported":1740827192,"current_range_meters":9600,"station_id":"ce4bgt12rcd13ifvqce0","pricing_plan_id":"cebpf4jnsgd1na2vs0mg"},{"bike_id":"597c78d8-1097-48db-b3be-fafc8754eab9","system_id":"levelo_inurba_marseille","lat":43.24177,"lon":5.36413,"is_reserved":false,"is_disabled":false,"rental_uris":{"android":"levelo://app?vid=597c78d8-1097-48db-b3be-fafc8754eab9","ios":"levelo://app?vid=597c78d8-1097-48db-b3be-fafc8754eab9"},"vehicle_type_id":"4","last_reported":1740827192,"current_range_meters":10000,"station_id":"cpo36qri1sfpv3e86is0","pricing_plan_id":"cebpf4jnsgd1na2vs0mg"},{"bike_id":"ecc73802-11dc-49d5-817e-7d342d8f2541","system_id":"levelo_inurba_marseille","lat":43.29073,"lon":5.38134,"is_reserved":false,"is_disabled":false,"rental_uris":{"android":"levelo://app?vid=ecc73802-11dc-49d5-817e-7d342d8f2541","ios":"levelo://app?vid=ecc73802-11dc-49d5-817e-7d342d8f2541"},"vehicle_type_id":"4","last_reported":1740827192,"current_range_meters":9600,"station_id":"ce4bh512rcd13ifvqe2g","pricing_plan_id":"cebpf4jnsgd1na2vs0mg"},{"bike_id":"494bc7e2-99f9-45a7-adbb-3d9241152a2a","system_id":"levelo_inurba_marseille","lat":43.29604,"lon":5.37722,"is_reserved":false,"is_disabled":false,"rental_uris":{"android":"levelo://app?vid=494bc7e2-99f9-45a7-adbb-3d9241152a2a","ios":"levelo://app?vid=494bc7e2-99f9-45a7-adbb-3d9241152a2a"},"vehicle_type_id":"4","last_reported":1740827192,"current_range_meters":10000,"station_id":"ce4bgi92rcd13ifvqb90","pricing_plan_id":"cebpf4jnsgd1na2vs0mg"},{"bike_id":"f7e969b9-30da-4a12-9fbc-e6e05e9966aa","system_id":"levelo_inurba_marseille","lat":43.26178,"lon":5.37465,"is_reserved":false,"is_disabled":false,"rental_uris":{"android":"levelo://app?vid=f7e969b9-30da-4a12-9fbc-e6e05e9966aa","ios":"levelo://app?vid=f7e969b9-30da-4a12-9fbc-e6e05e9966aa"},"vehicle_type_id":"4","last_reported":1740827192,"current_range_meters":10800,"station_id":"ce4bhgp2rcd13ifvqfc0","pricing_plan_id":"cebpf4jnsgd1na2vs0mg"},{"bike_id":"b777b4cf-3a59-4bd6-bbe8-877c47f15172","system_id":"levelo_inurba_marseille","lat":43.29281,"lon":5.36857,"is_reserved":false,"is_disabled":false,"rental_uris":{"android":"levelo://app?vid=b777b4cf-3a59-4bd6-bbe8-877c47f15172","ios":"levelo://app?vid=b777b4cf-3a59-4bd6-bbe8-877c47f15172"},"vehicle_type_id":"4","last_reported":1740827192,"current_range_meters":10800,"station_id":"ce4bhbp2rcd13ifvqesg","pricing_plan_id":"cebpf4jnsgd1na2vs0mg"},{"bike_id":"a0f4785f-b6c3-496b-9268-b69bebe4b0b2","system_id":"levelo_inurba_marseille","lat":43.29714,"lon":5.37681,"is_reserved":false,"is_disabled":false,"rental_uris":{"android":"levelo://app?vid=a0f4785f-b6c3-496b-9268-b69bebe4b0b2","ios":"levelo://app?vid=a0f4785f-b6c3-496b-9268-b69bebe4b0b2"},"vehicle_type_id":"4","last_reported":1740827192,"current_range_meters":10800,"station_id":"ce4bgkh2rcd13ifvqbl0","pricing_plan_id":"cebpf4jnsgd1na2vs0mg"},{"bike_id":"ec7ffa21-3db7-4261-a8f3-5bc09ce4f1c5","system_id":"levelo_inurba_marseille","lat":43.31179,"lon":5.38716,"is_reserved":false,"is_disabled":false,"rental_uris":{"android":"levelo://app?vid=ec7ffa21-3db7-4261-a8f3-5bc09ce4f1c5","ios":"levelo://app?vid=ec7ffa21-3db7-4261-a8f3-5bc09ce4f1c5"},"vehicle_type_id":"4","last_reported":1740827192,"current_range_meters":10800,"station_id":"ce4bgv12rcd13ifvqcp0","pricing_plan_id":"cebpf4jnsgd1na2vs0mg"},{"bike_id":"4eb08869-e4e0-4147-91fb-31e6a28861d4","system_id":"levelo_inurba_marseille","lat":43.303,"lon":5.39207,"is_reserved":false,"is_disabled":false,"rental_uris":{"android":"levelo://app?vid=4eb08869-e4e0-4147-91fb-31e6a28861d4","ios":"levelo://app?vid=4eb08869-e4e0-4147-91fb-31e6a28861d4"},"vehicle_type_id":"4","last_reported":1740827192,"current_range_meters":10800,"station_id":"ce4bgkh2rcd13ifvqbk0","pricing_plan_id":"cebpf4jnsgd1na2vs0mg"},{"bike_id":"9f4deda5-76e4-48c2-b596-52dcf3f3bc23","system_id":"levelo_inurba_marseille","lat":43.29603,"lon":5.37723,"is_reserved":false,"is_disabled":false,"rental_uris":{"android":"levelo://app?vid=9f4deda5-76e4-48c2-b596-52dcf3f3bc23","ios":"levelo://app?vid=9f4deda5-76e4-48c2-b596-52dcf3f3bc23"},"vehicle_type_id":"4","last_reported":1740827192,"current_range_meters":11200,"station_id":"ce4bgi92rcd13ifvqb90","pricing_plan_id":"cebpf4jnsgd1na2vs0mg"},{"bike_id":"3ae43e61-e460-4942-a7d7-9a08b7b0118e","system_id":"levelo_inurba_marseille","lat":43.24821,"lon":5.37454,"is_reserved":false,"is_disabled":false,"rental_uris":{"android":"levelo://app?vid=3ae43e61-e460-4942-a7d7-9a08b7b0118e","ios":"levelo://app?vid=3ae43e61-e460-4942-a7d7-9a08b7b0118e"},"vehicle_type_id":"4","last_reported":1740827192,"current_range_meters":11200,"station_id":"ce4bhgh2rcd13ifvqfb0","pricing_plan_id":"cebpf4jnsgd1na2vs0mg"},{"bike_id":"d4153ad8-0bf3-40a8-bcab-9d4e1d14a786","system_id":"levelo_inurba_marseille","lat":43.29807,"lon":5.38105,"is_reserved":false,"is_disabled":false,"rental_uris":{"android":"levelo://app?vid=d4153ad8-0bf3-40a8-bcab-9d4e1d14a786","ios":"levelo://app?vid=d4153ad8-0bf3-40a8-bcab-9d4e1d14a786"},"vehicle_type_id":"4","last_reported":1740827192,"current_range_meters":10800,"station_id":"ce4bgip2rcd13ifvqbb0","pricing_plan_id":"cebpf4jnsgd1na2vs0mg"},{"bike_id":"d70f8813-061f-4f77-8828-1ec40b97c754","system_id":"levelo_inurba_marseille","lat":43.29008,"lon":5.35586,"is_reserved":false,"is_disabled":false,"rental_uris":{"android":"levelo://app?vid=d70f8813-061f-4f77-8828-1ec40b97c754","ios":"levelo://app?vid=d70f8813-061f-4f77-8828-1ec40b97c754"},"vehicle_type_id":"4","last_reported":1740827192,"current_range_meters":11200,"station_id":"ce4bhb92rcd13ifvqen0","pricing_plan_id":"cebpf4jnsgd1na2vs0mg"},{"bike_id":"d8ce033e-f3a5-430d-b70d-26539a7235b3","system_id":"levelo_inurba_marseille","lat":43.31331,"lon":5.39698,"is_reserved":false,"is_disabled":false,"rental_uris":{"android":"levelo://app?vid=d8ce033e-f3a5-430d-b70d-26539a7235b3","ios":"levelo://app?vid=d8ce033e-f3a5-430d-b70d-26539a7235b3"},"vehicle_type_id":"4","last_reported":1740827192,"current_range_meters":11200,"station_id":"ce4bgvp2rcd13ifvqcu0","pricing_plan_id":"cebpf4jnsgd1na2vs0mg"},{"bike_id":"0ee6db94-40a6-4bec-8a2f-edbb26ac2aa6","system_id":"levelo_inurba_marseille","lat":43.24071,"lon":5.37766,"is_reserved":false,"is_disabled":false,"rental_uris":{"android":"levelo://app?vid=0ee6db94-40a6-4bec-8a2f-edbb26ac2aa6","ios":"levelo://app?vid=0ee6db94-40a6-4bec-8a2f-edbb26ac2aa6"},"vehicle_type_id":"4","last_reported":1740827192,"current_range_meters":10000,"station_id":"ce4bhnp2rcd13ifvqgvg","pricing_plan_id":"cebpf4jnsgd1na2vs0mg"},{"bike_id":"c9172822-d763-4466-9125-1849a0f62aed","system_id":"levelo_inurba_marseille","lat":43.2862,"lon":5.35101,"is_reserved":false,"is_disabled":false,"rental_uris":{"android":"levelo://app?vid=c9172822-d763-4466-9125-1849a0f62aed","ios":"levelo://app?vid=c9172822-d763-4466-9125-1849a0f62aed"},"vehicle_type_id":"4","last_reported":1740827192,"current_range_meters":11600,"station_id":"ce4bhch2rcd13ifvqeug","pricing_plan_id":"cebpf4jnsgd1na2vs0mg"},{"bike_id":"64a52384-1876-4a21-8423-3c9c957e525c","system_id":"levelo_inurba_marseille","lat":43.29041,"lon":5.37556,"is_reserved":false,"is_disabled":false,"rental_uris":{"android":"levelo://app?vid=64a52384-1876-4a21-8423-3c9c957e525c","ios":"levelo://app?vid=64a52384-1876-4a21-8423-3c9c957e525c"},"vehicle_type_id":"4","last_reported":1740827192,"current_range_meters":11600,"station_id":"ce4bh692rcd13ifvqe90","pricing_plan_id":"cebpf4jnsgd1na2vs0mg"},{"bike_id":"0cd1f3d5-7700-4ba6-9c6f-5abc80794472","system_id":"levelo_inurba_marseille","lat":43.29535,"lon":5.37493,"is_reserved":false,"is_disabled":false,"rental_uris":{"android":"levelo://app?vid=0cd1f3d5-7700-4ba6-9c6f-5abc80794472","ios":"levelo://app?vid=0cd1f3d5-7700-4ba6-9c6f-5abc80794472"},"vehicle_type_id":"4","last_reported":1740827192,"current_range_meters":12000,"station_id":"ce4bgkp2rcd13ifvqbmg","pricing_plan_id":"cebpf4jnsgd1na2vs0mg"},{"bike_id":"3b5bbd1a-e79b-4f24-8015-6243196169f8","system_id":"levelo_inurba_marseille","lat":43.28027,"lon":5.36949,"is_reserved":false,"is_disabled":false,"rental_uris":{"android":"levelo://app?vid=3b5bbd1a-e79b-4f24-8015-6243196169f8","ios":"levelo://app?vid=3b5bbd1a-e79b-4f24-8015-6243196169f8"},"vehicle_type_id":"4","last_reported":1740827192,"current_range_meters":12000,"station_id":"ce4bha12rcd13ifvqef0","pricing_plan_id":"cebpf4jnsgd1na2vs0mg"},{"bike_id":"1f0adac9-6e3e-4f15-8b49-663e10bb8152","system_id":"levelo_inurba_marseille","lat":43.29685,"lon":5.37284,"is_reserved":false,"is_disabled":false,"rental_uris":{"android":"levelo://app?vid=1f0adac9-6e3e-4f15-8b49-663e10bb8152","ios":"levelo://app?vid=1f0adac9-6e3e-4f15-8b49-663e10bb8152"},"vehicle_type_id":"4","last_reported":1740827192,"current_range_meters":11600,"station_id":"ce4bgk12rcd13ifvqbj0","pricing_plan_id":"cebpf4jnsgd1na2vs0mg"},{"bike_id":"336a4a10-f9f1-45c2-a530-b3491cbcaf3a","system_id":"levelo_inurba_marseille","lat":43.26899,"lon":5.39359,"is_reserved":false,"is_disabled":false,"rental_uris":{"android":"levelo://app?vid=336a4a10-f9f1-45c2-a530-b3491cbcaf3a","ios":"levelo://app?vid=336a4a10-f9f1-45c2-a530-b3491cbcaf3a"},"vehicle_type_id":"4","last_reported":1740827192,"current_range_meters":12000,"station_id":"ce4bhh12rcd13ifvqfg0","pricing_plan_id":"cebpf4jnsgd1na2vs0mg"},{"bike_id":"31c0e24b-42d8-4837-af8d-97c389878bc1","system_id":"levelo_inurba_marseille","lat":43.3042,"lon":5.41288,"is_reserved":false,"is_disabled":false,"rental_uris":{"android":"levelo://app?vid=31c0e24b-42d8-4837-af8d-97c389878bc1","ios":"levelo://app?vid=31c0e24b-42d8-4837-af8d-97c389878bc1"},"vehicle_type_id":"4","last_reported":1740827192,"current_range_meters":12400,"station_id":"ce4bhop2rcd13ifvqh8g","pricing_plan_id":"cebpf4jnsgd1na2vs0mg"},{"bike_id":"43e1e04c-280b-4d54-bbb9-c3921d8e975b","system_id":"levelo_inurba_marseille","lat":43.29265,"lon":5.36847,"is_reserved":false,"is_disabled":false,"rental_uris":{"android":"levelo://app?vid=43e1e04c-280b-4d54-bbb9-c3921d8e975b","ios":"levelo://app?vid=43e1e04c-280b-4d54-bbb9-c3921d8e975b"},"vehicle_type_id":"4","last_reported":1740827192,"current_range_meters":12400,"station_id":"ce4bhbp2rcd13ifvqesg","pricing_plan_id":"cebpf4jnsgd1na2vs0mg"},{"bike_id":"4015c440-7267-44b4-8be2-f4b87cb51aa9","system_id":"levelo_inurba_marseille","lat":43.25577,"lon":5.38228,"is_reserved":false,"is_disabled":false,"rental_uris":{"android":"levelo://app?vid=4015c440-7267-44b4-8be2-f4b87cb51aa9","ios":"levelo://app?vid=4015c440-7267-44b4-8be2-f4b87cb51aa9"},"vehicle_type_id":"4","last_reported":1740827192,"current_range_meters":12400,"station_id":"ce4bhih2rcd13ifvqfs0","pricing_plan_id":"cebpf4jnsgd1na2vs0mg"},{"bike_id":"161d70e9-e213-4bf5-bde1-9c3d7296d89c","system_id":"levelo_inurba_marseille","lat":43.27839,"lon":5.39215,"is_reserved":false,"is_disabled":true,"rental_uris":{"android":"levelo://app?vid=161d70e9-e213-4bf5-bde1-9c3d7296d89c","ios":"levelo://app?vid=161d70e9-e213-4bf5-bde1-9c3d7296d89c"},"vehicle_type_id":"4","last_reported":1740827192,"current_range_meters":12400,"station_id":"ce4bhjp2rcd13ifvqga0","pricing_plan_id":"cebpf4jnsgd1na2vs0mg"},{"bike_id":"8235333d-301f-40af-bcff-249a4ee0b3a0","system_id":"levelo_inurba_marseille","lat":43.29599,"lon":5.38097,"is_reserved":false,"is_disabled":false,"rental_uris":{"android":"levelo://app?vid=8235333d-301f-40af-bcff-249a4ee0b3a0","ios":"levelo://app?vid=8235333d-301f-40af-bcff-249a4ee0b3a0"},"vehicle_type_id":"4","last_reported":1740827192,"current_range_meters":12400,"station_id":"ce4bgl12rcd13ifvqbo0","pricing_plan_id":"cebpf4jnsgd1na2vs0mg"},{"bike_id":"8bb33282-5a35-4582-9cde-e53a3dbdbcc5","system_id":"levelo_inurba_marseille","lat":43.24395,"lon":5.37059,"is_reserved":false,"is_disabled":false,"rental_uris":{"android":"levelo://app?vid=8bb33282-5a35-4582-9cde-e53a3dbdbcc5","ios":"levelo://app?vid=8bb33282-5a35-4582-9cde-e53a3dbdbcc5"},"vehicle_type_id":"4","last_reported":1740827192,"current_range_meters":12400,"station_id":"ce4bhhh2rcd13ifvqfk0","pricing_plan_id":"cebpf4jnsgd1na2vs0mg"},{"bike_id":"0693b9d6-4a9d-4e38-bfa2-80f934bcc2e3","system_id":"levelo_inurba_marseille","lat":43.24163,"lon":5.36419,"is_reserved":false,"is_disabled":false,"rental_uris":{"android":"levelo://app?vid=0693b9d6-4a9d-4e38-bfa2-80f934bcc2e3","ios":"levelo://app?vid=0693b9d6-4a9d-4e38-bfa2-80f934bcc2e3"},"vehicle_type_id":"4","last_reported":1740827192,"current_range_meters":12800,"station_id":"cpo36qri1sfpv3e86is0","pricing_plan_id":"cebpf4jnsgd1na2vs0mg"},{"bike_id":"e336207e-ef63-4a99-9add-aeb4ef9d0ab7","system_id":"levelo_inurba_marseille","lat":43.29306,"lon":5.37162,"is_reserved":false,"is_disabled":false,"rental_uris":{"android":"levelo://app?vid=e336207e-ef63-4a99-9add-aeb4ef9d0ab7","ios":"levelo://app?vid=e336207e-ef63-4a99-9add-aeb4ef9d0ab7"},"vehicle_type_id":"4","last_reported":1740827192,"current_range_meters":12800,"station_id":"ce4bgh92rcd13ifvqb40","pricing_plan_id":"cebpf4jnsgd1na2vs0mg"},{"bike_id":"b67989ee-d469-488f-912d-1aedc6b162c3","system_id":"levelo_inurba_marseille","lat":43.23201,"lon":5.4,"is_reserved":false,"is_disabled":false,"rental_uris":{"android":"levelo://app?vid=b67989ee-d469-488f-912d-1aedc6b162c3","ios":"levelo://app?vid=b67989ee-d469-488f-912d-1aedc6b162c3"},"vehicle_type_id":"4","last_reported":1740827192,"current_range_meters":12800,"station_id":"ce4bhn12rcd13ifvqgqg","pricing_plan_id":"cebpf4jnsgd1na2vs0mg"},{"bike_id":"448318b9-98db-4143-87d2-dabd1ab9c33a","system_id":"levelo_inurba_marseille","lat":43.2784,"lon":5.39215,"is_reserved":false,"is_disabled":false,"rental_uris":{"android":"levelo://app?vid=448318b9-98db-4143-87d2-dabd1ab9c33a","ios":"levelo://app?vid=448318b9-98db-4143-87d2-dabd1ab9c33a"},"vehicle_type_id":"4","last_reported":1740827192,"current_range_meters":13600,"station_id":"ce4bhjp2rcd13ifvqga0","pricing_plan_id":"cebpf4jnsgd1na2vs0mg"},{"bike_id":"2d2a1566-43c7-42d0-ad00-7a00e2903464","system_id":"levelo_inurba_marseille","lat":43.30332,"lon":5.40441,"is_reserved":false,"is_disabled":false,"rental_uris":{"android":"levelo://app?vid=2d2a1566-43c7-42d0-ad00-7a00e2903464","ios":"levelo://app?vid=2d2a1566-43c7-42d0-ad00-7a00e2903464"},"vehicle_type_id":"4","last_reported":1740827192,"current_range_meters":12800,"station_id":"ce4bh012rcd13ifvqd10","pricing_plan_id":"cebpf4jnsgd1na2vs0mg"},{"bike_id":"dce704e8-d235-4d63-a2e3-acccc657079e","system_id":"levelo_inurba_marseille","lat":43.23195,"lon":5.35553,"is_reserved":false,"is_disabled":false,"rental_uris":{"android":"levelo://app?vid=dce704e8-d235-4d63-a2e3-acccc657079e","ios":"levelo://app?vid=dce704e8-d235-4d63-a2e3-acccc657079e"},"vehicle_type_id":"4","last_reported":1740827192,"current_range_meters":13600,"station_id":"ce4bhu92rcd13ifvqi70","pricing_plan_id":"cebpf4jnsgd1na2vs0mg"},{"bike_id":"761546c5-be0c-4342-b24b-2df20a5a6b56","system_id":"levelo_inurba_marseille","lat":43.317612,"lon":5.390175,"is_reserved":false,"is_disabled":false,"rental_uris":{"android":"levelo://app?vid=761546c5-be0c-4342-b24b-2df20a5a6b56","ios":"levelo://app?vid=761546c5-be0c-4342-b24b-2df20a5a6b56"},"vehicle_type_id":"4","last_reported":1740827192,"current_range_meters":14000,"station_id":"ce4bhqp2rcd13ifvqhng","pricing_plan_id":"cebpf4jnsgd1na2vs0mg"},{"bike_id":"5a9df47d-6551-4b87-9367-371612b52570","system_id":"levelo_inurba_marseille","lat":43.29276,"lon":5.36856,"is_reserved":false,"is_disabled":false,"rental_uris":{"android":"levelo://app?vid=5a9df47d-6551-4b87-9367-371612b52570","ios":"levelo://app?vid=5a9df47d-6551-4b87-9367-371612b52570"},"vehicle_type_id":"4","last_reported":1740827192,"current_range_meters":14000,"station_id":"ce4bhbp2rcd13ifvqesg","pricing_plan_id":"cebpf4jnsgd1na2vs0mg"},{"bike_id":"2b368b3d-d962-4c21-9c9d-5bc7c2351d31","system_id":"levelo_inurba_marseille","lat":43.316856,"lon":5.404722,"is_reserved":false,"is_disabled":false,"rental_uris":{"android":"levelo://app?vid=2b368b3d-d962-4c21-9c9d-5bc7c2351d31","ios":"levelo://app?vid=2b368b3d-d962-4c21-9c9d-5bc7c2351d31"},"vehicle_type_id":"4","last_reported":1740827192,"current_range_meters":14000,"station_id":"ce4bh012rcd13ifvqd00","pricing_plan_id":"cebpf4jnsgd1na2vs0mg"},{"bike_id":"e3ea0c82-575d-4f15-b57c-6eebd57f815a","system_id":"levelo_inurba_marseille","lat":43.27304,"lon":5.3911,"is_reserved":false,"is_disabled":true,"rental_uris":{"android":"levelo://app?vid=e3ea0c82-575d-4f15-b57c-6eebd57f815a","ios":"levelo://app?vid=e3ea0c82-575d-4f15-b57c-6eebd57f815a"},"vehicle_type_id":"4","last_reported":1740827192,"current_range_meters":14000,"station_id":"ce4bhgp2rcd13ifvqfe0","pricing_plan_id":"cebpf4jnsgd1na2vs0mg"},{"bike_id":"24db149f-1618-42c4-af45-9cda7f46d94c","system_id":"levelo_inurba_marseille","lat":43.27055,"lon":5.42192,"is_reserved":false,"is_disabled":false,"rental_uris":{"android":"levelo://app?vid=24db149f-1618-42c4-af45-9cda7f46d94c","ios":"levelo://app?vid=24db149f-1618-42c4-af45-9cda7f46d94c"},"vehicle_type_id":"4","last_reported":1740827192,"current_range_meters":14000,"station_id":"ce4bhk92rcd13ifvqgb0","pricing_plan_id":"cebpf4jnsgd1na2vs0mg"},{"bike_id":"9e70006a-cdf2-4919-93a2-3c66955a3b59","system_id":"levelo_inurba_marseille","lat":43.32367,"lon":5.3673,"is_reserved":false,"is_disabled":false,"rental_uris":{"android":"levelo://app?vid=9e70006a-cdf2-4919-93a2-3c66955a3b59","ios":"levelo://app?vid=9e70006a-cdf2-4919-93a2-3c66955a3b59"},"vehicle_type_id":"4","last_reported":1740827192,"current_range_meters":14000,"station_id":"ce4bhsh2rcd13ifvqi2g","pricing_plan_id":"cebpf4jnsgd1na2vs0mg"},{"bike_id":"1a27de99-7654-4320-b418-8476d0ca8026","system_id":"levelo_inurba_marseille","lat":43.29029,"lon":5.3757,"is_reserved":false,"is_disabled":false,"rental_uris":{"android":"levelo://app?vid=1a27de99-7654-4320-b418-8476d0ca8026","ios":"levelo://app?vid=1a27de99-7654-4320-b418-8476d0ca8026"},"vehicle_type_id":"4","last_reported":1740827192,"current_range_meters":13600,"station_id":"ce4bh692rcd13ifvqe90","pricing_plan_id":"cebpf4jnsgd1na2vs0mg"},{"bike_id":"04930371-b277-4c06-b7c0-dd35a3a17321","system_id":"levelo_inurba_marseille","lat":43.29412,"lon":5.38626,"is_reserved":false,"is_disabled":false,"rental_uris":{"android":"levelo://app?vid=04930371-b277-4c06-b7c0-dd35a3a17321","ios":"levelo://app?vid=04930371-b277-4c06-b7c0-dd35a3a17321"},"vehicle_type_id":"4","last_reported":1740827192,"current_range_meters":14400,"station_id":"ce4bh2h2rcd13ifvqdh0","pricing_plan_id":"cebpf4jnsgd1na2vs0mg"},{"bike_id":"5d362282-658f-435c-a578-3a43f2b65d8d","system_id":"levelo_inurba_marseille","lat":43.25501,"lon":5.37645,"is_reserved":false,"is_disabled":false,"rental_uris":{"android":"levelo://app?vid=5d362282-658f-435c-a578-3a43f2b65d8d","ios":"levelo://app?vid=5d362282-658f-435c-a578-3a43f2b65d8d"},"vehicle_type_id":"4","last_reported":1740827192,"current_range_meters":14400,"station_id":"ce4bhh12rcd13ifvqff0","pricing_plan_id":"cebpf4jnsgd1na2vs0mg"},{"bike_id":"16d8644e-dd9d-40e6-a435-c41717f063c3","system_id":"levelo_inurba_marseille","lat":43.29697,"lon":5.3661,"is_reserved":false,"is_disabled":false,"rental_uris":{"android":"levelo://app?vid=16d8644e-dd9d-40e6-a435-c41717f063c3","ios":"levelo://app?vid=16d8644e-dd9d-40e6-a435-c41717f063c3"},"vehicle_type_id":"4","last_reported":1740827192,"current_range_meters":14400,"station_id":"ce4bgn12rcd13ifvqbt0","pricing_plan_id":"cebpf4jnsgd1na2vs0mg"},{"bike_id":"03dc8bb6-23a5-4dfa-bad6-d6821f116de0","system_id":"levelo_inurba_marseille","lat":43.29608,"lon":5.37721,"is_reserved":false,"is_disabled":false,"rental_uris":{"android":"levelo://app?vid=03dc8bb6-23a5-4dfa-bad6-d6821f116de0","ios":"levelo://app?vid=03dc8bb6-23a5-4dfa-bad6-d6821f116de0"},"vehicle_type_id":"4","last_reported":1740827192,"current_range_meters":14400,"station_id":"ce4bgi92rcd13ifvqb90","pricing_plan_id":"cebpf4jnsgd1na2vs0mg"},{"bike_id":"25c32c50-c063-4eec-b4e6-d2ef5866ed78","system_id":"levelo_inurba_marseille","lat":43.28047,"lon":5.36953,"is_reserved":false,"is_disabled":false,"rental_uris":{"android":"levelo://app?vid=25c32c50-c063-4eec-b4e6-d2ef5866ed78","ios":"levelo://app?vid=25c32c50-c063-4eec-b4e6-d2ef5866ed78"},"vehicle_type_id":"4","last_reported":1740827192,"current_range_meters":14400,"station_id":"ce4bha12rcd13ifvqef0","pricing_plan_id":"cebpf4jnsgd1na2vs0mg"},{"bike_id":"3d326c83-df55-456d-a39d-f1c118f8a994","system_id":"levelo_inurba_marseille","lat":43.30227,"lon":5.40011,"is_reserved":false,"is_disabled":true,"rental_uris":{"android":"levelo://app?vid=3d326c83-df55-456d-a39d-f1c118f8a994","ios":"levelo://app?vid=3d326c83-df55-456d-a39d-f1c118f8a994"},"vehicle_type_id":"4","last_reported":1740827192,"current_range_meters":14400,"station_id":"ce4bgvh2rcd13ifvqcs0","pricing_plan_id":"cebpf4jnsgd1na2vs0mg"},{"bike_id":"2600a970-5a76-4566-bb24-3acbf95ce132","system_id":"levelo_inurba_marseille","lat":43.25122,"lon":5.40313,"is_reserved":false,"is_disabled":false,"rental_uris":{"android":"levelo://app?vid=2600a970-5a76-4566-bb24-3acbf95ce132","ios":"levelo://app?vid=2600a970-5a76-4566-bb24-3acbf95ce132"},"vehicle_type_id":"4","last_reported":1740827192,"current_range_meters":14800,"station_id":"ce4bhlh2rcd13ifvqgig","pricing_plan_id":"cebpf4jnsgd1na2vs0mg"},{"bike_id":"ecbb76ac-7ebb-44bc-9013-4d2999728a0e","system_id":"levelo_inurba_marseille","lat":43.29533,"lon":5.39397,"is_reserved":false,"is_disabled":false,"rental_uris":{"android":"levelo://app?vid=ecbb76ac-7ebb-44bc-9013-4d2999728a0e","ios":"levelo://app?vid=ecbb76ac-7ebb-44bc-9013-4d2999728a0e"},"vehicle_type_id":"4","last_reported":1740827192,"current_range_meters":14400,"station_id":"ce4bh292rcd13ifvqdf0","pricing_plan_id":"cebpf4jnsgd1na2vs0mg"},{"bike_id":"b0613a5e-2ddb-47a4-bf10-91291a46869d","system_id":"levelo_inurba_marseille","lat":43.29808,"lon":5.38078,"is_reserved":false,"is_disabled":false,"rental_uris":{"android":"levelo://app?vid=b0613a5e-2ddb-47a4-bf10-91291a46869d","ios":"levelo://app?vid=b0613a5e-2ddb-47a4-bf10-91291a46869d"},"vehicle_type_id":"4","last_reported":1740827192,"current_range_meters":14800,"station_id":"ce4bgip2rcd13ifvqbb0","pricing_plan_id":"cebpf4jnsgd1na2vs0mg"},{"bike_id":"f7bc7081-0b8f-4bad-a8c7-1cfce583294a","system_id":"levelo_inurba_marseille","lat":43.31336,"lon":5.39691,"is_reserved":false,"is_disabled":false,"rental_uris":{"android":"levelo://app?vid=f7bc7081-0b8f-4bad-a8c7-1cfce583294a","ios":"levelo://app?vid=f7bc7081-0b8f-4bad-a8c7-1cfce583294a"},"vehicle_type_id":"4","last_reported":1740827192,"current_range_meters":14800,"station_id":"ce4bgvp2rcd13ifvqcu0","pricing_plan_id":"cebpf4jnsgd1na2vs0mg"},{"bike_id":"08a2d3ad-f2dd-4493-8549-3d6141caf513","system_id":"levelo_inurba_marseille","lat":43.29307,"lon":5.3717,"is_reserved":false,"is_disabled":false,"rental_uris":{"android":"levelo://app?vid=08a2d3ad-f2dd-4493-8549-3d6141caf513","ios":"levelo://app?vid=08a2d3ad-f2dd-4493-8549-3d6141caf513"},"vehicle_type_id":"4","last_reported":1740827192,"current_range_meters":15200,"station_id":"ce4bgh92rcd13ifvqb40","pricing_plan_id":"cebpf4jnsgd1na2vs0mg"},{"bike_id":"f5d3ac68-6969-41d5-bc29-93594324e7ab","system_id":"levelo_inurba_marseille","lat":43.29222,"lon":5.39563,"is_reserved":false,"is_disabled":false,"rental_uris":{"android":"levelo://app?vid=f5d3ac68-6969-41d5-bc29-93594324e7ab","ios":"levelo://app?vid=f5d3ac68-6969-41d5-bc29-93594324e7ab"},"vehicle_type_id":"4","last_reported":1740827192,"current_range_meters":15200,"station_id":"","pricing_plan_id":"cebpf4jnsgd1na2vs0mg"},{"bike_id":"57cd94f2-e7d7-48fa-948e-308f17077047","system_id":"levelo_inurba_marseille","lat":43.29093,"lon":5.38128,"is_reserved":false,"is_disabled":false,"rental_uris":{"android":"levelo://app?vid=57cd94f2-e7d7-48fa-948e-308f17077047","ios":"levelo://app?vid=57cd94f2-e7d7-48fa-948e-308f17077047"},"vehicle_type_id":"4","last_reported":1740827192,"current_range_meters":14800,"station_id":"ce4bh512rcd13ifvqe2g","pricing_plan_id":"cebpf4jnsgd1na2vs0mg"},{"bike_id":"351063c0-6813-4169-9437-dca02fe04a30","system_id":"levelo_inurba_marseille","lat":43.32373,"lon":5.38882,"is_reserved":false,"is_disabled":false,"rental_uris":{"android":"levelo://app?vid=351063c0-6813-4169-9437-dca02fe04a30","ios":"levelo://app?vid=351063c0-6813-4169-9437-dca02fe04a30"},"vehicle_type_id":"4","last_reported":1740827192,"current_range_meters":15200,"station_id":"ce4bhqp2rcd13ifvqhog","pricing_plan_id":"cebpf4jnsgd1na2vs0mg"},{"bike_id":"922879e2-d5c1-4e33-9200-89123eb4fac1","system_id":"levelo_inurba_marseille","lat":43.34155,"lon":5.40897,"is_reserved":false,"is_disabled":false,"rental_uris":{"android":"levelo://app?vid=922879e2-d5c1-4e33-9200-89123eb4fac1","ios":"levelo://app?vid=922879e2-d5c1-4e33-9200-89123eb4fac1"},"vehicle_type_id":"4","last_reported":1740827192,"current_range_meters":15200,"station_id":"ce4bhqh2rcd13ifvqhlg","pricing_plan_id":"cebpf4jnsgd1na2vs0mg"},{"bike_id":"4c8811a4-c1ee-48e5-bb0a-2d1c195d8f19","system_id":"levelo_inurba_marseille","lat":43.3017,"lon":5.38091,"is_reserved":false,"is_disabled":false,"rental_uris":{"android":"levelo://app?vid=4c8811a4-c1ee-48e5-bb0a-2d1c195d8f19","ios":"levelo://app?vid=4c8811a4-c1ee-48e5-bb0a-2d1c195d8f19"},"vehicle_type_id":"4","last_reported":1740827192,"current_range_meters":16000,"station_id":"ce4bgjp2rcd13ifvqbh0","pricing_plan_id":"cebpf4jnsgd1na2vs0mg"},{"bike_id":"f4982309-5f3b-4415-94b1-3c0c89a0d672","system_id":"levelo_inurba_marseille","lat":43.26806,"lon":5.4066,"is_reserved":false,"is_disabled":false,"rental_uris":{"android":"levelo://app?vid=f4982309-5f3b-4415-94b1-3c0c89a0d672","ios":"levelo://app?vid=f4982309-5f3b-4415-94b1-3c0c89a0d672"},"vehicle_type_id":"4","last_reported":1740827192,"current_range_meters":16000,"station_id":"","pricing_plan_id":"cebpf4jnsgd1na2vs0mg"},{"bike_id":"8417a675-6aa8-4e9c-be43-b203d4114e2c","system_id":"levelo_inurba_marseille","lat":43.31334,"lon":5.39681,"is_reserved":false,"is_disabled":false,"rental_uris":{"android":"levelo://app?vid=8417a675-6aa8-4e9c-be43-b203d4114e2c","ios":"levelo://app?vid=8417a675-6aa8-4e9c-be43-b203d4114e2c"},"vehicle_type_id":"4","last_reported":1740827192,"current_range_meters":16000,"station_id":"ce4bgvp2rcd13ifvqcu0","pricing_plan_id":"cebpf4jnsgd1na2vs0mg"},{"bike_id":"f2dbb5c1-85bd-4932-a486-f12d2a4aba79","system_id":"levelo_inurba_marseille","lat":43.2793,"lon":5.396,"is_reserved":false,"is_disabled":false,"rental_uris":{"android":"levelo://app?vid=f2dbb5c1-85bd-4932-a486-f12d2a4aba79","ios":"levelo://app?vid=f2dbb5c1-85bd-4932-a486-f12d2a4aba79"},"vehicle_type_id":"4","last_reported":1740827192,"current_range_meters":16000,"station_id":"ce4bhf92rcd13ifvqf40","pricing_plan_id":"cebpf4jnsgd1na2vs0mg"},{"bike_id":"e0a413a7-bc6b-4647-8e86-c0926ac098ec","system_id":"levelo_inurba_marseille","lat":43.29284,"lon":5.36844,"is_reserved":false,"is_disabled":false,"rental_uris":{"android":"levelo://app?vid=e0a413a7-bc6b-4647-8e86-c0926ac098ec","ios":"levelo://app?vid=e0a413a7-bc6b-4647-8e86-c0926ac098ec"},"vehicle_type_id":"4","last_reported":1740827192,"current_range_meters":16000,"station_id":"ce4bhbp2rcd13ifvqesg","pricing_plan_id":"cebpf4jnsgd1na2vs0mg"},{"bike_id":"27d57ba8-cb2b-4da3-bcfc-1efd3956d0fa","system_id":"levelo_inurba_marseille","lat":43.29566,"lon":5.42283,"is_reserved":false,"is_disabled":false,"rental_uris":{"android":"levelo://app?vid=27d57ba8-cb2b-4da3-bcfc-1efd3956d0fa","ios":"levelo://app?vid=27d57ba8-cb2b-4da3-bcfc-1efd3956d0fa"},"vehicle_type_id":"4","last_reported":1740827192,"current_range_meters":16400,"station_id":"ce4bhph2rcd13ifvqhdg","pricing_plan_id":"cebpf4jnsgd1na2vs0mg"},{"bike_id":"0b59b9c1-ba87-4c20-8d7f-cddd7ccc8fa2","system_id":"levelo_inurba_marseille","lat":43.32373,"lon":5.38886,"is_reserved":false,"is_disabled":false,"rental_uris":{"android":"levelo://app?vid=0b59b9c1-ba87-4c20-8d7f-cddd7ccc8fa2","ios":"levelo://app?vid=0b59b9c1-ba87-4c20-8d7f-cddd7ccc8fa2"},"vehicle_type_id":"4","last_reported":1740827192,"current_range_meters":16400,"station_id":"ce4bhqp2rcd13ifvqhog","pricing_plan_id":"cebpf4jnsgd1na2vs0mg"},{"bike_id":"f1317508-b318-42b3-b6cc-485d3729a439","system_id":"levelo_inurba_marseille","lat":43.26218,"lon":5.3791,"is_reserved":false,"is_disabled":true,"rental_uris":{"android":"levelo://app?vid=f1317508-b318-42b3-b6cc-485d3729a439","ios":"levelo://app?vid=f1317508-b318-42b3-b6cc-485d3729a439"},"vehicle_type_id":"4","last_reported":1740827192,"current_range_meters":16400,"station_id":"ce4bhjp2rcd13ifvqg90","pricing_plan_id":"cebpf4jnsgd1na2vs0mg"},{"bike_id":"2dd68813-08a7-407d-8a25-72616c0d15ea","system_id":"levelo_inurba_marseille","lat":43.28271,"lon":5.35057,"is_reserved":false,"is_disabled":false,"rental_uris":{"android":"levelo://app?vid=2dd68813-08a7-407d-8a25-72616c0d15ea","ios":"levelo://app?vid=2dd68813-08a7-407d-8a25-72616c0d15ea"},"vehicle_type_id":"4","last_reported":1740827192,"current_range_meters":16400,"station_id":"ce4bhbp2rcd13ifvqerg","pricing_plan_id":"cebpf4jnsgd1na2vs0mg"},{"bike_id":"20d46fcb-4529-4896-b225-392c7b6d1f52","system_id":"levelo_inurba_marseille","lat":43.292188,"lon":5.393148,"is_reserved":false,"is_disabled":true,"rental_uris":{"android":"levelo://app?vid=20d46fcb-4529-4896-b225-392c7b6d1f52","ios":"levelo://app?vid=20d46fcb-4529-4896-b225-392c7b6d1f52"},"vehicle_type_id":"4","last_reported":1740827192,"current_range_meters":16400,"station_id":"ce4bh192rcd13ifvqdd0","pricing_plan_id":"cebpf4jnsgd1na2vs0mg"},{"bike_id":"3eea0f89-b137-40d9-a4fd-d1c6a11e78cf","system_id":"levelo_inurba_marseille","lat":43.25592,"lon":5.38255,"is_reserved":false,"is_disabled":true,"rental_uris":{"android":"levelo://app?vid=3eea0f89-b137-40d9-a4fd-d1c6a11e78cf","ios":"levelo://app?vid=3eea0f89-b137-40d9-a4fd-d1c6a11e78cf"},"vehicle_type_id":"4","last_reported":1740827192,"current_range_meters":16400,"station_id":"ce4bhih2rcd13ifvqfs0","pricing_plan_id":"cebpf4jnsgd1na2vs0mg"},{"bike_id":"50449b4c-79df-46b6-aedd-7daec86f551c","system_id":"levelo_inurba_marseille","lat":43.25524,"lon":5.37647,"is_reserved":false,"is_disabled":false,"rental_uris":{"android":"levelo://app?vid=50449b4c-79df-46b6-aedd-7daec86f551c","ios":"levelo://app?vid=50449b4c-79df-46b6-aedd-7daec86f551c"},"vehicle_type_id":"4","last_reported":1740827192,"current_range_meters":16400,"station_id":"ce4bhh12rcd13ifvqff0","pricing_plan_id":"cebpf4jnsgd1na2vs0mg"},{"bike_id":"66980c40-7bad-4fb6-b8fc-b21d438921ec","system_id":"levelo_inurba_marseille","lat":43.29083,"lon":5.3814,"is_reserved":false,"is_disabled":false,"rental_uris":{"android":"levelo://app?vid=66980c40-7bad-4fb6-b8fc-b21d438921ec","ios":"levelo://app?vid=66980c40-7bad-4fb6-b8fc-b21d438921ec"},"vehicle_type_id":"4","last_reported":1740827192,"current_range_meters":16400,"station_id":"ce4bh512rcd13ifvqe2g","pricing_plan_id":"cebpf4jnsgd1na2vs0mg"},{"bike_id":"947cfbd8-f780-40ed-b425-ca551a5b9765","system_id":"levelo_inurba_marseille","lat":43.30163,"lon":5.38099,"is_reserved":false,"is_disabled":false,"rental_uris":{"android":"levelo://app?vid=947cfbd8-f780-40ed-b425-ca551a5b9765","ios":"levelo://app?vid=947cfbd8-f780-40ed-b425-ca551a5b9765"},"vehicle_type_id":"4","last_reported":1740827192,"current_range_meters":16400,"station_id":"ce4bgjp2rcd13ifvqbh0","pricing_plan_id":"cebpf4jnsgd1na2vs0mg"},{"bike_id":"8e2e440c-aed6-483c-8997-6d9bf11f0e15","system_id":"levelo_inurba_marseille","lat":43.28943,"lon":5.36609,"is_reserved":false,"is_disabled":false,"rental_uris":{"android":"levelo://app?vid=8e2e440c-aed6-483c-8997-6d9bf11f0e15","ios":"levelo://app?vid=8e2e440c-aed6-483c-8997-6d9bf11f0e15"},"vehicle_type_id":"4","last_reported":1740827192,"current_range_meters":16400,"station_id":"ce4bhap2rcd13ifvqek0","pricing_plan_id":"cebpf4jnsgd1na2vs0mg"},{"bike_id":"218457ac-5064-4483-b256-7af7da02f0cd","system_id":"levelo_inurba_marseille","lat":43.27982,"lon":5.38694,"is_reserved":false,"is_disabled":true,"rental_uris":{"android":"levelo://app?vid=218457ac-5064-4483-b256-7af7da02f0cd","ios":"levelo://app?vid=218457ac-5064-4483-b256-7af7da02f0cd"},"vehicle_type_id":"4","last_reported":1740827192,"current_range_meters":16400,"station_id":"ce4bhg12rcd13ifvqf80","pricing_plan_id":"cebpf4jnsgd1na2vs0mg"},{"bike_id":"895c57aa-0d8d-4724-83d6-d193b8c6eaa0","system_id":"levelo_inurba_marseille","lat":43.26208,"lon":5.37899,"is_reserved":false,"is_disabled":false,"rental_uris":{"android":"levelo://app?vid=895c57aa-0d8d-4724-83d6-d193b8c6eaa0","ios":"levelo://app?vid=895c57aa-0d8d-4724-83d6-d193b8c6eaa0"},"vehicle_type_id":"4","last_reported":1740827192,"current_range_meters":16000,"station_id":"ce4bhjp2rcd13ifvqg90","pricing_plan_id":"cebpf4jnsgd1na2vs0mg"},{"bike_id":"56fd48ea-c1d2-4f38-bf8e-16eb3f61656f","system_id":"levelo_inurba_marseille","lat":43.23196,"lon":5.35561,"is_reserved":false,"is_disabled":false,"rental_uris":{"android":"levelo://app?vid=56fd48ea-c1d2-4f38-bf8e-16eb3f61656f","ios":"levelo://app?vid=56fd48ea-c1d2-4f38-bf8e-16eb3f61656f"},"vehicle_type_id":"4","last_reported":1740827192,"current_range_meters":16800,"station_id":"ce4bhu92rcd13ifvqi70","pricing_plan_id":"cebpf4jnsgd1na2vs0mg"},{"bike_id":"a0568a2d-5744-4393-a769-f8a4199ff590","system_id":"levelo_inurba_marseille","lat":43.29297,"lon":5.37182,"is_reserved":false,"is_disabled":false,"rental_uris":{"android":"levelo://app?vid=a0568a2d-5744-4393-a769-f8a4199ff590","ios":"levelo://app?vid=a0568a2d-5744-4393-a769-f8a4199ff590"},"vehicle_type_id":"4","last_reported":1740827192,"current_range_meters":16800,"station_id":"ce4bgh92rcd13ifvqb40","pricing_plan_id":"cebpf4jnsgd1na2vs0mg"},{"bike_id":"3c9c0075-b84d-4e50-a615-a30a2c197679","system_id":"levelo_inurba_marseille","lat":43.30465,"lon":5.37901,"is_reserved":false,"is_disabled":false,"rental_uris":{"android":"levelo://app?vid=3c9c0075-b84d-4e50-a615-a30a2c197679","ios":"levelo://app?vid=3c9c0075-b84d-4e50-a615-a30a2c197679"},"vehicle_type_id":"4","last_reported":1740827192,"current_range_meters":16800,"station_id":"ce4bgup2rcd13ifvqcn0","pricing_plan_id":"cebpf4jnsgd1na2vs0mg"},{"bike_id":"3f2f96c3-5710-4971-97b4-dc282a73af3d","system_id":"levelo_inurba_marseille","lat":43.251086,"lon":5.403222,"is_reserved":false,"is_disabled":false,"rental_uris":{"android":"levelo://app?vid=3f2f96c3-5710-4971-97b4-dc282a73af3d","ios":"levelo://app?vid=3f2f96c3-5710-4971-97b4-dc282a73af3d"},"vehicle_type_id":"4","last_reported":1740827192,"current_range_meters":16400,"station_id":"ce4bhlh2rcd13ifvqgig","pricing_plan_id":"cebpf4jnsgd1na2vs0mg"},{"bike_id":"eb353dc0-7506-4174-935e-315256184a7f","system_id":"levelo_inurba_marseille","lat":43.23192,"lon":5.35554,"is_reserved":false,"is_disabled":false,"rental_uris":{"android":"levelo://app?vid=eb353dc0-7506-4174-935e-315256184a7f","ios":"levelo://app?vid=eb353dc0-7506-4174-935e-315256184a7f"},"vehicle_type_id":"4","last_reported":1740827192,"current_range_meters":16800,"station_id":"ce4bhu92rcd13ifvqi70","pricing_plan_id":"cebpf4jnsgd1na2vs0mg"},{"bike_id":"97660e11-152b-48a1-9b57-8ac6abeca229","system_id":"levelo_inurba_marseille","lat":43.29899,"lon":5.43639,"is_reserved":false,"is_disabled":false,"rental_uris":{"android":"levelo://app?vid=97660e11-152b-48a1-9b57-8ac6abeca229","ios":"levelo://app?vid=97660e11-152b-48a1-9b57-8ac6abeca229"},"vehicle_type_id":"4","last_reported":1740827192,"current_range_meters":17200,"station_id":"ce4bhpp2rcd13ifvqhfg","pricing_plan_id":"cebpf4jnsgd1na2vs0mg"},{"bike_id":"cfb78254-0f82-46b0-9a2c-ac71fa0123cd","system_id":"levelo_inurba_marseille","lat":43.29284,"lon":5.37461,"is_reserved":false,"is_disabled":false,"rental_uris":{"android":"levelo://app?vid=cfb78254-0f82-46b0-9a2c-ac71fa0123cd","ios":"levelo://app?vid=cfb78254-0f82-46b0-9a2c-ac71fa0123cd"},"vehicle_type_id":"4","last_reported":1740827192,"current_range_meters":17200,"station_id":"ce4bgi12rcd13ifvqb70","pricing_plan_id":"cebpf4jnsgd1na2vs0mg"},{"bike_id":"06a327a1-28e5-45c3-8c7b-dfa85d83f105","system_id":"levelo_inurba_marseille","lat":43.3026,"lon":5.40046,"is_reserved":false,"is_disabled":false,"rental_uris":{"android":"levelo://app?vid=06a327a1-28e5-45c3-8c7b-dfa85d83f105","ios":"levelo://app?vid=06a327a1-28e5-45c3-8c7b-dfa85d83f105"},"vehicle_type_id":"4","last_reported":1740827192,"current_range_meters":16800,"station_id":"ce4bgvh2rcd13ifvqcs0","pricing_plan_id":"cebpf4jnsgd1na2vs0mg"},{"bike_id":"b6b4c9df-0093-4c48-82f9-d5e0e2b312fa","system_id":"levelo_inurba_marseille","lat":43.30162,"lon":5.38083,"is_reserved":false,"is_disabled":false,"rental_uris":{"android":"levelo://app?vid=b6b4c9df-0093-4c48-82f9-d5e0e2b312fa","ios":"levelo://app?vid=b6b4c9df-0093-4c48-82f9-d5e0e2b312fa"},"vehicle_type_id":"4","last_reported":1740827192,"current_range_meters":17200,"station_id":"ce4bgjp2rcd13ifvqbh0","pricing_plan_id":"cebpf4jnsgd1na2vs0mg"},{"bike_id":"c2c2f815-28b2-4a1b-b40b-275c0696e90a","system_id":"levelo_inurba_marseille","lat":43.29142,"lon":5.38484,"is_reserved":false,"is_disabled":false,"rental_uris":{"android":"levelo://app?vid=c2c2f815-28b2-4a1b-b40b-275c0696e90a","ios":"levelo://app?vid=c2c2f815-28b2-4a1b-b40b-275c0696e90a"},"vehicle_type_id":"4","last_reported":1740827192,"current_range_meters":17200,"station_id":"ce4bh692rcd13ifvqea0","pricing_plan_id":"cebpf4jnsgd1na2vs0mg"},{"bike_id":"085a512d-7365-4851-b61e-62ef4a947266","system_id":"levelo_inurba_marseille","lat":43.305372,"lon":5.365254,"is_reserved":false,"is_disabled":false,"rental_uris":{"android":"levelo://app?vid=085a512d-7365-4851-b61e-62ef4a947266","ios":"levelo://app?vid=085a512d-7365-4851-b61e-62ef4a947266"},"vehicle_type_id":"4","last_reported":1740827192,"current_range_meters":16800,"station_id":"ce4bgk12rcd13ifvqbj0","pricing_plan_id":"cebpf4jnsgd1na2vs0mg"},{"bike_id":"856a589d-61e4-4cdd-acda-37c85f357e2d","system_id":"levelo_inurba_marseille","lat":43.27818,"lon":5.40714,"is_reserved":false,"is_disabled":false,"rental_uris":{"android":"levelo://app?vid=856a589d-61e4-4cdd-acda-37c85f357e2d","ios":"levelo://app?vid=856a589d-61e4-4cdd-acda-37c85f357e2d"},"vehicle_type_id":"4","last_reported":1740827192,"current_range_meters":17200,"station_id":"ce4bhnh2rcd13ifvqgtg","pricing_plan_id":"cebpf4jnsgd1na2vs0mg"},{"bike_id":"6a01dde0-7c36-4ea3-b193-84ede9ad8399","system_id":"levelo_inurba_marseille","lat":43.30427,"lon":5.41275,"is_reserved":false,"is_disabled":false,"rental_uris":{"android":"levelo://app?vid=6a01dde0-7c36-4ea3-b193-84ede9ad8399","ios":"levelo://app?vid=6a01dde0-7c36-4ea3-b193-84ede9ad8399"},"vehicle_type_id":"4","last_reported":1740827192,"current_range_meters":17200,"station_id":"ce4bhop2rcd13ifvqh8g","pricing_plan_id":"cebpf4jnsgd1na2vs0mg"},{"bike_id":"4e15fbf6-9669-4e1c-9f31-8a89a8968d53","system_id":"levelo_inurba_marseille","lat":43.24116,"lon":5.36347,"is_reserved":false,"is_disabled":false,"rental_uris":{"android":"levelo://app?vid=4e15fbf6-9669-4e1c-9f31-8a89a8968d53","ios":"levelo://app?vid=4e15fbf6-9669-4e1c-9f31-8a89a8968d53"},"vehicle_type_id":"4","last_reported":1740827192,"current_range_meters":17200,"station_id":"cpo36qri1sfpv3e86is0","pricing_plan_id":"cebpf4jnsgd1na2vs0mg"},{"bike_id":"57f998d1-4c6c-4016-bb6c-e464f5b85506","system_id":"levelo_inurba_marseille","lat":43.31715,"lon":5.43708,"is_reserved":false,"is_disabled":false,"rental_uris":{"android":"levelo://app?vid=57f998d1-4c6c-4016-bb6c-e464f5b85506","ios":"levelo://app?vid=57f998d1-4c6c-4016-bb6c-e464f5b85506"},"vehicle_type_id":"4","last_reported":1740827192,"current_range_meters":17600,"station_id":"ce4bhp92rcd13ifvqhcg","pricing_plan_id":"cebpf4jnsgd1na2vs0mg"},{"bike_id":"ae07f147-26ae-41a1-8aee-2851f6dcc9df","system_id":"levelo_inurba_marseille","lat":43.28128,"lon":5.39851,"is_reserved":false,"is_disabled":false,"rental_uris":{"android":"levelo://app?vid=ae07f147-26ae-41a1-8aee-2851f6dcc9df","ios":"levelo://app?vid=ae07f147-26ae-41a1-8aee-2851f6dcc9df"},"vehicle_type_id":"4","last_reported":1740827192,"current_range_meters":17600,"station_id":"","pricing_plan_id":"cebpf4jnsgd1na2vs0mg"},{"bike_id":"8697e25a-4448-457c-808e-873d5b0f5429","system_id":"levelo_inurba_marseille","lat":43.23966,"lon":5.36637,"is_reserved":false,"is_disabled":false,"rental_uris":{"android":"levelo://app?vid=8697e25a-4448-457c-808e-873d5b0f5429","ios":"levelo://app?vid=8697e25a-4448-457c-808e-873d5b0f5429"},"vehicle_type_id":"4","last_reported":1740827192,"current_range_meters":17600,"station_id":"ce4bhi12rcd13ifvqfp0","pricing_plan_id":"cebpf4jnsgd1na2vs0mg"},{"bike_id":"0346664d-0911-4a07-be9c-bff2492bda73","system_id":"levelo_inurba_marseille","lat":43.29304,"lon":5.37457,"is_reserved":false,"is_disabled":false,"rental_uris":{"android":"levelo://app?vid=0346664d-0911-4a07-be9c-bff2492bda73","ios":"levelo://app?vid=0346664d-0911-4a07-be9c-bff2492bda73"},"vehicle_type_id":"4","last_reported":1740827192,"current_range_meters":17600,"station_id":"ce4bgi12rcd13ifvqb70","pricing_plan_id":"cebpf4jnsgd1na2vs0mg"},{"bike_id":"75d4d351-b30b-4934-90b2-eab562536152","system_id":"levelo_inurba_marseille","lat":43.2964,"lon":5.40648,"is_reserved":false,"is_disabled":false,"rental_uris":{"android":"levelo://app?vid=75d4d351-b30b-4934-90b2-eab562536152","ios":"levelo://app?vid=75d4d351-b30b-4934-90b2-eab562536152"},"vehicle_type_id":"4","last_reported":1740827192,"current_range_meters":17600,"station_id":"ce4bh0h2rcd13ifvqd60","pricing_plan_id":"cebpf4jnsgd1na2vs0mg"},{"bike_id":"3d3e1218-9db2-47a8-a44c-42be77ca5680","system_id":"levelo_inurba_marseille","lat":43.292763,"lon":5.368491,"is_reserved":false,"is_disabled":false,"rental_uris":{"android":"levelo://app?vid=3d3e1218-9db2-47a8-a44c-42be77ca5680","ios":"levelo://app?vid=3d3e1218-9db2-47a8-a44c-42be77ca5680"},"vehicle_type_id":"4","last_reported":1740827192,"current_range_meters":17600,"station_id":"ce4bhbp2rcd13ifvqesg","pricing_plan_id":"cebpf4jnsgd1na2vs0mg"},{"bike_id":"0e2602db-c633-4caf-8a69-92b4f0c47fe9","system_id":"levelo_inurba_marseille","lat":43.30577,"lon":5.36723,"is_reserved":false,"is_disabled":false,"rental_uris":{"android":"levelo://app?vid=0e2602db-c633-4caf-8a69-92b4f0c47fe9","ios":"levelo://app?vid=0e2602db-c633-4caf-8a69-92b4f0c47fe9"},"vehicle_type_id":"4","last_reported":1740827192,"current_range_meters":17200,"station_id":"ce4bgrp2rcd13ifvqc9g","pricing_plan_id":"cebpf4jnsgd1na2vs0mg"},{"bike_id":"258ac51d-c948-46e0-a38d-b9db8931c47f","system_id":"levelo_inurba_marseille","lat":43.27555,"lon":5.38431,"is_reserved":false,"is_disabled":false,"rental_uris":{"android":"levelo://app?vid=258ac51d-c948-46e0-a38d-b9db8931c47f","ios":"levelo://app?vid=258ac51d-c948-46e0-a38d-b9db8931c47f"},"vehicle_type_id":"4","last_reported":1740827192,"current_range_meters":18000,"station_id":"ce4bhh92rcd13ifvqfi0","pricing_plan_id":"cebpf4jnsgd1na2vs0mg"},{"bike_id":"3c9c65ff-a2a8-4c52-a6f4-62bcc77556ef","system_id":"levelo_inurba_marseille","lat":43.24166,"lon":5.36433,"is_reserved":false,"is_disabled":false,"rental_uris":{"android":"levelo://app?vid=3c9c65ff-a2a8-4c52-a6f4-62bcc77556ef","ios":"levelo://app?vid=3c9c65ff-a2a8-4c52-a6f4-62bcc77556ef"},"vehicle_type_id":"4","last_reported":1740827192,"current_range_meters":17600,"station_id":"cpo36qri1sfpv3e86is0","pricing_plan_id":"cebpf4jnsgd1na2vs0mg"},{"bike_id":"7823a789-113a-40ae-a3f9-3b27eb5735e7","system_id":"levelo_inurba_marseille","lat":43.29598,"lon":5.39958,"is_reserved":false,"is_disabled":true,"rental_uris":{"android":"levelo://app?vid=7823a789-113a-40ae-a3f9-3b27eb5735e7","ios":"levelo://app?vid=7823a789-113a-40ae-a3f9-3b27eb5735e7"},"vehicle_type_id":"4","last_reported":1740827192,"current_range_meters":18000,"station_id":"ce4bh312rcd13ifvqdj0","pricing_plan_id":"cebpf4jnsgd1na2vs0mg"},{"bike_id":"a62ad21a-4f7a-48b5-97aa-da3b7c7ca7a9","system_id":"levelo_inurba_marseille","lat":43.23971,"lon":5.36635,"is_reserved":false,"is_disabled":false,"rental_uris":{"android":"levelo://app?vid=a62ad21a-4f7a-48b5-97aa-da3b7c7ca7a9","ios":"levelo://app?vid=a62ad21a-4f7a-48b5-97aa-da3b7c7ca7a9"},"vehicle_type_id":"4","last_reported":1740827192,"current_range_meters":17600,"station_id":"ce4bhi12rcd13ifvqfp0","pricing_plan_id":"cebpf4jnsgd1na2vs0mg"},{"bike_id":"8b72a817-a023-4684-86a7-4c0fbdf107ce","system_id":"levelo_inurba_marseille","lat":43.2551,"lon":5.37645,"is_reserved":false,"is_disabled":false,"rental_uris":{"android":"levelo://app?vid=8b72a817-a023-4684-86a7-4c0fbdf107ce","ios":"levelo://app?vid=8b72a817-a023-4684-86a7-4c0fbdf107ce"},"vehicle_type_id":"4","last_reported":1740827192,"current_range_meters":18000,"station_id":"ce4bhh12rcd13ifvqff0","pricing_plan_id":"cebpf4jnsgd1na2vs0mg"},{"bike_id":"9034e2d7-24da-48d4-8ab4-f858cf0d8eba","system_id":"levelo_inurba_marseille","lat":43.32483,"lon":5.36569,"is_reserved":false,"is_disabled":false,"rental_uris":{"android":"levelo://app?vid=9034e2d7-24da-48d4-8ab4-f858cf0d8eba","ios":"levelo://app?vid=9034e2d7-24da-48d4-8ab4-f858cf0d8eba"},"vehicle_type_id":"4","last_reported":1740827192,"current_range_meters":18800,"station_id":"ce4bhs12rcd13ifvqhvg","pricing_plan_id":"cebpf4jnsgd1na2vs0mg"},{"bike_id":"5f58e767-9619-4aff-a7ce-6fecff2cc717","system_id":"levelo_inurba_marseille","lat":43.28456,"lon":5.39203,"is_reserved":false,"is_disabled":true,"rental_uris":{"android":"levelo://app?vid=5f58e767-9619-4aff-a7ce-6fecff2cc717","ios":"levelo://app?vid=5f58e767-9619-4aff-a7ce-6fecff2cc717"},"vehicle_type_id":"4","last_reported":1740827192,"current_range_meters":18000,"station_id":"ce4bhoh2rcd13ifvqh5g","pricing_plan_id":"cebpf4jnsgd1na2vs0mg"},{"bike_id":"e527b9d0-aeb3-4152-b78b-aef9d8cf48fd","system_id":"levelo_inurba_marseille","lat":43.25136,"lon":5.40317,"is_reserved":false,"is_disabled":false,"rental_uris":{"android":"levelo://app?vid=e527b9d0-aeb3-4152-b78b-aef9d8cf48fd","ios":"levelo://app?vid=e527b9d0-aeb3-4152-b78b-aef9d8cf48fd"},"vehicle_type_id":"4","last_reported":1740827192,"current_range_meters":19200,"station_id":"ce4bhlh2rcd13ifvqgig","pricing_plan_id":"cebpf4jnsgd1na2vs0mg"},{"bike_id":"49645587-4897-47af-80cb-ea0df5af90cc","system_id":"levelo_inurba_marseille","lat":43.26214,"lon":5.37438,"is_reserved":false,"is_disabled":false,"rental_uris":{"android":"levelo://app?vid=49645587-4897-47af-80cb-ea0df5af90cc","ios":"levelo://app?vid=49645587-4897-47af-80cb-ea0df5af90cc"},"vehicle_type_id":"4","last_reported":1740827192,"current_range_meters":18000,"station_id":"ce4bhgp2rcd13ifvqfc0","pricing_plan_id":"cebpf4jnsgd1na2vs0mg"},{"bike_id":"d5792e34-1a9b-4bc2-abd5-2c645e524662","system_id":"levelo_inurba_marseille","lat":43.31721,"lon":5.40426,"is_reserved":false,"is_disabled":false,"rental_uris":{"android":"levelo://app?vid=d5792e34-1a9b-4bc2-abd5-2c645e524662","ios":"levelo://app?vid=d5792e34-1a9b-4bc2-abd5-2c645e524662"},"vehicle_type_id":"4","last_reported":1740827192,"current_range_meters":18000,"station_id":"ce4bh012rcd13ifvqd00","pricing_plan_id":"cebpf4jnsgd1na2vs0mg"},{"bike_id":"b7786a28-e055-4ed1-865c-e901319cf920","system_id":"levelo_inurba_marseille","lat":43.30547,"lon":5.36536,"is_reserved":false,"is_disabled":false,"rental_uris":{"android":"levelo://app?vid=b7786a28-e055-4ed1-865c-e901319cf920","ios":"levelo://app?vid=b7786a28-e055-4ed1-865c-e901319cf920"},"vehicle_type_id":"4","last_reported":1740827192,"current_range_meters":18000,"station_id":"ce4bgs12rcd13ifvqcag","pricing_plan_id":"cebpf4jnsgd1na2vs0mg"},{"bike_id":"dbd24d78-1e72-4b79-b29c-55756f89ecc8","system_id":"levelo_inurba_marseille","lat":43.24994,"lon":5.38936,"is_reserved":false,"is_disabled":false,"rental_uris":{"android":"levelo://app?vid=dbd24d78-1e72-4b79-b29c-55756f89ecc8","ios":"levelo://app?vid=dbd24d78-1e72-4b79-b29c-55756f89ecc8"},"vehicle_type_id":"4","last_reported":1740827192,"current_range_meters":18000,"station_id":"ce4bhgp2rcd13ifvqfd0","pricing_plan_id":"cebpf4jnsgd1na2vs0mg"},{"bike_id":"33c951cc-444f-49ba-bdb7-2ae131148385","system_id":"levelo_inurba_marseille","lat":43.28711,"lon":5.40006,"is_reserved":false,"is_disabled":true,"rental_uris":{"android":"levelo://app?vid=33c951cc-444f-49ba-bdb7-2ae131148385","ios":"levelo://app?vid=33c951cc-444f-49ba-bdb7-2ae131148385"},"vehicle_type_id":"4","last_reported":1740827192,"current_range_meters":18800,"station_id":"ce4bho92rcd13ifvqh3g","pricing_plan_id":"cebpf4jnsgd1na2vs0mg"},{"bike_id":"db8b4ac6-9f9a-45de-adf2-bce5f86975e5","system_id":"levelo_inurba_marseille","lat":43.28996,"lon":5.37827,"is_reserved":false,"is_disabled":false,"rental_uris":{"android":"levelo://app?vid=db8b4ac6-9f9a-45de-adf2-bce5f86975e5","ios":"levelo://app?vid=db8b4ac6-9f9a-45de-adf2-bce5f86975e5"},"vehicle_type_id":"4","last_reported":1740827192,"current_range_meters":18800,"station_id":"ce4bh9p2rcd13ifvqed0","pricing_plan_id":"cebpf4jnsgd1na2vs0mg"},{"bike_id":"620a5eb3-daee-44ad-a3ba-f984dc8c768a","system_id":"levelo_inurba_marseille","lat":43.30216,"lon":5.36627,"is_reserved":false,"is_disabled":true,"rental_uris":{"android":"levelo://app?vid=620a5eb3-daee-44ad-a3ba-f984dc8c768a","ios":"levelo://app?vid=620a5eb3-daee-44ad-a3ba-f984dc8c768a"},"vehicle_type_id":"4","last_reported":1740827192,"current_range_meters":18800,"station_id":"ce4bgrh2rcd13ifvqc8g","pricing_plan_id":"cebpf4jnsgd1na2vs0mg"},{"bike_id":"d0338d15-401f-4f02-ad15-e1eebf71fa48","system_id":"levelo_inurba_marseille","lat":43.29612,"lon":5.38091,"is_reserved":false,"is_disabled":false,"rental_uris":{"android":"levelo://app?vid=d0338d15-401f-4f02-ad15-e1eebf71fa48","ios":"levelo://app?vid=d0338d15-401f-4f02-ad15-e1eebf71fa48"},"vehicle_type_id":"4","last_reported":1740827192,"current_range_meters":18800,"station_id":"ce4bgl12rcd13ifvqbo0","pricing_plan_id":"cebpf4jnsgd1na2vs0mg"},{"bike_id":"3fcf3449-49b4-4dec-83e4-d2ce64f40a0a","system_id":"levelo_inurba_marseille","lat":43.2925,"lon":5.40915,"is_reserved":false,"is_disabled":false,"rental_uris":{"android":"levelo://app?vid=3fcf3449-49b4-4dec-83e4-d2ce64f40a0a","ios":"levelo://app?vid=3fcf3449-49b4-4dec-83e4-d2ce64f40a0a"},"vehicle_type_id":"4","last_reported":1740827192,"current_range_meters":18800,"station_id":"ce4bh192rcd13ifvqdc0","pricing_plan_id":"cebpf4jnsgd1na2vs0mg"},{"bike_id":"57390bf4-d467-48ec-86f1-4a474a0213b9","system_id":"levelo_inurba_marseille","lat":43.31342,"lon":5.39696,"is_reserved":false,"is_disabled":false,"rental_uris":{"android":"levelo://app?vid=57390bf4-d467-48ec-86f1-4a474a0213b9","ios":"levelo://app?vid=57390bf4-d467-48ec-86f1-4a474a0213b9"},"vehicle_type_id":"4","last_reported":1740827192,"current_range_meters":18800,"station_id":"ce4bgvp2rcd13ifvqcu0","pricing_plan_id":"cebpf4jnsgd1na2vs0mg"},{"bike_id":"07199bf9-3cb4-405f-aecc-e3f4227a0f29","system_id":"levelo_inurba_marseille","lat":43.27307,"lon":5.39133,"is_reserved":false,"is_disabled":false,"rental_uris":{"android":"levelo://app?vid=07199bf9-3cb4-405f-aecc-e3f4227a0f29","ios":"levelo://app?vid=07199bf9-3cb4-405f-aecc-e3f4227a0f29"},"vehicle_type_id":"4","last_reported":1740827192,"current_range_meters":18800,"station_id":"ce4bhgp2rcd13ifvqfe0","pricing_plan_id":"cebpf4jnsgd1na2vs0mg"},{"bike_id":"d494492a-5601-4e0d-95e9-59aa386c9e13","system_id":"levelo_inurba_marseille","lat":43.28669,"lon":5.36349,"is_reserved":false,"is_disabled":false,"rental_uris":{"android":"levelo://app?vid=d494492a-5601-4e0d-95e9-59aa386c9e13","ios":"levelo://app?vid=d494492a-5601-4e0d-95e9-59aa386c9e13"},"vehicle_type_id":"4","last_reported":1740827192,"current_range_meters":18800,"station_id":"ce4bhah2rcd13ifvqej0","pricing_plan_id":"cebpf4jnsgd1na2vs0mg"},{"bike_id":"51488355-cec3-4549-a8df-af618d811700","system_id":"levelo_inurba_marseille","lat":43.31709,"lon":5.40474,"is_reserved":false,"is_disabled":false,"rental_uris":{"android":"levelo://app?vid=51488355-cec3-4549-a8df-af618d811700","ios":"levelo://app?vid=51488355-cec3-4549-a8df-af618d811700"},"vehicle_type_id":"4","last_reported":1740827192,"current_range_meters":18800,"station_id":"ce4bh012rcd13ifvqd00","pricing_plan_id":"cebpf4jnsgd1na2vs0mg"},{"bike_id":"9d9ea3d7-9a8c-4118-bff6-a1dc51515da1","system_id":"levelo_inurba_marseille","lat":43.29802,"lon":5.40417,"is_reserved":false,"is_disabled":false,"rental_uris":{"android":"levelo://app?vid=9d9ea3d7-9a8c-4118-bff6-a1dc51515da1","ios":"levelo://app?vid=9d9ea3d7-9a8c-4118-bff6-a1dc51515da1"},"vehicle_type_id":"4","last_reported":1740827192,"current_range_meters":19200,"station_id":"ce4bh112rcd13ifvqd90","pricing_plan_id":"cebpf4jnsgd1na2vs0mg"},{"bike_id":"85815ba1-d206-4651-a4e3-60ea2c19a87d","system_id":"levelo_inurba_marseille","lat":43.29856,"lon":5.36285,"is_reserved":false,"is_disabled":false,"rental_uris":{"android":"levelo://app?vid=85815ba1-d206-4651-a4e3-60ea2c19a87d","ios":"levelo://app?vid=85815ba1-d206-4651-a4e3-60ea2c19a87d"},"vehicle_type_id":"4","last_reported":1740827192,"current_range_meters":18800,"station_id":"ce4bgpp2rcd13ifvqc3g","pricing_plan_id":"cebpf4jnsgd1na2vs0mg"},{"bike_id":"07276d73-e3e1-4ecc-8a8a-e9318494711f","system_id":"levelo_inurba_marseille","lat":43.31089,"lon":5.42434,"is_reserved":false,"is_disabled":false,"rental_uris":{"android":"levelo://app?vid=07276d73-e3e1-4ecc-8a8a-e9318494711f","ios":"levelo://app?vid=07276d73-e3e1-4ecc-8a8a-e9318494711f"},"vehicle_type_id":"4","last_reported":1740827192,"current_range_meters":19200,"station_id":"ce4bhp92rcd13ifvqhag","pricing_plan_id":"cebpf4jnsgd1na2vs0mg"},{"bike_id":"b9a156dd-44eb-4c5f-bfd1-efc5282c966d","system_id":"levelo_inurba_marseille","lat":43.275,"lon":5.42454,"is_reserved":false,"is_disabled":false,"rental_uris":{"android":"levelo://app?vid=b9a156dd-44eb-4c5f-bfd1-efc5282c966d","ios":"levelo://app?vid=b9a156dd-44eb-4c5f-bfd1-efc5282c966d"},"vehicle_type_id":"4","last_reported":1740827192,"current_range_meters":19200,"station_id":"ce4bhn92rcd13ifvqgrg","pricing_plan_id":"cebpf4jnsgd1na2vs0mg"},