{"last_updated":1708628715,"ttl":30,"version":"2.2","data":{"bikes":[{"bike_id":"4ec55576-e8ba-4f85-bcb9-d9a556ca970e","system_id":"levelo_inurba_marseille","lat":43.312239,"lon":5.368562,"is_reserved":false,"is_disabled":false,"rental_uris":{"android":"levelo://app?vid=4ec55576-e8ba-4f85-bcb9-d9a556ca970e","ios":"levelo://app?vid=4ec55576-e8ba-4f85-bcb9-d9a556ca970e"},"vehicle_type_id":"4","last_reported":1708628715,"current_range_meters":5600,"station_id":"ce4bgl92rcd13ifvqbq0","pricing_plan_id":"cebpf4jnsgd1na2vs0mg"},{"bike_id":"89fefb73-a9d4-44be-a6bf-b27edcd764f5","system_id":"levelo_inurba_marseille","lat":43.31484,"lon":5.37311,"is_reserved":false,"is_disabled":false,"rental_uris":{"android":"levelo://app?vid=89fefb73-a9d4-44be-a6bf-b27edcd764f5","ios":"levelo://app?vid=89fefb73-a9d4-44be-a6bf-b27edcd764f5"},"vehicle_type_id":"4","last_reported":1708628715,"current_range_meters":14400,"station_id":"ce4bgt12rcd13ifvqcd0","pricing_plan_id":"cebpf4jnsgd1na2vs0mg"},{"bike_id":"4dc81bfc-c4c1-42af-b9f7-458de1b062be","system_id":"levelo_inurba_marseille","lat":43.31498,"lon":5.37303,"is_reserved":false,"is_disabled":false,"rental_uris":{"android":"levelo://app?vid=4dc81bfc-c4c1-42af-b9f7-458de1b062be","ios":"levelo://app?vid=4dc81bfc-c4c1-42af-b9f7-458de1b062be"},"vehicle_type_id":"4","last_reported":1708628715,"current_range_meters":2400,"station_id":"ce4bgt12rcd13ifvqcd0","pricing_plan_id":"cebpf4jnsgd1na2vs0mg"},{"bike_id":"3bbe2344-f927-4247-9f74-2df87ff0dccf","system_id":"levelo_inurba_marseille","lat":43.314811,"lon":5.373103,"is_reserved":false,"is_disabled":false,"rental_uris":{"android":"levelo://app?vid=3bbe2344-f927-4247-9f74-2df87ff0dccf","ios":"levelo://app?vid=3bbe2344-f927-4247-9f74-2df87ff0dccf"},"vehicle_type_id":"4","last_reported":1708628715,"current_range_meters":25600,"station_id":"ce4bgt12rcd13ifvqcd0","pricing_plan_id":"cebpf4jnsgd1na2vs0mg"},{"bike_id":"2c4b7f69-027a-4227-a5fe-eb38b80341dd","system_id":"levelo_inurba_marseille","lat":43.309039,"lon":5.371797,"is_reserved":false,"is_disabled":false,"rental_uris":{"android":"levelo://app?vid=2c4b7f69-027a-4227-a5fe-eb38b80341dd","ios":"levelo://app?vid=2c4b7f69-027a-4227-a5fe-eb38b80341dd"},"vehicle_type_id":"4","last_reported":1708628715,"current_range_meters":4800,"station_id":"ce4bguh2rcd13ifvqckg","pricing_plan_id":"cebpf4jnsgd1na2vs0mg"},{"bike_id":"4422c9d2-5fca-4453-a816-7eac3f70e099","system_id":"levelo_inurba_marseille","lat":43.309039,"lon":5.371797,"is_reserved":false,"is_disabled":false,"rental_uris":{"android":"levelo://app?vid=4422c9d2-5fca-4453-a816-7eac3f70e099","ios":"levelo://app?vid=4422c9d2-5fca-4453-a816-7eac3f70e099"},"vehicle_type_id":"4","last_reported":1708628715,"current_range_meters":31200,"station_id":"ce4bguh2rcd13ifvqckg","pricing_plan_id":"cebpf4jnsgd1na2vs0mg"},{"bike_id":"7fe17d96-2937-4ff0-8f8e-34329bf67b96","system_id":"levelo_inurba_marseille","lat":43.309039,"lon":5.371797,"is_reserved":false,"is_disabled":false,"rental_uris":{"android":"levelo://app?vid=7fe17d96-2937-4ff0-8f8e-34329bf67b96","ios":"levelo://app?vid=7fe17d96-2937-4ff0-8f8e-34329bf67b96"},"vehicle_type_id":"4","last_reported":1708628715,"current_range_meters":29200,"station_id":"ce4bguh2rcd13ifvqckg","pricing_plan_id":"cebpf4jnsgd1na2vs0mg"},{"bike_id":"7d8332d7-456c-4187-a1f5-1419b8f13f02","system_id":"levelo_inurba_marseille","lat":43.309039,"lon":5.371797,"is_reserved":false,"is_disabled":false,"rental_uris":{"android":"levelo://app?vid=7d8332d7-456c-4187-a1f5-1419b8f13f02","ios":"levelo://app?vid=7d8332d7-456c-4187-a1f5-1419b8f13f02"},"vehicle_type_id":"4","last_reported":1708628715,"current_range_meters":10800,"station_id":"ce4bguh2rcd13ifvqckg","pricing_plan_id":"cebpf4jnsgd1na2vs0mg"},{"bike_id":"877dd5a2-41ed-485f-8593-17507f57f40e","system_id":"levelo_inurba_marseille","lat":43.305368,"lon":5.367343,"is_reserved":false,"is_disabled":false,"rental_uris":{"android":"levelo://app?vid=877dd5a2-41ed-485f-8593-17507f57f40e","ios":"levelo://app?vid=877dd5a2-41ed-485f-8593-17507f57f40e"},"vehicle_type_id":"4","last_reported":1708628715,"current_range_meters":0,"station_id":"ce4bgrp2rcd13ifvqc9g","pricing_plan_id":"cebpf4jnsgd1na2vs0mg"},{"bike_id":"e8a031cc-802a-4333-9acc-b704e27cdad9","system_id":"levelo_inurba_marseille","lat":43.305368,"lon":5.367343,"is_reserved":false,"is_disabled":false,"rental_uris":{"android":"levelo://app?vid=e8a031cc-802a-4333-9acc-b704e27cdad9","ios":"levelo://app?vid=e8a031cc-802a-4333-9acc-b704e27cdad9"},"vehicle_type_id":"4","last_reported":1708628715,"current_range_meters":10800,"station_id":"ce4bgrp2rcd13ifvqc9g","pricing_plan_id":"cebpf4jnsgd1na2vs0mg"},{"bike_id":"b87c183f-2370-4813-9ca5-4c7e51841d8c","system_id":"levelo_inurba_marseille","lat":43.305368,"lon":5.367343,"is_reserved":false,"is_disabled":false,"rental_uris":{"android":"levelo://app?vid=b87c183f-2370-4813-9ca5-4c7e51841d8c","ios":"levelo://app?vid=b87c183f-2370-4813-9ca5-4c7e51841d8c"},"vehicle_type_id":"4","last_reported":1708628715,"current_range_meters":9600,"station_id":"ce4bgrp2rcd13ifvqc9g","pricing_plan_id":"cebpf4jnsgd1na2vs0mg"},{"bike_id":"fd8b71b2-1069-4af1-b394-a11d11bdc971","system_id":"levelo_inurba_marseille","lat":43.305989,"lon":5.37225,"is_reserved":false,"is_disabled":false,"rental_uris":{"android":"levelo://app?vid=fd8b71b2-1069-4af1-b394-a11d11bdc971","ios":"levelo://app?vid=fd8b71b2-1069-4af1-b394-a11d11bdc971"},"vehicle_type_id":"4","last_reported":1708628715,"current_range_meters":27600,"station_id":"ce4bgqh2rcd13ifvqc4g","pricing_plan_id":"cebpf4jnsgd1na2vs0mg"},{"bike_id":"cd333de3-a2a0-4460-9fc2-38fe536f47d0","system_id":"levelo_inurba_marseille","lat":43.305989,"lon":5.37225,"is_reserved":false,"is_disabled":false,"rental_uris":{"android":"levelo://app?vid=cd333de3-a2a0-4460-9fc2-38fe536f47d0","ios":"levelo://app?vid=cd333de3-a2a0-4460-9fc2-38fe536f47d0"},"vehicle_type_id":"4","last_reported":1708628715,"current_range_meters":29200,"station_id":"ce4bgqh2rcd13ifvqc4g","pricing_plan_id":"cebpf4jnsgd1na2vs0mg"},{"bike_id":"c7db3d2c-47bd-409f-9ffa-50ae589c31fe","system_id":"levelo_inurba_marseille","lat":43.305989,"lon":5.37225,"is_reserved":false,"is_disabled":false,"rental_uris":{"android":"levelo://app?vid=c7db3d2c-47bd-409f-9ffa-50ae589c31fe","ios":"levelo://app?vid=c7db3d2c-47bd-409f-9ffa-50ae589c31fe"},"vehicle_type_id":"4","last_reported":1708628715,"current_range_meters":27600,"station_id":"ce4bgqh2rcd13ifvqc4g","pricing_plan_id":"cebpf4jnsgd1na2vs0mg"},{"bike_id":"8799c8ce-10cf-4112-b2c5-ba1743e65689","system_id":"levelo_inurba_marseille","lat":43.26949,"lon":5.40262,"is_reserved":false,"is_disabled":false,"rental_uris":{"android":"levelo://app?vid=8799c8ce-10cf-4112-b2c5-ba1743e65689","ios":"levelo://app?vid=8799c8ce-10cf-4112-b2c5-ba1743e65689"},"vehicle_type_id":"4","last_reported":1708628715,"current_range_meters":16800,"station_id":"cjm6bp8fraef2m0cb0m0","pricing_plan_id":"cebpf4jnsgd1na2vs0mg"},{"bike_id":"719c53cf-3860-4577-ae63-cfbbaa67f2d5","system_id":"levelo_inurba_marseille","lat":43.311125,"lon":5.377624,"is_reserved":false,"is_disabled":false,"rental_uris":{"android":"levelo://app?vid=719c53cf-3860-4577-ae63-cfbbaa67f2d5","ios":"levelo://app?vid=719c53cf-3860-4577-ae63-cfbbaa67f2d5"},"vehicle_type_id":"4","last_reported":1708628715,"current_range_meters":30800,"station_id":"ce4bgt92rcd13ifvqcg0","pricing_plan_id":"cebpf4jnsgd1na2vs0mg"},{"bike_id":"55acfb6e-7982-4848-bd21-448b46a8aee9","system_id":"levelo_inurba_marseille","lat":43.311221,"lon":5.37779,"is_reserved":false,"is_disabled":false,"rental_uris":{"android":"levelo://app?vid=55acfb6e-7982-4848-bd21-448b46a8aee9","ios":"levelo://app?vid=55acfb6e-7982-4848-bd21-448b46a8aee9"},"vehicle_type_id":"4","last_reported":1708628715,"current_range_meters":17600,"station_id":"ce4bgt92rcd13ifvqcg0","pricing_plan_id":"cebpf4jnsgd1na2vs0mg"},{"bike_id":"dc22c28f-522a-4fb4-b7ab-c6251b90de82","system_id":"levelo_inurba_marseille","lat":43.31654,"lon":5.37675,"is_reserved":false,"is_disabled":false,"rental_uris":{"android":"levelo://app?vid=dc22c28f-522a-4fb4-b7ab-c6251b90de82","ios":"levelo://app?vid=dc22c28f-522a-4fb4-b7ab-c6251b90de82"},"vehicle_type_id":"4","last_reported":1708628715,"current_range_meters":22800,"station_id":"","pricing_plan_id":"cebpf4jnsgd1na2vs0mg"},{"bike_id":"6356d138-f96c-4ece-b202-d8da273c62ab","system_id":"levelo_inurba_marseille","lat":43.316582,"lon":5.376807,"is_reserved":false,"is_disabled":false,"rental_uris":{"android":"levelo://app?vid=6356d138-f96c-4ece-b202-d8da273c62ab","ios":"levelo://app?vid=6356d138-f96c-4ece-b202-d8da273c62ab"},"vehicle_type_id":"4","last_reported":1708628715,"current_range_meters":7200,"station_id":"","pricing_plan_id":"cebpf4jnsgd1na2vs0mg"},{"bike_id":"84580660-a058-4292-8790-ba764457059b","system_id":"levelo_inurba_marseille","lat":43.307945,"lon":5.376487,"is_reserved":false,"is_disabled":false,"rental_uris":{"android":"levelo://app?vid=84580660-a058-4292-8790-ba764457059b","ios":"levelo://app?vid=84580660-a058-4292-8790-ba764457059b"},"vehicle_type_id":"4","last_reported":1708628715,"current_range_meters":0,"station_id":"ce4bgv92rcd13ifvqcq0","pricing_plan_id":"cebpf4jnsgd1na2vs0mg"},{"bike_id":"20f9e379-1b1c-4aa3-8ddf-e7a1e3c3e32d","system_id":"levelo_inurba_marseille","lat":43.307945,"lon":5.376487,"is_reserved":false,"is_disabled":false,"rental_uris":{"android":"levelo://app?vid=20f9e379-1b1c-4aa3-8ddf-e7a1e3c3e32d","ios":"levelo://app?vid=20f9e379-1b1c-4aa3-8ddf-e7a1e3c3e32d"},"vehicle_type_id":"4","last_reported":1708628715,"current_range_meters":5200,"station_id":"ce4bgv92rcd13ifvqcq0","pricing_plan_id":"cebpf4jnsgd1na2vs0mg"},{"bike_id":"b931af8c-e48c-48a2-b749-23ba7e9d24a4","system_id":"levelo_inurba_marseille","lat":43.307945,"lon":5.376487,"is_reserved":false,"is_disabled":false,"rental_uris":{"android":"levelo://app?vid=b931af8c-e48c-48a2-b749-23ba7e9d24a4","ios":"levelo://app?vid=b931af8c-e48c-48a2-b749-23ba7e9d24a4"},"vehicle_type_id":"4","last_reported":1708628715,"current_range_meters":27200,"station_id":"ce4bgv92rcd13ifvqcq0","pricing_plan_id":"cebpf4jnsgd1na2vs0mg"},{"bike_id":"1ca9e356-c273-43b8-a353-159ecf3eff31","system_id":"levelo_inurba_marseille","lat":43.307945,"lon":5.376487,"is_reserved":false,"is_disabled":false,"rental_uris":{"android":"levelo://app?vid=1ca9e356-c273-43b8-a353-159ecf3eff31","ios":"levelo://app?vid=1ca9e356-c273-43b8-a353-159ecf3eff31"},"vehicle_type_id":"4","last_reported":1708628715,"current_range_meters":25600,"station_id":"ce4bgv92rcd13ifvqcq0","pricing_plan_id":"cebpf4jnsgd1na2vs0mg"},{"bike_id":"d226a3e9-2ea4-458f-85a4-c185a83c3be1","system_id":"levelo_inurba_marseille","lat":43.307945,"lon":5.376487,"is_reserved":false,"is_disabled":false,"rental_uris":{"android":"levelo://app?vid=d226a3e9-2ea4-458f-85a4-c185a83c3be1","ios":"levelo://app?vid=d226a3e9-2ea4-458f-85a4-c185a83c3be1"},"vehicle_type_id":"4","last_reported":1708628715,"current_range_meters":31200,"station_id":"ce4bgv92rcd13ifvqcq0","pricing_plan_id":"cebpf4jnsgd1na2vs0mg"},{"bike_id":"d089134b-b67c-4a76-b1e0-0906a0e38d1e","system_id":"levelo_inurba_marseille","lat":43.307945,"lon":5.376487,"is_reserved":false,"is_disabled":false,"rental_uris":{"android":"levelo://app?vid=d089134b-b67c-4a76-b1e0-0906a0e38d1e","ios":"levelo://app?vid=d089134b-b67c-4a76-b1e0-0906a0e38d1e"},"vehicle_type_id":"4","last_reported":1708628715,"current_range_meters":31200,"station_id":"ce4bgv92rcd13ifvqcq0","pricing_plan_id":"cebpf4jnsgd1na2vs0mg"},{"bike_id":"0e7b8c69-6fd0-4336-b276-08a0efab8450","system_id":"levelo_inurba_marseille","lat":43.31701,"lon":5.37718,"is_reserved":false,"is_disabled":false,"rental_uris":{"android":"levelo://app?vid=0e7b8c69-6fd0-4336-b276-08a0efab8450","ios":"levelo://app?vid=0e7b8c69-6fd0-4336-b276-08a0efab8450"},"vehicle_type_id":"4","last_reported":1708628715,"current_range_meters":26800,"station_id":"ce4bgth2rcd13ifvqch0","pricing_plan_id":"cebpf4jnsgd1na2vs0mg"},{"bike_id":"02c37c30-5e3e-4dfc-912d-a57b6b0b7210","system_id":"levelo_inurba_marseille","lat":43.31697,"lon":5.377357,"is_reserved":false,"is_disabled":false,"rental_uris":{"android":"levelo://app?vid=02c37c30-5e3e-4dfc-912d-a57b6b0b7210","ios":"levelo://app?vid=02c37c30-5e3e-4dfc-912d-a57b6b0b7210"},"vehicle_type_id":"4","last_reported":1708628715,"current_range_meters":0,"station_id":"ce4bgth2rcd13ifvqch0","pricing_plan_id":"cebpf4jnsgd1na2vs0mg"},{"bike_id":"dc582475-5009-436d-9578-396f9ba48dbf","system_id":"levelo_inurba_marseille","lat":43.31685,"lon":5.37753,"is_reserved":false,"is_disabled":false,"rental_uris":{"android":"levelo://app?vid=dc582475-5009-436d-9578-396f9ba48dbf","ios":"levelo://app?vid=dc582475-5009-436d-9578-396f9ba48dbf"},"vehicle_type_id":"4","last_reported":1708628715,"current_range_meters":22000,"station_id":"ce4bgth2rcd13ifvqch0","pricing_plan_id":"cebpf4jnsgd1na2vs0mg"},{"bike_id":"04a12783-1375-439f-98b1-02fedcc4f5c8","system_id":"levelo_inurba_marseille","lat":43.317075,"lon":5.377367,"is_reserved":false,"is_disabled":false,"rental_uris":{"android":"levelo://app?vid=04a12783-1375-439f-98b1-02fedcc4f5c8","ios":"levelo://app?vid=04a12783-1375-439f-98b1-02fedcc4f5c8"},"vehicle_type_id":"4","last_reported":1708628715,"current_range_meters":8000,"station_id":"ce4bgth2rcd13ifvqch0","pricing_plan_id":"cebpf4jnsgd1na2vs0mg"},{"bike_id":"3d83e3d5-59a3-431c-b073-0dfbbfedaacd","system_id":"levelo_inurba_marseille","lat":43.317075,"lon":5.377367,"is_reserved":false,"is_disabled":false,"rental_uris":{"android":"levelo://app?vid=3d83e3d5-59a3-431c-b073-0dfbbfedaacd","ios":"levelo://app?vid=3d83e3d5-59a3-431c-b073-0dfbbfedaacd"},"vehicle_type_id":"4","last_reported":1708628715,"current_range_meters":14800,"station_id":"ce4bgth2rcd13ifvqch0","pricing_plan_id":"cebpf4jnsgd1na2vs0mg"},{"bike_id":"7e24ae04-7a8b-4cbe-b45c-988d541274bc","system_id":"levelo_inurba_marseille","lat":43.3171,"lon":5.37747,"is_reserved":false,"is_disabled":false,"rental_uris":{"android":"levelo://app?vid=7e24ae04-7a8b-4cbe-b45c-988d541274bc","ios":"levelo://app?vid=7e24ae04-7a8b-4cbe-b45c-988d541274bc"},"vehicle_type_id":"4","last_reported":1708628715,"current_range_meters":16800,"station_id":"ce4bgth2rcd13ifvqch0","pricing_plan_id":"cebpf4jnsgd1na2vs0mg"},{"bike_id":"a3d97431-60af-4c37-a8d2-2a48fb22542f","system_id":"levelo_inurba_marseille","lat":43.317075,"lon":5.377367,"is_reserved":false,"is_disabled":false,"rental_uris":{"android":"levelo://app?vid=a3d97431-60af-4c37-a8d2-2a48fb22542f","ios":"levelo://app?vid=a3d97431-60af-4c37-a8d2-2a48fb22542f"},"vehicle_type_id":"4","last_reported":1708628715,"current_range_meters":28400,"station_id":"ce4bgth2rcd13ifvqch0","pricing_plan_id":"cebpf4jnsgd1na2vs0mg"},{"bike_id":"ae86e1ef-6477-4456-b9d3-bb98ef756d3b","system_id":"levelo_inurba_marseille","lat":43.317078,"lon":5.377532,"is_reserved":false,"is_disabled":false,"rental_uris":{"android":"levelo://app?vid=ae86e1ef-6477-4456-b9d3-bb98ef756d3b","ios":"levelo://app?vid=ae86e1ef-6477-4456-b9d3-bb98ef756d3b"},"vehicle_type_id":"4","last_reported":1708628715,"current_range_meters":24800,"station_id":"ce4bgth2rcd13ifvqch0","pricing_plan_id":"cebpf4jnsgd1na2vs0mg"},{"bike_id":"2fdee98a-f697-45bc-8de9-c6509a38d890","system_id":"levelo_inurba_marseille","lat":43.317075,"lon":5.377367,"is_reserved":false,"is_disabled":false,"rental_uris":{"android":"levelo://app?vid=2fdee98a-f697-45bc-8de9-c6509a38d890","ios":"levelo://app?vid=2fdee98a-f697-45bc-8de9-c6509a38d890"},"vehicle_type_id":"4","last_reported":1708628715,"current_range_meters":25200,"station_id":"ce4bgth2rcd13ifvqch0","pricing_plan_id":"cebpf4jnsgd1na2vs0mg"},{"bike_id":"784ba9ef-a94e-4130-9268-63f9d4fb84bd","system_id":"levelo_inurba_marseille","lat":43.317075,"lon":5.377367,"is_reserved":false,"is_disabled":false,"rental_uris":{"android":"levelo://app?vid=784ba9ef-a94e-4130-9268-63f9d4fb84bd","ios":"levelo://app?vid=784ba9ef-a94e-4130-9268-63f9d4fb84bd"},"vehicle_type_id":"4","last_reported":1708628715,"current_range_meters":31200,"station_id":"ce4bgth2rcd13ifvqch0","pricing_plan_id":"cebpf4jnsgd1na2vs0mg"},{"bike_id":"f5754c85-4b88-46e5-8275-953bcd413b4e","system_id":"levelo_inurba_marseille","lat":43.317075,"lon":5.377367,"is_reserved":false,"is_disabled":false,"rental_uris":{"android":"levelo://app?vid=f5754c85-4b88-46e5-8275-953bcd413b4e","ios":"levelo://app?vid=f5754c85-4b88-46e5-8275-953bcd413b4e"},"vehicle_type_id":"4","last_reported":1708628715,"current_range_meters":24000,"station_id":"ce4bgth2rcd13ifvqch0","pricing_plan_id":"cebpf4jnsgd1na2vs0mg"},{"bike_id":"9471953b-bdf2-4116-9dc1-47f2e571a337","system_id":"levelo_inurba_marseille","lat":43.317075,"lon":5.377367,"is_reserved":false,"is_disabled":false,"rental_uris":{"android":"levelo://app?vid=9471953b-bdf2-4116-9dc1-47f2e571a337","ios":"levelo://app?vid=9471953b-bdf2-4116-9dc1-47f2e571a337"},"vehicle_type_id":"4","last_reported":1708628715,"current_range_meters":30000,"station_id":"ce4bgth2rcd13ifvqch0","pricing_plan_id":"cebpf4jnsgd1na2vs0mg"},{"bike_id":"c971bc8d-ec43-43a2-8e77-b324a90dd73c","system_id":"levelo_inurba_marseille","lat":43.315293,"lon":5.380349,"is_reserved":false,"is_disabled":false,"rental_uris":{"android":"levelo://app?vid=c971bc8d-ec43-43a2-8e77-b324a90dd73c","ios":"levelo://app?vid=c971bc8d-ec43-43a2-8e77-b324a90dd73c"},"vehicle_type_id":"4","last_reported":1708628715,"current_range_meters":28000,"station_id":"ce4bhsp2rcd13ifvqi50","pricing_plan_id":"cebpf4jnsgd1na2vs0mg"},{"bike_id":"122a5c77-bc6a-49c4-b529-e61ed5ff073d","system_id":"levelo_inurba_marseille","lat":43.30801,"lon":5.38154,"is_reserved":false,"is_disabled":false,"rental_uris":{"android":"levelo://app?vid=122a5c77-bc6a-49c4-b529-e61ed5ff073d","ios":"levelo://app?vid=122a5c77-bc6a-49c4-b529-e61ed5ff073d"},"vehicle_type_id":"4","last_reported":1708628715,"current_range_meters":22000,"station_id":"ce4bgt12rcd13ifvqce0","pricing_plan_id":"cebpf4jnsgd1na2vs0mg"},{"bike_id":"884c6b42-8f83-489a-89b6-1ea3e72c4caa","system_id":"levelo_inurba_marseille","lat":43.308012,"lon":5.381511,"is_reserved":false,"is_disabled":false,"rental_uris":{"android":"levelo://app?vid=884c6b42-8f83-489a-89b6-1ea3e72c4caa","ios":"levelo://app?vid=884c6b42-8f83-489a-89b6-1ea3e72c4caa"},"vehicle_type_id":"4","last_reported":1708628715,"current_range_meters":3200,"station_id":"ce4bgt12rcd13ifvqce0","pricing_plan_id":"cebpf4jnsgd1na2vs0mg"},{"bike_id":"f49db8b5-7137-4d78-af8a-e978ffa6ec7d","system_id":"levelo_inurba_marseille","lat":43.30803,"lon":5.38163,"is_reserved":false,"is_disabled":false,"rental_uris":{"android":"levelo://app?vid=f49db8b5-7137-4d78-af8a-e978ffa6ec7d","ios":"levelo://app?vid=f49db8b5-7137-4d78-af8a-e978ffa6ec7d"},"vehicle_type_id":"4","last_reported":1708628715,"current_range_meters":19600,"station_id":"ce4bgt12rcd13ifvqce0","pricing_plan_id":"cebpf4jnsgd1na2vs0mg"},{"bike_id":"01b6423d-9fb4-4422-b06f-57bb65dac8ed","system_id":"levelo_inurba_marseille","lat":43.308012,"lon":5.381511,"is_reserved":false,"is_disabled":false,"rental_uris":{"android":"levelo://app?vid=01b6423d-9fb4-4422-b06f-57bb65dac8ed","ios":"levelo://app?vid=01b6423d-9fb4-4422-b06f-57bb65dac8ed"},"vehicle_type_id":"4","last_reported":1708628715,"current_range_meters":17200,"station_id":"ce4bgt12rcd13ifvqce0","pricing_plan_id":"cebpf4jnsgd1na2vs0mg"},{"bike_id":"1453e7da-63b8-44dd-9b9c-60e5f3255775","system_id":"levelo_inurba_marseille","lat":43.30804,"lon":5.38171,"is_reserved":false,"is_disabled":false,"rental_uris":{"android":"levelo://app?vid=1453e7da-63b8-44dd-9b9c-60e5f3255775","ios":"levelo://app?vid=1453e7da-63b8-44dd-9b9c-60e5f3255775"},"vehicle_type_id":"4","last_reported":1708628715,"current_range_meters":31200,"station_id":"ce4bgt12rcd13ifvqce0","pricing_plan_id":"cebpf4jnsgd1na2vs0mg"},{"bike_id":"8e549fc9-7b18-4718-a397-d48c535db510","system_id":"levelo_inurba_marseille","lat":43.308012,"lon":5.381511,"is_reserved":false,"is_disabled":false,"rental_uris":{"android":"levelo://app?vid=8e549fc9-7b18-4718-a397-d48c535db510","ios":"levelo://app?vid=8e549fc9-7b18-4718-a397-d48c535db510"},"vehicle_type_id":"4","last_reported":1708628715,"current_range_meters":12000,"station_id":"ce4bgt12rcd13ifvqce0","pricing_plan_id":"cebpf4jnsgd1na2vs0mg"},{"bike_id":"f34c202d-d996-48df-91b4-9405a2b3fd41","system_id":"levelo_inurba_marseille","lat":43.304606,"lon":5.379026,"is_reserved":false,"is_disabled":false,"rental_uris":{"android":"levelo://app?vid=f34c202d-d996-48df-91b4-9405a2b3fd41","ios":"levelo://app?vid=f34c202d-d996-48df-91b4-9405a2b3fd41"},"vehicle_type_id":"4","last_reported":1708628715,"current_range_meters":10800,"station_id":"ce4bgup2rcd13ifvqcn0","pricing_plan_id":"cebpf4jnsgd1na2vs0mg"},{"bike_id":"f2cff5d1-a87e-43e1-8ace-015f611533e5","system_id":"levelo_inurba_marseille","lat":43.324771,"lon":5.36557,"is_reserved":false,"is_disabled":false,"rental_uris":{"android":"levelo://app?vid=f2cff5d1-a87e-43e1-8ace-015f611533e5","ios":"levelo://app?vid=f2cff5d1-a87e-43e1-8ace-015f611533e5"},"vehicle_type_id":"4","last_reported":1708628715,"current_range_meters":4800,"station_id":"ce4bhs12rcd13ifvqhvg","pricing_plan_id":"cebpf4jnsgd1na2vs0mg"},{"bike_id":"4cd60cd3-101b-4a05-9703-76840434a255","system_id":"levelo_inurba_marseille","lat":43.324771,"lon":5.36557,"is_reserved":false,"is_disabled":false,"rental_uris":{"android":"levelo://app?vid=4cd60cd3-101b-4a05-9703-76840434a255","ios":"levelo://app?vid=4cd60cd3-101b-4a05-9703-76840434a255"},"vehicle_type_id":"4","last_reported":1708628715,"current_range_meters":14400,"station_id":"ce4bhs12rcd13ifvqhvg","pricing_plan_id":"cebpf4jnsgd1na2vs0mg"},{"bike_id":"241b9ac5-ab33-4907-9c84-80a2c0dedb35","system_id":"levelo_inurba_marseille","lat":43.324771,"lon":5.36557,"is_reserved":false,"is_disabled":false,"rental_uris":{"android":"levelo://app?vid=241b9ac5-ab33-4907-9c84-80a2c0dedb35","ios":"levelo://app?vid=241b9ac5-ab33-4907-9c84-80a2c0dedb35"},"vehicle_type_id":"4","last_reported":1708628715,"current_range_meters":8000,"station_id":"ce4bhs12rcd13ifvqhvg","pricing_plan_id":"cebpf4jnsgd1na2vs0mg"},{"bike_id":"08de2e52-16e0-49be-9de2-3eca7674cc93","system_id":"levelo_inurba_marseille","lat":43.32484,"lon":5.36556,"is_reserved":false,"is_disabled":false,"rental_uris":{"android":"levelo://app?vid=08de2e52-16e0-49be-9de2-3eca7674cc93","ios":"levelo://app?vid=08de2e52-16e0-49be-9de2-3eca7674cc93"},"vehicle_type_id":"4","last_reported":1708628715,"current_range_meters":10400,"station_id":"ce4bhs12rcd13ifvqhvg","pricing_plan_id":"cebpf4jnsgd1na2vs0mg"},{"bike_id":"6c581da6-d340-44bb-8dcf-2d6491d8b2b7","system_id":"levelo_inurba_marseille","lat":43.324844,"lon":5.365574,"is_reserved":false,"is_disabled":false,"rental_uris":{"android":"levelo://app?vid=6c581da6-d340-44bb-8dcf-2d6491d8b2b7","ios":"levelo://app?vid=6c581da6-d340-44bb-8dcf-2d6491d8b2b7"},"vehicle_type_id":"4","last_reported":1708628715,"current_range_meters":18000,"station_id":"ce4bhs12rcd13ifvqhvg","pricing_plan_id":"cebpf4jnsgd1na2vs0mg"},{"bike_id":"0d723762-8a1c-4244-994b-0ad0215d9f94","system_id":"levelo_inurba_marseille","lat":43.310804,"lon":5.38359,"is_reserved":false,"is_disabled":false,"rental_uris":{"android":"levelo://app?vid=0d723762-8a1c-4244-994b-0ad0215d9f94","ios":"levelo://app?vid=0d723762-8a1c-4244-994b-0ad0215d9f94"},"vehicle_type_id":"4","last_reported":1708628715,"current_range_meters":6000,"station_id":"ce4bgv92rcd13ifvqcr0","pricing_plan_id":"cebpf4jnsgd1na2vs0mg"},{"bike_id":"76cb3c24-5e51-42a4-8fa3-c5cd762ab669","system_id":"levelo_inurba_marseille","lat":43.30661,"lon":5.38155,"is_reserved":false,"is_disabled":false,"rental_uris":{"android":"levelo://app?vid=76cb3c24-5e51-42a4-8fa3-c5cd762ab669","ios":"levelo://app?vid=76cb3c24-5e51-42a4-8fa3-c5cd762ab669"},"vehicle_type_id":"4","last_reported":1708628715,"current_range_meters":19600,"station_id":"","pricing_plan_id":"cebpf4jnsgd1na2vs0mg"},{"bike_id":"d86089c9-a317-44e0-b8db-a315f100e95b","system_id":"levelo_inurba_marseille","lat":43.310804,"lon":5.38359,"is_reserved":false,"is_disabled":false,"rental_uris":{"android":"levelo://app?vid=d86089c9-a317-44e0-b8db-a315f100e95b","ios":"levelo://app?vid=d86089c9-a317-44e0-b8db-a315f100e95b"},"vehicle_type_id":"4","last_reported":1708628715,"current_range_meters":23600,"station_id":"ce4bgv92rcd13ifvqcr0","pricing_plan_id":"cebpf4jnsgd1na2vs0mg"},{"bike_id":"e95c1efa-a860-4eaa-a813-f3976a58a6ae","system_id":"levelo_inurba_marseille","lat":43.31071,"lon":5.38361,"is_reserved":false,"is_disabled":false,"rental_uris":{"android":"levelo://app?vid=e95c1efa-a860-4eaa-a813-f3976a58a6ae","ios":"levelo://app?vid=e95c1efa-a860-4eaa-a813-f3976a58a6ae"},"vehicle_type_id":"4","last_reported":1708628715,"current_range_meters":21600,"station_id":"","pricing_plan_id":"cebpf4jnsgd1na2vs0mg"},{"bike_id":"d29d6be7-ef53-41c1-9d3a-d2b5921e273f","system_id":"levelo_inurba_marseille","lat":43.310804,"lon":5.38359,"is_reserved":false,"is_disabled":false,"rental_uris":{"android":"levelo://app?vid=d29d6be7-ef53-41c1-9d3a-d2b5921e273f","ios":"levelo://app?vid=d29d6be7-ef53-41c1-9d3a-d2b5921e273f"},"vehicle_type_id":"4","last_reported":1708628715,"current_range_meters":31200,"station_id":"ce4bgv92rcd13ifvqcr0","pricing_plan_id":"cebpf4jnsgd1na2vs0mg"},{"bike_id":"e8a495ae-b304-4026-ac17-df36b642fca3","system_id":"levelo_inurba_marseille","lat":43.302784,"lon":5.377158,"is_reserved":false,"is_disabled":false,"rental_uris":{"android":"levelo://app?vid=e8a495ae-b304-4026-ac17-df36b642fca3","ios":"levelo://app?vid=e8a495ae-b304-4026-ac17-df36b642fca3"},"vehicle_type_id":"4","last_reported":1708628715,"current_range_meters":30800,"station_id":"ce4bguh2rcd13ifvqcj0","pricing_plan_id":"cebpf4jnsgd1na2vs0mg"},{"bike_id":"02266956-ddd4-4668-a927-c236e197a62a","system_id":"levelo_inurba_marseille","lat":43.30272,"lon":5.37713,"is_reserved":false,"is_disabled":false,"rental_uris":{"android":"levelo://app?vid=02266956-ddd4-4668-a927-c236e197a62a","ios":"levelo://app?vid=02266956-ddd4-4668-a927-c236e197a62a"},"vehicle_type_id":"4","last_reported":1708628715,"current_range_meters":11600,"station_id":"ce4bhs92rcd13ifvqi0g","pricing_plan_id":"cebpf4jnsgd1na2vs0mg"},{"bike_id":"88a2525a-8b5b-4bf1-8ac5-8c81f8f06f8f","system_id":"levelo_inurba_marseille","lat":43.304606,"lon":5.379026,"is_reserved":false,"is_disabled":false,"rental_uris":{"android":"levelo://app?vid=88a2525a-8b5b-4bf1-8ac5-8c81f8f06f8f","ios":"levelo://app?vid=88a2525a-8b5b-4bf1-8ac5-8c81f8f06f8f"},"vehicle_type_id":"4","last_reported":1708628715,"current_range_meters":17600,"station_id":"ce4bgup2rcd13ifvqcn0","pricing_plan_id":"cebpf4jnsgd1na2vs0mg"},{"bike_id":"63ffe8b6-3ebc-43a3-8437-530d0d29d818","system_id":"levelo_inurba_marseille","lat":43.309589,"lon":5.390258,"is_reserved":false,"is_disabled":false,"rental_uris":{"android":"levelo://app?vid=63ffe8b6-3ebc-43a3-8437-530d0d29d818","ios":"levelo://app?vid=63ffe8b6-3ebc-43a3-8437-530d0d29d818"},"vehicle_type_id":"4","last_reported":1708628715,"current_range_meters":17200,"station_id":"ce4bgup2rcd13ifvqco0","pricing_plan_id":"cebpf4jnsgd1na2vs0mg"},{"bike_id":"c08f9864-b0d7-4a4f-bc4b-0112f541d02f","system_id":"levelo_inurba_marseille","lat":43.30143,"lon":5.37413,"is_reserved":false,"is_disabled":false,"rental_uris":{"android":"levelo://app?vid=c08f9864-b0d7-4a4f-bc4b-0112f541d02f","ios":"levelo://app?vid=c08f9864-b0d7-4a4f-bc4b-0112f541d02f"},"vehicle_type_id":"4","last_reported":1708628715,"current_range_meters":28800,"station_id":"ce4bgs92rcd13ifvqcc0","pricing_plan_id":"cebpf4jnsgd1na2vs0mg"},{"bike_id":"db470757-87b1-4bd8-8416-4b51058cfeb2","system_id":"levelo_inurba_marseille","lat":43.313571,"lon":5.384829,"is_reserved":false,"is_disabled":false,"rental_uris":{"android":"levelo://app?vid=db470757-87b1-4bd8-8416-4b51058cfeb2","ios":"levelo://app?vid=db470757-87b1-4bd8-8416-4b51058cfeb2"},"vehicle_type_id":"4","last_reported":1708628715,"current_range_meters":0,"station_id":"ce4bgt92rcd13ifvqcf0","pricing_plan_id":"cebpf4jnsgd1na2vs0mg"},{"bike_id":"2dfb92cc-ea3b-4091-8c27-ecfa50d3effe","system_id":"levelo_inurba_marseille","lat":43.31987,"lon":5.38146,"is_reserved":false,"is_disabled":false,"rental_uris":{"android":"levelo://app?vid=2dfb92cc-ea3b-4091-8c27-ecfa50d3effe","ios":"levelo://app?vid=2dfb92cc-ea3b-4091-8c27-ecfa50d3effe"},"vehicle_type_id":"4","last_reported":1708628715,"current_range_meters":0,"station_id":"ce4bhr12rcd13ifvqhpg","pricing_plan_id":"cebpf4jnsgd1na2vs0mg"},{"bike_id":"b3a61e87-97bb-40f7-8721-d3e6aeb7357d","system_id":"levelo_inurba_marseille","lat":43.319935,"lon":5.381699,"is_reserved":false,"is_disabled":false,"rental_uris":{"android":"levelo://app?vid=b3a61e87-97bb-40f7-8721-d3e6aeb7357d","ios":"levelo://app?vid=b3a61e87-97bb-40f7-8721-d3e6aeb7357d"},"vehicle_type_id":"4","last_reported":1708628715,"current_range_meters":23200,"station_id":"ce4bhr12rcd13ifvqhpg","pricing_plan_id":"cebpf4jnsgd1na2vs0mg"},{"bike_id":"25d07860-ff91-4095-9acb-1f9a0c9b2e81","system_id":"levelo_inurba_marseille","lat":43.313571,"lon":5.384829,"is_reserved":false,"is_disabled":false,"rental_uris":{"android":"levelo://app?vid=25d07860-ff91-4095-9acb-1f9a0c9b2e81","ios":"levelo://app?vid=25d07860-ff91-4095-9acb-1f9a0c9b2e81"},"vehicle_type_id":"4","last_reported":1708628715,"current_range_meters":27200,"station_id":"ce4bgt92rcd13ifvqcf0","pricing_plan_id":"cebpf4jnsgd1na2vs0mg"},{"bike_id":"87b94862-473f-4a9b-945d-1f40fab2d107","system_id":"levelo_inurba_marseille","lat":43.313571,"lon":5.384829,"is_reserved":false,"is_disabled":false,"rental_uris":{"android":"levelo://app?vid=87b94862-473f-4a9b-945d-1f40fab2d107","ios":"levelo://app?vid=87b94862-473f-4a9b-945d-1f40fab2d107"},"vehicle_type_id":"4","last_reported":1708628715,"current_range_meters":24800,"station_id":"ce4bgt92rcd13ifvqcf0","pricing_plan_id":"cebpf4jnsgd1na2vs0mg"},{"bike_id":"81049201-84ac-4c44-91f9-1bb8a7da147f","system_id":"levelo_inurba_marseille","lat":43.313571,"lon":5.384829,"is_reserved":false,"is_disabled":false,"rental_uris":{"android":"levelo://app?vid=81049201-84ac-4c44-91f9-1bb8a7da147f","ios":"levelo://app?vid=81049201-84ac-4c44-91f9-1bb8a7da147f"},"vehicle_type_id":"4","last_reported":1708628715,"current_range_meters":23200,"station_id":"ce4bgt92rcd13ifvqcf0","pricing_plan_id":"cebpf4jnsgd1na2vs0mg"},{"bike_id":"d8423c0d-4f7c-4d0f-983b-d43be1a06e15","system_id":"levelo_inurba_marseille","lat":43.299724,"lon":5.371829,"is_reserved":false,"is_disabled":false,"rental_uris":{"android":"levelo://app?vid=d8423c0d-4f7c-4d0f-983b-d43be1a06e15","ios":"levelo://app?vid=d8423c0d-4f7c-4d0f-983b-d43be1a06e15"},"vehicle_type_id":"4","last_reported":1708628715,"current_range_meters":11200,"station_id":"ce4bgr92rcd13ifvqc7g","pricing_plan_id":"cebpf4jnsgd1na2vs0mg"},{"bike_id":"7f667977-1f31-4000-b4be-fbfcc3081577","system_id":"levelo_inurba_marseille","lat":43.301429,"lon":5.37413,"is_reserved":false,"is_disabled":false,"rental_uris":{"android":"levelo://app?vid=7f667977-1f31-4000-b4be-fbfcc3081577","ios":"levelo://app?vid=7f667977-1f31-4000-b4be-fbfcc3081577"},"vehicle_type_id":"4","last_reported":1708628715,"current_range_meters":4400,"station_id":"ce4bgs92rcd13ifvqcc0","pricing_plan_id":"cebpf4jnsgd1na2vs0mg"},{"bike_id":"bbfcbf1f-2b8f-4421-b32b-a7726bda8f62","system_id":"levelo_inurba_marseille","lat":43.305364,"lon":5.384119,"is_reserved":false,"is_disabled":false,"rental_uris":{"android":"levelo://app?vid=bbfcbf1f-2b8f-4421-b32b-a7726bda8f62","ios":"levelo://app?vid=bbfcbf1f-2b8f-4421-b32b-a7726bda8f62"},"vehicle_type_id":"4","last_reported":1708628715,"current_range_meters":26000,"station_id":"ce4bgg92rcd13ifvqb30","pricing_plan_id":"cebpf4jnsgd1na2vs0mg"},{"bike_id":"1eedb118-b364-4e05-95df-028cae3ea05a","system_id":"levelo_inurba_marseille","lat":43.298433,"lon":5.362774,"is_reserved":false,"is_disabled":false,"rental_uris":{"android":"levelo://app?vid=1eedb118-b364-4e05-95df-028cae3ea05a","ios":"levelo://app?vid=1eedb118-b364-4e05-95df-028cae3ea05a"},"vehicle_type_id":"4","last_reported":1708628715,"current_range_meters":31200,"station_id":"ce4bgpp2rcd13ifvqc3g","pricing_plan_id":"cebpf4jnsgd1na2vs0mg"},{"bike_id":"0f725c7e-6f86-4f00-9e8c-00401891bf6c","system_id":"levelo_inurba_marseille","lat":43.305364,"lon":5.384119,"is_reserved":false,"is_disabled":false,"rental_uris":{"android":"levelo://app?vid=0f725c7e-6f86-4f00-9e8c-00401891bf6c","ios":"levelo://app?vid=0f725c7e-6f86-4f00-9e8c-00401891bf6c"},"vehicle_type_id":"4","last_reported":1708628715,"current_range_meters":7600,"station_id":"ce4bgg92rcd13ifvqb30","pricing_plan_id":"cebpf4jnsgd1na2vs0mg"},{"bike_id":"73948b1d-22c5-4213-a490-ecdc0358addc","system_id":"levelo_inurba_marseille","lat":43.298433,"lon":5.362774,"is_reserved":false,"is_disabled":false,"rental_uris":{"android":"levelo://app?vid=73948b1d-22c5-4213-a490-ecdc0358addc","ios":"levelo://app?vid=73948b1d-22c5-4213-a490-ecdc0358addc"},"vehicle_type_id":"4","last_reported":1708628715,"current_range_meters":27200,"station_id":"ce4bgpp2rcd13ifvqc3g","pricing_plan_id":"cebpf4jnsgd1na2vs0mg"},{"bike_id":"984426fe-00ba-4f6c-8df0-751446b29383","system_id":"levelo_inurba_marseille","lat":43.298433,"lon":5.362774,"is_reserved":false,"is_disabled":false,"rental_uris":{"android":"levelo://app?vid=984426fe-00ba-4f6c-8df0-751446b29383","ios":"levelo://app?vid=984426fe-00ba-4f6c-8df0-751446b29383"},"vehicle_type_id":"4","last_reported":1708628715,"current_range_meters":30400,"station_id":"ce4bgpp2rcd13ifvqc3g","pricing_plan_id":"cebpf4jnsgd1na2vs0mg"},{"bike_id":"b362a7e7-afa2-4e22-9e4b-5fc34b6d80c0","system_id":"levelo_inurba_marseille","lat":43.299243,"lon":5.37481,"is_reserved":false,"is_disabled":false,"rental_uris":{"android":"levelo://app?vid=b362a7e7-afa2-4e22-9e4b-5fc34b6d80c0","ios":"levelo://app?vid=b362a7e7-afa2-4e22-9e4b-5fc34b6d80c0"},"vehicle_type_id":"4","last_reported":1708628715,"current_range_meters":22400,"station_id":"ce4bgjh2rcd13ifvqbg0","pricing_plan_id":"cebpf4jnsgd1na2vs0mg"},{"bike_id":"e647a0a4-c490-4ceb-ab80-5d30437f175d","system_id":"levelo_inurba_marseille","lat":43.299243,"lon":5.37481,"is_reserved":false,"is_disabled":false,"rental_uris":{"android":"levelo://app?vid=e647a0a4-c490-4ceb-ab80-5d30437f175d","ios":"levelo://app?vid=e647a0a4-c490-4ceb-ab80-5d30437f175d"},"vehicle_type_id":"4","last_reported":1708628715,"current_range_meters":30400,"station_id":"ce4bgjh2rcd13ifvqbg0","pricing_plan_id":"cebpf4jnsgd1na2vs0mg"},{"bike_id":"683e502f-c30c-4970-9549-6b8a5c8340e8","system_id":"levelo_inurba_marseille","lat":43.297774,"lon":5.370875,"is_reserved":false,"is_disabled":false,"rental_uris":{"android":"levelo://app?vid=683e502f-c30c-4970-9549-6b8a5c8340e8","ios":"levelo://app?vid=683e502f-c30c-4970-9549-6b8a5c8340e8"},"vehicle_type_id":"4","last_reported":1708628715,"current_range_meters":0,"station_id":"ce4bgop2rcd13ifvqc1g","pricing_plan_id":"cebpf4jnsgd1na2vs0mg"},{"bike_id":"7f510d0a-be7e-4fa9-89c7-456d9a997a8c","system_id":"levelo_inurba_marseille","lat":43.322872,"lon":5.382756,"is_reserved":false,"is_disabled":false,"rental_uris":{"android":"levelo://app?vid=7f510d0a-be7e-4fa9-89c7-456d9a997a8c","ios":"levelo://app?vid=7f510d0a-be7e-4fa9-89c7-456d9a997a8c"},"vehicle_type_id":"4","last_reported":1708628715,"current_range_meters":2800,"station_id":"ce4bhr12rcd13ifvqhqg","pricing_plan_id":"cebpf4jnsgd1na2vs0mg"},{"bike_id":"2a7a48bb-3f05-45ad-af9a-786905f55a03","system_id":"levelo_inurba_marseille","lat":43.322872,"lon":5.382756,"is_reserved":false,"is_disabled":false,"rental_uris":{"android":"levelo://app?vid=2a7a48bb-3f05-45ad-af9a-786905f55a03","ios":"levelo://app?vid=2a7a48bb-3f05-45ad-af9a-786905f55a03"},"vehicle_type_id":"4","last_reported":1708628715,"current_range_meters":15600,"station_id":"ce4bhr12rcd13ifvqhqg","pricing_plan_id":"cebpf4jnsgd1na2vs0mg"},{"bike_id":"6bf38e7a-1f91-4319-bfdd-cf66ab79d76d","system_id":"levelo_inurba_marseille","lat":43.322872,"lon":5.382756,"is_reserved":false,"is_disabled":false,"rental_uris":{"android":"levelo://app?vid=6bf38e7a-1f91-4319-bfdd-cf66ab79d76d","ios":"levelo://app?vid=6bf38e7a-1f91-4319-bfdd-cf66ab79d76d"},"vehicle_type_id":"4","last_reported":1708628715,"current_range_meters":31200,"station_id":"ce4bhr12rcd13ifvqhqg","pricing_plan_id":"cebpf4jnsgd1na2vs0mg"},{"bike_id":"3d95db81-f962-4730-8437-87466214ec68","system_id":"levelo_inurba_marseille","lat":43.322872,"lon":5.382756,"is_reserved":false,"is_disabled":false,"rental_uris":{"android":"levelo://app?vid=3d95db81-f962-4730-8437-87466214ec68","ios":"levelo://app?vid=3d95db81-f962-4730-8437-87466214ec68"},"vehicle_type_id":"4","last_reported":1708628715,"current_range_meters":12800,"station_id":"ce4bhr12rcd13ifvqhqg","pricing_plan_id":"cebpf4jnsgd1na2vs0mg"},{"bike_id":"6401fe8d-e97c-468e-b15a-db291e3fd114","system_id":"levelo_inurba_marseille","lat":43.297163,"lon":5.365866,"is_reserved":false,"is_disabled":false,"rental_uris":{"android":"levelo://app?vid=6401fe8d-e97c-468e-b15a-db291e3fd114","ios":"levelo://app?vid=6401fe8d-e97c-468e-b15a-db291e3fd114"},"vehicle_type_id":"4","last_reported":1708628715,"current_range_meters":1600,"station_id":"ce4bgn12rcd13ifvqbt0","pricing_plan_id":"cebpf4jnsgd1na2vs0mg"},{"bike_id":"6477a460-c7b0-4c31-aaa5-166acac44504","system_id":"levelo_inurba_marseille","lat":43.32448,"lon":5.38269,"is_reserved":false,"is_disabled":false,"rental_uris":{"android":"levelo://app?vid=6477a460-c7b0-4c31-aaa5-166acac44504","ios":"levelo://app?vid=6477a460-c7b0-4c31-aaa5-166acac44504"},"vehicle_type_id":"4","last_reported":1708628715,"current_range_meters":21200,"station_id":"","pricing_plan_id":"cebpf4jnsgd1na2vs0mg"},{"bike_id":"370586cc-9c2e-4f8c-a673-ebd7f64ac8bd","system_id":"levelo_inurba_marseille","lat":43.2968,"lon":5.37291,"is_reserved":false,"is_disabled":false,"rental_uris":{"android":"levelo://app?vid=370586cc-9c2e-4f8c-a673-ebd7f64ac8bd","ios":"levelo://app?vid=370586cc-9c2e-4f8c-a673-ebd7f64ac8bd"},"vehicle_type_id":"4","last_reported":1708628715,"current_range_meters":16400,"station_id":"ce4bgk12rcd13ifvqbj0","pricing_plan_id":"cebpf4jnsgd1na2vs0mg"},{"bike_id":"4098bd69-72fb-4a82-a319-e076f56319ca","system_id":"levelo_inurba_marseille","lat":43.29622,"lon":5.37168,"is_reserved":false,"is_disabled":false,"rental_uris":{"android":"levelo://app?vid=4098bd69-72fb-4a82-a319-e076f56319ca","ios":"levelo://app?vid=4098bd69-72fb-4a82-a319-e076f56319ca"},"vehicle_type_id":"4","last_reported":1708628715,"current_range_meters":16400,"station_id":"ce4bgnh2rcd13ifvqc0g","pricing_plan_id":"cebpf4jnsgd1na2vs0mg"},{"bike_id":"e2c46424-6789-4f6b-a3de-d2a982272c5d","system_id":"levelo_inurba_marseille","lat":43.296131,"lon":5.370791,"is_reserved":false,"is_disabled":false,"rental_uris":{"android":"levelo://app?vid=e2c46424-6789-4f6b-a3de-d2a982272c5d","ios":"levelo://app?vid=e2c46424-6789-4f6b-a3de-d2a982272c5d"},"vehicle_type_id":"4","last_reported":1708628715,"current_range_meters":2000,"station_id":"ce4bgnh2rcd13ifvqc0g","pricing_plan_id":"cebpf4jnsgd1na2vs0mg"},{"bike_id":"92b63d8f-1d76-4c30-937c-e1830bd869a2","system_id":"levelo_inurba_marseille","lat":43.29585,"lon":5.36745,"is_reserved":false,"is_disabled":false,"rental_uris":{"android":"levelo://app?vid=92b63d8f-1d76-4c30-937c-e1830bd869a2","ios":"levelo://app?vid=92b63d8f-1d76-4c30-937c-e1830bd869a2"},"vehicle_type_id":"4","last_reported":1708628715,"current_range_meters":7600,"station_id":"ce4bgph2rcd13ifvqc2g","pricing_plan_id":"cebpf4jnsgd1na2vs0mg"},{"bike_id":"c98992c2-748b-4d1d-958e-8bb162db43a6","system_id":"levelo_inurba_marseille","lat":43.29912,"lon":5.3815,"is_reserved":false,"is_disabled":false,"rental_uris":{"android":"levelo://app?vid=c98992c2-748b-4d1d-958e-8bb162db43a6","ios":"levelo://app?vid=c98992c2-748b-4d1d-958e-8bb162db43a6"},"vehicle_type_id":"4","last_reported":1708628715,"current_range_meters":6800,"station_id":"ce4bgj12rcd13ifvqbc0","pricing_plan_id":"cebpf4jnsgd1na2vs0mg"},{"bike_id":"f746cf04-9abb-4d86-9830-04e66f908657","system_id":"levelo_inurba_marseille","lat":43.299028,"lon":5.381509,"is_reserved":false,"is_disabled":false,"rental_uris":{"android":"levelo://app?vid=f746cf04-9abb-4d86-9830-04e66f908657","ios":"levelo://app?vid=f746cf04-9abb-4d86-9830-04e66f908657"},"vehicle_type_id":"4","last_reported":1708628715,"current_range_meters":25200,"station_id":"ce4bgj12rcd13ifvqbc0","pricing_plan_id":"cebpf4jnsgd1na2vs0mg"},{"bike_id":"dd8ce9ef-67a3-4845-9d8d-ef25bf0f5d9f","system_id":"levelo_inurba_marseille","lat":43.309589,"lon":5.390258,"is_reserved":false,"is_disabled":false,"rental_uris":{"android":"levelo://app?vid=dd8ce9ef-67a3-4845-9d8d-ef25bf0f5d9f","ios":"levelo://app?vid=dd8ce9ef-67a3-4845-9d8d-ef25bf0f5d9f"},"vehicle_type_id":"4","last_reported":1708628715,"current_range_meters":4000,"station_id":"ce4bgup2rcd13ifvqco0","pricing_plan_id":"cebpf4jnsgd1na2vs0mg"},{"bike_id":"152d8a7a-33ac-4468-a421-c32ce825a606","system_id":"levelo_inurba_marseille","lat":43.309589,"lon":5.390258,"is_reserved":false,"is_disabled":false,"rental_uris":{"android":"levelo://app?vid=152d8a7a-33ac-4468-a421-c32ce825a606","ios":"levelo://app?vid=152d8a7a-33ac-4468-a421-c32ce825a606"},"vehicle_type_id":"4","last_reported":1708628715,"current_range_meters":9600,"station_id":"ce4bgup2rcd13ifvqco0","pricing_plan_id":"cebpf4jnsgd1na2vs0mg"},{"bike_id":"e3b62978-3adc-433d-9ab0-cf6bc3cb1a61","system_id":"levelo_inurba_marseille","lat":43.309589,"lon":5.390258,"is_reserved":false,"is_disabled":false,"rental_uris":{"android":"levelo://app?vid=e3b62978-3adc-433d-9ab0-cf6bc3cb1a61","ios":"levelo://app?vid=e3b62978-3adc-433d-9ab0-cf6bc3cb1a61"},"vehicle_type_id":"4","last_reported":1708628715,"current_range_meters":0,"station_id":"ce4bgup2rcd13ifvqco0","pricing_plan_id":"cebpf4jnsgd1na2vs0mg"},{"bike_id":"86aebadc-0845-4768-a52d-c878358af6c7","system_id":"levelo_inurba_marseille","lat":43.309589,"lon":5.390258,"is_reserved":false,"is_disabled":false,"rental_uris":{"android":"levelo://app?vid=86aebadc-0845-4768-a52d-c878358af6c7","ios":"levelo://app?vid=86aebadc-0845-4768-a52d-c878358af6c7"},"vehicle_type_id":"4","last_reported":1708628715,"current_range_meters":0,"station_id":"ce4bgup2rcd13ifvqco0","pricing_plan_id":"cebpf4jnsgd1na2vs0mg"},{"bike_id":"6c225a34-9ef7-4ed5-a408-c62fae431689","system_id":"levelo_inurba_marseille","lat":43.317557,"lon":5.390173,"is_reserved":false,"is_disabled":false,"rental_uris":{"android":"levelo://app?vid=6c225a34-9ef7-4ed5-a408-c62fae431689","ios":"levelo://app?vid=6c225a34-9ef7-4ed5-a408-c62fae431689"},"vehicle_type_id":"4","last_reported":1708628715,"current_range_meters":6800,"station_id":"ce4bhqp2rcd13ifvqhng","pricing_plan_id":"cebpf4jnsgd1na2vs0mg"},{"bike_id":"291c96e6-46e5-4634-9d77-667a6c9da211","system_id":"levelo_inurba_marseille","lat":43.31746,"lon":5.39017,"is_reserved":false,"is_disabled":false,"rental_uris":{"android":"levelo://app?vid=291c96e6-46e5-4634-9d77-667a6c9da211","ios":"levelo://app?vid=291c96e6-46e5-4634-9d77-667a6c9da211"},"vehicle_type_id":"4","last_reported":1708628715,"current_range_meters":22000,"station_id":"ce4bhqp2rcd13ifvqhng","pricing_plan_id":"cebpf4jnsgd1na2vs0mg"},{"bike_id":"c7a1b0b6-18ac-4a5f-942b-e4d26edb9652","system_id":"levelo_inurba_marseille","lat":43.317557,"lon":5.390173,"is_reserved":false,"is_disabled":false,"rental_uris":{"android":"levelo://app?vid=c7a1b0b6-18ac-4a5f-942b-e4d26edb9652","ios":"levelo://app?vid=c7a1b0b6-18ac-4a5f-942b-e4d26edb9652"},"vehicle_type_id":"4","last_reported":1708628715,"current_range_meters":15600,"station_id":"ce4bhqp2rcd13ifvqhng","pricing_plan_id":"cebpf4jnsgd1na2vs0mg"},{"bike_id":"a0dade05-25d7-4a9d-a94d-119494835d95","system_id":"levelo_inurba_marseille","lat":43.317557,"lon":5.390173,"is_reserved":false,"is_disabled":false,"rental_uris":{"android":"levelo://app?vid=a0dade05-25d7-4a9d-a94d-119494835d95","ios":"levelo://app?vid=a0dade05-25d7-4a9d-a94d-119494835d95"},"vehicle_type_id":"4","last_reported":1708628715,"current_range_meters":3200,"station_id":"ce4bhqp2rcd13ifvqhng","pricing_plan_id":"cebpf4jnsgd1na2vs0mg"},{"bike_id":"e561fa3f-dc67-45f6-b6e7-3ba8d49cd902","system_id":"levelo_inurba_marseille","lat":43.31758,"lon":5.39015,"is_reserved":false,"is_disabled":false,"rental_uris":{"android":"levelo://app?vid=e561fa3f-dc67-45f6-b6e7-3ba8d49cd902","ios":"levelo://app?vid=e561fa3f-dc67-45f6-b6e7-3ba8d49cd902"},"vehicle_type_id":"4","last_reported":1708628715,"current_range_meters":16400,"station_id":"ce4bhqp2rcd13ifvqhng","pricing_plan_id":"cebpf4jnsgd1na2vs0mg"},{"bike_id":"7a226d71-e856-4832-8e70-b6a4167a3589","system_id":"levelo_inurba_marseille","lat":43.317557,"lon":5.390173,"is_reserved":false,"is_disabled":false,"rental_uris":{"android":"levelo://app?vid=7a226d71-e856-4832-8e70-b6a4167a3589","ios":"levelo://app?vid=7a226d71-e856-4832-8e70-b6a4167a3589"},"vehicle_type_id":"4","last_reported":1708628715,"current_range_meters":26400,"station_id":"ce4bhqp2rcd13ifvqhng","pricing_plan_id":"cebpf4jnsgd1na2vs0mg"},{"bike_id":"090afd90-021c-4273-b543-3b6399a05532","system_id":"levelo_inurba_marseille","lat":43.317557,"lon":5.390173,"is_reserved":false,"is_disabled":false,"rental_uris":{"android":"levelo://app?vid=090afd90-021c-4273-b543-3b6399a05532","ios":"levelo://app?vid=090afd90-021c-4273-b543-3b6399a05532"},"vehicle_type_id":"4","last_reported":1708628715,"current_range_meters":21600,"station_id":"ce4bhqp2rcd13ifvqhng","pricing_plan_id":"cebpf4jnsgd1na2vs0mg"},{"bike_id":"561a860d-78f5-4f5b-96cb-ba8a08a08098","system_id":"levelo_inurba_marseille","lat":43.317557,"lon":5.390173,"is_reserved":false,"is_disabled":false,"rental_uris":{"android":"levelo://app?vid=561a860d-78f5-4f5b-96cb-ba8a08a08098","ios":"levelo://app?vid=561a860d-78f5-4f5b-96cb-ba8a08a08098"},"vehicle_type_id":"4","last_reported":1708628715,"current_range_meters":28000,"station_id":"ce4bhqp2rcd13ifvqhng","pricing_plan_id":"cebpf4jnsgd1na2vs0mg"},{"bike_id":"20ea133f-f11e-47a8-b819-7aa34295c972","system_id":"levelo_inurba_marseille","lat":43.317557,"lon":5.390173,"is_reserved":false,"is_disabled":false,"rental_uris":{"android":"levelo://app?vid=20ea133f-f11e-47a8-b819-7aa34295c972","ios":"levelo://app?vid=20ea133f-f11e-47a8-b819-7aa34295c972"},"vehicle_type_id":"4","last_reported":1708628715,"current_range_meters":26800,"station_id":"ce4bhqp2rcd13ifvqhng","pricing_plan_id":"cebpf4jnsgd1na2vs0mg"},{"bike_id":"b267ad62-62f1-4e6b-bf33-32d3f1a0b5dd","system_id":"levelo_inurba_marseille","lat":43.317557,"lon":5.390173,"is_reserved":false,"is_disabled":false,"rental_uris":{"android":"levelo://app?vid=b267ad62-62f1-4e6b-bf33-32d3f1a0b5dd","ios":"levelo://app?vid=b267ad62-62f1-4e6b-bf33-32d3f1a0b5dd"},"vehicle_type_id":"4","last_reported":1708628715,"current_range_meters":25200,"station_id":"ce4bhqp2rcd13ifvqhng","pricing_plan_id":"cebpf4jnsgd1na2vs0mg"},{"bike_id":"5a512005-a144-4b11-aca6-f7375b407e40","system_id":"levelo_inurba_marseille","lat":43.298037,"lon":5.381066,"is_reserved":false,"is_disabled":false,"rental_uris":{"android":"levelo://app?vid=5a512005-a144-4b11-aca6-f7375b407e40","ios":"levelo://app?vid=5a512005-a144-4b11-aca6-f7375b407e40"},"vehicle_type_id":"4","last_reported":1708628715,"current_range_meters":23600,"station_id":"ce4bgip2rcd13ifvqbb0","pricing_plan_id":"cebpf4jnsgd1na2vs0mg"},{"bike_id":"12ab760c-dac5-4178-893a-c5fb48873adc","system_id":"levelo_inurba_marseille","lat":43.29794,"lon":5.38089,"is_reserved":false,"is_disabled":false,"rental_uris":{"android":"levelo://app?vid=12ab760c-dac5-4178-893a-c5fb48873adc","ios":"levelo://app?vid=12ab760c-dac5-4178-893a-c5fb48873adc"},"vehicle_type_id":"4","last_reported":1708628715,"current_range_meters":28400,"station_id":"ce4bgip2rcd13ifvqbb0","pricing_plan_id":"cebpf4jnsgd1na2vs0mg"},{"bike_id":"2919cfd8-fad3-4136-b2b7-1c5c1e2f1fc1","system_id":"levelo_inurba_marseille","lat":43.298037,"lon":5.381066,"is_reserved":false,"is_disabled":false,"rental_uris":{"android":"levelo://app?vid=2919cfd8-fad3-4136-b2b7-1c5c1e2f1fc1","ios":"levelo://app?vid=2919cfd8-fad3-4136-b2b7-1c5c1e2f1fc1"},"vehicle_type_id":"4","last_reported":1708628715,"current_range_meters":11200,"station_id":"ce4bgip2rcd13ifvqbb0","pricing_plan_id":"cebpf4jnsgd1na2vs0mg"},{"bike_id":"659aef5e-3a5a-4375-9c38-6e5212870b47","system_id":"levelo_inurba_marseille","lat":43.298037,"lon":5.381066,"is_reserved":false,"is_disabled":false,"rental_uris":{"android":"levelo://app?vid=659aef5e-3a5a-4375-9c38-6e5212870b47","ios":"levelo://app?vid=659aef5e-3a5a-4375-9c38-6e5212870b47"},"vehicle_type_id":"4","last_reported":1708628715,"current_range_meters":30800,"station_id":"ce4bgip2rcd13ifvqbb0","pricing_plan_id":"cebpf4jnsgd1na2vs0mg"},{"bike_id":"4ec30cb5-877c-45fe-9776-124cded85db8","system_id":"levelo_inurba_marseille","lat":43.304274,"lon":5.388873,"is_reserved":false,"is_disabled":false,"rental_uris":{"android":"levelo://app?vid=4ec30cb5-877c-45fe-9776-124cded85db8","ios":"levelo://app?vid=4ec30cb5-877c-45fe-9776-124cded85db8"},"vehicle_type_id":"4","last_reported":1708628715,"current_range_meters":18000,"station_id":"ce4bgk12rcd13ifvqbi0","pricing_plan_id":"cebpf4jnsgd1na2vs0mg"},{"bike_id":"a8abfa62-08b2-41c8-9f3a-8caae0e30abd","system_id":"levelo_inurba_marseille","lat":43.29792,"lon":5.38102,"is_reserved":false,"is_disabled":false,"rental_uris":{"android":"levelo://app?vid=a8abfa62-08b2-41c8-9f3a-8caae0e30abd","ios":"levelo://app?vid=a8abfa62-08b2-41c8-9f3a-8caae0e30abd"},"vehicle_type_id":"4","last_reported":1708628715,"current_range_meters":24000,"station_id":"ce4bgip2rcd13ifvqbb0","pricing_plan_id":"cebpf4jnsgd1na2vs0mg"},{"bike_id":"4d55c9cb-c039-437e-bb23-f65d6b8efead","system_id":"levelo_inurba_marseille","lat":43.304278,"lon":5.388868,"is_reserved":false,"is_disabled":false,"rental_uris":{"android":"levelo://app?vid=4d55c9cb-c039-437e-bb23-f65d6b8efead","ios":"levelo://app?vid=4d55c9cb-c039-437e-bb23-f65d6b8efead"},"vehicle_type_id":"4","last_reported":1708628715,"current_range_meters":7200,"station_id":"ce4bgk12rcd13ifvqbi0","pricing_plan_id":"cebpf4jnsgd1na2vs0mg"},{"bike_id":"8f6bc50e-c869-45ef-9408-35b4b9221b49","system_id":"levelo_inurba_marseille","lat":43.298037,"lon":5.381066,"is_reserved":false,"is_disabled":false,"rental_uris":{"android":"levelo://app?vid=8f6bc50e-c869-45ef-9408-35b4b9221b49","ios":"levelo://app?vid=8f6bc50e-c869-45ef-9408-35b4b9221b49"},"vehicle_type_id":"4","last_reported":1708628715,"current_range_meters":6400,"station_id":"ce4bgip2rcd13ifvqbb0","pricing_plan_id":"cebpf4jnsgd1na2vs0mg"},{"bike_id":"7918e92a-afb5-4662-af69-6ee488d0ca94","system_id":"levelo_inurba_marseille","lat":43.296277,"lon":5.377108,"is_reserved":false,"is_disabled":false,"rental_uris":{"android":"levelo://app?vid=7918e92a-afb5-4662-af69-6ee488d0ca94","ios":"levelo://app?vid=7918e92a-afb5-4662-af69-6ee488d0ca94"},"vehicle_type_id":"4","last_reported":1708628715,"current_range_meters":22000,"station_id":"ce4bgi92rcd13ifvqb90","pricing_plan_id":"cebpf4jnsgd1na2vs0mg"},{"bike_id":"2d2060d1-d171-4818-9dd2-a36836811f82","system_id":"levelo_inurba_marseille","lat":43.297862,"lon":5.381156,"is_reserved":false,"is_disabled":false,"rental_uris":{"android":"levelo://app?vid=2d2060d1-d171-4818-9dd2-a36836811f82","ios":"levelo://app?vid=2d2060d1-d171-4818-9dd2-a36836811f82"},"vehicle_type_id":"4","last_reported":1708628715,"current_range_meters":5600,"station_id":"ce4bgip2rcd13ifvqbb0","pricing_plan_id":"cebpf4jnsgd1na2vs0mg"},{"bike_id":"c8d896fb-465b-45cb-8fc0-86695dade612","system_id":"levelo_inurba_marseille","lat":43.295279,"lon":5.375048,"is_reserved":false,"is_disabled":false,"rental_uris":{"android":"levelo://app?vid=c8d896fb-465b-45cb-8fc0-86695dade612","ios":"levelo://app?vid=c8d896fb-465b-45cb-8fc0-86695dade612"},"vehicle_type_id":"4","last_reported":1708628715,"current_range_meters":16400,"station_id":"ce4bgkp2rcd13ifvqbmg","pricing_plan_id":"cebpf4jnsgd1na2vs0mg"},{"bike_id":"caf545b4-858d-42f0-9c1b-5a98b3f89efd","system_id":"levelo_inurba_marseille","lat":43.29973,"lon":5.38491,"is_reserved":false,"is_disabled":false,"rental_uris":{"android":"levelo://app?vid=caf545b4-858d-42f0-9c1b-5a98b3f89efd","ios":"levelo://app?vid=caf545b4-858d-42f0-9c1b-5a98b3f89efd"},"vehicle_type_id":"4","last_reported":1708628715,"current_range_meters":21600,"station_id":"ce4bgj92rcd13ifvqbd0","pricing_plan_id":"cebpf4jnsgd1na2vs0mg"},{"bike_id":"ed5a04f7-55aa-4d92-8da6-beee61a823ab","system_id":"levelo_inurba_marseille","lat":43.29974,"lon":5.38496,"is_reserved":false,"is_disabled":false,"rental_uris":{"android":"levelo://app?vid=ed5a04f7-55aa-4d92-8da6-beee61a823ab","ios":"levelo://app?vid=ed5a04f7-55aa-4d92-8da6-beee61a823ab"},"vehicle_type_id":"4","last_reported":1708628715,"current_range_meters":30800,"station_id":"ce4bgj92rcd13ifvqbd0","pricing_plan_id":"cebpf4jnsgd1na2vs0mg"},{"bike_id":"1f6a9408-0be3-4df3-bcc1-2da2802d2631","system_id":"levelo_inurba_marseille","lat":43.295279,"lon":5.375048,"is_reserved":false,"is_disabled":false,"rental_uris":{"android":"levelo://app?vid=1f6a9408-0be3-4df3-bcc1-2da2802d2631","ios":"levelo://app?vid=1f6a9408-0be3-4df3-bcc1-2da2802d2631"},"vehicle_type_id":"4","last_reported":1708628715,"current_range_meters":27600,"station_id":"ce4bgkp2rcd13ifvqbmg","pricing_plan_id":"cebpf4jnsgd1na2vs0mg"},{"bike_id":"40fbd88e-1899-46c9-b54a-47f0973a9847","system_id":"levelo_inurba_marseille","lat":43.309589,"lon":5.390258,"is_reserved":false,"is_disabled":false,"rental_uris":{"android":"levelo://app?vid=40fbd88e-1899-46c9-b54a-47f0973a9847","ios":"levelo://app?vid=40fbd88e-1899-46c9-b54a-47f0973a9847"},"vehicle_type_id":"4","last_reported":1708628715,"current_range_meters":22800,"station_id":"ce4bgup2rcd13ifvqco0","pricing_plan_id":"cebpf4jnsgd1na2vs0mg"},{"bike_id":"92ed4d35-eb20-449d-b1e1-26ec03a96382","system_id":"levelo_inurba_marseille","lat":43.29971,"lon":5.38525,"is_reserved":false,"is_disabled":false,"rental_uris":{"android":"levelo://app?vid=92ed4d35-eb20-449d-b1e1-26ec03a96382","ios":"levelo://app?vid=92ed4d35-eb20-449d-b1e1-26ec03a96382"},"vehicle_type_id":"4","last_reported":1708628715,"current_range_meters":28800,"station_id":"ce4bgj92rcd13ifvqbd0","pricing_plan_id":"cebpf4jnsgd1na2vs0mg"},{"bike_id":"22d31497-e427-424d-a442-062998e6fd5f","system_id":"levelo_inurba_marseille","lat":43.29602,"lon":5.381084,"is_reserved":false,"is_disabled":false,"rental_uris":{"android":"levelo://app?vid=22d31497-e427-424d-a442-062998e6fd5f","ios":"levelo://app?vid=22d31497-e427-424d-a442-062998e6fd5f"},"vehicle_type_id":"4","last_reported":1708628715,"current_range_meters":28800,"station_id":"ce4bgl12rcd13ifvqbo0","pricing_plan_id":"cebpf4jnsgd1na2vs0mg"},{"bike_id":"886bc5d2-8a3c-4d03-aa62-df190b70ad7b","system_id":"levelo_inurba_marseille","lat":43.29602,"lon":5.381084,"is_reserved":false,"is_disabled":false,"rental_uris":{"android":"levelo://app?vid=886bc5d2-8a3c-4d03-aa62-df190b70ad7b","ios":"levelo://app?vid=886bc5d2-8a3c-4d03-aa62-df190b70ad7b"},"vehicle_type_id":"4","last_reported":1708628715,"current_range_meters":4400,"station_id":"ce4bgl12rcd13ifvqbo0","pricing_plan_id":"cebpf4jnsgd1na2vs0mg"},{"bike_id":"b8a447f0-4e0a-4b76-a3b9-4722fdce76fd","system_id":"levelo_inurba_marseille","lat":43.293259,"lon":5.371586,"is_reserved":false,"is_disabled":false,"rental_uris":{"android":"levelo://app?vid=b8a447f0-4e0a-4b76-a3b9-4722fdce76fd","ios":"levelo://app?vid=b8a447f0-4e0a-4b76-a3b9-4722fdce76fd"},"vehicle_type_id":"4","last_reported":1708628715,"current_range_meters":14000,"station_id":"ce4bgh92rcd13ifvqb40","pricing_plan_id":"cebpf4jnsgd1na2vs0mg"},{"bike_id":"dc21687e-b0e3-42d0-85ee-6784833a148b","system_id":"levelo_inurba_marseille","lat":43.29306,"lon":5.37165,"is_reserved":false,"is_disabled":false,"rental_uris":{"android":"levelo://app?vid=dc21687e-b0e3-42d0-85ee-6784833a148b","ios":"levelo://app?vid=dc21687e-b0e3-42d0-85ee-6784833a148b"},"vehicle_type_id":"4","last_reported":1708628715,"current_range_meters":10800,"station_id":"ce4bgh92rcd13ifvqb40","pricing_plan_id":"cebpf4jnsgd1na2vs0mg"},{"bike_id":"226e2dc5-9718-498c-8c71-6b732fc2a1a0","system_id":"levelo_inurba_marseille","lat":43.295858,"lon":5.381645,"is_reserved":false,"is_disabled":false,"rental_uris":{"android":"levelo://app?vid=226e2dc5-9718-498c-8c71-6b732fc2a1a0","ios":"levelo://app?vid=226e2dc5-9718-498c-8c71-6b732fc2a1a0"},"vehicle_type_id":"4","last_reported":1708628715,"current_range_meters":23600,"station_id":"","pricing_plan_id":"cebpf4jnsgd1na2vs0mg"},{"bike_id":"94941c66-ae0c-4450-bc8e-40c13f065deb","system_id":"levelo_inurba_marseille","lat":43.292749,"lon":5.368402,"is_reserved":false,"is_disabled":false,"rental_uris":{"android":"levelo://app?vid=94941c66-ae0c-4450-bc8e-40c13f065deb","ios":"levelo://app?vid=94941c66-ae0c-4450-bc8e-40c13f065deb"},"vehicle_type_id":"4","last_reported":1708628715,"current_range_meters":8800,"station_id":"ce4bhbp2rcd13ifvqesg","pricing_plan_id":"cebpf4jnsgd1na2vs0mg"},{"bike_id":"4ad2f039-d526-43fe-992c-62b0d68b7cdd","system_id":"levelo_inurba_marseille","lat":43.29312,"lon":5.37459,"is_reserved":false,"is_disabled":false,"rental_uris":{"android":"levelo://app?vid=4ad2f039-d526-43fe-992c-62b0d68b7cdd","ios":"levelo://app?vid=4ad2f039-d526-43fe-992c-62b0d68b7cdd"},"vehicle_type_id":"4","last_reported":1708628715,"current_range_meters":20800,"station_id":"ce4bgi12rcd13ifvqb70","pricing_plan_id":"cebpf4jnsgd1na2vs0mg"},{"bike_id":"9af559ae-53d4-4998-b748-959f67c40714","system_id":"levelo_inurba_marseille","lat":43.293009,"lon":5.374584,"is_reserved":false,"is_disabled":false,"rental_uris":{"android":"levelo://app?vid=9af559ae-53d4-4998-b748-959f67c40714","ios":"levelo://app?vid=9af559ae-53d4-4998-b748-959f67c40714"},"vehicle_type_id":"4","last_reported":1708628715,"current_range_meters":2000,"station_id":"ce4bgi12rcd13ifvqb70","pricing_plan_id":"cebpf4jnsgd1na2vs0mg"},{"bike_id":"085c8ce5-8d3c-492a-b9ea-2005620f767a","system_id":"levelo_inurba_marseille","lat":43.30597,"lon":5.39358,"is_reserved":false,"is_disabled":false,"rental_uris":{"android":"levelo://app?vid=085c8ce5-8d3c-492a-b9ea-2005620f767a","ios":"levelo://app?vid=085c8ce5-8d3c-492a-b9ea-2005620f767a"},"vehicle_type_id":"4","last_reported":1708628715,"current_range_meters":0,"station_id":"ce4bh0p2rcd13ifvqd80","pricing_plan_id":"cebpf4jnsgd1na2vs0mg"},{"bike_id":"5dd14617-37e3-499d-bb0d-42111ae2e100","system_id":"levelo_inurba_marseille","lat":43.303002,"lon":5.392142,"is_reserved":false,"is_disabled":false,"rental_uris":{"android":"levelo://app?vid=5dd14617-37e3-499d-bb0d-42111ae2e100","ios":"levelo://app?vid=5dd14617-37e3-499d-bb0d-42111ae2e100"},"vehicle_type_id":"4","last_reported":1708628715,"current_range_meters":12400,"station_id":"ce4bgkh2rcd13ifvqbk0","pricing_plan_id":"cebpf4jnsgd1na2vs0mg"},{"bike_id":"4bf23102-14bd-4ebd-ba7d-c443dbe849e8","system_id":"levelo_inurba_marseille","lat":43.29369,"lon":5.37843,"is_reserved":false,"is_disabled":false,"rental_uris":{"android":"levelo://app?vid=4bf23102-14bd-4ebd-ba7d-c443dbe849e8","ios":"levelo://app?vid=4bf23102-14bd-4ebd-ba7d-c443dbe849e8"},"vehicle_type_id":"4","last_reported":1708628715,"current_range_meters":0,"station_id":"ce4bgjh2rcd13ifvqbf0","pricing_plan_id":"cebpf4jnsgd1na2vs0mg"},{"bike_id":"9ec7b376-0047-4448-a064-e9320e67d3b1","system_id":"levelo_inurba_marseille","lat":43.303346,"lon":5.392445,"is_reserved":false,"is_disabled":false,"rental_uris":{"android":"levelo://app?vid=9ec7b376-0047-4448-a064-e9320e67d3b1","ios":"levelo://app?vid=9ec7b376-0047-4448-a064-e9320e67d3b1"},"vehicle_type_id":"4","last_reported":1708628715,"current_range_meters":8000,"station_id":"","pricing_plan_id":"cebpf4jnsgd1na2vs0mg"},{"bike_id":"782c5ceb-c36f-43c1-aeb8-afa3b99eaee8","system_id":"levelo_inurba_marseille","lat":43.30101,"lon":5.3907,"is_reserved":false,"is_disabled":false,"rental_uris":{"android":"levelo://app?vid=782c5ceb-c36f-43c1-aeb8-afa3b99eaee8","ios":"levelo://app?vid=782c5ceb-c36f-43c1-aeb8-afa3b99eaee8"},"vehicle_type_id":"4","last_reported":1708628715,"current_range_meters":0,"station_id":"ce4bh192rcd13ifvqdb0","pricing_plan_id":"cebpf4jnsgd1na2vs0mg"},{"bike_id":"584885bd-7500-4f91-a7b0-48c2e913a513","system_id":"levelo_inurba_marseille","lat":43.300852,"lon":5.390859,"is_reserved":false,"is_disabled":false,"rental_uris":{"android":"levelo://app?vid=584885bd-7500-4f91-a7b0-48c2e913a513","ios":"levelo://app?vid=584885bd-7500-4f91-a7b0-48c2e913a513"},"vehicle_type_id":"4","last_reported":1708628715,"current_range_meters":14000,"station_id":"ce4bh192rcd13ifvqdb0","pricing_plan_id":"cebpf4jnsgd1na2vs0mg"},{"bike_id":"4f850092-6a74-49f3-9d6c-f0bd88cd589c","system_id":"levelo_inurba_marseille","lat":43.300852,"lon":5.390859,"is_reserved":false,"is_disabled":false,"rental_uris":{"android":"levelo://app?vid=4f850092-6a74-49f3-9d6c-f0bd88cd589c","ios":"levelo://app?vid=4f850092-6a74-49f3-9d6c-f0bd88cd589c"},"vehicle_type_id":"4","last_reported":1708628715,"current_range_meters":29200,"station_id":"ce4bh192rcd13ifvqdb0","pricing_plan_id":"cebpf4jnsgd1na2vs0mg"},{"bike_id":"596e7ee3-55de-459f-a1b9-854fea39b5b0","system_id":"levelo_inurba_marseille","lat":43.300852,"lon":5.390859,"is_reserved":false,"is_disabled":false,"rental_uris":{"android":"levelo://app?vid=596e7ee3-55de-459f-a1b9-854fea39b5b0","ios":"levelo://app?vid=596e7ee3-55de-459f-a1b9-854fea39b5b0"},"vehicle_type_id":"4","last_reported":1708628715,"current_range_meters":22800,"station_id":"ce4bh192rcd13ifvqdb0","pricing_plan_id":"cebpf4jnsgd1na2vs0mg"},{"bike_id":"3099327b-152b-4ec9-ae69-17a029c0de57","system_id":"levelo_inurba_marseille","lat":43.292311,"lon":5.360731,"is_reserved":false,"is_disabled":false,"rental_uris":{"android":"levelo://app?vid=3099327b-152b-4ec9-ae69-17a029c0de57","ios":"levelo://app?vid=3099327b-152b-4ec9-ae69-17a029c0de57"},"vehicle_type_id":"4","last_reported":1708628715,"current_range_meters":26000,"station_id":"ce4bhbh2rcd13ifvqeqg","pricing_plan_id":"cebpf4jnsgd1na2vs0mg"},{"bike_id":"b4442109-41e0-4458-93ff-6bfa2aace242","system_id":"levelo_inurba_marseille","lat":43.300852,"lon":5.390859,"is_reserved":false,"is_disabled":false,"rental_uris":{"android":"levelo://app?vid=b4442109-41e0-4458-93ff-6bfa2aace242","ios":"levelo://app?vid=b4442109-41e0-4458-93ff-6bfa2aace242"},"vehicle_type_id":"4","last_reported":1708628715,"current_range_meters":24800,"station_id":"ce4bh192rcd13ifvqdb0","pricing_plan_id":"cebpf4jnsgd1na2vs0mg"},{"bike_id":"467905bf-0cc3-46da-90e8-091196733bba","system_id":"levelo_inurba_marseille","lat":43.29881,"lon":5.38906,"is_reserved":false,"is_disabled":false,"rental_uris":{"android":"levelo://app?vid=467905bf-0cc3-46da-90e8-091196733bba","ios":"levelo://app?vid=467905bf-0cc3-46da-90e8-091196733bba"},"vehicle_type_id":"4","last_reported":1708628715,"current_range_meters":6800,"station_id":"ce4bh392rcd13ifvqdl0","pricing_plan_id":"cebpf4jnsgd1na2vs0mg"},{"bike_id":"ab8133d8-a024-4ce4-8b76-9c8592cbfe2a","system_id":"levelo_inurba_marseille","lat":43.291697,"lon":5.37151,"is_reserved":false,"is_disabled":false,"rental_uris":{"android":"levelo://app?vid=ab8133d8-a024-4ce4-8b76-9c8592cbfe2a","ios":"levelo://app?vid=ab8133d8-a024-4ce4-8b76-9c8592cbfe2a"},"vehicle_type_id":"4","last_reported":1708628715,"current_range_meters":0,"station_id":"ce4bha92rcd13ifvqeh0","pricing_plan_id":"cebpf4jnsgd1na2vs0mg"},{"bike_id":"a6153501-073a-46e3-a430-ba8e6e77b615","system_id":"levelo_inurba_marseille","lat":43.291675,"lon":5.371583,"is_reserved":false,"is_disabled":false,"rental_uris":{"android":"levelo://app?vid=a6153501-073a-46e3-a430-ba8e6e77b615","ios":"levelo://app?vid=a6153501-073a-46e3-a430-ba8e6e77b615"},"vehicle_type_id":"4","last_reported":1708628715,"current_range_meters":10400,"station_id":"ce4bha92rcd13ifvqeh0","pricing_plan_id":"cebpf4jnsgd1na2vs0mg"},{"bike_id":"8764bd94-2e8e-4738-9d34-9861a66f69a9","system_id":"levelo_inurba_marseille","lat":43.298764,"lon":5.388973,"is_reserved":false,"is_disabled":false,"rental_uris":{"android":"levelo://app?vid=8764bd94-2e8e-4738-9d34-9861a66f69a9","ios":"levelo://app?vid=8764bd94-2e8e-4738-9d34-9861a66f69a9"},"vehicle_type_id":"4","last_reported":1708628715,"current_range_meters":10400,"station_id":"ce4bh392rcd13ifvqdl0","pricing_plan_id":"cebpf4jnsgd1na2vs0mg"},{"bike_id":"0fa39ae6-babd-412d-aa6a-faeda575db29","system_id":"levelo_inurba_marseille","lat":43.291994,"lon":5.357886,"is_reserved":false,"is_disabled":false,"rental_uris":{"android":"levelo://app?vid=0fa39ae6-babd-412d-aa6a-faeda575db29","ios":"levelo://app?vid=0fa39ae6-babd-412d-aa6a-faeda575db29"},"vehicle_type_id":"4","last_reported":1708628715,"current_range_meters":5600,"station_id":"ce4bhb12rcd13ifvqel0","pricing_plan_id":"cebpf4jnsgd1na2vs0mg"},{"bike_id":"269fc508-053d-4843-a197-a3f4db9a40e4","system_id":"levelo_inurba_marseille","lat":43.291994,"lon":5.357886,"is_reserved":false,"is_disabled":false,"rental_uris":{"android":"levelo://app?vid=269fc508-053d-4843-a197-a3f4db9a40e4","ios":"levelo://app?vid=269fc508-053d-4843-a197-a3f4db9a40e4"},"vehicle_type_id":"4","last_reported":1708628715,"current_range_meters":15600,"station_id":"ce4bhb12rcd13ifvqel0","pricing_plan_id":"cebpf4jnsgd1na2vs0mg"},{"bike_id":"7c0a699d-aa3f-440d-bd5d-35e3b141d408","system_id":"levelo_inurba_marseille","lat":43.291994,"lon":5.357886,"is_reserved":false,"is_disabled":false,"rental_uris":{"android":"levelo://app?vid=7c0a699d-aa3f-440d-bd5d-35e3b141d408","ios":"levelo://app?vid=7c0a699d-aa3f-440d-bd5d-35e3b141d408"},"vehicle_type_id":"4","last_reported":1708628715,"current_range_meters":0,"station_id":"ce4bhb12rcd13ifvqel0","pricing_plan_id":"cebpf4jnsgd1na2vs0mg"},{"bike_id":"0f421265-5af7-4e63-a2b6-cdab964cdef1","system_id":"levelo_inurba_marseille","lat":43.291994,"lon":5.357886,"is_reserved":false,"is_disabled":false,"rental_uris":{"android":"levelo://app?vid=0f421265-5af7-4e63-a2b6-cdab964cdef1","ios":"levelo://app?vid=0f421265-5af7-4e63-a2b6-cdab964cdef1"},"vehicle_type_id":"4","last_reported":1708628715,"current_range_meters":22000,"station_id":"ce4bhb12rcd13ifvqel0","pricing_plan_id":"cebpf4jnsgd1na2vs0mg"},{"bike_id":"2e961aa4-43c1-4676-8d14-ff47b4e4e35d","system_id":"levelo_inurba_marseille","lat":43.29529,"lon":5.385581,"is_reserved":false,"is_disabled":false,"rental_uris":{"android":"levelo://app?vid=2e961aa4-43c1-4676-8d14-ff47b4e4e35d","ios":"levelo://app?vid=2e961aa4-43c1-4676-8d14-ff47b4e4e35d"},"vehicle_type_id":"4","last_reported":1708628715,"current_range_meters":16000,"station_id":"ce4bgih2rcd13ifvqba0","pricing_plan_id":"cebpf4jnsgd1na2vs0mg"},{"bike_id":"796ffec0-97a5-43ac-a762-e88f31f7fe81","system_id":"levelo_inurba_marseille","lat":43.313291,"lon":5.396838,"is_reserved":false,"is_disabled":false,"rental_uris":{"android":"levelo://app?vid=796ffec0-97a5-43ac-a762-e88f31f7fe81","ios":"levelo://app?vid=796ffec0-97a5-43ac-a762-e88f31f7fe81"},"vehicle_type_id":"4","last_reported":1708628715,"current_range_meters":14400,"station_id":"ce4bgvp2rcd13ifvqcu0","pricing_plan_id":"cebpf4jnsgd1na2vs0mg"},{"bike_id":"6ccce398-e0e6-405c-9f44-83a0996b8833","system_id":"levelo_inurba_marseille","lat":43.309038,"lon":5.396546,"is_reserved":false,"is_disabled":false,"rental_uris":{"android":"levelo://app?vid=6ccce398-e0e6-405c-9f44-83a0996b8833","ios":"levelo://app?vid=6ccce398-e0e6-405c-9f44-83a0996b8833"},"vehicle_type_id":"4","last_reported":1708628715,"current_range_meters":5200,"station_id":"ce4bh012rcd13ifvqcv0","pricing_plan_id":"cebpf4jnsgd1na2vs0mg"},{"bike_id":"99b956d8-de91-44a5-8d02-7c97df3c5c9e","system_id":"levelo_inurba_marseille","lat":43.29529,"lon":5.385581,"is_reserved":false,"is_disabled":false,"rental_uris":{"android":"levelo://app?vid=99b956d8-de91-44a5-8d02-7c97df3c5c9e","ios":"levelo://app?vid=99b956d8-de91-44a5-8d02-7c97df3c5c9e"},"vehicle_type_id":"4","last_reported":1708628715,"current_range_meters":31200,"station_id":"ce4bgih2rcd13ifvqba0","pricing_plan_id":"cebpf4jnsgd1na2vs0mg"},{"bike_id":"9096adc1-a6a6-4cbc-b376-6a21cb52c6ca","system_id":"levelo_inurba_marseille","lat":43.29529,"lon":5.385581,"is_reserved":false,"is_disabled":false,"rental_uris":{"android":"levelo://app?vid=9096adc1-a6a6-4cbc-b376-6a21cb52c6ca","ios":"levelo://app?vid=9096adc1-a6a6-4cbc-b376-6a21cb52c6ca"},"vehicle_type_id":"4","last_reported":1708628715,"current_range_meters":2000,"station_id":"ce4bgih2rcd13ifvqba0","pricing_plan_id":"cebpf4jnsgd1na2vs0mg"},{"bike_id":"25b9c421-e001-4c68-a154-c2a13ac49e02","system_id":"levelo_inurba_marseille","lat":43.29529,"lon":5.385581,"is_reserved":false,"is_disabled":false,"rental_uris":{"android":"levelo://app?vid=25b9c421-e001-4c68-a154-c2a13ac49e02","ios":"levelo://app?vid=25b9c421-e001-4c68-a154-c2a13ac49e02"},"vehicle_type_id":"4","last_reported":1708628715,"current_range_meters":8000,"station_id":"ce4bgih2rcd13ifvqba0","pricing_plan_id":"cebpf4jnsgd1na2vs0mg"},{"bike_id":"134df727-8636-462a-ae14-c9ea4be074c7","system_id":"levelo_inurba_marseille","lat":43.29529,"lon":5.385581,"is_reserved":false,"is_disabled":false,"rental_uris":{"android":"levelo://app?vid=134df727-8636-462a-ae14-c9ea4be074c7","ios":"levelo://app?vid=134df727-8636-462a-ae14-c9ea4be074c7"},"vehicle_type_id":"4","last_reported":1708628715,"current_range_meters":28400,"station_id":"ce4bgih2rcd13ifvqba0","pricing_plan_id":"cebpf4jnsgd1na2vs0mg"},{"bike_id":"3933b9c8-11a7-4654-ad4c-e236ffbaf3a3","system_id":"levelo_inurba_marseille","lat":43.29529,"lon":5.385581,"is_reserved":false,"is_disabled":false,"rental_uris":{"android":"levelo://app?vid=3933b9c8-11a7-4654-ad4c-e236ffbaf3a3","ios":"levelo://app?vid=3933b9c8-11a7-4654-ad4c-e236ffbaf3a3"},"vehicle_type_id":"4","last_reported":1708628715,"current_range_meters":6000,"station_id":"ce4bgih2rcd13ifvqba0","pricing_plan_id":"cebpf4jnsgd1na2vs0mg"},{"bike_id":"e16d7313-79a2-4c1b-8bbd-91d9d53510cf","system_id":"levelo_inurba_marseille","lat":43.29529,"lon":5.385581,"is_reserved":false,"is_disabled":false,"rental_uris":{"android":"levelo://app?vid=e16d7313-79a2-4c1b-8bbd-91d9d53510cf","ios":"levelo://app?vid=e16d7313-79a2-4c1b-8bbd-91d9d53510cf"},"vehicle_type_id":"4","last_reported":1708628715,"current_range_meters":30000,"station_id":"ce4bgih2rcd13ifvqba0","pricing_plan_id":"cebpf4jnsgd1na2vs0mg"},{"bike_id":"6bcf5200-3fff-4b6c-8c9b-fe13c4349cae","system_id":"levelo_inurba_marseille","lat":43.29532,"lon":5.38547,"is_reserved":false,"is_disabled":false,"rental_uris":{"android":"levelo://app?vid=6bcf5200-3fff-4b6c-8c9b-fe13c4349cae","ios":"levelo://app?vid=6bcf5200-3fff-4b6c-8c9b-fe13c4349cae"},"vehicle_type_id":"4","last_reported":1708628715,"current_range_meters":400,"station_id":"ce4bgih2rcd13ifvqba0","pricing_plan_id":"cebpf4jnsgd1na2vs0mg"},{"bike_id":"83171cd1-0816-4da2-8910-a7cd65bfab9e","system_id":"levelo_inurba_marseille","lat":43.29526,"lon":5.38541,"is_reserved":false,"is_disabled":false,"rental_uris":{"android":"levelo://app?vid=83171cd1-0816-4da2-8910-a7cd65bfab9e","ios":"levelo://app?vid=83171cd1-0816-4da2-8910-a7cd65bfab9e"},"vehicle_type_id":"4","last_reported":1708628715,"current_range_meters":0,"station_id":"ce4bgih2rcd13ifvqba0","pricing_plan_id":"cebpf4jnsgd1na2vs0mg"},{"bike_id":"289182bc-cff3-489a-bd8f-671825ce2ed1","system_id":"levelo_inurba_marseille","lat":43.29529,"lon":5.385581,"is_reserved":false,"is_disabled":false,"rental_uris":{"android":"levelo://app?vid=289182bc-cff3-489a-bd8f-671825ce2ed1","ios":"levelo://app?vid=289182bc-cff3-489a-bd8f-671825ce2ed1"},"vehicle_type_id":"4","last_reported":1708628715,"current_range_meters":15200,"station_id":"ce4bgih2rcd13ifvqba0","pricing_plan_id":"cebpf4jnsgd1na2vs0mg"},{"bike_id":"a1c8121c-181b-4a52-a5b1-589b853cb2f2","system_id":"levelo_inurba_marseille","lat":43.290779,"lon":5.371482,"is_reserved":false,"is_disabled":false,"rental_uris":{"android":"levelo://app?vid=a1c8121c-181b-4a52-a5b1-589b853cb2f2","ios":"levelo://app?vid=a1c8121c-181b-4a52-a5b1-589b853cb2f2"},"vehicle_type_id":"4","last_reported":1708628715,"current_range_meters":14800,"station_id":"ce4bh5p2rcd13ifvqe4g","pricing_plan_id":"cebpf4jnsgd1na2vs0mg"},{"bike_id":"fb4c9b5f-33a9-48fc-b661-0354199f6b0a","system_id":"levelo_inurba_marseille","lat":43.290779,"lon":5.371482,"is_reserved":false,"is_disabled":false,"rental_uris":{"android":"levelo://app?vid=fb4c9b5f-33a9-48fc-b661-0354199f6b0a","ios":"levelo://app?vid=fb4c9b5f-33a9-48fc-b661-0354199f6b0a"},"vehicle_type_id":"4","last_reported":1708628715,"current_range_meters":10400,"station_id":"ce4bh5p2rcd13ifvqe4g","pricing_plan_id":"cebpf4jnsgd1na2vs0mg"},{"bike_id":"ceedf0fb-8fbe-4325-8c90-80c6f49d6299","system_id":"levelo_inurba_marseille","lat":43.290779,"lon":5.371482,"is_reserved":false,"is_disabled":false,"rental_uris":{"android":"levelo://app?vid=ceedf0fb-8fbe-4325-8c90-80c6f49d6299","ios":"levelo://app?vid=ceedf0fb-8fbe-4325-8c90-80c6f49d6299"},"vehicle_type_id":"4","last_reported":1708628715,"current_range_meters":9200,"station_id":"ce4bh5p2rcd13ifvqe4g","pricing_plan_id":"cebpf4jnsgd1na2vs0mg"},{"bike_id":"51bb77ad-3109-4f3d-9371-b369d992f788","system_id":"levelo_inurba_marseille","lat":43.302008,"lon":5.394694,"is_reserved":false,"is_disabled":false,"rental_uris":{"android":"levelo://app?vid=51bb77ad-3109-4f3d-9371-b369d992f788","ios":"levelo://app?vid=51bb77ad-3109-4f3d-9371-b369d992f788"},"vehicle_type_id":"4","last_reported":1708628715,"current_range_meters":13600,"station_id":"ce4bh0p2rcd13ifvqd70","pricing_plan_id":"cebpf4jnsgd1na2vs0mg"},{"bike_id":"bf45a0be-55f7-4075-b36d-12a610be577c","system_id":"levelo_inurba_marseille","lat":43.294153,"lon":5.386305,"is_reserved":false,"is_disabled":false,"rental_uris":{"android":"levelo://app?vid=bf45a0be-55f7-4075-b36d-12a610be577c","ios":"levelo://app?vid=bf45a0be-55f7-4075-b36d-12a610be577c"},"vehicle_type_id":"4","last_reported":1708628715,"current_range_meters":6800,"station_id":"ce4bh2h2rcd13ifvqdh0","pricing_plan_id":"cebpf4jnsgd1na2vs0mg"},{"bike_id":"78571a84-9867-4739-a3da-99546482b1cf","system_id":"levelo_inurba_marseille","lat":43.294153,"lon":5.386305,"is_reserved":false,"is_disabled":false,"rental_uris":{"android":"levelo://app?vid=78571a84-9867-4739-a3da-99546482b1cf","ios":"levelo://app?vid=78571a84-9867-4739-a3da-99546482b1cf"},"vehicle_type_id":"4","last_reported":1708628715,"current_range_meters":23600,"station_id":"ce4bh2h2rcd13ifvqdh0","pricing_plan_id":"cebpf4jnsgd1na2vs0mg"},{"bike_id":"38e50c5f-8a8d-40e2-a71f-8c4800468d29","system_id":"levelo_inurba_marseille","lat":43.290319,"lon":5.375732,"is_reserved":false,"is_disabled":false,"rental_uris":{"android":"levelo://app?vid=38e50c5f-8a8d-40e2-a71f-8c4800468d29","ios":"levelo://app?vid=38e50c5f-8a8d-40e2-a71f-8c4800468d29"},"vehicle_type_id":"4","last_reported":1708628715,"current_range_meters":8400,"station_id":"ce4bh692rcd13ifvqe90","pricing_plan_id":"cebpf4jnsgd1na2vs0mg"},{"bike_id":"8ae0a72b-e90d-46a3-b534-d3ba216dc771","system_id":"levelo_inurba_marseille","lat":43.290319,"lon":5.375732,"is_reserved":false,"is_disabled":false,"rental_uris":{"android":"levelo://app?vid=8ae0a72b-e90d-46a3-b534-d3ba216dc771","ios":"levelo://app?vid=8ae0a72b-e90d-46a3-b534-d3ba216dc771"},"vehicle_type_id":"4","last_reported":1708628715,"current_range_meters":9200,"station_id":"ce4bh692rcd13ifvqe90","pricing_plan_id":"cebpf4jnsgd1na2vs0mg"},{"bike_id":"6343ad2a-9ba3-47e2-84f2-fc0289753186","system_id":"levelo_inurba_marseille","lat":43.294153,"lon":5.386305,"is_reserved":false,"is_disabled":false,"rental_uris":{"android":"levelo://app?vid=6343ad2a-9ba3-47e2-84f2-fc0289753186","ios":"levelo://app?vid=6343ad2a-9ba3-47e2-84f2-fc0289753186"},"vehicle_type_id":"4","last_reported":1708628715,"current_range_meters":12400,"station_id":"ce4bh2h2rcd13ifvqdh0","pricing_plan_id":"cebpf4jnsgd1na2vs0mg"},{"bike_id":"b9dd3302-1a4d-4c94-9165-2569a39f6ca2","system_id":"levelo_inurba_marseille","lat":43.294153,"lon":5.386305,"is_reserved":false,"is_disabled":false,"rental_uris":{"android":"levelo://app?vid=b9dd3302-1a4d-4c94-9165-2569a39f6ca2","ios":"levelo://app?vid=b9dd3302-1a4d-4c94-9165-2569a39f6ca2"},"vehicle_type_id":"4","last_reported":1708628715,"current_range_meters":15600,"station_id":"ce4bh2h2rcd13ifvqdh0","pricing_plan_id":"cebpf4jnsgd1na2vs0mg"},{"bike_id":"ec1d8182-a3af-44ef-8449-7f66807c0485","system_id":"levelo_inurba_marseille","lat":43.294162,"lon":5.386292,"is_reserved":false,"is_disabled":false,"rental_uris":{"android":"levelo://app?vid=ec1d8182-a3af-44ef-8449-7f66807c0485","ios":"levelo://app?vid=ec1d8182-a3af-44ef-8449-7f66807c0485"},"vehicle_type_id":"4","last_reported":1708628715,"current_range_meters":0,"station_id":"ce4bh2h2rcd13ifvqdh0","pricing_plan_id":"cebpf4jnsgd1na2vs0mg"},{"bike_id":"c6de527d-821e-4ff8-8567-4c1f9dafd26d","system_id":"levelo_inurba_marseille","lat":43.29424,"lon":5.38627,"is_reserved":false,"is_disabled":false,"rental_uris":{"android":"levelo://app?vid=c6de527d-821e-4ff8-8567-4c1f9dafd26d","ios":"levelo://app?vid=c6de527d-821e-4ff8-8567-4c1f9dafd26d"},"vehicle_type_id":"4","last_reported":1708628715,"current_range_meters":28000,"station_id":"ce4bh2h2rcd13ifvqdh0","pricing_plan_id":"cebpf4jnsgd1na2vs0mg"},{"bike_id":"0e354777-7394-4edb-81f3-705822e8a340","system_id":"levelo_inurba_marseille","lat":43.29419,"lon":5.3862,"is_reserved":false,"is_disabled":false,"rental_uris":{"android":"levelo://app?vid=0e354777-7394-4edb-81f3-705822e8a340","ios":"levelo://app?vid=0e354777-7394-4edb-81f3-705822e8a340"},"vehicle_type_id":"4","last_reported":1708628715,"current_range_meters":0,"station_id":"ce4bh2h2rcd13ifvqdh0","pricing_plan_id":"cebpf4jnsgd1na2vs0mg"},{"bike_id":"6464c7aa-92b3-4c94-ac59-1d0956cafdff","system_id":"levelo_inurba_marseille","lat":43.294153,"lon":5.386305,"is_reserved":false,"is_disabled":false,"rental_uris":{"android":"levelo://app?vid=6464c7aa-92b3-4c94-ac59-1d0956cafdff","ios":"levelo://app?vid=6464c7aa-92b3-4c94-ac59-1d0956cafdff"},"vehicle_type_id":"4","last_reported":1708628715,"current_range_meters":19600,"station_id":"ce4bh2h2rcd13ifvqdh0","pricing_plan_id":"cebpf4jnsgd1na2vs0mg"},{"bike_id":"2082f8e4-518f-422d-81b8-d44acca9a0b0","system_id":"levelo_inurba_marseille","lat":43.294153,"lon":5.386305,"is_reserved":false,"is_disabled":false,"rental_uris":{"android":"levelo://app?vid=2082f8e4-518f-422d-81b8-d44acca9a0b0","ios":"levelo://app?vid=2082f8e4-518f-422d-81b8-d44acca9a0b0"},"vehicle_type_id":"4","last_reported":1708628715,"current_range_meters":28800,"station_id":"ce4bh2h2rcd13ifvqdh0","pricing_plan_id":"cebpf4jnsgd1na2vs0mg"},{"bike_id":"4a741e12-3e57-4070-a1f3-f64546cfff53","system_id":"levelo_inurba_marseille","lat":43.2942,"lon":5.38626,"is_reserved":false,"is_disabled":false,"rental_uris":{"android":"levelo://app?vid=4a741e12-3e57-4070-a1f3-f64546cfff53","ios":"levelo://app?vid=4a741e12-3e57-4070-a1f3-f64546cfff53"},"vehicle_type_id":"4","last_reported":1708628715,"current_range_meters":7600,"station_id":"ce4bh2h2rcd13ifvqdh0","pricing_plan_id":"cebpf4jnsgd1na2vs0mg"},{"bike_id":"c5bf1255-6129-490d-8034-d267b6f999fa","system_id":"levelo_inurba_marseille","lat":43.294153,"lon":5.386305,"is_reserved":false,"is_disabled":false,"rental_uris":{"android":"levelo://app?vid=c5bf1255-6129-490d-8034-d267b6f999fa","ios":"levelo://app?vid=c5bf1255-6129-490d-8034-d267b6f999fa"},"vehicle_type_id":"4","last_reported":1708628715,"current_range_meters":31600,"station_id":"ce4bh2h2rcd13ifvqdh0","pricing_plan_id":"cebpf4jnsgd1na2vs0mg"},{"bike_id":"1530cc37-3545-4564-b62a-7ea363a5769f","system_id":"levelo_inurba_marseille","lat":43.290327,"lon":5.375711,"is_reserved":false,"is_disabled":false,"rental_uris":{"android":"levelo://app?vid=1530cc37-3545-4564-b62a-7ea363a5769f","ios":"levelo://app?vid=1530cc37-3545-4564-b62a-7ea363a5769f"},"vehicle_type_id":"4","last_reported":1708628715,"current_range_meters":18000,"station_id":"ce4bh692rcd13ifvqe90","pricing_plan_id":"cebpf4jnsgd1na2vs0mg"},{"bike_id":"b4ccfe3c-6e22-43b4-a913-41bd23c311a5","system_id":"levelo_inurba_marseille","lat":43.294162,"lon":5.386292,"is_reserved":false,"is_disabled":false,"rental_uris":{"android":"levelo://app?vid=b4ccfe3c-6e22-43b4-a913-41bd23c311a5","ios":"levelo://app?vid=b4ccfe3c-6e22-43b4-a913-41bd23c311a5"},"vehicle_type_id":"4","last_reported":1708628715,"current_range_meters":2400,"station_id":"ce4bh2h2rcd13ifvqdh0","pricing_plan_id":"cebpf4jnsgd1na2vs0mg"},{"bike_id":"0941edd5-322b-4c3b-af10-fa105aee17fd","system_id":"levelo_inurba_marseille","lat":43.290319,"lon":5.375732,"is_reserved":false,"is_disabled":false,"rental_uris":{"android":"levelo://app?vid=0941edd5-322b-4c3b-af10-fa105aee17fd","ios":"levelo://app?vid=0941edd5-322b-4c3b-af10-fa105aee17fd"},"vehicle_type_id":"4","last_reported":1708628715,"current_range_meters":19200,"station_id":"ce4bh692rcd13ifvqe90","pricing_plan_id":"cebpf4jnsgd1na2vs0mg"},{"bike_id":"49761e6a-d8e7-42c1-a00d-a0015e7613ec","system_id":"levelo_inurba_marseille","lat":43.294162,"lon":5.386292,"is_reserved":false,"is_disabled":false,"rental_uris":{"android":"levelo://app?vid=49761e6a-d8e7-42c1-a00d-a0015e7613ec","ios":"levelo://app?vid=49761e6a-d8e7-42c1-a00d-a0015e7613ec"},"vehicle_type_id":"4","last_reported":1708628715,"current_range_meters":18400,"station_id":"ce4bh2h2rcd13ifvqdh0","pricing_plan_id":"cebpf4jnsgd1na2vs0mg"},{"bike_id":"4fed413b-8c54-4740-958d-ade9f127c76f","system_id":"levelo_inurba_marseille","lat":43.294162,"lon":5.386292,"is_reserved":false,"is_disabled":false,"rental_uris":{"android":"levelo://app?vid=4fed413b-8c54-4740-958d-ade9f127c76f","ios":"levelo://app?vid=4fed413b-8c54-4740-958d-ade9f127c76f"},"vehicle_type_id":"4","last_reported":1708628715,"current_range_meters":4000,"station_id":"ce4bh2h2rcd13ifvqdh0","pricing_plan_id":"cebpf4jnsgd1na2vs0mg"},{"bike_id":"0d3eb5c3-5212-4981-b614-5f799632d356","system_id":"levelo_inurba_marseille","lat":43.29419,"lon":5.38637,"is_reserved":false,"is_disabled":false,"rental_uris":{"android":"levelo://app?vid=0d3eb5c3-5212-4981-b614-5f799632d356","ios":"levelo://app?vid=0d3eb5c3-5212-4981-b614-5f799632d356"},"vehicle_type_id":"4","last_reported":1708628715,"current_range_meters":29600,"station_id":"ce4bh2h2rcd13ifvqdh0","pricing_plan_id":"cebpf4jnsgd1na2vs0mg"},{"bike_id":"b85db96c-927f-4014-98bc-831759b32b78","system_id":"levelo_inurba_marseille","lat":43.289743,"lon":5.378304,"is_reserved":false,"is_disabled":false,"rental_uris":{"android":"levelo://app?vid=b85db96c-927f-4014-98bc-831759b32b78","ios":"levelo://app?vid=b85db96c-927f-4014-98bc-831759b32b78"},"vehicle_type_id":"4","last_reported":1708628715,"current_range_meters":6400,"station_id":"ce4bh9p2rcd13ifvqed0","pricing_plan_id":"cebpf4jnsgd1na2vs0mg"},{"bike_id":"d3d3de03-1146-4da2-a50b-4e102eaa0f28","system_id":"levelo_inurba_marseille","lat":43.29414,"lon":5.38631,"is_reserved":false,"is_disabled":false,"rental_uris":{"android":"levelo://app?vid=d3d3de03-1146-4da2-a50b-4e102eaa0f28","ios":"levelo://app?vid=d3d3de03-1146-4da2-a50b-4e102eaa0f28"},"vehicle_type_id":"4","last_reported":1708628715,"current_range_meters":2400,"station_id":"ce4bh2h2rcd13ifvqdh0","pricing_plan_id":"cebpf4jnsgd1na2vs0mg"},{"bike_id":"096e9e61-101d-41f6-a0d0-3993aceb745b","system_id":"levelo_inurba_marseille","lat":43.289184,"lon":5.366408,"is_reserved":false,"is_disabled":false,"rental_uris":{"android":"levelo://app?vid=096e9e61-101d-41f6-a0d0-3993aceb745b","ios":"levelo://app?vid=096e9e61-101d-41f6-a0d0-3993aceb745b"},"vehicle_type_id":"4","last_reported":1708628715,"current_range_meters":23200,"station_id":"ce4bhap2rcd13ifvqek0","pricing_plan_id":"cebpf4jnsgd1na2vs0mg"},{"bike_id":"e278a23f-7d91-4c50-9501-04a77e84689a","system_id":"levelo_inurba_marseille","lat":43.289468,"lon":5.363719,"is_reserved":false,"is_disabled":false,"rental_uris":{"android":"levelo://app?vid=e278a23f-7d91-4c50-9501-04a77e84689a","ios":"levelo://app?vid=e278a23f-7d91-4c50-9501-04a77e84689a"},"vehicle_type_id":"4","last_reported":1708628715,"current_range_meters":10800,"station_id":"ce4bhc92rcd13ifvqetg","pricing_plan_id":"cebpf4jnsgd1na2vs0mg"},{"bike_id":"d9ca2de1-adbf-473c-badf-07dfd2c7da67","system_id":"levelo_inurba_marseille","lat":43.29134,"lon":5.38057,"is_reserved":false,"is_disabled":false,"rental_uris":{"android":"levelo://app?vid=d9ca2de1-adbf-473c-badf-07dfd2c7da67","ios":"levelo://app?vid=d9ca2de1-adbf-473c-badf-07dfd2c7da67"},"vehicle_type_id":"4","last_reported":1708628715,"current_range_meters":14400,"station_id":"","pricing_plan_id":"cebpf4jnsgd1na2vs0mg"},{"bike_id":"4595af3c-dd21-4c13-b7d6-0272cba2e8dd","system_id":"levelo_inurba_marseille","lat":43.28918,"lon":5.36399,"is_reserved":false,"is_disabled":false,"rental_uris":{"android":"levelo://app?vid=4595af3c-dd21-4c13-b7d6-0272cba2e8dd","ios":"levelo://app?vid=4595af3c-dd21-4c13-b7d6-0272cba2e8dd"},"vehicle_type_id":"4","last_reported":1708628715,"current_range_meters":1600,"station_id":"ce4bhc92rcd13ifvqetg","pricing_plan_id":"cebpf4jnsgd1na2vs0mg"},{"bike_id":"2b3f2176-a5bf-4d8d-a01a-3d29310a2093","system_id":"levelo_inurba_marseille","lat":43.3043,"lon":5.39738,"is_reserved":false,"is_disabled":false,"rental_uris":{"android":"levelo://app?vid=2b3f2176-a5bf-4d8d-a01a-3d29310a2093","ios":"levelo://app?vid=2b3f2176-a5bf-4d8d-a01a-3d29310a2093"},"vehicle_type_id":"4","last_reported":1708628715,"current_range_meters":1200,"station_id":"ce4bh092rcd13ifvqd20","pricing_plan_id":"cebpf4jnsgd1na2vs0mg"},{"bike_id":"0b148a62-b0f0-4725-8b34-50c16ed19ef6","system_id":"levelo_inurba_marseille","lat":43.304274,"lon":5.397513,"is_reserved":false,"is_disabled":false,"rental_uris":{"android":"levelo://app?vid=0b148a62-b0f0-4725-8b34-50c16ed19ef6","ios":"levelo://app?vid=0b148a62-b0f0-4725-8b34-50c16ed19ef6"},"vehicle_type_id":"4","last_reported":1708628715,"current_range_meters":25200,"station_id":"ce4bh092rcd13ifvqd20","pricing_plan_id":"cebpf4jnsgd1na2vs0mg"},{"bike_id":"0d564d57-8539-43da-8c75-27a479dc3dbf","system_id":"levelo_inurba_marseille","lat":43.29266,"lon":5.38433,"is_reserved":false,"is_disabled":false,"rental_uris":{"android":"levelo://app?vid=0d564d57-8539-43da-8c75-27a479dc3dbf","ios":"levelo://app?vid=0d564d57-8539-43da-8c75-27a479dc3dbf"},"vehicle_type_id":"4","last_reported":1708628715,"current_range_meters":800,"station_id":"ce4bh692rcd13ifvqea0","pricing_plan_id":"cebpf4jnsgd1na2vs0mg"},{"bike_id":"5ed7cd73-ab00-4ccd-ad7e-96eca67e3ce9","system_id":"levelo_inurba_marseille","lat":43.285848,"lon":5.350787,"is_reserved":false,"is_disabled":false,"rental_uris":{"android":"levelo://app?vid=5ed7cd73-ab00-4ccd-ad7e-96eca67e3ce9","ios":"levelo://app?vid=5ed7cd73-ab00-4ccd-ad7e-96eca67e3ce9"},"vehicle_type_id":"4","last_reported":1708628715,"current_range_meters":12400,"station_id":"ce4bhch2rcd13ifvqeug","pricing_plan_id":"cebpf4jnsgd1na2vs0mg"},{"bike_id":"34b29424-a96f-4a58-8258-37317d0f07a7","system_id":"levelo_inurba_marseille","lat":43.304296,"lon":5.397513,"is_reserved":false,"is_disabled":false,"rental_uris":{"android":"levelo://app?vid=34b29424-a96f-4a58-8258-37317d0f07a7","ios":"levelo://app?vid=34b29424-a96f-4a58-8258-37317d0f07a7"},"vehicle_type_id":"4","last_reported":1708628715,"current_range_meters":12800,"station_id":"ce4bh092rcd13ifvqd20","pricing_plan_id":"cebpf4jnsgd1na2vs0mg"},{"bike_id":"90a528ad-73d8-451f-947f-d8f333f1b02b","system_id":"levelo_inurba_marseille","lat":43.292644,"lon":5.384257,"is_reserved":false,"is_disabled":false,"rental_uris":{"android":"levelo://app?vid=90a528ad-73d8-451f-947f-d8f333f1b02b","ios":"levelo://app?vid=90a528ad-73d8-451f-947f-d8f333f1b02b"},"vehicle_type_id":"4","last_reported":1708628715,"current_range_meters":2800,"station_id":"ce4bh692rcd13ifvqea0","pricing_plan_id":"cebpf4jnsgd1na2vs0mg"},{"bike_id":"61076c38-b1c9-4ad1-9237-d94892b17d9d","system_id":"levelo_inurba_marseille","lat":43.29272,"lon":5.38454,"is_reserved":false,"is_disabled":false,"rental_uris":{"android":"levelo://app?vid=61076c38-b1c9-4ad1-9237-d94892b17d9d","ios":"levelo://app?vid=61076c38-b1c9-4ad1-9237-d94892b17d9d"},"vehicle_type_id":"4","last_reported":1708628715,"current_range_meters":19600,"station_id":"ce4bh692rcd13ifvqea0","pricing_plan_id":"cebpf4jnsgd1na2vs0mg"},{"bike_id":"e42e68c4-b640-4b93-baa1-b24f2d5a20e3","system_id":"levelo_inurba_marseille","lat":43.292644,"lon":5.384257,"is_reserved":false,"is_disabled":false,"rental_uris":{"android":"levelo://app?vid=e42e68c4-b640-4b93-baa1-b24f2d5a20e3","ios":"levelo://app?vid=e42e68c4-b640-4b93-baa1-b24f2d5a20e3"},"vehicle_type_id":"4","last_reported":1708628715,"current_range_meters":16800,"station_id":"ce4bh692rcd13ifvqea0","pricing_plan_id":"cebpf4jnsgd1na2vs0mg"},{"bike_id":"c5222462-6984-4c98-b4d3-8d89fa1d72a7","system_id":"levelo_inurba_marseille","lat":43.29262,"lon":5.38437,"is_reserved":false,"is_disabled":false,"rental_uris":{"android":"levelo://app?vid=c5222462-6984-4c98-b4d3-8d89fa1d72a7","ios":"levelo://app?vid=c5222462-6984-4c98-b4d3-8d89fa1d72a7"},"vehicle_type_id":"4","last_reported":1708628715,"current_range_meters":2400,"station_id":"ce4bh692rcd13ifvqea0","pricing_plan_id":"cebpf4jnsgd1na2vs0mg"},{"bike_id":"f2984e6c-6ce2-4949-b10c-c98b60b91e6f","system_id":"levelo_inurba_marseille","lat":43.292644,"lon":5.384257,"is_reserved":false,"is_disabled":false,"rental_uris":{"android":"levelo://app?vid=f2984e6c-6ce2-4949-b10c-c98b60b91e6f","ios":"levelo://app?vid=f2984e6c-6ce2-4949-b10c-c98b60b91e6f"},"vehicle_type_id":"4","last_reported":1708628715,"current_range_meters":4000,"station_id":"ce4bh692rcd13ifvqea0","pricing_plan_id":"cebpf4jnsgd1na2vs0mg"},{"bike_id":"dfd0f931-cbbc-4e99-920d-058de1f516ce","system_id":"levelo_inurba_marseille","lat":43.29258,"lon":5.38441,"is_reserved":false,"is_disabled":false,"rental_uris":{"android":"levelo://app?vid=dfd0f931-cbbc-4e99-920d-058de1f516ce","ios":"levelo://app?vid=dfd0f931-cbbc-4e99-920d-058de1f516ce"},"vehicle_type_id":"4","last_reported":1708628715,"current_range_meters":14000,"station_id":"ce4bh692rcd13ifvqea0","pricing_plan_id":"cebpf4jnsgd1na2vs0mg"},{"bike_id":"85bda85f-7adc-4a0a-94ff-6635d2e05ab1","system_id":"levelo_inurba_marseille","lat":43.29259,"lon":5.38447,"is_reserved":false,"is_disabled":false,"rental_uris":{"android":"levelo://app?vid=85bda85f-7adc-4a0a-94ff-6635d2e05ab1","ios":"levelo://app?vid=85bda85f-7adc-4a0a-94ff-6635d2e05ab1"},"vehicle_type_id":"4","last_reported":1708628715,"current_range_meters":18000,"station_id":"ce4bh692rcd13ifvqea0","pricing_plan_id":"cebpf4jnsgd1na2vs0mg"},{"bike_id":"17e617c9-54b3-4a51-ab56-bf7fb8026c17","system_id":"levelo_inurba_marseille","lat":43.290103,"lon":5.356114,"is_reserved":false,"is_disabled":false,"rental_uris":{"android":"levelo://app?vid=17e617c9-54b3-4a51-ab56-bf7fb8026c17","ios":"levelo://app?vid=17e617c9-54b3-4a51-ab56-bf7fb8026c17"},"vehicle_type_id":"4","last_reported":1708628715,"current_range_meters":8000,"station_id":"ce4bhb92rcd13ifvqen0","pricing_plan_id":"cebpf4jnsgd1na2vs0mg"},{"bike_id":"70148d1e-4005-4c6f-95ce-d764f2430554","system_id":"levelo_inurba_marseille","lat":43.290104,"lon":5.356111,"is_reserved":false,"is_disabled":false,"rental_uris":{"android":"levelo://app?vid=70148d1e-4005-4c6f-95ce-d764f2430554","ios":"levelo://app?vid=70148d1e-4005-4c6f-95ce-d764f2430554"},"vehicle_type_id":"4","last_reported":1708628715,"current_range_meters":9600,"station_id":"ce4bhb92rcd13ifvqen0","pricing_plan_id":"cebpf4jnsgd1na2vs0mg"},{"bike_id":"64c8a977-e817-4529-bbbf-d54830de4873","system_id":"levelo_inurba_marseille","lat":43.29103,"lon":5.38085,"is_reserved":false,"is_disabled":false,"rental_uris":{"android":"levelo://app?vid=64c8a977-e817-4529-bbbf-d54830de4873","ios":"levelo://app?vid=64c8a977-e817-4529-bbbf-d54830de4873"},"vehicle_type_id":"4","last_reported":1708628715,"current_range_meters":4400,"station_id":"","pricing_plan_id":"cebpf4jnsgd1na2vs0mg"},{"bike_id":"5f8081cc-a502-40de-bf25-a724b9bd44b1","system_id":"levelo_inurba_marseille","lat":43.290104,"lon":5.356111,"is_reserved":false,"is_disabled":false,"rental_uris":{"android":"levelo://app?vid=5f8081cc-a502-40de-bf25-a724b9bd44b1","ios":"levelo://app?vid=5f8081cc-a502-40de-bf25-a724b9bd44b1"},"vehicle_type_id":"4","last_reported":1708628715,"current_range_meters":29600,"station_id":"ce4bhb92rcd13ifvqen0","pricing_plan_id":"cebpf4jnsgd1na2vs0mg"},{"bike_id":"ccbb461b-42b2-4be4-86ae-75a171a82935","system_id":"levelo_inurba_marseille","lat":43.290104,"lon":5.356111,"is_reserved":false,"is_disabled":false,"rental_uris":{"android":"levelo://app?vid=ccbb461b-42b2-4be4-86ae-75a171a82935","ios":"levelo://app?vid=ccbb461b-42b2-4be4-86ae-75a171a82935"},"vehicle_type_id":"4","last_reported":1708628715,"current_range_meters":27200,"station_id":"ce4bhb92rcd13ifvqen0","pricing_plan_id":"cebpf4jnsgd1na2vs0mg"},{"bike_id":"fde4b587-d4fa-42a5-a716-5a757436a1d8","system_id":"levelo_inurba_marseille","lat":43.290104,"lon":5.356111,"is_reserved":false,"is_disabled":false,"rental_uris":{"android":"levelo://app?vid=fde4b587-d4fa-42a5-a716-5a757436a1d8","ios":"levelo://app?vid=fde4b587-d4fa-42a5-a716-5a757436a1d8"},"vehicle_type_id":"4","last_reported":1708628715,"current_range_meters":25200,"station_id":"ce4bhb92rcd13ifvqen0","pricing_plan_id":"cebpf4jnsgd1na2vs0mg"},{"bike_id":"4df8fa8c-9c45-4ad8-b060-7d6f96fb2246","system_id":"levelo_inurba_marseille","lat":43.290103,"lon":5.356114,"is_reserved":false,"is_disabled":false,"rental_uris":{"android":"levelo://app?vid=4df8fa8c-9c45-4ad8-b060-7d6f96fb2246","ios":"levelo://app?vid=4df8fa8c-9c45-4ad8-b060-7d6f96fb2246"},"vehicle_type_id":"4","last_reported":1708628715,"current_range_meters":15600,"station_id":"ce4bhb92rcd13ifvqen0","pricing_plan_id":"cebpf4jnsgd1na2vs0mg"},{"bike_id":"4dafc22f-1bd7-4bf1-b7cf-c4881d719ac4","system_id":"levelo_inurba_marseille","lat":43.290103,"lon":5.356114,"is_reserved":false,"is_disabled":false,"rental_uris":{"android":"levelo://app?vid=4dafc22f-1bd7-4bf1-b7cf-c4881d719ac4","ios":"levelo://app?vid=4dafc22f-1bd7-4bf1-b7cf-c4881d719ac4"},"vehicle_type_id":"4","last_reported":1708628715,"current_range_meters":23200,"station_id":"ce4bhb92rcd13ifvqen0","pricing_plan_id":"cebpf4jnsgd1na2vs0mg"},{"bike_id":"b1fac608-2bf3-47ab-af62-a0ab59719814","system_id":"levelo_inurba_marseille","lat":43.290104,"lon":5.356111,"is_reserved":false,"is_disabled":false,"rental_uris":{"android":"levelo://app?vid=b1fac608-2bf3-47ab-af62-a0ab59719814","ios":"levelo://app?vid=b1fac608-2bf3-47ab-af62-a0ab59719814"},"vehicle_type_id":"4","last_reported":1708628715,"current_range_meters":29200,"station_id":"ce4bhb92rcd13ifvqen0","pricing_plan_id":"cebpf4jnsgd1na2vs0mg"},{"bike_id":"542d9d84-dfd6-4cd9-ab62-2ad056284249","system_id":"levelo_inurba_marseille","lat":43.290995,"lon":5.381361,"is_reserved":false,"is_disabled":false,"rental_uris":{"android":"levelo://app?vid=542d9d84-dfd6-4cd9-ab62-2ad056284249","ios":"levelo://app?vid=542d9d84-dfd6-4cd9-ab62-2ad056284249"},"vehicle_type_id":"4","last_reported":1708628715,"current_range_meters":28400,"station_id":"ce4bh512rcd13ifvqe2g","pricing_plan_id":"cebpf4jnsgd1na2vs0mg"},{"bike_id":"bae1290b-a469-4e5b-8f8d-37bd0c0a4c36","system_id":"levelo_inurba_marseille","lat":43.290995,"lon":5.381361,"is_reserved":false,"is_disabled":false,"rental_uris":{"android":"levelo://app?vid=bae1290b-a469-4e5b-8f8d-37bd0c0a4c36","ios":"levelo://app?vid=bae1290b-a469-4e5b-8f8d-37bd0c0a4c36"},"vehicle_type_id":"4","last_reported":1708628715,"current_range_meters":8000,"station_id":"ce4bh512rcd13ifvqe2g","pricing_plan_id":"cebpf4jnsgd1na2vs0mg"},{"bike_id":"ecf29a48-49ad-453e-972b-f333540f3a04","system_id":"levelo_inurba_marseille","lat":43.290995,"lon":5.381361,"is_reserved":false,"is_disabled":false,"rental_uris":{"android":"levelo://app?vid=ecf29a48-49ad-453e-972b-f333540f3a04","ios":"levelo://app?vid=ecf29a48-49ad-453e-972b-f333540f3a04"},"vehicle_type_id":"4","last_reported":1708628715,"current_range_meters":15200,"station_id":"ce4bh512rcd13ifvqe2g","pricing_plan_id":"cebpf4jnsgd1na2vs0mg"},{"bike_id":"ce43338c-49d0-448c-ba17-93b61b2152bd","system_id":"levelo_inurba_marseille","lat":43.330442,"lon":5.389148,"is_reserved":false,"is_disabled":false,"rental_uris":{"android":"levelo://app?vid=ce43338c-49d0-448c-ba17-93b61b2152bd","ios":"levelo://app?vid=ce43338c-49d0-448c-ba17-93b61b2152bd"},"vehicle_type_id":"4","last_reported":1708628715,"current_range_meters":30400,"station_id":"ce4bhr92rcd13ifvqhrg","pricing_plan_id":"cebpf4jnsgd1na2vs0mg"},{"bike_id":"49928868-2d46-4716-a2f9-f9a54556794d","system_id":"levelo_inurba_marseille","lat":43.290995,"lon":5.381361,"is_reserved":false,"is_disabled":false,"rental_uris":{"android":"levelo://app?vid=49928868-2d46-4716-a2f9-f9a54556794d","ios":"levelo://app?vid=49928868-2d46-4716-a2f9-f9a54556794d"},"vehicle_type_id":"4","last_reported":1708628715,"current_range_meters":9200,"station_id":"ce4bh512rcd13ifvqe2g","pricing_plan_id":"cebpf4jnsgd1na2vs0mg"},{"bike_id":"2b01dac5-9e48-44e7-a319-d8a63694993e","system_id":"levelo_inurba_marseille","lat":43.295169,"lon":5.390426,"is_reserved":false,"is_disabled":false,"rental_uris":{"android":"levelo://app?vid=2b01dac5-9e48-44e7-a319-d8a63694993e","ios":"levelo://app?vid=2b01dac5-9e48-44e7-a319-d8a63694993e"},"vehicle_type_id":"4","last_reported":1708628715,"current_range_meters":18400,"station_id":"ce4bh3p2rcd13ifvqdp0","pricing_plan_id":"cebpf4jnsgd1na2vs0mg"},{"bike_id":"4d9143c1-4006-4a6d-9286-aa83bf0cf17e","system_id":"levelo_inurba_marseille","lat":43.29526,"lon":5.39034,"is_reserved":false,"is_disabled":false,"rental_uris":{"android":"levelo://app?vid=4d9143c1-4006-4a6d-9286-aa83bf0cf17e","ios":"levelo://app?vid=4d9143c1-4006-4a6d-9286-aa83bf0cf17e"},"vehicle_type_id":"4","last_reported":1708628715,"current_range_meters":4000,"station_id":"ce4bh3p2rcd13ifvqdp0","pricing_plan_id":"cebpf4jnsgd1na2vs0mg"},{"bike_id":"fbfc10a0-e41e-4b91-b4dd-96c4e132d65c","system_id":"levelo_inurba_marseille","lat":43.330442,"lon":5.389148,"is_reserved":false,"is_disabled":false,"rental_uris":{"android":"levelo://app?vid=fbfc10a0-e41e-4b91-b4dd-96c4e132d65c","ios":"levelo://app?vid=fbfc10a0-e41e-4b91-b4dd-96c4e132d65c"},"vehicle_type_id":"4","last_reported":1708628715,"current_range_meters":30000,"station_id":"ce4bhr92rcd13ifvqhrg","pricing_plan_id":"cebpf4jnsgd1na2vs0mg"},{"bike_id":"fc339ceb-b57a-4045-b708-164adcf30d40","system_id":"levelo_inurba_marseille","lat":43.295169,"lon":5.390426,"is_reserved":false,"is_disabled":false,"rental_uris":{"android":"levelo://app?vid=fc339ceb-b57a-4045-b708-164adcf30d40","ios":"levelo://app?vid=fc339ceb-b57a-4045-b708-164adcf30d40"},"vehicle_type_id":"4","last_reported":1708628715,"current_range_meters":10400,"station_id":"ce4bh3p2rcd13ifvqdp0","pricing_plan_id":"cebpf4jnsgd1na2vs0mg"},{"bike_id":"1032d1de-adc4-4ad7-90ee-18a9d70d0011","system_id":"levelo_inurba_marseille","lat":43.2953,"lon":5.39043,"is_reserved":false,"is_disabled":false,"rental_uris":{"android":"levelo://app?vid=1032d1de-adc4-4ad7-90ee-18a9d70d0011","ios":"levelo://app?vid=1032d1de-adc4-4ad7-90ee-18a9d70d0011"},"vehicle_type_id":"4","last_reported":1708628715,"current_range_meters":3600,"station_id":"ce4bh3p2rcd13ifvqdp0","pricing_plan_id":"cebpf4jnsgd1na2vs0mg"},{"bike_id":"5e177c8e-f054-4fbc-8385-0b48c54a04f0","system_id":"levelo_inurba_marseille","lat":43.330287,"lon":5.390306,"is_reserved":false,"is_disabled":false,"rental_uris":{"android":"levelo://app?vid=5e177c8e-f054-4fbc-8385-0b48c54a04f0","ios":"levelo://app?vid=5e177c8e-f054-4fbc-8385-0b48c54a04f0"},"vehicle_type_id":"4","last_reported":1708628715,"current_range_meters":0,"station_id":"","pricing_plan_id":"cebpf4jnsgd1na2vs0mg"},{"bike_id":"b9ea7c8f-2db3-4257-95e0-6fcf3570fda9","system_id":"levelo_inurba_marseille","lat":43.330442,"lon":5.389148,"is_reserved":false,"is_disabled":false,"rental_uris":{"android":"levelo://app?vid=b9ea7c8f-2db3-4257-95e0-6fcf3570fda9","ios":"levelo://app?vid=b9ea7c8f-2db3-4257-95e0-6fcf3570fda9"},"vehicle_type_id":"4","last_reported":1708628715,"current_range_meters":30800,"station_id":"ce4bhr92rcd13ifvqhrg","pricing_plan_id":"cebpf4jnsgd1na2vs0mg"},{"bike_id":"e1016f26-7c22-4202-aac9-b6cdfd95ce33","system_id":"levelo_inurba_marseille","lat":43.330442,"lon":5.389148,"is_reserved":false,"is_disabled":false,"rental_uris":{"android":"levelo://app?vid=e1016f26-7c22-4202-aac9-b6cdfd95ce33","ios":"levelo://app?vid=e1016f26-7c22-4202-aac9-b6cdfd95ce33"},