{"last_updated":1713290960,"ttl":30,"version":"2.2","data":{"bikes":[{"bike_id":"d389e08a-c658-4f21-a66a-39959ba5549e","system_id":"levelo_inurba_marseille","lat":43.31341,"lon":5.367098,"is_reserved":false,"is_disabled":false,"rental_uris":{"android":"levelo://app?vid=d389e08a-c658-4f21-a66a-39959ba5549e","ios":"levelo://app?vid=d389e08a-c658-4f21-a66a-39959ba5549e"},"vehicle_type_id":"4","last_reported":1713290960,"current_range_meters":12800,"station_id":"ce4bgr92rcd13ifvqc6g","pricing_plan_id":"cebpf4jnsgd1na2vs0mg"},{"bike_id":"d3f9fbc6-008b-49d9-b79f-a1c9641d3f50","system_id":"levelo_inurba_marseille","lat":43.313391,"lon":5.36706,"is_reserved":false,"is_disabled":false,"rental_uris":{"android":"levelo://app?vid=d3f9fbc6-008b-49d9-b79f-a1c9641d3f50","ios":"levelo://app?vid=d3f9fbc6-008b-49d9-b79f-a1c9641d3f50"},"vehicle_type_id":"4","last_reported":1713290960,"current_range_meters":12400,"station_id":"ce4bgr92rcd13ifvqc6g","pricing_plan_id":"cebpf4jnsgd1na2vs0mg"},{"bike_id":"e6cf3de0-14ad-42cd-8d00-8ce5e1877fbf","system_id":"levelo_inurba_marseille","lat":43.312239,"lon":5.368562,"is_reserved":false,"is_disabled":false,"rental_uris":{"android":"levelo://app?vid=e6cf3de0-14ad-42cd-8d00-8ce5e1877fbf","ios":"levelo://app?vid=e6cf3de0-14ad-42cd-8d00-8ce5e1877fbf"},"vehicle_type_id":"4","last_reported":1713290960,"current_range_meters":9600,"station_id":"ce4bgl92rcd13ifvqbq0","pricing_plan_id":"cebpf4jnsgd1na2vs0mg"},{"bike_id":"82cafa42-2dc2-4a3e-8da5-df0581c6fbd2","system_id":"levelo_inurba_marseille","lat":43.31235,"lon":5.36843,"is_reserved":false,"is_disabled":false,"rental_uris":{"android":"levelo://app?vid=82cafa42-2dc2-4a3e-8da5-df0581c6fbd2","ios":"levelo://app?vid=82cafa42-2dc2-4a3e-8da5-df0581c6fbd2"},"vehicle_type_id":"4","last_reported":1713290960,"current_range_meters":0,"station_id":"ce4bgl92rcd13ifvqbq0","pricing_plan_id":"cebpf4jnsgd1na2vs0mg"},{"bike_id":"820de763-bedc-4d14-a577-04faf37ac4af","system_id":"levelo_inurba_marseille","lat":43.312239,"lon":5.368562,"is_reserved":false,"is_disabled":false,"rental_uris":{"android":"levelo://app?vid=820de763-bedc-4d14-a577-04faf37ac4af","ios":"levelo://app?vid=820de763-bedc-4d14-a577-04faf37ac4af"},"vehicle_type_id":"4","last_reported":1713290960,"current_range_meters":13200,"station_id":"ce4bgl92rcd13ifvqbq0","pricing_plan_id":"cebpf4jnsgd1na2vs0mg"},{"bike_id":"91066281-847c-4deb-bc3f-e6bda484117d","system_id":"levelo_inurba_marseille","lat":43.312239,"lon":5.368562,"is_reserved":false,"is_disabled":false,"rental_uris":{"android":"levelo://app?vid=91066281-847c-4deb-bc3f-e6bda484117d","ios":"levelo://app?vid=91066281-847c-4deb-bc3f-e6bda484117d"},"vehicle_type_id":"4","last_reported":1713290960,"current_range_meters":29200,"station_id":"ce4bgl92rcd13ifvqbq0","pricing_plan_id":"cebpf4jnsgd1na2vs0mg"},{"bike_id":"12565369-2050-4e45-b282-6c86220e9524","system_id":"levelo_inurba_marseille","lat":43.309076,"lon":5.368465,"is_reserved":false,"is_disabled":false,"rental_uris":{"android":"levelo://app?vid=12565369-2050-4e45-b282-6c86220e9524","ios":"levelo://app?vid=12565369-2050-4e45-b282-6c86220e9524"},"vehicle_type_id":"4","last_reported":1713290960,"current_range_meters":400,"station_id":"ce4bgn92rcd13ifvqbvg","pricing_plan_id":"cebpf4jnsgd1na2vs0mg"},{"bike_id":"272042d9-5b9b-485b-8bc2-459a48e3d9a4","system_id":"levelo_inurba_marseille","lat":43.314811,"lon":5.373103,"is_reserved":false,"is_disabled":false,"rental_uris":{"android":"levelo://app?vid=272042d9-5b9b-485b-8bc2-459a48e3d9a4","ios":"levelo://app?vid=272042d9-5b9b-485b-8bc2-459a48e3d9a4"},"vehicle_type_id":"4","last_reported":1713290960,"current_range_meters":17600,"station_id":"ce4bgt12rcd13ifvqcd0","pricing_plan_id":"cebpf4jnsgd1na2vs0mg"},{"bike_id":"211c5be0-9eb4-43df-b624-ce06de3b1299","system_id":"levelo_inurba_marseille","lat":43.309076,"lon":5.368465,"is_reserved":false,"is_disabled":false,"rental_uris":{"android":"levelo://app?vid=211c5be0-9eb4-43df-b624-ce06de3b1299","ios":"levelo://app?vid=211c5be0-9eb4-43df-b624-ce06de3b1299"},"vehicle_type_id":"4","last_reported":1713290960,"current_range_meters":400,"station_id":"ce4bgn92rcd13ifvqbvg","pricing_plan_id":"cebpf4jnsgd1na2vs0mg"},{"bike_id":"62208383-eb95-47c7-94fb-5aff46021764","system_id":"levelo_inurba_marseille","lat":43.31433,"lon":5.37338,"is_reserved":false,"is_disabled":false,"rental_uris":{"android":"levelo://app?vid=62208383-eb95-47c7-94fb-5aff46021764","ios":"levelo://app?vid=62208383-eb95-47c7-94fb-5aff46021764"},"vehicle_type_id":"4","last_reported":1713290960,"current_range_meters":0,"station_id":"","pricing_plan_id":"cebpf4jnsgd1na2vs0mg"},{"bike_id":"fa4ed371-9b70-4172-993e-5ff75c30b3db","system_id":"levelo_inurba_marseille","lat":43.308928,"lon":5.371959,"is_reserved":false,"is_disabled":false,"rental_uris":{"android":"levelo://app?vid=fa4ed371-9b70-4172-993e-5ff75c30b3db","ios":"levelo://app?vid=fa4ed371-9b70-4172-993e-5ff75c30b3db"},"vehicle_type_id":"4","last_reported":1713290960,"current_range_meters":2800,"station_id":"ce4bguh2rcd13ifvqckg","pricing_plan_id":"cebpf4jnsgd1na2vs0mg"},{"bike_id":"52f22b5a-486d-4c62-a4ac-137bfb2f235e","system_id":"levelo_inurba_marseille","lat":43.30554,"lon":5.36534,"is_reserved":false,"is_disabled":false,"rental_uris":{"android":"levelo://app?vid=52f22b5a-486d-4c62-a4ac-137bfb2f235e","ios":"levelo://app?vid=52f22b5a-486d-4c62-a4ac-137bfb2f235e"},"vehicle_type_id":"4","last_reported":1713290960,"current_range_meters":20400,"station_id":"","pricing_plan_id":"cebpf4jnsgd1na2vs0mg"},{"bike_id":"8880eb41-b94c-4e39-986d-fab5c44daee3","system_id":"levelo_inurba_marseille","lat":43.305706,"lon":5.365654,"is_reserved":false,"is_disabled":false,"rental_uris":{"android":"levelo://app?vid=8880eb41-b94c-4e39-986d-fab5c44daee3","ios":"levelo://app?vid=8880eb41-b94c-4e39-986d-fab5c44daee3"},"vehicle_type_id":"4","last_reported":1713290960,"current_range_meters":0,"station_id":"ce4bgs12rcd13ifvqcag","pricing_plan_id":"cebpf4jnsgd1na2vs0mg"},{"bike_id":"bbd71bcc-b6be-4b19-95ff-7b04a303d49e","system_id":"levelo_inurba_marseille","lat":43.305989,"lon":5.37225,"is_reserved":false,"is_disabled":false,"rental_uris":{"android":"levelo://app?vid=bbd71bcc-b6be-4b19-95ff-7b04a303d49e","ios":"levelo://app?vid=bbd71bcc-b6be-4b19-95ff-7b04a303d49e"},"vehicle_type_id":"4","last_reported":1713290960,"current_range_meters":0,"station_id":"ce4bgqh2rcd13ifvqc4g","pricing_plan_id":"cebpf4jnsgd1na2vs0mg"},{"bike_id":"583e2df6-c431-46c9-8506-d6492f1ab034","system_id":"levelo_inurba_marseille","lat":43.305989,"lon":5.37225,"is_reserved":false,"is_disabled":false,"rental_uris":{"android":"levelo://app?vid=583e2df6-c431-46c9-8506-d6492f1ab034","ios":"levelo://app?vid=583e2df6-c431-46c9-8506-d6492f1ab034"},"vehicle_type_id":"4","last_reported":1713290960,"current_range_meters":0,"station_id":"ce4bgqh2rcd13ifvqc4g","pricing_plan_id":"cebpf4jnsgd1na2vs0mg"},{"bike_id":"ed472146-12c2-4ad9-8af4-a5678b9a4adf","system_id":"levelo_inurba_marseille","lat":43.30602,"lon":5.37219,"is_reserved":false,"is_disabled":false,"rental_uris":{"android":"levelo://app?vid=ed472146-12c2-4ad9-8af4-a5678b9a4adf","ios":"levelo://app?vid=ed472146-12c2-4ad9-8af4-a5678b9a4adf"},"vehicle_type_id":"4","last_reported":1713290960,"current_range_meters":0,"station_id":"ce4bgqh2rcd13ifvqc4g","pricing_plan_id":"cebpf4jnsgd1na2vs0mg"},{"bike_id":"030e37c2-df7b-4731-9c6c-a29fa8861cf4","system_id":"levelo_inurba_marseille","lat":43.311125,"lon":5.377624,"is_reserved":false,"is_disabled":false,"rental_uris":{"android":"levelo://app?vid=030e37c2-df7b-4731-9c6c-a29fa8861cf4","ios":"levelo://app?vid=030e37c2-df7b-4731-9c6c-a29fa8861cf4"},"vehicle_type_id":"4","last_reported":1713290960,"current_range_meters":13200,"station_id":"ce4bgt92rcd13ifvqcg0","pricing_plan_id":"cebpf4jnsgd1na2vs0mg"},{"bike_id":"4298bce5-e1aa-481d-8bfd-5a2f04529568","system_id":"levelo_inurba_marseille","lat":43.307945,"lon":5.376487,"is_reserved":false,"is_disabled":false,"rental_uris":{"android":"levelo://app?vid=4298bce5-e1aa-481d-8bfd-5a2f04529568","ios":"levelo://app?vid=4298bce5-e1aa-481d-8bfd-5a2f04529568"},"vehicle_type_id":"4","last_reported":1713290960,"current_range_meters":0,"station_id":"ce4bgv92rcd13ifvqcq0","pricing_plan_id":"cebpf4jnsgd1na2vs0mg"},{"bike_id":"9fc3fc00-bdf8-426b-9440-f45770774838","system_id":"levelo_inurba_marseille","lat":43.317075,"lon":5.377367,"is_reserved":false,"is_disabled":false,"rental_uris":{"android":"levelo://app?vid=9fc3fc00-bdf8-426b-9440-f45770774838","ios":"levelo://app?vid=9fc3fc00-bdf8-426b-9440-f45770774838"},"vehicle_type_id":"4","last_reported":1713290960,"current_range_meters":12000,"station_id":"ce4bgth2rcd13ifvqch0","pricing_plan_id":"cebpf4jnsgd1na2vs0mg"},{"bike_id":"cc32b785-fc58-4ae1-a908-01cd3308a770","system_id":"levelo_inurba_marseille","lat":43.317075,"lon":5.377367,"is_reserved":false,"is_disabled":false,"rental_uris":{"android":"levelo://app?vid=cc32b785-fc58-4ae1-a908-01cd3308a770","ios":"levelo://app?vid=cc32b785-fc58-4ae1-a908-01cd3308a770"},"vehicle_type_id":"4","last_reported":1713290960,"current_range_meters":14000,"station_id":"ce4bgth2rcd13ifvqch0","pricing_plan_id":"cebpf4jnsgd1na2vs0mg"},{"bike_id":"504a94b4-ce04-4e16-9ce6-665a51135d2d","system_id":"levelo_inurba_marseille","lat":43.303046,"lon":5.368981,"is_reserved":false,"is_disabled":false,"rental_uris":{"android":"levelo://app?vid=504a94b4-ce04-4e16-9ce6-665a51135d2d","ios":"levelo://app?vid=504a94b4-ce04-4e16-9ce6-665a51135d2d"},"vehicle_type_id":"4","last_reported":1713290960,"current_range_meters":1600,"station_id":"ce4bgqh2rcd13ifvqc5g","pricing_plan_id":"cebpf4jnsgd1na2vs0mg"},{"bike_id":"24783cf3-7f5c-4a27-aa56-b06f14f34605","system_id":"levelo_inurba_marseille","lat":43.303046,"lon":5.368981,"is_reserved":false,"is_disabled":false,"rental_uris":{"android":"levelo://app?vid=24783cf3-7f5c-4a27-aa56-b06f14f34605","ios":"levelo://app?vid=24783cf3-7f5c-4a27-aa56-b06f14f34605"},"vehicle_type_id":"4","last_reported":1713290960,"current_range_meters":13200,"station_id":"ce4bgqh2rcd13ifvqc5g","pricing_plan_id":"cebpf4jnsgd1na2vs0mg"},{"bike_id":"a5a210fc-9c8b-4461-acdd-822b0d537375","system_id":"levelo_inurba_marseille","lat":43.303046,"lon":5.368981,"is_reserved":false,"is_disabled":false,"rental_uris":{"android":"levelo://app?vid=a5a210fc-9c8b-4461-acdd-822b0d537375","ios":"levelo://app?vid=a5a210fc-9c8b-4461-acdd-822b0d537375"},"vehicle_type_id":"4","last_reported":1713290960,"current_range_meters":7600,"station_id":"ce4bgqh2rcd13ifvqc5g","pricing_plan_id":"cebpf4jnsgd1na2vs0mg"},{"bike_id":"deeffb58-b21e-4f86-a748-7d6746c94d48","system_id":"levelo_inurba_marseille","lat":43.315293,"lon":5.380349,"is_reserved":false,"is_disabled":false,"rental_uris":{"android":"levelo://app?vid=deeffb58-b21e-4f86-a748-7d6746c94d48","ios":"levelo://app?vid=deeffb58-b21e-4f86-a748-7d6746c94d48"},"vehicle_type_id":"4","last_reported":1713290960,"current_range_meters":6400,"station_id":"ce4bhsp2rcd13ifvqi50","pricing_plan_id":"cebpf4jnsgd1na2vs0mg"},{"bike_id":"e2c07b97-4cd0-4f59-b0ad-862807470eff","system_id":"levelo_inurba_marseille","lat":43.315293,"lon":5.380349,"is_reserved":false,"is_disabled":false,"rental_uris":{"android":"levelo://app?vid=e2c07b97-4cd0-4f59-b0ad-862807470eff","ios":"levelo://app?vid=e2c07b97-4cd0-4f59-b0ad-862807470eff"},"vehicle_type_id":"4","last_reported":1713290960,"current_range_meters":28400,"station_id":"ce4bhsp2rcd13ifvqi50","pricing_plan_id":"cebpf4jnsgd1na2vs0mg"},{"bike_id":"eda8cc1f-f129-49e8-952f-08ab1fe05856","system_id":"levelo_inurba_marseille","lat":43.315293,"lon":5.380349,"is_reserved":false,"is_disabled":false,"rental_uris":{"android":"levelo://app?vid=eda8cc1f-f129-49e8-952f-08ab1fe05856","ios":"levelo://app?vid=eda8cc1f-f129-49e8-952f-08ab1fe05856"},"vehicle_type_id":"4","last_reported":1713290960,"current_range_meters":5200,"station_id":"ce4bhsp2rcd13ifvqi50","pricing_plan_id":"cebpf4jnsgd1na2vs0mg"},{"bike_id":"18dde9c7-993d-4c6e-bf98-410d6f8ec2ae","system_id":"levelo_inurba_marseille","lat":43.301939,"lon":5.366286,"is_reserved":false,"is_disabled":false,"rental_uris":{"android":"levelo://app?vid=18dde9c7-993d-4c6e-bf98-410d6f8ec2ae","ios":"levelo://app?vid=18dde9c7-993d-4c6e-bf98-410d6f8ec2ae"},"vehicle_type_id":"4","last_reported":1713290960,"current_range_meters":16000,"station_id":"ce4bgrh2rcd13ifvqc8g","pricing_plan_id":"cebpf4jnsgd1na2vs0mg"},{"bike_id":"7b9372d8-4c60-4883-aced-ec0e78a2bb3a","system_id":"levelo_inurba_marseille","lat":43.308052,"lon":5.381572,"is_reserved":false,"is_disabled":false,"rental_uris":{"android":"levelo://app?vid=7b9372d8-4c60-4883-aced-ec0e78a2bb3a","ios":"levelo://app?vid=7b9372d8-4c60-4883-aced-ec0e78a2bb3a"},"vehicle_type_id":"4","last_reported":1713290960,"current_range_meters":0,"station_id":"ce4bgt12rcd13ifvqce0","pricing_plan_id":"cebpf4jnsgd1na2vs0mg"},{"bike_id":"8c55f118-fa01-4380-9642-4c541ba30e5d","system_id":"levelo_inurba_marseille","lat":43.308012,"lon":5.381511,"is_reserved":false,"is_disabled":false,"rental_uris":{"android":"levelo://app?vid=8c55f118-fa01-4380-9642-4c541ba30e5d","ios":"levelo://app?vid=8c55f118-fa01-4380-9642-4c541ba30e5d"},"vehicle_type_id":"4","last_reported":1713290960,"current_range_meters":2000,"station_id":"ce4bgt12rcd13ifvqce0","pricing_plan_id":"cebpf4jnsgd1na2vs0mg"},{"bike_id":"da4f8fdc-6d55-4c16-a5e8-ee5948537177","system_id":"levelo_inurba_marseille","lat":43.30463,"lon":5.37892,"is_reserved":false,"is_disabled":false,"rental_uris":{"android":"levelo://app?vid=da4f8fdc-6d55-4c16-a5e8-ee5948537177","ios":"levelo://app?vid=da4f8fdc-6d55-4c16-a5e8-ee5948537177"},"vehicle_type_id":"4","last_reported":1713290960,"current_range_meters":31200,"station_id":"ce4bgup2rcd13ifvqcn0","pricing_plan_id":"cebpf4jnsgd1na2vs0mg"},{"bike_id":"6d39256e-5d0b-4b79-bdcd-0fa12aafb3b5","system_id":"levelo_inurba_marseille","lat":43.30468,"lon":5.37903,"is_reserved":false,"is_disabled":false,"rental_uris":{"android":"levelo://app?vid=6d39256e-5d0b-4b79-bdcd-0fa12aafb3b5","ios":"levelo://app?vid=6d39256e-5d0b-4b79-bdcd-0fa12aafb3b5"},"vehicle_type_id":"4","last_reported":1713290960,"current_range_meters":31200,"station_id":"ce4bgup2rcd13ifvqcn0","pricing_plan_id":"cebpf4jnsgd1na2vs0mg"},{"bike_id":"86341f99-7cad-41ed-bd83-3f3debca76f9","system_id":"levelo_inurba_marseille","lat":43.304606,"lon":5.379026,"is_reserved":false,"is_disabled":false,"rental_uris":{"android":"levelo://app?vid=86341f99-7cad-41ed-bd83-3f3debca76f9","ios":"levelo://app?vid=86341f99-7cad-41ed-bd83-3f3debca76f9"},"vehicle_type_id":"4","last_reported":1713290960,"current_range_meters":400,"station_id":"ce4bgup2rcd13ifvqcn0","pricing_plan_id":"cebpf4jnsgd1na2vs0mg"},{"bike_id":"1f9845bd-cea3-4504-af7d-8fb6f6cea0e6","system_id":"levelo_inurba_marseille","lat":43.324771,"lon":5.36557,"is_reserved":false,"is_disabled":false,"rental_uris":{"android":"levelo://app?vid=1f9845bd-cea3-4504-af7d-8fb6f6cea0e6","ios":"levelo://app?vid=1f9845bd-cea3-4504-af7d-8fb6f6cea0e6"},"vehicle_type_id":"4","last_reported":1713290960,"current_range_meters":17600,"station_id":"ce4bhs12rcd13ifvqhvg","pricing_plan_id":"cebpf4jnsgd1na2vs0mg"},{"bike_id":"75545c99-1e51-4232-9248-f06d64a78245","system_id":"levelo_inurba_marseille","lat":43.30462,"lon":5.37904,"is_reserved":false,"is_disabled":false,"rental_uris":{"android":"levelo://app?vid=75545c99-1e51-4232-9248-f06d64a78245","ios":"levelo://app?vid=75545c99-1e51-4232-9248-f06d64a78245"},"vehicle_type_id":"4","last_reported":1713290960,"current_range_meters":25600,"station_id":"ce4bgup2rcd13ifvqcn0","pricing_plan_id":"cebpf4jnsgd1na2vs0mg"},{"bike_id":"732115dd-fc36-4cea-9cd6-0e4cc350a9d7","system_id":"levelo_inurba_marseille","lat":43.324771,"lon":5.36557,"is_reserved":false,"is_disabled":false,"rental_uris":{"android":"levelo://app?vid=732115dd-fc36-4cea-9cd6-0e4cc350a9d7","ios":"levelo://app?vid=732115dd-fc36-4cea-9cd6-0e4cc350a9d7"},"vehicle_type_id":"4","last_reported":1713290960,"current_range_meters":8000,"station_id":"ce4bhs12rcd13ifvqhvg","pricing_plan_id":"cebpf4jnsgd1na2vs0mg"},{"bike_id":"3bf0dbf7-1a46-4454-85d4-d6199fac68a8","system_id":"levelo_inurba_marseille","lat":43.324771,"lon":5.36557,"is_reserved":false,"is_disabled":false,"rental_uris":{"android":"levelo://app?vid=3bf0dbf7-1a46-4454-85d4-d6199fac68a8","ios":"levelo://app?vid=3bf0dbf7-1a46-4454-85d4-d6199fac68a8"},"vehicle_type_id":"4","last_reported":1713290960,"current_range_meters":9200,"station_id":"ce4bhs12rcd13ifvqhvg","pricing_plan_id":"cebpf4jnsgd1na2vs0mg"},{"bike_id":"80e58dc1-fdef-4f54-9bc2-c8e430b82f45","system_id":"levelo_inurba_marseille","lat":43.305989,"lon":5.37225,"is_reserved":false,"is_disabled":false,"rental_uris":{"android":"levelo://app?vid=80e58dc1-fdef-4f54-9bc2-c8e430b82f45","ios":"levelo://app?vid=80e58dc1-fdef-4f54-9bc2-c8e430b82f45"},"vehicle_type_id":"4","last_reported":1713290960,"current_range_meters":13200,"station_id":"ce4bgqh2rcd13ifvqc4g","pricing_plan_id":"cebpf4jnsgd1na2vs0mg"},{"bike_id":"6850d3ac-6118-46b8-87a3-283cb8f13775","system_id":"levelo_inurba_marseille","lat":43.324771,"lon":5.36557,"is_reserved":false,"is_disabled":false,"rental_uris":{"android":"levelo://app?vid=6850d3ac-6118-46b8-87a3-283cb8f13775","ios":"levelo://app?vid=6850d3ac-6118-46b8-87a3-283cb8f13775"},"vehicle_type_id":"4","last_reported":1713290960,"current_range_meters":14800,"station_id":"ce4bhs12rcd13ifvqhvg","pricing_plan_id":"cebpf4jnsgd1na2vs0mg"},{"bike_id":"fb961c54-d86e-4c51-9812-a80fd53cb14f","system_id":"levelo_inurba_marseille","lat":43.31068,"lon":5.38349,"is_reserved":false,"is_disabled":false,"rental_uris":{"android":"levelo://app?vid=fb961c54-d86e-4c51-9812-a80fd53cb14f","ios":"levelo://app?vid=fb961c54-d86e-4c51-9812-a80fd53cb14f"},"vehicle_type_id":"4","last_reported":1713290960,"current_range_meters":0,"station_id":"ce4bgv92rcd13ifvqcr0","pricing_plan_id":"cebpf4jnsgd1na2vs0mg"},{"bike_id":"5e0422c4-4db2-4cd5-8ec6-f1a5f73617e2","system_id":"levelo_inurba_marseille","lat":43.305679,"lon":5.381367,"is_reserved":false,"is_disabled":false,"rental_uris":{"android":"levelo://app?vid=5e0422c4-4db2-4cd5-8ec6-f1a5f73617e2","ios":"levelo://app?vid=5e0422c4-4db2-4cd5-8ec6-f1a5f73617e2"},"vehicle_type_id":"4","last_reported":1713290960,"current_range_meters":22800,"station_id":"","pricing_plan_id":"cebpf4jnsgd1na2vs0mg"},{"bike_id":"d1928dcd-a1e5-4342-9479-8b973099efc0","system_id":"levelo_inurba_marseille","lat":43.319935,"lon":5.381699,"is_reserved":false,"is_disabled":false,"rental_uris":{"android":"levelo://app?vid=d1928dcd-a1e5-4342-9479-8b973099efc0","ios":"levelo://app?vid=d1928dcd-a1e5-4342-9479-8b973099efc0"},"vehicle_type_id":"4","last_reported":1713290960,"current_range_meters":2000,"station_id":"ce4bhr12rcd13ifvqhpg","pricing_plan_id":"cebpf4jnsgd1na2vs0mg"},{"bike_id":"252b1aad-2087-4bec-b4ef-898ffb9e27a1","system_id":"levelo_inurba_marseille","lat":43.319935,"lon":5.381699,"is_reserved":false,"is_disabled":false,"rental_uris":{"android":"levelo://app?vid=252b1aad-2087-4bec-b4ef-898ffb9e27a1","ios":"levelo://app?vid=252b1aad-2087-4bec-b4ef-898ffb9e27a1"},"vehicle_type_id":"4","last_reported":1713290960,"current_range_meters":10800,"station_id":"ce4bhr12rcd13ifvqhpg","pricing_plan_id":"cebpf4jnsgd1na2vs0mg"},{"bike_id":"c63dc825-06b9-402d-8174-3b17e34f8d5c","system_id":"levelo_inurba_marseille","lat":43.319935,"lon":5.381699,"is_reserved":false,"is_disabled":false,"rental_uris":{"android":"levelo://app?vid=c63dc825-06b9-402d-8174-3b17e34f8d5c","ios":"levelo://app?vid=c63dc825-06b9-402d-8174-3b17e34f8d5c"},"vehicle_type_id":"4","last_reported":1713290960,"current_range_meters":11600,"station_id":"ce4bhr12rcd13ifvqhpg","pricing_plan_id":"cebpf4jnsgd1na2vs0mg"},{"bike_id":"f00613ec-f56b-4110-b7f4-e096c4497746","system_id":"levelo_inurba_marseille","lat":43.319935,"lon":5.381699,"is_reserved":false,"is_disabled":false,"rental_uris":{"android":"levelo://app?vid=f00613ec-f56b-4110-b7f4-e096c4497746","ios":"levelo://app?vid=f00613ec-f56b-4110-b7f4-e096c4497746"},"vehicle_type_id":"4","last_reported":1713290960,"current_range_meters":26800,"station_id":"ce4bhr12rcd13ifvqhpg","pricing_plan_id":"cebpf4jnsgd1na2vs0mg"},{"bike_id":"421a1cfb-93e0-4e6b-9822-b334fc47623d","system_id":"levelo_inurba_marseille","lat":43.32,"lon":5.3816,"is_reserved":false,"is_disabled":false,"rental_uris":{"android":"levelo://app?vid=421a1cfb-93e0-4e6b-9822-b334fc47623d","ios":"levelo://app?vid=421a1cfb-93e0-4e6b-9822-b334fc47623d"},"vehicle_type_id":"4","last_reported":1713290960,"current_range_meters":2000,"station_id":"ce4bhr12rcd13ifvqhpg","pricing_plan_id":"cebpf4jnsgd1na2vs0mg"},{"bike_id":"4fd0356d-167a-4a75-bf06-645f0d003df7","system_id":"levelo_inurba_marseille","lat":43.32002,"lon":5.38159,"is_reserved":false,"is_disabled":false,"rental_uris":{"android":"levelo://app?vid=4fd0356d-167a-4a75-bf06-645f0d003df7","ios":"levelo://app?vid=4fd0356d-167a-4a75-bf06-645f0d003df7"},"vehicle_type_id":"4","last_reported":1713290960,"current_range_meters":15200,"station_id":"ce4bhr12rcd13ifvqhpg","pricing_plan_id":"cebpf4jnsgd1na2vs0mg"},{"bike_id":"82cbbd9b-fccb-4f3a-afab-6019d13cedda","system_id":"levelo_inurba_marseille","lat":43.319249,"lon":5.382277,"is_reserved":false,"is_disabled":false,"rental_uris":{"android":"levelo://app?vid=82cbbd9b-fccb-4f3a-afab-6019d13cedda","ios":"levelo://app?vid=82cbbd9b-fccb-4f3a-afab-6019d13cedda"},"vehicle_type_id":"4","last_reported":1713290960,"current_range_meters":0,"station_id":"","pricing_plan_id":"cebpf4jnsgd1na2vs0mg"},{"bike_id":"d022893b-5ec7-430d-a3e4-e8108bbd57b3","system_id":"levelo_inurba_marseille","lat":43.31998,"lon":5.3817,"is_reserved":false,"is_disabled":false,"rental_uris":{"android":"levelo://app?vid=d022893b-5ec7-430d-a3e4-e8108bbd57b3","ios":"levelo://app?vid=d022893b-5ec7-430d-a3e4-e8108bbd57b3"},"vehicle_type_id":"4","last_reported":1713290960,"current_range_meters":2800,"station_id":"ce4bhr12rcd13ifvqhpg","pricing_plan_id":"cebpf4jnsgd1na2vs0mg"},{"bike_id":"9c7ce43e-d0dd-4762-9131-d050d56a780a","system_id":"levelo_inurba_marseille","lat":43.32006,"lon":5.3817,"is_reserved":false,"is_disabled":false,"rental_uris":{"android":"levelo://app?vid=9c7ce43e-d0dd-4762-9131-d050d56a780a","ios":"levelo://app?vid=9c7ce43e-d0dd-4762-9131-d050d56a780a"},"vehicle_type_id":"4","last_reported":1713290960,"current_range_meters":10000,"station_id":"ce4bhr12rcd13ifvqhpg","pricing_plan_id":"cebpf4jnsgd1na2vs0mg"},{"bike_id":"43e2b98c-c37f-4a93-b33c-bcd61bdc631f","system_id":"levelo_inurba_marseille","lat":43.313571,"lon":5.384829,"is_reserved":false,"is_disabled":false,"rental_uris":{"android":"levelo://app?vid=43e2b98c-c37f-4a93-b33c-bcd61bdc631f","ios":"levelo://app?vid=43e2b98c-c37f-4a93-b33c-bcd61bdc631f"},"vehicle_type_id":"4","last_reported":1713290960,"current_range_meters":4800,"station_id":"ce4bgt92rcd13ifvqcf0","pricing_plan_id":"cebpf4jnsgd1na2vs0mg"},{"bike_id":"9d319bbe-b9b5-4bb4-976a-c8b57293f871","system_id":"levelo_inurba_marseille","lat":43.299222,"lon":5.365554,"is_reserved":false,"is_disabled":false,"rental_uris":{"android":"levelo://app?vid=9d319bbe-b9b5-4bb4-976a-c8b57293f871","ios":"levelo://app?vid=9d319bbe-b9b5-4bb4-976a-c8b57293f871"},"vehicle_type_id":"4","last_reported":1713290960,"current_range_meters":11600,"station_id":"ce4bgm92rcd13ifvqbr0","pricing_plan_id":"cebpf4jnsgd1na2vs0mg"},{"bike_id":"e31b0e3b-98de-4236-b2b2-b63025f0d393","system_id":"levelo_inurba_marseille","lat":43.299222,"lon":5.365554,"is_reserved":false,"is_disabled":false,"rental_uris":{"android":"levelo://app?vid=e31b0e3b-98de-4236-b2b2-b63025f0d393","ios":"levelo://app?vid=e31b0e3b-98de-4236-b2b2-b63025f0d393"},"vehicle_type_id":"4","last_reported":1713290960,"current_range_meters":12800,"station_id":"ce4bgm92rcd13ifvqbr0","pricing_plan_id":"cebpf4jnsgd1na2vs0mg"},{"bike_id":"6fa4b071-8502-4a6e-b82d-58c3ac59b0d7","system_id":"levelo_inurba_marseille","lat":43.299222,"lon":5.365554,"is_reserved":false,"is_disabled":false,"rental_uris":{"android":"levelo://app?vid=6fa4b071-8502-4a6e-b82d-58c3ac59b0d7","ios":"levelo://app?vid=6fa4b071-8502-4a6e-b82d-58c3ac59b0d7"},"vehicle_type_id":"4","last_reported":1713290960,"current_range_meters":8400,"station_id":"ce4bgm92rcd13ifvqbr0","pricing_plan_id":"cebpf4jnsgd1na2vs0mg"},{"bike_id":"324fe3e5-fe31-4b5e-bbc1-3824c2d0f7d1","system_id":"levelo_inurba_marseille","lat":43.299222,"lon":5.365554,"is_reserved":false,"is_disabled":false,"rental_uris":{"android":"levelo://app?vid=324fe3e5-fe31-4b5e-bbc1-3824c2d0f7d1","ios":"levelo://app?vid=324fe3e5-fe31-4b5e-bbc1-3824c2d0f7d1"},"vehicle_type_id":"4","last_reported":1713290960,"current_range_meters":15200,"station_id":"ce4bgm92rcd13ifvqbr0","pricing_plan_id":"cebpf4jnsgd1na2vs0mg"},{"bike_id":"cb2bb64b-8dcc-4176-9e2b-450f97e59c1e","system_id":"levelo_inurba_marseille","lat":43.299222,"lon":5.365554,"is_reserved":false,"is_disabled":false,"rental_uris":{"android":"levelo://app?vid=cb2bb64b-8dcc-4176-9e2b-450f97e59c1e","ios":"levelo://app?vid=cb2bb64b-8dcc-4176-9e2b-450f97e59c1e"},"vehicle_type_id":"4","last_reported":1713290960,"current_range_meters":10400,"station_id":"ce4bgm92rcd13ifvqbr0","pricing_plan_id":"cebpf4jnsgd1na2vs0mg"},{"bike_id":"6d427520-a15e-4f25-88b0-6415d482c8cc","system_id":"levelo_inurba_marseille","lat":43.299222,"lon":5.365554,"is_reserved":false,"is_disabled":false,"rental_uris":{"android":"levelo://app?vid=6d427520-a15e-4f25-88b0-6415d482c8cc","ios":"levelo://app?vid=6d427520-a15e-4f25-88b0-6415d482c8cc"},"vehicle_type_id":"4","last_reported":1713290960,"current_range_meters":12400,"station_id":"ce4bgm92rcd13ifvqbr0","pricing_plan_id":"cebpf4jnsgd1na2vs0mg"},{"bike_id":"2554a6bb-a5e5-4ee7-b4fd-b711df9f9218","system_id":"levelo_inurba_marseille","lat":43.299222,"lon":5.365554,"is_reserved":false,"is_disabled":false,"rental_uris":{"android":"levelo://app?vid=2554a6bb-a5e5-4ee7-b4fd-b711df9f9218","ios":"levelo://app?vid=2554a6bb-a5e5-4ee7-b4fd-b711df9f9218"},"vehicle_type_id":"4","last_reported":1713290960,"current_range_meters":26000,"station_id":"ce4bgm92rcd13ifvqbr0","pricing_plan_id":"cebpf4jnsgd1na2vs0mg"},{"bike_id":"dff9d914-c6ab-408a-834b-896e509c994a","system_id":"levelo_inurba_marseille","lat":43.298433,"lon":5.362774,"is_reserved":false,"is_disabled":false,"rental_uris":{"android":"levelo://app?vid=dff9d914-c6ab-408a-834b-896e509c994a","ios":"levelo://app?vid=dff9d914-c6ab-408a-834b-896e509c994a"},"vehicle_type_id":"4","last_reported":1713290960,"current_range_meters":5200,"station_id":"ce4bgpp2rcd13ifvqc3g","pricing_plan_id":"cebpf4jnsgd1na2vs0mg"},{"bike_id":"62bef000-9fe0-4d40-8460-637f584fbf6a","system_id":"levelo_inurba_marseille","lat":43.305364,"lon":5.384119,"is_reserved":false,"is_disabled":false,"rental_uris":{"android":"levelo://app?vid=62bef000-9fe0-4d40-8460-637f584fbf6a","ios":"levelo://app?vid=62bef000-9fe0-4d40-8460-637f584fbf6a"},"vehicle_type_id":"4","last_reported":1713290960,"current_range_meters":18400,"station_id":"ce4bgg92rcd13ifvqb30","pricing_plan_id":"cebpf4jnsgd1na2vs0mg"},{"bike_id":"d025f163-f8b7-4397-a248-1ac67103011f","system_id":"levelo_inurba_marseille","lat":43.305364,"lon":5.384119,"is_reserved":false,"is_disabled":false,"rental_uris":{"android":"levelo://app?vid=d025f163-f8b7-4397-a248-1ac67103011f","ios":"levelo://app?vid=d025f163-f8b7-4397-a248-1ac67103011f"},"vehicle_type_id":"4","last_reported":1713290960,"current_range_meters":9600,"station_id":"ce4bgg92rcd13ifvqb30","pricing_plan_id":"cebpf4jnsgd1na2vs0mg"},{"bike_id":"f5efadba-9dca-418c-a20f-d111263be1b2","system_id":"levelo_inurba_marseille","lat":43.298433,"lon":5.362774,"is_reserved":false,"is_disabled":false,"rental_uris":{"android":"levelo://app?vid=f5efadba-9dca-418c-a20f-d111263be1b2","ios":"levelo://app?vid=f5efadba-9dca-418c-a20f-d111263be1b2"},"vehicle_type_id":"4","last_reported":1713290960,"current_range_meters":13200,"station_id":"ce4bgpp2rcd13ifvqc3g","pricing_plan_id":"cebpf4jnsgd1na2vs0mg"},{"bike_id":"4077dc45-2023-45d2-8a94-2da35a5ec39f","system_id":"levelo_inurba_marseille","lat":43.298433,"lon":5.362774,"is_reserved":false,"is_disabled":false,"rental_uris":{"android":"levelo://app?vid=4077dc45-2023-45d2-8a94-2da35a5ec39f","ios":"levelo://app?vid=4077dc45-2023-45d2-8a94-2da35a5ec39f"},"vehicle_type_id":"4","last_reported":1713290960,"current_range_meters":11600,"station_id":"ce4bgpp2rcd13ifvqc3g","pricing_plan_id":"cebpf4jnsgd1na2vs0mg"},{"bike_id":"74126c0f-62fd-448b-8675-ed31e940f419","system_id":"levelo_inurba_marseille","lat":43.305364,"lon":5.384119,"is_reserved":false,"is_disabled":false,"rental_uris":{"android":"levelo://app?vid=74126c0f-62fd-448b-8675-ed31e940f419","ios":"levelo://app?vid=74126c0f-62fd-448b-8675-ed31e940f419"},"vehicle_type_id":"4","last_reported":1713290960,"current_range_meters":18000,"station_id":"ce4bgg92rcd13ifvqb30","pricing_plan_id":"cebpf4jnsgd1na2vs0mg"},{"bike_id":"54c42291-f8ea-4564-bfe3-180b20577f13","system_id":"levelo_inurba_marseille","lat":43.29837,"lon":5.36266,"is_reserved":false,"is_disabled":false,"rental_uris":{"android":"levelo://app?vid=54c42291-f8ea-4564-bfe3-180b20577f13","ios":"levelo://app?vid=54c42291-f8ea-4564-bfe3-180b20577f13"},"vehicle_type_id":"4","last_reported":1713290960,"current_range_meters":16400,"station_id":"ce4bgpp2rcd13ifvqc3g","pricing_plan_id":"cebpf4jnsgd1na2vs0mg"},{"bike_id":"b70318e4-61f7-43e6-b74f-8d2ea022c24c","system_id":"levelo_inurba_marseille","lat":43.299243,"lon":5.374807,"is_reserved":false,"is_disabled":false,"rental_uris":{"android":"levelo://app?vid=b70318e4-61f7-43e6-b74f-8d2ea022c24c","ios":"levelo://app?vid=b70318e4-61f7-43e6-b74f-8d2ea022c24c"},"vehicle_type_id":"4","last_reported":1713290960,"current_range_meters":0,"station_id":"ce4bgjh2rcd13ifvqbg0","pricing_plan_id":"cebpf4jnsgd1na2vs0mg"},{"bike_id":"36b5b520-13ec-4a71-b0e2-4053fd4c6d5d","system_id":"levelo_inurba_marseille","lat":43.31175,"lon":5.38714,"is_reserved":false,"is_disabled":false,"rental_uris":{"android":"levelo://app?vid=36b5b520-13ec-4a71-b0e2-4053fd4c6d5d","ios":"levelo://app?vid=36b5b520-13ec-4a71-b0e2-4053fd4c6d5d"},"vehicle_type_id":"4","last_reported":1713290960,"current_range_meters":0,"station_id":"ce4bgv12rcd13ifvqcp0","pricing_plan_id":"cebpf4jnsgd1na2vs0mg"},{"bike_id":"1dfd5a19-ce25-4dd7-9ed8-7e8c63af9491","system_id":"levelo_inurba_marseille","lat":43.299243,"lon":5.37481,"is_reserved":false,"is_disabled":false,"rental_uris":{"android":"levelo://app?vid=1dfd5a19-ce25-4dd7-9ed8-7e8c63af9491","ios":"levelo://app?vid=1dfd5a19-ce25-4dd7-9ed8-7e8c63af9491"},"vehicle_type_id":"4","last_reported":1713290960,"current_range_meters":1600,"station_id":"ce4bgjh2rcd13ifvqbg0","pricing_plan_id":"cebpf4jnsgd1na2vs0mg"},{"bike_id":"4fc868a1-d2ca-415b-8f36-db9a2c0944bd","system_id":"levelo_inurba_marseille","lat":43.32288,"lon":5.38266,"is_reserved":false,"is_disabled":false,"rental_uris":{"android":"levelo://app?vid=4fc868a1-d2ca-415b-8f36-db9a2c0944bd","ios":"levelo://app?vid=4fc868a1-d2ca-415b-8f36-db9a2c0944bd"},"vehicle_type_id":"4","last_reported":1713290960,"current_range_meters":0,"station_id":"ce4bhr12rcd13ifvqhqg","pricing_plan_id":"cebpf4jnsgd1na2vs0mg"},{"bike_id":"5442c3f7-4cf1-4b6e-99cd-8eef7dd431a2","system_id":"levelo_inurba_marseille","lat":43.32291,"lon":5.38273,"is_reserved":false,"is_disabled":false,"rental_uris":{"android":"levelo://app?vid=5442c3f7-4cf1-4b6e-99cd-8eef7dd431a2","ios":"levelo://app?vid=5442c3f7-4cf1-4b6e-99cd-8eef7dd431a2"},"vehicle_type_id":"4","last_reported":1713290960,"current_range_meters":26000,"station_id":"ce4bhr12rcd13ifvqhqg","pricing_plan_id":"cebpf4jnsgd1na2vs0mg"},{"bike_id":"1aa246d9-ed2d-4d7c-8ca8-3ce1af8ac2cc","system_id":"levelo_inurba_marseille","lat":43.29645,"lon":5.366,"is_reserved":false,"is_disabled":false,"rental_uris":{"android":"levelo://app?vid=1aa246d9-ed2d-4d7c-8ca8-3ce1af8ac2cc","ios":"levelo://app?vid=1aa246d9-ed2d-4d7c-8ca8-3ce1af8ac2cc"},"vehicle_type_id":"4","last_reported":1713290960,"current_range_meters":17200,"station_id":"","pricing_plan_id":"cebpf4jnsgd1na2vs0mg"},{"bike_id":"edb43358-8118-4363-a73b-528eb80b41e2","system_id":"levelo_inurba_marseille","lat":43.295991,"lon":5.367306,"is_reserved":false,"is_disabled":false,"rental_uris":{"android":"levelo://app?vid=edb43358-8118-4363-a73b-528eb80b41e2","ios":"levelo://app?vid=edb43358-8118-4363-a73b-528eb80b41e2"},"vehicle_type_id":"4","last_reported":1713290960,"current_range_meters":0,"station_id":"ce4bgph2rcd13ifvqc2g","pricing_plan_id":"cebpf4jnsgd1na2vs0mg"},{"bike_id":"a85b95a5-c2f9-49e4-acf6-b603ef02494e","system_id":"levelo_inurba_marseille","lat":43.29573,"lon":5.367355,"is_reserved":false,"is_disabled":false,"rental_uris":{"android":"levelo://app?vid=a85b95a5-c2f9-49e4-acf6-b603ef02494e","ios":"levelo://app?vid=a85b95a5-c2f9-49e4-acf6-b603ef02494e"},"vehicle_type_id":"4","last_reported":1713290960,"current_range_meters":0,"station_id":"ce4bgph2rcd13ifvqc2g","pricing_plan_id":"cebpf4jnsgd1na2vs0mg"},{"bike_id":"1397fd44-2dfb-4157-8ac4-afa81f939114","system_id":"levelo_inurba_marseille","lat":43.296131,"lon":5.370791,"is_reserved":false,"is_disabled":false,"rental_uris":{"android":"levelo://app?vid=1397fd44-2dfb-4157-8ac4-afa81f939114","ios":"levelo://app?vid=1397fd44-2dfb-4157-8ac4-afa81f939114"},"vehicle_type_id":"4","last_reported":1713290960,"current_range_meters":13200,"station_id":"ce4bgnh2rcd13ifvqc0g","pricing_plan_id":"cebpf4jnsgd1na2vs0mg"},{"bike_id":"3368e539-8b12-4e81-a052-9eea8c012bf2","system_id":"levelo_inurba_marseille","lat":43.296921,"lon":5.376579,"is_reserved":false,"is_disabled":false,"rental_uris":{"android":"levelo://app?vid=3368e539-8b12-4e81-a052-9eea8c012bf2","ios":"levelo://app?vid=3368e539-8b12-4e81-a052-9eea8c012bf2"},"vehicle_type_id":"4","last_reported":1713290960,"current_range_meters":1600,"station_id":"ce4bgkh2rcd13ifvqbl0","pricing_plan_id":"cebpf4jnsgd1na2vs0mg"},{"bike_id":"3ab76939-62bc-4623-9e46-68368f2b1f8c","system_id":"levelo_inurba_marseille","lat":43.299026,"lon":5.381284,"is_reserved":false,"is_disabled":false,"rental_uris":{"android":"levelo://app?vid=3ab76939-62bc-4623-9e46-68368f2b1f8c","ios":"levelo://app?vid=3ab76939-62bc-4623-9e46-68368f2b1f8c"},"vehicle_type_id":"4","last_reported":1713290960,"current_range_meters":0,"station_id":"ce4bgj12rcd13ifvqbc0","pricing_plan_id":"cebpf4jnsgd1na2vs0mg"},{"bike_id":"64873b05-7855-49e5-9bd1-34e36009195c","system_id":"levelo_inurba_marseille","lat":43.309589,"lon":5.390258,"is_reserved":false,"is_disabled":false,"rental_uris":{"android":"levelo://app?vid=64873b05-7855-49e5-9bd1-34e36009195c","ios":"levelo://app?vid=64873b05-7855-49e5-9bd1-34e36009195c"},"vehicle_type_id":"4","last_reported":1713290960,"current_range_meters":4800,"station_id":"ce4bgup2rcd13ifvqco0","pricing_plan_id":"cebpf4jnsgd1na2vs0mg"},{"bike_id":"c3d417e5-450e-45a0-96d4-dce544b1cf18","system_id":"levelo_inurba_marseille","lat":43.296921,"lon":5.376579,"is_reserved":false,"is_disabled":false,"rental_uris":{"android":"levelo://app?vid=c3d417e5-450e-45a0-96d4-dce544b1cf18","ios":"levelo://app?vid=c3d417e5-450e-45a0-96d4-dce544b1cf18"},"vehicle_type_id":"4","last_reported":1713290960,"current_range_meters":13600,"station_id":"ce4bgkh2rcd13ifvqbl0","pricing_plan_id":"cebpf4jnsgd1na2vs0mg"},{"bike_id":"80c65c49-6eae-4a7d-be23-40d1a4104eaf","system_id":"levelo_inurba_marseille","lat":43.297069,"lon":5.377175,"is_reserved":false,"is_disabled":false,"rental_uris":{"android":"levelo://app?vid=80c65c49-6eae-4a7d-be23-40d1a4104eaf","ios":"levelo://app?vid=80c65c49-6eae-4a7d-be23-40d1a4104eaf"},"vehicle_type_id":"4","last_reported":1713290960,"current_range_meters":0,"station_id":"ce4bgkh2rcd13ifvqbl0","pricing_plan_id":"cebpf4jnsgd1na2vs0mg"},{"bike_id":"eb6690f7-2823-4f91-8e8d-72916ba6c9f3","system_id":"levelo_inurba_marseille","lat":43.309589,"lon":5.390258,"is_reserved":false,"is_disabled":false,"rental_uris":{"android":"levelo://app?vid=eb6690f7-2823-4f91-8e8d-72916ba6c9f3","ios":"levelo://app?vid=eb6690f7-2823-4f91-8e8d-72916ba6c9f3"},"vehicle_type_id":"4","last_reported":1713290960,"current_range_meters":4000,"station_id":"ce4bgup2rcd13ifvqco0","pricing_plan_id":"cebpf4jnsgd1na2vs0mg"},{"bike_id":"0be653b8-c1d8-4fdc-8344-70e44b76290c","system_id":"levelo_inurba_marseille","lat":43.31755,"lon":5.39004,"is_reserved":false,"is_disabled":false,"rental_uris":{"android":"levelo://app?vid=0be653b8-c1d8-4fdc-8344-70e44b76290c","ios":"levelo://app?vid=0be653b8-c1d8-4fdc-8344-70e44b76290c"},"vehicle_type_id":"4","last_reported":1713290960,"current_range_meters":15600,"station_id":"ce4bhqp2rcd13ifvqhng","pricing_plan_id":"cebpf4jnsgd1na2vs0mg"},{"bike_id":"afd389c0-7a1f-4448-8f6a-70ecd567a42f","system_id":"levelo_inurba_marseille","lat":43.317557,"lon":5.390173,"is_reserved":false,"is_disabled":false,"rental_uris":{"android":"levelo://app?vid=afd389c0-7a1f-4448-8f6a-70ecd567a42f","ios":"levelo://app?vid=afd389c0-7a1f-4448-8f6a-70ecd567a42f"},"vehicle_type_id":"4","last_reported":1713290960,"current_range_meters":18800,"station_id":"ce4bhqp2rcd13ifvqhng","pricing_plan_id":"cebpf4jnsgd1na2vs0mg"},{"bike_id":"ef3fb784-1dd5-4bd2-b279-308a01ddd37f","system_id":"levelo_inurba_marseille","lat":43.317557,"lon":5.390173,"is_reserved":false,"is_disabled":false,"rental_uris":{"android":"levelo://app?vid=ef3fb784-1dd5-4bd2-b279-308a01ddd37f","ios":"levelo://app?vid=ef3fb784-1dd5-4bd2-b279-308a01ddd37f"},"vehicle_type_id":"4","last_reported":1713290960,"current_range_meters":12000,"station_id":"ce4bhqp2rcd13ifvqhng","pricing_plan_id":"cebpf4jnsgd1na2vs0mg"},{"bike_id":"427afb0d-4139-4aeb-8ed2-57d22a6dc413","system_id":"levelo_inurba_marseille","lat":43.317557,"lon":5.390173,"is_reserved":false,"is_disabled":false,"rental_uris":{"android":"levelo://app?vid=427afb0d-4139-4aeb-8ed2-57d22a6dc413","ios":"levelo://app?vid=427afb0d-4139-4aeb-8ed2-57d22a6dc413"},"vehicle_type_id":"4","last_reported":1713290960,"current_range_meters":2000,"station_id":"ce4bhqp2rcd13ifvqhng","pricing_plan_id":"cebpf4jnsgd1na2vs0mg"},{"bike_id":"86f11b60-db8c-4677-bef2-05a5049e0570","system_id":"levelo_inurba_marseille","lat":43.317557,"lon":5.390173,"is_reserved":false,"is_disabled":false,"rental_uris":{"android":"levelo://app?vid=86f11b60-db8c-4677-bef2-05a5049e0570","ios":"levelo://app?vid=86f11b60-db8c-4677-bef2-05a5049e0570"},"vehicle_type_id":"4","last_reported":1713290960,"current_range_meters":26000,"station_id":"ce4bhqp2rcd13ifvqhng","pricing_plan_id":"cebpf4jnsgd1na2vs0mg"},{"bike_id":"90f153bd-2190-4088-b137-9ad520e813ac","system_id":"levelo_inurba_marseille","lat":43.317557,"lon":5.390173,"is_reserved":false,"is_disabled":false,"rental_uris":{"android":"levelo://app?vid=90f153bd-2190-4088-b137-9ad520e813ac","ios":"levelo://app?vid=90f153bd-2190-4088-b137-9ad520e813ac"},"vehicle_type_id":"4","last_reported":1713290960,"current_range_meters":18400,"station_id":"ce4bhqp2rcd13ifvqhng","pricing_plan_id":"cebpf4jnsgd1na2vs0mg"},{"bike_id":"ed8d703c-c8f5-4e25-9e80-5e5a9265951c","system_id":"levelo_inurba_marseille","lat":43.317557,"lon":5.390173,"is_reserved":false,"is_disabled":false,"rental_uris":{"android":"levelo://app?vid=ed8d703c-c8f5-4e25-9e80-5e5a9265951c","ios":"levelo://app?vid=ed8d703c-c8f5-4e25-9e80-5e5a9265951c"},"vehicle_type_id":"4","last_reported":1713290960,"current_range_meters":21600,"station_id":"ce4bhqp2rcd13ifvqhng","pricing_plan_id":"cebpf4jnsgd1na2vs0mg"},{"bike_id":"d700fe8c-f0ca-46cf-89ef-dc19397dd4b1","system_id":"levelo_inurba_marseille","lat":43.317557,"lon":5.390173,"is_reserved":false,"is_disabled":false,"rental_uris":{"android":"levelo://app?vid=d700fe8c-f0ca-46cf-89ef-dc19397dd4b1","ios":"levelo://app?vid=d700fe8c-f0ca-46cf-89ef-dc19397dd4b1"},"vehicle_type_id":"4","last_reported":1713290960,"current_range_meters":17200,"station_id":"ce4bhqp2rcd13ifvqhng","pricing_plan_id":"cebpf4jnsgd1na2vs0mg"},{"bike_id":"083abdea-bba6-4ef6-801e-bb7493a2c1ed","system_id":"levelo_inurba_marseille","lat":43.3176,"lon":5.39016,"is_reserved":false,"is_disabled":false,"rental_uris":{"android":"levelo://app?vid=083abdea-bba6-4ef6-801e-bb7493a2c1ed","ios":"levelo://app?vid=083abdea-bba6-4ef6-801e-bb7493a2c1ed"},"vehicle_type_id":"4","last_reported":1713290960,"current_range_meters":1600,"station_id":"ce4bhqp2rcd13ifvqhng","pricing_plan_id":"cebpf4jnsgd1na2vs0mg"},{"bike_id":"c1f9238c-c066-42fa-881a-71ff39872ee5","system_id":"levelo_inurba_marseille","lat":43.31755,"lon":5.39018,"is_reserved":false,"is_disabled":false,"rental_uris":{"android":"levelo://app?vid=c1f9238c-c066-42fa-881a-71ff39872ee5","ios":"levelo://app?vid=c1f9238c-c066-42fa-881a-71ff39872ee5"},"vehicle_type_id":"4","last_reported":1713290960,"current_range_meters":10000,"station_id":"ce4bhqp2rcd13ifvqhng","pricing_plan_id":"cebpf4jnsgd1na2vs0mg"},{"bike_id":"c2206ae9-a905-4937-9cce-fca26125898c","system_id":"levelo_inurba_marseille","lat":43.317504,"lon":5.390214,"is_reserved":false,"is_disabled":false,"rental_uris":{"android":"levelo://app?vid=c2206ae9-a905-4937-9cce-fca26125898c","ios":"levelo://app?vid=c2206ae9-a905-4937-9cce-fca26125898c"},"vehicle_type_id":"4","last_reported":1713290960,"current_range_meters":16000,"station_id":"ce4bhqp2rcd13ifvqhng","pricing_plan_id":"cebpf4jnsgd1na2vs0mg"},{"bike_id":"64e79c7c-35ca-4ed5-b140-a7eb9aa5d972","system_id":"levelo_inurba_marseille","lat":43.31759,"lon":5.39022,"is_reserved":false,"is_disabled":false,"rental_uris":{"android":"levelo://app?vid=64e79c7c-35ca-4ed5-b140-a7eb9aa5d972","ios":"levelo://app?vid=64e79c7c-35ca-4ed5-b140-a7eb9aa5d972"},"vehicle_type_id":"4","last_reported":1713290960,"current_range_meters":3600,"station_id":"ce4bhqp2rcd13ifvqhng","pricing_plan_id":"cebpf4jnsgd1na2vs0mg"},{"bike_id":"455dc1c8-9851-440a-8443-3c79108420c7","system_id":"levelo_inurba_marseille","lat":43.317557,"lon":5.390173,"is_reserved":false,"is_disabled":false,"rental_uris":{"android":"levelo://app?vid=455dc1c8-9851-440a-8443-3c79108420c7","ios":"levelo://app?vid=455dc1c8-9851-440a-8443-3c79108420c7"},"vehicle_type_id":"4","last_reported":1713290960,"current_range_meters":4800,"station_id":"ce4bhqp2rcd13ifvqhng","pricing_plan_id":"cebpf4jnsgd1na2vs0mg"},{"bike_id":"53332bc6-3e9c-4734-ab27-22e6d18009c3","system_id":"levelo_inurba_marseille","lat":43.311722,"lon":5.387247,"is_reserved":false,"is_disabled":false,"rental_uris":{"android":"levelo://app?vid=53332bc6-3e9c-4734-ab27-22e6d18009c3","ios":"levelo://app?vid=53332bc6-3e9c-4734-ab27-22e6d18009c3"},"vehicle_type_id":"4","last_reported":1713290960,"current_range_meters":0,"station_id":"ce4bgv12rcd13ifvqcp0","pricing_plan_id":"cebpf4jnsgd1na2vs0mg"},{"bike_id":"ff22c182-7504-4cf4-8650-2bf6ebfdce61","system_id":"levelo_inurba_marseille","lat":43.282754,"lon":5.350519,"is_reserved":false,"is_disabled":false,"rental_uris":{"android":"levelo://app?vid=ff22c182-7504-4cf4-8650-2bf6ebfdce61","ios":"levelo://app?vid=ff22c182-7504-4cf4-8650-2bf6ebfdce61"},"vehicle_type_id":"4","last_reported":1713290960,"current_range_meters":21600,"station_id":"ce4bhbp2rcd13ifvqerg","pricing_plan_id":"cebpf4jnsgd1na2vs0mg"},{"bike_id":"c2afa74a-98ee-4e33-b8cb-b738d15652e6","system_id":"levelo_inurba_marseille","lat":43.304274,"lon":5.388873,"is_reserved":false,"is_disabled":false,"rental_uris":{"android":"levelo://app?vid=c2afa74a-98ee-4e33-b8cb-b738d15652e6","ios":"levelo://app?vid=c2afa74a-98ee-4e33-b8cb-b738d15652e6"},"vehicle_type_id":"4","last_reported":1713290960,"current_range_meters":14400,"station_id":"ce4bgk12rcd13ifvqbi0","pricing_plan_id":"cebpf4jnsgd1na2vs0mg"},{"bike_id":"c1f73a24-8788-475f-97f8-a0920c069a92","system_id":"levelo_inurba_marseille","lat":43.304274,"lon":5.388873,"is_reserved":false,"is_disabled":false,"rental_uris":{"android":"levelo://app?vid=c1f73a24-8788-475f-97f8-a0920c069a92","ios":"levelo://app?vid=c1f73a24-8788-475f-97f8-a0920c069a92"},"vehicle_type_id":"4","last_reported":1713290960,"current_range_meters":13600,"station_id":"ce4bgk12rcd13ifvqbi0","pricing_plan_id":"cebpf4jnsgd1na2vs0mg"},{"bike_id":"8851dc02-3664-4bc6-bf55-5609b9c2b4e8","system_id":"levelo_inurba_marseille","lat":43.304274,"lon":5.388873,"is_reserved":false,"is_disabled":false,"rental_uris":{"android":"levelo://app?vid=8851dc02-3664-4bc6-bf55-5609b9c2b4e8","ios":"levelo://app?vid=8851dc02-3664-4bc6-bf55-5609b9c2b4e8"},"vehicle_type_id":"4","last_reported":1713290960,"current_range_meters":0,"station_id":"ce4bgk12rcd13ifvqbi0","pricing_plan_id":"cebpf4jnsgd1na2vs0mg"},{"bike_id":"2a871202-d40c-427f-ab5e-247cbc0b731e","system_id":"levelo_inurba_marseille","lat":43.304278,"lon":5.388868,"is_reserved":false,"is_disabled":false,"rental_uris":{"android":"levelo://app?vid=2a871202-d40c-427f-ab5e-247cbc0b731e","ios":"levelo://app?vid=2a871202-d40c-427f-ab5e-247cbc0b731e"},"vehicle_type_id":"4","last_reported":1713290960,"current_range_meters":19600,"station_id":"ce4bgk12rcd13ifvqbi0","pricing_plan_id":"cebpf4jnsgd1na2vs0mg"},{"bike_id":"55ca89bf-90e0-43a1-aea5-18ec51acff5e","system_id":"levelo_inurba_marseille","lat":43.29629,"lon":5.377223,"is_reserved":false,"is_disabled":false,"rental_uris":{"android":"levelo://app?vid=55ca89bf-90e0-43a1-aea5-18ec51acff5e","ios":"levelo://app?vid=55ca89bf-90e0-43a1-aea5-18ec51acff5e"},"vehicle_type_id":"4","last_reported":1713290960,"current_range_meters":0,"station_id":"ce4bgi92rcd13ifvqb90","pricing_plan_id":"cebpf4jnsgd1na2vs0mg"},{"bike_id":"b2045a61-de2c-46d1-820c-072b45134f1d","system_id":"levelo_inurba_marseille","lat":43.304274,"lon":5.388873,"is_reserved":false,"is_disabled":false,"rental_uris":{"android":"levelo://app?vid=b2045a61-de2c-46d1-820c-072b45134f1d","ios":"levelo://app?vid=b2045a61-de2c-46d1-820c-072b45134f1d"},"vehicle_type_id":"4","last_reported":1713290960,"current_range_meters":12800,"station_id":"ce4bgk12rcd13ifvqbi0","pricing_plan_id":"cebpf4jnsgd1na2vs0mg"},{"bike_id":"9bc775ca-e9cf-4a61-8c32-d41234ec6543","system_id":"levelo_inurba_marseille","lat":43.29569,"lon":5.37525,"is_reserved":false,"is_disabled":false,"rental_uris":{"android":"levelo://app?vid=9bc775ca-e9cf-4a61-8c32-d41234ec6543","ios":"levelo://app?vid=9bc775ca-e9cf-4a61-8c32-d41234ec6543"},"vehicle_type_id":"4","last_reported":1713290960,"current_range_meters":7600,"station_id":"ce4bgh92rcd13ifvqb50","pricing_plan_id":"cebpf4jnsgd1na2vs0mg"},{"bike_id":"020d8935-1717-496a-b291-59cc07b93a69","system_id":"levelo_inurba_marseille","lat":43.302008,"lon":5.394694,"is_reserved":false,"is_disabled":false,"rental_uris":{"android":"levelo://app?vid=020d8935-1717-496a-b291-59cc07b93a69","ios":"levelo://app?vid=020d8935-1717-496a-b291-59cc07b93a69"},"vehicle_type_id":"4","last_reported":1713290960,"current_range_meters":16400,"station_id":"ce4bh0p2rcd13ifvqd70","pricing_plan_id":"cebpf4jnsgd1na2vs0mg"},{"bike_id":"ca2ac2af-965d-4635-94ad-1b3d855077f4","system_id":"levelo_inurba_marseille","lat":43.298037,"lon":5.381066,"is_reserved":false,"is_disabled":false,"rental_uris":{"android":"levelo://app?vid=ca2ac2af-965d-4635-94ad-1b3d855077f4","ios":"levelo://app?vid=ca2ac2af-965d-4635-94ad-1b3d855077f4"},"vehicle_type_id":"4","last_reported":1713290960,"current_range_meters":1200,"station_id":"ce4bgip2rcd13ifvqbb0","pricing_plan_id":"cebpf4jnsgd1na2vs0mg"},{"bike_id":"6556f102-7b11-4b73-923b-2fce17af1a37","system_id":"levelo_inurba_marseille","lat":43.308012,"lon":5.381511,"is_reserved":false,"is_disabled":false,"rental_uris":{"android":"levelo://app?vid=6556f102-7b11-4b73-923b-2fce17af1a37","ios":"levelo://app?vid=6556f102-7b11-4b73-923b-2fce17af1a37"},"vehicle_type_id":"4","last_reported":1713290960,"current_range_meters":1200,"station_id":"ce4bgt12rcd13ifvqce0","pricing_plan_id":"cebpf4jnsgd1na2vs0mg"},{"bike_id":"76feaa61-1e7a-484b-b550-72eb8175048b","system_id":"levelo_inurba_marseille","lat":43.29614,"lon":5.37712,"is_reserved":false,"is_disabled":false,"rental_uris":{"android":"levelo://app?vid=76feaa61-1e7a-484b-b550-72eb8175048b","ios":"levelo://app?vid=76feaa61-1e7a-484b-b550-72eb8175048b"},"vehicle_type_id":"4","last_reported":1713290960,"current_range_meters":0,"station_id":"ce4bgi92rcd13ifvqb90","pricing_plan_id":"cebpf4jnsgd1na2vs0mg"},{"bike_id":"39041108-39af-4e4c-aaa8-ad7986563b9d","system_id":"levelo_inurba_marseille","lat":43.296263,"lon":5.377094,"is_reserved":false,"is_disabled":false,"rental_uris":{"android":"levelo://app?vid=39041108-39af-4e4c-aaa8-ad7986563b9d","ios":"levelo://app?vid=39041108-39af-4e4c-aaa8-ad7986563b9d"},"vehicle_type_id":"4","last_reported":1713290960,"current_range_meters":28000,"station_id":"ce4bgi92rcd13ifvqb90","pricing_plan_id":"cebpf4jnsgd1na2vs0mg"},{"bike_id":"13129a13-adf3-4216-972a-6ffd5fea6de2","system_id":"levelo_inurba_marseille","lat":43.299777,"lon":5.384911,"is_reserved":false,"is_disabled":false,"rental_uris":{"android":"levelo://app?vid=13129a13-adf3-4216-972a-6ffd5fea6de2","ios":"levelo://app?vid=13129a13-adf3-4216-972a-6ffd5fea6de2"},"vehicle_type_id":"4","last_reported":1713290960,"current_range_meters":0,"station_id":"ce4bgj92rcd13ifvqbd0","pricing_plan_id":"cebpf4jnsgd1na2vs0mg"},{"bike_id":"3c7b4471-1f88-4f1e-a418-f7e2dc7b6b98","system_id":"levelo_inurba_marseille","lat":43.299707,"lon":5.384859,"is_reserved":false,"is_disabled":false,"rental_uris":{"android":"levelo://app?vid=3c7b4471-1f88-4f1e-a418-f7e2dc7b6b98","ios":"levelo://app?vid=3c7b4471-1f88-4f1e-a418-f7e2dc7b6b98"},"vehicle_type_id":"4","last_reported":1713290960,"current_range_meters":0,"station_id":"ce4bgj92rcd13ifvqbd0","pricing_plan_id":"cebpf4jnsgd1na2vs0mg"},{"bike_id":"606a32c0-c108-4991-a211-3f66df8b0294","system_id":"levelo_inurba_marseille","lat":43.29973,"lon":5.38497,"is_reserved":false,"is_disabled":false,"rental_uris":{"android":"levelo://app?vid=606a32c0-c108-4991-a211-3f66df8b0294","ios":"levelo://app?vid=606a32c0-c108-4991-a211-3f66df8b0294"},"vehicle_type_id":"4","last_reported":1713290960,"current_range_meters":0,"station_id":"ce4bgj92rcd13ifvqbd0","pricing_plan_id":"cebpf4jnsgd1na2vs0mg"},{"bike_id":"b95be04b-c208-4995-b2a0-29729dfbce76","system_id":"levelo_inurba_marseille","lat":43.29972,"lon":5.38498,"is_reserved":false,"is_disabled":false,"rental_uris":{"android":"levelo://app?vid=b95be04b-c208-4995-b2a0-29729dfbce76","ios":"levelo://app?vid=b95be04b-c208-4995-b2a0-29729dfbce76"},"vehicle_type_id":"4","last_reported":1713290960,"current_range_meters":16400,"station_id":"ce4bgj92rcd13ifvqbd0","pricing_plan_id":"cebpf4jnsgd1na2vs0mg"},{"bike_id":"1d1d62c6-331d-4b4a-9054-1580218a5ccf","system_id":"levelo_inurba_marseille","lat":43.299717,"lon":5.384845,"is_reserved":false,"is_disabled":false,"rental_uris":{"android":"levelo://app?vid=1d1d62c6-331d-4b4a-9054-1580218a5ccf","ios":"levelo://app?vid=1d1d62c6-331d-4b4a-9054-1580218a5ccf"},"vehicle_type_id":"4","last_reported":1713290960,"current_range_meters":5200,"station_id":"ce4bgj92rcd13ifvqbd0","pricing_plan_id":"cebpf4jnsgd1na2vs0mg"},{"bike_id":"56b2d458-acda-4b2c-ad0e-7551ad6f02a4","system_id":"levelo_inurba_marseille","lat":43.326605,"lon":5.409903,"is_reserved":false,"is_disabled":false,"rental_uris":{"android":"levelo://app?vid=56b2d458-acda-4b2c-ad0e-7551ad6f02a4","ios":"levelo://app?vid=56b2d458-acda-4b2c-ad0e-7551ad6f02a4"},"vehicle_type_id":"4","last_reported":1713290960,"current_range_meters":20400,"station_id":"ce4bhpp2rcd13ifvqhgg","pricing_plan_id":"cebpf4jnsgd1na2vs0mg"},{"bike_id":"316fc5de-5224-47af-aaf3-8437e60246c2","system_id":"levelo_inurba_marseille","lat":43.279087,"lon":5.380114,"is_reserved":false,"is_disabled":false,"rental_uris":{"android":"levelo://app?vid=316fc5de-5224-47af-aaf3-8437e60246c2","ios":"levelo://app?vid=316fc5de-5224-47af-aaf3-8437e60246c2"},"vehicle_type_id":"4","last_reported":1713290960,"current_range_meters":400,"station_id":"ce4bhf92rcd13ifvqf50","pricing_plan_id":"cebpf4jnsgd1na2vs0mg"},{"bike_id":"5f306723-eda7-4d26-869d-26699ae5a64f","system_id":"levelo_inurba_marseille","lat":43.29964,"lon":5.38501,"is_reserved":false,"is_disabled":false,"rental_uris":{"android":"levelo://app?vid=5f306723-eda7-4d26-869d-26699ae5a64f","ios":"levelo://app?vid=5f306723-eda7-4d26-869d-26699ae5a64f"},"vehicle_type_id":"4","last_reported":1713290960,"current_range_meters":1200,"station_id":"ce4bgj92rcd13ifvqbd0","pricing_plan_id":"cebpf4jnsgd1na2vs0mg"},{"bike_id":"17b954c8-4dfc-4554-a1e3-0288d96ed18a","system_id":"levelo_inurba_marseille","lat":43.32367,"lon":5.388836,"is_reserved":false,"is_disabled":false,"rental_uris":{"android":"levelo://app?vid=17b954c8-4dfc-4554-a1e3-0288d96ed18a","ios":"levelo://app?vid=17b954c8-4dfc-4554-a1e3-0288d96ed18a"},"vehicle_type_id":"4","last_reported":1713290960,"current_range_meters":18400,"station_id":"ce4bhqp2rcd13ifvqhog","pricing_plan_id":"cebpf4jnsgd1na2vs0mg"},{"bike_id":"3c722733-05f4-4714-9cb1-3ed8b82e3eb7","system_id":"levelo_inurba_marseille","lat":43.32367,"lon":5.388836,"is_reserved":false,"is_disabled":false,"rental_uris":{"android":"levelo://app?vid=3c722733-05f4-4714-9cb1-3ed8b82e3eb7","ios":"levelo://app?vid=3c722733-05f4-4714-9cb1-3ed8b82e3eb7"},"vehicle_type_id":"4","last_reported":1713290960,"current_range_meters":6800,"station_id":"ce4bhqp2rcd13ifvqhog","pricing_plan_id":"cebpf4jnsgd1na2vs0mg"},{"bike_id":"eccc45d1-4228-4d4f-b5b6-6d20197350c2","system_id":"levelo_inurba_marseille","lat":43.32367,"lon":5.388836,"is_reserved":false,"is_disabled":false,"rental_uris":{"android":"levelo://app?vid=eccc45d1-4228-4d4f-b5b6-6d20197350c2","ios":"levelo://app?vid=eccc45d1-4228-4d4f-b5b6-6d20197350c2"},"vehicle_type_id":"4","last_reported":1713290960,"current_range_meters":15200,"station_id":"ce4bhqp2rcd13ifvqhog","pricing_plan_id":"cebpf4jnsgd1na2vs0mg"},{"bike_id":"b596c157-1656-42cb-b206-28c5a01285e5","system_id":"levelo_inurba_marseille","lat":43.32367,"lon":5.388836,"is_reserved":false,"is_disabled":false,"rental_uris":{"android":"levelo://app?vid=b596c157-1656-42cb-b206-28c5a01285e5","ios":"levelo://app?vid=b596c157-1656-42cb-b206-28c5a01285e5"},"vehicle_type_id":"4","last_reported":1713290960,"current_range_meters":14400,"station_id":"ce4bhqp2rcd13ifvqhog","pricing_plan_id":"cebpf4jnsgd1na2vs0mg"},{"bike_id":"426c9628-f34b-41bc-8c6f-7f869f5292be","system_id":"levelo_inurba_marseille","lat":43.32372,"lon":5.38882,"is_reserved":false,"is_disabled":false,"rental_uris":{"android":"levelo://app?vid=426c9628-f34b-41bc-8c6f-7f869f5292be","ios":"levelo://app?vid=426c9628-f34b-41bc-8c6f-7f869f5292be"},"vehicle_type_id":"4","last_reported":1713290960,"current_range_meters":2800,"station_id":"ce4bhqp2rcd13ifvqhog","pricing_plan_id":"cebpf4jnsgd1na2vs0mg"},{"bike_id":"ee0255bb-eb42-452f-9e33-49cceccad364","system_id":"levelo_inurba_marseille","lat":43.297794,"lon":5.370888,"is_reserved":false,"is_disabled":false,"rental_uris":{"android":"levelo://app?vid=ee0255bb-eb42-452f-9e33-49cceccad364","ios":"levelo://app?vid=ee0255bb-eb42-452f-9e33-49cceccad364"},"vehicle_type_id":"4","last_reported":1713290960,"current_range_meters":20400,"station_id":"ce4bgop2rcd13ifvqc1g","pricing_plan_id":"cebpf4jnsgd1na2vs0mg"},{"bike_id":"b28dad6a-1e4b-458f-932a-d274310376e0","system_id":"levelo_inurba_marseille","lat":43.32367,"lon":5.388836,"is_reserved":false,"is_disabled":false,"rental_uris":{"android":"levelo://app?vid=b28dad6a-1e4b-458f-932a-d274310376e0","ios":"levelo://app?vid=b28dad6a-1e4b-458f-932a-d274310376e0"},"vehicle_type_id":"4","last_reported":1713290960,"current_range_meters":0,"station_id":"ce4bhqp2rcd13ifvqhog","pricing_plan_id":"cebpf4jnsgd1na2vs0mg"},{"bike_id":"93af6300-6148-465b-8e8d-682d0c28c1ef","system_id":"levelo_inurba_marseille","lat":43.312239,"lon":5.368562,"is_reserved":false,"is_disabled":false,"rental_uris":{"android":"levelo://app?vid=93af6300-6148-465b-8e8d-682d0c28c1ef","ios":"levelo://app?vid=93af6300-6148-465b-8e8d-682d0c28c1ef"},"vehicle_type_id":"4","last_reported":1713290960,"current_range_meters":400,"station_id":"ce4bgl92rcd13ifvqbq0","pricing_plan_id":"cebpf4jnsgd1na2vs0mg"},{"bike_id":"095b53e6-66f2-4f07-b069-1c23b24fcd36","system_id":"levelo_inurba_marseille","lat":43.29602,"lon":5.381084,"is_reserved":false,"is_disabled":false,"rental_uris":{"android":"levelo://app?vid=095b53e6-66f2-4f07-b069-1c23b24fcd36","ios":"levelo://app?vid=095b53e6-66f2-4f07-b069-1c23b24fcd36"},"vehicle_type_id":"4","last_reported":1713290960,"current_range_meters":0,"station_id":"ce4bgl12rcd13ifvqbo0","pricing_plan_id":"cebpf4jnsgd1na2vs0mg"},{"bike_id":"9abc59c9-cc8d-4f93-b523-0609fed146a8","system_id":"levelo_inurba_marseille","lat":43.29602,"lon":5.381084,"is_reserved":false,"is_disabled":false,"rental_uris":{"android":"levelo://app?vid=9abc59c9-cc8d-4f93-b523-0609fed146a8","ios":"levelo://app?vid=9abc59c9-cc8d-4f93-b523-0609fed146a8"},"vehicle_type_id":"4","last_reported":1713290960,"current_range_meters":16400,"station_id":"ce4bgl12rcd13ifvqbo0","pricing_plan_id":"cebpf4jnsgd1na2vs0mg"},{"bike_id":"57b16734-c144-4773-b775-60957e946155","system_id":"levelo_inurba_marseille","lat":43.29602,"lon":5.381084,"is_reserved":false,"is_disabled":false,"rental_uris":{"android":"levelo://app?vid=57b16734-c144-4773-b775-60957e946155","ios":"levelo://app?vid=57b16734-c144-4773-b775-60957e946155"},"vehicle_type_id":"4","last_reported":1713290960,"current_range_meters":800,"station_id":"ce4bgl12rcd13ifvqbo0","pricing_plan_id":"cebpf4jnsgd1na2vs0mg"},{"bike_id":"7c64fd81-3c9d-40a9-ae88-dcca6ede73b9","system_id":"levelo_inurba_marseille","lat":43.293259,"lon":5.371586,"is_reserved":false,"is_disabled":false,"rental_uris":{"android":"levelo://app?vid=7c64fd81-3c9d-40a9-ae88-dcca6ede73b9","ios":"levelo://app?vid=7c64fd81-3c9d-40a9-ae88-dcca6ede73b9"},"vehicle_type_id":"4","last_reported":1713290960,"current_range_meters":0,"station_id":"ce4bgh92rcd13ifvqb40","pricing_plan_id":"cebpf4jnsgd1na2vs0mg"},{"bike_id":"7ff002b3-60a1-458b-9567-37b344a8c033","system_id":"levelo_inurba_marseille","lat":43.2968,"lon":5.37291,"is_reserved":false,"is_disabled":false,"rental_uris":{"android":"levelo://app?vid=7ff002b3-60a1-458b-9567-37b344a8c033","ios":"levelo://app?vid=7ff002b3-60a1-458b-9567-37b344a8c033"},"vehicle_type_id":"4","last_reported":1713290960,"current_range_meters":6400,"station_id":"ce4bgk12rcd13ifvqbj0","pricing_plan_id":"cebpf4jnsgd1na2vs0mg"},{"bike_id":"5bca02f8-407a-4a4a-88b6-c8be6abc1241","system_id":"levelo_inurba_marseille","lat":43.293249,"lon":5.371578,"is_reserved":false,"is_disabled":false,"rental_uris":{"android":"levelo://app?vid=5bca02f8-407a-4a4a-88b6-c8be6abc1241","ios":"levelo://app?vid=5bca02f8-407a-4a4a-88b6-c8be6abc1241"},"vehicle_type_id":"4","last_reported":1713290960,"current_range_meters":12800,"station_id":"ce4bgh92rcd13ifvqb40","pricing_plan_id":"cebpf4jnsgd1na2vs0mg"},{"bike_id":"8834edb3-d679-4ea7-a57e-72c0720b91c2","system_id":"levelo_inurba_marseille","lat":43.292749,"lon":5.368402,"is_reserved":false,"is_disabled":false,"rental_uris":{"android":"levelo://app?vid=8834edb3-d679-4ea7-a57e-72c0720b91c2","ios":"levelo://app?vid=8834edb3-d679-4ea7-a57e-72c0720b91c2"},"vehicle_type_id":"4","last_reported":1713290960,"current_range_meters":4000,"station_id":"ce4bhbp2rcd13ifvqesg","pricing_plan_id":"cebpf4jnsgd1na2vs0mg"},{"bike_id":"92a5f144-2a3e-4a37-bce9-1264203aaa4b","system_id":"levelo_inurba_marseille","lat":43.293259,"lon":5.371586,"is_reserved":false,"is_disabled":false,"rental_uris":{"android":"levelo://app?vid=92a5f144-2a3e-4a37-bce9-1264203aaa4b","ios":"levelo://app?vid=92a5f144-2a3e-4a37-bce9-1264203aaa4b"},"vehicle_type_id":"4","last_reported":1713290960,"current_range_meters":22000,"station_id":"ce4bgh92rcd13ifvqb40","pricing_plan_id":"cebpf4jnsgd1na2vs0mg"},{"bike_id":"1147c358-8963-46c2-897f-ee5aabd044d8","system_id":"levelo_inurba_marseille","lat":43.28727,"lon":5.36078,"is_reserved":false,"is_disabled":false,"rental_uris":{"android":"levelo://app?vid=1147c358-8963-46c2-897f-ee5aabd044d8","ios":"levelo://app?vid=1147c358-8963-46c2-897f-ee5aabd044d8"},"vehicle_type_id":"4","last_reported":1713290960,"current_range_meters":0,"station_id":"cki0cbj6b192h4jlfktg","pricing_plan_id":"cebpf4jnsgd1na2vs0mg"},{"bike_id":"79ea102b-51c4-4ad9-8593-04068fc9f439","system_id":"levelo_inurba_marseille","lat":43.30603,"lon":5.39343,"is_reserved":false,"is_disabled":false,"rental_uris":{"android":"levelo://app?vid=79ea102b-51c4-4ad9-8593-04068fc9f439","ios":"levelo://app?vid=79ea102b-51c4-4ad9-8593-04068fc9f439"},"vehicle_type_id":"4","last_reported":1713290960,"current_range_meters":4000,"station_id":"ce4bh012rcd13ifvqcv0","pricing_plan_id":"cebpf4jnsgd1na2vs0mg"},{"bike_id":"9c4faaf2-321d-43d2-b61d-83effe20e5b0","system_id":"levelo_inurba_marseille","lat":43.293009,"lon":5.374584,"is_reserved":false,"is_disabled":false,"rental_uris":{"android":"levelo://app?vid=9c4faaf2-321d-43d2-b61d-83effe20e5b0","ios":"levelo://app?vid=9c4faaf2-321d-43d2-b61d-83effe20e5b0"},"vehicle_type_id":"4","last_reported":1713290960,"current_range_meters":10800,"station_id":"ce4bgi12rcd13ifvqb70","pricing_plan_id":"cebpf4jnsgd1na2vs0mg"},{"bike_id":"f7ebd147-06a2-4381-a593-4e64dd38f622","system_id":"levelo_inurba_marseille","lat":43.3059,"lon":5.39354,"is_reserved":false,"is_disabled":false,"rental_uris":{"android":"levelo://app?vid=f7ebd147-06a2-4381-a593-4e64dd38f622","ios":"levelo://app?vid=f7ebd147-06a2-4381-a593-4e64dd38f622"},"vehicle_type_id":"4","last_reported":1713290960,"current_range_meters":0,"station_id":"ce4bh0p2rcd13ifvqd80","pricing_plan_id":"cebpf4jnsgd1na2vs0mg"},{"bike_id":"571f5da1-5499-4cf7-8131-2287b301a658","system_id":"levelo_inurba_marseille","lat":43.286591,"lon":5.363346,"is_reserved":false,"is_disabled":false,"rental_uris":{"android":"levelo://app?vid=571f5da1-5499-4cf7-8131-2287b301a658","ios":"levelo://app?vid=571f5da1-5499-4cf7-8131-2287b301a658"},"vehicle_type_id":"4","last_reported":1713290960,"current_range_meters":15600,"station_id":"ce4bhah2rcd13ifvqej0","pricing_plan_id":"cebpf4jnsgd1na2vs0mg"},{"bike_id":"ac6c600d-264c-42e0-9235-c1527cd3c67f","system_id":"levelo_inurba_marseille","lat":43.302992,"lon":5.392136,"is_reserved":false,"is_disabled":false,"rental_uris":{"android":"levelo://app?vid=ac6c600d-264c-42e0-9235-c1527cd3c67f","ios":"levelo://app?vid=ac6c600d-264c-42e0-9235-c1527cd3c67f"},"vehicle_type_id":"4","last_reported":1713290960,"current_range_meters":0,"station_id":"ce4bgkh2rcd13ifvqbk0","pricing_plan_id":"cebpf4jnsgd1na2vs0mg"},{"bike_id":"b9a51437-2ff7-4fd4-a13d-e2fe1ebca1db","system_id":"levelo_inurba_marseille","lat":43.303002,"lon":5.392142,"is_reserved":false,"is_disabled":false,"rental_uris":{"android":"levelo://app?vid=b9a51437-2ff7-4fd4-a13d-e2fe1ebca1db","ios":"levelo://app?vid=b9a51437-2ff7-4fd4-a13d-e2fe1ebca1db"},"vehicle_type_id":"4","last_reported":1713290960,"current_range_meters":2400,"station_id":"ce4bgkh2rcd13ifvqbk0","pricing_plan_id":"cebpf4jnsgd1na2vs0mg"},{"bike_id":"fc6748d3-25a2-4db7-b9a1-4aa2a38255f3","system_id":"levelo_inurba_marseille","lat":43.30299,"lon":5.39216,"is_reserved":false,"is_disabled":false,"rental_uris":{"android":"levelo://app?vid=fc6748d3-25a2-4db7-b9a1-4aa2a38255f3","ios":"levelo://app?vid=fc6748d3-25a2-4db7-b9a1-4aa2a38255f3"},"vehicle_type_id":"4","last_reported":1713290960,"current_range_meters":8000,"station_id":"ce4bgkh2rcd13ifvqbk0","pricing_plan_id":"cebpf4jnsgd1na2vs0mg"},{"bike_id":"dba93480-d7b4-4c7b-9c20-015e5aadd138","system_id":"levelo_inurba_marseille","lat":43.302992,"lon":5.392136,"is_reserved":false,"is_disabled":false,"rental_uris":{"android":"levelo://app?vid=dba93480-d7b4-4c7b-9c20-015e5aadd138","ios":"levelo://app?vid=dba93480-d7b4-4c7b-9c20-015e5aadd138"},"vehicle_type_id":"4","last_reported":1713290960,"current_range_meters":800,"station_id":"ce4bgkh2rcd13ifvqbk0","pricing_plan_id":"cebpf4jnsgd1na2vs0mg"},{"bike_id":"c18b3357-1fc3-4192-ad2a-3b4c8e07d736","system_id":"levelo_inurba_marseille","lat":43.2936,"lon":5.37835,"is_reserved":false,"is_disabled":false,"rental_uris":{"android":"levelo://app?vid=c18b3357-1fc3-4192-ad2a-3b4c8e07d736","ios":"levelo://app?vid=c18b3357-1fc3-4192-ad2a-3b4c8e07d736"},"vehicle_type_id":"4","last_reported":1713290960,"current_range_meters":8000,"station_id":"ce4bgjh2rcd13ifvqbf0","pricing_plan_id":"cebpf4jnsgd1na2vs0mg"},{"bike_id":"34afac5f-ebc3-46ee-b5b5-947cf24a2701","system_id":"levelo_inurba_marseille","lat":43.292311,"lon":5.360731,"is_reserved":false,"is_disabled":false,"rental_uris":{"android":"levelo://app?vid=34afac5f-ebc3-46ee-b5b5-947cf24a2701","ios":"levelo://app?vid=34afac5f-ebc3-46ee-b5b5-947cf24a2701"},"vehicle_type_id":"4","last_reported":1713290960,"current_range_meters":18400,"station_id":"ce4bhbh2rcd13ifvqeqg","pricing_plan_id":"cebpf4jnsgd1na2vs0mg"},{"bike_id":"ba9284bb-226c-41ce-85c3-fa9574e97d41","system_id":"levelo_inurba_marseille","lat":43.300852,"lon":5.390859,"is_reserved":false,"is_disabled":false,"rental_uris":{"android":"levelo://app?vid=ba9284bb-226c-41ce-85c3-fa9574e97d41","ios":"levelo://app?vid=ba9284bb-226c-41ce-85c3-fa9574e97d41"},"vehicle_type_id":"4","last_reported":1713290960,"current_range_meters":27200,"station_id":"ce4bh192rcd13ifvqdb0","pricing_plan_id":"cebpf4jnsgd1na2vs0mg"},{"bike_id":"2d261702-f90d-4bd6-aaa3-2fffa83f371c","system_id":"levelo_inurba_marseille","lat":43.291773,"lon":5.371547,"is_reserved":false,"is_disabled":false,"rental_uris":{"android":"levelo://app?vid=2d261702-f90d-4bd6-aaa3-2fffa83f371c","ios":"levelo://app?vid=2d261702-f90d-4bd6-aaa3-2fffa83f371c"},"vehicle_type_id":"4","last_reported":1713290960,"current_range_meters":400,"station_id":"ce4bha92rcd13ifvqeh0","pricing_plan_id":"cebpf4jnsgd1na2vs0mg"},{"bike_id":"f640aa57-2085-479e-a195-1f42db7df212","system_id":"levelo_inurba_marseille","lat":43.291671,"lon":5.371575,"is_reserved":false,"is_disabled":false,"rental_uris":{"android":"levelo://app?vid=f640aa57-2085-479e-a195-1f42db7df212","ios":"levelo://app?vid=f640aa57-2085-479e-a195-1f42db7df212"},"vehicle_type_id":"4","last_reported":1713290960,"current_range_meters":0,"station_id":"ce4bha92rcd13ifvqeh0","pricing_plan_id":"cebpf4jnsgd1na2vs0mg"},{"bike_id":"8a2cba00-ad24-470a-9104-0d462a71f0e8","system_id":"levelo_inurba_marseille","lat":43.298764,"lon":5.388973,"is_reserved":false,"is_disabled":false,"rental_uris":{"android":"levelo://app?vid=8a2cba00-ad24-470a-9104-0d462a71f0e8","ios":"levelo://app?vid=8a2cba00-ad24-470a-9104-0d462a71f0e8"},"vehicle_type_id":"4","last_reported":1713290960,"current_range_meters":0,"station_id":"ce4bh392rcd13ifvqdl0","pricing_plan_id":"cebpf4jnsgd1na2vs0mg"},{"bike_id":"e6019a79-0549-4b02-a6ba-ded9a26deacd","system_id":"levelo_inurba_marseille","lat":43.291671,"lon":5.371575,"is_reserved":false,"is_disabled":false,"rental_uris":{"android":"levelo://app?vid=e6019a79-0549-4b02-a6ba-ded9a26deacd","ios":"levelo://app?vid=e6019a79-0549-4b02-a6ba-ded9a26deacd"},"vehicle_type_id":"4","last_reported":1713290960,"current_range_meters":7200,"station_id":"ce4bha92rcd13ifvqeh0","pricing_plan_id":"cebpf4jnsgd1na2vs0mg"},{"bike_id":"966e4837-6a0e-4926-beae-f16dbe26d4ba","system_id":"levelo_inurba_marseille","lat":43.29171,"lon":5.37163,"is_reserved":false,"is_disabled":false,"rental_uris":{"android":"levelo://app?vid=966e4837-6a0e-4926-beae-f16dbe26d4ba","ios":"levelo://app?vid=966e4837-6a0e-4926-beae-f16dbe26d4ba"},"vehicle_type_id":"4","last_reported":1713290960,"current_range_meters":7600,"station_id":"ce4bha92rcd13ifvqeh0","pricing_plan_id":"cebpf4jnsgd1na2vs0mg"},{"bike_id":"73b7e57c-4b81-4bb6-aea8-65b01f546dd8","system_id":"levelo_inurba_marseille","lat":43.309589,"lon":5.390258,"is_reserved":false,"is_disabled":false,"rental_uris":{"android":"levelo://app?vid=73b7e57c-4b81-4bb6-aea8-65b01f546dd8","ios":"levelo://app?vid=73b7e57c-4b81-4bb6-aea8-65b01f546dd8"},"vehicle_type_id":"4","last_reported":1713290960,"current_range_meters":8000,"station_id":"ce4bgup2rcd13ifvqco0","pricing_plan_id":"cebpf4jnsgd1na2vs0mg"},{"bike_id":"3512ec6f-7e08-47bc-a3ff-a7045a2924d8","system_id":"levelo_inurba_marseille","lat":43.291684,"lon":5.371641,"is_reserved":false,"is_disabled":false,"rental_uris":{"android":"levelo://app?vid=3512ec6f-7e08-47bc-a3ff-a7045a2924d8","ios":"levelo://app?vid=3512ec6f-7e08-47bc-a3ff-a7045a2924d8"},"vehicle_type_id":"4","last_reported":1713290960,"current_range_meters":0,"station_id":"ce4bha92rcd13ifvqeh0","pricing_plan_id":"cebpf4jnsgd1na2vs0mg"},{"bike_id":"319ccda9-7780-4c9f-9413-5681f00f2a1e","system_id":"levelo_inurba_marseille","lat":43.291671,"lon":5.371575,"is_reserved":false,"is_disabled":false,"rental_uris":{"android":"levelo://app?vid=319ccda9-7780-4c9f-9413-5681f00f2a1e","ios":"levelo://app?vid=319ccda9-7780-4c9f-9413-5681f00f2a1e"},"vehicle_type_id":"4","last_reported":1713290960,"current_range_meters":12800,"station_id":"ce4bha92rcd13ifvqeh0","pricing_plan_id":"cebpf4jnsgd1na2vs0mg"},{"bike_id":"de4022e0-6603-4e6e-8d8e-093cc50b521f","system_id":"levelo_inurba_marseille","lat":43.298764,"lon":5.388973,"is_reserved":false,"is_disabled":false,"rental_uris":{"android":"levelo://app?vid=de4022e0-6603-4e6e-8d8e-093cc50b521f","ios":"levelo://app?vid=de4022e0-6603-4e6e-8d8e-093cc50b521f"},"vehicle_type_id":"4","last_reported":1713290960,"current_range_meters":800,"station_id":"ce4bh392rcd13ifvqdl0","pricing_plan_id":"cebpf4jnsgd1na2vs0mg"},{"bike_id":"568eba65-5d7b-4564-ba53-2ec7a2b473a9","system_id":"levelo_inurba_marseille","lat":43.291671,"lon":5.371575,"is_reserved":false,"is_disabled":false,"rental_uris":{"android":"levelo://app?vid=568eba65-5d7b-4564-ba53-2ec7a2b473a9","ios":"levelo://app?vid=568eba65-5d7b-4564-ba53-2ec7a2b473a9"},"vehicle_type_id":"4","last_reported":1713290960,"current_range_meters":0,"station_id":"ce4bha92rcd13ifvqeh0","pricing_plan_id":"cebpf4jnsgd1na2vs0mg"},{"bike_id":"1c7b0bf3-2cdf-4733-9207-a78a2efc0f3f","system_id":"levelo_inurba_marseille","lat":43.298764,"lon":5.388973,"is_reserved":false,"is_disabled":false,"rental_uris":{"android":"levelo://app?vid=1c7b0bf3-2cdf-4733-9207-a78a2efc0f3f","ios":"levelo://app?vid=1c7b0bf3-2cdf-4733-9207-a78a2efc0f3f"},"vehicle_type_id":"4","last_reported":1713290960,"current_range_meters":24800,"station_id":"ce4bh392rcd13ifvqdl0","pricing_plan_id":"cebpf4jnsgd1na2vs0mg"},{"bike_id":"cbe4f999-fb20-4587-8a6a-be8dde00922a","system_id":"levelo_inurba_marseille","lat":43.291541,"lon":5.371692,"is_reserved":false,"is_disabled":false,"rental_uris":{"android":"levelo://app?vid=cbe4f999-fb20-4587-8a6a-be8dde00922a","ios":"levelo://app?vid=cbe4f999-fb20-4587-8a6a-be8dde00922a"},"vehicle_type_id":"4","last_reported":1713290960,"current_range_meters":0,"station_id":"ce4bha92rcd13ifvqeh0","pricing_plan_id":"cebpf4jnsgd1na2vs0mg"},{"bike_id":"c370d2b4-aa64-4520-b678-477855a47e0e","system_id":"levelo_inurba_marseille","lat":43.292005,"lon":5.357875,"is_reserved":false,"is_disabled":false,"rental_uris":{"android":"levelo://app?vid=c370d2b4-aa64-4520-b678-477855a47e0e","ios":"levelo://app?vid=c370d2b4-aa64-4520-b678-477855a47e0e"},"vehicle_type_id":"4","last_reported":1713290960,"current_range_meters":10800,"station_id":"ce4bhb12rcd13ifvqel0","pricing_plan_id":"cebpf4jnsgd1na2vs0mg"},{"bike_id":"d9b7dd5d-ed29-41db-9e2d-fd47304dc2f1","system_id":"levelo_inurba_marseille","lat":43.292005,"lon":5.357875,"is_reserved":false,"is_disabled":false,"rental_uris":{"android":"levelo://app?vid=d9b7dd5d-ed29-41db-9e2d-fd47304dc2f1","ios":"levelo://app?vid=d9b7dd5d-ed29-41db-9e2d-fd47304dc2f1"},"vehicle_type_id":"4","last_reported":1713290960,"current_range_meters":13200,"station_id":"ce4bhb12rcd13ifvqel0","pricing_plan_id":"cebpf4jnsgd1na2vs0mg"},{"bike_id":"727eeda0-23c2-41be-a7a5-56ed63dd5ea4","system_id":"levelo_inurba_marseille","lat":43.291994,"lon":5.357886,"is_reserved":false,"is_disabled":false,"rental_uris":{"android":"levelo://app?vid=727eeda0-23c2-41be-a7a5-56ed63dd5ea4","ios":"levelo://app?vid=727eeda0-23c2-41be-a7a5-56ed63dd5ea4"},"vehicle_type_id":"4","last_reported":1713290960,"current_range_meters":20000,"station_id":"ce4bhb12rcd13ifvqel0","pricing_plan_id":"cebpf4jnsgd1na2vs0mg"},{"bike_id":"c4508430-e9bc-443d-a1bd-0c5e7276e069","system_id":"levelo_inurba_marseille","lat":43.291994,"lon":5.357886,"is_reserved":false,"is_disabled":false,"rental_uris":{"android":"levelo://app?vid=c4508430-e9bc-443d-a1bd-0c5e7276e069","ios":"levelo://app?vid=c4508430-e9bc-443d-a1bd-0c5e7276e069"},"vehicle_type_id":"4","last_reported":1713290960,"current_range_meters":26800,"station_id":"ce4bhb12rcd13ifvqel0","pricing_plan_id":"cebpf4jnsgd1na2vs0mg"},{"bike_id":"6d540709-d61d-4366-938c-46c3501a5b6e","system_id":"levelo_inurba_marseille","lat":43.313291,"lon":5.396838,"is_reserved":false,"is_disabled":false,"rental_uris":{"android":"levelo://app?vid=6d540709-d61d-4366-938c-46c3501a5b6e","ios":"levelo://app?vid=6d540709-d61d-4366-938c-46c3501a5b6e"},"vehicle_type_id":"4","last_reported":1713290960,"current_range_meters":10400,"station_id":"ce4bgvp2rcd13ifvqcu0","pricing_plan_id":"cebpf4jnsgd1na2vs0mg"},{"bike_id":"4335df12-a355-4cc5-9887-a15e53995467","system_id":"levelo_inurba_marseille","lat":43.31325,"lon":5.39692,"is_reserved":false,"is_disabled":false,"rental_uris":{"android":"levelo://app?vid=4335df12-a355-4cc5-9887-a15e53995467","ios":"levelo://app?vid=4335df12-a355-4cc5-9887-a15e53995467"},"vehicle_type_id":"4","last_reported":1713290960,"current_range_meters":5600,"station_id":"ce4bgvp2rcd13ifvqcu0","pricing_plan_id":"cebpf4jnsgd1na2vs0mg"},{"bike_id":"f03a9a57-6e85-4131-8d64-321137bbaa9b","system_id":"levelo_inurba_marseille","lat":43.31329,"lon":5.39697,"is_reserved":false,"is_disabled":false,"rental_uris":{"android":"levelo://app?vid=f03a9a57-6e85-4131-8d64-321137bbaa9b","ios":"levelo://app?vid=f03a9a57-6e85-4131-8d64-321137bbaa9b"},"vehicle_type_id":"4","last_reported":1713290960,"current_range_meters":0,"station_id":"ce4bgvp2rcd13ifvqcu0","pricing_plan_id":"cebpf4jnsgd1na2vs0mg"},{"bike_id":"643e5e5f-26c4-4486-b970-799ca7150a9a","system_id":"levelo_inurba_marseille","lat":43.29529,"lon":5.385581,"is_reserved":false,"is_disabled":false,"rental_uris":{"android":"levelo://app?vid=643e5e5f-26c4-4486-b970-799ca7150a9a","ios":"levelo://app?vid=643e5e5f-26c4-4486-b970-799ca7150a9a"},"vehicle_type_id":"4","last_reported":1713290960,"current_range_meters":0,"station_id":"ce4bgih2rcd13ifvqba0","pricing_plan_id":"cebpf4jnsgd1na2vs0mg"},{"bike_id":"2e021c31-cee2-442e-bccc-7ca205e87a39","system_id":"levelo_inurba_marseille","lat":43.309038,"lon":5.396546,"is_reserved":false,"is_disabled":false,"rental_uris":{"android":"levelo://app?vid=2e021c31-cee2-442e-bccc-7ca205e87a39","ios":"levelo://app?vid=2e021c31-cee2-442e-bccc-7ca205e87a39"},"vehicle_type_id":"4","last_reported":1713290960,"current_range_meters":19600,"station_id":"ce4bh012rcd13ifvqcv0","pricing_plan_id":"cebpf4jnsgd1na2vs0mg"},{"bike_id":"c491ee7e-8dc0-460b-beba-0594b547e041","system_id":"levelo_inurba_marseille","lat":43.309038,"lon":5.396546,"is_reserved":false,"is_disabled":false,"rental_uris":{"android":"levelo://app?vid=c491ee7e-8dc0-460b-beba-0594b547e041","ios":"levelo://app?vid=c491ee7e-8dc0-460b-beba-0594b547e041"},"vehicle_type_id":"4","last_reported":1713290960,"current_range_meters":8400,"station_id":"ce4bh012rcd13ifvqcv0","pricing_plan_id":"cebpf4jnsgd1na2vs0mg"},{"bike_id":"7a9e99b8-8fbc-486f-9101-bb428699d0c5","system_id":"levelo_inurba_marseille","lat":43.309047,"lon":5.396551,"is_reserved":false,"is_disabled":false,"rental_uris":{"android":"levelo://app?vid=7a9e99b8-8fbc-486f-9101-bb428699d0c5","ios":"levelo://app?vid=7a9e99b8-8fbc-486f-9101-bb428699d0c5"},"vehicle_type_id":"4","last_reported":1713290960,"current_range_meters":0,"station_id":"ce4bh012rcd13ifvqcv0","pricing_plan_id":"cebpf4jnsgd1na2vs0mg"},{"bike_id":"703c458b-7e66-4fa0-a317-e740b77ad2d8","system_id":"levelo_inurba_marseille","lat":43.30891,"lon":5.39662,"is_reserved":false,"is_disabled":false,"rental_uris":{"android":"levelo://app?vid=703c458b-7e66-4fa0-a317-e740b77ad2d8","ios":"levelo://app?vid=703c458b-7e66-4fa0-a317-e740b77ad2d8"},"vehicle_type_id":"4","last_reported":1713290960,"current_range_meters":9600,"station_id":"ce4bh012rcd13ifvqcv0","pricing_plan_id":"cebpf4jnsgd1na2vs0mg"},{"bike_id":"7b51103a-6425-4432-9fb2-7154df589308","system_id":"levelo_inurba_marseille","lat":43.305994,"lon":5.393687,"is_reserved":false,"is_disabled":false,"rental_uris":{"android":"levelo://app?vid=7b51103a-6425-4432-9fb2-7154df589308","ios":"levelo://app?vid=7b51103a-6425-4432-9fb2-7154df589308"},"vehicle_type_id":"4","last_reported":1713290960,"current_range_meters":0,"station_id":"ce4bh0p2rcd13ifvqd80","pricing_plan_id":"cebpf4jnsgd1na2vs0mg"},{"bike_id":"ec40ee37-a0fb-4be8-80a2-d7b0c0201b53","system_id":"levelo_inurba_marseille","lat":43.30891,"lon":5.39665,"is_reserved":false,"is_disabled":false,"rental_uris":{"android":"levelo://app?vid=ec40ee37-a0fb-4be8-80a2-d7b0c0201b53","ios":"levelo://app?vid=ec40ee37-a0fb-4be8-80a2-d7b0c0201b53"},"vehicle_type_id":"4","last_reported":1713290960,"current_range_meters":5200,"station_id":"ce4bh012rcd13ifvqcv0","pricing_plan_id":"cebpf4jnsgd1na2vs0mg"},{"bike_id":"30e6d694-e6fe-4703-b927-5c7a693e2151","system_id":"levelo_inurba_marseille","lat":43.30882,"lon":5.39664,"is_reserved":false,"is_disabled":false,"rental_uris":{"android":"levelo://app?vid=30e6d694-e6fe-4703-b927-5c7a693e2151","ios":"levelo://app?vid=30e6d694-e6fe-4703-b927-5c7a693e2151"},"vehicle_type_id":"4","last_reported":1713290960,"current_range_meters":13200,"station_id":"ce4bh012rcd13ifvqcv0","pricing_plan_id":"cebpf4jnsgd1na2vs0mg"},{"bike_id":"347a0965-af6f-487d-8d8f-3472f35453a2","system_id":"levelo_inurba_marseille","lat":43.29529,"lon":5.385581,"is_reserved":false,"is_disabled":false,"rental_uris":{"android":"levelo://app?vid=347a0965-af6f-487d-8d8f-3472f35453a2","ios":"levelo://app?vid=347a0965-af6f-487d-8d8f-3472f35453a2"},"vehicle_type_id":"4","last_reported":1713290960,"current_range_meters":5600,"station_id":"ce4bgih2rcd13ifvqba0","pricing_plan_id":"cebpf4jnsgd1na2vs0mg"},{"bike_id":"ddd9fe55-b0f0-42f7-8ffd-a1086b8d1bd2","system_id":"levelo_inurba_marseille","lat":43.290779,"lon":5.371482,"is_reserved":false,"is_disabled":false,"rental_uris":{"android":"levelo://app?vid=ddd9fe55-b0f0-42f7-8ffd-a1086b8d1bd2","ios":"levelo://app?vid=ddd9fe55-b0f0-42f7-8ffd-a1086b8d1bd2"},"vehicle_type_id":"4","last_reported":1713290960,"current_range_meters":3600,"station_id":"ce4bh5p2rcd13ifvqe4g","pricing_plan_id":"cebpf4jnsgd1na2vs0mg"},{"bike_id":"22b36975-4b2d-4850-bfaa-500db20d1a74","system_id":"levelo_inurba_marseille","lat":43.290412,"lon":5.399633,"is_reserved":false,"is_disabled":false,"rental_uris":{"android":"levelo://app?vid=22b36975-4b2d-4850-bfaa-500db20d1a74","ios":"levelo://app?vid=22b36975-4b2d-4850-bfaa-500db20d1a74"},"vehicle_type_id":"4","last_reported":1713290960,"current_range_meters":31200,"station_id":"ce4bh392rcd13ifvqdm0","pricing_plan_id":"cebpf4jnsgd1na2vs0mg"},{"bike_id":"405510d1-362f-4bbb-9b64-db66c2d26c9f","system_id":"levelo_inurba_marseille","lat":43.29529,"lon":5.385581,"is_reserved":false,"is_disabled":false,"rental_uris":{"android":"levelo://app?vid=405510d1-362f-4bbb-9b64-db66c2d26c9f","ios":"levelo://app?vid=405510d1-362f-4bbb-9b64-db66c2d26c9f"},"vehicle_type_id":"4","last_reported":1713290960,"current_range_meters":0,"station_id":"ce4bgih2rcd13ifvqba0","pricing_plan_id":"cebpf4jnsgd1na2vs0mg"},{"bike_id":"c9a0f30f-36e4-469a-91ff-cb0f5f85ecb4","system_id":"levelo_inurba_marseille","lat":43.290779,"lon":5.371482,"is_reserved":false,"is_disabled":false,"rental_uris":{"android":"levelo://app?vid=c9a0f30f-36e4-469a-91ff-cb0f5f85ecb4","ios":"levelo://app?vid=c9a0f30f-36e4-469a-91ff-cb0f5f85ecb4"},"vehicle_type_id":"4","last_reported":1713290960,"current_range_meters":22800,"station_id":"ce4bh5p2rcd13ifvqe4g","pricing_plan_id":"cebpf4jnsgd1na2vs0mg"},{"bike_id":"0dac7912-d88a-4481-80f5-39e2dce25868","system_id":"levelo_inurba_marseille","lat":43.290779,"lon":5.371482,"is_reserved":false,"is_disabled":false,"rental_uris":{"android":"levelo://app?vid=0dac7912-d88a-4481-80f5-39e2dce25868","ios":"levelo://app?vid=0dac7912-d88a-4481-80f5-39e2dce25868"},"vehicle_type_id":"4","last_reported":1713290960,"current_range_meters":6000,"station_id":"ce4bh5p2rcd13ifvqe4g","pricing_plan_id":"cebpf4jnsgd1na2vs0mg"},{"bike_id":"570e62bf-5297-42e8-a8be-a9a5e3eb840c","system_id":"levelo_inurba_marseille","lat":43.304274,"lon":5.388873,"is_reserved":false,"is_disabled":false,"rental_uris":{"android":"levelo://app?vid=570e62bf-5297-42e8-a8be-a9a5e3eb840c","ios":"levelo://app?vid=570e62bf-5297-42e8-a8be-a9a5e3eb840c"},"vehicle_type_id":"4","last_reported":1713290960,"current_range_meters":400,"station_id":"ce4bgk12rcd13ifvqbi0","pricing_plan_id":"cebpf4jnsgd1na2vs0mg"},{"bike_id":"791912cc-a277-4590-aa36-3a737d2e5324","system_id":"levelo_inurba_marseille","lat":43.302008,"lon":5.394694,"is_reserved":false,"is_disabled":false,"rental_uris":{"android":"levelo://app?vid=791912cc-a277-4590-aa36-3a737d2e5324","ios":"levelo://app?vid=791912cc-a277-4590-aa36-3a737d2e5324"},"vehicle_type_id":"4","last_reported":1713290960,"current_range_meters":3200,"station_id":"ce4bh0p2rcd13ifvqd70","pricing_plan_id":"cebpf4jnsgd1na2vs0mg"},{"bike_id":"0d314b07-d625-4236-8877-a73ee0b47811","system_id":"levelo_inurba_marseille","lat":43.302008,"lon":5.394694,"is_reserved":false,"is_disabled":false,"rental_uris":{"android":"levelo://app?vid=0d314b07-d625-4236-8877-a73ee0b47811","ios":"levelo://app?vid=0d314b07-d625-4236-8877-a73ee0b47811"},"vehicle_type_id":"4","last_reported":1713290960,"current_range_meters":12000,"station_id":"ce4bh0p2rcd13ifvqd70","pricing_plan_id":"cebpf4jnsgd1na2vs0mg"},{"bike_id":"f3026602-5445-4d79-b647-8f383950eaa4","system_id":"levelo_inurba_marseille","lat":43.2479,"lon":5.374457,"is_reserved":false,"is_disabled":false,"rental_uris":{"android":"levelo://app?vid=f3026602-5445-4d79-b647-8f383950eaa4","ios":"levelo://app?vid=f3026602-5445-4d79-b647-8f383950eaa4"},"vehicle_type_id":"4","last_reported":1713290960,"current_range_meters":8000,"station_id":"ce4bhgh2rcd13ifvqfb0","pricing_plan_id":"cebpf4jnsgd1na2vs0mg"},{"bike_id":"f45403d7-34dd-413b-90f1-03901beb637e","system_id":"levelo_inurba_marseille","lat":43.290631,"lon":5.359244,"is_reserved":false,"is_disabled":false,"rental_uris":{"android":"levelo://app?vid=f45403d7-34dd-413b-90f1-03901beb637e","ios":"levelo://app?vid=f45403d7-34dd-413b-90f1-03901beb637e"},"vehicle_type_id":"4","last_reported":1713290960,"current_range_meters":18800,"station_id":"ce4bha92rcd13ifvqeg0","pricing_plan_id":"cebpf4jnsgd1na2vs0mg"},{"bike_id":"696e4c08-5f7b-450f-87a0-be2bb3098115","system_id":"levelo_inurba_marseille","lat":43.286593,"lon":5.363346,"is_reserved":false,"is_disabled":false,"rental_uris":{"android":"levelo://app?vid=696e4c08-5f7b-450f-87a0-be2bb3098115","ios":"levelo://app?vid=696e4c08-5f7b-450f-87a0-be2bb3098115"},"vehicle_type_id":"4","last_reported":1713290960,"current_range_meters":1600,"station_id":"ce4bhah2rcd13ifvqej0","pricing_plan_id":"cebpf4jnsgd1na2vs0mg"},{"bike_id":"f589858c-16db-4926-bace-3698f36c177b","system_id":"levelo_inurba_marseille","lat":43.290631,"lon":5.359244,"is_reserved":false,"is_disabled":false,"rental_uris":{"android":"levelo://app?vid=f589858c-16db-4926-bace-3698f36c177b","ios":"levelo://app?vid=f589858c-16db-4926-bace-3698f36c177b"},"vehicle_type_id":"4","last_reported":1713290960,"current_range_meters":4000,"station_id":"ce4bha92rcd13ifvqeg0","pricing_plan_id":"cebpf4jnsgd1na2vs0mg"},{"bike_id":"8ae800ec-fa1f-4d29-8467-a5533c2bd05d","system_id":"levelo_inurba_marseille","lat":43.290319,"lon":5.375732,"is_reserved":false,"is_disabled":false,"rental_uris":{"android":"levelo://app?vid=8ae800ec-fa1f-4d29-8467-a5533c2bd05d","ios":"levelo://app?vid=8ae800ec-fa1f-4d29-8467-a5533c2bd05d"},"vehicle_type_id":"4","last_reported":1713290960,"current_range_meters":10400,"station_id":"ce4bh692rcd13ifvqe90","pricing_plan_id":"cebpf4jnsgd1na2vs0mg"},{"bike_id":"7843fb5e-48a6-49bc-aaf8-ae27b89cb731","system_id":"levelo_inurba_marseille","lat":43.290319,"lon":5.375732,"is_reserved":false,"is_disabled":false,"rental_uris":{"android":"levelo://app?vid=7843fb5e-48a6-49bc-aaf8-ae27b89cb731","ios":"levelo://app?vid=7843fb5e-48a6-49bc-aaf8-ae27b89cb731"},"vehicle_type_id":"4","last_reported":1713290960,"current_range_meters":5600,"station_id":"ce4bh692rcd13ifvqe90","pricing_plan_id":"cebpf4jnsgd1na2vs0mg"},{"bike_id":"582f1456-c356-4819-bff1-949461e1f624","system_id":"levelo_inurba_marseille","lat":43.290327,"lon":5.375711,"is_reserved":false,"is_disabled":false,"rental_uris":{"android":"levelo://app?vid=582f1456-c356-4819-bff1-949461e1f624","ios":"levelo://app?vid=582f1456-c356-4819-bff1-949461e1f624"},"vehicle_type_id":"4","last_reported":1713290960,"current_range_meters":21600,"station_id":"ce4bh692rcd13ifvqe90","pricing_plan_id":"cebpf4jnsgd1na2vs0mg"},{"bike_id":"0fbb0d51-85a0-4f4f-8313-92d1ae9903f2","system_id":"levelo_inurba_marseille","lat":43.302008,"lon":5.394694,"is_reserved":false,"is_disabled":false,"rental_uris":{"android":"levelo://app?vid=0fbb0d51-85a0-4f4f-8313-92d1ae9903f2","ios":"levelo://app?vid=0fbb0d51-85a0-4f4f-8313-92d1ae9903f2"},"vehicle_type_id":"4","last_reported":1713290960,"current_range_meters":18800,"station_id":"ce4bh0p2rcd13ifvqd70","pricing_plan_id":"cebpf4jnsgd1na2vs0mg"},{"bike_id":"fed9a23d-2caf-4c11-8e69-b0e4c935c58f","system_id":"levelo_inurba_marseille","lat":43.294153,"lon":5.386305,"is_reserved":false,"is_disabled":false,"rental_uris":{"android":"levelo://app?vid=fed9a23d-2caf-4c11-8e69-b0e4c935c58f","ios":"levelo://app?vid=fed9a23d-2caf-4c11-8e69-b0e4c935c58f"},"vehicle_type_id":"4","last_reported":1713290960,"current_range_meters":30800,"station_id":"ce4bh2h2rcd13ifvqdh0","pricing_plan_id":"cebpf4jnsgd1na2vs0mg"},{"bike_id":"6ca0cad6-1a52-40b8-be71-9596fef00b5c","system_id":"levelo_inurba_marseille","lat":43.290319,"lon":5.375732,"is_reserved":false,"is_disabled":false,"rental_uris":{"android":"levelo://app?vid=6ca0cad6-1a52-40b8-be71-9596fef00b5c","ios":"levelo://app?vid=6ca0cad6-1a52-40b8-be71-9596fef00b5c"},"vehicle_type_id":"4","last_reported":1713290960,"current_range_meters":20000,"station_id":"ce4bh692rcd13ifvqe90","pricing_plan_id":"cebpf4jnsgd1na2vs0mg"},{"bike_id":"7d7b84ef-f613-4dd1-9734-7f91d8a6092a","system_id":"levelo_inurba_marseille","lat":43.294153,"lon":5.386305,"is_reserved":false,"is_disabled":false,"rental_uris":{"android":"levelo://app?vid=7d7b84ef-f613-4dd1-9734-7f91d8a6092a","ios":"levelo://app?vid=7d7b84ef-f613-4dd1-9734-7f91d8a6092a"},"vehicle_type_id":"4","last_reported":1713290960,"current_range_meters":6800,"station_id":"ce4bh2h2rcd13ifvqdh0","pricing_plan_id":"cebpf4jnsgd1na2vs0mg"},{"bike_id":"eccfcd2f-8c69-4086-9230-c39c3320afdf","system_id":"levelo_inurba_marseille","lat":43.294153,"lon":5.386305,"is_reserved":false,"is_disabled":false,"rental_uris":{"android":"levelo://app?vid=eccfcd2f-8c69-4086-9230-c39c3320afdf","ios":"levelo://app?vid=eccfcd2f-8c69-4086-9230-c39c3320afdf"},"vehicle_type_id":"4","last_reported":1713290960,"current_range_meters":4000,"station_id":"ce4bh2h2rcd13ifvqdh0","pricing_plan_id":"cebpf4jnsgd1na2vs0mg"},{"bike_id":"a22e97a3-487f-4c5e-8345-ecb2f9d66f14","system_id":"levelo_inurba_marseille","lat":43.29421,"lon":5.38628,"is_reserved":false,"is_disabled":false,"rental_uris":{"android":"levelo://app?vid=a22e97a3-487f-4c5e-8345-ecb2f9d66f14","ios":"levelo://app?vid=a22e97a3-487f-4c5e-8345-ecb2f9d66f14"},"vehicle_type_id":"4","last_reported":1713290960,"current_range_meters":8800,"station_id":"ce4bh2h2rcd13ifvqdh0","pricing_plan_id":"cebpf4jnsgd1na2vs0mg"},{"bike_id":"96d55070-a2e4-4b4e-badf-21932f17f74c","system_id":"levelo_inurba_marseille","lat":43.29418,"lon":5.38624,"is_reserved":false,"is_disabled":false,"rental_uris":{"android":"levelo://app?vid=96d55070-a2e4-4b4e-badf-21932f17f74c","ios":"levelo://app?vid=96d55070-a2e4-4b4e-badf-21932f17f74c"},"vehicle_type_id":"4","last_reported":1713290960,"current_range_meters":4400,"station_id":"ce4bh2h2rcd13ifvqdh0","pricing_plan_id":"cebpf4jnsgd1na2vs0mg"},{"bike_id":"e4997778-d8d1-4767-af2b-9ee606bb3511","system_id":"levelo_inurba_marseille","lat":43.290327,"lon":5.375711,"is_reserved":false,"is_disabled":false,"rental_uris":{"android":"levelo://app?vid=e4997778-d8d1-4767-af2b-9ee606bb3511","ios":"levelo://app?vid=e4997778-d8d1-4767-af2b-9ee606bb3511"},"vehicle_type_id":"4","last_reported":1713290960,"current_range_meters":24400,"station_id":"ce4bh692rcd13ifvqe90","pricing_plan_id":"cebpf4jnsgd1na2vs0mg"},{"bike_id":"ef18e87b-0a92-4f46-94ce-9c69a80e96b3","system_id":"levelo_inurba_marseille","lat":43.29418,"lon":5.38628,"is_reserved":false,"is_disabled":false,"rental_uris":{"android":"levelo://app?vid=ef18e87b-0a92-4f46-94ce-9c69a80e96b3","ios":"levelo://app?vid=ef18e87b-0a92-4f46-94ce-9c69a80e96b3"},"vehicle_type_id":"4","last_reported":1713290960,"current_range_meters":29600,"station_id":"ce4bh2h2rcd13ifvqdh0","pricing_plan_id":"cebpf4jnsgd1na2vs0mg"},{"bike_id":"7f023395-6ad8-4428-9d3f-14a4c6a7411d","system_id":"levelo_inurba_marseille","lat":43.29419,"lon":5.3863,"is_reserved":false,"is_disabled":false,"rental_uris":{"android":"levelo://app?vid=7f023395-6ad8-4428-9d3f-14a4c6a7411d","ios":"levelo://app?vid=7f023395-6ad8-4428-9d3f-14a4c6a7411d"},"vehicle_type_id":"4","last_reported":1713290960,"current_range_meters":14400,"station_id":"ce4bh2h2rcd13ifvqdh0","pricing_plan_id":"cebpf4jnsgd1na2vs0mg"},{"bike_id":"aed9a534-8708-441f-af6d-4037f284a16e","system_id":"levelo_inurba_marseille","lat":43.294153,"lon":5.386305,"is_reserved":false,"is_disabled":false,"rental_uris":{"android":"levelo://app?vid=aed9a534-8708-441f-af6d-4037f284a16e","ios":"levelo://app?vid=aed9a534-8708-441f-af6d-4037f284a16e"},"vehicle_type_id":"4","last_reported":1713290960,"current_range_meters":16800,"station_id":"ce4bh2h2rcd13ifvqdh0","pricing_plan_id":"cebpf4jnsgd1na2vs0mg"},{"bike_id":"65db47b3-9277-4ea8-9adf-cd181efe9e0d","system_id":"levelo_inurba_marseille","lat":43.29419,"lon":5.38632,"is_reserved":false,"is_disabled":false,"rental_uris":{"android":"levelo://app?vid=65db47b3-9277-4ea8-9adf-cd181efe9e0d","ios":"levelo://app?vid=65db47b3-9277-4ea8-9adf-cd181efe9e0d"},"vehicle_type_id":"4","last_reported":1713290960,"current_range_meters":3200,"station_id":"ce4bh2h2rcd13ifvqdh0","pricing_plan_id":"cebpf4jnsgd1na2vs0mg"},{"bike_id":"bfab5337-c9fa-4e6c-912e-ebc8260d0240","system_id":"levelo_inurba_marseille","lat":43.290327,"lon":5.375711,"is_reserved":false,"is_disabled":false,"rental_uris":{"android":"levelo://app?vid=bfab5337-c9fa-4e6c-912e-ebc8260d0240","ios":"levelo://app?vid=bfab5337-c9fa-4e6c-912e-ebc8260d0240"},"vehicle_type_id":"4","last_reported":1713290960,"current_range_meters":13600,"station_id":"ce4bh692rcd13ifvqe90","pricing_plan_id":"cebpf4jnsgd1na2vs0mg"},{"bike_id":"0b291fab-baac-44e8-9b3c-932e590a0027","system_id":"levelo_inurba_marseille","lat":43.294155,"lon":5.386265,"is_reserved":false,"is_disabled":false,"rental_uris":{"android":"levelo://app?vid=0b291fab-baac-44e8-9b3c-932e590a0027","ios":"levelo://app?vid=0b291fab-baac-44e8-9b3c-932e590a0027"},"vehicle_type_id":"4","last_reported":1713290960,"current_range_meters":31600,"station_id":"ce4bh2h2rcd13ifvqdh0","pricing_plan_id":"cebpf4jnsgd1na2vs0mg"},{"bike_id":"1f9ceb20-ae42-4c29-a362-fb8a15b40302","system_id":"levelo_inurba_marseille","lat":43.290624,"lon":5.359245,"is_reserved":false,"is_disabled":false,"rental_uris":{"android":"levelo://app?vid=1f9ceb20-ae42-4c29-a362-fb8a15b40302","ios":"levelo://app?vid=1f9ceb20-ae42-4c29-a362-fb8a15b40302"},"vehicle_type_id":"4","last_reported":1713290960,"current_range_meters":7200,"station_id":"ce4bha92rcd13ifvqeg0","pricing_plan_id":"cebpf4jnsgd1na2vs0mg"},{"bike_id":"929d4cc3-6479-4300-82f5-b3a57f61dbda","system_id":"levelo_inurba_marseille","lat":43.294153,"lon":5.386305,"is_reserved":false,"is_disabled":false,"rental_uris":{"android":"levelo://app?vid=929d4cc3-6479-4300-82f5-b3a57f61dbda","ios":"levelo://app?vid=929d4cc3-6479-4300-82f5-b3a57f61dbda"},"vehicle_type_id":"4","last_reported":1713290960,"current_range_meters":20400,"station_id":"ce4bh2h2rcd13ifvqdh0","pricing_plan_id":"cebpf4jnsgd1na2vs0mg"},{"bike_id":"fea566dc-a675-4d37-bfc9-07f2ca9cde37","system_id":"levelo_inurba_marseille","lat":43.289184,"lon":5.366408,"is_reserved":false,"is_disabled":false,"rental_uris":{"android":"levelo://app?vid=fea566dc-a675-4d37-bfc9-07f2ca9cde37","ios":"levelo://app?vid=fea566dc-a675-4d37-bfc9-07f2ca9cde37"},"vehicle_type_id":"4","last_reported":1713290960,"current_range_meters":0,"station_id":"ce4bhap2rcd13ifvqek0","pricing_plan_id":"cebpf4jnsgd1na2vs0mg"},{"bike_id":"ea20fd09-2102-45d7-8edd-363a71f5760f","system_id":"levelo_inurba_marseille","lat":43.29415,"lon":5.38632,"is_reserved":false,"is_disabled":false,"rental_uris":{"android":"levelo://app?vid=ea20fd09-2102-45d7-8edd-363a71f5760f","ios":"levelo://app?vid=ea20fd09-2102-45d7-8edd-363a71f5760f"},"vehicle_type_id":"4","last_reported":1713290960,"current_range_meters":24400,"station_id":"ce4bh2h2rcd13ifvqdh0","pricing_plan_id":"cebpf4jnsgd1na2vs0mg"},{"bike_id":"205bd740-651f-4da4-bc66-da58d58d1bca","system_id":"levelo_inurba_marseille","lat":43.29411,"lon":5.38631,"is_reserved":false,"is_disabled":false,"rental_uris":{"android":"levelo://app?vid=205bd740-651f-4da4-bc66-da58d58d1bca","ios":"levelo://app?vid=205bd740-651f-4da4-bc66-da58d58d1bca"},"vehicle_type_id":"4","last_reported":1713290960,"current_range_meters":5200,"station_id":"ce4bh2h2rcd13ifvqdh0","pricing_plan_id":"cebpf4jnsgd1na2vs0mg"},{"bike_id":"0c96c5e3-6011-4fad-bcb4-925485692849","system_id":"levelo_inurba_marseille","lat":43.294153,"lon":5.386305,"is_reserved":false,"is_disabled":false,"rental_uris":{"android":"levelo://app?vid=0c96c5e3-6011-4fad-bcb4-925485692849","ios":"levelo://app?vid=0c96c5e3-6011-4fad-bcb4-925485692849"},"vehicle_type_id":"4","last_reported":1713290960,"current_range_meters":7600,"station_id":"ce4bh2h2rcd13ifvqdh0","pricing_plan_id":"cebpf4jnsgd1na2vs0mg"},{"bike_id":"80013345-b1f0-4dbd-84b6-3411f5b3e8f0","system_id":"levelo_inurba_marseille","lat":43.28934,"lon":5.36633,"is_reserved":false,"is_disabled":false,"rental_uris":{"android":"levelo://app?vid=80013345-b1f0-4dbd-84b6-3411f5b3e8f0","ios":"levelo://app?vid=80013345-b1f0-4dbd-84b6-3411f5b3e8f0"},"vehicle_type_id":"4","last_reported":1713290960,"current_range_meters":0,"station_id":"ce4bhap2rcd13ifvqek0","pricing_plan_id":"cebpf4jnsgd1na2vs0mg"},{"bike_id":"ec54134f-38b7-4ecb-a0fe-c667a4fc6968","system_id":"levelo_inurba_marseille","lat":43.292701,"lon":5.384299,"is_reserved":false,"is_disabled":false,"rental_uris":{"android":"levelo://app?vid=ec54134f-38b7-4ecb-a0fe-c667a4fc6968","ios":"levelo://app?vid=ec54134f-38b7-4ecb-a0fe-c667a4fc6968"},"vehicle_type_id":"4","last_reported":1713290960,"current_range_meters":0,"station_id":"ce4bh692rcd13ifvqea0","pricing_plan_id":"cebpf4jnsgd1na2vs0mg"},{"bike_id":"6f1790dc-a403-4ea7-ad4f-3a2a12dff11f","system_id":"levelo_inurba_marseille","lat":43.293046,"lon":5.385113,"is_reserved":false,"is_disabled":false,"rental_uris":{"android":"levelo://app?vid=6f1790dc-a403-4ea7-ad4f-3a2a12dff11f","ios":"levelo://app?vid=6f1790dc-a403-4ea7-ad4f-3a2a12dff11f"},"vehicle_type_id":"4","last_reported":1713290960,"current_range_meters":8000,"station_id":"","pricing_plan_id":"cebpf4jnsgd1na2vs0mg"},{"bike_id":"d38e094c-a4ac-441a-a224-91f44a862e4e","system_id":"levelo_inurba_marseille","lat":43.292644,"lon":5.384257,"is_reserved":false,"is_disabled":false,"rental_uris":{"android":"levelo://app?vid=d38e094c-a4ac-441a-a224-91f44a862e4e","ios":"levelo://app?vid=d38e094c-a4ac-441a-a224-91f44a862e4e"},"vehicle_type_id":"4","last_reported":1713290960,"current_range_meters":14800,"station_id":"ce4bh692rcd13ifvqea0","pricing_plan_id":"cebpf4jnsgd1na2vs0mg"},{"bike_id":"a5fc0db3-9890-44e9-9530-a82b13ee85f1","system_id":"levelo_inurba_marseille","lat":43.292766,"lon":5.384567,"is_reserved":false,"is_disabled":false,"rental_uris":{"android":"levelo://app?vid=a5fc0db3-9890-44e9-9530-a82b13ee85f1","ios":"levelo://app?vid=a5fc0db3-9890-44e9-9530-a82b13ee85f1"},"vehicle_type_id":"4","last_reported":1713290960,"current_range_meters":0,"station_id":"ce4bh692rcd13ifvqea0","pricing_plan_id":"cebpf4jnsgd1na2vs0mg"},{"bike_id":"1e68ce46-546b-4969-aafe-23e1754b3d6e","system_id":"levelo_inurba_marseille","lat":43.292649,"lon":5.384367,"is_reserved":false,"is_disabled":false,"rental_uris":{"android":"levelo://app?vid=1e68ce46-546b-4969-aafe-23e1754b3d6e","ios":"levelo://app?vid=1e68ce46-546b-4969-aafe-23e1754b3d6e"},"vehicle_type_id":"4","last_reported":1713290960,"current_range_meters":0,"station_id":"ce4bh692rcd13ifvqea0","pricing_plan_id":"cebpf4jnsgd1na2vs0mg"},{"bike_id":"de5c5b95-6ad1-4048-ae39-ea8bccbf693d","system_id":"levelo_inurba_marseille","lat":43.29267,"lon":5.38443,"is_reserved":false,"is_disabled":false,"rental_uris":{"android":"levelo://app?vid=de5c5b95-6ad1-4048-ae39-ea8bccbf693d","ios":"levelo://app?vid=de5c5b95-6ad1-4048-ae39-ea8bccbf693d"},"vehicle_type_id":"4","last_reported":1713290960,"current_range_meters":0,"station_id":"ce4bh692rcd13ifvqea0","pricing_plan_id":"cebpf4jnsgd1na2vs0mg"},{"bike_id":"0d035a40-20f9-41a6-b49e-8a5068b1f19a","system_id":"levelo_inurba_marseille","lat":43.292644,"lon":5.384257,"is_reserved":false,"is_disabled":false,"rental_uris":{"android":"levelo://app?vid=0d035a40-20f9-41a6-b49e-8a5068b1f19a","ios":"levelo://app?vid=0d035a40-20f9-41a6-b49e-8a5068b1f19a"},"vehicle_type_id":"4","last_reported":1713290960,"current_range_meters":11200,"station_id":"ce4bh692rcd13ifvqea0","pricing_plan_id":"cebpf4jnsgd1na2vs0mg"},{"bike_id":"c2080925-ce8b-4386-a481-6cbea4c149eb","system_id":"levelo_inurba_marseille","lat":43.29262,"lon":5.384349,"is_reserved":false,"is_disabled":false,"rental_uris":{"android":"levelo://app?vid=c2080925-ce8b-4386-a481-6cbea4c149eb","ios":"levelo://app?vid=c2080925-ce8b-4386-a481-6cbea4c149eb"},"vehicle_type_id":"4","last_reported":1713290960,"current_range_meters":0,"station_id":"ce4bh692rcd13ifvqea0","pricing_plan_id":"cebpf4jnsgd1na2vs0mg"},{"bike_id":"36e13747-e082-4bc2-b9bb-184ccb9721f8","system_id":"levelo_inurba_marseille","lat":43.292644,"lon":5.384257,"is_reserved":false,"is_disabled":false,"rental_uris":{"android":"levelo://app?vid=36e13747-e082-4bc2-b9bb-184ccb9721f8","ios":"levelo://app?vid=36e13747-e082-4bc2-b9bb-184ccb9721f8"},"vehicle_type_id":"4","last_reported":1713290960,"current_range_meters":31200,"station_id":"ce4bh692rcd13ifvqea0","pricing_plan_id":"cebpf4jnsgd1na2vs0mg"},{"bike_id":"5121bac1-f855-45e5-9f59-29128f75777e","system_id":"levelo_inurba_marseille","lat":43.29264,"lon":5.38444,"is_reserved":false,"is_disabled":false,"rental_uris":{"android":"levelo://app?vid=5121bac1-f855-45e5-9f59-29128f75777e","ios":"levelo://app?vid=5121bac1-f855-45e5-9f59-29128f75777e"},"vehicle_type_id":"4","last_reported":1713290960,"current_range_meters":28400,"station_id":"ce4bh692rcd13ifvqea0","pricing_plan_id":"cebpf4jnsgd1na2vs0mg"},{"bike_id":"501a09ba-c195-494f-9e2e-cc5485b9ac65","system_id":"levelo_inurba_marseille","lat":43.292644,"lon":5.384257,"is_reserved":false,"is_disabled":false,"rental_uris":{"android":"levelo://app?vid=501a09ba-c195-494f-9e2e-cc5485b9ac65","ios":"levelo://app?vid=501a09ba-c195-494f-9e2e-cc5485b9ac65"},"vehicle_type_id":"4","last_reported":1713290960,"current_range_meters":21600,"station_id":"ce4bh692rcd13ifvqea0","pricing_plan_id":"cebpf4jnsgd1na2vs0mg"},{"bike_id":"e14c0a43-87db-4e1f-9931-675bf8d3232a","system_id":"levelo_inurba_marseille","lat":43.286591,"lon":5.363346,"is_reserved":false,"is_disabled":false,"rental_uris":{"android":"levelo://app?vid=e14c0a43-87db-4e1f-9931-675bf8d3232a","ios":"levelo://app?vid=e14c0a43-87db-4e1f-9931-675bf8d3232a"},"vehicle_type_id":"4","last_reported":1713290960,"current_range_meters":17600,"station_id":"ce4bhah2rcd13ifvqej0","pricing_plan_id":"cebpf4jnsgd1na2vs0mg"},{"bike_id":"47906a99-d84b-41f5-adfe-7426a2bff2d1","system_id":"levelo_inurba_marseille","lat":43.29258,"lon":5.38447,"is_reserved":false,"is_disabled":false,"rental_uris":{"android":"levelo://app?vid=47906a99-d84b-41f5-adfe-7426a2bff2d1","ios":"levelo://app?vid=47906a99-d84b-41f5-adfe-7426a2bff2d1"},