{"last_updated":1701260010,"ttl":30,"version":"2.2","data":{"bikes":[{"bike_id":"9da95ed2-ede2-4159-b28b-f075cd64d316","system_id":"levelo_inurba_marseille","lat":43.31341,"lon":5.367098,"is_reserved":false,"is_disabled":false,"rental_uris":{"android":"levelo://app?vid=9da95ed2-ede2-4159-b28b-f075cd64d316","ios":"levelo://app?vid=9da95ed2-ede2-4159-b28b-f075cd64d316"},"vehicle_type_id":"4","last_reported":1701260010,"current_range_meters":22400,"station_id":"ce4bgr92rcd13ifvqc6g","pricing_plan_id":"free"},{"bike_id":"7d332d6f-69cd-4fad-b0af-ea14e99cedcc","system_id":"levelo_inurba_marseille","lat":43.313391,"lon":5.36706,"is_reserved":false,"is_disabled":false,"rental_uris":{"android":"levelo://app?vid=7d332d6f-69cd-4fad-b0af-ea14e99cedcc","ios":"levelo://app?vid=7d332d6f-69cd-4fad-b0af-ea14e99cedcc"},"vehicle_type_id":"4","last_reported":1701260010,"current_range_meters":25200,"station_id":"ce4bgr92rcd13ifvqc6g","pricing_plan_id":"free"},{"bike_id":"53d2f5a1-cbc4-4ae7-bfe1-ed363bc6e9e3","system_id":"levelo_inurba_marseille","lat":43.313391,"lon":5.36706,"is_reserved":false,"is_disabled":false,"rental_uris":{"android":"levelo://app?vid=53d2f5a1-cbc4-4ae7-bfe1-ed363bc6e9e3","ios":"levelo://app?vid=53d2f5a1-cbc4-4ae7-bfe1-ed363bc6e9e3"},"vehicle_type_id":"4","last_reported":1701260010,"current_range_meters":22000,"station_id":"ce4bgr92rcd13ifvqc6g","pricing_plan_id":"free"},{"bike_id":"4ede3be8-ffbb-4fa7-8749-53300a12d77f","system_id":"levelo_inurba_marseille","lat":43.31341,"lon":5.367098,"is_reserved":false,"is_disabled":false,"rental_uris":{"android":"levelo://app?vid=4ede3be8-ffbb-4fa7-8749-53300a12d77f","ios":"levelo://app?vid=4ede3be8-ffbb-4fa7-8749-53300a12d77f"},"vehicle_type_id":"4","last_reported":1701260010,"current_range_meters":19200,"station_id":"ce4bgr92rcd13ifvqc6g","pricing_plan_id":"free"},{"bike_id":"1383a604-48c0-41c2-ba89-66ff47b9aab7","system_id":"levelo_inurba_marseille","lat":43.31341,"lon":5.367098,"is_reserved":false,"is_disabled":false,"rental_uris":{"android":"levelo://app?vid=1383a604-48c0-41c2-ba89-66ff47b9aab7","ios":"levelo://app?vid=1383a604-48c0-41c2-ba89-66ff47b9aab7"},"vehicle_type_id":"4","last_reported":1701260010,"current_range_meters":30400,"station_id":"ce4bgr92rcd13ifvqc6g","pricing_plan_id":"free"},{"bike_id":"2c841c49-17d0-4a7d-9443-e70dfffd7059","system_id":"levelo_inurba_marseille","lat":43.313391,"lon":5.36706,"is_reserved":false,"is_disabled":false,"rental_uris":{"android":"levelo://app?vid=2c841c49-17d0-4a7d-9443-e70dfffd7059","ios":"levelo://app?vid=2c841c49-17d0-4a7d-9443-e70dfffd7059"},"vehicle_type_id":"4","last_reported":1701260010,"current_range_meters":12000,"station_id":"ce4bgr92rcd13ifvqc6g","pricing_plan_id":"free"},{"bike_id":"1d169248-bc59-4c5b-9958-cee9f8b1820d","system_id":"levelo_inurba_marseille","lat":43.312239,"lon":5.368562,"is_reserved":false,"is_disabled":false,"rental_uris":{"android":"levelo://app?vid=1d169248-bc59-4c5b-9958-cee9f8b1820d","ios":"levelo://app?vid=1d169248-bc59-4c5b-9958-cee9f8b1820d"},"vehicle_type_id":"4","last_reported":1701260010,"current_range_meters":22800,"station_id":"ce4bgl92rcd13ifvqbq0","pricing_plan_id":"free"},{"bike_id":"b9fa5d88-c7ed-41a0-abf1-9802788750f8","system_id":"levelo_inurba_marseille","lat":43.312239,"lon":5.368562,"is_reserved":false,"is_disabled":false,"rental_uris":{"android":"levelo://app?vid=b9fa5d88-c7ed-41a0-abf1-9802788750f8","ios":"levelo://app?vid=b9fa5d88-c7ed-41a0-abf1-9802788750f8"},"vehicle_type_id":"4","last_reported":1701260010,"current_range_meters":8800,"station_id":"ce4bgl92rcd13ifvqbq0","pricing_plan_id":"free"},{"bike_id":"d4313171-ddca-492f-bdc7-0057cab65e25","system_id":"levelo_inurba_marseille","lat":43.312239,"lon":5.368562,"is_reserved":false,"is_disabled":false,"rental_uris":{"android":"levelo://app?vid=d4313171-ddca-492f-bdc7-0057cab65e25","ios":"levelo://app?vid=d4313171-ddca-492f-bdc7-0057cab65e25"},"vehicle_type_id":"4","last_reported":1701260010,"current_range_meters":22000,"station_id":"ce4bgl92rcd13ifvqbq0","pricing_plan_id":"free"},{"bike_id":"dc780252-aba2-4b44-a6ef-47e31b08c67a","system_id":"levelo_inurba_marseille","lat":43.312239,"lon":5.368562,"is_reserved":false,"is_disabled":false,"rental_uris":{"android":"levelo://app?vid=dc780252-aba2-4b44-a6ef-47e31b08c67a","ios":"levelo://app?vid=dc780252-aba2-4b44-a6ef-47e31b08c67a"},"vehicle_type_id":"4","last_reported":1701260010,"current_range_meters":26400,"station_id":"ce4bgl92rcd13ifvqbq0","pricing_plan_id":"free"},{"bike_id":"00a6c1b1-e252-421e-9509-b4299287823c","system_id":"levelo_inurba_marseille","lat":43.312239,"lon":5.368562,"is_reserved":false,"is_disabled":false,"rental_uris":{"android":"levelo://app?vid=00a6c1b1-e252-421e-9509-b4299287823c","ios":"levelo://app?vid=00a6c1b1-e252-421e-9509-b4299287823c"},"vehicle_type_id":"4","last_reported":1701260010,"current_range_meters":26400,"station_id":"ce4bgl92rcd13ifvqbq0","pricing_plan_id":"free"},{"bike_id":"eae667f9-30f1-479b-957a-4aec64b0496a","system_id":"levelo_inurba_marseille","lat":43.312239,"lon":5.368562,"is_reserved":false,"is_disabled":false,"rental_uris":{"android":"levelo://app?vid=eae667f9-30f1-479b-957a-4aec64b0496a","ios":"levelo://app?vid=eae667f9-30f1-479b-957a-4aec64b0496a"},"vehicle_type_id":"4","last_reported":1701260010,"current_range_meters":0,"station_id":"ce4bgl92rcd13ifvqbq0","pricing_plan_id":"free"},{"bike_id":"f7dc480e-7fae-4f92-a2dd-78cf505c6e8c","system_id":"levelo_inurba_marseille","lat":43.314811,"lon":5.373103,"is_reserved":false,"is_disabled":false,"rental_uris":{"android":"levelo://app?vid=f7dc480e-7fae-4f92-a2dd-78cf505c6e8c","ios":"levelo://app?vid=f7dc480e-7fae-4f92-a2dd-78cf505c6e8c"},"vehicle_type_id":"4","last_reported":1701260010,"current_range_meters":8800,"station_id":"ce4bgt12rcd13ifvqcd0","pricing_plan_id":"free"},{"bike_id":"514f76f8-840b-4728-a127-abc4eb591ffb","system_id":"levelo_inurba_marseille","lat":43.309039,"lon":5.371797,"is_reserved":false,"is_disabled":false,"rental_uris":{"android":"levelo://app?vid=514f76f8-840b-4728-a127-abc4eb591ffb","ios":"levelo://app?vid=514f76f8-840b-4728-a127-abc4eb591ffb"},"vehicle_type_id":"4","last_reported":1701260010,"current_range_meters":12400,"station_id":"ce4bguh2rcd13ifvqckg","pricing_plan_id":"free"},{"bike_id":"37a70064-fbde-46ff-bcf0-3847a3075d67","system_id":"levelo_inurba_marseille","lat":43.305455,"lon":5.367,"is_reserved":false,"is_disabled":false,"rental_uris":{"android":"levelo://app?vid=37a70064-fbde-46ff-bcf0-3847a3075d67","ios":"levelo://app?vid=37a70064-fbde-46ff-bcf0-3847a3075d67"},"vehicle_type_id":"4","last_reported":1701260010,"current_range_meters":0,"station_id":"ce4bgrp2rcd13ifvqc9g","pricing_plan_id":"free"},{"bike_id":"9851c1aa-491d-4210-99c5-eedd9aa700df","system_id":"levelo_inurba_marseille","lat":43.30544,"lon":5.36736,"is_reserved":false,"is_disabled":false,"rental_uris":{"android":"levelo://app?vid=9851c1aa-491d-4210-99c5-eedd9aa700df","ios":"levelo://app?vid=9851c1aa-491d-4210-99c5-eedd9aa700df"},"vehicle_type_id":"4","last_reported":1701260010,"current_range_meters":8000,"station_id":"ce4bgrp2rcd13ifvqc9g","pricing_plan_id":"free"},{"bike_id":"e7b728d6-0d75-432c-8242-ae792940b4fb","system_id":"levelo_inurba_marseille","lat":43.305714,"lon":5.365633,"is_reserved":false,"is_disabled":false,"rental_uris":{"android":"levelo://app?vid=e7b728d6-0d75-432c-8242-ae792940b4fb","ios":"levelo://app?vid=e7b728d6-0d75-432c-8242-ae792940b4fb"},"vehicle_type_id":"4","last_reported":1701260010,"current_range_meters":0,"station_id":"ce4bgs12rcd13ifvqcag","pricing_plan_id":"free"},{"bike_id":"cf39718d-4919-41f1-b1bd-f9dbbe71e053","system_id":"levelo_inurba_marseille","lat":43.305714,"lon":5.365633,"is_reserved":false,"is_disabled":false,"rental_uris":{"android":"levelo://app?vid=cf39718d-4919-41f1-b1bd-f9dbbe71e053","ios":"levelo://app?vid=cf39718d-4919-41f1-b1bd-f9dbbe71e053"},"vehicle_type_id":"4","last_reported":1701260010,"current_range_meters":31600,"station_id":"ce4bgs12rcd13ifvqcag","pricing_plan_id":"free"},{"bike_id":"544eb8fe-fd49-4146-8fed-9bbbe83ff818","system_id":"levelo_inurba_marseille","lat":43.305714,"lon":5.365633,"is_reserved":false,"is_disabled":false,"rental_uris":{"android":"levelo://app?vid=544eb8fe-fd49-4146-8fed-9bbbe83ff818","ios":"levelo://app?vid=544eb8fe-fd49-4146-8fed-9bbbe83ff818"},"vehicle_type_id":"4","last_reported":1701260010,"current_range_meters":13600,"station_id":"ce4bgs12rcd13ifvqcag","pricing_plan_id":"free"},{"bike_id":"1b7ead25-e91f-44ba-82bb-19125c66c2d9","system_id":"levelo_inurba_marseille","lat":43.305714,"lon":5.365633,"is_reserved":false,"is_disabled":false,"rental_uris":{"android":"levelo://app?vid=1b7ead25-e91f-44ba-82bb-19125c66c2d9","ios":"levelo://app?vid=1b7ead25-e91f-44ba-82bb-19125c66c2d9"},"vehicle_type_id":"4","last_reported":1701260010,"current_range_meters":31600,"station_id":"ce4bgs12rcd13ifvqcag","pricing_plan_id":"free"},{"bike_id":"1f3e708d-da95-48c5-bb66-cf98494fa0c1","system_id":"levelo_inurba_marseille","lat":43.305706,"lon":5.365654,"is_reserved":false,"is_disabled":false,"rental_uris":{"android":"levelo://app?vid=1f3e708d-da95-48c5-bb66-cf98494fa0c1","ios":"levelo://app?vid=1f3e708d-da95-48c5-bb66-cf98494fa0c1"},"vehicle_type_id":"4","last_reported":1701260010,"current_range_meters":19600,"station_id":"ce4bgs12rcd13ifvqcag","pricing_plan_id":"free"},{"bike_id":"72b961a0-66fe-4ba6-88f5-f472e54c072e","system_id":"levelo_inurba_marseille","lat":43.305706,"lon":5.365654,"is_reserved":false,"is_disabled":false,"rental_uris":{"android":"levelo://app?vid=72b961a0-66fe-4ba6-88f5-f472e54c072e","ios":"levelo://app?vid=72b961a0-66fe-4ba6-88f5-f472e54c072e"},"vehicle_type_id":"4","last_reported":1701260010,"current_range_meters":24400,"station_id":"ce4bgs12rcd13ifvqcag","pricing_plan_id":"free"},{"bike_id":"7db1d7a4-fe70-4b26-92c9-6eb8916c704a","system_id":"levelo_inurba_marseille","lat":43.305989,"lon":5.37225,"is_reserved":false,"is_disabled":false,"rental_uris":{"android":"levelo://app?vid=7db1d7a4-fe70-4b26-92c9-6eb8916c704a","ios":"levelo://app?vid=7db1d7a4-fe70-4b26-92c9-6eb8916c704a"},"vehicle_type_id":"4","last_reported":1701260010,"current_range_meters":19600,"station_id":"ce4bgqh2rcd13ifvqc4g","pricing_plan_id":"free"},{"bike_id":"f427a2c3-6e4a-446b-ae2f-9be8aa7f4122","system_id":"levelo_inurba_marseille","lat":43.31719,"lon":5.376813,"is_reserved":false,"is_disabled":false,"rental_uris":{"android":"levelo://app?vid=f427a2c3-6e4a-446b-ae2f-9be8aa7f4122","ios":"levelo://app?vid=f427a2c3-6e4a-446b-ae2f-9be8aa7f4122"},"vehicle_type_id":"4","last_reported":1701260010,"current_range_meters":9600,"station_id":"ce4bgth2rcd13ifvqch0","pricing_plan_id":"free"},{"bike_id":"b5129530-3639-47e5-92b6-d358b01a2cff","system_id":"levelo_inurba_marseille","lat":43.307945,"lon":5.376487,"is_reserved":false,"is_disabled":false,"rental_uris":{"android":"levelo://app?vid=b5129530-3639-47e5-92b6-d358b01a2cff","ios":"levelo://app?vid=b5129530-3639-47e5-92b6-d358b01a2cff"},"vehicle_type_id":"4","last_reported":1701260010,"current_range_meters":25200,"station_id":"ce4bgv92rcd13ifvqcq0","pricing_plan_id":"free"},{"bike_id":"e913f328-1e31-4c22-bd87-f809ea246de4","system_id":"levelo_inurba_marseille","lat":43.317168,"lon":5.376883,"is_reserved":false,"is_disabled":false,"rental_uris":{"android":"levelo://app?vid=e913f328-1e31-4c22-bd87-f809ea246de4","ios":"levelo://app?vid=e913f328-1e31-4c22-bd87-f809ea246de4"},"vehicle_type_id":"4","last_reported":1701260010,"current_range_meters":12000,"station_id":"ce4bgth2rcd13ifvqch0","pricing_plan_id":"free"},{"bike_id":"d09e0d8a-f283-4362-8c98-fdd2c2496245","system_id":"levelo_inurba_marseille","lat":43.307945,"lon":5.376487,"is_reserved":false,"is_disabled":false,"rental_uris":{"android":"levelo://app?vid=d09e0d8a-f283-4362-8c98-fdd2c2496245","ios":"levelo://app?vid=d09e0d8a-f283-4362-8c98-fdd2c2496245"},"vehicle_type_id":"4","last_reported":1701260010,"current_range_meters":7600,"station_id":"ce4bgv92rcd13ifvqcq0","pricing_plan_id":"free"},{"bike_id":"02258de8-485f-4298-9a66-e27a3beaedd7","system_id":"levelo_inurba_marseille","lat":43.317075,"lon":5.377367,"is_reserved":false,"is_disabled":false,"rental_uris":{"android":"levelo://app?vid=02258de8-485f-4298-9a66-e27a3beaedd7","ios":"levelo://app?vid=02258de8-485f-4298-9a66-e27a3beaedd7"},"vehicle_type_id":"4","last_reported":1701260010,"current_range_meters":17200,"station_id":"ce4bgth2rcd13ifvqch0","pricing_plan_id":"free"},{"bike_id":"cb06e98b-f196-43d9-b061-071ae0b9da20","system_id":"levelo_inurba_marseille","lat":43.317075,"lon":5.377367,"is_reserved":false,"is_disabled":false,"rental_uris":{"android":"levelo://app?vid=cb06e98b-f196-43d9-b061-071ae0b9da20","ios":"levelo://app?vid=cb06e98b-f196-43d9-b061-071ae0b9da20"},"vehicle_type_id":"4","last_reported":1701260010,"current_range_meters":7200,"station_id":"ce4bgth2rcd13ifvqch0","pricing_plan_id":"free"},{"bike_id":"77621d6b-8990-4544-be4b-ead551752d29","system_id":"levelo_inurba_marseille","lat":43.31754,"lon":5.37825,"is_reserved":false,"is_disabled":false,"rental_uris":{"android":"levelo://app?vid=77621d6b-8990-4544-be4b-ead551752d29","ios":"levelo://app?vid=77621d6b-8990-4544-be4b-ead551752d29"},"vehicle_type_id":"4","last_reported":1701260010,"current_range_meters":22400,"station_id":"","pricing_plan_id":"free"},{"bike_id":"58b9e72b-071a-4219-b673-ab32e8c01827","system_id":"levelo_inurba_marseille","lat":43.3031,"lon":5.36905,"is_reserved":false,"is_disabled":false,"rental_uris":{"android":"levelo://app?vid=58b9e72b-071a-4219-b673-ab32e8c01827","ios":"levelo://app?vid=58b9e72b-071a-4219-b673-ab32e8c01827"},"vehicle_type_id":"4","last_reported":1701260010,"current_range_meters":20400,"station_id":"ce4bgqh2rcd13ifvqc5g","pricing_plan_id":"free"},{"bike_id":"32bc3327-4c00-4b7a-a2dc-b246a08153b7","system_id":"levelo_inurba_marseille","lat":43.303046,"lon":5.368981,"is_reserved":false,"is_disabled":false,"rental_uris":{"android":"levelo://app?vid=32bc3327-4c00-4b7a-a2dc-b246a08153b7","ios":"levelo://app?vid=32bc3327-4c00-4b7a-a2dc-b246a08153b7"},"vehicle_type_id":"4","last_reported":1701260010,"current_range_meters":20400,"station_id":"ce4bgqh2rcd13ifvqc5g","pricing_plan_id":"free"},{"bike_id":"ce4db1ec-97b3-42c1-8ea6-9f7de746ab27","system_id":"levelo_inurba_marseille","lat":43.30304,"lon":5.368987,"is_reserved":false,"is_disabled":false,"rental_uris":{"android":"levelo://app?vid=ce4db1ec-97b3-42c1-8ea6-9f7de746ab27","ios":"levelo://app?vid=ce4db1ec-97b3-42c1-8ea6-9f7de746ab27"},"vehicle_type_id":"4","last_reported":1701260010,"current_range_meters":8400,"station_id":"ce4bgqh2rcd13ifvqc5g","pricing_plan_id":"free"},{"bike_id":"e2d7a428-42fc-4c44-9bd5-bc86340e3cfd","system_id":"levelo_inurba_marseille","lat":43.30847,"lon":5.37904,"is_reserved":false,"is_disabled":false,"rental_uris":{"android":"levelo://app?vid=e2d7a428-42fc-4c44-9bd5-bc86340e3cfd","ios":"levelo://app?vid=e2d7a428-42fc-4c44-9bd5-bc86340e3cfd"},"vehicle_type_id":"4","last_reported":1701260010,"current_range_meters":16400,"station_id":"","pricing_plan_id":"free"},{"bike_id":"71e61c8c-af6f-4cf4-897f-cc854d259655","system_id":"levelo_inurba_marseille","lat":43.303046,"lon":5.368981,"is_reserved":false,"is_disabled":false,"rental_uris":{"android":"levelo://app?vid=71e61c8c-af6f-4cf4-897f-cc854d259655","ios":"levelo://app?vid=71e61c8c-af6f-4cf4-897f-cc854d259655"},"vehicle_type_id":"4","last_reported":1701260010,"current_range_meters":4000,"station_id":"ce4bgqh2rcd13ifvqc5g","pricing_plan_id":"free"},{"bike_id":"3e09080e-9db5-4c48-951f-c5f672a60264","system_id":"levelo_inurba_marseille","lat":43.321446,"lon":5.374716,"is_reserved":false,"is_disabled":false,"rental_uris":{"android":"levelo://app?vid=3e09080e-9db5-4c48-951f-c5f672a60264","ios":"levelo://app?vid=3e09080e-9db5-4c48-951f-c5f672a60264"},"vehicle_type_id":"4","last_reported":1701260010,"current_range_meters":8400,"station_id":"","pricing_plan_id":"free"},{"bike_id":"813afbcb-7e85-46c3-9262-85a7ed36fc58","system_id":"levelo_inurba_marseille","lat":43.308012,"lon":5.381511,"is_reserved":false,"is_disabled":false,"rental_uris":{"android":"levelo://app?vid=813afbcb-7e85-46c3-9262-85a7ed36fc58","ios":"levelo://app?vid=813afbcb-7e85-46c3-9262-85a7ed36fc58"},"vehicle_type_id":"4","last_reported":1701260010,"current_range_meters":22800,"station_id":"ce4bgt12rcd13ifvqce0","pricing_plan_id":"free"},{"bike_id":"48bc5293-4844-4eef-aa33-da501e881069","system_id":"levelo_inurba_marseille","lat":43.308012,"lon":5.381511,"is_reserved":false,"is_disabled":false,"rental_uris":{"android":"levelo://app?vid=48bc5293-4844-4eef-aa33-da501e881069","ios":"levelo://app?vid=48bc5293-4844-4eef-aa33-da501e881069"},"vehicle_type_id":"4","last_reported":1701260010,"current_range_meters":6000,"station_id":"ce4bgt12rcd13ifvqce0","pricing_plan_id":"free"},{"bike_id":"f08b738d-a38d-4122-8a80-60311e5a9701","system_id":"levelo_inurba_marseille","lat":43.308012,"lon":5.381511,"is_reserved":false,"is_disabled":false,"rental_uris":{"android":"levelo://app?vid=f08b738d-a38d-4122-8a80-60311e5a9701","ios":"levelo://app?vid=f08b738d-a38d-4122-8a80-60311e5a9701"},"vehicle_type_id":"4","last_reported":1701260010,"current_range_meters":4000,"station_id":"ce4bgt12rcd13ifvqce0","pricing_plan_id":"free"},{"bike_id":"c65f8e68-277a-4b1a-9b0e-47d5386ccc0d","system_id":"levelo_inurba_marseille","lat":43.308012,"lon":5.381511,"is_reserved":false,"is_disabled":false,"rental_uris":{"android":"levelo://app?vid=c65f8e68-277a-4b1a-9b0e-47d5386ccc0d","ios":"levelo://app?vid=c65f8e68-277a-4b1a-9b0e-47d5386ccc0d"},"vehicle_type_id":"4","last_reported":1701260010,"current_range_meters":29600,"station_id":"ce4bgt12rcd13ifvqce0","pricing_plan_id":"free"},{"bike_id":"57e951f0-e0aa-4fc8-807b-77adac028039","system_id":"levelo_inurba_marseille","lat":43.302784,"lon":5.377158,"is_reserved":false,"is_disabled":false,"rental_uris":{"android":"levelo://app?vid=57e951f0-e0aa-4fc8-807b-77adac028039","ios":"levelo://app?vid=57e951f0-e0aa-4fc8-807b-77adac028039"},"vehicle_type_id":"4","last_reported":1701260010,"current_range_meters":6400,"station_id":"ce4bguh2rcd13ifvqcj0","pricing_plan_id":"free"},{"bike_id":"ee90d519-3756-4991-8156-282f8a18ae7d","system_id":"levelo_inurba_marseille","lat":43.302784,"lon":5.377158,"is_reserved":false,"is_disabled":false,"rental_uris":{"android":"levelo://app?vid=ee90d519-3756-4991-8156-282f8a18ae7d","ios":"levelo://app?vid=ee90d519-3756-4991-8156-282f8a18ae7d"},"vehicle_type_id":"4","last_reported":1701260010,"current_range_meters":19600,"station_id":"ce4bguh2rcd13ifvqcj0","pricing_plan_id":"free"},{"bike_id":"2b2863d0-ac19-46cf-8ec8-acd5644cfb7f","system_id":"levelo_inurba_marseille","lat":43.30143,"lon":5.37411,"is_reserved":false,"is_disabled":false,"rental_uris":{"android":"levelo://app?vid=2b2863d0-ac19-46cf-8ec8-acd5644cfb7f","ios":"levelo://app?vid=2b2863d0-ac19-46cf-8ec8-acd5644cfb7f"},"vehicle_type_id":"4","last_reported":1701260010,"current_range_meters":20800,"station_id":"ce4bgs92rcd13ifvqcc0","pricing_plan_id":"free"},{"bike_id":"a2b6c035-3b74-48fd-bef4-e38c4d248cf9","system_id":"levelo_inurba_marseille","lat":43.301429,"lon":5.37413,"is_reserved":false,"is_disabled":false,"rental_uris":{"android":"levelo://app?vid=a2b6c035-3b74-48fd-bef4-e38c4d248cf9","ios":"levelo://app?vid=a2b6c035-3b74-48fd-bef4-e38c4d248cf9"},"vehicle_type_id":"4","last_reported":1701260010,"current_range_meters":1200,"station_id":"ce4bgs92rcd13ifvqcc0","pricing_plan_id":"free"},{"bike_id":"2275aca5-3158-4c2c-8022-ca5d2714bc86","system_id":"levelo_inurba_marseille","lat":43.319997,"lon":5.381594,"is_reserved":false,"is_disabled":false,"rental_uris":{"android":"levelo://app?vid=2275aca5-3158-4c2c-8022-ca5d2714bc86","ios":"levelo://app?vid=2275aca5-3158-4c2c-8022-ca5d2714bc86"},"vehicle_type_id":"4","last_reported":1701260010,"current_range_meters":26800,"station_id":"ce4bhr12rcd13ifvqhpg","pricing_plan_id":"free"},{"bike_id":"54b03c9f-24f9-4991-baca-c017477604a8","system_id":"levelo_inurba_marseille","lat":43.313571,"lon":5.384829,"is_reserved":false,"is_disabled":false,"rental_uris":{"android":"levelo://app?vid=54b03c9f-24f9-4991-baca-c017477604a8","ios":"levelo://app?vid=54b03c9f-24f9-4991-baca-c017477604a8"},"vehicle_type_id":"4","last_reported":1701260010,"current_range_meters":29600,"station_id":"ce4bgt92rcd13ifvqcf0","pricing_plan_id":"free"},{"bike_id":"e73b6155-449b-4157-a608-223f8b0180de","system_id":"levelo_inurba_marseille","lat":43.313571,"lon":5.384829,"is_reserved":false,"is_disabled":false,"rental_uris":{"android":"levelo://app?vid=e73b6155-449b-4157-a608-223f8b0180de","ios":"levelo://app?vid=e73b6155-449b-4157-a608-223f8b0180de"},"vehicle_type_id":"4","last_reported":1701260010,"current_range_meters":25200,"station_id":"ce4bgt92rcd13ifvqcf0","pricing_plan_id":"free"},{"bike_id":"c88ede2b-ee77-46df-879d-1bd6a32a70a8","system_id":"levelo_inurba_marseille","lat":43.313571,"lon":5.384829,"is_reserved":false,"is_disabled":false,"rental_uris":{"android":"levelo://app?vid=c88ede2b-ee77-46df-879d-1bd6a32a70a8","ios":"levelo://app?vid=c88ede2b-ee77-46df-879d-1bd6a32a70a8"},"vehicle_type_id":"4","last_reported":1701260010,"current_range_meters":13200,"station_id":"ce4bgt92rcd13ifvqcf0","pricing_plan_id":"free"},{"bike_id":"f53a294f-ab6a-40ed-beb2-a2632b2002b0","system_id":"levelo_inurba_marseille","lat":43.299724,"lon":5.371829,"is_reserved":false,"is_disabled":false,"rental_uris":{"android":"levelo://app?vid=f53a294f-ab6a-40ed-beb2-a2632b2002b0","ios":"levelo://app?vid=f53a294f-ab6a-40ed-beb2-a2632b2002b0"},"vehicle_type_id":"4","last_reported":1701260010,"current_range_meters":14400,"station_id":"ce4bgr92rcd13ifvqc7g","pricing_plan_id":"free"},{"bike_id":"ea4f268b-ca44-4789-aad0-f117cd057330","system_id":"levelo_inurba_marseille","lat":43.299724,"lon":5.371829,"is_reserved":false,"is_disabled":false,"rental_uris":{"android":"levelo://app?vid=ea4f268b-ca44-4789-aad0-f117cd057330","ios":"levelo://app?vid=ea4f268b-ca44-4789-aad0-f117cd057330"},"vehicle_type_id":"4","last_reported":1701260010,"current_range_meters":28800,"station_id":"ce4bgr92rcd13ifvqc7g","pricing_plan_id":"free"},{"bike_id":"aebb5f1f-3a1e-4323-a4f0-ae83e0b78d14","system_id":"levelo_inurba_marseille","lat":43.298433,"lon":5.362774,"is_reserved":false,"is_disabled":false,"rental_uris":{"android":"levelo://app?vid=aebb5f1f-3a1e-4323-a4f0-ae83e0b78d14","ios":"levelo://app?vid=aebb5f1f-3a1e-4323-a4f0-ae83e0b78d14"},"vehicle_type_id":"4","last_reported":1701260010,"current_range_meters":30000,"station_id":"ce4bgpp2rcd13ifvqc3g","pricing_plan_id":"free"},{"bike_id":"261f5cab-340d-42b6-96fb-38b883086dff","system_id":"levelo_inurba_marseille","lat":43.298433,"lon":5.362774,"is_reserved":false,"is_disabled":false,"rental_uris":{"android":"levelo://app?vid=261f5cab-340d-42b6-96fb-38b883086dff","ios":"levelo://app?vid=261f5cab-340d-42b6-96fb-38b883086dff"},"vehicle_type_id":"4","last_reported":1701260010,"current_range_meters":20400,"station_id":"ce4bgpp2rcd13ifvqc3g","pricing_plan_id":"free"},{"bike_id":"fd2873fe-10fc-4293-b78f-812c31c67087","system_id":"levelo_inurba_marseille","lat":43.298433,"lon":5.362774,"is_reserved":false,"is_disabled":false,"rental_uris":{"android":"levelo://app?vid=fd2873fe-10fc-4293-b78f-812c31c67087","ios":"levelo://app?vid=fd2873fe-10fc-4293-b78f-812c31c67087"},"vehicle_type_id":"4","last_reported":1701260010,"current_range_meters":22400,"station_id":"ce4bgpp2rcd13ifvqc3g","pricing_plan_id":"free"},{"bike_id":"358558d7-7d60-44b1-858c-03d7c2203b4b","system_id":"levelo_inurba_marseille","lat":43.298433,"lon":5.362774,"is_reserved":false,"is_disabled":false,"rental_uris":{"android":"levelo://app?vid=358558d7-7d60-44b1-858c-03d7c2203b4b","ios":"levelo://app?vid=358558d7-7d60-44b1-858c-03d7c2203b4b"},"vehicle_type_id":"4","last_reported":1701260010,"current_range_meters":30000,"station_id":"ce4bgpp2rcd13ifvqc3g","pricing_plan_id":"free"},{"bike_id":"23509bd6-5224-4f08-99a9-4e53510eec07","system_id":"levelo_inurba_marseille","lat":43.29843,"lon":5.36267,"is_reserved":false,"is_disabled":false,"rental_uris":{"android":"levelo://app?vid=23509bd6-5224-4f08-99a9-4e53510eec07","ios":"levelo://app?vid=23509bd6-5224-4f08-99a9-4e53510eec07"},"vehicle_type_id":"4","last_reported":1701260010,"current_range_meters":16400,"station_id":"ce4bgpp2rcd13ifvqc3g","pricing_plan_id":"free"},{"bike_id":"93e52f8c-a383-414c-af26-754d760153d9","system_id":"levelo_inurba_marseille","lat":43.31211,"lon":5.387083,"is_reserved":false,"is_disabled":false,"rental_uris":{"android":"levelo://app?vid=93e52f8c-a383-414c-af26-754d760153d9","ios":"levelo://app?vid=93e52f8c-a383-414c-af26-754d760153d9"},"vehicle_type_id":"4","last_reported":1701260010,"current_range_meters":0,"station_id":"ce4bgv12rcd13ifvqcp0","pricing_plan_id":"free"},{"bike_id":"480023d4-9507-486f-8194-007e74651911","system_id":"levelo_inurba_marseille","lat":43.297163,"lon":5.365866,"is_reserved":false,"is_disabled":false,"rental_uris":{"android":"levelo://app?vid=480023d4-9507-486f-8194-007e74651911","ios":"levelo://app?vid=480023d4-9507-486f-8194-007e74651911"},"vehicle_type_id":"4","last_reported":1701260010,"current_range_meters":23200,"station_id":"ce4bgn12rcd13ifvqbt0","pricing_plan_id":"free"},{"bike_id":"ca64b48c-4f0b-4f9a-9859-dcbbf56ad86c","system_id":"levelo_inurba_marseille","lat":43.2968,"lon":5.37291,"is_reserved":false,"is_disabled":false,"rental_uris":{"android":"levelo://app?vid=ca64b48c-4f0b-4f9a-9859-dcbbf56ad86c","ios":"levelo://app?vid=ca64b48c-4f0b-4f9a-9859-dcbbf56ad86c"},"vehicle_type_id":"4","last_reported":1701260010,"current_range_meters":20000,"station_id":"ce4bgk12rcd13ifvqbj0","pricing_plan_id":"free"},{"bike_id":"554c9365-5e77-41bd-a9e2-8c9bf1badc7e","system_id":"levelo_inurba_marseille","lat":43.296131,"lon":5.370791,"is_reserved":false,"is_disabled":false,"rental_uris":{"android":"levelo://app?vid=554c9365-5e77-41bd-a9e2-8c9bf1badc7e","ios":"levelo://app?vid=554c9365-5e77-41bd-a9e2-8c9bf1badc7e"},"vehicle_type_id":"4","last_reported":1701260010,"current_range_meters":17600,"station_id":"ce4bgnh2rcd13ifvqc0g","pricing_plan_id":"free"},{"bike_id":"b46a7824-3f2f-455a-ba33-803bc434f69d","system_id":"levelo_inurba_marseille","lat":43.296131,"lon":5.370791,"is_reserved":false,"is_disabled":false,"rental_uris":{"android":"levelo://app?vid=b46a7824-3f2f-455a-ba33-803bc434f69d","ios":"levelo://app?vid=b46a7824-3f2f-455a-ba33-803bc434f69d"},"vehicle_type_id":"4","last_reported":1701260010,"current_range_meters":27200,"station_id":"ce4bgnh2rcd13ifvqc0g","pricing_plan_id":"free"},{"bike_id":"66f49135-df8a-4320-8242-73c42cb5196e","system_id":"levelo_inurba_marseille","lat":43.296129,"lon":5.370777,"is_reserved":false,"is_disabled":false,"rental_uris":{"android":"levelo://app?vid=66f49135-df8a-4320-8242-73c42cb5196e","ios":"levelo://app?vid=66f49135-df8a-4320-8242-73c42cb5196e"},"vehicle_type_id":"4","last_reported":1701260010,"current_range_meters":26000,"station_id":"ce4bgnh2rcd13ifvqc0g","pricing_plan_id":"free"},{"bike_id":"31b67432-db9c-4555-92a0-002895bbda52","system_id":"levelo_inurba_marseille","lat":43.29573,"lon":5.367355,"is_reserved":false,"is_disabled":false,"rental_uris":{"android":"levelo://app?vid=31b67432-db9c-4555-92a0-002895bbda52","ios":"levelo://app?vid=31b67432-db9c-4555-92a0-002895bbda52"},"vehicle_type_id":"4","last_reported":1701260010,"current_range_meters":30400,"station_id":"ce4bgph2rcd13ifvqc2g","pricing_plan_id":"free"},{"bike_id":"de02ba53-b4d0-420a-8b10-671b91c642d5","system_id":"levelo_inurba_marseille","lat":43.29573,"lon":5.367355,"is_reserved":false,"is_disabled":false,"rental_uris":{"android":"levelo://app?vid=de02ba53-b4d0-420a-8b10-671b91c642d5","ios":"levelo://app?vid=de02ba53-b4d0-420a-8b10-671b91c642d5"},"vehicle_type_id":"4","last_reported":1701260010,"current_range_meters":31200,"station_id":"ce4bgph2rcd13ifvqc2g","pricing_plan_id":"free"},{"bike_id":"b6826001-a239-47f9-a2fa-23dbcaf02547","system_id":"levelo_inurba_marseille","lat":43.29573,"lon":5.367355,"is_reserved":false,"is_disabled":false,"rental_uris":{"android":"levelo://app?vid=b6826001-a239-47f9-a2fa-23dbcaf02547","ios":"levelo://app?vid=b6826001-a239-47f9-a2fa-23dbcaf02547"},"vehicle_type_id":"4","last_reported":1701260010,"current_range_meters":13200,"station_id":"ce4bgph2rcd13ifvqc2g","pricing_plan_id":"free"},{"bike_id":"b6560c25-b017-4c02-ba61-d4a5db8a7750","system_id":"levelo_inurba_marseille","lat":43.296935,"lon":5.376544,"is_reserved":false,"is_disabled":false,"rental_uris":{"android":"levelo://app?vid=b6560c25-b017-4c02-ba61-d4a5db8a7750","ios":"levelo://app?vid=b6560c25-b017-4c02-ba61-d4a5db8a7750"},"vehicle_type_id":"4","last_reported":1701260010,"current_range_meters":15600,"station_id":"ce4bgkh2rcd13ifvqbl0","pricing_plan_id":"free"},{"bike_id":"5621521c-bebd-477f-a39f-858c233c6c9e","system_id":"levelo_inurba_marseille","lat":43.295279,"lon":5.375048,"is_reserved":false,"is_disabled":false,"rental_uris":{"android":"levelo://app?vid=5621521c-bebd-477f-a39f-858c233c6c9e","ios":"levelo://app?vid=5621521c-bebd-477f-a39f-858c233c6c9e"},"vehicle_type_id":"4","last_reported":1701260010,"current_range_meters":5200,"station_id":"ce4bgkp2rcd13ifvqbmg","pricing_plan_id":"free"},{"bike_id":"4d1d2724-1d04-4894-857b-408f7ace729b","system_id":"levelo_inurba_marseille","lat":43.29975,"lon":5.38491,"is_reserved":false,"is_disabled":false,"rental_uris":{"android":"levelo://app?vid=4d1d2724-1d04-4894-857b-408f7ace729b","ios":"levelo://app?vid=4d1d2724-1d04-4894-857b-408f7ace729b"},"vehicle_type_id":"4","last_reported":1701260010,"current_range_meters":0,"station_id":"ce4bgj92rcd13ifvqbd0","pricing_plan_id":"free"},{"bike_id":"d4ee3f00-104d-4193-8f21-dbfa7edb8f8b","system_id":"levelo_inurba_marseille","lat":43.29602,"lon":5.381084,"is_reserved":false,"is_disabled":false,"rental_uris":{"android":"levelo://app?vid=d4ee3f00-104d-4193-8f21-dbfa7edb8f8b","ios":"levelo://app?vid=d4ee3f00-104d-4193-8f21-dbfa7edb8f8b"},"vehicle_type_id":"4","last_reported":1701260010,"current_range_meters":19200,"station_id":"ce4bgl12rcd13ifvqbo0","pricing_plan_id":"free"},{"bike_id":"64be8945-c5e7-4109-b16b-e13a4ad98bab","system_id":"levelo_inurba_marseille","lat":43.292749,"lon":5.368402,"is_reserved":false,"is_disabled":false,"rental_uris":{"android":"levelo://app?vid=64be8945-c5e7-4109-b16b-e13a4ad98bab","ios":"levelo://app?vid=64be8945-c5e7-4109-b16b-e13a4ad98bab"},"vehicle_type_id":"4","last_reported":1701260010,"current_range_meters":3200,"station_id":"ce4bhbp2rcd13ifvqesg","pricing_plan_id":"free"},{"bike_id":"a9cc6f12-90f9-4803-a73f-677a7e6ff2d7","system_id":"levelo_inurba_marseille","lat":43.305994,"lon":5.393687,"is_reserved":false,"is_disabled":false,"rental_uris":{"android":"levelo://app?vid=a9cc6f12-90f9-4803-a73f-677a7e6ff2d7","ios":"levelo://app?vid=a9cc6f12-90f9-4803-a73f-677a7e6ff2d7"},"vehicle_type_id":"4","last_reported":1701260010,"current_range_meters":16800,"station_id":"ce4bh0p2rcd13ifvqd80","pricing_plan_id":"free"},{"bike_id":"7d2c058f-dfeb-4769-b328-f8586256f456","system_id":"levelo_inurba_marseille","lat":43.305994,"lon":5.393687,"is_reserved":false,"is_disabled":false,"rental_uris":{"android":"levelo://app?vid=7d2c058f-dfeb-4769-b328-f8586256f456","ios":"levelo://app?vid=7d2c058f-dfeb-4769-b328-f8586256f456"},"vehicle_type_id":"4","last_reported":1701260010,"current_range_meters":12000,"station_id":"ce4bh0p2rcd13ifvqd80","pricing_plan_id":"free"},{"bike_id":"bd458e7d-847f-4c63-9b54-e1234157a4c6","system_id":"levelo_inurba_marseille","lat":43.300852,"lon":5.390859,"is_reserved":false,"is_disabled":false,"rental_uris":{"android":"levelo://app?vid=bd458e7d-847f-4c63-9b54-e1234157a4c6","ios":"levelo://app?vid=bd458e7d-847f-4c63-9b54-e1234157a4c6"},"vehicle_type_id":"4","last_reported":1701260010,"current_range_meters":14800,"station_id":"ce4bh192rcd13ifvqdb0","pricing_plan_id":"free"},{"bike_id":"008e84e5-b20f-4fac-ad25-7d3ed72557ed","system_id":"levelo_inurba_marseille","lat":43.292663,"lon":5.376394,"is_reserved":false,"is_disabled":false,"rental_uris":{"android":"levelo://app?vid=008e84e5-b20f-4fac-ad25-7d3ed72557ed","ios":"levelo://app?vid=008e84e5-b20f-4fac-ad25-7d3ed72557ed"},"vehicle_type_id":"4","last_reported":1701260010,"current_range_meters":12800,"station_id":"ce4bgi12rcd13ifvqb80","pricing_plan_id":"free"},{"bike_id":"079aa6b5-c251-412c-bd25-86ad5f14f3f3","system_id":"levelo_inurba_marseille","lat":43.291675,"lon":5.371583,"is_reserved":false,"is_disabled":false,"rental_uris":{"android":"levelo://app?vid=079aa6b5-c251-412c-bd25-86ad5f14f3f3","ios":"levelo://app?vid=079aa6b5-c251-412c-bd25-86ad5f14f3f3"},"vehicle_type_id":"4","last_reported":1701260010,"current_range_meters":9600,"station_id":"ce4bha92rcd13ifvqeh0","pricing_plan_id":"free"},{"bike_id":"1aa0e20d-044f-408f-a333-d70f8238941a","system_id":"levelo_inurba_marseille","lat":43.29529,"lon":5.385581,"is_reserved":false,"is_disabled":false,"rental_uris":{"android":"levelo://app?vid=1aa0e20d-044f-408f-a333-d70f8238941a","ios":"levelo://app?vid=1aa0e20d-044f-408f-a333-d70f8238941a"},"vehicle_type_id":"4","last_reported":1701260010,"current_range_meters":21200,"station_id":"ce4bgih2rcd13ifvqba0","pricing_plan_id":"free"},{"bike_id":"4571c043-4e06-489b-9960-184b226852f0","system_id":"levelo_inurba_marseille","lat":43.29529,"lon":5.385581,"is_reserved":false,"is_disabled":false,"rental_uris":{"android":"levelo://app?vid=4571c043-4e06-489b-9960-184b226852f0","ios":"levelo://app?vid=4571c043-4e06-489b-9960-184b226852f0"},"vehicle_type_id":"4","last_reported":1701260010,"current_range_meters":24800,"station_id":"ce4bgih2rcd13ifvqba0","pricing_plan_id":"free"},{"bike_id":"393e447f-e5b7-48a4-9097-4c6cb9af4d55","system_id":"levelo_inurba_marseille","lat":43.295404,"lon":5.385516,"is_reserved":false,"is_disabled":false,"rental_uris":{"android":"levelo://app?vid=393e447f-e5b7-48a4-9097-4c6cb9af4d55","ios":"levelo://app?vid=393e447f-e5b7-48a4-9097-4c6cb9af4d55"},"vehicle_type_id":"4","last_reported":1701260010,"current_range_meters":0,"station_id":"ce4bgih2rcd13ifvqba0","pricing_plan_id":"free"},{"bike_id":"3bd5a704-457c-405e-b3ac-81fdb458f13a","system_id":"levelo_inurba_marseille","lat":43.2953,"lon":5.38535,"is_reserved":false,"is_disabled":false,"rental_uris":{"android":"levelo://app?vid=3bd5a704-457c-405e-b3ac-81fdb458f13a","ios":"levelo://app?vid=3bd5a704-457c-405e-b3ac-81fdb458f13a"},"vehicle_type_id":"4","last_reported":1701260010,"current_range_meters":10000,"station_id":"ce4bgih2rcd13ifvqba0","pricing_plan_id":"free"},{"bike_id":"91db5cd0-860d-4731-bba1-49922032398d","system_id":"levelo_inurba_marseille","lat":43.29529,"lon":5.385581,"is_reserved":false,"is_disabled":false,"rental_uris":{"android":"levelo://app?vid=91db5cd0-860d-4731-bba1-49922032398d","ios":"levelo://app?vid=91db5cd0-860d-4731-bba1-49922032398d"},"vehicle_type_id":"4","last_reported":1701260010,"current_range_meters":14400,"station_id":"ce4bgih2rcd13ifvqba0","pricing_plan_id":"free"},{"bike_id":"84bb4948-3360-49c4-b0a4-188db580fcf5","system_id":"levelo_inurba_marseille","lat":43.29529,"lon":5.385581,"is_reserved":false,"is_disabled":false,"rental_uris":{"android":"levelo://app?vid=84bb4948-3360-49c4-b0a4-188db580fcf5","ios":"levelo://app?vid=84bb4948-3360-49c4-b0a4-188db580fcf5"},"vehicle_type_id":"4","last_reported":1701260010,"current_range_meters":23600,"station_id":"ce4bgih2rcd13ifvqba0","pricing_plan_id":"free"},{"bike_id":"fcac5b1f-b5ec-4134-b221-fec11e5200a9","system_id":"levelo_inurba_marseille","lat":43.290779,"lon":5.371482,"is_reserved":false,"is_disabled":false,"rental_uris":{"android":"levelo://app?vid=fcac5b1f-b5ec-4134-b221-fec11e5200a9","ios":"levelo://app?vid=fcac5b1f-b5ec-4134-b221-fec11e5200a9"},"vehicle_type_id":"4","last_reported":1701260010,"current_range_meters":24000,"station_id":"ce4bh5p2rcd13ifvqe4g","pricing_plan_id":"free"},{"bike_id":"9495a94a-b274-4081-bb97-cc8314008695","system_id":"levelo_inurba_marseille","lat":43.290327,"lon":5.375711,"is_reserved":false,"is_disabled":false,"rental_uris":{"android":"levelo://app?vid=9495a94a-b274-4081-bb97-cc8314008695","ios":"levelo://app?vid=9495a94a-b274-4081-bb97-cc8314008695"},"vehicle_type_id":"4","last_reported":1701260010,"current_range_meters":0,"station_id":"ce4bh692rcd13ifvqe90","pricing_plan_id":"free"},{"bike_id":"ac415973-f9c5-42cf-bce5-e041151509e2","system_id":"levelo_inurba_marseille","lat":43.294153,"lon":5.386305,"is_reserved":false,"is_disabled":false,"rental_uris":{"android":"levelo://app?vid=ac415973-f9c5-42cf-bce5-e041151509e2","ios":"levelo://app?vid=ac415973-f9c5-42cf-bce5-e041151509e2"},"vehicle_type_id":"4","last_reported":1701260010,"current_range_meters":22400,"station_id":"ce4bh2h2rcd13ifvqdh0","pricing_plan_id":"free"},{"bike_id":"7f051ba4-26fb-47b8-a30e-7818119eaa64","system_id":"levelo_inurba_marseille","lat":43.289184,"lon":5.366408,"is_reserved":false,"is_disabled":false,"rental_uris":{"android":"levelo://app?vid=7f051ba4-26fb-47b8-a30e-7818119eaa64","ios":"levelo://app?vid=7f051ba4-26fb-47b8-a30e-7818119eaa64"},"vehicle_type_id":"4","last_reported":1701260010,"current_range_meters":23200,"station_id":"ce4bhap2rcd13ifvqek0","pricing_plan_id":"free"},{"bike_id":"752eedf6-72c6-42b3-a237-cf64f791f6b7","system_id":"levelo_inurba_marseille","lat":43.28936,"lon":5.36387,"is_reserved":false,"is_disabled":false,"rental_uris":{"android":"levelo://app?vid=752eedf6-72c6-42b3-a237-cf64f791f6b7","ios":"levelo://app?vid=752eedf6-72c6-42b3-a237-cf64f791f6b7"},"vehicle_type_id":"4","last_reported":1701260010,"current_range_meters":16800,"station_id":"ce4bhc92rcd13ifvqetg","pricing_plan_id":"free"},{"bike_id":"cf9199d8-82b5-4a9a-806b-47da851c6efb","system_id":"levelo_inurba_marseille","lat":43.290995,"lon":5.381361,"is_reserved":false,"is_disabled":false,"rental_uris":{"android":"levelo://app?vid=cf9199d8-82b5-4a9a-806b-47da851c6efb","ios":"levelo://app?vid=cf9199d8-82b5-4a9a-806b-47da851c6efb"},"vehicle_type_id":"4","last_reported":1701260010,"current_range_meters":8000,"station_id":"ce4bh512rcd13ifvqe2g","pricing_plan_id":"free"},{"bike_id":"fdd93d6d-d578-46a7-89a9-e2ce397f8653","system_id":"levelo_inurba_marseille","lat":43.295169,"lon":5.390426,"is_reserved":false,"is_disabled":false,"rental_uris":{"android":"levelo://app?vid=fdd93d6d-d578-46a7-89a9-e2ce397f8653","ios":"levelo://app?vid=fdd93d6d-d578-46a7-89a9-e2ce397f8653"},"vehicle_type_id":"4","last_reported":1701260010,"current_range_meters":21600,"station_id":"ce4bh3p2rcd13ifvqdp0","pricing_plan_id":"free"},{"bike_id":"367e2ec8-8fe8-42bb-b97b-f54d2f53f9a9","system_id":"levelo_inurba_marseille","lat":43.2901,"lon":5.381269,"is_reserved":false,"is_disabled":false,"rental_uris":{"android":"levelo://app?vid=367e2ec8-8fe8-42bb-b97b-f54d2f53f9a9","ios":"levelo://app?vid=367e2ec8-8fe8-42bb-b97b-f54d2f53f9a9"},"vehicle_type_id":"4","last_reported":1701260010,"current_range_meters":1600,"station_id":"ce4bh4p2rcd13ifvqe1g","pricing_plan_id":"free"},{"bike_id":"c5e592bb-b8fe-4fa2-b660-250d7de9f345","system_id":"levelo_inurba_marseille","lat":43.28856,"lon":5.358371,"is_reserved":false,"is_disabled":false,"rental_uris":{"android":"levelo://app?vid=c5e592bb-b8fe-4fa2-b660-250d7de9f345","ios":"levelo://app?vid=c5e592bb-b8fe-4fa2-b660-250d7de9f345"},"vehicle_type_id":"4","last_reported":1701260010,"current_range_meters":14800,"station_id":"ce4bhb12rcd13ifvqem0","pricing_plan_id":"free"},{"bike_id":"a671a7d1-5c73-4d70-9b5f-db4d2f755b4b","system_id":"levelo_inurba_marseille","lat":43.28856,"lon":5.358371,"is_reserved":false,"is_disabled":false,"rental_uris":{"android":"levelo://app?vid=a671a7d1-5c73-4d70-9b5f-db4d2f755b4b","ios":"levelo://app?vid=a671a7d1-5c73-4d70-9b5f-db4d2f755b4b"},"vehicle_type_id":"4","last_reported":1701260010,"current_range_meters":29200,"station_id":"ce4bhb12rcd13ifvqem0","pricing_plan_id":"free"},{"bike_id":"d6c5983d-76cf-4812-803d-524ca4010151","system_id":"levelo_inurba_marseille","lat":43.28856,"lon":5.358371,"is_reserved":false,"is_disabled":false,"rental_uris":{"android":"levelo://app?vid=d6c5983d-76cf-4812-803d-524ca4010151","ios":"levelo://app?vid=d6c5983d-76cf-4812-803d-524ca4010151"},"vehicle_type_id":"4","last_reported":1701260010,"current_range_meters":12400,"station_id":"ce4bhb12rcd13ifvqem0","pricing_plan_id":"free"},{"bike_id":"d087f4ee-b40a-40d8-b363-ae6eb8494187","system_id":"levelo_inurba_marseille","lat":43.30927,"lon":5.40139,"is_reserved":false,"is_disabled":false,"rental_uris":{"android":"levelo://app?vid=d087f4ee-b40a-40d8-b363-ae6eb8494187","ios":"levelo://app?vid=d087f4ee-b40a-40d8-b363-ae6eb8494187"},"vehicle_type_id":"4","last_reported":1701260010,"current_range_meters":13200,"station_id":"ce4bgvp2rcd13ifvqct0","pricing_plan_id":"free"},{"bike_id":"79652c7c-1092-4471-b7ca-1af27e066618","system_id":"levelo_inurba_marseille","lat":43.306412,"lon":5.401035,"is_reserved":false,"is_disabled":false,"rental_uris":{"android":"levelo://app?vid=79652c7c-1092-4471-b7ca-1af27e066618","ios":"levelo://app?vid=79652c7c-1092-4471-b7ca-1af27e066618"},"vehicle_type_id":"4","last_reported":1701260010,"current_range_meters":31200,"station_id":"ce4bh112rcd13ifvqda0","pricing_plan_id":"free"},{"bike_id":"46a0e7e4-75c2-4900-99ca-04287ccfc4ba","system_id":"levelo_inurba_marseille","lat":43.337765,"lon":5.374382,"is_reserved":false,"is_disabled":false,"rental_uris":{"android":"levelo://app?vid=46a0e7e4-75c2-4900-99ca-04287ccfc4ba","ios":"levelo://app?vid=46a0e7e4-75c2-4900-99ca-04287ccfc4ba"},"vehicle_type_id":"4","last_reported":1701260010,"current_range_meters":29200,"station_id":"","pricing_plan_id":"free"},{"bike_id":"e4c4edbe-8cde-45e8-8d81-8afa76f4fe49","system_id":"levelo_inurba_marseille","lat":43.28727,"lon":5.36078,"is_reserved":false,"is_disabled":false,"rental_uris":{"android":"levelo://app?vid=e4c4edbe-8cde-45e8-8d81-8afa76f4fe49","ios":"levelo://app?vid=e4c4edbe-8cde-45e8-8d81-8afa76f4fe49"},"vehicle_type_id":"4","last_reported":1701260010,"current_range_meters":28800,"station_id":"cki0cbj6b192h4jlfktg","pricing_plan_id":"free"},{"bike_id":"d15d19ca-2c7b-4405-8e09-9d7b37dfdcaf","system_id":"levelo_inurba_marseille","lat":43.28727,"lon":5.36078,"is_reserved":false,"is_disabled":false,"rental_uris":{"android":"levelo://app?vid=d15d19ca-2c7b-4405-8e09-9d7b37dfdcaf","ios":"levelo://app?vid=d15d19ca-2c7b-4405-8e09-9d7b37dfdcaf"},"vehicle_type_id":"4","last_reported":1701260010,"current_range_meters":11200,"station_id":"cki0cbj6b192h4jlfktg","pricing_plan_id":"free"},{"bike_id":"f265f57f-bc92-4dfc-8e4b-3949fdd9e8aa","system_id":"levelo_inurba_marseille","lat":43.286961,"lon":5.373785,"is_reserved":false,"is_disabled":false,"rental_uris":{"android":"levelo://app?vid=f265f57f-bc92-4dfc-8e4b-3949fdd9e8aa","ios":"levelo://app?vid=f265f57f-bc92-4dfc-8e4b-3949fdd9e8aa"},"vehicle_type_id":"4","last_reported":1701260010,"current_range_meters":5200,"station_id":"ce4bh3p2rcd13ifvqdq0","pricing_plan_id":"free"},{"bike_id":"f1344bfb-25f3-4c28-a7d7-fd7096973e4d","system_id":"levelo_inurba_marseille","lat":43.286591,"lon":5.363346,"is_reserved":false,"is_disabled":false,"rental_uris":{"android":"levelo://app?vid=f1344bfb-25f3-4c28-a7d7-fd7096973e4d","ios":"levelo://app?vid=f1344bfb-25f3-4c28-a7d7-fd7096973e4d"},"vehicle_type_id":"4","last_reported":1701260010,"current_range_meters":19600,"station_id":"ce4bhah2rcd13ifvqej0","pricing_plan_id":"free"},{"bike_id":"b61b699b-ee0e-44a0-b504-0c8dd98bc42d","system_id":"levelo_inurba_marseille","lat":43.286593,"lon":5.363346,"is_reserved":false,"is_disabled":false,"rental_uris":{"android":"levelo://app?vid=b61b699b-ee0e-44a0-b504-0c8dd98bc42d","ios":"levelo://app?vid=b61b699b-ee0e-44a0-b504-0c8dd98bc42d"},"vehicle_type_id":"4","last_reported":1701260010,"current_range_meters":28000,"station_id":"ce4bhah2rcd13ifvqej0","pricing_plan_id":"free"},{"bike_id":"30e71d76-10f8-40bf-853d-ba5c323034b1","system_id":"levelo_inurba_marseille","lat":43.286593,"lon":5.363346,"is_reserved":false,"is_disabled":false,"rental_uris":{"android":"levelo://app?vid=30e71d76-10f8-40bf-853d-ba5c323034b1","ios":"levelo://app?vid=30e71d76-10f8-40bf-853d-ba5c323034b1"},"vehicle_type_id":"4","last_reported":1701260010,"current_range_meters":21600,"station_id":"ce4bhah2rcd13ifvqej0","pricing_plan_id":"free"},{"bike_id":"df081536-75d3-4605-b138-fc66a8e5ce11","system_id":"levelo_inurba_marseille","lat":43.286039,"lon":5.370679,"is_reserved":false,"is_disabled":false,"rental_uris":{"android":"levelo://app?vid=df081536-75d3-4605-b138-fc66a8e5ce11","ios":"levelo://app?vid=df081536-75d3-4605-b138-fc66a8e5ce11"},"vehicle_type_id":"4","last_reported":1701260010,"current_range_meters":7600,"station_id":"ce4bht12rcd13ifvqi60","pricing_plan_id":"free"},{"bike_id":"bcc8a70d-4da2-4a6b-be4a-ca6147a3b0f1","system_id":"levelo_inurba_marseille","lat":43.286039,"lon":5.370681,"is_reserved":false,"is_disabled":false,"rental_uris":{"android":"levelo://app?vid=bcc8a70d-4da2-4a6b-be4a-ca6147a3b0f1","ios":"levelo://app?vid=bcc8a70d-4da2-4a6b-be4a-ca6147a3b0f1"},"vehicle_type_id":"4","last_reported":1701260010,"current_range_meters":11200,"station_id":"ce4bht12rcd13ifvqi60","pricing_plan_id":"free"},{"bike_id":"ef931019-4c2d-4108-b7f6-e4a8b6a57ef3","system_id":"levelo_inurba_marseille","lat":43.286039,"lon":5.370681,"is_reserved":false,"is_disabled":false,"rental_uris":{"android":"levelo://app?vid=ef931019-4c2d-4108-b7f6-e4a8b6a57ef3","ios":"levelo://app?vid=ef931019-4c2d-4108-b7f6-e4a8b6a57ef3"},"vehicle_type_id":"4","last_reported":1701260010,"current_range_meters":22000,"station_id":"ce4bht12rcd13ifvqi60","pricing_plan_id":"free"},{"bike_id":"d8777e73-65aa-4fb1-9956-c27abd4b1f54","system_id":"levelo_inurba_marseille","lat":43.291994,"lon":5.392907,"is_reserved":false,"is_disabled":false,"rental_uris":{"android":"levelo://app?vid=d8777e73-65aa-4fb1-9956-c27abd4b1f54","ios":"levelo://app?vid=d8777e73-65aa-4fb1-9956-c27abd4b1f54"},"vehicle_type_id":"4","last_reported":1701260010,"current_range_meters":21200,"station_id":"ce4bh192rcd13ifvqdd0","pricing_plan_id":"free"},{"bike_id":"265bbecf-0eeb-4d34-b57a-963df4be7a4c","system_id":"levelo_inurba_marseille","lat":43.284538,"lon":5.358657,"is_reserved":false,"is_disabled":false,"rental_uris":{"android":"levelo://app?vid=265bbecf-0eeb-4d34-b57a-963df4be7a4c","ios":"levelo://app?vid=265bbecf-0eeb-4d34-b57a-963df4be7a4c"},"vehicle_type_id":"4","last_reported":1701260010,"current_range_meters":24400,"station_id":"ce4bhah2rcd13ifvqei0","pricing_plan_id":"free"},{"bike_id":"1f77ff41-0e29-45bc-816c-2ca8a34c337b","system_id":"levelo_inurba_marseille","lat":43.284538,"lon":5.358657,"is_reserved":false,"is_disabled":false,"rental_uris":{"android":"levelo://app?vid=1f77ff41-0e29-45bc-816c-2ca8a34c337b","ios":"levelo://app?vid=1f77ff41-0e29-45bc-816c-2ca8a34c337b"},"vehicle_type_id":"4","last_reported":1701260010,"current_range_meters":28400,"station_id":"ce4bhah2rcd13ifvqei0","pricing_plan_id":"free"},{"bike_id":"d59a326a-91e6-4857-8a18-f6aa9253f80a","system_id":"levelo_inurba_marseille","lat":43.284534,"lon":5.358662,"is_reserved":false,"is_disabled":false,"rental_uris":{"android":"levelo://app?vid=d59a326a-91e6-4857-8a18-f6aa9253f80a","ios":"levelo://app?vid=d59a326a-91e6-4857-8a18-f6aa9253f80a"},"vehicle_type_id":"4","last_reported":1701260010,"current_range_meters":20800,"station_id":"ce4bhah2rcd13ifvqei0","pricing_plan_id":"free"},{"bike_id":"b9248349-d85e-46c5-9b9f-3d47ec3646fd","system_id":"levelo_inurba_marseille","lat":43.28452,"lon":5.3589,"is_reserved":false,"is_disabled":false,"rental_uris":{"android":"levelo://app?vid=b9248349-d85e-46c5-9b9f-3d47ec3646fd","ios":"levelo://app?vid=b9248349-d85e-46c5-9b9f-3d47ec3646fd"},"vehicle_type_id":"4","last_reported":1701260010,"current_range_meters":20000,"station_id":"ce4bhah2rcd13ifvqei0","pricing_plan_id":"free"},{"bike_id":"c605ce04-14e6-46f7-a73c-391c3d9bc90e","system_id":"levelo_inurba_marseille","lat":43.28614,"lon":5.35099,"is_reserved":false,"is_disabled":false,"rental_uris":{"android":"levelo://app?vid=c605ce04-14e6-46f7-a73c-391c3d9bc90e","ios":"levelo://app?vid=c605ce04-14e6-46f7-a73c-391c3d9bc90e"},"vehicle_type_id":"4","last_reported":1701260010,"current_range_meters":23200,"station_id":"ce4bhch2rcd13ifvqeug","pricing_plan_id":"free"},{"bike_id":"1fb7dad1-01ba-4bcb-8f45-425959b0d500","system_id":"levelo_inurba_marseille","lat":43.285856,"lon":5.350771,"is_reserved":false,"is_disabled":false,"rental_uris":{"android":"levelo://app?vid=1fb7dad1-01ba-4bcb-8f45-425959b0d500","ios":"levelo://app?vid=1fb7dad1-01ba-4bcb-8f45-425959b0d500"},"vehicle_type_id":"4","last_reported":1701260010,"current_range_meters":23600,"station_id":"ce4bhch2rcd13ifvqeug","pricing_plan_id":"free"},{"bike_id":"8811b33b-22a7-46e5-9595-43615566074f","system_id":"levelo_inurba_marseille","lat":43.283998,"lon":5.375062,"is_reserved":false,"is_disabled":false,"rental_uris":{"android":"levelo://app?vid=8811b33b-22a7-46e5-9595-43615566074f","ios":"levelo://app?vid=8811b33b-22a7-46e5-9595-43615566074f"},"vehicle_type_id":"4","last_reported":1701260010,"current_range_meters":25200,"station_id":"ce4bh412rcd13ifvqds0","pricing_plan_id":"free"},{"bike_id":"797cba6d-74ec-4f6d-a0fa-34aed9d09b5a","system_id":"levelo_inurba_marseille","lat":43.283998,"lon":5.375062,"is_reserved":false,"is_disabled":false,"rental_uris":{"android":"levelo://app?vid=797cba6d-74ec-4f6d-a0fa-34aed9d09b5a","ios":"levelo://app?vid=797cba6d-74ec-4f6d-a0fa-34aed9d09b5a"},"vehicle_type_id":"4","last_reported":1701260010,"current_range_meters":1600,"station_id":"ce4bh412rcd13ifvqds0","pricing_plan_id":"free"},{"bike_id":"14018b86-61a4-4379-a7b3-5087079e5e80","system_id":"levelo_inurba_marseille","lat":43.283998,"lon":5.375062,"is_reserved":false,"is_disabled":false,"rental_uris":{"android":"levelo://app?vid=14018b86-61a4-4379-a7b3-5087079e5e80","ios":"levelo://app?vid=14018b86-61a4-4379-a7b3-5087079e5e80"},"vehicle_type_id":"4","last_reported":1701260010,"current_range_meters":20800,"station_id":"ce4bh412rcd13ifvqds0","pricing_plan_id":"free"},{"bike_id":"633faaf4-102c-4a7d-8bac-b7e23d192217","system_id":"levelo_inurba_marseille","lat":43.283998,"lon":5.375062,"is_reserved":false,"is_disabled":false,"rental_uris":{"android":"levelo://app?vid=633faaf4-102c-4a7d-8bac-b7e23d192217","ios":"levelo://app?vid=633faaf4-102c-4a7d-8bac-b7e23d192217"},"vehicle_type_id":"4","last_reported":1701260010,"current_range_meters":20800,"station_id":"ce4bh412rcd13ifvqds0","pricing_plan_id":"free"},{"bike_id":"b5a1a30c-c315-43ae-a934-0b75ab713e0e","system_id":"levelo_inurba_marseille","lat":43.286595,"lon":5.386795,"is_reserved":false,"is_disabled":false,"rental_uris":{"android":"levelo://app?vid=b5a1a30c-c315-43ae-a934-0b75ab713e0e","ios":"levelo://app?vid=b5a1a30c-c315-43ae-a934-0b75ab713e0e"},"vehicle_type_id":"4","last_reported":1701260010,"current_range_meters":21200,"station_id":"ce4bh492rcd13ifvqdug","pricing_plan_id":"free"},{"bike_id":"2ada5f55-c1e2-4b20-b21b-9511fde4eb01","system_id":"levelo_inurba_marseille","lat":43.323464,"lon":5.406297,"is_reserved":false,"is_disabled":false,"rental_uris":{"android":"levelo://app?vid=2ada5f55-c1e2-4b20-b21b-9511fde4eb01","ios":"levelo://app?vid=2ada5f55-c1e2-4b20-b21b-9511fde4eb01"},"vehicle_type_id":"4","last_reported":1701260010,"current_range_meters":26400,"station_id":"ce4bhq92rcd13ifvqhjg","pricing_plan_id":"free"},{"bike_id":"52716aeb-0543-40e5-a916-e6e8c5b705d2","system_id":"levelo_inurba_marseille","lat":43.28471,"lon":5.38404,"is_reserved":false,"is_disabled":false,"rental_uris":{"android":"levelo://app?vid=52716aeb-0543-40e5-a916-e6e8c5b705d2","ios":"levelo://app?vid=52716aeb-0543-40e5-a916-e6e8c5b705d2"},"vehicle_type_id":"4","last_reported":1701260010,"current_range_meters":0,"station_id":"ce4bh512rcd13ifvqe3g","pricing_plan_id":"free"},{"bike_id":"ca379dc9-3eeb-424f-ab78-aaec1541768c","system_id":"levelo_inurba_marseille","lat":43.28474,"lon":5.38416,"is_reserved":false,"is_disabled":false,"rental_uris":{"android":"levelo://app?vid=ca379dc9-3eeb-424f-ab78-aaec1541768c","ios":"levelo://app?vid=ca379dc9-3eeb-424f-ab78-aaec1541768c"},"vehicle_type_id":"4","last_reported":1701260010,"current_range_meters":17600,"station_id":"ce4bh512rcd13ifvqe3g","pricing_plan_id":"free"},{"bike_id":"5acffc10-85d1-4a86-9963-4dd6fc0af3b1","system_id":"levelo_inurba_marseille","lat":43.28471,"lon":5.38415,"is_reserved":false,"is_disabled":false,"rental_uris":{"android":"levelo://app?vid=5acffc10-85d1-4a86-9963-4dd6fc0af3b1","ios":"levelo://app?vid=5acffc10-85d1-4a86-9963-4dd6fc0af3b1"},"vehicle_type_id":"4","last_reported":1701260010,"current_range_meters":20400,"station_id":"ce4bh512rcd13ifvqe3g","pricing_plan_id":"free"},{"bike_id":"4dfacebc-1b39-4a11-9197-89f3ed086ac4","system_id":"levelo_inurba_marseille","lat":43.288501,"lon":5.393087,"is_reserved":false,"is_disabled":false,"rental_uris":{"android":"levelo://app?vid=4dfacebc-1b39-4a11-9197-89f3ed086ac4","ios":"levelo://app?vid=4dfacebc-1b39-4a11-9197-89f3ed086ac4"},"vehicle_type_id":"4","last_reported":1701260010,"current_range_meters":16800,"station_id":"ce4bh2p2rcd13ifvqdi0","pricing_plan_id":"free"},{"bike_id":"7ff6c979-17e0-4412-bd2e-5e0228e35a64","system_id":"levelo_inurba_marseille","lat":43.283498,"lon":5.380948,"is_reserved":false,"is_disabled":false,"rental_uris":{"android":"levelo://app?vid=7ff6c979-17e0-4412-bd2e-5e0228e35a64","ios":"levelo://app?vid=7ff6c979-17e0-4412-bd2e-5e0228e35a64"},"vehicle_type_id":"4","last_reported":1701260010,"current_range_meters":10400,"station_id":"ce4bh412rcd13ifvqdr0","pricing_plan_id":"free"},{"bike_id":"427166b2-1091-4381-b98a-e20103d1d8d5","system_id":"levelo_inurba_marseille","lat":43.288501,"lon":5.393087,"is_reserved":false,"is_disabled":false,"rental_uris":{"android":"levelo://app?vid=427166b2-1091-4381-b98a-e20103d1d8d5","ios":"levelo://app?vid=427166b2-1091-4381-b98a-e20103d1d8d5"},"vehicle_type_id":"4","last_reported":1701260010,"current_range_meters":19200,"station_id":"ce4bh2p2rcd13ifvqdi0","pricing_plan_id":"free"},{"bike_id":"4941e297-f002-4e7c-9d9a-04ab0f67f58d","system_id":"levelo_inurba_marseille","lat":43.289363,"lon":5.396322,"is_reserved":false,"is_disabled":false,"rental_uris":{"android":"levelo://app?vid=4941e297-f002-4e7c-9d9a-04ab0f67f58d","ios":"levelo://app?vid=4941e297-f002-4e7c-9d9a-04ab0f67f58d"},"vehicle_type_id":"4","last_reported":1701260010,"current_range_meters":0,"station_id":"ce4bh3h2rcd13ifvqdn0","pricing_plan_id":"free"},{"bike_id":"9f50cb2f-33a2-48be-859c-8b817d4e527d","system_id":"levelo_inurba_marseille","lat":43.292724,"lon":5.401131,"is_reserved":false,"is_disabled":false,"rental_uris":{"android":"levelo://app?vid=9f50cb2f-33a2-48be-859c-8b817d4e527d","ios":"levelo://app?vid=9f50cb2f-33a2-48be-859c-8b817d4e527d"},"vehicle_type_id":"4","last_reported":1701260010,"current_range_meters":3200,"station_id":"ce4bh312rcd13ifvqdk0","pricing_plan_id":"free"},{"bike_id":"29fbd076-0e70-4a27-97fc-7d11869649f4","system_id":"levelo_inurba_marseille","lat":43.281044,"lon":5.378308,"is_reserved":false,"is_disabled":false,"rental_uris":{"android":"levelo://app?vid=29fbd076-0e70-4a27-97fc-7d11869649f4","ios":"levelo://app?vid=29fbd076-0e70-4a27-97fc-7d11869649f4"},"vehicle_type_id":"4","last_reported":1701260010,"current_range_meters":18800,"station_id":"ce4bha12rcd13ifvqee0","pricing_plan_id":"free"},{"bike_id":"cedad0e1-b4a3-4f0c-a399-a395926433cd","system_id":"levelo_inurba_marseille","lat":43.282744,"lon":5.350533,"is_reserved":false,"is_disabled":false,"rental_uris":{"android":"levelo://app?vid=cedad0e1-b4a3-4f0c-a399-a395926433cd","ios":"levelo://app?vid=cedad0e1-b4a3-4f0c-a399-a395926433cd"},"vehicle_type_id":"4","last_reported":1701260010,"current_range_meters":22400,"station_id":"ce4bhbp2rcd13ifvqerg","pricing_plan_id":"free"},{"bike_id":"a99bda33-ee96-4188-87bd-62aa61355435","system_id":"levelo_inurba_marseille","lat":43.283502,"lon":5.386471,"is_reserved":false,"is_disabled":false,"rental_uris":{"android":"levelo://app?vid=a99bda33-ee96-4188-87bd-62aa61355435","ios":"levelo://app?vid=a99bda33-ee96-4188-87bd-62aa61355435"},"vehicle_type_id":"4","last_reported":1701260010,"current_range_meters":12800,"station_id":"ce4bh492rcd13ifvqdvg","pricing_plan_id":"free"},{"bike_id":"f3d2a6ed-efb3-4576-a44e-f7b740041b3c","system_id":"levelo_inurba_marseille","lat":43.282681,"lon":5.350703,"is_reserved":false,"is_disabled":false,"rental_uris":{"android":"levelo://app?vid=f3d2a6ed-efb3-4576-a44e-f7b740041b3c","ios":"levelo://app?vid=f3d2a6ed-efb3-4576-a44e-f7b740041b3c"},"vehicle_type_id":"4","last_reported":1701260010,"current_range_meters":2800,"station_id":"ce4bhbp2rcd13ifvqerg","pricing_plan_id":"free"},{"bike_id":"e92d8d03-6a7a-4124-a210-14e92e5a5dfb","system_id":"levelo_inurba_marseille","lat":43.28269,"lon":5.35061,"is_reserved":false,"is_disabled":false,"rental_uris":{"android":"levelo://app?vid=e92d8d03-6a7a-4124-a210-14e92e5a5dfb","ios":"levelo://app?vid=e92d8d03-6a7a-4124-a210-14e92e5a5dfb"},"vehicle_type_id":"4","last_reported":1701260010,"current_range_meters":0,"station_id":"ce4bhbp2rcd13ifvqerg","pricing_plan_id":"free"},{"bike_id":"9711cd89-20e3-44a7-a975-4c24d1fa744a","system_id":"levelo_inurba_marseille","lat":43.28269,"lon":5.35057,"is_reserved":false,"is_disabled":false,"rental_uris":{"android":"levelo://app?vid=9711cd89-20e3-44a7-a975-4c24d1fa744a","ios":"levelo://app?vid=9711cd89-20e3-44a7-a975-4c24d1fa744a"},"vehicle_type_id":"4","last_reported":1701260010,"current_range_meters":6400,"station_id":"ce4bhbp2rcd13ifvqerg","pricing_plan_id":"free"},{"bike_id":"0352d8c9-2730-40fd-81ce-746e28d8cb83","system_id":"levelo_inurba_marseille","lat":43.28039,"lon":5.369297,"is_reserved":false,"is_disabled":false,"rental_uris":{"android":"levelo://app?vid=0352d8c9-2730-40fd-81ce-746e28d8cb83","ios":"levelo://app?vid=0352d8c9-2730-40fd-81ce-746e28d8cb83"},"vehicle_type_id":"4","last_reported":1701260010,"current_range_meters":21200,"station_id":"ce4bha12rcd13ifvqef0","pricing_plan_id":"free"},{"bike_id":"fc697f2d-1a66-4f4f-80dd-bd36cbe8e05b","system_id":"levelo_inurba_marseille","lat":43.29045,"lon":5.39974,"is_reserved":false,"is_disabled":false,"rental_uris":{"android":"levelo://app?vid=fc697f2d-1a66-4f4f-80dd-bd36cbe8e05b","ios":"levelo://app?vid=fc697f2d-1a66-4f4f-80dd-bd36cbe8e05b"},"vehicle_type_id":"4","last_reported":1701260010,"current_range_meters":22000,"station_id":"ce4bh392rcd13ifvqdm0","pricing_plan_id":"free"},{"bike_id":"0c580673-2cd9-4bfe-966c-a312bd4d2fe6","system_id":"levelo_inurba_marseille","lat":43.281044,"lon":5.378308,"is_reserved":false,"is_disabled":false,"rental_uris":{"android":"levelo://app?vid=0c580673-2cd9-4bfe-966c-a312bd4d2fe6","ios":"levelo://app?vid=0c580673-2cd9-4bfe-966c-a312bd4d2fe6"},"vehicle_type_id":"4","last_reported":1701260010,"current_range_meters":25200,"station_id":"ce4bha12rcd13ifvqee0","pricing_plan_id":"free"},{"bike_id":"a4350088-aeb0-4e0d-ad1a-5d1311e71551","system_id":"levelo_inurba_marseille","lat":43.281044,"lon":5.378308,"is_reserved":false,"is_disabled":false,"rental_uris":{"android":"levelo://app?vid=a4350088-aeb0-4e0d-ad1a-5d1311e71551","ios":"levelo://app?vid=a4350088-aeb0-4e0d-ad1a-5d1311e71551"},"vehicle_type_id":"4","last_reported":1701260010,"current_range_meters":22400,"station_id":"ce4bha12rcd13ifvqee0","pricing_plan_id":"free"},{"bike_id":"c01c0183-69ed-4a1c-a8dd-54f73d3c56e3","system_id":"levelo_inurba_marseille","lat":43.281044,"lon":5.378308,"is_reserved":false,"is_disabled":false,"rental_uris":{"android":"levelo://app?vid=c01c0183-69ed-4a1c-a8dd-54f73d3c56e3","ios":"levelo://app?vid=c01c0183-69ed-4a1c-a8dd-54f73d3c56e3"},"vehicle_type_id":"4","last_reported":1701260010,"current_range_meters":18800,"station_id":"ce4bha12rcd13ifvqee0","pricing_plan_id":"free"},{"bike_id":"797b77a1-1c9f-4c4e-b273-acb4a0f34b19","system_id":"levelo_inurba_marseille","lat":43.284462,"lon":5.392121,"is_reserved":false,"is_disabled":false,"rental_uris":{"android":"levelo://app?vid=797b77a1-1c9f-4c4e-b273-acb4a0f34b19","ios":"levelo://app?vid=797b77a1-1c9f-4c4e-b273-acb4a0f34b19"},"vehicle_type_id":"4","last_reported":1701260010,"current_range_meters":24000,"station_id":"ce4bhoh2rcd13ifvqh5g","pricing_plan_id":"free"},{"bike_id":"26e0dd81-965c-4623-bbba-843af33c5d3c","system_id":"levelo_inurba_marseille","lat":43.284462,"lon":5.392121,"is_reserved":false,"is_disabled":false,"rental_uris":{"android":"levelo://app?vid=26e0dd81-965c-4623-bbba-843af33c5d3c","ios":"levelo://app?vid=26e0dd81-965c-4623-bbba-843af33c5d3c"},"vehicle_type_id":"4","last_reported":1701260010,"current_range_meters":18800,"station_id":"ce4bhoh2rcd13ifvqh5g","pricing_plan_id":"free"},{"bike_id":"d57a69cf-91bc-4679-bacd-21b9bbe0246f","system_id":"levelo_inurba_marseille","lat":43.285742,"lon":5.395004,"is_reserved":false,"is_disabled":false,"rental_uris":{"android":"levelo://app?vid=d57a69cf-91bc-4679-bacd-21b9bbe0246f","ios":"levelo://app?vid=d57a69cf-91bc-4679-bacd-21b9bbe0246f"},"vehicle_type_id":"4","last_reported":1701260010,"current_range_meters":4000,"station_id":"ce4bh292rcd13ifvqdg0","pricing_plan_id":"free"},{"bike_id":"5b80a59c-2e99-4966-8888-4029d7a8bf02","system_id":"levelo_inurba_marseille","lat":43.304188,"lon":5.412904,"is_reserved":false,"is_disabled":false,"rental_uris":{"android":"levelo://app?vid=5b80a59c-2e99-4966-8888-4029d7a8bf02","ios":"levelo://app?vid=5b80a59c-2e99-4966-8888-4029d7a8bf02"},"vehicle_type_id":"4","last_reported":1701260010,"current_range_meters":27200,"station_id":"ce4bhop2rcd13ifvqh8g","pricing_plan_id":"free"},{"bike_id":"553703cc-a198-4b7c-b4f7-88e7d2d9a97c","system_id":"levelo_inurba_marseille","lat":43.299579,"lon":5.413255,"is_reserved":false,"is_disabled":false,"rental_uris":{"android":"levelo://app?vid=553703cc-a198-4b7c-b4f7-88e7d2d9a97c","ios":"levelo://app?vid=553703cc-a198-4b7c-b4f7-88e7d2d9a97c"},"vehicle_type_id":"4","last_reported":1701260010,"current_range_meters":26800,"station_id":"ce4bhp12rcd13ifvqh9g","pricing_plan_id":"free"},{"bike_id":"5af817c2-10f7-4365-953c-7334d34a74b4","system_id":"levelo_inurba_marseille","lat":43.320045,"lon":5.415046,"is_reserved":false,"is_disabled":false,"rental_uris":{"android":"levelo://app?vid=5af817c2-10f7-4365-953c-7334d34a74b4","ios":"levelo://app?vid=5af817c2-10f7-4365-953c-7334d34a74b4"},"vehicle_type_id":"4","last_reported":1701260010,"current_range_meters":14800,"station_id":"ce4bhq92rcd13ifvqhkg","pricing_plan_id":"free"},{"bike_id":"d9fc3760-85e8-4bf0-bf86-668b740c54bc","system_id":"levelo_inurba_marseille","lat":43.279742,"lon":5.38744,"is_reserved":false,"is_disabled":false,"rental_uris":{"android":"levelo://app?vid=d9fc3760-85e8-4bf0-bf86-668b740c54bc","ios":"levelo://app?vid=d9fc3760-85e8-4bf0-bf86-668b740c54bc"},"vehicle_type_id":"4","last_reported":1701260010,"current_range_meters":0,"station_id":"ce4bhg12rcd13ifvqf80","pricing_plan_id":"free"},{"bike_id":"b9fbdf56-3017-4c3d-88f0-d30853b85571","system_id":"levelo_inurba_marseille","lat":43.27618,"lon":5.361009,"is_reserved":false,"is_disabled":false,"rental_uris":{"android":"levelo://app?vid=b9fbdf56-3017-4c3d-88f0-d30853b85571","ios":"levelo://app?vid=b9fbdf56-3017-4c3d-88f0-d30853b85571"},"vehicle_type_id":"4","last_reported":1701260010,"current_range_meters":19600,"station_id":"ce4bgj92rcd13ifvqbe0","pricing_plan_id":"free"},{"bike_id":"ee2199ed-b6bf-418a-8b69-ec3ffe26b8d0","system_id":"levelo_inurba_marseille","lat":43.276179,"lon":5.361009,"is_reserved":false,"is_disabled":false,"rental_uris":{"android":"levelo://app?vid=ee2199ed-b6bf-418a-8b69-ec3ffe26b8d0","ios":"levelo://app?vid=ee2199ed-b6bf-418a-8b69-ec3ffe26b8d0"},"vehicle_type_id":"4","last_reported":1701260010,"current_range_meters":400,"station_id":"ce4bgj92rcd13ifvqbe0","pricing_plan_id":"free"},{"bike_id":"b213561b-9e96-4fd6-b389-22f20bc4f83e","system_id":"levelo_inurba_marseille","lat":43.280784,"lon":5.396622,"is_reserved":false,"is_disabled":false,"rental_uris":{"android":"levelo://app?vid=b213561b-9e96-4fd6-b389-22f20bc4f83e","ios":"levelo://app?vid=b213561b-9e96-4fd6-b389-22f20bc4f83e"},"vehicle_type_id":"4","last_reported":1701260010,"current_range_meters":24400,"station_id":"ce4bho12rcd13ifvqh2g","pricing_plan_id":"free"},{"bike_id":"e5ec6d7c-dfce-462c-9e8c-4aa7c28109f9","system_id":"levelo_inurba_marseille","lat":43.27843,"lon":5.39207,"is_reserved":false,"is_disabled":false,"rental_uris":{"android":"levelo://app?vid=e5ec6d7c-dfce-462c-9e8c-4aa7c28109f9","ios":"levelo://app?vid=e5ec6d7c-dfce-462c-9e8c-4aa7c28109f9"},"vehicle_type_id":"4","last_reported":1701260010,"current_range_meters":24400,"station_id":"ce4bhjp2rcd13ifvqga0","pricing_plan_id":"free"},{"bike_id":"239d344f-3cdf-4b8e-967b-f06eebb9931b","system_id":"levelo_inurba_marseille","lat":43.278399,"lon":5.392139,"is_reserved":false,"is_disabled":false,"rental_uris":{"android":"levelo://app?vid=239d344f-3cdf-4b8e-967b-f06eebb9931b","ios":"levelo://app?vid=239d344f-3cdf-4b8e-967b-f06eebb9931b"},"vehicle_type_id":"4","last_reported":1701260010,"current_range_meters":14000,"station_id":"ce4bhjp2rcd13ifvqga0","pricing_plan_id":"free"},{"bike_id":"9c7163b9-ed73-421e-8176-11ae2c8179ad","system_id":"levelo_inurba_marseille","lat":43.275625,"lon":5.384392,"is_reserved":false,"is_disabled":false,"rental_uris":{"android":"levelo://app?vid=9c7163b9-ed73-421e-8176-11ae2c8179ad","ios":"levelo://app?vid=9c7163b9-ed73-421e-8176-11ae2c8179ad"},"vehicle_type_id":"4","last_reported":1701260010,"current_range_meters":6800,"station_id":"ce4bhh92rcd13ifvqfi0","pricing_plan_id":"free"},{"bike_id":"7d43759e-6596-45d2-87d1-a2a0f19c6f4e","system_id":"levelo_inurba_marseille","lat":43.27377,"lon":5.36248,"is_reserved":false,"is_disabled":false,"rental_uris":{"android":"levelo://app?vid=7d43759e-6596-45d2-87d1-a2a0f19c6f4e","ios":"levelo://app?vid=7d43759e-6596-45d2-87d1-a2a0f19c6f4e"},"vehicle_type_id":"4","last_reported":1701260010,"current_range_meters":3200,"station_id":"ce4bhbh2rcd13ifvqeo0","pricing_plan_id":"free"},{"bike_id":"70658e6e-38af-40b9-aed2-066c2d60e5bb","system_id":"levelo_inurba_marseille","lat":43.275024,"lon":5.389784,"is_reserved":false,"is_disabled":false,"rental_uris":{"android":"levelo://app?vid=70658e6e-38af-40b9-aed2-066c2d60e5bb","ios":"levelo://app?vid=70658e6e-38af-40b9-aed2-066c2d60e5bb"},"vehicle_type_id":"4","last_reported":1701260010,"current_range_meters":0,"station_id":"","pricing_plan_id":"free"},{"bike_id":"ef7ba327-e43f-42e0-a02d-cb83e9268f27","system_id":"levelo_inurba_marseille","lat":43.31088,"lon":5.42422,"is_reserved":false,"is_disabled":false,"rental_uris":{"android":"levelo://app?vid=ef7ba327-e43f-42e0-a02d-cb83e9268f27","ios":"levelo://app?vid=ef7ba327-e43f-42e0-a02d-cb83e9268f27"},"vehicle_type_id":"4","last_reported":1701260010,"current_range_meters":20800,"station_id":"ce4bhp92rcd13ifvqhag","pricing_plan_id":"free"},{"bike_id":"cff3629c-5d91-4c6b-a51a-6af66e594645","system_id":"levelo_inurba_marseille","lat":43.274103,"lon":5.394016,"is_reserved":false,"is_disabled":false,"rental_uris":{"android":"levelo://app?vid=cff3629c-5d91-4c6b-a51a-6af66e594645","ios":"levelo://app?vid=cff3629c-5d91-4c6b-a51a-6af66e594645"},"vehicle_type_id":"4","last_reported":1701260010,"current_range_meters":17600,"station_id":"ce4bhdp2rcd13ifvqf20","pricing_plan_id":"free"},{"bike_id":"68a6f09c-d5fc-4673-80c8-59cba1be1bb9","system_id":"levelo_inurba_marseille","lat":43.295523,"lon":5.422926,"is_reserved":false,"is_disabled":false,"rental_uris":{"android":"levelo://app?vid=68a6f09c-d5fc-4673-80c8-59cba1be1bb9","ios":"levelo://app?vid=68a6f09c-d5fc-4673-80c8-59cba1be1bb9"},"vehicle_type_id":"4","last_reported":1701260010,"current_range_meters":22000,"station_id":"ce4bhph2rcd13ifvqhdg","pricing_plan_id":"free"},{"bike_id":"1d1727f4-230d-4945-b92f-0c95f84949dc","system_id":"levelo_inurba_marseille","lat":43.29526,"lon":5.42277,"is_reserved":false,"is_disabled":false,"rental_uris":{"android":"levelo://app?vid=1d1727f4-230d-4945-b92f-0c95f84949dc","ios":"levelo://app?vid=1d1727f4-230d-4945-b92f-0c95f84949dc"},"vehicle_type_id":"4","last_reported":1701260010,"current_range_meters":30000,"station_id":"ce4bhph2rcd13ifvqhdg","pricing_plan_id":"free"},{"bike_id":"0120dbbf-4353-4df3-96d2-747d00c5e0f6","system_id":"levelo_inurba_marseille","lat":43.295213,"lon":5.422753,"is_reserved":false,"is_disabled":false,"rental_uris":{"android":"levelo://app?vid=0120dbbf-4353-4df3-96d2-747d00c5e0f6","ios":"levelo://app?vid=0120dbbf-4353-4df3-96d2-747d00c5e0f6"},"vehicle_type_id":"4","last_reported":1701260010,"current_range_meters":24800,"station_id":"ce4bhph2rcd13ifvqhdg","pricing_plan_id":"free"},{"bike_id":"9bc465d3-abca-40ff-8d9d-0ddd451c55b3","system_id":"levelo_inurba_marseille","lat":43.2696,"lon":5.38638,"is_reserved":false,"is_disabled":false,"rental_uris":{"android":"levelo://app?vid=9bc465d3-abca-40ff-8d9d-0ddd451c55b3","ios":"levelo://app?vid=9bc465d3-abca-40ff-8d9d-0ddd451c55b3"},"vehicle_type_id":"4","last_reported":1701260010,"current_range_meters":0,"station_id":"ce4bhh92rcd13ifvqfh0","pricing_plan_id":"free"},{"bike_id":"c19a813c-9d33-484a-a6f5-143627672c95","system_id":"levelo_inurba_marseille","lat":43.27944,"lon":5.41047,"is_reserved":false,"is_disabled":false,"rental_uris":{"android":"levelo://app?vid=c19a813c-9d33-484a-a6f5-143627672c95","ios":"levelo://app?vid=c19a813c-9d33-484a-a6f5-143627672c95"},"vehicle_type_id":"4","last_reported":1701260010,"current_range_meters":25600,"station_id":"ce4bhnp2rcd13ifvqh0g","pricing_plan_id":"free"},{"bike_id":"37e2394b-5c68-430d-8144-b2b591008e8c","system_id":"levelo_inurba_marseille","lat":43.26681,"lon":5.382694,"is_reserved":false,"is_disabled":false,"rental_uris":{"android":"levelo://app?vid=37e2394b-5c68-430d-8144-b2b591008e8c","ios":"levelo://app?vid=37e2394b-5c68-430d-8144-b2b591008e8c"},"vehicle_type_id":"4","last_reported":1701260010,"current_range_meters":30800,"station_id":"ce4bhg92rcd13ifvqf90","pricing_plan_id":"free"},{"bike_id":"0a68e60b-4d52-4eee-b540-52b8ff2ee4a6","system_id":"levelo_inurba_marseille","lat":43.265613,"lon":5.372897,"is_reserved":false,"is_disabled":false,"rental_uris":{"android":"levelo://app?vid=0a68e60b-4d52-4eee-b540-52b8ff2ee4a6","ios":"levelo://app?vid=0a68e60b-4d52-4eee-b540-52b8ff2ee4a6"},"vehicle_type_id":"4","last_reported":1701260010,"current_range_meters":22800,"station_id":"ce4bhg12rcd13ifvqf70","pricing_plan_id":"free"},{"bike_id":"f94f2618-0b15-4f54-b3da-aff5a960fb75","system_id":"levelo_inurba_marseille","lat":43.26566,"lon":5.39008,"is_reserved":false,"is_disabled":false,"rental_uris":{"android":"levelo://app?vid=f94f2618-0b15-4f54-b3da-aff5a960fb75","ios":"levelo://app?vid=f94f2618-0b15-4f54-b3da-aff5a960fb75"},"vehicle_type_id":"4","last_reported":1701260010,"current_range_meters":18400,"station_id":"ce4bhe12rcd13ifvqf30","pricing_plan_id":"free"},{"bike_id":"92fccb38-f71c-4ac4-9734-5d093793280c","system_id":"levelo_inurba_marseille","lat":43.2694,"lon":5.40249,"is_reserved":false,"is_disabled":false,"rental_uris":{"android":"levelo://app?vid=92fccb38-f71c-4ac4-9734-5d093793280c","ios":"levelo://app?vid=92fccb38-f71c-4ac4-9734-5d093793280c"},"vehicle_type_id":"4","last_reported":1701260010,"current_range_meters":17600,"station_id":"cjm6bp8fraef2m0cb0m0","pricing_plan_id":"free"},{"bike_id":"c327acca-ee70-46c8-a7da-201c0e06c913","system_id":"levelo_inurba_marseille","lat":43.269373,"lon":5.402437,"is_reserved":false,"is_disabled":false,"rental_uris":{"android":"levelo://app?vid=c327acca-ee70-46c8-a7da-201c0e06c913","ios":"levelo://app?vid=c327acca-ee70-46c8-a7da-201c0e06c913"},"vehicle_type_id":"4","last_reported":1701260010,"current_range_meters":22800,"station_id":"cjm6bp8fraef2m0cb0m0","pricing_plan_id":"free"},{"bike_id":"369c6b01-ed17-4129-93a4-9388491cecb9","system_id":"levelo_inurba_marseille","lat":43.26949,"lon":5.40262,"is_reserved":false,"is_disabled":false,"rental_uris":{"android":"levelo://app?vid=369c6b01-ed17-4129-93a4-9388491cecb9","ios":"levelo://app?vid=369c6b01-ed17-4129-93a4-9388491cecb9"},"vehicle_type_id":"4","last_reported":1701260010,"current_range_meters":23600,"station_id":"cjm6bp8fraef2m0cb0m0","pricing_plan_id":"free"},{"bike_id":"786e138e-9d6d-4e6e-811d-eecbce29b9d9","system_id":"levelo_inurba_marseille","lat":43.26949,"lon":5.40262,"is_reserved":false,"is_disabled":false,"rental_uris":{"android":"levelo://app?vid=786e138e-9d6d-4e6e-811d-eecbce29b9d9","ios":"levelo://app?vid=786e138e-9d6d-4e6e-811d-eecbce29b9d9"},"vehicle_type_id":"4","last_reported":1701260010,"current_range_meters":9200,"station_id":"cjm6bp8fraef2m0cb0m0","pricing_plan_id":"free"},{"bike_id":"b8067697-6a69-429d-ade5-13c715a51776","system_id":"levelo_inurba_marseille","lat":43.269388,"lon":5.402622,"is_reserved":false,"is_disabled":false,"rental_uris":{"android":"levelo://app?vid=b8067697-6a69-429d-ade5-13c715a51776","ios":"levelo://app?vid=b8067697-6a69-429d-ade5-13c715a51776"},"vehicle_type_id":"4","last_reported":1701260010,"current_range_meters":14400,"station_id":"cjm6bp8fraef2m0cb0m0","pricing_plan_id":"free"},{"bike_id":"d938b958-8706-4bd5-b24d-77e080530191","system_id":"levelo_inurba_marseille","lat":43.317104,"lon":5.436818,"is_reserved":false,"is_disabled":false,"rental_uris":{"android":"levelo://app?vid=d938b958-8706-4bd5-b24d-77e080530191","ios":"levelo://app?vid=d938b958-8706-4bd5-b24d-77e080530191"},"vehicle_type_id":"4","last_reported":1701260010,"current_range_meters":8400,"station_id":"ce4bhp92rcd13ifvqhcg","pricing_plan_id":"free"},{"bike_id":"b56a5c80-e220-42ea-86b3-0ea50cf20260","system_id":"levelo_inurba_marseille","lat":43.267959,"lon":5.402687,"is_reserved":false,"is_disabled":false,"rental_uris":{"android":"levelo://app?vid=b56a5c80-e220-42ea-86b3-0ea50cf20260","ios":"levelo://app?vid=b56a5c80-e220-42ea-86b3-0ea50cf20260"},"vehicle_type_id":"4","last_reported":1701260010,"current_range_meters":22400,"station_id":"ce501612rcd8frsf0b60","pricing_plan_id":"free"},{"bike_id":"c436bcd3-92e8-4708-8ee3-370c05cc2635","system_id":"levelo_inurba_marseille","lat":43.267959,"lon":5.402685,"is_reserved":false,"is_disabled":false,"rental_uris":{"android":"levelo://app?vid=c436bcd3-92e8-4708-8ee3-370c05cc2635","ios":"levelo://app?vid=c436bcd3-92e8-4708-8ee3-370c05cc2635"},"vehicle_type_id":"4","last_reported":1701260010,"current_range_meters":26400,"station_id":"ce501612rcd8frsf0b60","pricing_plan_id":"free"},{"bike_id":"f9535ffe-15a0-4733-a4c9-8bf76128a505","system_id":"levelo_inurba_marseille","lat":43.298768,"lon":5.43643,"is_reserved":false,"is_disabled":false,"rental_uris":{"android":"levelo://app?vid=f9535ffe-15a0-4733-a4c9-8bf76128a505","ios":"levelo://app?vid=f9535ffe-15a0-4733-a4c9-8bf76128a505"},"vehicle_type_id":"4","last_reported":1701260010,"current_range_meters":28800,"station_id":"ce4bhpp2rcd13ifvqhfg","pricing_plan_id":"free"},{"bike_id":"9b13133e-02e5-4d31-950c-fdb8319adaa8","system_id":"levelo_inurba_marseille","lat":43.281548,"lon":5.42643,"is_reserved":false,"is_disabled":false,"rental_uris":{"android":"levelo://app?vid=9b13133e-02e5-4d31-950c-fdb8319adaa8","ios":"levelo://app?vid=9b13133e-02e5-4d31-950c-fdb8319adaa8"},"vehicle_type_id":"4","last_reported":1701260010,"current_range_meters":25200,"station_id":"ce4bhnh2rcd13ifvqgug","pricing_plan_id":"free"},{"bike_id":"37f41d43-22f9-4fce-baf9-df0de0faeee3","system_id":"levelo_inurba_marseille","lat":43.260923,"lon":5.397773,"is_reserved":false,"is_disabled":false,"rental_uris":{"android":"levelo://app?vid=37f41d43-22f9-4fce-baf9-df0de0faeee3","ios":"levelo://app?vid=37f41d43-22f9-4fce-baf9-df0de0faeee3"},"vehicle_type_id":"4","last_reported":1701260010,"current_range_meters":2400,"station_id":"ce4bhi12rcd13ifvqfq0","pricing_plan_id":"free"},{"bike_id":"03158746-6a36-467c-85f4-0d9a5c9de7bb","system_id":"levelo_inurba_marseille","lat":43.260858,"lon":5.397734,"is_reserved":false,"is_disabled":false,"rental_uris":{"android":"levelo://app?vid=03158746-6a36-467c-85f4-0d9a5c9de7bb","ios":"levelo://app?vid=03158746-6a36-467c-85f4-0d9a5c9de7bb"},"vehicle_type_id":"4","last_reported":1701260010,"current_range_meters":0,"station_id":"ce4bhi12rcd13ifvqfq0","pricing_plan_id":"free"},{"bike_id":"6bc55e2d-44a1-4800-8c9c-8dd124efcb03","system_id":"levelo_inurba_marseille","lat":43.25833,"lon":5.39437,"is_reserved":false,"is_disabled":false,"rental_uris":{"android":"levelo://app?vid=6bc55e2d-44a1-4800-8c9c-8dd124efcb03","ios":"levelo://app?vid=6bc55e2d-44a1-4800-8c9c-8dd124efcb03"},"vehicle_type_id":"4","last_reported":1701260010,"current_range_meters":10000,"station_id":"ce4bhip2rcd13ifvqft0","pricing_plan_id":"free"},{"bike_id":"f6bc6957-6a06-4d61-a286-1510119c5a06","system_id":"levelo_inurba_marseille","lat":43.254947,"lon":5.376454,"is_reserved":false,"is_disabled":false,"rental_uris":{"android":"levelo://app?vid=f6bc6957-6a06-4d61-a286-1510119c5a06","ios":"levelo://app?vid=f6bc6957-6a06-4d61-a286-1510119c5a06"},"vehicle_type_id":"4","last_reported":1701260010,"current_range_meters":0,"station_id":"ce4bhh12rcd13ifvqff0","pricing_plan_id":"free"},{"bike_id":"19029ed7-bf97-4f4d-a8c2-7d27e70ef7f7","system_id":"levelo_inurba_marseille","lat":43.270721,"lon":5.422764,"is_reserved":false,"is_disabled":false,"rental_uris":{"android":"levelo://app?vid=19029ed7-bf97-4f4d-a8c2-7d27e70ef7f7","ios":"levelo://app?vid=19029ed7-bf97-4f4d-a8c2-7d27e70ef7f7"},"vehicle_type_id":"4","last_reported":1701260010,"current_range_meters":9600,"station_id":"ce4bhk92rcd13ifvqgb0","pricing_plan_id":"free"},{"bike_id":"5f976f0b-3b5a-4858-877e-939ca336861e","system_id":"levelo_inurba_marseille","lat":43.258658,"lon":5.398935,"is_reserved":false,"is_disabled":false,"rental_uris":{"android":"levelo://app?vid=5f976f0b-3b5a-4858-877e-939ca336861e","ios":"levelo://app?vid=5f976f0b-3b5a-4858-877e-939ca336861e"},"vehicle_type_id":"4","last_reported":1701260010,"current_range_meters":22400,"station_id":"ce4bhl92rcd13ifvqghg","pricing_plan_id":"free"},{"bike_id":"c7d78e9d-629e-4d09-8612-a76051bd8ebb","system_id":"levelo_inurba_marseille","lat":43.258645,"lon":5.399018,"is_reserved":false,"is_disabled":false,"rental_uris":{"android":"levelo://app?vid=c7d78e9d-629e-4d09-8612-a76051bd8ebb","ios":"levelo://app?vid=c7d78e9d-629e-4d09-8612-a76051bd8ebb"},"vehicle_type_id":"4","last_reported":1701260010,"current_range_meters":6000,"station_id":"ce4bhl92rcd13ifvqghg","pricing_plan_id":"free"},{"bike_id":"db33ee16-7faf-421f-b813-69a231447c5e","system_id":"levelo_inurba_marseille","lat":43.25938,"lon":5.40903,"is_reserved":false,"is_disabled":false,"rental_uris":{"android":"levelo://app?vid=db33ee16-7faf-421f-b813-69a231447c5e","ios":"levelo://app?vid=db33ee16-7faf-421f-b813-69a231447c5e"},"vehicle_type_id":"4","last_reported":1701260010,"current_range_meters":24800,"station_id":"ce4bhm92rcd13ifvqglg","pricing_plan_id":"free"},{"bike_id":"52d9dffa-ef5e-4061-a968-c3513bee93a7","system_id":"levelo_inurba_marseille","lat":43.259013,"lon":5.409301,"is_reserved":false,"is_disabled":false,"rental_uris":{"android":"levelo://app?vid=52d9dffa-ef5e-4061-a968-c3513bee93a7","ios":"levelo://app?vid=52d9dffa-ef5e-4061-a968-c3513bee93a7"},"vehicle_type_id":"4","last_reported":1701260010,"current_range_meters":17200,"station_id":"ce4bhm92rcd13ifvqglg","pricing_plan_id":"free"},{"bike_id":"701dfc6c-2f0b-43a3-88d0-350b92ece9cc","system_id":"levelo_inurba_marseille","lat":43.25933,"lon":5.40914,"is_reserved":false,"is_disabled":false,"rental_uris":{"android":"levelo://app?vid=701dfc6c-2f0b-43a3-88d0-350b92ece9cc","ios":"levelo://app?vid=701dfc6c-2f0b-43a3-88d0-350b92ece9cc"},"vehicle_type_id":"4","last_reported":1701260010,"current_range_meters":24400,"station_id":"ce4bhm92rcd13ifvqglg","pricing_plan_id":"free"},{"bike_id":"859c3c77-1851-4e3a-9dec-42cb3bd89784","system_id":"levelo_inurba_marseille","lat":43.25932,"lon":5.40913,"is_reserved":false,"is_disabled":false,"rental_uris":{"android":"levelo://app?vid=859c3c77-1851-4e3a-9dec-42cb3bd89784","ios":"levelo://app?vid=859c3c77-1851-4e3a-9dec-42cb3bd89784"},"vehicle_type_id":"4","last_reported":1701260010,"current_range_meters":26800,"station_id":"ce4bhm92rcd13ifvqglg","pricing_plan_id":"free"},{"bike_id":"d555e29f-1161-475c-9c68-0a440bd7139a","system_id":"levelo_inurba_marseille","lat":43.25929,"lon":5.40915,"is_reserved":false,"is_disabled":false,"rental_uris":{"android":"levelo://app?vid=d555e29f-1161-475c-9c68-0a440bd7139a","ios":"levelo://app?vid=d555e29f-1161-475c-9c68-0a440bd7139a"},"vehicle_type_id":"4","last_reported":1701260010,"current_range_meters":20400,"station_id":"ce4bhm92rcd13ifvqglg","pricing_plan_id":"free"},{"bike_id":"ec3ae71a-7855-4733-9a16-722c539f39c2","system_id":"levelo_inurba_marseille","lat":43.25723,"lon":5.4111,"is_reserved":false,"is_disabled":false,"rental_uris":{"android":"levelo://app?vid=ec3ae71a-7855-4733-9a16-722c539f39c2","ios":"levelo://app?vid=ec3ae71a-7855-4733-9a16-722c539f39c2"},"vehicle_type_id":"4","last_reported":1701260010,"current_range_meters":31200,"station_id":"ce4bhkp2rcd13ifvqgd0","pricing_plan_id":"free"},{"bike_id":"7117f338-555c-4dc9-858d-25eb6212c5be","system_id":"levelo_inurba_marseille","lat":43.250009,"lon":5.389195,"is_reserved":false,"is_disabled":false,"rental_uris":{"android":"levelo://app?vid=7117f338-555c-4dc9-858d-25eb6212c5be","ios":"levelo://app?vid=7117f338-555c-4dc9-858d-25eb6212c5be"},"vehicle_type_id":"4","last_reported":1701260010,"current_range_meters":28800,"station_id":"ce4bhgp2rcd13ifvqfd0","pricing_plan_id":"free"},{"bike_id":"d0263e54-8146-4705-b1e3-0449330dbff0","system_id":"levelo_inurba_marseille","lat":43.25004,"lon":5.38923,"is_reserved":false,"is_disabled":false,"rental_uris":{"android":"levelo://app?vid=d0263e54-8146-4705-b1e3-0449330dbff0","ios":"levelo://app?vid=d0263e54-8146-4705-b1e3-0449330dbff0"},"vehicle_type_id":"4","last_reported":1701260010,"current_range_meters":20400,"station_id":"ce4bhgp2rcd13ifvqfd0","pricing_plan_id":"free"},{"bike_id":"b9ff1d44-6a07-4417-b57e-36084b5d619c","system_id":"levelo_inurba_marseille","lat":43.25005,"lon":5.38937,"is_reserved":false,"is_disabled":false,"rental_uris":{"android":"levelo://app?vid=b9ff1d44-6a07-4417-b57e-36084b5d619c","ios":"levelo://app?vid=b9ff1d44-6a07-4417-b57e-36084b5d619c"},"vehicle_type_id":"4","last_reported":1701260010,"current_range_meters":28000,"station_id":"ce4bhgp2rcd13ifvqfd0","pricing_plan_id":"free"},{"bike_id":"99bbb538-bd78-41c6-96de-754558017f08","system_id":"levelo_inurba_marseille","lat":43.25001,"lon":5.38925,"is_reserved":false,"is_disabled":false,"rental_uris":{"android":"levelo://app?vid=99bbb538-bd78-41c6-96de-754558017f08","ios":"levelo://app?vid=99bbb538-bd78-41c6-96de-754558017f08"},"vehicle_type_id":"4","last_reported":1701260010,"current_range_meters":30800,"station_id":"ce4bhgp2rcd13ifvqfd0","pricing_plan_id":"free"},{"bike_id":"050cab4d-19de-424e-99b0-1e7e3b194f50","system_id":"levelo_inurba_marseille","lat":43.250023,"lon":5.38919,"is_reserved":false,"is_disabled":false,"rental_uris":{"android":"levelo://app?vid=050cab4d-19de-424e-99b0-1e7e3b194f50","ios":"levelo://app?vid=050cab4d-19de-424e-99b0-1e7e3b194f50"},"vehicle_type_id":"4","last_reported":1701260010,"current_range_meters":12000,"station_id":"ce4bhgp2rcd13ifvqfd0","pricing_plan_id":"free"},{"bike_id":"fb16d9e4-e15b-41b9-b039-629c0858a873","system_id":"levelo_inurba_marseille","lat":43.250023,"lon":5.38919,"is_reserved":false,"is_disabled":false,"rental_uris":{"android":"levelo://app?vid=fb16d9e4-e15b-41b9-b039-629c0858a873","ios":"levelo://app?vid=fb16d9e4-e15b-41b9-b039-629c0858a873"},"vehicle_type_id":"4","last_reported":1701260010,"current_range_meters":19600,"station_id":"ce4bhgp2rcd13ifvqfd0","pricing_plan_id":"free"},{"bike_id":"4c0c3118-7eaa-4ebd-8d87-d449bea3e021","system_id":"levelo_inurba_marseille","lat":43.250897,"lon":5.395161,"is_reserved":false,"is_disabled":false,"rental_uris":{"android":"levelo://app?vid=4c0c3118-7eaa-4ebd-8d87-d449bea3e021","ios":"levelo://app?vid=4c0c3118-7eaa-4ebd-8d87-d449bea3e021"},"vehicle_type_id":"4","last_reported":1701260010,"current_range_meters":12800,"station_id":"ce4bhm12rcd13ifvqgkg","pricing_plan_id":"free"},{"bike_id":"7b1d9c58-913b-46d9-ae61-2358f1add2d3","system_id":"levelo_inurba_marseille","lat":43.250966,"lon":5.395186,"is_reserved":false,"is_disabled":false,"rental_uris":{"android":"levelo://app?vid=7b1d9c58-913b-46d9-ae61-2358f1add2d3","ios":"levelo://app?vid=7b1d9c58-913b-46d9-ae61-2358f1add2d3"},"vehicle_type_id":"4","last_reported":1701260010,"current_range_meters":10800,"station_id":"ce4bhm12rcd13ifvqgkg","pricing_plan_id":"free"},{"bike_id":"e07cff72-fd79-40e5-b04e-df348893e23e","system_id":"levelo_inurba_marseille","lat":43.250966,"lon":5.395186,"is_reserved":false,"is_disabled":false,"rental_uris":{"android":"levelo://app?vid=e07cff72-fd79-40e5-b04e-df348893e23e","ios":"levelo://app?vid=e07cff72-fd79-40e5-b04e-df348893e23e"},"vehicle_type_id":"4","last_reported":1701260010,"current_range_meters":30400,"station_id":"ce4bhm12rcd13ifvqgkg","pricing_plan_id":"free"},{"bike_id":"f2d58e6a-3ca1-4fc3-b068-70224a2c9558","system_id":"levelo_inurba_marseille","lat":43.25114,"lon":5.4033,"is_reserved":false,"is_disabled":false,"rental_uris":{"android":"levelo://app?vid=f2d58e6a-3ca1-4fc3-b068-70224a2c9558","ios":"levelo://app?vid=f2d58e6a-3ca1-4fc3-b068-70224a2c9558"},"vehicle_type_id":"4","last_reported":1701260010,"current_range_meters":31200,"station_id":"ce4bhlh2rcd13ifvqgig","pricing_plan_id":"free"},{"bike_id":"cb784b12-8f99-47e1-ab0c-da829a5c7bc1","system_id":"levelo_inurba_marseille","lat":43.25111,"lon":5.40323,"is_reserved":false,"is_disabled":false,"rental_uris":{"android":"levelo://app?vid=cb784b12-8f99-47e1-ab0c-da829a5c7bc1","ios":"levelo://app?vid=cb784b12-8f99-47e1-ab0c-da829a5c7bc1"},"vehicle_type_id":"4","last_reported":1701260010,"current_range_meters":31200,"station_id":"ce4bhlh2rcd13ifvqgig","pricing_plan_id":"free"},{"bike_id":"ced3c2ea-c088-4ce0-bf51-67a47ea2df70","system_id":"levelo_inurba_marseille","lat":43.25104,"lon":5.40324,"is_reserved":false,"is_disabled":false,"rental_uris":{"android":"levelo://app?vid=ced3c2ea-c088-4ce0-bf51-67a47ea2df70","ios":"levelo://app?vid=ced3c2ea-c088-4ce0-bf51-67a47ea2df70"},"vehicle_type_id":"4","last_reported":1701260010,"current_range_meters":24400,"station_id":"ce4bhlh2rcd13ifvqgig","pricing_plan_id":"free"},{"bike_id":"1491d5b7-a583-4818-954d-03198cc6d4df","system_id":"levelo_inurba_marseille","lat":43.246461,"lon":5.389014,"is_reserved":false,"is_disabled":false,"rental_uris":{"android":"levelo://app?vid=1491d5b7-a583-4818-954d-03198cc6d4df","ios":"levelo://app?vid=1491d5b7-a583-4818-954d-03198cc6d4df"},"vehicle_type_id":"4","last_reported":1701260010,"current_range_meters":23600,"station_id":"ce4bhg12rcd13ifvqf60","pricing_plan_id":"free"},{"bike_id":"38e3847b-bba9-45c8-88f4-24d87b519d8c","system_id":"levelo_inurba_marseille","lat":43.246467,"lon":5.388984,"is_reserved":false,"is_disabled":false,"rental_uris":{"android":"levelo://app?vid=38e3847b-bba9-45c8-88f4-24d87b519d8c","ios":"levelo://app?vid=38e3847b-bba9-45c8-88f4-24d87b519d8c"},"vehicle_type_id":"4","last_reported":1701260010,"current_range_meters":19600,"station_id":"ce4bhg12rcd13ifvqf60","pricing_plan_id":"free"},{"bike_id":"871c002a-ed74-496c-800e-0719e2b8233e","system_id":"levelo_inurba_marseille","lat":43.246467,"lon":5.388984,"is_reserved":false,"is_disabled":false,"rental_uris":{"android":"levelo://app?vid=871c002a-ed74-496c-800e-0719e2b8233e","ios":"levelo://app?vid=871c002a-ed74-496c-800e-0719e2b8233e"},"vehicle_type_id":"4","last_reported":1701260010,"current_range_meters":12800,"station_id":"ce4bhg12rcd13ifvqf60","pricing_plan_id":"free"},{"bike_id":"98135de4-9870-4fa3-9655-305dd486e106","system_id":"levelo_inurba_marseille","lat":43.243884,"lon":5.370736,"is_reserved":false,"is_disabled":false,"rental_uris":{"android":"levelo://app?vid=98135de4-9870-4fa3-9655-305dd486e106","ios":"levelo://app?vid=98135de4-9870-4fa3-9655-305dd486e106"},"vehicle_type_id":"4","last_reported":1701260010,"current_range_meters":8400,"station_id":"ce4bhhh2rcd13ifvqfk0","pricing_plan_id":"free"},{"bike_id":"69ca7162-e16f-452c-a3d6-5e861f9f2eb2","system_id":"levelo_inurba_marseille","lat":43.24546,"lon":5.39521,"is_reserved":false,"is_disabled":false,"rental_uris":{"android":"levelo://app?vid=69ca7162-e16f-452c-a3d6-5e861f9f2eb2","ios":"levelo://app?vid=69ca7162-e16f-452c-a3d6-5e861f9f2eb2"},"vehicle_type_id":"4","last_reported":1701260010,"current_range_meters":11200,"station_id":"ce4bhlp2rcd13ifvqgjg","pricing_plan_id":"free"},{"bike_id":"8f346182-8935-4abe-8f96-eb34924cca19","system_id":"levelo_inurba_marseille","lat":43.245581,"lon":5.395069,"is_reserved":false,"is_disabled":false,"rental_uris":{"android":"levelo://app?vid=8f346182-8935-4abe-8f96-eb34924cca19","ios":"levelo://app?vid=8f346182-8935-4abe-8f96-eb34924cca19"},"vehicle_type_id":"4","last_reported":1701260010,"current_range_meters":9600,"station_id":"ce4bhlp2rcd13ifvqgjg","pricing_plan_id":"free"},{"bike_id":"b3c730c4-5614-4d9f-bc56-f10f610e1597","system_id":"levelo_inurba_marseille","lat":43.241782,"lon":5.397264,"is_reserved":false,"is_disabled":false,"rental_uris":{"android":"levelo://app?vid=b3c730c4-5614-4d9f-bc56-f10f610e1597","ios":"levelo://app?vid=b3c730c4-5614-4d9f-bc56-f10f610e1597"},"vehicle_type_id":"4","last_reported":1701260010,"current_range_meters":30400,"station_id":"ce4bhn12rcd13ifvqgpg","pricing_plan_id":"free"},{"bike_id":"3b83b063-75dc-4bb6-a5e9-0804a0c2f2c4","system_id":"levelo_inurba_marseille","lat":43.241766,"lon":5.397356,"is_reserved":false,"is_disabled":false,"rental_uris":{"android":"levelo://app?vid=3b83b063-75dc-4bb6-a5e9-0804a0c2f2c4","ios":"levelo://app?vid=3b83b063-75dc-4bb6-a5e9-0804a0c2f2c4"},"vehicle_type_id":"4","last_reported":1701260010,"current_range_meters":14400,"station_id":"ce4bhn12rcd13ifvqgpg","pricing_plan_id":"free"},{"bike_id":"df8c7d93-8f90-42bc-a235-3d6e14549c99","system_id":"levelo_inurba_marseille","lat":43.241782,"lon":5.397261,"is_reserved":false,"is_disabled":false,"rental_uris":{"android":"levelo://app?vid=df8c7d93-8f90-42bc-a235-3d6e14549c99","ios":"levelo://app?vid=df8c7d93-8f90-42bc-a235-3d6e14549c99"},"vehicle_type_id":"4","last_reported":1701260010,"current_range_meters":8800,"station_id":"ce4bhn12rcd13ifvqgpg","pricing_plan_id":"free"},{"bike_id":"976e36fa-42a1-49de-99da-394bf2bed3b7","system_id":"levelo_inurba_marseille","lat":43.241782,"lon":5.397261,"is_reserved":false,"is_disabled":false,"rental_uris":{"android":"levelo://app?vid=976e36fa-42a1-49de-99da-394bf2bed3b7","ios":"levelo://app?vid=976e36fa-42a1-49de-99da-394bf2bed3b7"},"vehicle_type_id":"4","last_reported":1701260010,"current_range_meters":26400,"station_id":"ce4bhn12rcd13ifvqgpg","pricing_plan_id":"free"},{"bike_id":"b37cf8bc-ef87-4960-b38c-3279b894369f","system_id":"levelo_inurba_marseille","lat":43.231923,"lon":5.355545,"is_reserved":false,"is_disabled":false,"rental_uris":{"android":"levelo://app?vid=b37cf8bc-ef87-4960-b38c-3279b894369f","ios":"levelo://app?vid=b37cf8bc-ef87-4960-b38c-3279b894369f"},"vehicle_type_id":"4","last_reported":1701260010,"current_range_meters":31600,"station_id":"ce4bhu92rcd13ifvqi70","pricing_plan_id":"free"},{"bike_id":"d1703505-b125-4a98-a807-11024241bc04","system_id":"levelo_inurba_marseille","lat":43.231923,"lon":5.355545,"is_reserved":false,"is_disabled":false,"rental_uris":{"android":"levelo://app?vid=d1703505-b125-4a98-a807-11024241bc04","ios":"levelo://app?vid=d1703505-b125-4a98-a807-11024241bc04"},"vehicle_type_id":"4","last_reported":1701260010,"current_range_meters":31600,"station_id":"ce4bhu92rcd13ifvqi70","pricing_plan_id":"free"},{"bike_id":"3bbe1fd5-b7d2-484c-969b-f57a381950c3","system_id":"levelo_inurba_marseille","lat":43.231923,"lon":5.355545,"is_reserved":false,"is_disabled":false,"rental_uris":{"android":"levelo://app?vid=3bbe1fd5-b7d2-484c-969b-f57a381950c3","ios":"levelo://app?vid=3bbe1fd5-b7d2-484c-969b-f57a381950c3"},"vehicle_type_id":"4","last_reported":1701260010,"current_range_meters":15600,"station_id":"ce4bhu92rcd13ifvqi70","pricing_plan_id":"free"},{"bike_id":"97acb7ff-7df1-427e-b8c1-e1ab73eefbab","system_id":"levelo_inurba_marseille","lat":43.231919,"lon":5.355532,"is_reserved":false,"is_disabled":false,"rental_uris":{"android":"levelo://app?vid=97acb7ff-7df1-427e-b8c1-e1ab73eefbab","ios":"levelo://app?vid=97acb7ff-7df1-427e-b8c1-e1ab73eefbab"},"vehicle_type_id":"4","last_reported":1701260010,"current_range_meters":28000,"station_id":"ce4bhu92rcd13ifvqi70","pricing_plan_id":"free"},{"bike_id":"256c9e11-077f-457f-ad62-e61fc6cd7edc","system_id":"levelo_inurba_marseille","lat":43.231919,"lon":5.355532,"is_reserved":false,"is_disabled":false,"rental_uris":{"android":"levelo://app?vid=256c9e11-077f-457f-ad62-e61fc6cd7edc","ios":"levelo://app?vid=256c9e11-077f-457f-ad62-e61fc6cd7edc"},"vehicle_type_id":"4","last_reported":1701260010,"current_range_meters":31200,"station_id":"ce4bhu92rcd13ifvqi70","pricing_plan_id":"free"},{"bike_id":"186d6066-9e0c-4888-a302-fc806fc65b4c","system_id":"levelo_inurba_marseille","lat":43.231919,"lon":5.355532,"is_reserved":false,"is_disabled":false,"rental_uris":{"android":"levelo://app?vid=186d6066-9e0c-4888-a302-fc806fc65b4c","ios":"levelo://app?vid=186d6066-9e0c-4888-a302-fc806fc65b4c"},"vehicle_type_id":"4","last_reported":1701260010,"current_range_meters":21600,"station_id":"ce4bhu92rcd13ifvqi70","pricing_plan_id":"free"},{"bike_id":"6a15bd61-65f5-44c0-9706-42eeb78c349c","system_id":"levelo_inurba_marseille","lat":43.231919,"lon":5.355532,"is_reserved":false,"is_disabled":false,"rental_uris":{"android":"levelo://app?vid=6a15bd61-65f5-44c0-9706-42eeb78c349c","ios":"levelo://app?vid=6a15bd61-65f5-44c0-9706-42eeb78c349c"},"vehicle_type_id":"4","last_reported":1701260010,"current_range_meters":29600,"station_id":"ce4bhu92rcd13ifvqi70","pricing_plan_id":"free"},{"bike_id":"aa92b96d-64d8-4c3b-a126-5fd9d905cd28","system_id":"levelo_inurba_marseille","lat":43.231793,"lon":5.400044,"is_reserved":false,"is_disabled":false,"rental_uris":{"android":"levelo://app?vid=aa92b96d-64d8-4c3b-a126-5fd9d905cd28","ios":"levelo://app?vid=aa92b96d-64d8-4c3b-a126-5fd9d905cd28"},"vehicle_type_id":"4","last_reported":1701260010,"current_range_meters":4800,"station_id":"ce4bhn12rcd13ifvqgqg","pricing_plan_id":"free"},{"bike_id":"017c7298-0a0b-4b52-accd-1cfa244cac68","system_id":"levelo_inurba_marseille","lat":43.231793,"lon":5.400044,"is_reserved":false,"is_disabled":false,"rental_uris":{"android":"levelo://app?vid=017c7298-0a0b-4b52-accd-1cfa244cac68","ios":"levelo://app?vid=017c7298-0a0b-4b52-accd-1cfa244cac68"},"vehicle_type_id":"4","last_reported":1701260010,"current_range_meters":12400,"station_id":"ce4bhn12rcd13ifvqgqg","pricing_plan_id":"free"},{"bike_id":"cec0d244-46a0-4733-9a0e-6f3fa7fa46b0","system_id":"levelo_inurba_marseille","lat":43.23192,"lon":5.39991,"is_reserved":false,"is_disabled":false,"rental_uris":{"android":"levelo://app?vid=cec0d244-46a0-4733-9a0e-6f3fa7fa46b0","ios":"levelo://app?vid=cec0d244-46a0-4733-9a0e-6f3fa7fa46b0"},"vehicle_type_id":"4","last_reported":1701260010,"current_range_meters":18000,"station_id":"ce4bhn12rcd13ifvqgqg","pricing_plan_id":"free"},{"bike_id":"5ff69d94-d30d-4933-b4e8-987244e54aa0","system_id":"levelo_inurba_marseille","lat":43.231793,"lon":5.400044,"is_reserved":false,"is_disabled":false,"rental_uris":{"android":"levelo://app?vid=5ff69d94-d30d-4933-b4e8-987244e54aa0","ios":"levelo://app?vid=5ff69d94-d30d-4933-b4e8-987244e54aa0"},"vehicle_type_id":"4","last_reported":1701260010,"current_range_meters":10400,"station_id":"ce4bhn12rcd13ifvqgqg","pricing_plan_id":"free"},{"bike_id":"5c24af45-4ee2-4093-93e4-b4426fd403c2","system_id":"levelo_inurba_marseille","lat":43.231794,"lon":5.400052,"is_reserved":false,"is_disabled":false,"rental_uris":{"android":"levelo://app?vid=5c24af45-4ee2-4093-93e4-b4426fd403c2","ios":"levelo://app?vid=5c24af45-4ee2-4093-93e4-b4426fd403c2"},"vehicle_type_id":"4","last_reported":1701260010,"current_range_meters":28800,"station_id":"ce4bhn12rcd13ifvqgqg","pricing_plan_id":"free"},{"bike_id":"c0c7fee1-5737-446f-a765-fa607e9e3e85","system_id":"levelo_inurba_marseille","lat":43.231793,"lon":5.400044,"is_reserved":false,"is_disabled":false,"rental_uris":{"android":"levelo://app?vid=c0c7fee1-5737-446f-a765-fa607e9e3e85","ios":"levelo://app?vid=c0c7fee1-5737-446f-a765-fa607e9e3e85"},"vehicle_type_id":"4","last_reported":1701260010,"current_range_meters":21200,"station_id":"ce4bhn12rcd13ifvqgqg","pricing_plan_id":"free"},{"bike_id":"13b9fc9b-b75d-4572-bdcb-ccbfbdf86053","system_id":"levelo_inurba_marseille","lat":43.23188,"lon":5.39982,"is_reserved":false,"is_disabled":false,"rental_uris":{"android":"levelo://app?vid=13b9fc9b-b75d-4572-bdcb-ccbfbdf86053","ios":"levelo://app?vid=13b9fc9b-b75d-4572-bdcb-ccbfbdf86053"},"vehicle_type_id":"4","last_reported":1701260010,"current_range_meters":16800,"station_id":"ce4bhn12rcd13ifvqgqg","pricing_plan_id":"free"},{"bike_id":"bf302e61-4f67-454e-a18b-ae01c9d54d0c","system_id":"levelo_inurba_marseille","lat":43.231793,"lon":5.400044,"is_reserved":false,"is_disabled":false,"rental_uris":{"android":"levelo://app?vid=bf302e61-4f67-454e-a18b-ae01c9d54d0c","ios":"levelo://app?vid=bf302e61-4f67-454e-a18b-ae01c9d54d0c"},"vehicle_type_id":"4","last_reported":1701260010,"current_range_meters":21200,"station_id":"ce4bhn12rcd13ifvqgqg","pricing_plan_id":"free"},{"bike_id":"5ff68776-d431-4895-866c-f190f6faec3c","system_id":"levelo_inurba_marseille","lat":43.231793,"lon":5.400044,"is_reserved":false,"is_disabled":false,"rental_uris":{"android":"levelo://app?vid=5ff68776-d431-4895-866c-f190f6faec3c","ios":"levelo://app?vid=5ff68776-d431-4895-866c-f190f6faec3c"},"vehicle_type_id":"4","last_reported":1701260010,"current_range_meters":31600,"station_id":"ce4bhn12rcd13ifvqgqg","pricing_plan_id":"free"},{"bike_id":"4c237336-21e8-4e0a-9616-9e2641a26769","system_id":"levelo_inurba_marseille","lat":43.231793,"lon":5.400044,"is_reserved":false,"is_disabled":false,"rental_uris":{"android":"levelo://app?vid=4c237336-21e8-4e0a-9616-9e2641a26769","ios":"levelo://app?vid=4c237336-21e8-4e0a-9616-9e2641a26769"},"vehicle_type_id":"4","last_reported":1701260010,"current_range_meters":11200,"station_id":"ce4bhn12rcd13ifvqgqg","pricing_plan_id":"free"},{"bike_id":"5aaac2be-844c-4cf3-8da3-46c7e8da8247","system_id":"levelo_inurba_marseille","lat":43.231793,"lon":5.400044,"is_reserved":false,"is_disabled":false,"rental_uris":{"android":"levelo://app?vid=5aaac2be-844c-4cf3-8da3-46c7e8da8247","ios":"levelo://app?vid=5aaac2be-844c-4cf3-8da3-46c7e8da8247"},"vehicle_type_id":"4","last_reported":1701260010,"current_range_meters":11200,"station_id":"ce4bhn12rcd13ifvqgqg","pricing_plan_id":"free"},{"bike_id":"06853db6-aa55-4d29-9d8f-a856bd2de594","system_id":"levelo_inurba_marseille","lat":43.231793,"lon":5.400044,"is_reserved":false,"is_disabled":false,"rental_uris":{"android":"levelo://app?vid=06853db6-aa55-4d29-9d8f-a856bd2de594","ios":"levelo://app?vid=06853db6-aa55-4d29-9d8f-a856bd2de594"},"vehicle_type_id":"4","last_reported":1701260010,"current_range_meters":26400,"station_id":"ce4bhn12rcd13ifvqgqg","pricing_plan_id":"free"},{"bike_id":"5fbcbdf1-22d7-4329-847c-3b17d84d1ba1","system_id":"levelo_inurba_marseille","lat":43.23181,"lon":5.39996,"is_reserved":false,"is_disabled":false,"rental_uris":{"android":"levelo://app?vid=5fbcbdf1-22d7-4329-847c-3b17d84d1ba1","ios":"levelo://app?vid=5fbcbdf1-22d7-4329-847c-3b17d84d1ba1"},"vehicle_type_id":"4","last_reported":1701260010,"current_range_meters":6000,"station_id":"ce4bhn12rcd13ifvqgqg","pricing_plan_id":"free"},{"bike_id":"74d1d08c-6d03-46b8-8ecb-cd593a103249","system_id":"levelo_inurba_marseille","lat":43.23153,"lon":5.43687,"is_reserved":false,"is_disabled":false,"rental_uris":{"android":"levelo://app?vid=74d1d08c-6d03-46b8-8ecb-cd593a103249","ios":"levelo://app?vid=74d1d08c-6d03-46b8-8ecb-cd593a103249"},"vehicle_type_id":"4","last_reported":1701260010,"current_range_meters":14800,"station_id":"ce4bhmp2rcd13ifvqgog","pricing_plan_id":"free"},