{"last_updated":1743592094,"ttl":60,"version":"2.2","data":{"bikes":[{"bike_id":"a9173dc8-e1fb-4a14-aecf-5d7d773b8631","system_id":"levelo_inurba_marseille","lat":43.30935,"lon":5.40142,"is_reserved":false,"is_disabled":false,"rental_uris":{"android":"levelo://app?vid=a9173dc8-e1fb-4a14-aecf-5d7d773b8631","ios":"levelo://app?vid=a9173dc8-e1fb-4a14-aecf-5d7d773b8631"},"vehicle_type_id":"4","last_reported":1743592094,"current_range_meters":2800,"station_id":"ce4bgvp2rcd13ifvqct0","pricing_plan_id":"cebpf4jnsgd1na2vs0mg"},{"bike_id":"9e435211-a258-4525-a714-1a57c57f2789","system_id":"levelo_inurba_marseille","lat":43.287,"lon":5.38659,"is_reserved":false,"is_disabled":false,"rental_uris":{"android":"levelo://app?vid=9e435211-a258-4525-a714-1a57c57f2789","ios":"levelo://app?vid=9e435211-a258-4525-a714-1a57c57f2789"},"vehicle_type_id":"4","last_reported":1743592094,"current_range_meters":3200,"station_id":"ce4bh492rcd13ifvqdug","pricing_plan_id":"cebpf4jnsgd1na2vs0mg"},{"bike_id":"84b2c77f-8643-4320-9616-99931a5264bb","system_id":"levelo_inurba_marseille","lat":43.29213,"lon":5.3606,"is_reserved":false,"is_disabled":false,"rental_uris":{"android":"levelo://app?vid=84b2c77f-8643-4320-9616-99931a5264bb","ios":"levelo://app?vid=84b2c77f-8643-4320-9616-99931a5264bb"},"vehicle_type_id":"4","last_reported":1743592094,"current_range_meters":3200,"station_id":"ce4bhbh2rcd13ifvqeqg","pricing_plan_id":"cebpf4jnsgd1na2vs0mg"},{"bike_id":"2557efa6-1763-4de6-882f-d84e983434f4","system_id":"levelo_inurba_marseille","lat":43.29508,"lon":5.39043,"is_reserved":false,"is_disabled":false,"rental_uris":{"android":"levelo://app?vid=2557efa6-1763-4de6-882f-d84e983434f4","ios":"levelo://app?vid=2557efa6-1763-4de6-882f-d84e983434f4"},"vehicle_type_id":"4","last_reported":1743592094,"current_range_meters":3200,"station_id":"ce4bh3p2rcd13ifvqdp0","pricing_plan_id":"cebpf4jnsgd1na2vs0mg"},{"bike_id":"715d20a8-f2ee-4673-93f6-4038c7e1075e","system_id":"levelo_inurba_marseille","lat":43.29538,"lon":5.37513,"is_reserved":false,"is_disabled":false,"rental_uris":{"android":"levelo://app?vid=715d20a8-f2ee-4673-93f6-4038c7e1075e","ios":"levelo://app?vid=715d20a8-f2ee-4673-93f6-4038c7e1075e"},"vehicle_type_id":"4","last_reported":1743592094,"current_range_meters":3600,"station_id":"ce4bgkp2rcd13ifvqbmg","pricing_plan_id":"cebpf4jnsgd1na2vs0mg"},{"bike_id":"bcb97213-2abd-4a56-a558-9d6212242139","system_id":"levelo_inurba_marseille","lat":43.30976,"lon":5.39267,"is_reserved":false,"is_disabled":false,"rental_uris":{"android":"levelo://app?vid=bcb97213-2abd-4a56-a558-9d6212242139","ios":"levelo://app?vid=bcb97213-2abd-4a56-a558-9d6212242139"},"vehicle_type_id":"4","last_reported":1743592094,"current_range_meters":3600,"station_id":"ce4bgup2rcd13ifvqco0","pricing_plan_id":"cebpf4jnsgd1na2vs0mg"},{"bike_id":"a64585e4-7c14-461e-aa0d-231136308313","system_id":"levelo_inurba_marseille","lat":43.28479,"lon":5.38547,"is_reserved":false,"is_disabled":false,"rental_uris":{"android":"levelo://app?vid=a64585e4-7c14-461e-aa0d-231136308313","ios":"levelo://app?vid=a64585e4-7c14-461e-aa0d-231136308313"},"vehicle_type_id":"4","last_reported":1743592094,"current_range_meters":3600,"station_id":"ce4bh8p2rcd13ifvqeb0","pricing_plan_id":"cebpf4jnsgd1na2vs0mg"},{"bike_id":"2e50f0d5-01d1-4efb-be90-3bc4b64d1bb9","system_id":"levelo_inurba_marseille","lat":43.29199,"lon":5.35807,"is_reserved":false,"is_disabled":false,"rental_uris":{"android":"levelo://app?vid=2e50f0d5-01d1-4efb-be90-3bc4b64d1bb9","ios":"levelo://app?vid=2e50f0d5-01d1-4efb-be90-3bc4b64d1bb9"},"vehicle_type_id":"4","last_reported":1743592094,"current_range_meters":3200,"station_id":"ce4bhb12rcd13ifvqel0","pricing_plan_id":"cebpf4jnsgd1na2vs0mg"},{"bike_id":"e12e2ac9-9429-43c5-a605-5e3099ffbcbb","system_id":"levelo_inurba_marseille","lat":43.28423,"lon":5.39198,"is_reserved":false,"is_disabled":false,"rental_uris":{"android":"levelo://app?vid=e12e2ac9-9429-43c5-a605-5e3099ffbcbb","ios":"levelo://app?vid=e12e2ac9-9429-43c5-a605-5e3099ffbcbb"},"vehicle_type_id":"4","last_reported":1743592094,"current_range_meters":4000,"station_id":"ce4bhoh2rcd13ifvqh5g","pricing_plan_id":"cebpf4jnsgd1na2vs0mg"},{"bike_id":"7018c222-b3c9-40cc-b215-7f60e9031f8b","system_id":"levelo_inurba_marseille","lat":43.23151,"lon":5.437,"is_reserved":false,"is_disabled":false,"rental_uris":{"android":"levelo://app?vid=7018c222-b3c9-40cc-b215-7f60e9031f8b","ios":"levelo://app?vid=7018c222-b3c9-40cc-b215-7f60e9031f8b"},"vehicle_type_id":"4","last_reported":1743592094,"current_range_meters":4000,"station_id":"ce4bhmp2rcd13ifvqgog","pricing_plan_id":"cebpf4jnsgd1na2vs0mg"},{"bike_id":"4ad73676-975d-4eb4-8ab0-34916f3a4594","system_id":"levelo_inurba_marseille","lat":43.30662,"lon":5.37144,"is_reserved":false,"is_disabled":false,"rental_uris":{"android":"levelo://app?vid=4ad73676-975d-4eb4-8ab0-34916f3a4594","ios":"levelo://app?vid=4ad73676-975d-4eb4-8ab0-34916f3a4594"},"vehicle_type_id":"4","last_reported":1743592094,"current_range_meters":4000,"station_id":"","pricing_plan_id":"cebpf4jnsgd1na2vs0mg"},{"bike_id":"d1f53fc6-de2d-4421-9986-eb07ec1dac95","system_id":"levelo_inurba_marseille","lat":43.31366,"lon":5.38507,"is_reserved":false,"is_disabled":false,"rental_uris":{"android":"levelo://app?vid=d1f53fc6-de2d-4421-9986-eb07ec1dac95","ios":"levelo://app?vid=d1f53fc6-de2d-4421-9986-eb07ec1dac95"},"vehicle_type_id":"4","last_reported":1743592094,"current_range_meters":4000,"station_id":"ce4bgt92rcd13ifvqcf0","pricing_plan_id":"cebpf4jnsgd1na2vs0mg"},{"bike_id":"d662608d-504d-43ae-8d4a-6ba237d6c000","system_id":"levelo_inurba_marseille","lat":43.27916,"lon":5.38397,"is_reserved":false,"is_disabled":false,"rental_uris":{"android":"levelo://app?vid=d662608d-504d-43ae-8d4a-6ba237d6c000","ios":"levelo://app?vid=d662608d-504d-43ae-8d4a-6ba237d6c000"},"vehicle_type_id":"4","last_reported":1743592094,"current_range_meters":4000,"station_id":"","pricing_plan_id":"cebpf4jnsgd1na2vs0mg"},{"bike_id":"62080af5-f75b-4b9a-8632-eb87a91e2f39","system_id":"levelo_inurba_marseille","lat":43.27189,"lon":5.40988,"is_reserved":false,"is_disabled":false,"rental_uris":{"android":"levelo://app?vid=62080af5-f75b-4b9a-8632-eb87a91e2f39","ios":"levelo://app?vid=62080af5-f75b-4b9a-8632-eb87a91e2f39"},"vehicle_type_id":"4","last_reported":1743592094,"current_range_meters":4400,"station_id":"ce4bhl12rcd13ifvqgf0","pricing_plan_id":"cebpf4jnsgd1na2vs0mg"},{"bike_id":"90dea677-fbfa-4b64-bbc2-375fd2bfb68d","system_id":"levelo_inurba_marseille","lat":43.30634,"lon":5.40098,"is_reserved":false,"is_disabled":false,"rental_uris":{"android":"levelo://app?vid=90dea677-fbfa-4b64-bbc2-375fd2bfb68d","ios":"levelo://app?vid=90dea677-fbfa-4b64-bbc2-375fd2bfb68d"},"vehicle_type_id":"4","last_reported":1743592094,"current_range_meters":4400,"station_id":"ce4bh112rcd13ifvqda0","pricing_plan_id":"cebpf4jnsgd1na2vs0mg"},{"bike_id":"c9e9591a-dae2-4ede-ae0b-3ccd694fa4f0","system_id":"levelo_inurba_marseille","lat":43.30149,"lon":5.38068,"is_reserved":false,"is_disabled":false,"rental_uris":{"android":"levelo://app?vid=c9e9591a-dae2-4ede-ae0b-3ccd694fa4f0","ios":"levelo://app?vid=c9e9591a-dae2-4ede-ae0b-3ccd694fa4f0"},"vehicle_type_id":"4","last_reported":1743592094,"current_range_meters":4800,"station_id":"ce4bgjp2rcd13ifvqbh0","pricing_plan_id":"cebpf4jnsgd1na2vs0mg"},{"bike_id":"67743100-2ec3-4b74-82cd-54e3bf324f08","system_id":"levelo_inurba_marseille","lat":43.27955,"lon":5.41036,"is_reserved":false,"is_disabled":false,"rental_uris":{"android":"levelo://app?vid=67743100-2ec3-4b74-82cd-54e3bf324f08","ios":"levelo://app?vid=67743100-2ec3-4b74-82cd-54e3bf324f08"},"vehicle_type_id":"4","last_reported":1743592094,"current_range_meters":4800,"station_id":"ce4bhnp2rcd13ifvqh0g","pricing_plan_id":"cebpf4jnsgd1na2vs0mg"},{"bike_id":"0df55652-f264-4ef4-b9f4-ccadd0b763fe","system_id":"levelo_inurba_marseille","lat":43.30529,"lon":5.36537,"is_reserved":false,"is_disabled":false,"rental_uris":{"android":"levelo://app?vid=0df55652-f264-4ef4-b9f4-ccadd0b763fe","ios":"levelo://app?vid=0df55652-f264-4ef4-b9f4-ccadd0b763fe"},"vehicle_type_id":"4","last_reported":1743592094,"current_range_meters":4800,"station_id":"ce4bgs12rcd13ifvqcag","pricing_plan_id":"cebpf4jnsgd1na2vs0mg"},{"bike_id":"da5f6550-d619-41b5-b690-9228100ad46a","system_id":"levelo_inurba_marseille","lat":43.32541,"lon":5.41431,"is_reserved":false,"is_disabled":false,"rental_uris":{"android":"levelo://app?vid=da5f6550-d619-41b5-b690-9228100ad46a","ios":"levelo://app?vid=da5f6550-d619-41b5-b690-9228100ad46a"},"vehicle_type_id":"4","last_reported":1743592094,"current_range_meters":5600,"station_id":"ce4bhq12rcd13ifvqhhg","pricing_plan_id":"cebpf4jnsgd1na2vs0mg"},{"bike_id":"fef1d547-feef-4239-90b2-e0f3b60672f8","system_id":"levelo_inurba_marseille","lat":43.29583,"lon":5.39965,"is_reserved":false,"is_disabled":false,"rental_uris":{"android":"levelo://app?vid=fef1d547-feef-4239-90b2-e0f3b60672f8","ios":"levelo://app?vid=fef1d547-feef-4239-90b2-e0f3b60672f8"},"vehicle_type_id":"4","last_reported":1743592094,"current_range_meters":5600,"station_id":"ce4bh312rcd13ifvqdj0","pricing_plan_id":"cebpf4jnsgd1na2vs0mg"},{"bike_id":"f12a2633-3956-4783-9f4a-f45abb56025c","system_id":"levelo_inurba_marseille","lat":43.31232,"lon":5.36882,"is_reserved":false,"is_disabled":false,"rental_uris":{"android":"levelo://app?vid=f12a2633-3956-4783-9f4a-f45abb56025c","ios":"levelo://app?vid=f12a2633-3956-4783-9f4a-f45abb56025c"},"vehicle_type_id":"4","last_reported":1743592094,"current_range_meters":5600,"station_id":"ce4bgl92rcd13ifvqbq0","pricing_plan_id":"cebpf4jnsgd1na2vs0mg"},{"bike_id":"9a26cb04-c815-401c-8be1-7cee632a8aeb","system_id":"levelo_inurba_marseille","lat":43.29259,"lon":5.36868,"is_reserved":false,"is_disabled":false,"rental_uris":{"android":"levelo://app?vid=9a26cb04-c815-401c-8be1-7cee632a8aeb","ios":"levelo://app?vid=9a26cb04-c815-401c-8be1-7cee632a8aeb"},"vehicle_type_id":"4","last_reported":1743592094,"current_range_meters":5600,"station_id":"ce4bhbp2rcd13ifvqesg","pricing_plan_id":"cebpf4jnsgd1na2vs0mg"},{"bike_id":"e72967af-6b08-4c57-835e-72e327201e4b","system_id":"levelo_inurba_marseille","lat":43.2317,"lon":5.39999,"is_reserved":false,"is_disabled":false,"rental_uris":{"android":"levelo://app?vid=e72967af-6b08-4c57-835e-72e327201e4b","ios":"levelo://app?vid=e72967af-6b08-4c57-835e-72e327201e4b"},"vehicle_type_id":"4","last_reported":1743592094,"current_range_meters":6000,"station_id":"ce4bhn12rcd13ifvqgqg","pricing_plan_id":"cebpf4jnsgd1na2vs0mg"},{"bike_id":"d10bd936-2fca-4607-82d0-6e154162cbfd","system_id":"levelo_inurba_marseille","lat":43.30888,"lon":5.39635,"is_reserved":false,"is_disabled":true,"rental_uris":{"android":"levelo://app?vid=d10bd936-2fca-4607-82d0-6e154162cbfd","ios":"levelo://app?vid=d10bd936-2fca-4607-82d0-6e154162cbfd"},"vehicle_type_id":"4","last_reported":1743592094,"current_range_meters":6000,"station_id":"ce4bh012rcd13ifvqcv0","pricing_plan_id":"cebpf4jnsgd1na2vs0mg"},{"bike_id":"d57201a9-9197-48ab-b902-c52b8c698435","system_id":"levelo_inurba_marseille","lat":43.286499,"lon":5.36354,"is_reserved":false,"is_disabled":false,"rental_uris":{"android":"levelo://app?vid=d57201a9-9197-48ab-b902-c52b8c698435","ios":"levelo://app?vid=d57201a9-9197-48ab-b902-c52b8c698435"},"vehicle_type_id":"4","last_reported":1743592094,"current_range_meters":6000,"station_id":"ce4bhah2rcd13ifvqei0","pricing_plan_id":"cebpf4jnsgd1na2vs0mg"},{"bike_id":"e0c939a2-6146-4c67-bb8b-efd026343c42","system_id":"levelo_inurba_marseille","lat":43.316939,"lon":5.376347,"is_reserved":false,"is_disabled":false,"rental_uris":{"android":"levelo://app?vid=e0c939a2-6146-4c67-bb8b-efd026343c42","ios":"levelo://app?vid=e0c939a2-6146-4c67-bb8b-efd026343c42"},"vehicle_type_id":"4","last_reported":1743592094,"current_range_meters":6000,"station_id":"ce4bgth2rcd13ifvqch0","pricing_plan_id":"cebpf4jnsgd1na2vs0mg"},{"bike_id":"6b8f07b2-9cbe-40dd-b072-0e6cc570a2c0","system_id":"levelo_inurba_marseille","lat":43.28442,"lon":5.39206,"is_reserved":false,"is_disabled":false,"rental_uris":{"android":"levelo://app?vid=6b8f07b2-9cbe-40dd-b072-0e6cc570a2c0","ios":"levelo://app?vid=6b8f07b2-9cbe-40dd-b072-0e6cc570a2c0"},"vehicle_type_id":"4","last_reported":1743592094,"current_range_meters":6400,"station_id":"ce4bhoh2rcd13ifvqh5g","pricing_plan_id":"cebpf4jnsgd1na2vs0mg"},{"bike_id":"156b61ff-bc4f-42b8-b87c-dbd1ae23923e","system_id":"levelo_inurba_marseille","lat":43.29901,"lon":5.43674,"is_reserved":false,"is_disabled":false,"rental_uris":{"android":"levelo://app?vid=156b61ff-bc4f-42b8-b87c-dbd1ae23923e","ios":"levelo://app?vid=156b61ff-bc4f-42b8-b87c-dbd1ae23923e"},"vehicle_type_id":"4","last_reported":1743592094,"current_range_meters":6400,"station_id":"ce4bhpp2rcd13ifvqhfg","pricing_plan_id":"cebpf4jnsgd1na2vs0mg"},{"bike_id":"85b7488a-274e-4a57-a545-cd9b422c92bb","system_id":"levelo_inurba_marseille","lat":43.25927,"lon":5.40899,"is_reserved":false,"is_disabled":false,"rental_uris":{"android":"levelo://app?vid=85b7488a-274e-4a57-a545-cd9b422c92bb","ios":"levelo://app?vid=85b7488a-274e-4a57-a545-cd9b422c92bb"},"vehicle_type_id":"4","last_reported":1743592094,"current_range_meters":6400,"station_id":"ce4bhm92rcd13ifvqglg","pricing_plan_id":"cebpf4jnsgd1na2vs0mg"},{"bike_id":"74e62ae9-af67-420b-bb8a-65ca05aa7853","system_id":"levelo_inurba_marseille","lat":43.24551,"lon":5.39534,"is_reserved":false,"is_disabled":false,"rental_uris":{"android":"levelo://app?vid=74e62ae9-af67-420b-bb8a-65ca05aa7853","ios":"levelo://app?vid=74e62ae9-af67-420b-bb8a-65ca05aa7853"},"vehicle_type_id":"4","last_reported":1743592094,"current_range_meters":6400,"station_id":"ce4bhlp2rcd13ifvqgjg","pricing_plan_id":"cebpf4jnsgd1na2vs0mg"},{"bike_id":"1167d76f-0701-42ca-9566-e6b8288b4501","system_id":"levelo_inurba_marseille","lat":43.28278,"lon":5.37867,"is_reserved":false,"is_disabled":false,"rental_uris":{"android":"levelo://app?vid=1167d76f-0701-42ca-9566-e6b8288b4501","ios":"levelo://app?vid=1167d76f-0701-42ca-9566-e6b8288b4501"},"vehicle_type_id":"4","last_reported":1743592094,"current_range_meters":6400,"station_id":"","pricing_plan_id":"cebpf4jnsgd1na2vs0mg"},{"bike_id":"c128a6f0-e70d-4235-8f2a-e7ba5ef44f16","system_id":"levelo_inurba_marseille","lat":43.25723,"lon":5.41113,"is_reserved":false,"is_disabled":false,"rental_uris":{"android":"levelo://app?vid=c128a6f0-e70d-4235-8f2a-e7ba5ef44f16","ios":"levelo://app?vid=c128a6f0-e70d-4235-8f2a-e7ba5ef44f16"},"vehicle_type_id":"4","last_reported":1743592094,"current_range_meters":6400,"station_id":"ce4bhkp2rcd13ifvqgd0","pricing_plan_id":"cebpf4jnsgd1na2vs0mg"},{"bike_id":"577b084d-71c0-4e6e-b3d2-57cb9bf5c9c2","system_id":"levelo_inurba_marseille","lat":43.25958,"lon":5.40882,"is_reserved":false,"is_disabled":false,"rental_uris":{"android":"levelo://app?vid=577b084d-71c0-4e6e-b3d2-57cb9bf5c9c2","ios":"levelo://app?vid=577b084d-71c0-4e6e-b3d2-57cb9bf5c9c2"},"vehicle_type_id":"4","last_reported":1743592094,"current_range_meters":6400,"station_id":"ce4bhm92rcd13ifvqglg","pricing_plan_id":"cebpf4jnsgd1na2vs0mg"},{"bike_id":"7549bd43-15b2-4001-a4c7-d590c7fffdef","system_id":"levelo_inurba_marseille","lat":43.32121,"lon":5.3677,"is_reserved":false,"is_disabled":false,"rental_uris":{"android":"levelo://app?vid=7549bd43-15b2-4001-a4c7-d590c7fffdef","ios":"levelo://app?vid=7549bd43-15b2-4001-a4c7-d590c7fffdef"},"vehicle_type_id":"4","last_reported":1743592094,"current_range_meters":6400,"station_id":"ce4bhrh2rcd13ifvqhug","pricing_plan_id":"cebpf4jnsgd1na2vs0mg"},{"bike_id":"c1e04adf-69e3-4334-ad35-19206055194f","system_id":"levelo_inurba_marseille","lat":43.27837,"lon":5.39211,"is_reserved":false,"is_disabled":false,"rental_uris":{"android":"levelo://app?vid=c1e04adf-69e3-4334-ad35-19206055194f","ios":"levelo://app?vid=c1e04adf-69e3-4334-ad35-19206055194f"},"vehicle_type_id":"4","last_reported":1743592094,"current_range_meters":6400,"station_id":"ce4bhjp2rcd13ifvqga0","pricing_plan_id":"cebpf4jnsgd1na2vs0mg"},{"bike_id":"c6c438e8-d3ab-4770-968b-7a1a93e8a8c6","system_id":"levelo_inurba_marseille","lat":43.28881,"lon":5.45866,"is_reserved":false,"is_disabled":false,"rental_uris":{"android":"levelo://app?vid=c6c438e8-d3ab-4770-968b-7a1a93e8a8c6","ios":"levelo://app?vid=c6c438e8-d3ab-4770-968b-7a1a93e8a8c6"},"vehicle_type_id":"4","last_reported":1743592094,"current_range_meters":6400,"station_id":"","pricing_plan_id":"cebpf4jnsgd1na2vs0mg"},{"bike_id":"f3f27836-f31b-4e8a-bf32-a3d953c83f77","system_id":"levelo_inurba_marseille","lat":43.27672,"lon":5.38898,"is_reserved":false,"is_disabled":false,"rental_uris":{"android":"levelo://app?vid=f3f27836-f31b-4e8a-bf32-a3d953c83f77","ios":"levelo://app?vid=f3f27836-f31b-4e8a-bf32-a3d953c83f77"},"vehicle_type_id":"4","last_reported":1743592094,"current_range_meters":6400,"station_id":"ce4bhi12rcd13ifvqfo0","pricing_plan_id":"cebpf4jnsgd1na2vs0mg"},{"bike_id":"4c237f3d-e3d4-4dd3-9140-3f7833fc7b28","system_id":"levelo_inurba_marseille","lat":43.26552,"lon":5.37287,"is_reserved":false,"is_disabled":false,"rental_uris":{"android":"levelo://app?vid=4c237f3d-e3d4-4dd3-9140-3f7833fc7b28","ios":"levelo://app?vid=4c237f3d-e3d4-4dd3-9140-3f7833fc7b28"},"vehicle_type_id":"4","last_reported":1743592094,"current_range_meters":6800,"station_id":"ce4bhg12rcd13ifvqf70","pricing_plan_id":"cebpf4jnsgd1na2vs0mg"},{"bike_id":"721bcc92-6b82-4aac-988d-3c86699ef60a","system_id":"levelo_inurba_marseille","lat":43.27844,"lon":5.39208,"is_reserved":false,"is_disabled":true,"rental_uris":{"android":"levelo://app?vid=721bcc92-6b82-4aac-988d-3c86699ef60a","ios":"levelo://app?vid=721bcc92-6b82-4aac-988d-3c86699ef60a"},"vehicle_type_id":"4","last_reported":1743592094,"current_range_meters":6800,"station_id":"ce4bhjp2rcd13ifvqga0","pricing_plan_id":"cebpf4jnsgd1na2vs0mg"},{"bike_id":"46e5321f-1f0e-476d-9557-3a470246f9d4","system_id":"levelo_inurba_marseille","lat":43.2317,"lon":5.43694,"is_reserved":false,"is_disabled":false,"rental_uris":{"android":"levelo://app?vid=46e5321f-1f0e-476d-9557-3a470246f9d4","ios":"levelo://app?vid=46e5321f-1f0e-476d-9557-3a470246f9d4"},"vehicle_type_id":"4","last_reported":1743592094,"current_range_meters":6800,"station_id":"ce4bhmp2rcd13ifvqgog","pricing_plan_id":"cebpf4jnsgd1na2vs0mg"},{"bike_id":"a2fe2217-cbee-4b94-a5ca-4693c6d37d46","system_id":"levelo_inurba_marseille","lat":43.30282,"lon":5.37693,"is_reserved":false,"is_disabled":false,"rental_uris":{"android":"levelo://app?vid=a2fe2217-cbee-4b94-a5ca-4693c6d37d46","ios":"levelo://app?vid=a2fe2217-cbee-4b94-a5ca-4693c6d37d46"},"vehicle_type_id":"4","last_reported":1743592094,"current_range_meters":6800,"station_id":"ce4bguh2rcd13ifvqcj0","pricing_plan_id":"cebpf4jnsgd1na2vs0mg"},{"bike_id":"f21bf09d-3bc7-4d62-8caf-1ef1e1583525","system_id":"levelo_inurba_marseille","lat":43.30571,"lon":5.36519,"is_reserved":false,"is_disabled":false,"rental_uris":{"android":"levelo://app?vid=f21bf09d-3bc7-4d62-8caf-1ef1e1583525","ios":"levelo://app?vid=f21bf09d-3bc7-4d62-8caf-1ef1e1583525"},"vehicle_type_id":"4","last_reported":1743592094,"current_range_meters":6800,"station_id":"ce4bgs12rcd13ifvqcag","pricing_plan_id":"cebpf4jnsgd1na2vs0mg"},{"bike_id":"66a6759f-f104-404f-ba35-7dd5d87e6d0b","system_id":"levelo_inurba_marseille","lat":43.30152,"lon":5.37675,"is_reserved":false,"is_disabled":false,"rental_uris":{"android":"levelo://app?vid=66a6759f-f104-404f-ba35-7dd5d87e6d0b","ios":"levelo://app?vid=66a6759f-f104-404f-ba35-7dd5d87e6d0b"},"vehicle_type_id":"4","last_reported":1743592094,"current_range_meters":6800,"station_id":"","pricing_plan_id":"cebpf4jnsgd1na2vs0mg"},{"bike_id":"4ee7756c-05ce-46a9-99e2-04518a0d16b9","system_id":"levelo_inurba_marseille","lat":43.30312,"lon":5.369,"is_reserved":false,"is_disabled":false,"rental_uris":{"android":"levelo://app?vid=4ee7756c-05ce-46a9-99e2-04518a0d16b9","ios":"levelo://app?vid=4ee7756c-05ce-46a9-99e2-04518a0d16b9"},"vehicle_type_id":"4","last_reported":1743592094,"current_range_meters":6800,"station_id":"ce4bgqh2rcd13ifvqc5g","pricing_plan_id":"cebpf4jnsgd1na2vs0mg"},{"bike_id":"ac16ffc6-6a21-49ed-a3ed-bfc6c9e2a97f","system_id":"levelo_inurba_marseille","lat":43.25119,"lon":5.40325,"is_reserved":false,"is_disabled":false,"rental_uris":{"android":"levelo://app?vid=ac16ffc6-6a21-49ed-a3ed-bfc6c9e2a97f","ios":"levelo://app?vid=ac16ffc6-6a21-49ed-a3ed-bfc6c9e2a97f"},"vehicle_type_id":"4","last_reported":1743592094,"current_range_meters":7200,"station_id":"ce4bhlh2rcd13ifvqgig","pricing_plan_id":"cebpf4jnsgd1na2vs0mg"},{"bike_id":"e91ccd98-d8cd-461b-a712-ec36cdb170bf","system_id":"levelo_inurba_marseille","lat":43.29965,"lon":5.3719,"is_reserved":false,"is_disabled":false,"rental_uris":{"android":"levelo://app?vid=e91ccd98-d8cd-461b-a712-ec36cdb170bf","ios":"levelo://app?vid=e91ccd98-d8cd-461b-a712-ec36cdb170bf"},"vehicle_type_id":"4","last_reported":1743592094,"current_range_meters":6800,"station_id":"ce4bgr92rcd13ifvqc7g","pricing_plan_id":"cebpf4jnsgd1na2vs0mg"},{"bike_id":"5ef6b633-cf2f-42de-995a-43dea0a55a29","system_id":"levelo_inurba_marseille","lat":43.32115,"lon":5.36768,"is_reserved":false,"is_disabled":false,"rental_uris":{"android":"levelo://app?vid=5ef6b633-cf2f-42de-995a-43dea0a55a29","ios":"levelo://app?vid=5ef6b633-cf2f-42de-995a-43dea0a55a29"},"vehicle_type_id":"4","last_reported":1743592094,"current_range_meters":7200,"station_id":"ce4bhrh2rcd13ifvqhug","pricing_plan_id":"cebpf4jnsgd1na2vs0mg"},{"bike_id":"4549d7aa-0373-4f1c-bf2b-cfb202eb71cc","system_id":"levelo_inurba_marseille","lat":43.3043,"lon":5.38894,"is_reserved":false,"is_disabled":false,"rental_uris":{"android":"levelo://app?vid=4549d7aa-0373-4f1c-bf2b-cfb202eb71cc","ios":"levelo://app?vid=4549d7aa-0373-4f1c-bf2b-cfb202eb71cc"},"vehicle_type_id":"4","last_reported":1743592094,"current_range_meters":7200,"station_id":"ce4bgk12rcd13ifvqbi0","pricing_plan_id":"cebpf4jnsgd1na2vs0mg"},{"bike_id":"0a8d07dd-db7d-4bd3-9059-559cb936ec18","system_id":"levelo_inurba_marseille","lat":43.331207,"lon":5.392298,"is_reserved":false,"is_disabled":false,"rental_uris":{"android":"levelo://app?vid=0a8d07dd-db7d-4bd3-9059-559cb936ec18","ios":"levelo://app?vid=0a8d07dd-db7d-4bd3-9059-559cb936ec18"},"vehicle_type_id":"4","last_reported":1743592094,"current_range_meters":7200,"station_id":"","pricing_plan_id":"cebpf4jnsgd1na2vs0mg"},{"bike_id":"a495ab47-72d1-4f9e-8b95-72d772792f33","system_id":"levelo_inurba_marseille","lat":43.304,"lon":5.3686,"is_reserved":false,"is_disabled":false,"rental_uris":{"android":"levelo://app?vid=a495ab47-72d1-4f9e-8b95-72d772792f33","ios":"levelo://app?vid=a495ab47-72d1-4f9e-8b95-72d772792f33"},"vehicle_type_id":"4","last_reported":1743592094,"current_range_meters":7200,"station_id":"","pricing_plan_id":"cebpf4jnsgd1na2vs0mg"},{"bike_id":"e47bc61d-df2d-41b3-b26b-dd94e6e5e301","system_id":"levelo_inurba_marseille","lat":43.26255,"lon":5.42146,"is_reserved":false,"is_disabled":false,"rental_uris":{"android":"levelo://app?vid=e47bc61d-df2d-41b3-b26b-dd94e6e5e301","ios":"levelo://app?vid=e47bc61d-df2d-41b3-b26b-dd94e6e5e301"},"vehicle_type_id":"4","last_reported":1743592094,"current_range_meters":7200,"station_id":"","pricing_plan_id":"cebpf4jnsgd1na2vs0mg"},{"bike_id":"93eb57be-6e76-46e4-a5ce-bf21001073ab","system_id":"levelo_inurba_marseille","lat":43.23146,"lon":5.4371,"is_reserved":false,"is_disabled":false,"rental_uris":{"android":"levelo://app?vid=93eb57be-6e76-46e4-a5ce-bf21001073ab","ios":"levelo://app?vid=93eb57be-6e76-46e4-a5ce-bf21001073ab"},"vehicle_type_id":"4","last_reported":1743592094,"current_range_meters":8000,"station_id":"ce4bhmp2rcd13ifvqgog","pricing_plan_id":"cebpf4jnsgd1na2vs0mg"},{"bike_id":"c0062b51-9ec6-4433-9342-4d5fb169bf0e","system_id":"levelo_inurba_marseille","lat":43.269415,"lon":5.389365,"is_reserved":false,"is_disabled":false,"rental_uris":{"android":"levelo://app?vid=c0062b51-9ec6-4433-9342-4d5fb169bf0e","ios":"levelo://app?vid=c0062b51-9ec6-4433-9342-4d5fb169bf0e"},"vehicle_type_id":"4","last_reported":1743592094,"current_range_meters":8000,"station_id":"ce4bhhh2rcd13ifvqfl0","pricing_plan_id":"cebpf4jnsgd1na2vs0mg"},{"bike_id":"704967b0-4590-4a5b-82d4-792e195a481a","system_id":"levelo_inurba_marseille","lat":43.26779,"lon":5.39413,"is_reserved":false,"is_disabled":false,"rental_uris":{"android":"levelo://app?vid=704967b0-4590-4a5b-82d4-792e195a481a","ios":"levelo://app?vid=704967b0-4590-4a5b-82d4-792e195a481a"},"vehicle_type_id":"4","last_reported":1743592094,"current_range_meters":8000,"station_id":"ce4bhh12rcd13ifvqfg0","pricing_plan_id":"cebpf4jnsgd1na2vs0mg"},{"bike_id":"4f1fb305-fdac-49af-98f8-e5ebaa4429a4","system_id":"levelo_inurba_marseille","lat":43.22941,"lon":5.35377,"is_reserved":false,"is_disabled":false,"rental_uris":{"android":"levelo://app?vid=4f1fb305-fdac-49af-98f8-e5ebaa4429a4","ios":"levelo://app?vid=4f1fb305-fdac-49af-98f8-e5ebaa4429a4"},"vehicle_type_id":"4","last_reported":1743592094,"current_range_meters":8000,"station_id":"cpo3532slgdg3j2ikp40","pricing_plan_id":"cebpf4jnsgd1na2vs0mg"},{"bike_id":"aa6b03c2-847e-4f01-a61a-41243a6acd75","system_id":"levelo_inurba_marseille","lat":43.31169,"lon":5.38719,"is_reserved":false,"is_disabled":false,"rental_uris":{"android":"levelo://app?vid=aa6b03c2-847e-4f01-a61a-41243a6acd75","ios":"levelo://app?vid=aa6b03c2-847e-4f01-a61a-41243a6acd75"},"vehicle_type_id":"4","last_reported":1743592094,"current_range_meters":8000,"station_id":"ce4bgv12rcd13ifvqcp0","pricing_plan_id":"cebpf4jnsgd1na2vs0mg"},{"bike_id":"7bdf0d60-3026-4723-ac07-ebb25b9cf79f","system_id":"levelo_inurba_marseille","lat":43.28789,"lon":5.3866,"is_reserved":false,"is_disabled":false,"rental_uris":{"android":"levelo://app?vid=7bdf0d60-3026-4723-ac07-ebb25b9cf79f","ios":"levelo://app?vid=7bdf0d60-3026-4723-ac07-ebb25b9cf79f"},"vehicle_type_id":"4","last_reported":1743592094,"current_range_meters":8000,"station_id":"","pricing_plan_id":"cebpf4jnsgd1na2vs0mg"},{"bike_id":"1d1fcf5b-c1ba-42a5-a64a-efa6d25fc73d","system_id":"levelo_inurba_marseille","lat":43.23147,"lon":5.43721,"is_reserved":false,"is_disabled":false,"rental_uris":{"android":"levelo://app?vid=1d1fcf5b-c1ba-42a5-a64a-efa6d25fc73d","ios":"levelo://app?vid=1d1fcf5b-c1ba-42a5-a64a-efa6d25fc73d"},"vehicle_type_id":"4","last_reported":1743592094,"current_range_meters":8000,"station_id":"ce4bhmp2rcd13ifvqgog","pricing_plan_id":"cebpf4jnsgd1na2vs0mg"},{"bike_id":"3e6243d1-ba41-49a7-8891-b09296288717","system_id":"levelo_inurba_marseille","lat":43.24184,"lon":5.39719,"is_reserved":false,"is_disabled":false,"rental_uris":{"android":"levelo://app?vid=3e6243d1-ba41-49a7-8891-b09296288717","ios":"levelo://app?vid=3e6243d1-ba41-49a7-8891-b09296288717"},"vehicle_type_id":"4","last_reported":1743592094,"current_range_meters":8000,"station_id":"ce4bhn12rcd13ifvqgpg","pricing_plan_id":"cebpf4jnsgd1na2vs0mg"},{"bike_id":"312ed70b-1ac3-481a-88c0-b0159fcd0caf","system_id":"levelo_inurba_marseille","lat":43.23153,"lon":5.4371,"is_reserved":false,"is_disabled":false,"rental_uris":{"android":"levelo://app?vid=312ed70b-1ac3-481a-88c0-b0159fcd0caf","ios":"levelo://app?vid=312ed70b-1ac3-481a-88c0-b0159fcd0caf"},"vehicle_type_id":"4","last_reported":1743592094,"current_range_meters":8000,"station_id":"ce4bhmp2rcd13ifvqgog","pricing_plan_id":"cebpf4jnsgd1na2vs0mg"},{"bike_id":"f06067fe-c409-49ce-b995-b28658dd37fb","system_id":"levelo_inurba_marseille","lat":43.28672,"lon":5.37396,"is_reserved":false,"is_disabled":true,"rental_uris":{"android":"levelo://app?vid=f06067fe-c409-49ce-b995-b28658dd37fb","ios":"levelo://app?vid=f06067fe-c409-49ce-b995-b28658dd37fb"},"vehicle_type_id":"4","last_reported":1743592094,"current_range_meters":8400,"station_id":"ce4bh3p2rcd13ifvqdq0","pricing_plan_id":"cebpf4jnsgd1na2vs0mg"},{"bike_id":"b9e292d9-d72b-4617-ac03-d5ae8b263a05","system_id":"levelo_inurba_marseille","lat":43.3015,"lon":5.38086,"is_reserved":false,"is_disabled":false,"rental_uris":{"android":"levelo://app?vid=b9e292d9-d72b-4617-ac03-d5ae8b263a05","ios":"levelo://app?vid=b9e292d9-d72b-4617-ac03-d5ae8b263a05"},"vehicle_type_id":"4","last_reported":1743592094,"current_range_meters":8400,"station_id":"ce4bgjp2rcd13ifvqbh0","pricing_plan_id":"cebpf4jnsgd1na2vs0mg"},{"bike_id":"f73bc375-35a5-4781-b24d-31004efdb13c","system_id":"levelo_inurba_marseille","lat":43.29708,"lon":5.36609,"is_reserved":false,"is_disabled":false,"rental_uris":{"android":"levelo://app?vid=f73bc375-35a5-4781-b24d-31004efdb13c","ios":"levelo://app?vid=f73bc375-35a5-4781-b24d-31004efdb13c"},"vehicle_type_id":"4","last_reported":1743592094,"current_range_meters":8400,"station_id":"ce4bgn12rcd13ifvqbt0","pricing_plan_id":"cebpf4jnsgd1na2vs0mg"},{"bike_id":"60129d40-45b0-48c5-8fe5-8766c358d773","system_id":"levelo_inurba_marseille","lat":43.25086,"lon":5.39523,"is_reserved":false,"is_disabled":false,"rental_uris":{"android":"levelo://app?vid=60129d40-45b0-48c5-8fe5-8766c358d773","ios":"levelo://app?vid=60129d40-45b0-48c5-8fe5-8766c358d773"},"vehicle_type_id":"4","last_reported":1743592094,"current_range_meters":8400,"station_id":"ce4bhm12rcd13ifvqgkg","pricing_plan_id":"cebpf4jnsgd1na2vs0mg"},{"bike_id":"3e5329f3-c0cd-422c-afb1-2f46242590da","system_id":"levelo_inurba_marseille","lat":43.31924,"lon":5.37544,"is_reserved":false,"is_disabled":false,"rental_uris":{"android":"levelo://app?vid=3e5329f3-c0cd-422c-afb1-2f46242590da","ios":"levelo://app?vid=3e5329f3-c0cd-422c-afb1-2f46242590da"},"vehicle_type_id":"4","last_reported":1743592094,"current_range_meters":8400,"station_id":"","pricing_plan_id":"cebpf4jnsgd1na2vs0mg"},{"bike_id":"27773214-4312-4127-aa54-e74cba3d6d07","system_id":"levelo_inurba_marseille","lat":43.27796,"lon":5.40739,"is_reserved":false,"is_disabled":false,"rental_uris":{"android":"levelo://app?vid=27773214-4312-4127-aa54-e74cba3d6d07","ios":"levelo://app?vid=27773214-4312-4127-aa54-e74cba3d6d07"},"vehicle_type_id":"4","last_reported":1743592094,"current_range_meters":8400,"station_id":"ce4bhnh2rcd13ifvqgtg","pricing_plan_id":"cebpf4jnsgd1na2vs0mg"},{"bike_id":"004c5ed6-a8d0-4372-8f20-8c5f1b999164","system_id":"levelo_inurba_marseille","lat":43.265588,"lon":5.372895,"is_reserved":false,"is_disabled":false,"rental_uris":{"android":"levelo://app?vid=004c5ed6-a8d0-4372-8f20-8c5f1b999164","ios":"levelo://app?vid=004c5ed6-a8d0-4372-8f20-8c5f1b999164"},"vehicle_type_id":"4","last_reported":1743592094,"current_range_meters":8400,"station_id":"ce4bhg12rcd13ifvqf70","pricing_plan_id":"cebpf4jnsgd1na2vs0mg"},{"bike_id":"844116bb-6c61-4fac-8d38-f8674c56f0e5","system_id":"levelo_inurba_marseille","lat":43.29201,"lon":5.35805,"is_reserved":false,"is_disabled":false,"rental_uris":{"android":"levelo://app?vid=844116bb-6c61-4fac-8d38-f8674c56f0e5","ios":"levelo://app?vid=844116bb-6c61-4fac-8d38-f8674c56f0e5"},"vehicle_type_id":"4","last_reported":1743592094,"current_range_meters":8400,"station_id":"ce4bhb12rcd13ifvqel0","pricing_plan_id":"cebpf4jnsgd1na2vs0mg"},{"bike_id":"612e4653-55f1-4e48-9fff-16b5a86e8431","system_id":"levelo_inurba_marseille","lat":43.29309,"lon":5.37181,"is_reserved":false,"is_disabled":false,"rental_uris":{"android":"levelo://app?vid=612e4653-55f1-4e48-9fff-16b5a86e8431","ios":"levelo://app?vid=612e4653-55f1-4e48-9fff-16b5a86e8431"},"vehicle_type_id":"4","last_reported":1743592094,"current_range_meters":8800,"station_id":"ce4bgh92rcd13ifvqb40","pricing_plan_id":"cebpf4jnsgd1na2vs0mg"},{"bike_id":"96ce747b-3863-4c51-869c-db139827010f","system_id":"levelo_inurba_marseille","lat":43.26556,"lon":5.37281,"is_reserved":false,"is_disabled":false,"rental_uris":{"android":"levelo://app?vid=96ce747b-3863-4c51-869c-db139827010f","ios":"levelo://app?vid=96ce747b-3863-4c51-869c-db139827010f"},"vehicle_type_id":"4","last_reported":1743592094,"current_range_meters":8800,"station_id":"ce4bhg12rcd13ifvqf70","pricing_plan_id":"cebpf4jnsgd1na2vs0mg"},{"bike_id":"dd57aabe-70ab-468e-b57c-859ef160a8e2","system_id":"levelo_inurba_marseille","lat":43.25968,"lon":5.40893,"is_reserved":false,"is_disabled":false,"rental_uris":{"android":"levelo://app?vid=dd57aabe-70ab-468e-b57c-859ef160a8e2","ios":"levelo://app?vid=dd57aabe-70ab-468e-b57c-859ef160a8e2"},"vehicle_type_id":"4","last_reported":1743592094,"current_range_meters":8800,"station_id":"ce4bhm92rcd13ifvqglg","pricing_plan_id":"cebpf4jnsgd1na2vs0mg"},{"bike_id":"739ac7d4-5320-4dfd-acb3-63a50100a8f4","system_id":"levelo_inurba_marseille","lat":43.30141,"lon":5.3878,"is_reserved":false,"is_disabled":false,"rental_uris":{"android":"levelo://app?vid=739ac7d4-5320-4dfd-acb3-63a50100a8f4","ios":"levelo://app?vid=739ac7d4-5320-4dfd-acb3-63a50100a8f4"},"vehicle_type_id":"4","last_reported":1743592094,"current_range_meters":8800,"station_id":"ce4bghh2rcd13ifvqb60","pricing_plan_id":"cebpf4jnsgd1na2vs0mg"},{"bike_id":"2d5b05ab-3fbf-4245-a566-4ad78ee6292a","system_id":"levelo_inurba_marseille","lat":43.25012,"lon":5.38926,"is_reserved":false,"is_disabled":false,"rental_uris":{"android":"levelo://app?vid=2d5b05ab-3fbf-4245-a566-4ad78ee6292a","ios":"levelo://app?vid=2d5b05ab-3fbf-4245-a566-4ad78ee6292a"},"vehicle_type_id":"4","last_reported":1743592094,"current_range_meters":8800,"station_id":"ce4bhgp2rcd13ifvqfd0","pricing_plan_id":"cebpf4jnsgd1na2vs0mg"},{"bike_id":"44e33f1f-b8ef-439a-8282-1557e8c62d67","system_id":"levelo_inurba_marseille","lat":43.28477,"lon":5.38429,"is_reserved":false,"is_disabled":false,"rental_uris":{"android":"levelo://app?vid=44e33f1f-b8ef-439a-8282-1557e8c62d67","ios":"levelo://app?vid=44e33f1f-b8ef-439a-8282-1557e8c62d67"},"vehicle_type_id":"4","last_reported":1743592094,"current_range_meters":8800,"station_id":"ce4bh512rcd13ifvqe3g","pricing_plan_id":"cebpf4jnsgd1na2vs0mg"},{"bike_id":"06e8576d-c608-42d7-b761-1fbfcec2f291","system_id":"levelo_inurba_marseille","lat":43.316327,"lon":5.378667,"is_reserved":false,"is_disabled":false,"rental_uris":{"android":"levelo://app?vid=06e8576d-c608-42d7-b761-1fbfcec2f291","ios":"levelo://app?vid=06e8576d-c608-42d7-b761-1fbfcec2f291"},"vehicle_type_id":"4","last_reported":1743592094,"current_range_meters":8800,"station_id":"","pricing_plan_id":"cebpf4jnsgd1na2vs0mg"},{"bike_id":"3ba6ccff-1eda-46d4-acbd-01dbdd65bb76","system_id":"levelo_inurba_marseille","lat":43.29897,"lon":5.43678,"is_reserved":false,"is_disabled":false,"rental_uris":{"android":"levelo://app?vid=3ba6ccff-1eda-46d4-acbd-01dbdd65bb76","ios":"levelo://app?vid=3ba6ccff-1eda-46d4-acbd-01dbdd65bb76"},"vehicle_type_id":"4","last_reported":1743592094,"current_range_meters":8800,"station_id":"ce4bhpp2rcd13ifvqhfg","pricing_plan_id":"cebpf4jnsgd1na2vs0mg"},{"bike_id":"16c82eca-3981-400e-991f-2adb3a8e456e","system_id":"levelo_inurba_marseille","lat":43.30527,"lon":5.36715,"is_reserved":false,"is_disabled":false,"rental_uris":{"android":"levelo://app?vid=16c82eca-3981-400e-991f-2adb3a8e456e","ios":"levelo://app?vid=16c82eca-3981-400e-991f-2adb3a8e456e"},"vehicle_type_id":"4","last_reported":1743592094,"current_range_meters":9200,"station_id":"ce4bgrp2rcd13ifvqc9g","pricing_plan_id":"cebpf4jnsgd1na2vs0mg"},{"bike_id":"c6b6e75c-38dd-451a-80d5-c4ac42759465","system_id":"levelo_inurba_marseille","lat":43.25816,"lon":5.39437,"is_reserved":false,"is_disabled":false,"rental_uris":{"android":"levelo://app?vid=c6b6e75c-38dd-451a-80d5-c4ac42759465","ios":"levelo://app?vid=c6b6e75c-38dd-451a-80d5-c4ac42759465"},"vehicle_type_id":"4","last_reported":1743592094,"current_range_meters":9200,"station_id":"ce4bhip2rcd13ifvqft0","pricing_plan_id":"cebpf4jnsgd1na2vs0mg"},{"bike_id":"ffc53036-d059-4465-b88a-5b4b3e7aeb5e","system_id":"levelo_inurba_marseille","lat":43.22936,"lon":5.35373,"is_reserved":false,"is_disabled":false,"rental_uris":{"android":"levelo://app?vid=ffc53036-d059-4465-b88a-5b4b3e7aeb5e","ios":"levelo://app?vid=ffc53036-d059-4465-b88a-5b4b3e7aeb5e"},"vehicle_type_id":"4","last_reported":1743592094,"current_range_meters":9200,"station_id":"cpo3532slgdg3j2ikp40","pricing_plan_id":"cebpf4jnsgd1na2vs0mg"},{"bike_id":"2d0f009a-4cec-4e7e-a08a-d4fe6678642a","system_id":"levelo_inurba_marseille","lat":43.24248,"lon":5.3967,"is_reserved":false,"is_disabled":false,"rental_uris":{"android":"levelo://app?vid=2d0f009a-4cec-4e7e-a08a-d4fe6678642a","ios":"levelo://app?vid=2d0f009a-4cec-4e7e-a08a-d4fe6678642a"},"vehicle_type_id":"4","last_reported":1743592094,"current_range_meters":9200,"station_id":"ce4bhn12rcd13ifvqgpg","pricing_plan_id":"cebpf4jnsgd1na2vs0mg"},{"bike_id":"4c6dcee3-cff0-406a-b3ed-92c982e81c6c","system_id":"levelo_inurba_marseille","lat":43.27214,"lon":5.39188,"is_reserved":false,"is_disabled":false,"rental_uris":{"android":"levelo://app?vid=4c6dcee3-cff0-406a-b3ed-92c982e81c6c","ios":"levelo://app?vid=4c6dcee3-cff0-406a-b3ed-92c982e81c6c"},"vehicle_type_id":"4","last_reported":1743592094,"current_range_meters":9200,"station_id":"ce4bhhp2rcd13ifvqfm0","pricing_plan_id":"cebpf4jnsgd1na2vs0mg"},{"bike_id":"963c7d68-b99d-4494-bdd3-b7cbcfd369fe","system_id":"levelo_inurba_marseille","lat":43.27376,"lon":5.36258,"is_reserved":false,"is_disabled":false,"rental_uris":{"android":"levelo://app?vid=963c7d68-b99d-4494-bdd3-b7cbcfd369fe","ios":"levelo://app?vid=963c7d68-b99d-4494-bdd3-b7cbcfd369fe"},"vehicle_type_id":"4","last_reported":1743592094,"current_range_meters":9200,"station_id":"ce4bhbh2rcd13ifvqeo0","pricing_plan_id":"cebpf4jnsgd1na2vs0mg"},{"bike_id":"f62ae439-964e-4cc1-9445-981c013c2063","system_id":"levelo_inurba_marseille","lat":43.3053,"lon":5.36708,"is_reserved":false,"is_disabled":false,"rental_uris":{"android":"levelo://app?vid=f62ae439-964e-4cc1-9445-981c013c2063","ios":"levelo://app?vid=f62ae439-964e-4cc1-9445-981c013c2063"},"vehicle_type_id":"4","last_reported":1743592094,"current_range_meters":9200,"station_id":"ce4bgrp2rcd13ifvqc9g","pricing_plan_id":"cebpf4jnsgd1na2vs0mg"},{"bike_id":"e42f99be-0f67-4dd9-92c9-50e287a759ba","system_id":"levelo_inurba_marseille","lat":43.25005,"lon":5.38929,"is_reserved":false,"is_disabled":false,"rental_uris":{"android":"levelo://app?vid=e42f99be-0f67-4dd9-92c9-50e287a759ba","ios":"levelo://app?vid=e42f99be-0f67-4dd9-92c9-50e287a759ba"},"vehicle_type_id":"4","last_reported":1743592094,"current_range_meters":9200,"station_id":"ce4bhgp2rcd13ifvqfd0","pricing_plan_id":"cebpf4jnsgd1na2vs0mg"},{"bike_id":"1c278e65-bfbb-42c1-ac41-e8aac5dbae81","system_id":"levelo_inurba_marseille","lat":43.30592,"lon":5.39356,"is_reserved":false,"is_disabled":false,"rental_uris":{"android":"levelo://app?vid=1c278e65-bfbb-42c1-ac41-e8aac5dbae81","ios":"levelo://app?vid=1c278e65-bfbb-42c1-ac41-e8aac5dbae81"},"vehicle_type_id":"4","last_reported":1743592094,"current_range_meters":9600,"station_id":"ce4bh0p2rcd13ifvqd80","pricing_plan_id":"cebpf4jnsgd1na2vs0mg"},{"bike_id":"e3d01a26-5542-45dc-8373-1b19a6bf2880","system_id":"levelo_inurba_marseille","lat":43.23151,"lon":5.43704,"is_reserved":false,"is_disabled":true,"rental_uris":{"android":"levelo://app?vid=e3d01a26-5542-45dc-8373-1b19a6bf2880","ios":"levelo://app?vid=e3d01a26-5542-45dc-8373-1b19a6bf2880"},"vehicle_type_id":"4","last_reported":1743592094,"current_range_meters":9600,"station_id":"ce4bhmp2rcd13ifvqgog","pricing_plan_id":"cebpf4jnsgd1na2vs0mg"},{"bike_id":"d1b5d6c6-563b-4dc0-99fd-5e93b8acdd06","system_id":"levelo_inurba_marseille","lat":43.23154,"lon":5.43721,"is_reserved":false,"is_disabled":false,"rental_uris":{"android":"levelo://app?vid=d1b5d6c6-563b-4dc0-99fd-5e93b8acdd06","ios":"levelo://app?vid=d1b5d6c6-563b-4dc0-99fd-5e93b8acdd06"},"vehicle_type_id":"4","last_reported":1743592094,"current_range_meters":9600,"station_id":"ce4bhmp2rcd13ifvqgog","pricing_plan_id":"cebpf4jnsgd1na2vs0mg"},{"bike_id":"5b94e092-79bd-47c2-95ae-871f97764470","system_id":"levelo_inurba_marseille","lat":43.26199,"lon":5.37451,"is_reserved":false,"is_disabled":false,"rental_uris":{"android":"levelo://app?vid=5b94e092-79bd-47c2-95ae-871f97764470","ios":"levelo://app?vid=5b94e092-79bd-47c2-95ae-871f97764470"},"vehicle_type_id":"4","last_reported":1743592094,"current_range_meters":9600,"station_id":"ce4bhgp2rcd13ifvqfc0","pricing_plan_id":"cebpf4jnsgd1na2vs0mg"},{"bike_id":"881377c1-08bc-44d2-86e1-4a43d4e74876","system_id":"levelo_inurba_marseille","lat":43.28714,"lon":5.39969,"is_reserved":false,"is_disabled":false,"rental_uris":{"android":"levelo://app?vid=881377c1-08bc-44d2-86e1-4a43d4e74876","ios":"levelo://app?vid=881377c1-08bc-44d2-86e1-4a43d4e74876"},"vehicle_type_id":"4","last_reported":1743592094,"current_range_meters":9600,"station_id":"ce4bho92rcd13ifvqh3g","pricing_plan_id":"cebpf4jnsgd1na2vs0mg"},{"bike_id":"673cd2fb-9a5c-412d-a385-2a1c87de78c8","system_id":"levelo_inurba_marseille","lat":43.2862,"lon":5.37055,"is_reserved":false,"is_disabled":false,"rental_uris":{"android":"levelo://app?vid=673cd2fb-9a5c-412d-a385-2a1c87de78c8","ios":"levelo://app?vid=673cd2fb-9a5c-412d-a385-2a1c87de78c8"},"vehicle_type_id":"4","last_reported":1743592094,"current_range_meters":9600,"station_id":"ce4bht12rcd13ifvqi60","pricing_plan_id":"cebpf4jnsgd1na2vs0mg"},{"bike_id":"c9b6df3f-92c4-4acd-8a61-30843442f23f","system_id":"levelo_inurba_marseille","lat":43.31093,"lon":5.4242,"is_reserved":false,"is_disabled":false,"rental_uris":{"android":"levelo://app?vid=c9b6df3f-92c4-4acd-8a61-30843442f23f","ios":"levelo://app?vid=c9b6df3f-92c4-4acd-8a61-30843442f23f"},"vehicle_type_id":"4","last_reported":1743592094,"current_range_meters":10000,"station_id":"ce4bhp92rcd13ifvqhag","pricing_plan_id":"cebpf4jnsgd1na2vs0mg"},{"bike_id":"6e6a66e5-58ca-4db1-9695-b46ed5c28827","system_id":"levelo_inurba_marseille","lat":43.31799,"lon":5.3681,"is_reserved":false,"is_disabled":false,"rental_uris":{"android":"levelo://app?vid=6e6a66e5-58ca-4db1-9695-b46ed5c28827","ios":"levelo://app?vid=6e6a66e5-58ca-4db1-9695-b46ed5c28827"},"vehicle_type_id":"4","last_reported":1743592094,"current_range_meters":10000,"station_id":"","pricing_plan_id":"cebpf4jnsgd1na2vs0mg"},{"bike_id":"f55695a6-b65f-4a30-99ab-94b2bfa63268","system_id":"levelo_inurba_marseille","lat":43.23193,"lon":5.35536,"is_reserved":false,"is_disabled":false,"rental_uris":{"android":"levelo://app?vid=f55695a6-b65f-4a30-99ab-94b2bfa63268","ios":"levelo://app?vid=f55695a6-b65f-4a30-99ab-94b2bfa63268"},"vehicle_type_id":"4","last_reported":1743592094,"current_range_meters":10000,"station_id":"ce4bhu92rcd13ifvqi70","pricing_plan_id":"cebpf4jnsgd1na2vs0mg"},{"bike_id":"8fc98d54-f5dc-4fa7-bce7-bec6113917b1","system_id":"levelo_inurba_marseille","lat":43.28567,"lon":5.39497,"is_reserved":false,"is_disabled":false,"rental_uris":{"android":"levelo://app?vid=8fc98d54-f5dc-4fa7-bce7-bec6113917b1","ios":"levelo://app?vid=8fc98d54-f5dc-4fa7-bce7-bec6113917b1"},"vehicle_type_id":"4","last_reported":1743592094,"current_range_meters":10000,"station_id":"ce4bh292rcd13ifvqdg0","pricing_plan_id":"cebpf4jnsgd1na2vs0mg"},{"bike_id":"f85f64ec-b47c-45a4-b305-300ca8bf507d","system_id":"levelo_inurba_marseille","lat":43.30565,"lon":5.36538,"is_reserved":false,"is_disabled":false,"rental_uris":{"android":"levelo://app?vid=f85f64ec-b47c-45a4-b305-300ca8bf507d","ios":"levelo://app?vid=f85f64ec-b47c-45a4-b305-300ca8bf507d"},"vehicle_type_id":"4","last_reported":1743592094,"current_range_meters":10000,"station_id":"ce4bgs12rcd13ifvqcag","pricing_plan_id":"cebpf4jnsgd1na2vs0mg"},{"bike_id":"d7b1ba24-1398-47cd-8273-5465c4513b13","system_id":"levelo_inurba_marseille","lat":43.29708,"lon":5.36612,"is_reserved":false,"is_disabled":false,"rental_uris":{"android":"levelo://app?vid=d7b1ba24-1398-47cd-8273-5465c4513b13","ios":"levelo://app?vid=d7b1ba24-1398-47cd-8273-5465c4513b13"},"vehicle_type_id":"4","last_reported":1743592094,"current_range_meters":9600,"station_id":"ce4bgn12rcd13ifvqbt0","pricing_plan_id":"cebpf4jnsgd1na2vs0mg"},{"bike_id":"cd3427bf-785b-4d0c-abf4-13716e1cba87","system_id":"levelo_inurba_marseille","lat":43.296,"lon":5.38108,"is_reserved":false,"is_disabled":false,"rental_uris":{"android":"levelo://app?vid=cd3427bf-785b-4d0c-abf4-13716e1cba87","ios":"levelo://app?vid=cd3427bf-785b-4d0c-abf4-13716e1cba87"},"vehicle_type_id":"4","last_reported":1743592094,"current_range_meters":10000,"station_id":"ce4bgl12rcd13ifvqbo0","pricing_plan_id":"cebpf4jnsgd1na2vs0mg"},{"bike_id":"154642c7-eb24-41a0-b701-db99f08a17cf","system_id":"levelo_inurba_marseille","lat":43.30212,"lon":5.39455,"is_reserved":false,"is_disabled":true,"rental_uris":{"android":"levelo://app?vid=154642c7-eb24-41a0-b701-db99f08a17cf","ios":"levelo://app?vid=154642c7-eb24-41a0-b701-db99f08a17cf"},"vehicle_type_id":"4","last_reported":1743592094,"current_range_meters":10000,"station_id":"ce4bh0p2rcd13ifvqd70","pricing_plan_id":"cebpf4jnsgd1na2vs0mg"},{"bike_id":"7ad02255-5dbd-473b-8b25-3a4eff159e49","system_id":"levelo_inurba_marseille","lat":43.27071,"lon":5.42275,"is_reserved":false,"is_disabled":false,"rental_uris":{"android":"levelo://app?vid=7ad02255-5dbd-473b-8b25-3a4eff159e49","ios":"levelo://app?vid=7ad02255-5dbd-473b-8b25-3a4eff159e49"},"vehicle_type_id":"4","last_reported":1743592094,"current_range_meters":10800,"station_id":"ce4bhk92rcd13ifvqgb0","pricing_plan_id":"cebpf4jnsgd1na2vs0mg"},{"bike_id":"7b869cea-1d61-42d2-b04b-29df5bd7497f","system_id":"levelo_inurba_marseille","lat":43.32121,"lon":5.36747,"is_reserved":false,"is_disabled":false,"rental_uris":{"android":"levelo://app?vid=7b869cea-1d61-42d2-b04b-29df5bd7497f","ios":"levelo://app?vid=7b869cea-1d61-42d2-b04b-29df5bd7497f"},"vehicle_type_id":"4","last_reported":1743592094,"current_range_meters":10800,"station_id":"ce4bhrh2rcd13ifvqhug","pricing_plan_id":"cebpf4jnsgd1na2vs0mg"},{"bike_id":"f23b5f32-bd61-441e-a815-26dbee6d9d3e","system_id":"levelo_inurba_marseille","lat":43.29614,"lon":5.37703,"is_reserved":false,"is_disabled":true,"rental_uris":{"android":"levelo://app?vid=f23b5f32-bd61-441e-a815-26dbee6d9d3e","ios":"levelo://app?vid=f23b5f32-bd61-441e-a815-26dbee6d9d3e"},"vehicle_type_id":"4","last_reported":1743592094,"current_range_meters":10800,"station_id":"ce4bgi92rcd13ifvqb90","pricing_plan_id":"cebpf4jnsgd1na2vs0mg"},{"bike_id":"b80ee275-2592-4659-b2e9-175feb839700","system_id":"levelo_inurba_marseille","lat":43.232,"lon":5.35544,"is_reserved":false,"is_disabled":false,"rental_uris":{"android":"levelo://app?vid=b80ee275-2592-4659-b2e9-175feb839700","ios":"levelo://app?vid=b80ee275-2592-4659-b2e9-175feb839700"},"vehicle_type_id":"4","last_reported":1743592094,"current_range_meters":10800,"station_id":"ce4bhu92rcd13ifvqi70","pricing_plan_id":"cebpf4jnsgd1na2vs0mg"},{"bike_id":"fc3640cc-9381-4673-beca-985fad96c21c","system_id":"levelo_inurba_marseille","lat":43.31288,"lon":5.36814,"is_reserved":false,"is_disabled":true,"rental_uris":{"android":"levelo://app?vid=fc3640cc-9381-4673-beca-985fad96c21c","ios":"levelo://app?vid=fc3640cc-9381-4673-beca-985fad96c21c"},"vehicle_type_id":"4","last_reported":1743592094,"current_range_meters":10800,"station_id":"ce4bgl92rcd13ifvqbq0","pricing_plan_id":"cebpf4jnsgd1na2vs0mg"},{"bike_id":"f87e996c-206a-47d9-8697-84a2d463fdc3","system_id":"levelo_inurba_marseille","lat":43.23188,"lon":5.35564,"is_reserved":false,"is_disabled":false,"rental_uris":{"android":"levelo://app?vid=f87e996c-206a-47d9-8697-84a2d463fdc3","ios":"levelo://app?vid=f87e996c-206a-47d9-8697-84a2d463fdc3"},"vehicle_type_id":"4","last_reported":1743592094,"current_range_meters":10800,"station_id":"ce4bhu92rcd13ifvqi70","pricing_plan_id":"cebpf4jnsgd1na2vs0mg"},{"bike_id":"1a622580-a67f-4f9e-927e-6364decb05da","system_id":"levelo_inurba_marseille","lat":43.30475,"lon":5.3791,"is_reserved":false,"is_disabled":false,"rental_uris":{"android":"levelo://app?vid=1a622580-a67f-4f9e-927e-6364decb05da","ios":"levelo://app?vid=1a622580-a67f-4f9e-927e-6364decb05da"},"vehicle_type_id":"4","last_reported":1743592094,"current_range_meters":10800,"station_id":"ce4bgup2rcd13ifvqcn0","pricing_plan_id":"cebpf4jnsgd1na2vs0mg"},{"bike_id":"dd3db03f-0f43-4986-9ec8-2a76818fb28c","system_id":"levelo_inurba_marseille","lat":43.23203,"lon":5.35555,"is_reserved":false,"is_disabled":false,"rental_uris":{"android":"levelo://app?vid=dd3db03f-0f43-4986-9ec8-2a76818fb28c","ios":"levelo://app?vid=dd3db03f-0f43-4986-9ec8-2a76818fb28c"},"vehicle_type_id":"4","last_reported":1743592094,"current_range_meters":10800,"station_id":"ce4bhu92rcd13ifvqi70","pricing_plan_id":"cebpf4jnsgd1na2vs0mg"},{"bike_id":"c3d811f8-c2e8-4c0b-a3f2-42f68cf8f94c","system_id":"levelo_inurba_marseille","lat":43.23166,"lon":5.43726,"is_reserved":false,"is_disabled":false,"rental_uris":{"android":"levelo://app?vid=c3d811f8-c2e8-4c0b-a3f2-42f68cf8f94c","ios":"levelo://app?vid=c3d811f8-c2e8-4c0b-a3f2-42f68cf8f94c"},"vehicle_type_id":"4","last_reported":1743592094,"current_range_meters":10800,"station_id":"ce4bhmp2rcd13ifvqgog","pricing_plan_id":"cebpf4jnsgd1na2vs0mg"},{"bike_id":"a6d25717-0db4-4a18-b77c-e49dc99dee91","system_id":"levelo_inurba_marseille","lat":43.25721,"lon":5.41076,"is_reserved":false,"is_disabled":false,"rental_uris":{"android":"levelo://app?vid=a6d25717-0db4-4a18-b77c-e49dc99dee91","ios":"levelo://app?vid=a6d25717-0db4-4a18-b77c-e49dc99dee91"},"vehicle_type_id":"4","last_reported":1743592094,"current_range_meters":10800,"station_id":"ce4bhkp2rcd13ifvqgd0","pricing_plan_id":"cebpf4jnsgd1na2vs0mg"},{"bike_id":"49428efe-bbd8-4963-9aaf-ed822fd5c61b","system_id":"levelo_inurba_marseille","lat":43.29224,"lon":5.44349,"is_reserved":false,"is_disabled":false,"rental_uris":{"android":"levelo://app?vid=49428efe-bbd8-4963-9aaf-ed822fd5c61b","ios":"levelo://app?vid=49428efe-bbd8-4963-9aaf-ed822fd5c61b"},"vehicle_type_id":"4","last_reported":1743592094,"current_range_meters":10800,"station_id":"","pricing_plan_id":"cebpf4jnsgd1na2vs0mg"},{"bike_id":"8c8c904f-4688-4edc-8d5e-ac5ec4c04aa2","system_id":"levelo_inurba_marseille","lat":43.26062,"lon":5.393943,"is_reserved":false,"is_disabled":false,"rental_uris":{"android":"levelo://app?vid=8c8c904f-4688-4edc-8d5e-ac5ec4c04aa2","ios":"levelo://app?vid=8c8c904f-4688-4edc-8d5e-ac5ec4c04aa2"},"vehicle_type_id":"4","last_reported":1743592094,"current_range_meters":11200,"station_id":"ce4bhh92rcd13ifvqfj0","pricing_plan_id":"cebpf4jnsgd1na2vs0mg"},{"bike_id":"7cf4077f-b82b-4695-8d29-89d0099a8e88","system_id":"levelo_inurba_marseille","lat":43.33599,"lon":5.4103,"is_reserved":false,"is_disabled":false,"rental_uris":{"android":"levelo://app?vid=7cf4077f-b82b-4695-8d29-89d0099a8e88","ios":"levelo://app?vid=7cf4077f-b82b-4695-8d29-89d0099a8e88"},"vehicle_type_id":"4","last_reported":1743592094,"current_range_meters":11200,"station_id":"ce4bhqh2rcd13ifvqhmg","pricing_plan_id":"cebpf4jnsgd1na2vs0mg"},{"bike_id":"facaca46-7e62-4a2e-ab17-cc09f773590c","system_id":"levelo_inurba_marseille","lat":43.27604,"lon":5.36138,"is_reserved":false,"is_disabled":false,"rental_uris":{"android":"levelo://app?vid=facaca46-7e62-4a2e-ab17-cc09f773590c","ios":"levelo://app?vid=facaca46-7e62-4a2e-ab17-cc09f773590c"},"vehicle_type_id":"4","last_reported":1743592094,"current_range_meters":11200,"station_id":"ce4bgj92rcd13ifvqbe0","pricing_plan_id":"cebpf4jnsgd1na2vs0mg"},{"bike_id":"d157a8ac-f1ea-480a-a1ee-9ac00962bb01","system_id":"levelo_inurba_marseille","lat":43.29538,"lon":5.42271,"is_reserved":false,"is_disabled":false,"rental_uris":{"android":"levelo://app?vid=d157a8ac-f1ea-480a-a1ee-9ac00962bb01","ios":"levelo://app?vid=d157a8ac-f1ea-480a-a1ee-9ac00962bb01"},"vehicle_type_id":"4","last_reported":1743592094,"current_range_meters":11200,"station_id":"ce4bhph2rcd13ifvqhdg","pricing_plan_id":"cebpf4jnsgd1na2vs0mg"},{"bike_id":"a42e13ed-44d2-4c34-b324-9b63cc2cba60","system_id":"levelo_inurba_marseille","lat":43.23174,"lon":5.43698,"is_reserved":false,"is_disabled":false,"rental_uris":{"android":"levelo://app?vid=a42e13ed-44d2-4c34-b324-9b63cc2cba60","ios":"levelo://app?vid=a42e13ed-44d2-4c34-b324-9b63cc2cba60"},"vehicle_type_id":"4","last_reported":1743592094,"current_range_meters":11200,"station_id":"ce4bhmp2rcd13ifvqgog","pricing_plan_id":"cebpf4jnsgd1na2vs0mg"},{"bike_id":"d1d152b9-8f83-4dfd-819d-90885ae33fbf","system_id":"levelo_inurba_marseille","lat":43.29901,"lon":5.43664,"is_reserved":false,"is_disabled":false,"rental_uris":{"android":"levelo://app?vid=d1d152b9-8f83-4dfd-819d-90885ae33fbf","ios":"levelo://app?vid=d1d152b9-8f83-4dfd-819d-90885ae33fbf"},"vehicle_type_id":"4","last_reported":1743592094,"current_range_meters":11200,"station_id":"ce4bhpp2rcd13ifvqhfg","pricing_plan_id":"cebpf4jnsgd1na2vs0mg"},{"bike_id":"e8db9947-5ac0-4177-8798-1af9cdb816ad","system_id":"levelo_inurba_marseille","lat":43.24177,"lon":5.39731,"is_reserved":false,"is_disabled":false,"rental_uris":{"android":"levelo://app?vid=e8db9947-5ac0-4177-8798-1af9cdb816ad","ios":"levelo://app?vid=e8db9947-5ac0-4177-8798-1af9cdb816ad"},"vehicle_type_id":"4","last_reported":1743592094,"current_range_meters":11200,"station_id":"ce4bhn12rcd13ifvqgpg","pricing_plan_id":"cebpf4jnsgd1na2vs0mg"},{"bike_id":"77fd553e-4cc7-4ee1-b6bc-281f17ec491f","system_id":"levelo_inurba_marseille","lat":43.23153,"lon":5.43698,"is_reserved":false,"is_disabled":false,"rental_uris":{"android":"levelo://app?vid=77fd553e-4cc7-4ee1-b6bc-281f17ec491f","ios":"levelo://app?vid=77fd553e-4cc7-4ee1-b6bc-281f17ec491f"},"vehicle_type_id":"4","last_reported":1743592094,"current_range_meters":11200,"station_id":"ce4bhmp2rcd13ifvqgog","pricing_plan_id":"cebpf4jnsgd1na2vs0mg"},{"bike_id":"8bc6827b-b28a-40b1-8892-73e8698e4d41","system_id":"levelo_inurba_marseille","lat":43.24169,"lon":5.39721,"is_reserved":false,"is_disabled":false,"rental_uris":{"android":"levelo://app?vid=8bc6827b-b28a-40b1-8892-73e8698e4d41","ios":"levelo://app?vid=8bc6827b-b28a-40b1-8892-73e8698e4d41"},"vehicle_type_id":"4","last_reported":1743592094,"current_range_meters":11200,"station_id":"ce4bhn12rcd13ifvqgpg","pricing_plan_id":"cebpf4jnsgd1na2vs0mg"},{"bike_id":"d8a1595a-9afa-4c5b-a8ee-e7e465b947db","system_id":"levelo_inurba_marseille","lat":43.31325,"lon":5.37326,"is_reserved":false,"is_disabled":false,"rental_uris":{"android":"levelo://app?vid=d8a1595a-9afa-4c5b-a8ee-e7e465b947db","ios":"levelo://app?vid=d8a1595a-9afa-4c5b-a8ee-e7e465b947db"},"vehicle_type_id":"4","last_reported":1743592094,"current_range_meters":11200,"station_id":"","pricing_plan_id":"cebpf4jnsgd1na2vs0mg"},{"bike_id":"63366cf1-77a4-45e4-9416-4c71a5ea282e","system_id":"levelo_inurba_marseille","lat":43.23189,"lon":5.39986,"is_reserved":false,"is_disabled":false,"rental_uris":{"android":"levelo://app?vid=63366cf1-77a4-45e4-9416-4c71a5ea282e","ios":"levelo://app?vid=63366cf1-77a4-45e4-9416-4c71a5ea282e"},"vehicle_type_id":"4","last_reported":1743592094,"current_range_meters":11200,"station_id":"ce4bhn12rcd13ifvqgqg","pricing_plan_id":"cebpf4jnsgd1na2vs0mg"},{"bike_id":"75dae32f-059a-4b5b-a5e8-963c6eda2f66","system_id":"levelo_inurba_marseille","lat":43.27534,"lon":5.41044,"is_reserved":false,"is_disabled":false,"rental_uris":{"android":"levelo://app?vid=75dae32f-059a-4b5b-a5e8-963c6eda2f66","ios":"levelo://app?vid=75dae32f-059a-4b5b-a5e8-963c6eda2f66"},"vehicle_type_id":"4","last_reported":1743592094,"current_range_meters":11200,"station_id":"","pricing_plan_id":"cebpf4jnsgd1na2vs0mg"},{"bike_id":"71744192-c8ee-4ca5-a7d2-2b29d6ebc94c","system_id":"levelo_inurba_marseille","lat":43.31232,"lon":5.36875,"is_reserved":false,"is_disabled":false,"rental_uris":{"android":"levelo://app?vid=71744192-c8ee-4ca5-a7d2-2b29d6ebc94c","ios":"levelo://app?vid=71744192-c8ee-4ca5-a7d2-2b29d6ebc94c"},"vehicle_type_id":"4","last_reported":1743592094,"current_range_meters":11600,"station_id":"ce4bgl92rcd13ifvqbq0","pricing_plan_id":"cebpf4jnsgd1na2vs0mg"},{"bike_id":"914ccf48-fa8b-4e9e-becf-ee45c77cd854","system_id":"levelo_inurba_marseille","lat":43.25116,"lon":5.40317,"is_reserved":false,"is_disabled":false,"rental_uris":{"android":"levelo://app?vid=914ccf48-fa8b-4e9e-becf-ee45c77cd854","ios":"levelo://app?vid=914ccf48-fa8b-4e9e-becf-ee45c77cd854"},"vehicle_type_id":"4","last_reported":1743592094,"current_range_meters":11600,"station_id":"ce4bhlh2rcd13ifvqgig","pricing_plan_id":"cebpf4jnsgd1na2vs0mg"},{"bike_id":"d7bbf7c9-c6cb-44ed-a008-ac45562dbd72","system_id":"levelo_inurba_marseille","lat":43.26503,"lon":5.3954,"is_reserved":false,"is_disabled":false,"rental_uris":{"android":"levelo://app?vid=d7bbf7c9-c6cb-44ed-a008-ac45562dbd72","ios":"levelo://app?vid=d7bbf7c9-c6cb-44ed-a008-ac45562dbd72"},"vehicle_type_id":"4","last_reported":1743592094,"current_range_meters":11600,"station_id":"ce4bhi12rcd13ifvqfq0","pricing_plan_id":"cebpf4jnsgd1na2vs0mg"},{"bike_id":"6f650407-eff4-4c14-9e65-352e9419d139","system_id":"levelo_inurba_marseille","lat":43.303872,"lon":5.418154,"is_reserved":false,"is_disabled":false,"rental_uris":{"android":"levelo://app?vid=6f650407-eff4-4c14-9e65-352e9419d139","ios":"levelo://app?vid=6f650407-eff4-4c14-9e65-352e9419d139"},"vehicle_type_id":"4","last_reported":1743592094,"current_range_meters":11200,"station_id":"ce4bhop2rcd13ifvqh7g","pricing_plan_id":"cebpf4jnsgd1na2vs0mg"},{"bike_id":"2d48cd09-9ee2-4630-8cab-be4140a04965","system_id":"levelo_inurba_marseille","lat":43.23184,"lon":5.35546,"is_reserved":false,"is_disabled":false,"rental_uris":{"android":"levelo://app?vid=2d48cd09-9ee2-4630-8cab-be4140a04965","ios":"levelo://app?vid=2d48cd09-9ee2-4630-8cab-be4140a04965"},"vehicle_type_id":"4","last_reported":1743592094,"current_range_meters":11600,"station_id":"ce4bhu92rcd13ifvqi70","pricing_plan_id":"cebpf4jnsgd1na2vs0mg"},{"bike_id":"8ec70021-00f5-422a-928c-5a833c315b05","system_id":"levelo_inurba_marseille","lat":43.2315,"lon":5.43715,"is_reserved":false,"is_disabled":false,"rental_uris":{"android":"levelo://app?vid=8ec70021-00f5-422a-928c-5a833c315b05","ios":"levelo://app?vid=8ec70021-00f5-422a-928c-5a833c315b05"},"vehicle_type_id":"4","last_reported":1743592094,"current_range_meters":11600,"station_id":"ce4bhmp2rcd13ifvqgog","pricing_plan_id":"cebpf4jnsgd1na2vs0mg"},{"bike_id":"e548a85e-6193-4738-8fd9-2bf27c8cdd7e","system_id":"levelo_inurba_marseille","lat":43.22933,"lon":5.35375,"is_reserved":false,"is_disabled":false,"rental_uris":{"android":"levelo://app?vid=e548a85e-6193-4738-8fd9-2bf27c8cdd7e","ios":"levelo://app?vid=e548a85e-6193-4738-8fd9-2bf27c8cdd7e"},"vehicle_type_id":"4","last_reported":1743592094,"current_range_meters":11600,"station_id":"cpo3532slgdg3j2ikp40","pricing_plan_id":"cebpf4jnsgd1na2vs0mg"},{"bike_id":"9f31d2c3-e41f-4502-8678-4f3e93d39b61","system_id":"levelo_inurba_marseille","lat":43.26761,"lon":5.3946,"is_reserved":false,"is_disabled":false,"rental_uris":{"android":"levelo://app?vid=9f31d2c3-e41f-4502-8678-4f3e93d39b61","ios":"levelo://app?vid=9f31d2c3-e41f-4502-8678-4f3e93d39b61"},"vehicle_type_id":"4","last_reported":1743592094,"current_range_meters":11600,"station_id":"","pricing_plan_id":"cebpf4jnsgd1na2vs0mg"},{"bike_id":"c1e09bd1-135e-46c4-a253-43b9efe61c0f","system_id":"levelo_inurba_marseille","lat":43.30314,"lon":5.3691,"is_reserved":false,"is_disabled":false,"rental_uris":{"android":"levelo://app?vid=c1e09bd1-135e-46c4-a253-43b9efe61c0f","ios":"levelo://app?vid=c1e09bd1-135e-46c4-a253-43b9efe61c0f"},"vehicle_type_id":"4","last_reported":1743592094,"current_range_meters":11600,"station_id":"ce4bgqh2rcd13ifvqc5g","pricing_plan_id":"cebpf4jnsgd1na2vs0mg"},{"bike_id":"50d6f82e-838d-47ca-92ba-2032121d2708","system_id":"levelo_inurba_marseille","lat":43.25125,"lon":5.40317,"is_reserved":false,"is_disabled":false,"rental_uris":{"android":"levelo://app?vid=50d6f82e-838d-47ca-92ba-2032121d2708","ios":"levelo://app?vid=50d6f82e-838d-47ca-92ba-2032121d2708"},"vehicle_type_id":"4","last_reported":1743592094,"current_range_meters":11600,"station_id":"ce4bhlh2rcd13ifvqgig","pricing_plan_id":"cebpf4jnsgd1na2vs0mg"},{"bike_id":"e6f9ff5d-543d-4f0b-81aa-a6c551735898","system_id":"levelo_inurba_marseille","lat":43.2873,"lon":5.36079,"is_reserved":false,"is_disabled":false,"rental_uris":{"android":"levelo://app?vid=e6f9ff5d-543d-4f0b-81aa-a6c551735898","ios":"levelo://app?vid=e6f9ff5d-543d-4f0b-81aa-a6c551735898"},"vehicle_type_id":"4","last_reported":1743592094,"current_range_meters":12000,"station_id":"cki0cbj6b192h4jlfktg","pricing_plan_id":"cebpf4jnsgd1na2vs0mg"},{"bike_id":"51db78ca-4e6c-4d6b-8a72-72189c57d1da","system_id":"levelo_inurba_marseille","lat":43.24174,"lon":5.39725,"is_reserved":false,"is_disabled":false,"rental_uris":{"android":"levelo://app?vid=51db78ca-4e6c-4d6b-8a72-72189c57d1da","ios":"levelo://app?vid=51db78ca-4e6c-4d6b-8a72-72189c57d1da"},"vehicle_type_id":"4","last_reported":1743592094,"current_range_meters":12000,"station_id":"ce4bhn12rcd13ifvqgpg","pricing_plan_id":"cebpf4jnsgd1na2vs0mg"},{"bike_id":"4c5af6eb-9f3a-429a-a9a5-908f23088311","system_id":"levelo_inurba_marseille","lat":43.23185,"lon":5.39989,"is_reserved":false,"is_disabled":false,"rental_uris":{"android":"levelo://app?vid=4c5af6eb-9f3a-429a-a9a5-908f23088311","ios":"levelo://app?vid=4c5af6eb-9f3a-429a-a9a5-908f23088311"},"vehicle_type_id":"4","last_reported":1743592094,"current_range_meters":12000,"station_id":"ce4bhn12rcd13ifvqgqg","pricing_plan_id":"cebpf4jnsgd1na2vs0mg"},{"bike_id":"dcb5daf4-da55-46a1-9209-dfe28d5e3795","system_id":"levelo_inurba_marseille","lat":43.305747,"lon":5.388469,"is_reserved":false,"is_disabled":false,"rental_uris":{"android":"levelo://app?vid=dcb5daf4-da55-46a1-9209-dfe28d5e3795","ios":"levelo://app?vid=dcb5daf4-da55-46a1-9209-dfe28d5e3795"},"vehicle_type_id":"4","last_reported":1743592094,"current_range_meters":12000,"station_id":"ce4bgjp2rcd13ifvqbh0","pricing_plan_id":"cebpf4jnsgd1na2vs0mg"},{"bike_id":"ecf32bff-9623-46e4-925c-537c35b0058f","system_id":"levelo_inurba_marseille","lat":43.290415,"lon":5.399675,"is_reserved":false,"is_disabled":false,"rental_uris":{"android":"levelo://app?vid=ecf32bff-9623-46e4-925c-537c35b0058f","ios":"levelo://app?vid=ecf32bff-9623-46e4-925c-537c35b0058f"},"vehicle_type_id":"4","last_reported":1743592094,"current_range_meters":12000,"station_id":"ce4bh392rcd13ifvqdm0","pricing_plan_id":"cebpf4jnsgd1na2vs0mg"},{"bike_id":"f7b8ce14-310b-4017-85db-e7ba7f2af768","system_id":"levelo_inurba_marseille","lat":43.30281,"lon":5.37716,"is_reserved":false,"is_disabled":false,"rental_uris":{"android":"levelo://app?vid=f7b8ce14-310b-4017-85db-e7ba7f2af768","ios":"levelo://app?vid=f7b8ce14-310b-4017-85db-e7ba7f2af768"},"vehicle_type_id":"4","last_reported":1743592094,"current_range_meters":11600,"station_id":"ce4bguh2rcd13ifvqcj0","pricing_plan_id":"cebpf4jnsgd1na2vs0mg"},{"bike_id":"7d55f252-7dc0-4c58-a2b8-2e65024f6d2b","system_id":"levelo_inurba_marseille","lat":43.29002,"lon":5.35609,"is_reserved":false,"is_disabled":false,"rental_uris":{"android":"levelo://app?vid=7d55f252-7dc0-4c58-a2b8-2e65024f6d2b","ios":"levelo://app?vid=7d55f252-7dc0-4c58-a2b8-2e65024f6d2b"},"vehicle_type_id":"4","last_reported":1743592094,"current_range_meters":12000,"station_id":"ce4bhb92rcd13ifvqen0","pricing_plan_id":"cebpf4jnsgd1na2vs0mg"},{"bike_id":"10c94fba-be4f-4b67-9096-61e683ddb0f1","system_id":"levelo_inurba_marseille","lat":43.29008,"lon":5.35619,"is_reserved":false,"is_disabled":false,"rental_uris":{"android":"levelo://app?vid=10c94fba-be4f-4b67-9096-61e683ddb0f1","ios":"levelo://app?vid=10c94fba-be4f-4b67-9096-61e683ddb0f1"},"vehicle_type_id":"4","last_reported":1743592094,"current_range_meters":12000,"station_id":"ce4bhb92rcd13ifvqen0","pricing_plan_id":"cebpf4jnsgd1na2vs0mg"},{"bike_id":"b6144d09-6dd1-4ca4-97f5-4ec37918d3dd","system_id":"levelo_inurba_marseille","lat":43.2671,"lon":5.3828,"is_reserved":false,"is_disabled":false,"rental_uris":{"android":"levelo://app?vid=b6144d09-6dd1-4ca4-97f5-4ec37918d3dd","ios":"levelo://app?vid=b6144d09-6dd1-4ca4-97f5-4ec37918d3dd"},"vehicle_type_id":"4","last_reported":1743592094,"current_range_meters":12000,"station_id":"ce4bhg92rcd13ifvqf90","pricing_plan_id":"cebpf4jnsgd1na2vs0mg"},{"bike_id":"7ba67d0a-4dd2-434e-9233-c217be617343","system_id":"levelo_inurba_marseille","lat":43.3382,"lon":5.37429,"is_reserved":false,"is_disabled":false,"rental_uris":{"android":"levelo://app?vid=7ba67d0a-4dd2-434e-9233-c217be617343","ios":"levelo://app?vid=7ba67d0a-4dd2-434e-9233-c217be617343"},"vehicle_type_id":"4","last_reported":1743592094,"current_range_meters":12400,"station_id":"","pricing_plan_id":"cebpf4jnsgd1na2vs0mg"},{"bike_id":"a9c7fdca-b712-459a-9cdb-1a2cf23a1bc4","system_id":"levelo_inurba_marseille","lat":43.3097,"lon":5.39031,"is_reserved":false,"is_disabled":false,"rental_uris":{"android":"levelo://app?vid=a9c7fdca-b712-459a-9cdb-1a2cf23a1bc4","ios":"levelo://app?vid=a9c7fdca-b712-459a-9cdb-1a2cf23a1bc4"},"vehicle_type_id":"4","last_reported":1743592094,"current_range_meters":12400,"station_id":"ce4bgup2rcd13ifvqco0","pricing_plan_id":"cebpf4jnsgd1na2vs0mg"},{"bike_id":"547a8b3b-4c12-49fe-ac5f-f6f56491f63e","system_id":"levelo_inurba_marseille","lat":43.27835,"lon":5.39214,"is_reserved":false,"is_disabled":false,"rental_uris":{"android":"levelo://app?vid=547a8b3b-4c12-49fe-ac5f-f6f56491f63e","ios":"levelo://app?vid=547a8b3b-4c12-49fe-ac5f-f6f56491f63e"},"vehicle_type_id":"4","last_reported":1743592094,"current_range_meters":12400,"station_id":"ce4bhjp2rcd13ifvqga0","pricing_plan_id":"cebpf4jnsgd1na2vs0mg"},{"bike_id":"614afade-77b2-442a-8bf5-091b29f6e90b","system_id":"levelo_inurba_marseille","lat":43.23158,"lon":5.43704,"is_reserved":false,"is_disabled":false,"rental_uris":{"android":"levelo://app?vid=614afade-77b2-442a-8bf5-091b29f6e90b","ios":"levelo://app?vid=614afade-77b2-442a-8bf5-091b29f6e90b"},"vehicle_type_id":"4","last_reported":1743592094,"current_range_meters":12400,"station_id":"ce4bhmp2rcd13ifvqgog","pricing_plan_id":"cebpf4jnsgd1na2vs0mg"},{"bike_id":"b6c83da9-b3c4-4843-9a1d-36871e12515b","system_id":"levelo_inurba_marseille","lat":43.2611,"lon":5.41461,"is_reserved":false,"is_disabled":false,"rental_uris":{"android":"levelo://app?vid=b6c83da9-b3c4-4843-9a1d-36871e12515b","ios":"levelo://app?vid=b6c83da9-b3c4-4843-9a1d-36871e12515b"},"vehicle_type_id":"4","last_reported":1743592094,"current_range_meters":12400,"station_id":"","pricing_plan_id":"cebpf4jnsgd1na2vs0mg"},{"bike_id":"d8a902c2-c6d7-4f94-ac9c-2e9ec17547ba","system_id":"levelo_inurba_marseille","lat":43.28938,"lon":5.36635,"is_reserved":false,"is_disabled":false,"rental_uris":{"android":"levelo://app?vid=d8a902c2-c6d7-4f94-ac9c-2e9ec17547ba","ios":"levelo://app?vid=d8a902c2-c6d7-4f94-ac9c-2e9ec17547ba"},"vehicle_type_id":"4","last_reported":1743592094,"current_range_meters":12800,"station_id":"ce4bhap2rcd13ifvqek0","pricing_plan_id":"cebpf4jnsgd1na2vs0mg"},{"bike_id":"c2e6881a-04a3-4a38-9cc0-75cacf165e78","system_id":"levelo_inurba_marseille","lat":43.28832,"lon":5.364645,"is_reserved":false,"is_disabled":false,"rental_uris":{"android":"levelo://app?vid=c2e6881a-04a3-4a38-9cc0-75cacf165e78","ios":"levelo://app?vid=c2e6881a-04a3-4a38-9cc0-75cacf165e78"},"vehicle_type_id":"4","last_reported":1743592094,"current_range_meters":12800,"station_id":"","pricing_plan_id":"cebpf4jnsgd1na2vs0mg"},{"bike_id":"c66c1a39-d582-429f-8915-528c566967dc","system_id":"levelo_inurba_marseille","lat":43.24183,"lon":5.39726,"is_reserved":false,"is_disabled":false,"rental_uris":{"android":"levelo://app?vid=c66c1a39-d582-429f-8915-528c566967dc","ios":"levelo://app?vid=c66c1a39-d582-429f-8915-528c566967dc"},"vehicle_type_id":"4","last_reported":1743592094,"current_range_meters":12800,"station_id":"ce4bhn12rcd13ifvqgpg","pricing_plan_id":"cebpf4jnsgd1na2vs0mg"},{"bike_id":"d09884b6-e691-4714-9e95-ce862ac018d8","system_id":"levelo_inurba_marseille","lat":43.25109,"lon":5.40319,"is_reserved":false,"is_disabled":false,"rental_uris":{"android":"levelo://app?vid=d09884b6-e691-4714-9e95-ce862ac018d8","ios":"levelo://app?vid=d09884b6-e691-4714-9e95-ce862ac018d8"},"vehicle_type_id":"4","last_reported":1743592094,"current_range_meters":12800,"station_id":"ce4bhlh2rcd13ifvqgig","pricing_plan_id":"cebpf4jnsgd1na2vs0mg"},{"bike_id":"46572bb1-7848-4cef-adb2-eaf522c7f416","system_id":"levelo_inurba_marseille","lat":43.25952,"lon":5.40907,"is_reserved":false,"is_disabled":false,"rental_uris":{"android":"levelo://app?vid=46572bb1-7848-4cef-adb2-eaf522c7f416","ios":"levelo://app?vid=46572bb1-7848-4cef-adb2-eaf522c7f416"},"vehicle_type_id":"4","last_reported":1743592094,"current_range_meters":12800,"station_id":"ce4bhm92rcd13ifvqglg","pricing_plan_id":"cebpf4jnsgd1na2vs0mg"},{"bike_id":"226c6f50-00d4-4e5c-8afe-631ad5cb0633","system_id":"levelo_inurba_marseille","lat":43.30788,"lon":5.37637,"is_reserved":false,"is_disabled":false,"rental_uris":{"android":"levelo://app?vid=226c6f50-00d4-4e5c-8afe-631ad5cb0633","ios":"levelo://app?vid=226c6f50-00d4-4e5c-8afe-631ad5cb0633"},"vehicle_type_id":"4","last_reported":1743592094,"current_range_meters":12800,"station_id":"ce4bgv92rcd13ifvqcq0","pricing_plan_id":"cebpf4jnsgd1na2vs0mg"},{"bike_id":"70e5b39f-29e3-4ea9-aa83-5a60a8eec6f8","system_id":"levelo_inurba_marseille","lat":43.2505,"lon":5.41699,"is_reserved":false,"is_disabled":false,"rental_uris":{"android":"levelo://app?vid=70e5b39f-29e3-4ea9-aa83-5a60a8eec6f8","ios":"levelo://app?vid=70e5b39f-29e3-4ea9-aa83-5a60a8eec6f8"},"vehicle_type_id":"4","last_reported":1743592094,"current_range_meters":12800,"station_id":"","pricing_plan_id":"cebpf4jnsgd1na2vs0mg"},{"bike_id":"3db54ef3-1afe-44fd-9b31-83e98569650f","system_id":"levelo_inurba_marseille","lat":43.30792,"lon":5.37645,"is_reserved":false,"is_disabled":false,"rental_uris":{"android":"levelo://app?vid=3db54ef3-1afe-44fd-9b31-83e98569650f","ios":"levelo://app?vid=3db54ef3-1afe-44fd-9b31-83e98569650f"},"vehicle_type_id":"4","last_reported":1743592094,"current_range_meters":12800,"station_id":"ce4bgv92rcd13ifvqcq0","pricing_plan_id":"cebpf4jnsgd1na2vs0mg"},{"bike_id":"d35be979-3389-4222-9039-5ec51466faa9","system_id":"levelo_inurba_marseille","lat":43.30447,"lon":5.37916,"is_reserved":false,"is_disabled":false,"rental_uris":{"android":"levelo://app?vid=d35be979-3389-4222-9039-5ec51466faa9","ios":"levelo://app?vid=d35be979-3389-4222-9039-5ec51466faa9"},"vehicle_type_id":"4","last_reported":1743592094,"current_range_meters":13600,"station_id":"ce4bgup2rcd13ifvqcn0","pricing_plan_id":"cebpf4jnsgd1na2vs0mg"},{"bike_id":"83bfde50-82cf-4c42-8d9d-325a87deb55c","system_id":"levelo_inurba_marseille","lat":43.31227,"lon":5.36865,"is_reserved":false,"is_disabled":false,"rental_uris":{"android":"levelo://app?vid=83bfde50-82cf-4c42-8d9d-325a87deb55c","ios":"levelo://app?vid=83bfde50-82cf-4c42-8d9d-325a87deb55c"},"vehicle_type_id":"4","last_reported":1743592094,"current_range_meters":13600,"station_id":"ce4bgl92rcd13ifvqbq0","pricing_plan_id":"cebpf4jnsgd1na2vs0mg"},{"bike_id":"e7ebaab8-fd14-4093-b600-8af773564ddc","system_id":"levelo_inurba_marseille","lat":43.25727,"lon":5.41106,"is_reserved":false,"is_disabled":false,"rental_uris":{"android":"levelo://app?vid=e7ebaab8-fd14-4093-b600-8af773564ddc","ios":"levelo://app?vid=e7ebaab8-fd14-4093-b600-8af773564ddc"},"vehicle_type_id":"4","last_reported":1743592094,"current_range_meters":13600,"station_id":"ce4bhkp2rcd13ifvqgd0","pricing_plan_id":"cebpf4jnsgd1na2vs0mg"},{"bike_id":"84554551-6a42-488e-8a3a-e31132de9d2c","system_id":"levelo_inurba_marseille","lat":43.23161,"lon":5.43716,"is_reserved":false,"is_disabled":false,"rental_uris":{"android":"levelo://app?vid=84554551-6a42-488e-8a3a-e31132de9d2c","ios":"levelo://app?vid=84554551-6a42-488e-8a3a-e31132de9d2c"},"vehicle_type_id":"4","last_reported":1743592094,"current_range_meters":13600,"station_id":"ce4bhmp2rcd13ifvqgog","pricing_plan_id":"cebpf4jnsgd1na2vs0mg"},{"bike_id":"999709f8-253f-419f-8506-1c508d9f5f41","system_id":"levelo_inurba_marseille","lat":43.31698,"lon":5.43696,"is_reserved":false,"is_disabled":false,"rental_uris":{"android":"levelo://app?vid=999709f8-253f-419f-8506-1c508d9f5f41","ios":"levelo://app?vid=999709f8-253f-419f-8506-1c508d9f5f41"},"vehicle_type_id":"4","last_reported":1743592094,"current_range_meters":13600,"station_id":"ce4bhp92rcd13ifvqhcg","pricing_plan_id":"cebpf4jnsgd1na2vs0mg"},{"bike_id":"bd114158-5388-4f2b-a90b-d93bc2e17122","system_id":"levelo_inurba_marseille","lat":43.23181,"lon":5.39988,"is_reserved":false,"is_disabled":false,"rental_uris":{"android":"levelo://app?vid=bd114158-5388-4f2b-a90b-d93bc2e17122","ios":"levelo://app?vid=bd114158-5388-4f2b-a90b-d93bc2e17122"},"vehicle_type_id":"4","last_reported":1743592094,"current_range_meters":13600,"station_id":"ce4bhn12rcd13ifvqgqg","pricing_plan_id":"cebpf4jnsgd1na2vs0mg"},{"bike_id":"adb099cf-52ed-409b-a796-c724fb1ce34d","system_id":"levelo_inurba_marseille","lat":43.23153,"lon":5.43719,"is_reserved":false,"is_disabled":false,"rental_uris":{"android":"levelo://app?vid=adb099cf-52ed-409b-a796-c724fb1ce34d","ios":"levelo://app?vid=adb099cf-52ed-409b-a796-c724fb1ce34d"},"vehicle_type_id":"4","last_reported":1743592094,"current_range_meters":13600,"station_id":"ce4bhmp2rcd13ifvqgog","pricing_plan_id":"cebpf4jnsgd1na2vs0mg"},{"bike_id":"7d49898d-4c6e-4131-9fdb-37de62f2c79c","system_id":"levelo_inurba_marseille","lat":43.28895,"lon":5.37123,"is_reserved":false,"is_disabled":false,"rental_uris":{"android":"levelo://app?vid=7d49898d-4c6e-4131-9fdb-37de62f2c79c","ios":"levelo://app?vid=7d49898d-4c6e-4131-9fdb-37de62f2c79c"},"vehicle_type_id":"4","last_reported":1743592094,"current_range_meters":13600,"station_id":"","pricing_plan_id":"cebpf4jnsgd1na2vs0mg"},{"bike_id":"69a626e7-4dc7-43e6-a7c7-bd380f5bf641","system_id":"levelo_inurba_marseille","lat":43.30959,"lon":5.39026,"is_reserved":false,"is_disabled":false,"rental_uris":{"android":"levelo://app?vid=69a626e7-4dc7-43e6-a7c7-bd380f5bf641","ios":"levelo://app?vid=69a626e7-4dc7-43e6-a7c7-bd380f5bf641"},"vehicle_type_id":"4","last_reported":1743592094,"current_range_meters":13600,"station_id":"ce4bgup2rcd13ifvqco0","pricing_plan_id":"cebpf4jnsgd1na2vs0mg"},{"bike_id":"e1b03b21-5eb0-483c-b4ac-ea8a29304382","system_id":"levelo_inurba_marseille","lat":43.23061,"lon":5.35493,"is_reserved":false,"is_disabled":false,"rental_uris":{"android":"levelo://app?vid=e1b03b21-5eb0-483c-b4ac-ea8a29304382","ios":"levelo://app?vid=e1b03b21-5eb0-483c-b4ac-ea8a29304382"},"vehicle_type_id":"4","last_reported":1743592094,"current_range_meters":14000,"station_id":"cpo3342slgdg3j2ifvpg","pricing_plan_id":"cebpf4jnsgd1na2vs0mg"},{"bike_id":"b59d42f8-47fe-47ff-881a-f2e8e872455b","system_id":"levelo_inurba_marseille","lat":43.28041,"lon":5.36943,"is_reserved":false,"is_disabled":false,"rental_uris":{"android":"levelo://app?vid=b59d42f8-47fe-47ff-881a-f2e8e872455b","ios":"levelo://app?vid=b59d42f8-47fe-47ff-881a-f2e8e872455b"},"vehicle_type_id":"4","last_reported":1743592094,"current_range_meters":14000,"station_id":"ce4bha12rcd13ifvqef0","pricing_plan_id":"cebpf4jnsgd1na2vs0mg"},{"bike_id":"08993795-dfe9-45f7-bcce-915109733961","system_id":"levelo_inurba_marseille","lat":43.26498,"lon":5.39544,"is_reserved":false,"is_disabled":false,"rental_uris":{"android":"levelo://app?vid=08993795-dfe9-45f7-bcce-915109733961","ios":"levelo://app?vid=08993795-dfe9-45f7-bcce-915109733961"},"vehicle_type_id":"4","last_reported":1743592094,"current_range_meters":14000,"station_id":"ce4bhi12rcd13ifvqfq0","pricing_plan_id":"cebpf4jnsgd1na2vs0mg"},{"bike_id":"6c319703-44c1-4041-b766-4bb1bb8b1188","system_id":"levelo_inurba_marseille","lat":43.29281,"lon":5.36849,"is_reserved":false,"is_disabled":false,"rental_uris":{"android":"levelo://app?vid=6c319703-44c1-4041-b766-4bb1bb8b1188","ios":"levelo://app?vid=6c319703-44c1-4041-b766-4bb1bb8b1188"},"vehicle_type_id":"4","last_reported":1743592094,"current_range_meters":14000,"station_id":"ce4bhbp2rcd13ifvqesg","pricing_plan_id":"cebpf4jnsgd1na2vs0mg"},{"bike_id":"cbb1bb20-5dab-4554-8f14-df33adbfef7b","system_id":"levelo_inurba_marseille","lat":43.25897,"lon":5.4087,"is_reserved":false,"is_disabled":true,"rental_uris":{"android":"levelo://app?vid=cbb1bb20-5dab-4554-8f14-df33adbfef7b","ios":"levelo://app?vid=cbb1bb20-5dab-4554-8f14-df33adbfef7b"},"vehicle_type_id":"4","last_reported":1743592094,"current_range_meters":14000,"station_id":"ce4bhm92rcd13ifvqglg","pricing_plan_id":"cebpf4jnsgd1na2vs0mg"},{"bike_id":"18b33a43-8113-4d0f-b40c-6a7201a04dd5","system_id":"levelo_inurba_marseille","lat":43.32363,"lon":5.36749,"is_reserved":false,"is_disabled":false,"rental_uris":{"android":"levelo://app?vid=18b33a43-8113-4d0f-b40c-6a7201a04dd5","ios":"levelo://app?vid=18b33a43-8113-4d0f-b40c-6a7201a04dd5"},"vehicle_type_id":"4","last_reported":1743592094,"current_range_meters":14000,"station_id":"ce4bhsh2rcd13ifvqi2g","pricing_plan_id":"cebpf4jnsgd1na2vs0mg"},{"bike_id":"cd83c8ac-ed09-4369-9279-b6f36f2bbd3c","system_id":"levelo_inurba_marseille","lat":43.30802,"lon":5.38233,"is_reserved":false,"is_disabled":false,"rental_uris":{"android":"levelo://app?vid=cd83c8ac-ed09-4369-9279-b6f36f2bbd3c","ios":"levelo://app?vid=cd83c8ac-ed09-4369-9279-b6f36f2bbd3c"},"vehicle_type_id":"4","last_reported":1743592094,"current_range_meters":14400,"station_id":"","pricing_plan_id":"cebpf4jnsgd1na2vs0mg"},{"bike_id":"7add08f3-1b1f-4ad3-8f8f-518ba3c7b572","system_id":"levelo_inurba_marseille","lat":43.26227,"lon":5.37428,"is_reserved":false,"is_disabled":false,"rental_uris":{"android":"levelo://app?vid=7add08f3-1b1f-4ad3-8f8f-518ba3c7b572","ios":"levelo://app?vid=7add08f3-1b1f-4ad3-8f8f-518ba3c7b572"},"vehicle_type_id":"4","last_reported":1743592094,"current_range_meters":14400,"station_id":"ce4bhgp2rcd13ifvqfc0","pricing_plan_id":"cebpf4jnsgd1na2vs0mg"},{"bike_id":"a4fae94b-5b43-4304-a3d0-ccdcba5e455f","system_id":"levelo_inurba_marseille","lat":43.30808,"lon":5.43518,"is_reserved":false,"is_disabled":false,"rental_uris":{"android":"levelo://app?vid=a4fae94b-5b43-4304-a3d0-ccdcba5e455f","ios":"levelo://app?vid=a4fae94b-5b43-4304-a3d0-ccdcba5e455f"},"vehicle_type_id":"4","last_reported":1743592094,"current_range_meters":14400,"station_id":"ce4bhph2rcd13ifvqheg","pricing_plan_id":"cebpf4jnsgd1na2vs0mg"},{"bike_id":"1a592dd4-05f6-451a-a281-45bcd19f68ca","system_id":"levelo_inurba_marseille","lat":43.23184,"lon":5.39985,"is_reserved":false,"is_disabled":false,"rental_uris":{"android":"levelo://app?vid=1a592dd4-05f6-451a-a281-45bcd19f68ca","ios":"levelo://app?vid=1a592dd4-05f6-451a-a281-45bcd19f68ca"},"vehicle_type_id":"4","last_reported":1743592094,"current_range_meters":14400,"station_id":"ce4bhn12rcd13ifvqgqg","pricing_plan_id":"cebpf4jnsgd1na2vs0mg"},{"bike_id":"1925d2eb-79cc-4495-ac55-0d86108c91ee","system_id":"levelo_inurba_marseille","lat":43.23186,"lon":5.39993,"is_reserved":false,"is_disabled":false,"rental_uris":{"android":"levelo://app?vid=1925d2eb-79cc-4495-ac55-0d86108c91ee","ios":"levelo://app?vid=1925d2eb-79cc-4495-ac55-0d86108c91ee"},"vehicle_type_id":"4","last_reported":1743592094,"current_range_meters":14400,"station_id":"ce4bhn12rcd13ifvqgqg","pricing_plan_id":"cebpf4jnsgd1na2vs0mg"},{"bike_id":"da126e71-b558-4a7c-aca3-4765aa0a1df8","system_id":"levelo_inurba_marseille","lat":43.29001,"lon":5.35604,"is_reserved":false,"is_disabled":false,"rental_uris":{"android":"levelo://app?vid=da126e71-b558-4a7c-aca3-4765aa0a1df8","ios":"levelo://app?vid=da126e71-b558-4a7c-aca3-4765aa0a1df8"},"vehicle_type_id":"4","last_reported":1743592094,"current_range_meters":14000,"station_id":"ce4bhb92rcd13ifvqen0","pricing_plan_id":"cebpf4jnsgd1na2vs0mg"},{"bike_id":"ddf4f7bc-b429-4ca6-98cc-3ac180d0ed5f","system_id":"levelo_inurba_marseille","lat":43.232,"lon":5.35542,"is_reserved":false,"is_disabled":false,"rental_uris":{"android":"levelo://app?vid=ddf4f7bc-b429-4ca6-98cc-3ac180d0ed5f","ios":"levelo://app?vid=ddf4f7bc-b429-4ca6-98cc-3ac180d0ed5f"},"vehicle_type_id":"4","last_reported":1743592094,"current_range_meters":14400,"station_id":"ce4bhu92rcd13ifvqi70","pricing_plan_id":"cebpf4jnsgd1na2vs0mg"},{"bike_id":"3026be77-df9c-4a4a-83d6-132b5a38a0dc","system_id":"levelo_inurba_marseille","lat":43.23179,"lon":5.39985,"is_reserved":false,"is_disabled":false,"rental_uris":{"android":"levelo://app?vid=3026be77-df9c-4a4a-83d6-132b5a38a0dc","ios":"levelo://app?vid=3026be77-df9c-4a4a-83d6-132b5a38a0dc"},"vehicle_type_id":"4","last_reported":1743592094,"current_range_meters":14400,"station_id":"ce4bhn12rcd13ifvqgqg","pricing_plan_id":"cebpf4jnsgd1na2vs0mg"},{"bike_id":"eca000f3-7adb-462c-b7ed-61fb5b2098fc","system_id":"levelo_inurba_marseille","lat":43.22939,"lon":5.35383,"is_reserved":false,"is_disabled":false,"rental_uris":{"android":"levelo://app?vid=eca000f3-7adb-462c-b7ed-61fb5b2098fc","ios":"levelo://app?vid=eca000f3-7adb-462c-b7ed-61fb5b2098fc"},"vehicle_type_id":"4","last_reported":1743592094,"current_range_meters":14400,"station_id":"cpo3532slgdg3j2ikp40","pricing_plan_id":"cebpf4jnsgd1na2vs0mg"},{"bike_id":"1f8f36ac-0472-4627-9d4c-f4ea00951f66","system_id":"levelo_inurba_marseille","lat":43.23182,"lon":5.39989,"is_reserved":false,"is_disabled":false,"rental_uris":{"android":"levelo://app?vid=1f8f36ac-0472-4627-9d4c-f4ea00951f66","ios":"levelo://app?vid=1f8f36ac-0472-4627-9d4c-f4ea00951f66"},"vehicle_type_id":"4","last_reported":1743592094,"current_range_meters":14400,"station_id":"ce4bhn12rcd13ifvqgqg","pricing_plan_id":"cebpf4jnsgd1na2vs0mg"},{"bike_id":"400fe392-8a11-4a2c-85cb-51b52efa2add","system_id":"levelo_inurba_marseille","lat":43.29786,"lon":5.38112,"is_reserved":false,"is_disabled":false,"rental_uris":{"android":"levelo://app?vid=400fe392-8a11-4a2c-85cb-51b52efa2add","ios":"levelo://app?vid=400fe392-8a11-4a2c-85cb-51b52efa2add"},"vehicle_type_id":"4","last_reported":1743592094,"current_range_meters":14400,"station_id":"ce4bgip2rcd13ifvqbb0","pricing_plan_id":"cebpf4jnsgd1na2vs0mg"},{"bike_id":"cdcbd677-de36-4eb5-a44b-c709503c46a5","system_id":"levelo_inurba_marseille","lat":43.26202,"lon":5.3793,"is_reserved":false,"is_disabled":false,"rental_uris":{"android":"levelo://app?vid=cdcbd677-de36-4eb5-a44b-c709503c46a5","ios":"levelo://app?vid=cdcbd677-de36-4eb5-a44b-c709503c46a5"},"vehicle_type_id":"4","last_reported":1743592094,"current_range_meters":14800,"station_id":"ce4bhjp2rcd13ifvqg90","pricing_plan_id":"cebpf4jnsgd1na2vs0mg"},{"bike_id":"9f62f29e-b083-4314-9e82-a49e79ecd17d","system_id":"levelo_inurba_marseille","lat":43.22949,"lon":5.35362,"is_reserved":false,"is_disabled":false,"rental_uris":{"android":"levelo://app?vid=9f62f29e-b083-4314-9e82-a49e79ecd17d","ios":"levelo://app?vid=9f62f29e-b083-4314-9e82-a49e79ecd17d"},"vehicle_type_id":"4","last_reported":1743592094,"current_range_meters":14800,"station_id":"cpo3532slgdg3j2ikp40","pricing_plan_id":"cebpf4jnsgd1na2vs0mg"},{"bike_id":"6e05811e-06e7-4304-8ce9-6c25e6bc01dd","system_id":"levelo_inurba_marseille","lat":43.32112,"lon":5.36777,"is_reserved":false,"is_disabled":false,"rental_uris":{"android":"levelo://app?vid=6e05811e-06e7-4304-8ce9-6c25e6bc01dd","ios":"levelo://app?vid=6e05811e-06e7-4304-8ce9-6c25e6bc01dd"},"vehicle_type_id":"4","last_reported":1743592094,"current_range_meters":15200,"station_id":"ce4bhrh2rcd13ifvqhug","pricing_plan_id":"cebpf4jnsgd1na2vs0mg"},{"bike_id":"5ea7cf2f-2c83-4f33-bf44-15cc1bad4dd4","system_id":"levelo_inurba_marseille","lat":43.27214,"lon":5.39179,"is_reserved":false,"is_disabled":false,"rental_uris":{"android":"levelo://app?vid=5ea7cf2f-2c83-4f33-bf44-15cc1bad4dd4","ios":"levelo://app?vid=5ea7cf2f-2c83-4f33-bf44-15cc1bad4dd4"},"vehicle_type_id":"4","last_reported":1743592094,"current_range_meters":15200,"station_id":"ce4bhhp2rcd13ifvqfm0","pricing_plan_id":"cebpf4jnsgd1na2vs0mg"},{"bike_id":"6d707f1b-ffbb-4313-9ff5-19c6f63aad43","system_id":"levelo_inurba_marseille","lat":43.24651,"lon":5.388567,"is_reserved":false,"is_disabled":false,"rental_uris":{"android":"levelo://app?vid=6d707f1b-ffbb-4313-9ff5-19c6f63aad43","ios":"levelo://app?vid=6d707f1b-ffbb-4313-9ff5-19c6f63aad43"},"vehicle_type_id":"4","last_reported":1743592094,"current_range_meters":15200,"station_id":"ce4bhg12rcd13ifvqf60","pricing_plan_id":"cebpf4jnsgd1na2vs0mg"},{"bike_id":"dc82e7cc-fca9-407e-94b1-12a4b04232c9","system_id":"levelo_inurba_marseille","lat":43.28711,"lon":5.39968,"is_reserved":false,"is_disabled":true,"rental_uris":{"android":"levelo://app?vid=dc82e7cc-fca9-407e-94b1-12a4b04232c9","ios":"levelo://app?vid=dc82e7cc-fca9-407e-94b1-12a4b04232c9"},"vehicle_type_id":"4","last_reported":1743592094,"current_range_meters":15200,"station_id":"ce4bho92rcd13ifvqh3g","pricing_plan_id":"cebpf4jnsgd1na2vs0mg"},{"bike_id":"a1566f65-7974-4adb-bc5b-c64d03a44f23","system_id":"levelo_inurba_marseille","lat":43.25017,"lon":5.38925,"is_reserved":false,"is_disabled":false,"rental_uris":{"android":"levelo://app?vid=a1566f65-7974-4adb-bc5b-c64d03a44f23","ios":"levelo://app?vid=a1566f65-7974-4adb-bc5b-c64d03a44f23"},"vehicle_type_id":"4","last_reported":1743592094,"current_range_meters":16000,"station_id":"ce4bhgp2rcd13ifvqfd0","pricing_plan_id":"cebpf4jnsgd1na2vs0mg"},{"bike_id":"62a0631e-546d-40b2-a063-9ddec04e2276","system_id":"levelo_inurba_marseille","lat":43.32127,"lon":5.36763,"is_reserved":false,"is_disabled":false,"rental_uris":{"android":"levelo://app?vid=62a0631e-546d-40b2-a063-9ddec04e2276","ios":"levelo://app?vid=62a0631e-546d-40b2-a063-9ddec04e2276"},"vehicle_type_id":"4","last_reported":1743592094,"current_range_meters":16000,"station_id":"ce4bhrh2rcd13ifvqhug","pricing_plan_id":"cebpf4jnsgd1na2vs0mg"},{"bike_id":"af1eb195-7b62-49b6-8333-a22bc59eb988","system_id":"levelo_inurba_marseille","lat":43.30533,"lon":5.36534,"is_reserved":false,"is_disabled":false,"rental_uris":{"android":"levelo://app?vid=af1eb195-7b62-49b6-8333-a22bc59eb988","ios":"levelo://app?vid=af1eb195-7b62-49b6-8333-a22bc59eb988"},"vehicle_type_id":"4","last_reported":1743592094,"current_range_meters":16000,"station_id":"ce4bgs12rcd13ifvqcag","pricing_plan_id":"cebpf4jnsgd1na2vs0mg"},{"bike_id":"352e2f30-1c52-4033-a43a-dc92205d76f3","system_id":"levelo_inurba_marseille","lat":43.29981,"lon":5.41304,"is_reserved":false,"is_disabled":false,"rental_uris":{"android":"levelo://app?vid=352e2f30-1c52-4033-a43a-dc92205d76f3","ios":"levelo://app?vid=352e2f30-1c52-4033-a43a-dc92205d76f3"},"vehicle_type_id":"4","last_reported":1743592094,"current_range_meters":16000,"station_id":"ce4bhp12rcd13ifvqh9g","pricing_plan_id":"cebpf4jnsgd1na2vs0mg"},{"bike_id":"d0af5f19-45bd-4729-b88d-89f6bf25212c","system_id":"levelo_inurba_marseille","lat":43.30539,"lon":5.36716,"is_reserved":false,"is_disabled":false,"rental_uris":{"android":"levelo://app?vid=d0af5f19-45bd-4729-b88d-89f6bf25212c","ios":"levelo://app?vid=d0af5f19-45bd-4729-b88d-89f6bf25212c"},"vehicle_type_id":"4","last_reported":1743592094,"current_range_meters":16000,"station_id":"ce4bgrp2rcd13ifvqc9g","pricing_plan_id":"cebpf4jnsgd1na2vs0mg"},{"bike_id":"db4f2fea-dd78-4839-8016-eeab270922ec","system_id":"levelo_inurba_marseille","lat":43.23167,"lon":5.4371,"is_reserved":false,"is_disabled":true,"rental_uris":{"android":"levelo://app?vid=db4f2fea-dd78-4839-8016-eeab270922ec","ios":"levelo://app?vid=db4f2fea-dd78-4839-8016-eeab270922ec"},"vehicle_type_id":"4","last_reported":1743592094,"current_range_meters":16000,"station_id":"ce4bhmp2rcd13ifvqgog","pricing_plan_id":"cebpf4jnsgd1na2vs0mg"},{"bike_id":"e7b309fe-ae17-4463-bfd1-7e7e15593842","system_id":"levelo_inurba_marseille","lat":43.24393,"lon":5.37063,"is_reserved":false,"is_disabled":false,"rental_uris":{"android":"levelo://app?vid=e7b309fe-ae17-4463-bfd1-7e7e15593842","ios":"levelo://app?vid=e7b309fe-ae17-4463-bfd1-7e7e15593842"},"vehicle_type_id":"4","last_reported":1743592094,"current_range_meters":16000,"station_id":"ce4bhhh2rcd13ifvqfk0","pricing_plan_id":"cebpf4jnsgd1na2vs0mg"},{"bike_id":"4d586f34-4a90-4904-9cb5-29d128dfa70d","system_id":"levelo_inurba_marseille","lat":43.26218,"lon":5.37443,"is_reserved":false,"is_disabled":false,"rental_uris":{"android":"levelo://app?vid=4d586f34-4a90-4904-9cb5-29d128dfa70d","ios":"levelo://app?vid=4d586f34-4a90-4904-9cb5-29d128dfa70d"},"vehicle_type_id":"4","last_reported":1743592094,"current_range_meters":16000,"station_id":"ce4bhgp2rcd13ifvqfc0","pricing_plan_id":"cebpf4jnsgd1na2vs0mg"},{"bike_id":"94ce65fd-4b4a-4349-b21d-580fec8fa1c1","system_id":"levelo_inurba_marseille","lat":43.25963,"lon":5.40922,"is_reserved":false,"is_disabled":false,"rental_uris":{"android":"levelo://app?vid=94ce65fd-4b4a-4349-b21d-580fec8fa1c1","ios":"levelo://app?vid=94ce65fd-4b4a-4349-b21d-580fec8fa1c1"},"vehicle_type_id":"4","last_reported":1743592094,"current_range_meters":16400,"station_id":"ce4bhm92rcd13ifvqglg","pricing_plan_id":"cebpf4jnsgd1na2vs0mg"},{"bike_id":"22d47046-8bb1-41ae-9bb4-96eb088b2e63","system_id":"levelo_inurba_marseille","lat":43.32104,"lon":5.36766,"is_reserved":false,"is_disabled":false,"rental_uris":{"android":"levelo://app?vid=22d47046-8bb1-41ae-9bb4-96eb088b2e63","ios":"levelo://app?vid=22d47046-8bb1-41ae-9bb4-96eb088b2e63"},"vehicle_type_id":"4","last_reported":1743592094,"current_range_meters":16400,"station_id":"ce4bhrh2rcd13ifvqhug","pricing_plan_id":"cebpf4jnsgd1na2vs0mg"},{"bike_id":"6fd15896-5697-470b-8f07-45b11106795c","system_id":"levelo_inurba_marseille","lat":43.32164,"lon":5.3677,"is_reserved":false,"is_disabled":false,"rental_uris":{"android":"levelo://app?vid=6fd15896-5697-470b-8f07-45b11106795c","ios":"levelo://app?vid=6fd15896-5697-470b-8f07-45b11106795c"},"vehicle_type_id":"4","last_reported":1743592094,"current_range_meters":16400,"station_id":"ce4bhrh2rcd13ifvqhug","pricing_plan_id":"cebpf4jnsgd1na2vs0mg"},{"bike_id":"97aa5e6f-e45b-4e21-a47e-52761ee9cdb1","system_id":"levelo_inurba_marseille","lat":43.3211,"lon":5.36766,"is_reserved":false,"is_disabled":false,"rental_uris":{"android":"levelo://app?vid=97aa5e6f-e45b-4e21-a47e-52761ee9cdb1","ios":"levelo://app?vid=97aa5e6f-e45b-4e21-a47e-52761ee9cdb1"},"vehicle_type_id":"4","last_reported":1743592094,"current_range_meters":16400,"station_id":"ce4bhrh2rcd13ifvqhug","pricing_plan_id":"cebpf4jnsgd1na2vs0mg"},{"bike_id":"78ca934a-98c9-4dbc-b5b6-c2ca906050d2","system_id":"levelo_inurba_marseille","lat":43.29748,"lon":5.38932,"is_reserved":false,"is_disabled":false,"rental_uris":{"android":"levelo://app?vid=78ca934a-98c9-4dbc-b5b6-c2ca906050d2","ios":"levelo://app?vid=78ca934a-98c9-4dbc-b5b6-c2ca906050d2"},"vehicle_type_id":"4","last_reported":1743592094,"current_range_meters":16400,"station_id":"","pricing_plan_id":"cebpf4jnsgd1na2vs0mg"},{"bike_id":"05a71bff-c724-466d-afb1-daa4e5513948","system_id":"levelo_inurba_marseille","lat":43.29851,"lon":5.36286,"is_reserved":false,"is_disabled":false,"rental_uris":{"android":"levelo://app?vid=05a71bff-c724-466d-afb1-daa4e5513948","ios":"levelo://app?vid=05a71bff-c724-466d-afb1-daa4e5513948"},"vehicle_type_id":"4","last_reported":1743592094,"current_range_meters":16400,"station_id":"ce4bgpp2rcd13ifvqc3g","pricing_plan_id":"cebpf4jnsgd1na2vs0mg"},{"bike_id":"e6f02e74-383c-4bae-b8c4-037430863270","system_id":"levelo_inurba_marseille","lat":43.230543,"lon":5.354897,"is_reserved":false,"is_disabled":false,"rental_uris":{"android":"levelo://app?vid=e6f02e74-383c-4bae-b8c4-037430863270","ios":"levelo://app?vid=e6f02e74-383c-4bae-b8c4-037430863270"},"vehicle_type_id":"4","last_reported":1743592094,"current_range_meters":16400,"station_id":"cpo3342slgdg3j2ifvpg","pricing_plan_id":"cebpf4jnsgd1na2vs0mg"},{"bike_id":"b86b5b87-f029-48ac-aa00-3a50d7e2c1d2","system_id":"levelo_inurba_marseille","lat":43.32361,"lon":5.36758,"is_reserved":false,"is_disabled":true,"rental_uris":{"android":"levelo://app?vid=b86b5b87-f029-48ac-aa00-3a50d7e2c1d2","ios":"levelo://app?vid=b86b5b87-f029-48ac-aa00-3a50d7e2c1d2"},"vehicle_type_id":"4","last_reported":1743592094,"current_range_meters":16400,"station_id":"ce4bhsh2rcd13ifvqi2g","pricing_plan_id":"cebpf4jnsgd1na2vs0mg"},{"bike_id":"5c335132-582d-4d00-9d96-90f43b1f40d7","system_id":"levelo_inurba_marseille","lat":43.29241,"lon":5.40899,"is_reserved":false,"is_disabled":false,"rental_uris":{"android":"levelo://app?vid=5c335132-582d-4d00-9d96-90f43b1f40d7","ios":"levelo://app?vid=5c335132-582d-4d00-9d96-90f43b1f40d7"},"vehicle_type_id":"4","last_reported":1743592094,"current_range_meters":16400,"station_id":"ce4bh192rcd13ifvqdc0","pricing_plan_id":"cebpf4jnsgd1na2vs0mg"},{"bike_id":"010ff397-c0d4-49b6-ae9d-c5c094fbc4c7","system_id":"levelo_inurba_marseille","lat":43.295227,"lon":5.385195,"is_reserved":false,"is_disabled":false,"rental_uris":{"android":"levelo://app?vid=010ff397-c0d4-49b6-ae9d-c5c094fbc4c7","ios":"levelo://app?vid=010ff397-c0d4-49b6-ae9d-c5c094fbc4c7"},"vehicle_type_id":"4","last_reported":1743592094,"current_range_meters":16400,"station_id":"","pricing_plan_id":"cebpf4jnsgd1na2vs0mg"},{"bike_id":"71601486-c3ad-43be-aeb2-ae490f1f69fc","system_id":"levelo_inurba_marseille","lat":43.26575,"lon":5.39045,"is_reserved":false,"is_disabled":false,"rental_uris":{"android":"levelo://app?vid=71601486-c3ad-43be-aeb2-ae490f1f69fc","ios":"levelo://app?vid=71601486-c3ad-43be-aeb2-ae490f1f69fc"},"vehicle_type_id":"4","last_reported":1743592094,"current_range_meters":16400,"station_id":"ce4bhe12rcd13ifvqf30","pricing_plan_id":"cebpf4jnsgd1na2vs0mg"},{"bike_id":"e878f4d7-be38-4226-85a4-142723e3b57b","system_id":"levelo_inurba_marseille","lat":43.30633,"lon":5.37131,"is_reserved":false,"is_disabled":false,"rental_uris":{"android":"levelo://app?vid=e878f4d7-be38-4226-85a4-142723e3b57b","ios":"levelo://app?vid=e878f4d7-be38-4226-85a4-142723e3b57b"},"vehicle_type_id":"4","last_reported":1743592094,"current_range_meters":16400,"station_id":"ce4bgqh2rcd13ifvqc4g","pricing_plan_id":"cebpf4jnsgd1na2vs0mg"},{"bike_id":"3be312d7-5ba5-4556-a281-37850f0f3c34","system_id":"levelo_inurba_marseille","lat":43.28696,"lon":5.38662,"is_reserved":false,"is_disabled":false,"rental_uris":{"android":"levelo://app?vid=3be312d7-5ba5-4556-a281-37850f0f3c34","ios":"levelo://app?vid=3be312d7-5ba5-4556-a281-37850f0f3c34"},"vehicle_type_id":"4","last_reported":1743592094,"current_range_meters":16800,"station_id":"ce4bh492rcd13ifvqdug","pricing_plan_id":"cebpf4jnsgd1na2vs0mg"},{"bike_id":"9a38df03-4999-4f0f-9d06-9baac8f50c8e","system_id":"levelo_inurba_marseille","lat":43.27216,"lon":5.39187,"is_reserved":false,"is_disabled":false,"rental_uris":{"android":"levelo://app?vid=9a38df03-4999-4f0f-9d06-9baac8f50c8e","ios":"levelo://app?vid=9a38df03-4999-4f0f-9d06-9baac8f50c8e"},"vehicle_type_id":"4","last_reported":1743592094,"current_range_meters":16800,"station_id":"ce4bhhp2rcd13ifvqfm0","pricing_plan_id":"cebpf4jnsgd1na2vs0mg"},{"bike_id":"3377c291-00ff-45d6-a038-d34a37e70d08","system_id":"levelo_inurba_marseille","lat":43.30806,"lon":5.3815,"is_reserved":false,"is_disabled":false,"rental_uris":{"android":"levelo://app?vid=3377c291-00ff-45d6-a038-d34a37e70d08","ios":"levelo://app?vid=3377c291-00ff-45d6-a038-d34a37e70d08"},"vehicle_type_id":"4","last_reported":1743592094,"current_range_meters":16800,"station_id":"ce4bgt12rcd13ifvqce0","pricing_plan_id":"cebpf4jnsgd1na2vs0mg"},{"bike_id":"af3b483b-6dc3-4f74-aa48-8d37a6fe015c","system_id":"levelo_inurba_marseille","lat":43.29734,"lon":5.37645,"is_reserved":false,"is_disabled":false,"rental_uris":{"android":"levelo://app?vid=af3b483b-6dc3-4f74-aa48-8d37a6fe015c","ios":"levelo://app?vid=af3b483b-6dc3-4f74-aa48-8d37a6fe015c"},"vehicle_type_id":"4","last_reported":1743592094,"current_range_meters":16800,"station_id":"ce4bgkh2rcd13ifvqbl0","pricing_plan_id":"cebpf4jnsgd1na2vs0mg"},{"bike_id":"6017bfc6-b273-4ba4-9488-310f242f3a92","system_id":"levelo_inurba_marseille","lat":43.31256,"lon":5.40205,"is_reserved":false,"is_disabled":true,"rental_uris":{"android":"levelo://app?vid=6017bfc6-b273-4ba4-9488-310f242f3a92","ios":"levelo://app?vid=6017bfc6-b273-4ba4-9488-310f242f3a92"},"vehicle_type_id":"4","last_reported":1743592094,"current_range_meters":16800,"station_id":"ce4bh092rcd13ifvqd30","pricing_plan_id":"cebpf4jnsgd1na2vs0mg"},{"bike_id":"c6335232-358d-4ecf-84cb-cfd13ad64d8c","system_id":"levelo_inurba_marseille","lat":43.29778,"lon":5.39336,"is_reserved":false,"is_disabled":false,"rental_uris":{"android":"levelo://app?vid=c6335232-358d-4ecf-84cb-cfd13ad64d8c","ios":"levelo://app?vid=c6335232-358d-4ecf-84cb-cfd13ad64d8c"},"vehicle_type_id":"4","last_reported":1743592094,"current_range_meters":16800,"station_id":"chh1huq6cuj3fo74tm60","pricing_plan_id":"cebpf4jnsgd1na2vs0mg"},{"bike_id":"fc1fdc68-d09b-4a01-93ce-260858f38dfc","system_id":"levelo_inurba_marseille","lat":43.27216,"lon":5.39167,"is_reserved":false,"is_disabled":false,"rental_uris":{"android":"levelo://app?vid=fc1fdc68-d09b-4a01-93ce-260858f38dfc","ios":"levelo://app?vid=fc1fdc68-d09b-4a01-93ce-260858f38dfc"},"vehicle_type_id":"4","last_reported":1743592094,"current_range_meters":16800,"station_id":"ce4bhhp2rcd13ifvqfm0","pricing_plan_id":"cebpf4jnsgd1na2vs0mg"},{"bike_id":"e3a29d38-a611-4b12-87ef-2fb8a21c41d5","system_id":"levelo_inurba_marseille","lat":43.22927,"lon":5.35375,"is_reserved":false,"is_disabled":false,"rental_uris":{"android":"levelo://app?vid=e3a29d38-a611-4b12-87ef-2fb8a21c41d5","ios":"levelo://app?vid=e3a29d38-a611-4b12-87ef-2fb8a21c41d5"},"vehicle_type_id":"4","last_reported":1743592094,"current_range_meters":16800,"station_id":"cpo3532slgdg3j2ikp40","pricing_plan_id":"cebpf4jnsgd1na2vs0mg"},{"bike_id":"c1c63035-c83b-4419-8cbf-133778d95125","system_id":"levelo_inurba_marseille","lat":43.29794,"lon":5.3936,"is_reserved":false,"is_disabled":true,"rental_uris":{"android":"levelo://app?vid=c1c63035-c83b-4419-8cbf-133778d95125","ios":"levelo://app?vid=c1c63035-c83b-4419-8cbf-133778d95125"},"vehicle_type_id":"4","last_reported":1743592094,"current_range_meters":16800,"station_id":"chh1huq6cuj3fo74tm60","pricing_plan_id":"cebpf4jnsgd1na2vs0mg"},{"bike_id":"06c524b4-e6a3-4755-a127-15f846fd7430","system_id":"levelo_inurba_marseille","lat":43.30475,"lon":5.37906,"is_reserved":false,"is_disabled":false,"rental_uris":{"android":"levelo://app?vid=06c524b4-e6a3-4755-a127-15f846fd7430","ios":"levelo://app?vid=06c524b4-e6a3-4755-a127-15f846fd7430"},"vehicle_type_id":"4","last_reported":1743592094,"current_range_meters":14800,"station_id":"ce4bgup2rcd13ifvqcn0","pricing_plan_id":"cebpf4jnsgd1na2vs0mg"},{"bike_id":"41783f6b-9fb6-4fb1-8b6c-0c51ec4dc7d0","system_id":"levelo_inurba_marseille","lat":43.29524,"lon":5.39026,"is_reserved":false,"is_disabled":false,"rental_uris":{"android":"levelo://app?vid=41783f6b-9fb6-4fb1-8b6c-0c51ec4dc7d0","ios":"levelo://app?vid=41783f6b-9fb6-4fb1-8b6c-0c51ec4dc7d0"},"vehicle_type_id":"4","last_reported":1743592094,"current_range_meters":17200,"station_id":"ce4bh3p2rcd13ifvqdp0","pricing_plan_id":"cebpf4jnsgd1na2vs0mg"},{"bike_id":"6f2393cd-1b17-405b-8699-5d620ab11ae5","system_id":"levelo_inurba_marseille","lat":43.30653,"lon":5.40096,"is_reserved":false,"is_disabled":false,"rental_uris":{"android":"levelo://app?vid=6f2393cd-1b17-405b-8699-5d620ab11ae5","ios":"levelo://app?vid=6f2393cd-1b17-405b-8699-5d620ab11ae5"},"vehicle_type_id":"4","last_reported":1743592094,"current_range_meters":17200,"station_id":"ce4bh112rcd13ifvqda0","pricing_plan_id":"cebpf4jnsgd1na2vs0mg"},{"bike_id":"fe292e84-5f35-4b6c-af67-c3ea3dfe7bec","system_id":"levelo_inurba_marseille","lat":43.27335,"lon":5.39133,"is_reserved":false,"is_disabled":true,"rental_uris":{"android":"levelo://app?vid=fe292e84-5f35-4b6c-af67-c3ea3dfe7bec","ios":"levelo://app?vid=fe292e84-5f35-4b6c-af67-c3ea3dfe7bec"},"vehicle_type_id":"4","last_reported":1743592094,"current_range_meters":17200,"station_id":"ce4bhgp2rcd13ifvqfe0","pricing_plan_id":"cebpf4jnsgd1na2vs0mg"},{"bike_id":"6ab324d5-4d99-44af-8a7a-75d3aef4747a","system_id":"levelo_inurba_marseille","lat":43.28356,"lon":5.38635,"is_reserved":false,"is_disabled":false,"rental_uris":{"android":"levelo://app?vid=6ab324d5-4d99-44af-8a7a-75d3aef4747a","ios":"levelo://app?vid=6ab324d5-4d99-44af-8a7a-75d3aef4747a"},"vehicle_type_id":"4","last_reported":1743592094,"current_range_meters":16800,"station_id":"ce4bh492rcd13ifvqdvg","pricing_plan_id":"cebpf4jnsgd1na2vs0mg"},{"bike_id":"6c1db0c6-86aa-4742-ac4e-bc548194a4da","system_id":"levelo_inurba_marseille","lat":43.23156,"lon":5.43725,"is_reserved":false,"is_disabled":false,"rental_uris":{"android":"levelo://app?vid=6c1db0c6-86aa-4742-ac4e-bc548194a4da","ios":"levelo://app?vid=6c1db0c6-86aa-4742-ac4e-bc548194a4da"},"vehicle_type_id":"4","last_reported":1743592094,"current_range_meters":17200,"station_id":"ce4bhmp2rcd13ifvqgog","pricing_plan_id":"cebpf4jnsgd1na2vs0mg"},