{"last_updated":1731168543,"ttl":60,"version":"2.2","data":{"bikes":[{"bike_id":"dcd8b508-2c18-4839-ab68-7b52cc2d3fb7","system_id":"levelo_inurba_marseille","lat":43.27072,"lon":5.42279,"is_reserved":false,"is_disabled":false,"rental_uris":{"android":"levelo://app?vid=dcd8b508-2c18-4839-ab68-7b52cc2d3fb7","ios":"levelo://app?vid=dcd8b508-2c18-4839-ab68-7b52cc2d3fb7"},"vehicle_type_id":"4","last_reported":1731168543,"current_range_meters":36000,"station_id":"ce4bhk92rcd13ifvqgb0","pricing_plan_id":"cebpf4jnsgd1na2vs0mg"},{"bike_id":"e94e2327-9eaf-4d26-bd7f-903afa708be6","system_id":"levelo_inurba_marseille","lat":43.33727,"lon":5.39194,"is_reserved":false,"is_disabled":false,"rental_uris":{"android":"levelo://app?vid=e94e2327-9eaf-4d26-bd7f-903afa708be6","ios":"levelo://app?vid=e94e2327-9eaf-4d26-bd7f-903afa708be6"},"vehicle_type_id":"4","last_reported":1731168543,"current_range_meters":18000,"station_id":"ce4bhr92rcd13ifvqhsg","pricing_plan_id":"cebpf4jnsgd1na2vs0mg"},{"bike_id":"f566e593-87d6-453f-8798-ca38971e81db","system_id":"levelo_inurba_marseille","lat":43.32045,"lon":5.4155,"is_reserved":false,"is_disabled":false,"rental_uris":{"android":"levelo://app?vid=f566e593-87d6-453f-8798-ca38971e81db","ios":"levelo://app?vid=f566e593-87d6-453f-8798-ca38971e81db"},"vehicle_type_id":"4","last_reported":1731168543,"current_range_meters":16800,"station_id":"ce4bhq92rcd13ifvqhkg","pricing_plan_id":"cebpf4jnsgd1na2vs0mg"},{"bike_id":"388e00be-d072-4a5a-824c-17a811b0894a","system_id":"levelo_inurba_marseille","lat":43.3054,"lon":5.36544,"is_reserved":false,"is_disabled":false,"rental_uris":{"android":"levelo://app?vid=388e00be-d072-4a5a-824c-17a811b0894a","ios":"levelo://app?vid=388e00be-d072-4a5a-824c-17a811b0894a"},"vehicle_type_id":"4","last_reported":1731168543,"current_range_meters":8400,"station_id":"ce4bgs12rcd13ifvqcag","pricing_plan_id":"cebpf4jnsgd1na2vs0mg"},{"bike_id":"68bb9078-c705-4e4c-81de-7ae7c7d86c43","system_id":"levelo_inurba_marseille","lat":43.31754,"lon":5.37721,"is_reserved":false,"is_disabled":false,"rental_uris":{"android":"levelo://app?vid=68bb9078-c705-4e4c-81de-7ae7c7d86c43","ios":"levelo://app?vid=68bb9078-c705-4e4c-81de-7ae7c7d86c43"},"vehicle_type_id":"4","last_reported":1731168543,"current_range_meters":28000,"station_id":"ce4bgth2rcd13ifvqch0","pricing_plan_id":"cebpf4jnsgd1na2vs0mg"},{"bike_id":"18102e7a-e3fe-41d8-a668-6d364c73f3e8","system_id":"levelo_inurba_marseille","lat":43.29254,"lon":5.36853,"is_reserved":false,"is_disabled":false,"rental_uris":{"android":"levelo://app?vid=18102e7a-e3fe-41d8-a668-6d364c73f3e8","ios":"levelo://app?vid=18102e7a-e3fe-41d8-a668-6d364c73f3e8"},"vehicle_type_id":"4","last_reported":1731168543,"current_range_meters":35600,"station_id":"ce4bhbp2rcd13ifvqesg","pricing_plan_id":"cebpf4jnsgd1na2vs0mg"},{"bike_id":"1454e072-b9aa-4bfb-8b3e-afa457118b98","system_id":"levelo_inurba_marseille","lat":43.29288,"lon":5.36851,"is_reserved":false,"is_disabled":false,"rental_uris":{"android":"levelo://app?vid=1454e072-b9aa-4bfb-8b3e-afa457118b98","ios":"levelo://app?vid=1454e072-b9aa-4bfb-8b3e-afa457118b98"},"vehicle_type_id":"4","last_reported":1731168543,"current_range_meters":38800,"station_id":"ce4bhbp2rcd13ifvqesg","pricing_plan_id":"cebpf4jnsgd1na2vs0mg"},{"bike_id":"93343f8b-556c-40bb-8a0c-99b9004b097e","system_id":"levelo_inurba_marseille","lat":43.25931,"lon":5.40918,"is_reserved":false,"is_disabled":false,"rental_uris":{"android":"levelo://app?vid=93343f8b-556c-40bb-8a0c-99b9004b097e","ios":"levelo://app?vid=93343f8b-556c-40bb-8a0c-99b9004b097e"},"vehicle_type_id":"4","last_reported":1731168543,"current_range_meters":6400,"station_id":"ce4bhm92rcd13ifvqglg","pricing_plan_id":"cebpf4jnsgd1na2vs0mg"},{"bike_id":"e1672ba0-2629-4853-b484-9fa9a266511b","system_id":"levelo_inurba_marseille","lat":43.30958,"lon":5.39037,"is_reserved":false,"is_disabled":false,"rental_uris":{"android":"levelo://app?vid=e1672ba0-2629-4853-b484-9fa9a266511b","ios":"levelo://app?vid=e1672ba0-2629-4853-b484-9fa9a266511b"},"vehicle_type_id":"4","last_reported":1731168543,"current_range_meters":8400,"station_id":"ce4bgup2rcd13ifvqco0","pricing_plan_id":"cebpf4jnsgd1na2vs0mg"},{"bike_id":"12b93926-0633-4d72-aa22-4594b78bbd2d","system_id":"levelo_inurba_marseille","lat":43.30533,"lon":5.36562,"is_reserved":false,"is_disabled":false,"rental_uris":{"android":"levelo://app?vid=12b93926-0633-4d72-aa22-4594b78bbd2d","ios":"levelo://app?vid=12b93926-0633-4d72-aa22-4594b78bbd2d"},"vehicle_type_id":"4","last_reported":1731168543,"current_range_meters":23200,"station_id":"ce4bgs12rcd13ifvqcag","pricing_plan_id":"cebpf4jnsgd1na2vs0mg"},{"bike_id":"5178b95b-0df3-48d4-a7d5-eba6e4a5a221","system_id":"levelo_inurba_marseille","lat":43.29189,"lon":5.35803,"is_reserved":false,"is_disabled":false,"rental_uris":{"android":"levelo://app?vid=5178b95b-0df3-48d4-a7d5-eba6e4a5a221","ios":"levelo://app?vid=5178b95b-0df3-48d4-a7d5-eba6e4a5a221"},"vehicle_type_id":"4","last_reported":1731168543,"current_range_meters":37600,"station_id":"ce4bhb12rcd13ifvqel0","pricing_plan_id":"cebpf4jnsgd1na2vs0mg"},{"bike_id":"cd20034e-b421-4446-91e0-7f4ee24db35f","system_id":"levelo_inurba_marseille","lat":43.2993,"lon":5.36558,"is_reserved":false,"is_disabled":false,"rental_uris":{"android":"levelo://app?vid=cd20034e-b421-4446-91e0-7f4ee24db35f","ios":"levelo://app?vid=cd20034e-b421-4446-91e0-7f4ee24db35f"},"vehicle_type_id":"4","last_reported":1731168543,"current_range_meters":30000,"station_id":"ce4bgm92rcd13ifvqbr0","pricing_plan_id":"cebpf4jnsgd1na2vs0mg"},{"bike_id":"1bf9b2ec-96f1-44e8-ad3a-e739bca9fbc2","system_id":"levelo_inurba_marseille","lat":43.26786,"lon":5.39412,"is_reserved":false,"is_disabled":false,"rental_uris":{"android":"levelo://app?vid=1bf9b2ec-96f1-44e8-ad3a-e739bca9fbc2","ios":"levelo://app?vid=1bf9b2ec-96f1-44e8-ad3a-e739bca9fbc2"},"vehicle_type_id":"4","last_reported":1731168543,"current_range_meters":30400,"station_id":"ce4bhh12rcd13ifvqfg0","pricing_plan_id":"cebpf4jnsgd1na2vs0mg"},{"bike_id":"b067ae9b-8f45-4e88-b6f7-faba74e7e1fe","system_id":"levelo_inurba_marseille","lat":43.25001,"lon":5.38926,"is_reserved":false,"is_disabled":false,"rental_uris":{"android":"levelo://app?vid=b067ae9b-8f45-4e88-b6f7-faba74e7e1fe","ios":"levelo://app?vid=b067ae9b-8f45-4e88-b6f7-faba74e7e1fe"},"vehicle_type_id":"4","last_reported":1731168543,"current_range_meters":27600,"station_id":"ce4bhgp2rcd13ifvqfd0","pricing_plan_id":"cebpf4jnsgd1na2vs0mg"},{"bike_id":"9bf0ae4e-c806-4827-85b7-ff39e59d0bc2","system_id":"levelo_inurba_marseille","lat":43.26781,"lon":5.39417,"is_reserved":false,"is_disabled":false,"rental_uris":{"android":"levelo://app?vid=9bf0ae4e-c806-4827-85b7-ff39e59d0bc2","ios":"levelo://app?vid=9bf0ae4e-c806-4827-85b7-ff39e59d0bc2"},"vehicle_type_id":"4","last_reported":1731168543,"current_range_meters":15200,"station_id":"ce4bhh12rcd13ifvqfg0","pricing_plan_id":"cebpf4jnsgd1na2vs0mg"},{"bike_id":"c23d17fe-0e3d-4d93-a323-48bd73275f1c","system_id":"levelo_inurba_marseille","lat":43.30313,"lon":5.36898,"is_reserved":false,"is_disabled":false,"rental_uris":{"android":"levelo://app?vid=c23d17fe-0e3d-4d93-a323-48bd73275f1c","ios":"levelo://app?vid=c23d17fe-0e3d-4d93-a323-48bd73275f1c"},"vehicle_type_id":"4","last_reported":1731168543,"current_range_meters":36800,"station_id":"ce4bgqh2rcd13ifvqc5g","pricing_plan_id":"cebpf4jnsgd1na2vs0mg"},{"bike_id":"2fd6dc22-dc4f-436f-8f09-ea747d8c2aa2","system_id":"levelo_inurba_marseille","lat":43.239609,"lon":5.366311,"is_reserved":false,"is_disabled":false,"rental_uris":{"android":"levelo://app?vid=2fd6dc22-dc4f-436f-8f09-ea747d8c2aa2","ios":"levelo://app?vid=2fd6dc22-dc4f-436f-8f09-ea747d8c2aa2"},"vehicle_type_id":"4","last_reported":1731168543,"current_range_meters":38800,"station_id":"ce4bhi12rcd13ifvqfp0","pricing_plan_id":"cebpf4jnsgd1na2vs0mg"},{"bike_id":"e4741e83-8d7f-4eba-a939-6b9a195f55bd","system_id":"levelo_inurba_marseille","lat":43.29513,"lon":5.38004,"is_reserved":false,"is_disabled":false,"rental_uris":{"android":"levelo://app?vid=e4741e83-8d7f-4eba-a939-6b9a195f55bd","ios":"levelo://app?vid=e4741e83-8d7f-4eba-a939-6b9a195f55bd"},"vehicle_type_id":"4","last_reported":1731168543,"current_range_meters":38000,"station_id":"","pricing_plan_id":"cebpf4jnsgd1na2vs0mg"},{"bike_id":"f9de8ad8-7f1a-4752-8625-b54d5a8bcdea","system_id":"levelo_inurba_marseille","lat":43.26793,"lon":5.39417,"is_reserved":false,"is_disabled":false,"rental_uris":{"android":"levelo://app?vid=f9de8ad8-7f1a-4752-8625-b54d5a8bcdea","ios":"levelo://app?vid=f9de8ad8-7f1a-4752-8625-b54d5a8bcdea"},"vehicle_type_id":"4","last_reported":1731168543,"current_range_meters":20000,"station_id":"ce4bhh12rcd13ifvqfg0","pricing_plan_id":"cebpf4jnsgd1na2vs0mg"},{"bike_id":"317c7bde-35f9-45da-a1d1-6e43e64d2131","system_id":"levelo_inurba_marseille","lat":43.30123,"lon":5.38777,"is_reserved":false,"is_disabled":false,"rental_uris":{"android":"levelo://app?vid=317c7bde-35f9-45da-a1d1-6e43e64d2131","ios":"levelo://app?vid=317c7bde-35f9-45da-a1d1-6e43e64d2131"},"vehicle_type_id":"4","last_reported":1731168543,"current_range_meters":38000,"station_id":"ce4bghh2rcd13ifvqb60","pricing_plan_id":"cebpf4jnsgd1na2vs0mg"},{"bike_id":"15ffea49-11f3-4adf-9ac4-88275cfef70a","system_id":"levelo_inurba_marseille","lat":43.259489,"lon":5.394631,"is_reserved":false,"is_disabled":false,"rental_uris":{"android":"levelo://app?vid=15ffea49-11f3-4adf-9ac4-88275cfef70a","ios":"levelo://app?vid=15ffea49-11f3-4adf-9ac4-88275cfef70a"},"vehicle_type_id":"4","last_reported":1731168543,"current_range_meters":10000,"station_id":"ce4bhh92rcd13ifvqfj0","pricing_plan_id":"cebpf4jnsgd1na2vs0mg"},{"bike_id":"b9059161-bc2a-4853-8231-de961bd5f1e7","system_id":"levelo_inurba_marseille","lat":43.33723,"lon":5.39183,"is_reserved":false,"is_disabled":false,"rental_uris":{"android":"levelo://app?vid=b9059161-bc2a-4853-8231-de961bd5f1e7","ios":"levelo://app?vid=b9059161-bc2a-4853-8231-de961bd5f1e7"},"vehicle_type_id":"4","last_reported":1731168543,"current_range_meters":22400,"station_id":"ce4bhr92rcd13ifvqhsg","pricing_plan_id":"cebpf4jnsgd1na2vs0mg"},{"bike_id":"842b65f8-a3af-443b-8d42-37ce5a79ba02","system_id":"levelo_inurba_marseille","lat":43.23962,"lon":5.36631,"is_reserved":false,"is_disabled":false,"rental_uris":{"android":"levelo://app?vid=842b65f8-a3af-443b-8d42-37ce5a79ba02","ios":"levelo://app?vid=842b65f8-a3af-443b-8d42-37ce5a79ba02"},"vehicle_type_id":"4","last_reported":1731168543,"current_range_meters":15200,"station_id":"ce4bhi12rcd13ifvqfp0","pricing_plan_id":"cebpf4jnsgd1na2vs0mg"},{"bike_id":"acc2504b-c4dc-4720-a8e1-808a9771f915","system_id":"levelo_inurba_marseille","lat":43.30782,"lon":5.37654,"is_reserved":false,"is_disabled":false,"rental_uris":{"android":"levelo://app?vid=acc2504b-c4dc-4720-a8e1-808a9771f915","ios":"levelo://app?vid=acc2504b-c4dc-4720-a8e1-808a9771f915"},"vehicle_type_id":"4","last_reported":1731168543,"current_range_meters":14400,"station_id":"ce4bgv92rcd13ifvqcq0","pricing_plan_id":"cebpf4jnsgd1na2vs0mg"},{"bike_id":"9d060b47-c978-4432-b622-c8056cdba2bd","system_id":"levelo_inurba_marseille","lat":43.27063,"lon":5.42285,"is_reserved":false,"is_disabled":false,"rental_uris":{"android":"levelo://app?vid=9d060b47-c978-4432-b622-c8056cdba2bd","ios":"levelo://app?vid=9d060b47-c978-4432-b622-c8056cdba2bd"},"vehicle_type_id":"4","last_reported":1731168543,"current_range_meters":16400,"station_id":"ce4bhk92rcd13ifvqgb0","pricing_plan_id":"cebpf4jnsgd1na2vs0mg"},{"bike_id":"7f6039b9-3968-4840-8062-3d5a572ce874","system_id":"levelo_inurba_marseille","lat":43.29624,"lon":5.38787,"is_reserved":false,"is_disabled":false,"rental_uris":{"android":"levelo://app?vid=7f6039b9-3968-4840-8062-3d5a572ce874","ios":"levelo://app?vid=7f6039b9-3968-4840-8062-3d5a572ce874"},"vehicle_type_id":"4","last_reported":1731168543,"current_range_meters":36400,"station_id":"","pricing_plan_id":"cebpf4jnsgd1na2vs0mg"},{"bike_id":"5c37cb90-c48b-496b-8029-e60a720a6c00","system_id":"levelo_inurba_marseille","lat":43.29559,"lon":5.37508,"is_reserved":false,"is_disabled":false,"rental_uris":{"android":"levelo://app?vid=5c37cb90-c48b-496b-8029-e60a720a6c00","ios":"levelo://app?vid=5c37cb90-c48b-496b-8029-e60a720a6c00"},"vehicle_type_id":"4","last_reported":1731168543,"current_range_meters":38400,"station_id":"ce4bgh92rcd13ifvqb50","pricing_plan_id":"cebpf4jnsgd1na2vs0mg"},{"bike_id":"d737564a-8ea0-4e66-a8fd-ac5eb3ac89bc","system_id":"levelo_inurba_marseille","lat":43.295288,"lon":5.385339,"is_reserved":false,"is_disabled":false,"rental_uris":{"android":"levelo://app?vid=d737564a-8ea0-4e66-a8fd-ac5eb3ac89bc","ios":"levelo://app?vid=d737564a-8ea0-4e66-a8fd-ac5eb3ac89bc"},"vehicle_type_id":"4","last_reported":1731168543,"current_range_meters":20800,"station_id":"ce4bgop2rcd13ifvqc1g","pricing_plan_id":"cebpf4jnsgd1na2vs0mg"},{"bike_id":"022a6c3f-2c40-4cbf-9753-f6fa44b0f843","system_id":"levelo_inurba_marseille","lat":43.312831,"lon":5.401712,"is_reserved":false,"is_disabled":false,"rental_uris":{"android":"levelo://app?vid=022a6c3f-2c40-4cbf-9753-f6fa44b0f843","ios":"levelo://app?vid=022a6c3f-2c40-4cbf-9753-f6fa44b0f843"},"vehicle_type_id":"4","last_reported":1731168543,"current_range_meters":38800,"station_id":"ce4bh092rcd13ifvqd30","pricing_plan_id":"cebpf4jnsgd1na2vs0mg"},{"bike_id":"d1e83aef-1954-4a85-9961-213f10246b93","system_id":"levelo_inurba_marseille","lat":43.25501,"lon":5.37652,"is_reserved":false,"is_disabled":false,"rental_uris":{"android":"levelo://app?vid=d1e83aef-1954-4a85-9961-213f10246b93","ios":"levelo://app?vid=d1e83aef-1954-4a85-9961-213f10246b93"},"vehicle_type_id":"4","last_reported":1731168543,"current_range_meters":8000,"station_id":"ce4bhh12rcd13ifvqff0","pricing_plan_id":"cebpf4jnsgd1na2vs0mg"},{"bike_id":"20c8a7db-ed29-494d-99c4-35e53560c5bb","system_id":"levelo_inurba_marseille","lat":43.28034,"lon":5.36948,"is_reserved":false,"is_disabled":false,"rental_uris":{"android":"levelo://app?vid=20c8a7db-ed29-494d-99c4-35e53560c5bb","ios":"levelo://app?vid=20c8a7db-ed29-494d-99c4-35e53560c5bb"},"vehicle_type_id":"4","last_reported":1731168543,"current_range_meters":28000,"station_id":"ce4bha12rcd13ifvqef0","pricing_plan_id":"cebpf4jnsgd1na2vs0mg"},{"bike_id":"3a7fbd7a-9abe-43b5-a899-b70956aab034","system_id":"levelo_inurba_marseille","lat":43.30882,"lon":5.37188,"is_reserved":false,"is_disabled":false,"rental_uris":{"android":"levelo://app?vid=3a7fbd7a-9abe-43b5-a899-b70956aab034","ios":"levelo://app?vid=3a7fbd7a-9abe-43b5-a899-b70956aab034"},"vehicle_type_id":"4","last_reported":1731168543,"current_range_meters":15200,"station_id":"ce4bguh2rcd13ifvqckg","pricing_plan_id":"cebpf4jnsgd1na2vs0mg"},{"bike_id":"828a5fed-bfbb-4fb7-ac2d-ffaed39a8507","system_id":"levelo_inurba_marseille","lat":43.30456,"lon":5.37914,"is_reserved":false,"is_disabled":false,"rental_uris":{"android":"levelo://app?vid=828a5fed-bfbb-4fb7-ac2d-ffaed39a8507","ios":"levelo://app?vid=828a5fed-bfbb-4fb7-ac2d-ffaed39a8507"},"vehicle_type_id":"4","last_reported":1731168543,"current_range_meters":38800,"station_id":"ce4bgup2rcd13ifvqcn0","pricing_plan_id":"cebpf4jnsgd1na2vs0mg"},{"bike_id":"29a72733-366a-469d-8900-47fdb5453f71","system_id":"levelo_inurba_marseille","lat":43.31262,"lon":5.40176,"is_reserved":false,"is_disabled":false,"rental_uris":{"android":"levelo://app?vid=29a72733-366a-469d-8900-47fdb5453f71","ios":"levelo://app?vid=29a72733-366a-469d-8900-47fdb5453f71"},"vehicle_type_id":"4","last_reported":1731168543,"current_range_meters":20400,"station_id":"ce4bh092rcd13ifvqd30","pricing_plan_id":"cebpf4jnsgd1na2vs0mg"},{"bike_id":"ce406d4c-da17-4ca3-bd12-bb947c8865b4","system_id":"levelo_inurba_marseille","lat":43.32286,"lon":5.38257,"is_reserved":false,"is_disabled":false,"rental_uris":{"android":"levelo://app?vid=ce406d4c-da17-4ca3-bd12-bb947c8865b4","ios":"levelo://app?vid=ce406d4c-da17-4ca3-bd12-bb947c8865b4"},"vehicle_type_id":"4","last_reported":1731168543,"current_range_meters":17600,"station_id":"ce4bhr12rcd13ifvqhqg","pricing_plan_id":"cebpf4jnsgd1na2vs0mg"},{"bike_id":"662eb69d-052d-4d1e-9cd4-9d1f354f9bcf","system_id":"levelo_inurba_marseille","lat":43.2991,"lon":5.37461,"is_reserved":false,"is_disabled":false,"rental_uris":{"android":"levelo://app?vid=662eb69d-052d-4d1e-9cd4-9d1f354f9bcf","ios":"levelo://app?vid=662eb69d-052d-4d1e-9cd4-9d1f354f9bcf"},"vehicle_type_id":"4","last_reported":1731168543,"current_range_meters":38000,"station_id":"ce4bgjh2rcd13ifvqbg0","pricing_plan_id":"cebpf4jnsgd1na2vs0mg"},{"bike_id":"71bb50a1-6cdb-4a6f-b24c-1cbd7c603ad3","system_id":"levelo_inurba_marseille","lat":43.31424,"lon":5.37408,"is_reserved":false,"is_disabled":false,"rental_uris":{"android":"levelo://app?vid=71bb50a1-6cdb-4a6f-b24c-1cbd7c603ad3","ios":"levelo://app?vid=71bb50a1-6cdb-4a6f-b24c-1cbd7c603ad3"},"vehicle_type_id":"4","last_reported":1731168543,"current_range_meters":27200,"station_id":"","pricing_plan_id":"cebpf4jnsgd1na2vs0mg"},{"bike_id":"c94909dd-e782-4a49-bf66-6d27f36ac2ee","system_id":"levelo_inurba_marseille","lat":43.29621,"lon":5.38084,"is_reserved":false,"is_disabled":false,"rental_uris":{"android":"levelo://app?vid=c94909dd-e782-4a49-bf66-6d27f36ac2ee","ios":"levelo://app?vid=c94909dd-e782-4a49-bf66-6d27f36ac2ee"},"vehicle_type_id":"4","last_reported":1731168543,"current_range_meters":34000,"station_id":"ce4bgl12rcd13ifvqbo0","pricing_plan_id":"cebpf4jnsgd1na2vs0mg"},{"bike_id":"b8fdd341-0697-41ca-82c9-e4253415f4e6","system_id":"levelo_inurba_marseille","lat":43.23053,"lon":5.35494,"is_reserved":false,"is_disabled":false,"rental_uris":{"android":"levelo://app?vid=b8fdd341-0697-41ca-82c9-e4253415f4e6","ios":"levelo://app?vid=b8fdd341-0697-41ca-82c9-e4253415f4e6"},"vehicle_type_id":"4","last_reported":1731168543,"current_range_meters":31200,"station_id":"cpo3342slgdg3j2ifvpg","pricing_plan_id":"cebpf4jnsgd1na2vs0mg"},{"bike_id":"e78690b3-93de-4dae-ac19-cc222737cf95","system_id":"levelo_inurba_marseille","lat":43.31296,"lon":5.37613,"is_reserved":false,"is_disabled":false,"rental_uris":{"android":"levelo://app?vid=e78690b3-93de-4dae-ac19-cc222737cf95","ios":"levelo://app?vid=e78690b3-93de-4dae-ac19-cc222737cf95"},"vehicle_type_id":"4","last_reported":1731168543,"current_range_meters":6400,"station_id":"","pricing_plan_id":"cebpf4jnsgd1na2vs0mg"},{"bike_id":"d2829e52-10c3-4a5f-8e05-129b032bb890","system_id":"levelo_inurba_marseille","lat":43.28624,"lon":5.35103,"is_reserved":false,"is_disabled":false,"rental_uris":{"android":"levelo://app?vid=d2829e52-10c3-4a5f-8e05-129b032bb890","ios":"levelo://app?vid=d2829e52-10c3-4a5f-8e05-129b032bb890"},"vehicle_type_id":"4","last_reported":1731168543,"current_range_meters":4000,"station_id":"ce4bhch2rcd13ifvqeug","pricing_plan_id":"cebpf4jnsgd1na2vs0mg"},{"bike_id":"c9d49741-e851-4cff-b60f-7e1ea8522b03","system_id":"levelo_inurba_marseille","lat":43.31717,"lon":5.43712,"is_reserved":false,"is_disabled":false,"rental_uris":{"android":"levelo://app?vid=c9d49741-e851-4cff-b60f-7e1ea8522b03","ios":"levelo://app?vid=c9d49741-e851-4cff-b60f-7e1ea8522b03"},"vehicle_type_id":"4","last_reported":1731168543,"current_range_meters":31200,"station_id":"ce4bhp92rcd13ifvqhcg","pricing_plan_id":"cebpf4jnsgd1na2vs0mg"},{"bike_id":"e98568d3-9436-41bb-941c-785e88c36fcc","system_id":"levelo_inurba_marseille","lat":43.29434,"lon":5.39746,"is_reserved":false,"is_disabled":false,"rental_uris":{"android":"levelo://app?vid=e98568d3-9436-41bb-941c-785e88c36fcc","ios":"levelo://app?vid=e98568d3-9436-41bb-941c-785e88c36fcc"},"vehicle_type_id":"4","last_reported":1731168543,"current_range_meters":36800,"station_id":"ce4bh3h2rcd13ifvqdo0","pricing_plan_id":"cebpf4jnsgd1na2vs0mg"},{"bike_id":"d95cc324-32ce-4458-8bff-769027c78260","system_id":"levelo_inurba_marseille","lat":43.299171,"lon":5.374782,"is_reserved":false,"is_disabled":false,"rental_uris":{"android":"levelo://app?vid=d95cc324-32ce-4458-8bff-769027c78260","ios":"levelo://app?vid=d95cc324-32ce-4458-8bff-769027c78260"},"vehicle_type_id":"4","last_reported":1731168543,"current_range_meters":34000,"station_id":"ce4bgjh2rcd13ifvqbg0","pricing_plan_id":"cebpf4jnsgd1na2vs0mg"},{"bike_id":"b9d0bc02-8b8d-46ee-bb6e-da3b365f1431","system_id":"levelo_inurba_marseille","lat":43.30146,"lon":5.38089,"is_reserved":false,"is_disabled":false,"rental_uris":{"android":"levelo://app?vid=b9d0bc02-8b8d-46ee-bb6e-da3b365f1431","ios":"levelo://app?vid=b9d0bc02-8b8d-46ee-bb6e-da3b365f1431"},"vehicle_type_id":"4","last_reported":1731168543,"current_range_meters":38800,"station_id":"ce4bgjp2rcd13ifvqbh0","pricing_plan_id":"cebpf4jnsgd1na2vs0mg"},{"bike_id":"9b1b35b4-afa8-432a-803e-6b6f99da09f5","system_id":"levelo_inurba_marseille","lat":43.29184,"lon":5.35798,"is_reserved":false,"is_disabled":false,"rental_uris":{"android":"levelo://app?vid=9b1b35b4-afa8-432a-803e-6b6f99da09f5","ios":"levelo://app?vid=9b1b35b4-afa8-432a-803e-6b6f99da09f5"},"vehicle_type_id":"4","last_reported":1731168543,"current_range_meters":33200,"station_id":"ce4bhb12rcd13ifvqel0","pricing_plan_id":"cebpf4jnsgd1na2vs0mg"},{"bike_id":"d2a7d86a-0890-4311-bcc6-70de1aeddd49","system_id":"levelo_inurba_marseille","lat":43.25487,"lon":5.37655,"is_reserved":false,"is_disabled":false,"rental_uris":{"android":"levelo://app?vid=d2a7d86a-0890-4311-bcc6-70de1aeddd49","ios":"levelo://app?vid=d2a7d86a-0890-4311-bcc6-70de1aeddd49"},"vehicle_type_id":"4","last_reported":1731168543,"current_range_meters":17600,"station_id":"ce4bhh12rcd13ifvqff0","pricing_plan_id":"cebpf4jnsgd1na2vs0mg"},{"bike_id":"a0109dfd-3315-4526-b183-65f4ca885fd5","system_id":"levelo_inurba_marseille","lat":43.3054,"lon":5.36546,"is_reserved":false,"is_disabled":false,"rental_uris":{"android":"levelo://app?vid=a0109dfd-3315-4526-b183-65f4ca885fd5","ios":"levelo://app?vid=a0109dfd-3315-4526-b183-65f4ca885fd5"},"vehicle_type_id":"4","last_reported":1731168543,"current_range_meters":30800,"station_id":"ce4bgs12rcd13ifvqcag","pricing_plan_id":"cebpf4jnsgd1na2vs0mg"},{"bike_id":"010d3bc6-1da9-4e2e-9558-6436a5780c21","system_id":"levelo_inurba_marseille","lat":43.23195,"lon":5.35555,"is_reserved":false,"is_disabled":false,"rental_uris":{"android":"levelo://app?vid=010d3bc6-1da9-4e2e-9558-6436a5780c21","ios":"levelo://app?vid=010d3bc6-1da9-4e2e-9558-6436a5780c21"},"vehicle_type_id":"4","last_reported":1731168543,"current_range_meters":20800,"station_id":"ce4bhu92rcd13ifvqi70","pricing_plan_id":"cebpf4jnsgd1na2vs0mg"},{"bike_id":"44eae655-4864-4da9-8a30-4e8ebf67ad47","system_id":"levelo_inurba_marseille","lat":43.2855,"lon":5.35065,"is_reserved":false,"is_disabled":false,"rental_uris":{"android":"levelo://app?vid=44eae655-4864-4da9-8a30-4e8ebf67ad47","ios":"levelo://app?vid=44eae655-4864-4da9-8a30-4e8ebf67ad47"},"vehicle_type_id":"4","last_reported":1731168543,"current_range_meters":14400,"station_id":"","pricing_plan_id":"cebpf4jnsgd1na2vs0mg"},{"bike_id":"0a65cce2-2c1d-45e2-9c64-a68b051b33b0","system_id":"levelo_inurba_marseille","lat":43.27422,"lon":5.39412,"is_reserved":false,"is_disabled":false,"rental_uris":{"android":"levelo://app?vid=0a65cce2-2c1d-45e2-9c64-a68b051b33b0","ios":"levelo://app?vid=0a65cce2-2c1d-45e2-9c64-a68b051b33b0"},"vehicle_type_id":"4","last_reported":1731168543,"current_range_meters":8000,"station_id":"ce4bhdp2rcd13ifvqf20","pricing_plan_id":"cebpf4jnsgd1na2vs0mg"},{"bike_id":"627e2256-d239-49a4-a17c-0e47a8096126","system_id":"levelo_inurba_marseille","lat":43.265467,"lon":5.373449,"is_reserved":false,"is_disabled":false,"rental_uris":{"android":"levelo://app?vid=627e2256-d239-49a4-a17c-0e47a8096126","ios":"levelo://app?vid=627e2256-d239-49a4-a17c-0e47a8096126"},"vehicle_type_id":"4","last_reported":1731168543,"current_range_meters":38800,"station_id":"","pricing_plan_id":"cebpf4jnsgd1na2vs0mg"},{"bike_id":"bca4f6ce-c0ef-4035-a651-5dc73eb433c3","system_id":"levelo_inurba_marseille","lat":43.30137,"lon":5.39844,"is_reserved":false,"is_disabled":false,"rental_uris":{"android":"levelo://app?vid=bca4f6ce-c0ef-4035-a651-5dc73eb433c3","ios":"levelo://app?vid=bca4f6ce-c0ef-4035-a651-5dc73eb433c3"},"vehicle_type_id":"4","last_reported":1731168543,"current_range_meters":3200,"station_id":"ce4bh0h2rcd13ifvqd40","pricing_plan_id":"cebpf4jnsgd1na2vs0mg"},{"bike_id":"49ce0533-aa65-4719-aee6-e3982b0750c0","system_id":"levelo_inurba_marseille","lat":43.27375,"lon":5.36263,"is_reserved":false,"is_disabled":false,"rental_uris":{"android":"levelo://app?vid=49ce0533-aa65-4719-aee6-e3982b0750c0","ios":"levelo://app?vid=49ce0533-aa65-4719-aee6-e3982b0750c0"},"vehicle_type_id":"4","last_reported":1731168543,"current_range_meters":39200,"station_id":"ce4bhbh2rcd13ifvqeo0","pricing_plan_id":"cebpf4jnsgd1na2vs0mg"},{"bike_id":"a15a9786-8468-4ecf-8a9c-0447b74ba0bc","system_id":"levelo_inurba_marseille","lat":43.29893,"lon":5.43675,"is_reserved":false,"is_disabled":false,"rental_uris":{"android":"levelo://app?vid=a15a9786-8468-4ecf-8a9c-0447b74ba0bc","ios":"levelo://app?vid=a15a9786-8468-4ecf-8a9c-0447b74ba0bc"},"vehicle_type_id":"4","last_reported":1731168543,"current_range_meters":36800,"station_id":"ce4bhpp2rcd13ifvqhfg","pricing_plan_id":"cebpf4jnsgd1na2vs0mg"},{"bike_id":"2ad361b6-540e-4873-9e5b-6b5de9b52523","system_id":"levelo_inurba_marseille","lat":43.23967,"lon":5.36611,"is_reserved":false,"is_disabled":false,"rental_uris":{"android":"levelo://app?vid=2ad361b6-540e-4873-9e5b-6b5de9b52523","ios":"levelo://app?vid=2ad361b6-540e-4873-9e5b-6b5de9b52523"},"vehicle_type_id":"4","last_reported":1731168543,"current_range_meters":6800,"station_id":"ce4bhi12rcd13ifvqfp0","pricing_plan_id":"cebpf4jnsgd1na2vs0mg"},{"bike_id":"0218953f-77a9-4c47-bb2e-fcb537c6357e","system_id":"levelo_inurba_marseille","lat":43.28618,"lon":5.35104,"is_reserved":false,"is_disabled":false,"rental_uris":{"android":"levelo://app?vid=0218953f-77a9-4c47-bb2e-fcb537c6357e","ios":"levelo://app?vid=0218953f-77a9-4c47-bb2e-fcb537c6357e"},"vehicle_type_id":"4","last_reported":1731168543,"current_range_meters":14800,"station_id":"ce4bhch2rcd13ifvqeug","pricing_plan_id":"cebpf4jnsgd1na2vs0mg"},{"bike_id":"01d11fed-f218-495b-a75b-34216b4a8f9c","system_id":"levelo_inurba_marseille","lat":43.27374,"lon":5.36259,"is_reserved":false,"is_disabled":false,"rental_uris":{"android":"levelo://app?vid=01d11fed-f218-495b-a75b-34216b4a8f9c","ios":"levelo://app?vid=01d11fed-f218-495b-a75b-34216b4a8f9c"},"vehicle_type_id":"4","last_reported":1731168543,"current_range_meters":25600,"station_id":"ce4bhbh2rcd13ifvqeo0","pricing_plan_id":"cebpf4jnsgd1na2vs0mg"},{"bike_id":"0778aa4d-aae0-4d31-84a7-e33ba159e0fc","system_id":"levelo_inurba_marseille","lat":43.304664,"lon":5.379089,"is_reserved":false,"is_disabled":false,"rental_uris":{"android":"levelo://app?vid=0778aa4d-aae0-4d31-84a7-e33ba159e0fc","ios":"levelo://app?vid=0778aa4d-aae0-4d31-84a7-e33ba159e0fc"},"vehicle_type_id":"4","last_reported":1731168543,"current_range_meters":36800,"station_id":"ce4bgup2rcd13ifvqcn0","pricing_plan_id":"cebpf4jnsgd1na2vs0mg"},{"bike_id":"c7dfe52e-7162-42cd-9f8d-4f58928a3be4","system_id":"levelo_inurba_marseille","lat":43.25084,"lon":5.39521,"is_reserved":false,"is_disabled":false,"rental_uris":{"android":"levelo://app?vid=c7dfe52e-7162-42cd-9f8d-4f58928a3be4","ios":"levelo://app?vid=c7dfe52e-7162-42cd-9f8d-4f58928a3be4"},"vehicle_type_id":"4","last_reported":1731168543,"current_range_meters":32800,"station_id":"ce4bhm12rcd13ifvqgkg","pricing_plan_id":"cebpf4jnsgd1na2vs0mg"},{"bike_id":"39f17349-ada4-4402-b2d4-f4683db56d2d","system_id":"levelo_inurba_marseille","lat":43.27498,"lon":5.42454,"is_reserved":false,"is_disabled":false,"rental_uris":{"android":"levelo://app?vid=39f17349-ada4-4402-b2d4-f4683db56d2d","ios":"levelo://app?vid=39f17349-ada4-4402-b2d4-f4683db56d2d"},"vehicle_type_id":"4","last_reported":1731168543,"current_range_meters":38800,"station_id":"ce4bhn92rcd13ifvqgrg","pricing_plan_id":"cebpf4jnsgd1na2vs0mg"},{"bike_id":"acca6862-2512-438a-9918-2f9b21a3d14b","system_id":"levelo_inurba_marseille","lat":43.2973,"lon":5.37697,"is_reserved":false,"is_disabled":false,"rental_uris":{"android":"levelo://app?vid=acca6862-2512-438a-9918-2f9b21a3d14b","ios":"levelo://app?vid=acca6862-2512-438a-9918-2f9b21a3d14b"},"vehicle_type_id":"4","last_reported":1731168543,"current_range_meters":38800,"station_id":"ce4bgkh2rcd13ifvqbl0","pricing_plan_id":"cebpf4jnsgd1na2vs0mg"},{"bike_id":"b9478b1d-79e3-44c9-ae60-496dd5151f62","system_id":"levelo_inurba_marseille","lat":43.29153,"lon":5.37152,"is_reserved":false,"is_disabled":false,"rental_uris":{"android":"levelo://app?vid=b9478b1d-79e3-44c9-ae60-496dd5151f62","ios":"levelo://app?vid=b9478b1d-79e3-44c9-ae60-496dd5151f62"},"vehicle_type_id":"4","last_reported":1731168543,"current_range_meters":36400,"station_id":"ce4bha92rcd13ifvqeh0","pricing_plan_id":"cebpf4jnsgd1na2vs0mg"},{"bike_id":"4204c697-9142-4d6f-a64b-20f319f8c9a7","system_id":"levelo_inurba_marseille","lat":43.27063,"lon":5.42282,"is_reserved":false,"is_disabled":false,"rental_uris":{"android":"levelo://app?vid=4204c697-9142-4d6f-a64b-20f319f8c9a7","ios":"levelo://app?vid=4204c697-9142-4d6f-a64b-20f319f8c9a7"},"vehicle_type_id":"4","last_reported":1731168543,"current_range_meters":14000,"station_id":"ce4bhk92rcd13ifvqgb0","pricing_plan_id":"cebpf4jnsgd1na2vs0mg"},{"bike_id":"88c78d1c-c259-4c45-b6cf-66fcc6d39274","system_id":"levelo_inurba_marseille","lat":43.31355,"lon":5.36707,"is_reserved":false,"is_disabled":false,"rental_uris":{"android":"levelo://app?vid=88c78d1c-c259-4c45-b6cf-66fcc6d39274","ios":"levelo://app?vid=88c78d1c-c259-4c45-b6cf-66fcc6d39274"},"vehicle_type_id":"4","last_reported":1731168543,"current_range_meters":31200,"station_id":"ce4bgr92rcd13ifvqc6g","pricing_plan_id":"cebpf4jnsgd1na2vs0mg"},{"bike_id":"06675f04-23fe-4ef8-bbb6-b7e73331c65f","system_id":"levelo_inurba_marseille","lat":43.24807,"lon":5.37457,"is_reserved":false,"is_disabled":false,"rental_uris":{"android":"levelo://app?vid=06675f04-23fe-4ef8-bbb6-b7e73331c65f","ios":"levelo://app?vid=06675f04-23fe-4ef8-bbb6-b7e73331c65f"},"vehicle_type_id":"4","last_reported":1731168543,"current_range_meters":30800,"station_id":"ce4bhgh2rcd13ifvqfb0","pricing_plan_id":"cebpf4jnsgd1na2vs0mg"},{"bike_id":"de15f00a-25b1-4b9b-a102-3b4e4c3a83ba","system_id":"levelo_inurba_marseille","lat":43.3016,"lon":5.38085,"is_reserved":false,"is_disabled":false,"rental_uris":{"android":"levelo://app?vid=de15f00a-25b1-4b9b-a102-3b4e4c3a83ba","ios":"levelo://app?vid=de15f00a-25b1-4b9b-a102-3b4e4c3a83ba"},"vehicle_type_id":"4","last_reported":1731168543,"current_range_meters":30000,"station_id":"ce4bgjp2rcd13ifvqbh0","pricing_plan_id":"cebpf4jnsgd1na2vs0mg"},{"bike_id":"671b9274-40fe-44f9-b31e-8f9b935216ad","system_id":"levelo_inurba_marseille","lat":43.28492,"lon":5.38412,"is_reserved":false,"is_disabled":false,"rental_uris":{"android":"levelo://app?vid=671b9274-40fe-44f9-b31e-8f9b935216ad","ios":"levelo://app?vid=671b9274-40fe-44f9-b31e-8f9b935216ad"},"vehicle_type_id":"4","last_reported":1731168543,"current_range_meters":24400,"station_id":"ce4bh512rcd13ifvqe3g","pricing_plan_id":"cebpf4jnsgd1na2vs0mg"},{"bike_id":"ebe483fe-063d-486e-bd62-145a299216a5","system_id":"levelo_inurba_marseille","lat":43.29671,"lon":5.37295,"is_reserved":false,"is_disabled":false,"rental_uris":{"android":"levelo://app?vid=ebe483fe-063d-486e-bd62-145a299216a5","ios":"levelo://app?vid=ebe483fe-063d-486e-bd62-145a299216a5"},"vehicle_type_id":"4","last_reported":1731168543,"current_range_meters":24400,"station_id":"ce4bgk12rcd13ifvqbj0","pricing_plan_id":"cebpf4jnsgd1na2vs0mg"},{"bike_id":"9c286187-24bd-460d-a71a-9267c37077b0","system_id":"levelo_inurba_marseille","lat":43.29038,"lon":5.39958,"is_reserved":false,"is_disabled":false,"rental_uris":{"android":"levelo://app?vid=9c286187-24bd-460d-a71a-9267c37077b0","ios":"levelo://app?vid=9c286187-24bd-460d-a71a-9267c37077b0"},"vehicle_type_id":"4","last_reported":1731168543,"current_range_meters":14000,"station_id":"ce4bh392rcd13ifvqdm0","pricing_plan_id":"cebpf4jnsgd1na2vs0mg"},{"bike_id":"b4de7b9a-6515-49e3-b4f0-3d8149400129","system_id":"levelo_inurba_marseille","lat":43.30147,"lon":5.38086,"is_reserved":false,"is_disabled":false,"rental_uris":{"android":"levelo://app?vid=b4de7b9a-6515-49e3-b4f0-3d8149400129","ios":"levelo://app?vid=b4de7b9a-6515-49e3-b4f0-3d8149400129"},"vehicle_type_id":"4","last_reported":1731168543,"current_range_meters":36400,"station_id":"ce4bgjp2rcd13ifvqbh0","pricing_plan_id":"cebpf4jnsgd1na2vs0mg"},{"bike_id":"f91c41bd-3887-470e-9ec8-723836b80b88","system_id":"levelo_inurba_marseille","lat":43.2968,"lon":5.37307,"is_reserved":false,"is_disabled":false,"rental_uris":{"android":"levelo://app?vid=f91c41bd-3887-470e-9ec8-723836b80b88","ios":"levelo://app?vid=f91c41bd-3887-470e-9ec8-723836b80b88"},"vehicle_type_id":"4","last_reported":1731168543,"current_range_meters":38800,"station_id":"ce4bgk12rcd13ifvqbj0","pricing_plan_id":"cebpf4jnsgd1na2vs0mg"},{"bike_id":"925e3a94-e1bc-4cf7-ba2e-d4fa623c8d56","system_id":"levelo_inurba_marseille","lat":43.29034,"lon":5.3593,"is_reserved":false,"is_disabled":false,"rental_uris":{"android":"levelo://app?vid=925e3a94-e1bc-4cf7-ba2e-d4fa623c8d56","ios":"levelo://app?vid=925e3a94-e1bc-4cf7-ba2e-d4fa623c8d56"},"vehicle_type_id":"4","last_reported":1731168543,"current_range_meters":22800,"station_id":"ce4bha92rcd13ifvqeg0","pricing_plan_id":"cebpf4jnsgd1na2vs0mg"},{"bike_id":"ef288286-229d-4b9a-a189-8d61840dcffb","system_id":"levelo_inurba_marseille","lat":43.23189,"lon":5.35549,"is_reserved":false,"is_disabled":false,"rental_uris":{"android":"levelo://app?vid=ef288286-229d-4b9a-a189-8d61840dcffb","ios":"levelo://app?vid=ef288286-229d-4b9a-a189-8d61840dcffb"},"vehicle_type_id":"4","last_reported":1731168543,"current_range_meters":33200,"station_id":"ce4bhu92rcd13ifvqi70","pricing_plan_id":"cebpf4jnsgd1na2vs0mg"},{"bike_id":"5fc79c78-cd2f-4556-8f50-271eb1bb9f01","system_id":"levelo_inurba_marseille","lat":43.29677,"lon":5.37299,"is_reserved":false,"is_disabled":false,"rental_uris":{"android":"levelo://app?vid=5fc79c78-cd2f-4556-8f50-271eb1bb9f01","ios":"levelo://app?vid=5fc79c78-cd2f-4556-8f50-271eb1bb9f01"},"vehicle_type_id":"4","last_reported":1731168543,"current_range_meters":38800,"station_id":"ce4bgk12rcd13ifvqbj0","pricing_plan_id":"cebpf4jnsgd1na2vs0mg"},{"bike_id":"4459361f-49b9-44a8-86eb-e4a9a64959aa","system_id":"levelo_inurba_marseille","lat":43.32653,"lon":5.40996,"is_reserved":false,"is_disabled":false,"rental_uris":{"android":"levelo://app?vid=4459361f-49b9-44a8-86eb-e4a9a64959aa","ios":"levelo://app?vid=4459361f-49b9-44a8-86eb-e4a9a64959aa"},"vehicle_type_id":"4","last_reported":1731168543,"current_range_meters":38000,"station_id":"ce4bhpp2rcd13ifvqhgg","pricing_plan_id":"cebpf4jnsgd1na2vs0mg"},{"bike_id":"8a8215cf-50f1-4fe2-aa86-af7730cbf612","system_id":"levelo_inurba_marseille","lat":43.30137,"lon":5.38783,"is_reserved":false,"is_disabled":false,"rental_uris":{"android":"levelo://app?vid=8a8215cf-50f1-4fe2-aa86-af7730cbf612","ios":"levelo://app?vid=8a8215cf-50f1-4fe2-aa86-af7730cbf612"},"vehicle_type_id":"4","last_reported":1731168543,"current_range_meters":4400,"station_id":"ce4bghh2rcd13ifvqb60","pricing_plan_id":"cebpf4jnsgd1na2vs0mg"},{"bike_id":"418113a5-f181-4fca-b239-6f6e1d30ee80","system_id":"levelo_inurba_marseille","lat":43.2919,"lon":5.35812,"is_reserved":false,"is_disabled":false,"rental_uris":{"android":"levelo://app?vid=418113a5-f181-4fca-b239-6f6e1d30ee80","ios":"levelo://app?vid=418113a5-f181-4fca-b239-6f6e1d30ee80"},"vehicle_type_id":"4","last_reported":1731168543,"current_range_meters":16800,"station_id":"ce4bhb12rcd13ifvqel0","pricing_plan_id":"cebpf4jnsgd1na2vs0mg"},{"bike_id":"1b273681-a149-4b44-af0d-27ca962351bc","system_id":"levelo_inurba_marseille","lat":43.2997,"lon":5.41327,"is_reserved":false,"is_disabled":false,"rental_uris":{"android":"levelo://app?vid=1b273681-a149-4b44-af0d-27ca962351bc","ios":"levelo://app?vid=1b273681-a149-4b44-af0d-27ca962351bc"},"vehicle_type_id":"4","last_reported":1731168543,"current_range_meters":36000,"station_id":"ce4bhp12rcd13ifvqh9g","pricing_plan_id":"cebpf4jnsgd1na2vs0mg"},{"bike_id":"409fce05-1481-4019-8256-b90cec12f96f","system_id":"levelo_inurba_marseille","lat":43.27467,"lon":5.40965,"is_reserved":false,"is_disabled":false,"rental_uris":{"android":"levelo://app?vid=409fce05-1481-4019-8256-b90cec12f96f","ios":"levelo://app?vid=409fce05-1481-4019-8256-b90cec12f96f"},"vehicle_type_id":"4","last_reported":1731168543,"current_range_meters":19200,"station_id":"","pricing_plan_id":"cebpf4jnsgd1na2vs0mg"},{"bike_id":"2fcc5e1a-933e-4794-969d-323eca2ba9cd","system_id":"levelo_inurba_marseille","lat":43.29259,"lon":5.36852,"is_reserved":false,"is_disabled":false,"rental_uris":{"android":"levelo://app?vid=2fcc5e1a-933e-4794-969d-323eca2ba9cd","ios":"levelo://app?vid=2fcc5e1a-933e-4794-969d-323eca2ba9cd"},"vehicle_type_id":"4","last_reported":1731168543,"current_range_meters":28400,"station_id":"ce4bhbp2rcd13ifvqesg","pricing_plan_id":"cebpf4jnsgd1na2vs0mg"},{"bike_id":"9ae20148-7f84-4ca9-881f-f3cdc365c4d8","system_id":"levelo_inurba_marseille","lat":43.28115,"lon":5.37867,"is_reserved":false,"is_disabled":false,"rental_uris":{"android":"levelo://app?vid=9ae20148-7f84-4ca9-881f-f3cdc365c4d8","ios":"levelo://app?vid=9ae20148-7f84-4ca9-881f-f3cdc365c4d8"},"vehicle_type_id":"4","last_reported":1731168543,"current_range_meters":29600,"station_id":"ce4bha12rcd13ifvqee0","pricing_plan_id":"cebpf4jnsgd1na2vs0mg"},{"bike_id":"12d777f0-c674-403d-a610-545dc982936d","system_id":"levelo_inurba_marseille","lat":43.30457,"lon":5.37926,"is_reserved":false,"is_disabled":false,"rental_uris":{"android":"levelo://app?vid=12d777f0-c674-403d-a610-545dc982936d","ios":"levelo://app?vid=12d777f0-c674-403d-a610-545dc982936d"},"vehicle_type_id":"4","last_reported":1731168543,"current_range_meters":36800,"station_id":"ce4bgup2rcd13ifvqcn0","pricing_plan_id":"cebpf4jnsgd1na2vs0mg"},{"bike_id":"47992df5-a9ab-4d2b-beec-9538c94ced27","system_id":"levelo_inurba_marseille","lat":43.29276,"lon":5.37463,"is_reserved":false,"is_disabled":false,"rental_uris":{"android":"levelo://app?vid=47992df5-a9ab-4d2b-beec-9538c94ced27","ios":"levelo://app?vid=47992df5-a9ab-4d2b-beec-9538c94ced27"},"vehicle_type_id":"4","last_reported":1731168543,"current_range_meters":15200,"station_id":"ce4bgi12rcd13ifvqb70","pricing_plan_id":"cebpf4jnsgd1na2vs0mg"},{"bike_id":"ef836a20-b203-4e33-81f1-bd66286efba3","system_id":"levelo_inurba_marseille","lat":43.26031,"lon":5.37553,"is_reserved":false,"is_disabled":false,"rental_uris":{"android":"levelo://app?vid=ef836a20-b203-4e33-81f1-bd66286efba3","ios":"levelo://app?vid=ef836a20-b203-4e33-81f1-bd66286efba3"},"vehicle_type_id":"4","last_reported":1731168543,"current_range_meters":16800,"station_id":"ce4bhgh2rcd13ifvqfa0","pricing_plan_id":"cebpf4jnsgd1na2vs0mg"},{"bike_id":"33bd0b47-ca3c-44b2-bb97-7f777f177b8c","system_id":"levelo_inurba_marseille","lat":43.23182,"lon":5.39993,"is_reserved":false,"is_disabled":false,"rental_uris":{"android":"levelo://app?vid=33bd0b47-ca3c-44b2-bb97-7f777f177b8c","ios":"levelo://app?vid=33bd0b47-ca3c-44b2-bb97-7f777f177b8c"},"vehicle_type_id":"4","last_reported":1731168543,"current_range_meters":5600,"station_id":"ce4bhn12rcd13ifvqgqg","pricing_plan_id":"cebpf4jnsgd1na2vs0mg"},{"bike_id":"0a4b541e-a751-45f7-865a-11bad3f74edc","system_id":"levelo_inurba_marseille","lat":43.30545,"lon":5.38426,"is_reserved":false,"is_disabled":false,"rental_uris":{"android":"levelo://app?vid=0a4b541e-a751-45f7-865a-11bad3f74edc","ios":"levelo://app?vid=0a4b541e-a751-45f7-865a-11bad3f74edc"},"vehicle_type_id":"4","last_reported":1731168543,"current_range_meters":25200,"station_id":"ce4bgg92rcd13ifvqb30","pricing_plan_id":"cebpf4jnsgd1na2vs0mg"},{"bike_id":"6606b8a7-30d5-490f-ad48-75d5c1907f8b","system_id":"levelo_inurba_marseille","lat":43.29618,"lon":5.37708,"is_reserved":false,"is_disabled":false,"rental_uris":{"android":"levelo://app?vid=6606b8a7-30d5-490f-ad48-75d5c1907f8b","ios":"levelo://app?vid=6606b8a7-30d5-490f-ad48-75d5c1907f8b"},"vehicle_type_id":"4","last_reported":1731168543,"current_range_meters":38800,"station_id":"ce4bgi92rcd13ifvqb90","pricing_plan_id":"cebpf4jnsgd1na2vs0mg"},{"bike_id":"b9862b3d-cb09-4f20-ad2f-1f25ebd00008","system_id":"levelo_inurba_marseille","lat":43.31371,"lon":5.38493,"is_reserved":false,"is_disabled":false,"rental_uris":{"android":"levelo://app?vid=b9862b3d-cb09-4f20-ad2f-1f25ebd00008","ios":"levelo://app?vid=b9862b3d-cb09-4f20-ad2f-1f25ebd00008"},"vehicle_type_id":"4","last_reported":1731168543,"current_range_meters":17200,"station_id":"ce4bgt92rcd13ifvqcf0","pricing_plan_id":"cebpf4jnsgd1na2vs0mg"},{"bike_id":"fbbe362b-7b29-4c8f-b506-484f07761f02","system_id":"levelo_inurba_marseille","lat":43.29915,"lon":5.37461,"is_reserved":false,"is_disabled":false,"rental_uris":{"android":"levelo://app?vid=fbbe362b-7b29-4c8f-b506-484f07761f02","ios":"levelo://app?vid=fbbe362b-7b29-4c8f-b506-484f07761f02"},"vehicle_type_id":"4","last_reported":1731168543,"current_range_meters":37600,"station_id":"ce4bgjh2rcd13ifvqbg0","pricing_plan_id":"cebpf4jnsgd1na2vs0mg"},{"bike_id":"49dcd33b-91a0-4702-8d6a-8ff9c76f334a","system_id":"levelo_inurba_marseille","lat":43.30144,"lon":5.38096,"is_reserved":false,"is_disabled":false,"rental_uris":{"android":"levelo://app?vid=49dcd33b-91a0-4702-8d6a-8ff9c76f334a","ios":"levelo://app?vid=49dcd33b-91a0-4702-8d6a-8ff9c76f334a"},"vehicle_type_id":"4","last_reported":1731168543,"current_range_meters":38800,"station_id":"ce4bgjp2rcd13ifvqbh0","pricing_plan_id":"cebpf4jnsgd1na2vs0mg"},{"bike_id":"1726da2f-a3d3-4b87-a27e-fcd1d18af5d8","system_id":"levelo_inurba_marseille","lat":43.28269,"lon":5.35061,"is_reserved":false,"is_disabled":false,"rental_uris":{"android":"levelo://app?vid=1726da2f-a3d3-4b87-a27e-fcd1d18af5d8","ios":"levelo://app?vid=1726da2f-a3d3-4b87-a27e-fcd1d18af5d8"},"vehicle_type_id":"4","last_reported":1731168543,"current_range_meters":10800,"station_id":"ce4bhbp2rcd13ifvqerg","pricing_plan_id":"cebpf4jnsgd1na2vs0mg"},{"bike_id":"dbdda279-b097-4542-9abd-1098f9e01262","system_id":"levelo_inurba_marseille","lat":43.29934,"lon":5.36547,"is_reserved":false,"is_disabled":false,"rental_uris":{"android":"levelo://app?vid=dbdda279-b097-4542-9abd-1098f9e01262","ios":"levelo://app?vid=dbdda279-b097-4542-9abd-1098f9e01262"},"vehicle_type_id":"4","last_reported":1731168543,"current_range_meters":25600,"station_id":"ce4bgm92rcd13ifvqbr0","pricing_plan_id":"cebpf4jnsgd1na2vs0mg"},{"bike_id":"6463664d-8d71-4282-8618-f2c0c195f781","system_id":"levelo_inurba_marseille","lat":43.30135,"lon":5.38095,"is_reserved":false,"is_disabled":false,"rental_uris":{"android":"levelo://app?vid=6463664d-8d71-4282-8618-f2c0c195f781","ios":"levelo://app?vid=6463664d-8d71-4282-8618-f2c0c195f781"},"vehicle_type_id":"4","last_reported":1731168543,"current_range_meters":28000,"station_id":"ce4bgjp2rcd13ifvqbh0","pricing_plan_id":"cebpf4jnsgd1na2vs0mg"},{"bike_id":"a2af0eca-530d-4954-b538-26140aa97bc7","system_id":"levelo_inurba_marseille","lat":43.27499,"lon":5.42446,"is_reserved":false,"is_disabled":false,"rental_uris":{"android":"levelo://app?vid=a2af0eca-530d-4954-b538-26140aa97bc7","ios":"levelo://app?vid=a2af0eca-530d-4954-b538-26140aa97bc7"},"vehicle_type_id":"4","last_reported":1731168543,"current_range_meters":28000,"station_id":"ce4bhn92rcd13ifvqgrg","pricing_plan_id":"cebpf4jnsgd1na2vs0mg"},{"bike_id":"ba4e9b3f-2a8e-4431-b57f-f6a1ee8edd37","system_id":"levelo_inurba_marseille","lat":43.30147,"lon":5.3809,"is_reserved":false,"is_disabled":false,"rental_uris":{"android":"levelo://app?vid=ba4e9b3f-2a8e-4431-b57f-f6a1ee8edd37","ios":"levelo://app?vid=ba4e9b3f-2a8e-4431-b57f-f6a1ee8edd37"},"vehicle_type_id":"4","last_reported":1731168543,"current_range_meters":19600,"station_id":"ce4bgjp2rcd13ifvqbh0","pricing_plan_id":"cebpf4jnsgd1na2vs0mg"},{"bike_id":"d6fdae69-642e-4d84-a8fd-edeb75ed0ef4","system_id":"levelo_inurba_marseille","lat":43.22932,"lon":5.35376,"is_reserved":false,"is_disabled":false,"rental_uris":{"android":"levelo://app?vid=d6fdae69-642e-4d84-a8fd-edeb75ed0ef4","ios":"levelo://app?vid=d6fdae69-642e-4d84-a8fd-edeb75ed0ef4"},"vehicle_type_id":"4","last_reported":1731168543,"current_range_meters":38800,"station_id":"cpo3532slgdg3j2ikp40","pricing_plan_id":"cebpf4jnsgd1na2vs0mg"},{"bike_id":"310eb066-63f6-4d88-9cb0-831eb3ce6113","system_id":"levelo_inurba_marseille","lat":43.30546,"lon":5.36703,"is_reserved":false,"is_disabled":false,"rental_uris":{"android":"levelo://app?vid=310eb066-63f6-4d88-9cb0-831eb3ce6113","ios":"levelo://app?vid=310eb066-63f6-4d88-9cb0-831eb3ce6113"},"vehicle_type_id":"4","last_reported":1731168543,"current_range_meters":30000,"station_id":"ce4bgrp2rcd13ifvqc9g","pricing_plan_id":"cebpf4jnsgd1na2vs0mg"},{"bike_id":"656edd06-c2db-4ad7-9a7b-e91ab147bc8b","system_id":"levelo_inurba_marseille","lat":43.23961,"lon":5.36635,"is_reserved":false,"is_disabled":false,"rental_uris":{"android":"levelo://app?vid=656edd06-c2db-4ad7-9a7b-e91ab147bc8b","ios":"levelo://app?vid=656edd06-c2db-4ad7-9a7b-e91ab147bc8b"},"vehicle_type_id":"4","last_reported":1731168543,"current_range_meters":2800,"station_id":"ce4bhi12rcd13ifvqfp0","pricing_plan_id":"cebpf4jnsgd1na2vs0mg"},{"bike_id":"48a5c018-2c8a-4185-b049-1c96e973e571","system_id":"levelo_inurba_marseille","lat":43.255,"lon":5.37652,"is_reserved":false,"is_disabled":false,"rental_uris":{"android":"levelo://app?vid=48a5c018-2c8a-4185-b049-1c96e973e571","ios":"levelo://app?vid=48a5c018-2c8a-4185-b049-1c96e973e571"},"vehicle_type_id":"4","last_reported":1731168543,"current_range_meters":35600,"station_id":"ce4bhh12rcd13ifvqff0","pricing_plan_id":"cebpf4jnsgd1na2vs0mg"},{"bike_id":"4a33dbb2-5669-4f5d-ac8c-8d50d6b6b6d7","system_id":"levelo_inurba_marseille","lat":43.30884,"lon":5.39631,"is_reserved":false,"is_disabled":false,"rental_uris":{"android":"levelo://app?vid=4a33dbb2-5669-4f5d-ac8c-8d50d6b6b6d7","ios":"levelo://app?vid=4a33dbb2-5669-4f5d-ac8c-8d50d6b6b6d7"},"vehicle_type_id":"4","last_reported":1731168543,"current_range_meters":20000,"station_id":"ce4bh012rcd13ifvqcv0","pricing_plan_id":"cebpf4jnsgd1na2vs0mg"},{"bike_id":"408a53e8-a6e4-45de-be3c-bcc8c5cec33a","system_id":"levelo_inurba_marseille","lat":43.309,"lon":5.37189,"is_reserved":false,"is_disabled":false,"rental_uris":{"android":"levelo://app?vid=408a53e8-a6e4-45de-be3c-bcc8c5cec33a","ios":"levelo://app?vid=408a53e8-a6e4-45de-be3c-bcc8c5cec33a"},"vehicle_type_id":"4","last_reported":1731168543,"current_range_meters":30000,"station_id":"ce4bguh2rcd13ifvqckg","pricing_plan_id":"cebpf4jnsgd1na2vs0mg"},{"bike_id":"9a45ea94-0553-4498-aa89-7176c42126f1","system_id":"levelo_inurba_marseille","lat":43.24998,"lon":5.38934,"is_reserved":false,"is_disabled":false,"rental_uris":{"android":"levelo://app?vid=9a45ea94-0553-4498-aa89-7176c42126f1","ios":"levelo://app?vid=9a45ea94-0553-4498-aa89-7176c42126f1"},"vehicle_type_id":"4","last_reported":1731168543,"current_range_meters":19200,"station_id":"ce4bhgp2rcd13ifvqfd0","pricing_plan_id":"cebpf4jnsgd1na2vs0mg"},{"bike_id":"9b56539b-c59b-413c-b7a1-11a4b518a7a3","system_id":"levelo_inurba_marseille","lat":43.293451,"lon":5.374481,"is_reserved":false,"is_disabled":false,"rental_uris":{"android":"levelo://app?vid=9b56539b-c59b-413c-b7a1-11a4b518a7a3","ios":"levelo://app?vid=9b56539b-c59b-413c-b7a1-11a4b518a7a3"},"vehicle_type_id":"4","last_reported":1731168543,"current_range_meters":37600,"station_id":"ce4bgi12rcd13ifvqb70","pricing_plan_id":"cebpf4jnsgd1na2vs0mg"},{"bike_id":"bba26f4c-9411-4493-8dd3-6cffa6822b64","system_id":"levelo_inurba_marseille","lat":43.265727,"lon":5.39001,"is_reserved":false,"is_disabled":false,"rental_uris":{"android":"levelo://app?vid=bba26f4c-9411-4493-8dd3-6cffa6822b64","ios":"levelo://app?vid=bba26f4c-9411-4493-8dd3-6cffa6822b64"},"vehicle_type_id":"4","last_reported":1731168543,"current_range_meters":11600,"station_id":"ce4bhe12rcd13ifvqf30","pricing_plan_id":"cebpf4jnsgd1na2vs0mg"},{"bike_id":"a51d56de-6266-48f0-9ece-8f1d0d87e960","system_id":"levelo_inurba_marseille","lat":43.27368,"lon":5.36261,"is_reserved":false,"is_disabled":false,"rental_uris":{"android":"levelo://app?vid=a51d56de-6266-48f0-9ece-8f1d0d87e960","ios":"levelo://app?vid=a51d56de-6266-48f0-9ece-8f1d0d87e960"},"vehicle_type_id":"4","last_reported":1731168543,"current_range_meters":9600,"station_id":"ce4bhbh2rcd13ifvqeo0","pricing_plan_id":"cebpf4jnsgd1na2vs0mg"},{"bike_id":"c2603f44-8398-4b15-8e79-5897a063be21","system_id":"levelo_inurba_marseille","lat":43.27378,"lon":5.36259,"is_reserved":false,"is_disabled":false,"rental_uris":{"android":"levelo://app?vid=c2603f44-8398-4b15-8e79-5897a063be21","ios":"levelo://app?vid=c2603f44-8398-4b15-8e79-5897a063be21"},"vehicle_type_id":"4","last_reported":1731168543,"current_range_meters":18800,"station_id":"ce4bhbh2rcd13ifvqeo0","pricing_plan_id":"cebpf4jnsgd1na2vs0mg"},{"bike_id":"d7b6ba7f-67af-4f8c-a8e6-54e5f0048723","system_id":"levelo_inurba_marseille","lat":43.28408,"lon":5.34987,"is_reserved":false,"is_disabled":false,"rental_uris":{"android":"levelo://app?vid=d7b6ba7f-67af-4f8c-a8e6-54e5f0048723","ios":"levelo://app?vid=d7b6ba7f-67af-4f8c-a8e6-54e5f0048723"},"vehicle_type_id":"4","last_reported":1731168543,"current_range_meters":19200,"station_id":"ce4bhbh2rcd13ifvqepg","pricing_plan_id":"cebpf4jnsgd1na2vs0mg"},{"bike_id":"96aef8c1-f007-442e-b872-036e6f6c58ad","system_id":"levelo_inurba_marseille","lat":43.317535,"lon":5.390073,"is_reserved":false,"is_disabled":false,"rental_uris":{"android":"levelo://app?vid=96aef8c1-f007-442e-b872-036e6f6c58ad","ios":"levelo://app?vid=96aef8c1-f007-442e-b872-036e6f6c58ad"},"vehicle_type_id":"4","last_reported":1731168543,"current_range_meters":37600,"station_id":"ce4bhqp2rcd13ifvqhng","pricing_plan_id":"cebpf4jnsgd1na2vs0mg"},{"bike_id":"abec1519-96da-485a-8655-dc8c56be1502","system_id":"levelo_inurba_marseille","lat":43.29702,"lon":5.37694,"is_reserved":false,"is_disabled":false,"rental_uris":{"android":"levelo://app?vid=abec1519-96da-485a-8655-dc8c56be1502","ios":"levelo://app?vid=abec1519-96da-485a-8655-dc8c56be1502"},"vehicle_type_id":"4","last_reported":1731168543,"current_range_meters":27200,"station_id":"ce4bgkh2rcd13ifvqbl0","pricing_plan_id":"cebpf4jnsgd1na2vs0mg"},{"bike_id":"a8d6c4ab-40b8-4cdf-9134-b9616f1ce96b","system_id":"levelo_inurba_marseille","lat":43.27318,"lon":5.39104,"is_reserved":false,"is_disabled":false,"rental_uris":{"android":"levelo://app?vid=a8d6c4ab-40b8-4cdf-9134-b9616f1ce96b","ios":"levelo://app?vid=a8d6c4ab-40b8-4cdf-9134-b9616f1ce96b"},"vehicle_type_id":"4","last_reported":1731168543,"current_range_meters":14400,"station_id":"ce4bhgp2rcd13ifvqfe0","pricing_plan_id":"cebpf4jnsgd1na2vs0mg"},{"bike_id":"a1212e73-b50e-4dda-bd8b-7911a3d27742","system_id":"levelo_inurba_marseille","lat":43.29515,"lon":5.37511,"is_reserved":false,"is_disabled":false,"rental_uris":{"android":"levelo://app?vid=a1212e73-b50e-4dda-bd8b-7911a3d27742","ios":"levelo://app?vid=a1212e73-b50e-4dda-bd8b-7911a3d27742"},"vehicle_type_id":"4","last_reported":1731168543,"current_range_meters":29600,"station_id":"ce4bgkp2rcd13ifvqbmg","pricing_plan_id":"cebpf4jnsgd1na2vs0mg"},{"bike_id":"b8b4a858-5682-4e7f-987f-88874874f144","system_id":"levelo_inurba_marseille","lat":43.29262,"lon":5.38444,"is_reserved":false,"is_disabled":false,"rental_uris":{"android":"levelo://app?vid=b8b4a858-5682-4e7f-987f-88874874f144","ios":"levelo://app?vid=b8b4a858-5682-4e7f-987f-88874874f144"},"vehicle_type_id":"4","last_reported":1731168543,"current_range_meters":16000,"station_id":"ce4bh692rcd13ifvqea0","pricing_plan_id":"cebpf4jnsgd1na2vs0mg"},{"bike_id":"181fa628-fd06-4339-88f4-5d411c857699","system_id":"levelo_inurba_marseille","lat":43.27067,"lon":5.42284,"is_reserved":false,"is_disabled":false,"rental_uris":{"android":"levelo://app?vid=181fa628-fd06-4339-88f4-5d411c857699","ios":"levelo://app?vid=181fa628-fd06-4339-88f4-5d411c857699"},"vehicle_type_id":"4","last_reported":1731168543,"current_range_meters":14000,"station_id":"ce4bhk92rcd13ifvqgb0","pricing_plan_id":"cebpf4jnsgd1na2vs0mg"},{"bike_id":"a17e96f4-0121-485f-b37f-0c6477ffc859","system_id":"levelo_inurba_marseille","lat":43.26031,"lon":5.37546,"is_reserved":false,"is_disabled":false,"rental_uris":{"android":"levelo://app?vid=a17e96f4-0121-485f-b37f-0c6477ffc859","ios":"levelo://app?vid=a17e96f4-0121-485f-b37f-0c6477ffc859"},"vehicle_type_id":"4","last_reported":1731168543,"current_range_meters":8400,"station_id":"ce4bhgh2rcd13ifvqfa0","pricing_plan_id":"cebpf4jnsgd1na2vs0mg"},{"bike_id":"88dadcee-65c7-453f-8fd9-8444f5bcce7c","system_id":"levelo_inurba_marseille","lat":43.29257,"lon":5.38442,"is_reserved":false,"is_disabled":false,"rental_uris":{"android":"levelo://app?vid=88dadcee-65c7-453f-8fd9-8444f5bcce7c","ios":"levelo://app?vid=88dadcee-65c7-453f-8fd9-8444f5bcce7c"},"vehicle_type_id":"4","last_reported":1731168543,"current_range_meters":23200,"station_id":"ce4bh692rcd13ifvqea0","pricing_plan_id":"cebpf4jnsgd1na2vs0mg"},{"bike_id":"764ab749-70ca-4b73-a35f-c0abe15547f3","system_id":"levelo_inurba_marseille","lat":43.30152,"lon":5.38089,"is_reserved":false,"is_disabled":false,"rental_uris":{"android":"levelo://app?vid=764ab749-70ca-4b73-a35f-c0abe15547f3","ios":"levelo://app?vid=764ab749-70ca-4b73-a35f-c0abe15547f3"},"vehicle_type_id":"4","last_reported":1731168543,"current_range_meters":34000,"station_id":"ce4bgjp2rcd13ifvqbh0","pricing_plan_id":"cebpf4jnsgd1na2vs0mg"},{"bike_id":"dd02dda1-0cf5-4e23-8f9a-88ca5953c398","system_id":"levelo_inurba_marseille","lat":43.24991,"lon":5.38937,"is_reserved":false,"is_disabled":false,"rental_uris":{"android":"levelo://app?vid=dd02dda1-0cf5-4e23-8f9a-88ca5953c398","ios":"levelo://app?vid=dd02dda1-0cf5-4e23-8f9a-88ca5953c398"},"vehicle_type_id":"4","last_reported":1731168543,"current_range_meters":11600,"station_id":"ce4bhgp2rcd13ifvqfd0","pricing_plan_id":"cebpf4jnsgd1na2vs0mg"},{"bike_id":"e662ba77-e6b8-4482-8937-6e11fab5b336","system_id":"levelo_inurba_marseille","lat":43.33026,"lon":5.39042,"is_reserved":false,"is_disabled":false,"rental_uris":{"android":"levelo://app?vid=e662ba77-e6b8-4482-8937-6e11fab5b336","ios":"levelo://app?vid=e662ba77-e6b8-4482-8937-6e11fab5b336"},"vehicle_type_id":"4","last_reported":1731168543,"current_range_meters":12800,"station_id":"ce4bhr92rcd13ifvqhrg","pricing_plan_id":"cebpf4jnsgd1na2vs0mg"},{"bike_id":"27e15419-d9b0-4647-890e-e21a7149b1cd","system_id":"levelo_inurba_marseille","lat":43.27063,"lon":5.4228,"is_reserved":false,"is_disabled":false,"rental_uris":{"android":"levelo://app?vid=27e15419-d9b0-4647-890e-e21a7149b1cd","ios":"levelo://app?vid=27e15419-d9b0-4647-890e-e21a7149b1cd"},"vehicle_type_id":"4","last_reported":1731168543,"current_range_meters":18800,"station_id":"ce4bhk92rcd13ifvqgb0","pricing_plan_id":"cebpf4jnsgd1na2vs0mg"},{"bike_id":"55f47cbb-4cd2-4214-9965-9e0698b16e2e","system_id":"levelo_inurba_marseille","lat":43.32359,"lon":5.3676,"is_reserved":false,"is_disabled":false,"rental_uris":{"android":"levelo://app?vid=55f47cbb-4cd2-4214-9965-9e0698b16e2e","ios":"levelo://app?vid=55f47cbb-4cd2-4214-9965-9e0698b16e2e"},"vehicle_type_id":"4","last_reported":1731168543,"current_range_meters":38800,"station_id":"ce4bhsh2rcd13ifvqi2g","pricing_plan_id":"cebpf4jnsgd1na2vs0mg"},{"bike_id":"afcd6141-7b94-40da-8188-06bc30394200","system_id":"levelo_inurba_marseille","lat":43.30463,"lon":5.37907,"is_reserved":false,"is_disabled":false,"rental_uris":{"android":"levelo://app?vid=afcd6141-7b94-40da-8188-06bc30394200","ios":"levelo://app?vid=afcd6141-7b94-40da-8188-06bc30394200"},"vehicle_type_id":"4","last_reported":1731168543,"current_range_meters":33600,"station_id":"ce4bgup2rcd13ifvqcn0","pricing_plan_id":"cebpf4jnsgd1na2vs0mg"},{"bike_id":"d4d2039d-7616-4c0c-910c-0f5355caf5da","system_id":"levelo_inurba_marseille","lat":43.30155,"lon":5.38091,"is_reserved":false,"is_disabled":false,"rental_uris":{"android":"levelo://app?vid=d4d2039d-7616-4c0c-910c-0f5355caf5da","ios":"levelo://app?vid=d4d2039d-7616-4c0c-910c-0f5355caf5da"},"vehicle_type_id":"4","last_reported":1731168543,"current_range_meters":38800,"station_id":"ce4bgjp2rcd13ifvqbh0","pricing_plan_id":"cebpf4jnsgd1na2vs0mg"},{"bike_id":"0d93b31b-854a-4c31-b287-70df5cbe7d07","system_id":"levelo_inurba_marseille","lat":43.24076,"lon":5.37737,"is_reserved":false,"is_disabled":false,"rental_uris":{"android":"levelo://app?vid=0d93b31b-854a-4c31-b287-70df5cbe7d07","ios":"levelo://app?vid=0d93b31b-854a-4c31-b287-70df5cbe7d07"},"vehicle_type_id":"4","last_reported":1731168543,"current_range_meters":16000,"station_id":"ce4bhnp2rcd13ifvqgvg","pricing_plan_id":"cebpf4jnsgd1na2vs0mg"},{"bike_id":"85c204c1-37d6-4b73-b6e0-dc44c53e6048","system_id":"levelo_inurba_marseille","lat":43.25498,"lon":5.37661,"is_reserved":false,"is_disabled":false,"rental_uris":{"android":"levelo://app?vid=85c204c1-37d6-4b73-b6e0-dc44c53e6048","ios":"levelo://app?vid=85c204c1-37d6-4b73-b6e0-dc44c53e6048"},"vehicle_type_id":"4","last_reported":1731168543,"current_range_meters":8000,"station_id":"ce4bhh12rcd13ifvqff0","pricing_plan_id":"cebpf4jnsgd1na2vs0mg"},{"bike_id":"f2fcfd9f-a848-4db2-94df-50539ca26c92","system_id":"levelo_inurba_marseille","lat":43.28419,"lon":5.34989,"is_reserved":false,"is_disabled":false,"rental_uris":{"android":"levelo://app?vid=f2fcfd9f-a848-4db2-94df-50539ca26c92","ios":"levelo://app?vid=f2fcfd9f-a848-4db2-94df-50539ca26c92"},"vehicle_type_id":"4","last_reported":1731168543,"current_range_meters":6400,"station_id":"ce4bhbh2rcd13ifvqepg","pricing_plan_id":"cebpf4jnsgd1na2vs0mg"},{"bike_id":"e2abec00-3ef2-41a5-b9f5-46bbbaa02e60","system_id":"levelo_inurba_marseille","lat":43.25497,"lon":5.37654,"is_reserved":false,"is_disabled":false,"rental_uris":{"android":"levelo://app?vid=e2abec00-3ef2-41a5-b9f5-46bbbaa02e60","ios":"levelo://app?vid=e2abec00-3ef2-41a5-b9f5-46bbbaa02e60"},"vehicle_type_id":"4","last_reported":1731168543,"current_range_meters":6400,"station_id":"ce4bhh12rcd13ifvqff0","pricing_plan_id":"cebpf4jnsgd1na2vs0mg"},{"bike_id":"5993da03-db34-41f2-b56c-8d730ea57eea","system_id":"levelo_inurba_marseille","lat":43.29906,"lon":5.37464,"is_reserved":false,"is_disabled":false,"rental_uris":{"android":"levelo://app?vid=5993da03-db34-41f2-b56c-8d730ea57eea","ios":"levelo://app?vid=5993da03-db34-41f2-b56c-8d730ea57eea"},"vehicle_type_id":"4","last_reported":1731168543,"current_range_meters":10800,"station_id":"ce4bgjh2rcd13ifvqbg0","pricing_plan_id":"cebpf4jnsgd1na2vs0mg"},{"bike_id":"f5ea5222-29a8-4baf-a67a-db12956c9090","system_id":"levelo_inurba_marseille","lat":43.29933,"lon":5.36554,"is_reserved":false,"is_disabled":false,"rental_uris":{"android":"levelo://app?vid=f5ea5222-29a8-4baf-a67a-db12956c9090","ios":"levelo://app?vid=f5ea5222-29a8-4baf-a67a-db12956c9090"},"vehicle_type_id":"4","last_reported":1731168543,"current_range_meters":36400,"station_id":"ce4bgm92rcd13ifvqbr0","pricing_plan_id":"cebpf4jnsgd1na2vs0mg"},{"bike_id":"d6f0ed7b-2e50-4b29-8635-3df3f194c37b","system_id":"levelo_inurba_marseille","lat":43.28473,"lon":5.38417,"is_reserved":false,"is_disabled":false,"rental_uris":{"android":"levelo://app?vid=d6f0ed7b-2e50-4b29-8635-3df3f194c37b","ios":"levelo://app?vid=d6f0ed7b-2e50-4b29-8635-3df3f194c37b"},"vehicle_type_id":"4","last_reported":1731168543,"current_range_meters":25200,"station_id":"ce4bh512rcd13ifvqe3g","pricing_plan_id":"cebpf4jnsgd1na2vs0mg"},{"bike_id":"c7057ba6-697b-4814-876e-11ed214bec97","system_id":"levelo_inurba_marseille","lat":43.3029,"lon":5.37705,"is_reserved":false,"is_disabled":false,"rental_uris":{"android":"levelo://app?vid=c7057ba6-697b-4814-876e-11ed214bec97","ios":"levelo://app?vid=c7057ba6-697b-4814-876e-11ed214bec97"},"vehicle_type_id":"4","last_reported":1731168543,"current_range_meters":36000,"station_id":"ce4bguh2rcd13ifvqcj0","pricing_plan_id":"cebpf4jnsgd1na2vs0mg"},{"bike_id":"384cb49b-2903-4060-ba45-053ad32bcb68","system_id":"levelo_inurba_marseille","lat":43.29573,"lon":5.37501,"is_reserved":false,"is_disabled":false,"rental_uris":{"android":"levelo://app?vid=384cb49b-2903-4060-ba45-053ad32bcb68","ios":"levelo://app?vid=384cb49b-2903-4060-ba45-053ad32bcb68"},"vehicle_type_id":"4","last_reported":1731168543,"current_range_meters":18000,"station_id":"ce4bgh92rcd13ifvqb50","pricing_plan_id":"cebpf4jnsgd1na2vs0mg"},{"bike_id":"afcbfa75-4346-4b02-b359-ad634aab6ffa","system_id":"levelo_inurba_marseille","lat":43.305954,"lon":5.39366,"is_reserved":false,"is_disabled":false,"rental_uris":{"android":"levelo://app?vid=afcbfa75-4346-4b02-b359-ad634aab6ffa","ios":"levelo://app?vid=afcbfa75-4346-4b02-b359-ad634aab6ffa"},"vehicle_type_id":"4","last_reported":1731168543,"current_range_meters":33200,"station_id":"ce4bh0p2rcd13ifvqd80","pricing_plan_id":"cebpf4jnsgd1na2vs0mg"},{"bike_id":"2c1c9ad7-3506-42cd-a31c-e2ac81f970c0","system_id":"levelo_inurba_marseille","lat":43.29041,"lon":5.39951,"is_reserved":false,"is_disabled":false,"rental_uris":{"android":"levelo://app?vid=2c1c9ad7-3506-42cd-a31c-e2ac81f970c0","ios":"levelo://app?vid=2c1c9ad7-3506-42cd-a31c-e2ac81f970c0"},"vehicle_type_id":"4","last_reported":1731168543,"current_range_meters":24800,"station_id":"ce4bh392rcd13ifvqdm0","pricing_plan_id":"cebpf4jnsgd1na2vs0mg"},{"bike_id":"a61dfdc8-8032-4e2b-8bea-d0f6a2b05b1f","system_id":"levelo_inurba_marseille","lat":43.2396,"lon":5.3663,"is_reserved":false,"is_disabled":false,"rental_uris":{"android":"levelo://app?vid=a61dfdc8-8032-4e2b-8bea-d0f6a2b05b1f","ios":"levelo://app?vid=a61dfdc8-8032-4e2b-8bea-d0f6a2b05b1f"},"vehicle_type_id":"4","last_reported":1731168543,"current_range_meters":36000,"station_id":"ce4bhi12rcd13ifvqfp0","pricing_plan_id":"cebpf4jnsgd1na2vs0mg"},{"bike_id":"ac03c5ff-bf94-4b68-a052-ca1a0ef8ff58","system_id":"levelo_inurba_marseille","lat":43.29687,"lon":5.37299,"is_reserved":false,"is_disabled":false,"rental_uris":{"android":"levelo://app?vid=ac03c5ff-bf94-4b68-a052-ca1a0ef8ff58","ios":"levelo://app?vid=ac03c5ff-bf94-4b68-a052-ca1a0ef8ff58"},"vehicle_type_id":"4","last_reported":1731168543,"current_range_meters":19600,"station_id":"ce4bgk12rcd13ifvqbj0","pricing_plan_id":"cebpf4jnsgd1na2vs0mg"},{"bike_id":"94cde044-789b-4897-959f-4a1e6d2027ca","system_id":"levelo_inurba_marseille","lat":43.31713,"lon":5.37762,"is_reserved":false,"is_disabled":false,"rental_uris":{"android":"levelo://app?vid=94cde044-789b-4897-959f-4a1e6d2027ca","ios":"levelo://app?vid=94cde044-789b-4897-959f-4a1e6d2027ca"},"vehicle_type_id":"4","last_reported":1731168543,"current_range_meters":38800,"station_id":"ce4bgth2rcd13ifvqch0","pricing_plan_id":"cebpf4jnsgd1na2vs0mg"},{"bike_id":"f52e1dc5-9e0a-4918-a85e-0347dc29de69","system_id":"levelo_inurba_marseille","lat":43.23967,"lon":5.36638,"is_reserved":false,"is_disabled":false,"rental_uris":{"android":"levelo://app?vid=f52e1dc5-9e0a-4918-a85e-0347dc29de69","ios":"levelo://app?vid=f52e1dc5-9e0a-4918-a85e-0347dc29de69"},"vehicle_type_id":"4","last_reported":1731168543,"current_range_meters":7200,"station_id":"ce4bhi12rcd13ifvqfp0","pricing_plan_id":"cebpf4jnsgd1na2vs0mg"},{"bike_id":"07704a86-dbed-425a-854d-11b1a4e3d84c","system_id":"levelo_inurba_marseille","lat":43.33748,"lon":5.37456,"is_reserved":false,"is_disabled":false,"rental_uris":{"android":"levelo://app?vid=07704a86-dbed-425a-854d-11b1a4e3d84c","ios":"levelo://app?vid=07704a86-dbed-425a-854d-11b1a4e3d84c"},"vehicle_type_id":"4","last_reported":1731168543,"current_range_meters":36800,"station_id":"","pricing_plan_id":"cebpf4jnsgd1na2vs0mg"},{"bike_id":"79b39923-b687-4420-a58b-1f85feafef16","system_id":"levelo_inurba_marseille","lat":43.29953,"lon":5.37436,"is_reserved":false,"is_disabled":false,"rental_uris":{"android":"levelo://app?vid=79b39923-b687-4420-a58b-1f85feafef16","ios":"levelo://app?vid=79b39923-b687-4420-a58b-1f85feafef16"},"vehicle_type_id":"4","last_reported":1731168543,"current_range_meters":38800,"station_id":"ce4bgjh2rcd13ifvqbg0","pricing_plan_id":"cebpf4jnsgd1na2vs0mg"},{"bike_id":"0b74ce83-e6b1-4485-8ca6-3897f29a426e","system_id":"levelo_inurba_marseille","lat":43.23956,"lon":5.36631,"is_reserved":false,"is_disabled":false,"rental_uris":{"android":"levelo://app?vid=0b74ce83-e6b1-4485-8ca6-3897f29a426e","ios":"levelo://app?vid=0b74ce83-e6b1-4485-8ca6-3897f29a426e"},"vehicle_type_id":"4","last_reported":1731168543,"current_range_meters":15200,"station_id":"ce4bhi12rcd13ifvqfp0","pricing_plan_id":"cebpf4jnsgd1na2vs0mg"},{"bike_id":"a4f7f510-1f1c-431f-9e63-5e7fd718661c","system_id":"levelo_inurba_marseille","lat":43.31221,"lon":5.36874,"is_reserved":false,"is_disabled":false,"rental_uris":{"android":"levelo://app?vid=a4f7f510-1f1c-431f-9e63-5e7fd718661c","ios":"levelo://app?vid=a4f7f510-1f1c-431f-9e63-5e7fd718661c"},"vehicle_type_id":"4","last_reported":1731168543,"current_range_meters":10000,"station_id":"ce4bgl92rcd13ifvqbq0","pricing_plan_id":"cebpf4jnsgd1na2vs0mg"},{"bike_id":"3ff6215d-3778-456d-884e-69cd35c94c8c","system_id":"levelo_inurba_marseille","lat":43.31077,"lon":5.38356,"is_reserved":false,"is_disabled":false,"rental_uris":{"android":"levelo://app?vid=3ff6215d-3778-456d-884e-69cd35c94c8c","ios":"levelo://app?vid=3ff6215d-3778-456d-884e-69cd35c94c8c"},"vehicle_type_id":"4","last_reported":1731168543,"current_range_meters":18000,"station_id":"ce4bgv92rcd13ifvqcr0","pricing_plan_id":"cebpf4jnsgd1na2vs0mg"},{"bike_id":"3086bfe7-713c-4623-97bf-2db8ed5e1fe3","system_id":"levelo_inurba_marseille","lat":43.27364,"lon":5.3626,"is_reserved":false,"is_disabled":false,"rental_uris":{"android":"levelo://app?vid=3086bfe7-713c-4623-97bf-2db8ed5e1fe3","ios":"levelo://app?vid=3086bfe7-713c-4623-97bf-2db8ed5e1fe3"},"vehicle_type_id":"4","last_reported":1731168543,"current_range_meters":38800,"station_id":"ce4bhbh2rcd13ifvqeo0","pricing_plan_id":"cebpf4jnsgd1na2vs0mg"},{"bike_id":"61b47456-16e6-4345-bac0-a747f413d013","system_id":"levelo_inurba_marseille","lat":43.29545,"lon":5.42301,"is_reserved":false,"is_disabled":false,"rental_uris":{"android":"levelo://app?vid=61b47456-16e6-4345-bac0-a747f413d013","ios":"levelo://app?vid=61b47456-16e6-4345-bac0-a747f413d013"},"vehicle_type_id":"4","last_reported":1731168543,"current_range_meters":22000,"station_id":"ce4bhph2rcd13ifvqhdg","pricing_plan_id":"cebpf4jnsgd1na2vs0mg"},{"bike_id":"5ac771a0-9dd5-41c1-9d5a-e162148fe515","system_id":"levelo_inurba_marseille","lat":43.25502,"lon":5.37648,"is_reserved":false,"is_disabled":false,"rental_uris":{"android":"levelo://app?vid=5ac771a0-9dd5-41c1-9d5a-e162148fe515","ios":"levelo://app?vid=5ac771a0-9dd5-41c1-9d5a-e162148fe515"},"vehicle_type_id":"4","last_reported":1731168543,"current_range_meters":14400,"station_id":"ce4bhh12rcd13ifvqff0","pricing_plan_id":"cebpf4jnsgd1na2vs0mg"},{"bike_id":"737e318d-f108-4c95-991e-c706599395c0","system_id":"levelo_inurba_marseille","lat":43.30157,"lon":5.38086,"is_reserved":false,"is_disabled":false,"rental_uris":{"android":"levelo://app?vid=737e318d-f108-4c95-991e-c706599395c0","ios":"levelo://app?vid=737e318d-f108-4c95-991e-c706599395c0"},"vehicle_type_id":"4","last_reported":1731168543,"current_range_meters":33600,"station_id":"ce4bgjp2rcd13ifvqbh0","pricing_plan_id":"cebpf4jnsgd1na2vs0mg"},{"bike_id":"01cdb251-c55d-4038-a8f6-f0740539487a","system_id":"levelo_inurba_marseille","lat":43.25867,"lon":5.39897,"is_reserved":false,"is_disabled":false,"rental_uris":{"android":"levelo://app?vid=01cdb251-c55d-4038-a8f6-f0740539487a","ios":"levelo://app?vid=01cdb251-c55d-4038-a8f6-f0740539487a"},"vehicle_type_id":"4","last_reported":1731168543,"current_range_meters":32800,"station_id":"ce4bhl92rcd13ifvqghg","pricing_plan_id":"cebpf4jnsgd1na2vs0mg"},{"bike_id":"1b559ea9-b36c-4b8a-95db-c575a4231256","system_id":"levelo_inurba_marseille","lat":43.32658,"lon":5.40996,"is_reserved":false,"is_disabled":false,"rental_uris":{"android":"levelo://app?vid=1b559ea9-b36c-4b8a-95db-c575a4231256","ios":"levelo://app?vid=1b559ea9-b36c-4b8a-95db-c575a4231256"},"vehicle_type_id":"4","last_reported":1731168543,"current_range_meters":12800,"station_id":"ce4bhpp2rcd13ifvqhgg","pricing_plan_id":"cebpf4jnsgd1na2vs0mg"},{"bike_id":"baac3be3-010c-4ab7-b814-2af962c842f8","system_id":"levelo_inurba_marseille","lat":43.28364,"lon":5.37527,"is_reserved":false,"is_disabled":false,"rental_uris":{"android":"levelo://app?vid=baac3be3-010c-4ab7-b814-2af962c842f8","ios":"levelo://app?vid=baac3be3-010c-4ab7-b814-2af962c842f8"},"vehicle_type_id":"4","last_reported":1731168543,"current_range_meters":34800,"station_id":"ce4bh412rcd13ifvqds0","pricing_plan_id":"cebpf4jnsgd1na2vs0mg"},{"bike_id":"410ff738-641f-4bfd-97d1-9c301f38940f","system_id":"levelo_inurba_marseille","lat":43.286194,"lon":5.351178,"is_reserved":false,"is_disabled":false,"rental_uris":{"android":"levelo://app?vid=410ff738-641f-4bfd-97d1-9c301f38940f","ios":"levelo://app?vid=410ff738-641f-4bfd-97d1-9c301f38940f"},"vehicle_type_id":"4","last_reported":1731168543,"current_range_meters":24400,"station_id":"ce4bhch2rcd13ifvqeug","pricing_plan_id":"cebpf4jnsgd1na2vs0mg"},{"bike_id":"8991dbb5-faa8-42ca-b6df-9de6ccb5fcc3","system_id":"levelo_inurba_marseille","lat":43.29017,"lon":5.38151,"is_reserved":false,"is_disabled":false,"rental_uris":{"android":"levelo://app?vid=8991dbb5-faa8-42ca-b6df-9de6ccb5fcc3","ios":"levelo://app?vid=8991dbb5-faa8-42ca-b6df-9de6ccb5fcc3"},"vehicle_type_id":"4","last_reported":1731168543,"current_range_meters":20400,"station_id":"ce4bh4p2rcd13ifvqe1g","pricing_plan_id":"cebpf4jnsgd1na2vs0mg"},{"bike_id":"651525a9-9541-42c5-a26d-932929a74330","system_id":"levelo_inurba_marseille","lat":43.2749,"lon":5.42456,"is_reserved":false,"is_disabled":false,"rental_uris":{"android":"levelo://app?vid=651525a9-9541-42c5-a26d-932929a74330","ios":"levelo://app?vid=651525a9-9541-42c5-a26d-932929a74330"},"vehicle_type_id":"4","last_reported":1731168543,"current_range_meters":27600,"station_id":"ce4bhn92rcd13ifvqgrg","pricing_plan_id":"cebpf4jnsgd1na2vs0mg"},{"bike_id":"588b57e8-53f3-4bdf-a9eb-006ce33eb3cc","system_id":"levelo_inurba_marseille","lat":43.32475,"lon":5.36567,"is_reserved":false,"is_disabled":false,"rental_uris":{"android":"levelo://app?vid=588b57e8-53f3-4bdf-a9eb-006ce33eb3cc","ios":"levelo://app?vid=588b57e8-53f3-4bdf-a9eb-006ce33eb3cc"},"vehicle_type_id":"4","last_reported":1731168543,"current_range_meters":37600,"station_id":"ce4bhs12rcd13ifvqhvg","pricing_plan_id":"cebpf4jnsgd1na2vs0mg"},{"bike_id":"40f593b1-c6b4-4056-9082-85c23863896b","system_id":"levelo_inurba_marseille","lat":43.25486,"lon":5.37648,"is_reserved":false,"is_disabled":false,"rental_uris":{"android":"levelo://app?vid=40f593b1-c6b4-4056-9082-85c23863896b","ios":"levelo://app?vid=40f593b1-c6b4-4056-9082-85c23863896b"},"vehicle_type_id":"4","last_reported":1731168543,"current_range_meters":38800,"station_id":"ce4bhh12rcd13ifvqff0","pricing_plan_id":"cebpf4jnsgd1na2vs0mg"},{"bike_id":"78573920-07ef-4414-b66d-a81868fc02f6","system_id":"levelo_inurba_marseille","lat":43.29771,"lon":5.37114,"is_reserved":false,"is_disabled":false,"rental_uris":{"android":"levelo://app?vid=78573920-07ef-4414-b66d-a81868fc02f6","ios":"levelo://app?vid=78573920-07ef-4414-b66d-a81868fc02f6"},"vehicle_type_id":"4","last_reported":1731168543,"current_range_meters":20800,"station_id":"ce4bgop2rcd13ifvqc1g","pricing_plan_id":"cebpf4jnsgd1na2vs0mg"},{"bike_id":"69d38419-f915-4ada-a460-f28c05bf4ad2","system_id":"levelo_inurba_marseille","lat":43.27069,"lon":5.42277,"is_reserved":false,"is_disabled":false,"rental_uris":{"android":"levelo://app?vid=69d38419-f915-4ada-a460-f28c05bf4ad2","ios":"levelo://app?vid=69d38419-f915-4ada-a460-f28c05bf4ad2"},"vehicle_type_id":"4","last_reported":1731168543,"current_range_meters":39200,"station_id":"ce4bhk92rcd13ifvqgb0","pricing_plan_id":"cebpf4jnsgd1na2vs0mg"},{"bike_id":"b4eb30bc-dd09-4cbf-8ece-3b8ada662aaf","system_id":"levelo_inurba_marseille","lat":43.2501,"lon":5.38915,"is_reserved":false,"is_disabled":false,"rental_uris":{"android":"levelo://app?vid=b4eb30bc-dd09-4cbf-8ece-3b8ada662aaf","ios":"levelo://app?vid=b4eb30bc-dd09-4cbf-8ece-3b8ada662aaf"},"vehicle_type_id":"4","last_reported":1731168543,"current_range_meters":19200,"station_id":"ce4bhgp2rcd13ifvqfd0","pricing_plan_id":"cebpf4jnsgd1na2vs0mg"},{"bike_id":"d05ac583-bd0f-486e-92fc-792845d910ab","system_id":"levelo_inurba_marseille","lat":43.30536,"lon":5.38429,"is_reserved":false,"is_disabled":false,"rental_uris":{"android":"levelo://app?vid=d05ac583-bd0f-486e-92fc-792845d910ab","ios":"levelo://app?vid=d05ac583-bd0f-486e-92fc-792845d910ab"},"vehicle_type_id":"4","last_reported":1731168543,"current_range_meters":8800,"station_id":"ce4bgg92rcd13ifvqb30","pricing_plan_id":"cebpf4jnsgd1na2vs0mg"},{"bike_id":"522a7c3f-1d2c-41ab-af6e-8769ca2043d3","system_id":"levelo_inurba_marseille","lat":43.3033,"lon":5.40428,"is_reserved":false,"is_disabled":false,"rental_uris":{"android":"levelo://app?vid=522a7c3f-1d2c-41ab-af6e-8769ca2043d3","ios":"levelo://app?vid=522a7c3f-1d2c-41ab-af6e-8769ca2043d3"},"vehicle_type_id":"4","last_reported":1731168543,"current_range_meters":22400,"station_id":"ce4bh012rcd13ifvqd10","pricing_plan_id":"cebpf4jnsgd1na2vs0mg"},{"bike_id":"be94c940-c56d-4132-af66-fedb762b3e0f","system_id":"levelo_inurba_marseille","lat":43.23194,"lon":5.35549,"is_reserved":false,"is_disabled":false,"rental_uris":{"android":"levelo://app?vid=be94c940-c56d-4132-af66-fedb762b3e0f","ios":"levelo://app?vid=be94c940-c56d-4132-af66-fedb762b3e0f"},"vehicle_type_id":"4","last_reported":1731168543,"current_range_meters":37600,"station_id":"ce4bhu92rcd13ifvqi70","pricing_plan_id":"cebpf4jnsgd1na2vs0mg"},{"bike_id":"1ecc329a-3fe2-4bfa-9cd5-4e19a6eded96","system_id":"levelo_inurba_marseille","lat":43.29971,"lon":5.37184,"is_reserved":false,"is_disabled":false,"rental_uris":{"android":"levelo://app?vid=1ecc329a-3fe2-4bfa-9cd5-4e19a6eded96","ios":"levelo://app?vid=1ecc329a-3fe2-4bfa-9cd5-4e19a6eded96"},"vehicle_type_id":"4","last_reported":1731168543,"current_range_meters":4800,"station_id":"ce4bgr92rcd13ifvqc7g","pricing_plan_id":"cebpf4jnsgd1na2vs0mg"},{"bike_id":"58699fcb-03fe-48ff-a383-5ddf24e36004","system_id":"levelo_inurba_marseille","lat":43.31711,"lon":5.43712,"is_reserved":false,"is_disabled":false,"rental_uris":{"android":"levelo://app?vid=58699fcb-03fe-48ff-a383-5ddf24e36004","ios":"levelo://app?vid=58699fcb-03fe-48ff-a383-5ddf24e36004"},"vehicle_type_id":"4","last_reported":1731168543,"current_range_meters":8400,"station_id":"ce4bhp92rcd13ifvqhcg","pricing_plan_id":"cebpf4jnsgd1na2vs0mg"},{"bike_id":"a33a21d4-d827-4a63-b6f4-aa65e3aae716","system_id":"levelo_inurba_marseille","lat":43.28693,"lon":5.39993,"is_reserved":false,"is_disabled":false,"rental_uris":{"android":"levelo://app?vid=a33a21d4-d827-4a63-b6f4-aa65e3aae716","ios":"levelo://app?vid=a33a21d4-d827-4a63-b6f4-aa65e3aae716"},"vehicle_type_id":"4","last_reported":1731168543,"current_range_meters":37600,"station_id":"ce4bho92rcd13ifvqh3g","pricing_plan_id":"cebpf4jnsgd1na2vs0mg"},{"bike_id":"83d9a41a-d95b-447e-8dd0-455c67d619df","system_id":"levelo_inurba_marseille","lat":43.30189,"lon":5.36634,"is_reserved":false,"is_disabled":false,"rental_uris":{"android":"levelo://app?vid=83d9a41a-d95b-447e-8dd0-455c67d619df","ios":"levelo://app?vid=83d9a41a-d95b-447e-8dd0-455c67d619df"},"vehicle_type_id":"4","last_reported":1731168543,"current_range_meters":2000,"station_id":"ce4bgrh2rcd13ifvqc8g","pricing_plan_id":"cebpf4jnsgd1na2vs0mg"},{"bike_id":"f0d27cf8-6d88-4fd1-b7b8-4174a42846f3","system_id":"levelo_inurba_marseille","lat":43.29103,"lon":5.38152,"is_reserved":false,"is_disabled":false,"rental_uris":{"android":"levelo://app?vid=f0d27cf8-6d88-4fd1-b7b8-4174a42846f3","ios":"levelo://app?vid=f0d27cf8-6d88-4fd1-b7b8-4174a42846f3"},"vehicle_type_id":"4","last_reported":1731168543,"current_range_meters":17600,"station_id":"ce4bh512rcd13ifvqe2g","pricing_plan_id":"cebpf4jnsgd1na2vs0mg"},{"bike_id":"1740806b-abc9-4924-8e8f-3a38db747d4d","system_id":"levelo_inurba_marseille","lat":43.29552,"lon":5.42287,"is_reserved":false,"is_disabled":false,"rental_uris":{"android":"levelo://app?vid=1740806b-abc9-4924-8e8f-3a38db747d4d","ios":"levelo://app?vid=1740806b-abc9-4924-8e8f-3a38db747d4d"},"vehicle_type_id":"4","last_reported":1731168543,"current_range_meters":38800,"station_id":"ce4bhph2rcd13ifvqhdg","pricing_plan_id":"cebpf4jnsgd1na2vs0mg"},{"bike_id":"79aa28e9-c8fa-4b90-80af-9ec36d2d32f7","system_id":"levelo_inurba_marseille","lat":43.29423,"lon":5.38627,"is_reserved":false,"is_disabled":false,"rental_uris":{"android":"levelo://app?vid=79aa28e9-c8fa-4b90-80af-9ec36d2d32f7","ios":"levelo://app?vid=79aa28e9-c8fa-4b90-80af-9ec36d2d32f7"},"vehicle_type_id":"4","last_reported":1731168543,"current_range_meters":21600,"station_id":"ce4bh2h2rcd13ifvqdh0","pricing_plan_id":"cebpf4jnsgd1na2vs0mg"},{"bike_id":"42911603-79cc-4bdc-b1af-c2f11553c796","system_id":"levelo_inurba_marseille","lat":43.29718,"lon":5.37688,"is_reserved":false,"is_disabled":false,"rental_uris":{"android":"levelo://app?vid=42911603-79cc-4bdc-b1af-c2f11553c796","ios":"levelo://app?vid=42911603-79cc-4bdc-b1af-c2f11553c796"},"vehicle_type_id":"4","last_reported":1731168543,"current_range_meters":38800,"station_id":"ce4bgkh2rcd13ifvqbl0","pricing_plan_id":"cebpf4jnsgd1na2vs0mg"},{"bike_id":"faab5ae9-fa7a-43b7-81d9-83f1173ac007","system_id":"levelo_inurba_marseille","lat":43.25508,"lon":5.37648,"is_reserved":false,"is_disabled":false,"rental_uris":{"android":"levelo://app?vid=faab5ae9-fa7a-43b7-81d9-83f1173ac007","ios":"levelo://app?vid=faab5ae9-fa7a-43b7-81d9-83f1173ac007"},"vehicle_type_id":"4","last_reported":1731168543,"current_range_meters":26000,"station_id":"ce4bhh12rcd13ifvqff0","pricing_plan_id":"cebpf4jnsgd1na2vs0mg"},{"bike_id":"ff240a66-882f-4043-999b-84a56f525886","system_id":"levelo_inurba_marseille","lat":43.31329,"lon":5.39696,"is_reserved":false,"is_disabled":false,"rental_uris":{"android":"levelo://app?vid=ff240a66-882f-4043-999b-84a56f525886","ios":"levelo://app?vid=ff240a66-882f-4043-999b-84a56f525886"},"vehicle_type_id":"4","last_reported":1731168543,"current_range_meters":10800,"station_id":"ce4bgvp2rcd13ifvqcu0","pricing_plan_id":"cebpf4jnsgd1na2vs0mg"},{"bike_id":"a00f5d3d-7f03-4287-8f8f-2af329910765","system_id":"levelo_inurba_marseille","lat":43.31329,"lon":5.39696,"is_reserved":false,"is_disabled":false,"rental_uris":{"android":"levelo://app?vid=a00f5d3d-7f03-4287-8f8f-2af329910765","ios":"levelo://app?vid=a00f5d3d-7f03-4287-8f8f-2af329910765"},"vehicle_type_id":"4","last_reported":1731168543,"current_range_meters":7200,"station_id":"ce4bgvp2rcd13ifvqcu0","pricing_plan_id":"cebpf4jnsgd1na2vs0mg"},{"bike_id":"f02ec604-e224-473a-82ef-ca8384a5b35f","system_id":"levelo_inurba_marseille","lat":43.29355,"lon":5.37851,"is_reserved":false,"is_disabled":false,"rental_uris":{"android":"levelo://app?vid=f02ec604-e224-473a-82ef-ca8384a5b35f","ios":"levelo://app?vid=f02ec604-e224-473a-82ef-ca8384a5b35f"},"vehicle_type_id":"4","last_reported":1731168543,"current_range_meters":9200,"station_id":"ce4bgjh2rcd13ifvqbf0","pricing_plan_id":"cebpf4jnsgd1na2vs0mg"},{"bike_id":"b3109b78-b127-4c41-8710-cb6335860607","system_id":"levelo_inurba_marseille","lat":43.298993,"lon":5.381447,"is_reserved":false,"is_disabled":false,"rental_uris":{"android":"levelo://app?vid=b3109b78-b127-4c41-8710-cb6335860607","ios":"levelo://app?vid=b3109b78-b127-4c41-8710-cb6335860607"},"vehicle_type_id":"4","last_reported":1731168543,"current_range_meters":8400,"station_id":"ce4bgj12rcd13ifvqbc0","pricing_plan_id":"cebpf4jnsgd1na2vs0mg"},{"bike_id":"7be60112-f079-4813-8267-7edf586b1d7d","system_id":"levelo_inurba_marseille","lat":43.29358,"lon":5.37871,"is_reserved":false,"is_disabled":false,"rental_uris":{"android":"levelo://app?vid=7be60112-f079-4813-8267-7edf586b1d7d","ios":"levelo://app?vid=7be60112-f079-4813-8267-7edf586b1d7d"},"vehicle_type_id":"4","last_reported":1731168543,"current_range_meters":36400,"station_id":"ce4bgjh2rcd13ifvqbf0","pricing_plan_id":"cebpf4jnsgd1na2vs0mg"},{"bike_id":"9be0a71b-c691-4c45-9f3b-48f3cf944e15","system_id":"levelo_inurba_marseille","lat":43.31493,"lon":5.37306,"is_reserved":false,"is_disabled":false,"rental_uris":{"android":"levelo://app?vid=9be0a71b-c691-4c45-9f3b-48f3cf944e15","ios":"levelo://app?vid=9be0a71b-c691-4c45-9f3b-48f3cf944e15"},"vehicle_type_id":"4","last_reported":1731168543,"current_range_meters":22800,"station_id":"ce4bgt12rcd13ifvqcd0","pricing_plan_id":"cebpf4jnsgd1na2vs0mg"},{"bike_id":"11b82df1-1189-44db-93a8-bfea36cc0723","system_id":"levelo_inurba_marseille","lat":43.23182,"lon":5.39989,"is_reserved":false,"is_disabled":false,"rental_uris":{"android":"levelo://app?vid=11b82df1-1189-44db-93a8-bfea36cc0723","ios":"levelo://app?vid=11b82df1-1189-44db-93a8-bfea36cc0723"},"vehicle_type_id":"4","last_reported":1731168543,"current_range_meters":15200,"station_id":"ce4bhn12rcd13ifvqgqg","pricing_plan_id":"cebpf4jnsgd1na2vs0mg"},{"bike_id":"cdd8658b-72b2-46e0-bfd7-72a13282d899","system_id":"levelo_inurba_marseille","lat":43.25002,"lon":5.38928,"is_reserved":false,"is_disabled":false,"rental_uris":{"android":"levelo://app?vid=cdd8658b-72b2-46e0-bfd7-72a13282d899","ios":"levelo://app?vid=cdd8658b-72b2-46e0-bfd7-72a13282d899"},"vehicle_type_id":"4","last_reported":1731168543,"current_range_meters":34000,"station_id":"ce4bhgp2rcd13ifvqfd0","pricing_plan_id":"cebpf4jnsgd1na2vs0mg"},{"bike_id":"d70759c1-cec1-4a01-b71c-11405a2ea784","system_id":"levelo_inurba_marseille","lat":43.29172,"lon":5.35803,"is_reserved":false,"is_disabled":false,"rental_uris":{"android":"levelo://app?vid=d70759c1-cec1-4a01-b71c-11405a2ea784","ios":"levelo://app?vid=d70759c1-cec1-4a01-b71c-11405a2ea784"},"vehicle_type_id":"4","last_reported":1731168543,"current_range_meters":38400,"station_id":"ce4bhb12rcd13ifvqel0","pricing_plan_id":"cebpf4jnsgd1na2vs0mg"},{"bike_id":"7174c3dc-0523-4c37-9102-3815a5cee164","system_id":"levelo_inurba_marseille","lat":43.29221,"lon":5.36067,"is_reserved":false,"is_disabled":false,"rental_uris":{"android":"levelo://app?vid=7174c3dc-0523-4c37-9102-3815a5cee164","ios":"levelo://app?vid=7174c3dc-0523-4c37-9102-3815a5cee164"},"vehicle_type_id":"4","last_reported":1731168543,"current_range_meters":38800,"station_id":"ce4bhbh2rcd13ifvqeqg","pricing_plan_id":"cebpf4jnsgd1na2vs0mg"},{"bike_id":"002320fb-b83a-411a-a2a8-66b098cb21aa","system_id":"levelo_inurba_marseille","lat":43.29794,"lon":5.38116,"is_reserved":false,"is_disabled":false,"rental_uris":{"android":"levelo://app?vid=002320fb-b83a-411a-a2a8-66b098cb21aa","ios":"levelo://app?vid=002320fb-b83a-411a-a2a8-66b098cb21aa"},"vehicle_type_id":"4","last_reported":1731168543,"current_range_meters":16400,"station_id":"ce4bgip2rcd13ifvqbb0","pricing_plan_id":"cebpf4jnsgd1na2vs0mg"},{"bike_id":"7e7be88e-2387-4ac1-8672-4e3f2accb589","system_id":"levelo_inurba_marseille","lat":43.23194,"lon":5.3556,"is_reserved":false,"is_disabled":false,"rental_uris":{"android":"levelo://app?vid=7e7be88e-2387-4ac1-8672-4e3f2accb589","ios":"levelo://app?vid=7e7be88e-2387-4ac1-8672-4e3f2accb589"},"vehicle_type_id":"4","last_reported":1731168543,"current_range_meters":13600,"station_id":"ce4bhu92rcd13ifvqi70","pricing_plan_id":"cebpf4jnsgd1na2vs0mg"},{"bike_id":"d3ddac6b-acf6-477b-8daf-ad49aba87662","system_id":"levelo_inurba_marseille","lat":43.27063,"lon":5.42279,"is_reserved":false,"is_disabled":false,"rental_uris":{"android":"levelo://app?vid=d3ddac6b-acf6-477b-8daf-ad49aba87662","ios":"levelo://app?vid=d3ddac6b-acf6-477b-8daf-ad49aba87662"},"vehicle_type_id":"4","last_reported":1731168543,"current_range_meters":25200,"station_id":"ce4bhk92rcd13ifvqgb0","pricing_plan_id":"cebpf4jnsgd1na2vs0mg"},{"bike_id":"c8c50509-f11a-4e49-80e7-0d6a695b2ae0","system_id":"levelo_inurba_marseille","lat":43.31217,"lon":5.36851,"is_reserved":false,"is_disabled":false,"rental_uris":{"android":"levelo://app?vid=c8c50509-f11a-4e49-80e7-0d6a695b2ae0","ios":"levelo://app?vid=c8c50509-f11a-4e49-80e7-0d6a695b2ae0"},"vehicle_type_id":"4","last_reported":1731168543,"current_range_meters":38800,"station_id":"ce4bgl92rcd13ifvqbq0","pricing_plan_id":"cebpf4jnsgd1na2vs0mg"},{"bike_id":"d2fab2fc-0dfc-4285-8324-8b3977915fe9","system_id":"levelo_inurba_marseille","lat":43.2397,"lon":5.36633,"is_reserved":false,"is_disabled":false,"rental_uris":{"android":"levelo://app?vid=d2fab2fc-0dfc-4285-8324-8b3977915fe9","ios":"levelo://app?vid=d2fab2fc-0dfc-4285-8324-8b3977915fe9"},"vehicle_type_id":"4","last_reported":1731168543,"current_range_meters":19600,"station_id":"ce4bhi12rcd13ifvqfp0","pricing_plan_id":"cebpf4jnsgd1na2vs0mg"},{"bike_id":"4770f086-4dcb-4f5f-adf1-bf18cb5f2fc8","system_id":"levelo_inurba_marseille","lat":43.30529,"lon":5.36543,"is_reserved":false,"is_disabled":false,"rental_uris":{"android":"levelo://app?vid=4770f086-4dcb-4f5f-adf1-bf18cb5f2fc8","ios":"levelo://app?vid=4770f086-4dcb-4f5f-adf1-bf18cb5f2fc8"},"vehicle_type_id":"4","last_reported":1731168543,"current_range_meters":26800,"station_id":"ce4bgs12rcd13ifvqcag","pricing_plan_id":"cebpf4jnsgd1na2vs0mg"},{"bike_id":"fa2a5e5c-6495-412b-a165-472e0f27db6f","system_id":"levelo_inurba_marseille","lat":43.25499,"lon":5.37653,"is_reserved":false,"is_disabled":false,"rental_uris":{"android":"levelo://app?vid=fa2a5e5c-6495-412b-a165-472e0f27db6f","ios":"levelo://app?vid=fa2a5e5c-6495-412b-a165-472e0f27db6f"},"vehicle_type_id":"4","last_reported":1731168543,"current_range_meters":22000,"station_id":"ce4bhh12rcd13ifvqff0","pricing_plan_id":"cebpf4jnsgd1na2vs0mg"},{"bike_id":"d37c6cf9-042d-46a1-8ead-76851fdb090c","system_id":"levelo_inurba_marseille","lat":43.260596,"lon":5.39393,"is_reserved":false,"is_disabled":false,"rental_uris":{"android":"levelo://app?vid=d37c6cf9-042d-46a1-8ead-76851fdb090c","ios":"levelo://app?vid=d37c6cf9-042d-46a1-8ead-76851fdb090c"},"vehicle_type_id":"4","last_reported":1731168543,"current_range_meters":20000,"station_id":"ce4bhh92rcd13ifvqfj0","pricing_plan_id":"cebpf4jnsgd1na2vs0mg"},{"bike_id":"b3f7bf53-2770-4f0b-836b-ce2a121fa3f7","system_id":"levelo_inurba_marseille","lat":43.23966,"lon":5.3663,"is_reserved":false,"is_disabled":false,"rental_uris":{"android":"levelo://app?vid=b3f7bf53-2770-4f0b-836b-ce2a121fa3f7","ios":"levelo://app?vid=b3f7bf53-2770-4f0b-836b-ce2a121fa3f7"},"vehicle_type_id":"4","last_reported":1731168543,"current_range_meters":24400,"station_id":"ce4bhi12rcd13ifvqfp0","pricing_plan_id":"cebpf4jnsgd1na2vs0mg"},{"bike_id":"c0a52d17-cbb9-4fc8-81d7-31b6a7874899","system_id":"levelo_inurba_marseille","lat":43.23962,"lon":5.36631,"is_reserved":false,"is_disabled":false,"rental_uris":{"android":"levelo://app?vid=c0a52d17-cbb9-4fc8-81d7-31b6a7874899","ios":"levelo://app?vid=c0a52d17-cbb9-4fc8-81d7-31b6a7874899"},"vehicle_type_id":"4","last_reported":1731168543,"current_range_meters":35600,"station_id":"ce4bhi12rcd13ifvqfp0","pricing_plan_id":"cebpf4jnsgd1na2vs0mg"},{"bike_id":"bf3aaa27-6180-48db-9e8e-b47fd07d70f3","system_id":"levelo_inurba_marseille","lat":43.25494,"lon":5.37656,"is_reserved":false,"is_disabled":false,"rental_uris":{"android":"levelo://app?vid=bf3aaa27-6180-48db-9e8e-b47fd07d70f3","ios":"levelo://app?vid=bf3aaa27-6180-48db-9e8e-b47fd07d70f3"},"vehicle_type_id":"4","last_reported":1731168543,"current_range_meters":18800,"station_id":"ce4bhh12rcd13ifvqff0","pricing_plan_id":"cebpf4jnsgd1na2vs0mg"},{"bike_id":"0e181cdb-7a7f-43d0-8e9b-3851703f1724","system_id":"levelo_inurba_marseille","lat":43.28612,"lon":5.37066,"is_reserved":false,"is_disabled":false,"rental_uris":{"android":"levelo://app?vid=0e181cdb-7a7f-43d0-8e9b-3851703f1724","ios":"levelo://app?vid=0e181cdb-7a7f-43d0-8e9b-3851703f1724"},"vehicle_type_id":"4","last_reported":1731168543,"current_range_meters":19600,"station_id":"ce4bha92rcd13ifvqeh0","pricing_plan_id":"cebpf4jnsgd1na2vs0mg"},{"bike_id":"b50c072a-e6de-4907-885b-117214003870","system_id":"levelo_inurba_marseille","lat":43.30556,"lon":5.36564,"is_reserved":false,"is_disabled":false,"rental_uris":{"android":"levelo://app?vid=b50c072a-e6de-4907-885b-117214003870","ios":"levelo://app?vid=b50c072a-e6de-4907-885b-117214003870"},"vehicle_type_id":"4","last_reported":1731168543,"current_range_meters":10800,"station_id":"ce4bgs12rcd13ifvqcag","pricing_plan_id":"cebpf4jnsgd1na2vs0mg"},{"bike_id":"825035c7-1b73-43e7-8c0e-53d300892ab1","system_id":"levelo_inurba_marseille","lat":43.28417,"lon":5.34995,"is_reserved":false,"is_disabled":false,"rental_uris":{"android":"levelo://app?vid=825035c7-1b73-43e7-8c0e-53d300892ab1","ios":"levelo://app?vid=825035c7-1b73-43e7-8c0e-53d300892ab1"},"vehicle_type_id":"4","last_reported":1731168543,"current_range_meters":27200,"station_id":"ce4bhbh2rcd13ifvqepg","pricing_plan_id":"cebpf4jnsgd1na2vs0mg"},{"bike_id":"6b0d4eb2-1c5e-4e73-96a4-22e528b641bf","system_id":"levelo_inurba_marseille","lat":43.26786,"lon":5.39417,"is_reserved":false,"is_disabled":false,"rental_uris":{"android":"levelo://app?vid=6b0d4eb2-1c5e-4e73-96a4-22e528b641bf","ios":"levelo://app?vid=6b0d4eb2-1c5e-4e73-96a4-22e528b641bf"},"vehicle_type_id":"4","last_reported":1731168543,"current_range_meters":25200,"station_id":"ce4bhh12rcd13ifvqfg0","pricing_plan_id":"cebpf4jnsgd1na2vs0mg"},{"bike_id":"aface075-8aad-44db-aa85-d812a3eed96b","system_id":"levelo_inurba_marseille","lat":43.29101,"lon":5.38151,"is_reserved":false,"is_disabled":false,"rental_uris":{"android":"levelo://app?vid=aface075-8aad-44db-aa85-d812a3eed96b","ios":"levelo://app?vid=aface075-8aad-44db-aa85-d812a3eed96b"},"vehicle_type_id":"4","last_reported":1731168543,"current_range_meters":24400,"station_id":"ce4bh512rcd13ifvqe2g","pricing_plan_id":"cebpf4jnsgd1na2vs0mg"},{"bike_id":"795e3900-36bb-4430-977d-b334f9a9ea13","system_id":"levelo_inurba_marseille","lat":43.29922,"lon":5.36561,"is_reserved":false,"is_disabled":false,"rental_uris":{"android":"levelo://app?vid=795e3900-36bb-4430-977d-b334f9a9ea13","ios":"levelo://app?vid=795e3900-36bb-4430-977d-b334f9a9ea13"},"vehicle_type_id":"4","last_reported":1731168543,"current_range_meters":36000,"station_id":"ce4bgm92rcd13ifvqbr0","pricing_plan_id":"cebpf4jnsgd1na2vs0mg"},{"bike_id":"3abeba9c-ec5f-4aca-9a82-3c5a9a70add6","system_id":"levelo_inurba_marseille","lat":43.30468,"lon":5.37905,"is_reserved":false,"is_disabled":false,"rental_uris":{"android":"levelo://app?vid=3abeba9c-ec5f-4aca-9a82-3c5a9a70add6","ios":"levelo://app?vid=3abeba9c-ec5f-4aca-9a82-3c5a9a70add6"},"vehicle_type_id":"4","last_reported":1731168543,"current_range_meters":38800,"station_id":"ce4bgup2rcd13ifvqcn0","pricing_plan_id":"cebpf4jnsgd1na2vs0mg"},{"bike_id":"1168dd88-14da-4b8f-9702-5ebe00af9269","system_id":"levelo_inurba_marseille","lat":43.29938,"lon":5.36546,"is_reserved":false,"is_disabled":false,"rental_uris":{"android":"levelo://app?vid=1168dd88-14da-4b8f-9702-5ebe00af9269","ios":"levelo://app?vid=1168dd88-14da-4b8f-9702-5ebe00af9269"},"vehicle_type_id":"4","last_reported":1731168543,"current_range_meters":20000,"station_id":"ce4bgm92rcd13ifvqbr0","pricing_plan_id":"cebpf4jnsgd1na2vs0mg"},{"bike_id":"1786decf-feaf-4f42-99f1-d8979bde2689","system_id":"levelo_inurba_marseille","lat":43.31709,"lon":5.37753,"is_reserved":false,"is_disabled":false,"rental_uris":{"android":"levelo://app?vid=1786decf-feaf-4f42-99f1-d8979bde2689","ios":"levelo://app?vid=1786decf-feaf-4f42-99f1-d8979bde2689"},"vehicle_type_id":"4","last_reported":1731168543,"current_range_meters":38800,"station_id":"ce4bgth2rcd13ifvqch0","pricing_plan_id":"cebpf4jnsgd1na2vs0mg"},{"bike_id":"19159472-dbef-420a-bd9c-c3a65921e317","system_id":"levelo_inurba_marseille","lat":43.280047,"lon":5.40012,"is_reserved":false,"is_disabled":false,"rental_uris":{"android":"levelo://app?vid=19159472-dbef-420a-bd9c-c3a65921e317","ios":"levelo://app?vid=19159472-dbef-420a-bd9c-c3a65921e317"},"vehicle_type_id":"4","last_reported":1731168543,"current_range_meters":19200,"station_id":"ce4bho92rcd13ifvqh4g","pricing_plan_id":"cebpf4jnsgd1na2vs0mg"},{"bike_id":"ba5e9fdc-e697-48e6-94f1-ac71e828732b","system_id":"levelo_inurba_marseille","lat":43.312142,"lon":5.368633,"is_reserved":false,"is_disabled":false,"rental_uris":{"android":"levelo://app?vid=ba5e9fdc-e697-48e6-94f1-ac71e828732b","ios":"levelo://app?vid=ba5e9fdc-e697-48e6-94f1-ac71e828732b"},"vehicle_type_id":"4","last_reported":1731168543,"current_range_meters":28000,"station_id":"ce4bgl92rcd13ifvqbq0","pricing_plan_id":"cebpf4jnsgd1na2vs0mg"},{"bike_id":"f616ec65-ebe5-43d5-b0bc-00a6f36af7b1","system_id":"levelo_inurba_marseille","lat":43.248033,"lon":5.37479,"is_reserved":false,"is_disabled":false,"rental_uris":{"android":"levelo://app?vid=f616ec65-ebe5-43d5-b0bc-00a6f36af7b1","ios":"levelo://app?vid=f616ec65-ebe5-43d5-b0bc-00a6f36af7b1"},"vehicle_type_id":"4","last_reported":1731168543,"current_range_meters":35200,"station_id":"ce4bhgh2rcd13ifvqfb0","pricing_plan_id":"cebpf4jnsgd1na2vs0mg"},{"bike_id":"0ef19678-fe38-463e-82b1-aa4b6b2d1104","system_id":"levelo_inurba_marseille","lat":43.30534,"lon":5.36569,"is_reserved":false,"is_disabled":false,"rental_uris":{"android":"levelo://app?vid=0ef19678-fe38-463e-82b1-aa4b6b2d1104","ios":"levelo://app?vid=0ef19678-fe38-463e-82b1-aa4b6b2d1104"},"vehicle_type_id":"4","last_reported":1731168543,"current_range_meters":35600,"station_id":"ce4bgs12rcd13ifvqcag","pricing_plan_id":"cebpf4jnsgd1na2vs0mg"},{"bike_id":"c4b218ad-2b8a-4c6b-9b20-56bdb4f649af","system_id":"levelo_inurba_marseille","lat":43.29518,"lon":5.390343,"is_reserved":false,"is_disabled":false,"rental_uris":{"android":"levelo://app?vid=c4b218ad-2b8a-4c6b-9b20-56bdb4f649af","ios":"levelo://app?vid=c4b218ad-2b8a-4c6b-9b20-56bdb4f649af"},"vehicle_type_id":"4","last_reported":1731168543,"current_range_meters":6400,"station_id":"ce4bh0p2rcd13ifvqd80","pricing_plan_id":"cebpf4jnsgd1na2vs0mg"},{"bike_id":"3eab29fa-384d-42b3-8a97-9582e857ca12","system_id":"levelo_inurba_marseille","lat":43.255,"lon":5.37647,"is_reserved":false,"is_disabled":false,"rental_uris":{"android":"levelo://app?vid=3eab29fa-384d-42b3-8a97-9582e857ca12","ios":"levelo://app?vid=3eab29fa-384d-42b3-8a97-9582e857ca12"},"vehicle_type_id":"4","last_reported":1731168543,"current_range_meters":38800,"station_id":"ce4bhh12rcd13ifvqff0","pricing_plan_id":"cebpf4jnsgd1na2vs0mg"},{"bike_id":"d2d9f9a2-acaa-40c9-9ceb-2237429b8ab9","system_id":"levelo_inurba_marseille","lat":43.30262,"lon":5.40071,"is_reserved":false,"is_disabled":false,"rental_uris":{"android":"levelo://app?vid=d2d9f9a2-acaa-40c9-9ceb-2237429b8ab9","ios":"levelo://app?vid=d2d9f9a2-acaa-40c9-9ceb-2237429b8ab9"},"vehicle_type_id":"4","last_reported":1731168543,"current_range_meters":23200,"station_id":"ce4bgvh2rcd13ifvqcs0","pricing_plan_id":"cebpf4jnsgd1na2vs0mg"},{"bike_id":"c40bfe68-47c6-487e-9e07-fb7674026b71","system_id":"levelo_inurba_marseille","lat":43.26569,"lon":5.39028,"is_reserved":false,"is_disabled":false,"rental_uris":{"android":"levelo://app?vid=c40bfe68-47c6-487e-9e07-fb7674026b71","ios":"levelo://app?vid=c40bfe68-47c6-487e-9e07-fb7674026b71"},"vehicle_type_id":"4","last_reported":1731168543,"current_range_meters":30000,"station_id":"ce4bhe12rcd13ifvqf30","pricing_plan_id":"cebpf4jnsgd1na2vs0mg"},{"bike_id":"fa35b2ef-09ee-4447-838e-4e816064f1c5","system_id":"levelo_inurba_marseille","lat":43.29798,"lon":5.38094,"is_reserved":false,"is_disabled":false,"rental_uris":{"android":"levelo://app?vid=fa35b2ef-09ee-4447-838e-4e816064f1c5","ios":"levelo://app?vid=fa35b2ef-09ee-4447-838e-4e816064f1c5"},"vehicle_type_id":"4","last_reported":1731168543,"current_range_meters":38800,"station_id":"ce4bgip2rcd13ifvqbb0","pricing_plan_id":"cebpf4jnsgd1na2vs0mg"},{"bike_id":"9604c761-9835-4ccb-9637-d937fcb70031","system_id":"levelo_inurba_marseille","lat":43.30467,"lon":5.37914,"is_reserved":false,"is_disabled":false,"rental_uris":{"android":"levelo://app?vid=9604c761-9835-4ccb-9637-d937fcb70031","ios":"levelo://app?vid=9604c761-9835-4ccb-9637-d937fcb70031"},"vehicle_type_id":"4","last_reported":1731168543,"current_range_meters":39200,"station_id":"ce4bgup2rcd13ifvqcn0","pricing_plan_id":"cebpf4jnsgd1na2vs0mg"},{"bike_id":"21f1cbee-81d5-444b-bae6-64cba53226cf","system_id":"levelo_inurba_marseille","lat":43.25009,"lon":5.38928,"is_reserved":false,"is_disabled":false,"rental_uris":{"android":"levelo://app?vid=21f1cbee-81d5-444b-bae6-64cba53226cf","ios":"levelo://app?vid=21f1cbee-81d5-444b-bae6-64cba53226cf"},"vehicle_type_id":"4","last_reported":1731168543,"current_range_meters":14000,"station_id":"ce4bhgp2rcd13ifvqfd0","pricing_plan_id":"cebpf4jnsgd1na2vs0mg"},{"bike_id":"9e297660-5d8a-418e-a1d5-955212acf420","system_id":"levelo_inurba_marseille","lat":43.30217,"lon":5.39458,"is_reserved":false,"is_disabled":false,"rental_uris":{"android":"levelo://app?vid=9e297660-5d8a-418e-a1d5-955212acf420","ios":"levelo://app?vid=9e297660-5d8a-418e-a1d5-955212acf420"},"vehicle_type_id":"4","last_reported":1731168543,"current_range_meters":28800,"station_id":"ce4bh0p2rcd13ifvqd70","pricing_plan_id":"cebpf4jnsgd1na2vs0mg"},{"bike_id":"634d684f-d35e-4da5-b37f-bbfb7442baa7","system_id":"levelo_inurba_marseille","lat":43.33721,"lon":5.3918,"is_reserved":false,"is_disabled":false,"rental_uris":{"android":"levelo://app?vid=634d684f-d35e-4da5-b37f-bbfb7442baa7","ios":"levelo://app?vid=634d684f-d35e-4da5-b37f-bbfb7442baa7"},"vehicle_type_id":"4","last_reported":1731168543,"current_range_meters":19200,"station_id":"ce4bhr92rcd13ifvqhsg","pricing_plan_id":"cebpf4jnsgd1na2vs0mg"},{"bike_id":"71618311-049c-41af-82c2-ad0cff8aa8fd","system_id":"levelo_inurba_marseille","lat":43.28357,"lon":5.37508,"is_reserved":false,"is_disabled":false,"rental_uris":{"android":"levelo://app?vid=71618311-049c-41af-82c2-ad0cff8aa8fd","ios":"levelo://app?vid=71618311-049c-41af-82c2-ad0cff8aa8fd"},"vehicle_type_id":"4","last_reported":1731168543,"current_range_meters":34800,"station_id":"ce4bh412rcd13ifvqds0","pricing_plan_id":"cebpf4jnsgd1na2vs0mg"},{"bike_id":"4afc81e5-f625-4e8d-a652-c388b3df9e66","system_id":"levelo_inurba_marseille","lat":43.29927,"lon":5.36561,"is_reserved":false,"is_disabled":false,"rental_uris":{"android":"levelo://app?vid=4afc81e5-f625-4e8d-a652-c388b3df9e66","ios":"levelo://app?vid=4afc81e5-f625-4e8d-a652-c388b3df9e66"},"vehicle_type_id":"4","last_reported":1731168543,"current_range_meters":16800,"station_id":"ce4bgm92rcd13ifvqbr0","pricing_plan_id":"cebpf4jnsgd1na2vs0mg"},{"bike_id":"cd1b86e7-9170-4fd7-927b-da5fedb387ff","system_id":"levelo_inurba_marseille","lat":43.23193,"lon":5.35551,"is_reserved":false,"is_disabled":false,"rental_uris":{"android":"levelo://app?vid=cd1b86e7-9170-4fd7-927b-da5fedb387ff","ios":"levelo://app?vid=cd1b86e7-9170-4fd7-927b-da5fedb387ff"},"vehicle_type_id":"4","last_reported":1731168543,"current_range_meters":38800,"station_id":"ce4bhu92rcd13ifvqi70","pricing_plan_id":"cebpf4jnsgd1na2vs0mg"},{"bike_id":"0ea7ec84-193a-45a9-9d6e-c257ce28c62b","system_id":"levelo_inurba_marseille","lat":43.255,"lon":5.37651,"is_reserved":false,"is_disabled":false,"rental_uris":{"android":"levelo://app?vid=0ea7ec84-193a-45a9-9d6e-c257ce28c62b","ios":"levelo://app?vid=0ea7ec84-193a-45a9-9d6e-c257ce28c62b"},"vehicle_type_id":"4","last_reported":1731168543,"current_range_meters":33200,"station_id":"ce4bhh12rcd13ifvqff0","pricing_plan_id":"cebpf4jnsgd1na2vs0mg"},{"bike_id":"d2e3ce6c-c1cf-49be-97f5-e0da1331ccb2","system_id":"levelo_inurba_marseille","lat":43.30152,"lon":5.3808,"is_reserved":false,"is_disabled":false,"rental_uris":{"android":"levelo://app?vid=d2e3ce6c-c1cf-49be-97f5-e0da1331ccb2","ios":"levelo://app?vid=d2e3ce6c-c1cf-49be-97f5-e0da1331ccb2"},"vehicle_type_id":"4","last_reported":1731168543,"current_range_meters":37600,"station_id":"ce4bgjp2rcd13ifvqbh0","pricing_plan_id":"cebpf4jnsgd1na2vs0mg"},{"bike_id":"92d10030-6bbf-4b13-8747-6eaf1d5803ed","system_id":"levelo_inurba_marseille","lat":43.24082,"lon":5.3774,"is_reserved":false,"is_disabled":false,"rental_uris":{"android":"levelo://app?vid=92d10030-6bbf-4b13-8747-6eaf1d5803ed","ios":"levelo://app?vid=92d10030-6bbf-4b13-8747-6eaf1d5803ed"},"vehicle_type_id":"4","last_reported":1731168543,"current_range_meters":24800,"station_id":"ce4bhnp2rcd13ifvqgvg","pricing_plan_id":"cebpf4jnsgd1na2vs0mg"},