{"last_updated":1748268619,"ttl":60,"version":"2.2","data":{"bikes":[{"bike_id":"c0b9fd4f-e181-46ce-b0bf-f5119973334f","system_id":"levelo_inurba_marseille","lat":43.33771,"lon":5.37424,"is_reserved":false,"is_disabled":true,"rental_uris":{"android":"levelo://app?vid=c0b9fd4f-e181-46ce-b0bf-f5119973334f","ios":"levelo://app?vid=c0b9fd4f-e181-46ce-b0bf-f5119973334f"},"vehicle_type_id":"4","last_reported":1748268620,"current_range_meters":0,"station_id":"","pricing_plan_id":"cebpf4jnsgd1na2vs0mg"},{"bike_id":"20e3fb94-70e9-48e8-ba6e-ab8112422754","system_id":"levelo_inurba_marseille","lat":43.30727,"lon":5.38044,"is_reserved":false,"is_disabled":true,"rental_uris":{"android":"levelo://app?vid=20e3fb94-70e9-48e8-ba6e-ab8112422754","ios":"levelo://app?vid=20e3fb94-70e9-48e8-ba6e-ab8112422754"},"vehicle_type_id":"4","last_reported":1748268620,"current_range_meters":0,"station_id":"","pricing_plan_id":"cebpf4jnsgd1na2vs0mg"},{"bike_id":"6b31d584-7ec8-4d7f-974f-dd6b8b914518","system_id":"levelo_inurba_marseille","lat":43.27082,"lon":5.3923,"is_reserved":false,"is_disabled":true,"rental_uris":{"android":"levelo://app?vid=6b31d584-7ec8-4d7f-974f-dd6b8b914518","ios":"levelo://app?vid=6b31d584-7ec8-4d7f-974f-dd6b8b914518"},"vehicle_type_id":"4","last_reported":1748268620,"current_range_meters":0,"station_id":"","pricing_plan_id":"cebpf4jnsgd1na2vs0mg"},{"bike_id":"68dd4df3-b4ab-477d-ba1f-083f8077ecbb","system_id":"levelo_inurba_marseille","lat":43.25639,"lon":5.37522,"is_reserved":false,"is_disabled":true,"rental_uris":{"android":"levelo://app?vid=68dd4df3-b4ab-477d-ba1f-083f8077ecbb","ios":"levelo://app?vid=68dd4df3-b4ab-477d-ba1f-083f8077ecbb"},"vehicle_type_id":"4","last_reported":1748268620,"current_range_meters":0,"station_id":"","pricing_plan_id":"cebpf4jnsgd1na2vs0mg"},{"bike_id":"3fe3d6c4-138a-47df-b6b4-e6f19e8f7d46","system_id":"levelo_inurba_marseille","lat":43.21413,"lon":5.34108,"is_reserved":false,"is_disabled":true,"rental_uris":{"android":"levelo://app?vid=3fe3d6c4-138a-47df-b6b4-e6f19e8f7d46","ios":"levelo://app?vid=3fe3d6c4-138a-47df-b6b4-e6f19e8f7d46"},"vehicle_type_id":"4","last_reported":1748268620,"current_range_meters":0,"station_id":"","pricing_plan_id":"cebpf4jnsgd1na2vs0mg"},{"bike_id":"fd133867-b5d2-4fd2-aa0a-382781ea3f5a","system_id":"levelo_inurba_marseille","lat":43.26784,"lon":5.39416,"is_reserved":false,"is_disabled":true,"rental_uris":{"android":"levelo://app?vid=fd133867-b5d2-4fd2-aa0a-382781ea3f5a","ios":"levelo://app?vid=fd133867-b5d2-4fd2-aa0a-382781ea3f5a"},"vehicle_type_id":"4","last_reported":1748268620,"current_range_meters":0,"station_id":"","pricing_plan_id":"cebpf4jnsgd1na2vs0mg"},{"bike_id":"4a2a47fa-fb4e-41f8-93fc-61bb4186107f","system_id":"levelo_inurba_marseille","lat":43.27786,"lon":5.39895,"is_reserved":false,"is_disabled":true,"rental_uris":{"android":"levelo://app?vid=4a2a47fa-fb4e-41f8-93fc-61bb4186107f","ios":"levelo://app?vid=4a2a47fa-fb4e-41f8-93fc-61bb4186107f"},"vehicle_type_id":"4","last_reported":1748268620,"current_range_meters":0,"station_id":"","pricing_plan_id":"cebpf4jnsgd1na2vs0mg"},{"bike_id":"82854c37-f227-46ca-bd9e-15c76a72eedd","system_id":"levelo_inurba_marseille","lat":43.21753,"lon":5.34602,"is_reserved":false,"is_disabled":true,"rental_uris":{"android":"levelo://app?vid=82854c37-f227-46ca-bd9e-15c76a72eedd","ios":"levelo://app?vid=82854c37-f227-46ca-bd9e-15c76a72eedd"},"vehicle_type_id":"4","last_reported":1748268620,"current_range_meters":0,"station_id":"","pricing_plan_id":"cebpf4jnsgd1na2vs0mg"},{"bike_id":"15dcdbbd-a41e-43eb-9ed6-26ec15ce7a50","system_id":"levelo_inurba_marseille","lat":43.21411,"lon":5.34113,"is_reserved":false,"is_disabled":true,"rental_uris":{"android":"levelo://app?vid=15dcdbbd-a41e-43eb-9ed6-26ec15ce7a50","ios":"levelo://app?vid=15dcdbbd-a41e-43eb-9ed6-26ec15ce7a50"},"vehicle_type_id":"4","last_reported":1748268620,"current_range_meters":0,"station_id":"","pricing_plan_id":"cebpf4jnsgd1na2vs0mg"},{"bike_id":"377e997d-76fa-49cd-a9c9-778bc42231c4","system_id":"levelo_inurba_marseille","lat":43.25663,"lon":5.41901,"is_reserved":false,"is_disabled":true,"rental_uris":{"android":"levelo://app?vid=377e997d-76fa-49cd-a9c9-778bc42231c4","ios":"levelo://app?vid=377e997d-76fa-49cd-a9c9-778bc42231c4"},"vehicle_type_id":"4","last_reported":1748268620,"current_range_meters":0,"station_id":"","pricing_plan_id":"cebpf4jnsgd1na2vs0mg"},{"bike_id":"f9fb40c0-1fcd-48cb-8e26-3f2dc0fb2451","system_id":"levelo_inurba_marseille","lat":43.33751,"lon":5.37509,"is_reserved":false,"is_disabled":true,"rental_uris":{"android":"levelo://app?vid=f9fb40c0-1fcd-48cb-8e26-3f2dc0fb2451","ios":"levelo://app?vid=f9fb40c0-1fcd-48cb-8e26-3f2dc0fb2451"},"vehicle_type_id":"4","last_reported":1748268620,"current_range_meters":0,"station_id":"","pricing_plan_id":"cebpf4jnsgd1na2vs0mg"},{"bike_id":"55486e59-addd-4d7a-be46-bc6476992a64","system_id":"levelo_inurba_marseille","lat":43.27755,"lon":5.38947,"is_reserved":false,"is_disabled":true,"rental_uris":{"android":"levelo://app?vid=55486e59-addd-4d7a-be46-bc6476992a64","ios":"levelo://app?vid=55486e59-addd-4d7a-be46-bc6476992a64"},"vehicle_type_id":"4","last_reported":1748268620,"current_range_meters":0,"station_id":"","pricing_plan_id":"cebpf4jnsgd1na2vs0mg"},{"bike_id":"d9b5650d-9652-4389-81c8-9e7dd1dc104a","system_id":"levelo_inurba_marseille","lat":43.30989,"lon":5.37143,"is_reserved":false,"is_disabled":true,"rental_uris":{"android":"levelo://app?vid=d9b5650d-9652-4389-81c8-9e7dd1dc104a","ios":"levelo://app?vid=d9b5650d-9652-4389-81c8-9e7dd1dc104a"},"vehicle_type_id":"4","last_reported":1748268620,"current_range_meters":0,"station_id":"","pricing_plan_id":"cebpf4jnsgd1na2vs0mg"},{"bike_id":"e9dd3aa4-b5e7-4480-926d-d7f537719bfa","system_id":"levelo_inurba_marseille","lat":43.230331,"lon":5.401847,"is_reserved":false,"is_disabled":true,"rental_uris":{"android":"levelo://app?vid=e9dd3aa4-b5e7-4480-926d-d7f537719bfa","ios":"levelo://app?vid=e9dd3aa4-b5e7-4480-926d-d7f537719bfa"},"vehicle_type_id":"4","last_reported":1748268620,"current_range_meters":0,"station_id":"","pricing_plan_id":"cebpf4jnsgd1na2vs0mg"},{"bike_id":"dcd075ea-b4af-4d6d-90b2-1236858b7bc1","system_id":"levelo_inurba_marseille","lat":43.27609,"lon":5.35873,"is_reserved":false,"is_disabled":true,"rental_uris":{"android":"levelo://app?vid=dcd075ea-b4af-4d6d-90b2-1236858b7bc1","ios":"levelo://app?vid=dcd075ea-b4af-4d6d-90b2-1236858b7bc1"},"vehicle_type_id":"4","last_reported":1748268620,"current_range_meters":0,"station_id":"","pricing_plan_id":"cebpf4jnsgd1na2vs0mg"},{"bike_id":"3e62b861-50fe-454e-a830-0486373f3c3d","system_id":"levelo_inurba_marseille","lat":43.29572,"lon":5.37521,"is_reserved":false,"is_disabled":true,"rental_uris":{"android":"levelo://app?vid=3e62b861-50fe-454e-a830-0486373f3c3d","ios":"levelo://app?vid=3e62b861-50fe-454e-a830-0486373f3c3d"},"vehicle_type_id":"4","last_reported":1748268620,"current_range_meters":0,"station_id":"ce4bgh92rcd13ifvqb50","pricing_plan_id":"cebpf4jnsgd1na2vs0mg"},{"bike_id":"a189df2e-d9fe-4eae-abc3-8e259bc278d8","system_id":"levelo_inurba_marseille","lat":43.2989,"lon":5.3892,"is_reserved":false,"is_disabled":true,"rental_uris":{"android":"levelo://app?vid=a189df2e-d9fe-4eae-abc3-8e259bc278d8","ios":"levelo://app?vid=a189df2e-d9fe-4eae-abc3-8e259bc278d8"},"vehicle_type_id":"4","last_reported":1748268620,"current_range_meters":0,"station_id":"ce4bh392rcd13ifvqdl0","pricing_plan_id":"cebpf4jnsgd1na2vs0mg"},{"bike_id":"17706eff-5cf5-4e05-a8f7-d1ef27271e33","system_id":"levelo_inurba_marseille","lat":43.281,"lon":5.37851,"is_reserved":false,"is_disabled":true,"rental_uris":{"android":"levelo://app?vid=17706eff-5cf5-4e05-a8f7-d1ef27271e33","ios":"levelo://app?vid=17706eff-5cf5-4e05-a8f7-d1ef27271e33"},"vehicle_type_id":"4","last_reported":1748268620,"current_range_meters":0,"station_id":"ce4bha12rcd13ifvqee0","pricing_plan_id":"cebpf4jnsgd1na2vs0mg"},{"bike_id":"7bf98924-f178-4d4a-9a80-dad754a601f0","system_id":"levelo_inurba_marseille","lat":43.2842,"lon":5.34979,"is_reserved":false,"is_disabled":true,"rental_uris":{"android":"levelo://app?vid=7bf98924-f178-4d4a-9a80-dad754a601f0","ios":"levelo://app?vid=7bf98924-f178-4d4a-9a80-dad754a601f0"},"vehicle_type_id":"4","last_reported":1748268620,"current_range_meters":0,"station_id":"ce4bhbh2rcd13ifvqepg","pricing_plan_id":"cebpf4jnsgd1na2vs0mg"},{"bike_id":"8c7a2036-78ac-48ad-9422-476ef6270d20","system_id":"levelo_inurba_marseille","lat":43.28268,"lon":5.35068,"is_reserved":false,"is_disabled":true,"rental_uris":{"android":"levelo://app?vid=8c7a2036-78ac-48ad-9422-476ef6270d20","ios":"levelo://app?vid=8c7a2036-78ac-48ad-9422-476ef6270d20"},"vehicle_type_id":"4","last_reported":1748268620,"current_range_meters":0,"station_id":"ce4bhbp2rcd13ifvqerg","pricing_plan_id":"cebpf4jnsgd1na2vs0mg"},{"bike_id":"a8d115d6-7120-45d6-b844-1bdc16fe78ed","system_id":"levelo_inurba_marseille","lat":43.26688,"lon":5.38286,"is_reserved":false,"is_disabled":true,"rental_uris":{"android":"levelo://app?vid=a8d115d6-7120-45d6-b844-1bdc16fe78ed","ios":"levelo://app?vid=a8d115d6-7120-45d6-b844-1bdc16fe78ed"},"vehicle_type_id":"4","last_reported":1748268620,"current_range_meters":0,"station_id":"ce4bhg92rcd13ifvqf90","pricing_plan_id":"cebpf4jnsgd1na2vs0mg"},{"bike_id":"c10f50f5-cb43-4281-a4e7-3852d1d7abfc","system_id":"levelo_inurba_marseille","lat":43.27574,"lon":5.38409,"is_reserved":false,"is_disabled":true,"rental_uris":{"android":"levelo://app?vid=c10f50f5-cb43-4281-a4e7-3852d1d7abfc","ios":"levelo://app?vid=c10f50f5-cb43-4281-a4e7-3852d1d7abfc"},"vehicle_type_id":"4","last_reported":1748268620,"current_range_meters":0,"station_id":"ce4bhh92rcd13ifvqfi0","pricing_plan_id":"cebpf4jnsgd1na2vs0mg"},{"bike_id":"0537606b-536a-4ebf-8a4c-61812fa148cf","system_id":"levelo_inurba_marseille","lat":43.27212,"lon":5.39184,"is_reserved":false,"is_disabled":true,"rental_uris":{"android":"levelo://app?vid=0537606b-536a-4ebf-8a4c-61812fa148cf","ios":"levelo://app?vid=0537606b-536a-4ebf-8a4c-61812fa148cf"},"vehicle_type_id":"4","last_reported":1748268620,"current_range_meters":0,"station_id":"ce4bhhp2rcd13ifvqfm0","pricing_plan_id":"cebpf4jnsgd1na2vs0mg"},{"bike_id":"d854f86e-0a1b-4e0e-b96f-5e25c3eac7f2","system_id":"levelo_inurba_marseille","lat":43.24075,"lon":5.37766,"is_reserved":false,"is_disabled":true,"rental_uris":{"android":"levelo://app?vid=d854f86e-0a1b-4e0e-b96f-5e25c3eac7f2","ios":"levelo://app?vid=d854f86e-0a1b-4e0e-b96f-5e25c3eac7f2"},"vehicle_type_id":"4","last_reported":1748268620,"current_range_meters":0,"station_id":"ce4bhnp2rcd13ifvqgvg","pricing_plan_id":"cebpf4jnsgd1na2vs0mg"},{"bike_id":"8251d35b-35a8-4788-849b-38982bafb0a6","system_id":"levelo_inurba_marseille","lat":43.22944,"lon":5.353945,"is_reserved":false,"is_disabled":true,"rental_uris":{"android":"levelo://app?vid=8251d35b-35a8-4788-849b-38982bafb0a6","ios":"levelo://app?vid=8251d35b-35a8-4788-849b-38982bafb0a6"},"vehicle_type_id":"4","last_reported":1748268620,"current_range_meters":0,"station_id":"cpo3532slgdg3j2ikp40","pricing_plan_id":"cebpf4jnsgd1na2vs0mg"},{"bike_id":"1fad0e8c-a530-4b27-b503-9ecb10595021","system_id":"levelo_inurba_marseille","lat":43.31133,"lon":5.37783,"is_reserved":false,"is_disabled":true,"rental_uris":{"android":"levelo://app?vid=1fad0e8c-a530-4b27-b503-9ecb10595021","ios":"levelo://app?vid=1fad0e8c-a530-4b27-b503-9ecb10595021"},"vehicle_type_id":"4","last_reported":1748268620,"current_range_meters":400,"station_id":"ce4bgt92rcd13ifvqcg0","pricing_plan_id":"cebpf4jnsgd1na2vs0mg"},{"bike_id":"f7608192-9022-4d81-8c06-fbcf45e77a2c","system_id":"levelo_inurba_marseille","lat":43.29541,"lon":5.39398,"is_reserved":false,"is_disabled":true,"rental_uris":{"android":"levelo://app?vid=f7608192-9022-4d81-8c06-fbcf45e77a2c","ios":"levelo://app?vid=f7608192-9022-4d81-8c06-fbcf45e77a2c"},"vehicle_type_id":"4","last_reported":1748268620,"current_range_meters":400,"station_id":"ce4bh292rcd13ifvqdf0","pricing_plan_id":"cebpf4jnsgd1na2vs0mg"},{"bike_id":"3b13e3ac-5ca1-456a-b11e-0fa5ae22ccc4","system_id":"levelo_inurba_marseille","lat":43.27967,"lon":5.38747,"is_reserved":false,"is_disabled":true,"rental_uris":{"android":"levelo://app?vid=3b13e3ac-5ca1-456a-b11e-0fa5ae22ccc4","ios":"levelo://app?vid=3b13e3ac-5ca1-456a-b11e-0fa5ae22ccc4"},"vehicle_type_id":"4","last_reported":1748268620,"current_range_meters":400,"station_id":"ce4bhg12rcd13ifvqf80","pricing_plan_id":"cebpf4jnsgd1na2vs0mg"},{"bike_id":"fdb1f313-11f0-4946-95db-f81014905016","system_id":"levelo_inurba_marseille","lat":43.2418,"lon":5.39741,"is_reserved":false,"is_disabled":true,"rental_uris":{"android":"levelo://app?vid=fdb1f313-11f0-4946-95db-f81014905016","ios":"levelo://app?vid=fdb1f313-11f0-4946-95db-f81014905016"},"vehicle_type_id":"4","last_reported":1748268620,"current_range_meters":400,"station_id":"ce4bhn12rcd13ifvqgpg","pricing_plan_id":"cebpf4jnsgd1na2vs0mg"},{"bike_id":"c6abb61d-4342-40c3-b753-8164150f4e14","system_id":"levelo_inurba_marseille","lat":43.28082,"lon":5.39659,"is_reserved":false,"is_disabled":true,"rental_uris":{"android":"levelo://app?vid=c6abb61d-4342-40c3-b753-8164150f4e14","ios":"levelo://app?vid=c6abb61d-4342-40c3-b753-8164150f4e14"},"vehicle_type_id":"4","last_reported":1748268620,"current_range_meters":400,"station_id":"ce4bho12rcd13ifvqh2g","pricing_plan_id":"cebpf4jnsgd1na2vs0mg"},{"bike_id":"132137d4-1695-43ce-b4f5-caf0073ccff7","system_id":"levelo_inurba_marseille","lat":43.2978,"lon":5.39333,"is_reserved":false,"is_disabled":true,"rental_uris":{"android":"levelo://app?vid=132137d4-1695-43ce-b4f5-caf0073ccff7","ios":"levelo://app?vid=132137d4-1695-43ce-b4f5-caf0073ccff7"},"vehicle_type_id":"4","last_reported":1748268620,"current_range_meters":400,"station_id":"chh1huq6cuj3fo74tm60","pricing_plan_id":"cebpf4jnsgd1na2vs0mg"},{"bike_id":"2cdf394a-270f-428c-863e-2f18bb2467f8","system_id":"levelo_inurba_marseille","lat":43.30145,"lon":5.38103,"is_reserved":false,"is_disabled":true,"rental_uris":{"android":"levelo://app?vid=2cdf394a-270f-428c-863e-2f18bb2467f8","ios":"levelo://app?vid=2cdf394a-270f-428c-863e-2f18bb2467f8"},"vehicle_type_id":"4","last_reported":1748268620,"current_range_meters":800,"station_id":"ce4bgjp2rcd13ifvqbh0","pricing_plan_id":"cebpf4jnsgd1na2vs0mg"},{"bike_id":"f9413a03-5f8f-4964-9069-c6db9e7b18db","system_id":"levelo_inurba_marseille","lat":43.2793,"lon":5.39575,"is_reserved":false,"is_disabled":true,"rental_uris":{"android":"levelo://app?vid=f9413a03-5f8f-4964-9069-c6db9e7b18db","ios":"levelo://app?vid=f9413a03-5f8f-4964-9069-c6db9e7b18db"},"vehicle_type_id":"4","last_reported":1748268620,"current_range_meters":800,"station_id":"ce4bhf92rcd13ifvqf40","pricing_plan_id":"cebpf4jnsgd1na2vs0mg"},{"bike_id":"a06fc582-a7a7-4363-b65b-fa83b931f59a","system_id":"levelo_inurba_marseille","lat":43.2954,"lon":5.38548,"is_reserved":false,"is_disabled":true,"rental_uris":{"android":"levelo://app?vid=a06fc582-a7a7-4363-b65b-fa83b931f59a","ios":"levelo://app?vid=a06fc582-a7a7-4363-b65b-fa83b931f59a"},"vehicle_type_id":"4","last_reported":1748268620,"current_range_meters":1200,"station_id":"ce4bgih2rcd13ifvqba0","pricing_plan_id":"cebpf4jnsgd1na2vs0mg"},{"bike_id":"107ff565-040d-4140-a730-f55a16d49475","system_id":"levelo_inurba_marseille","lat":43.27392,"lon":5.3626,"is_reserved":false,"is_disabled":true,"rental_uris":{"android":"levelo://app?vid=107ff565-040d-4140-a730-f55a16d49475","ios":"levelo://app?vid=107ff565-040d-4140-a730-f55a16d49475"},"vehicle_type_id":"4","last_reported":1748268620,"current_range_meters":1200,"station_id":"ce4bhbh2rcd13ifvqeo0","pricing_plan_id":"cebpf4jnsgd1na2vs0mg"},{"bike_id":"341f33c1-ae1e-4ed0-b7a4-603b07180d2a","system_id":"levelo_inurba_marseille","lat":43.25125,"lon":5.40308,"is_reserved":false,"is_disabled":true,"rental_uris":{"android":"levelo://app?vid=341f33c1-ae1e-4ed0-b7a4-603b07180d2a","ios":"levelo://app?vid=341f33c1-ae1e-4ed0-b7a4-603b07180d2a"},"vehicle_type_id":"4","last_reported":1748268620,"current_range_meters":1200,"station_id":"ce4bhlh2rcd13ifvqgig","pricing_plan_id":"cebpf4jnsgd1na2vs0mg"},{"bike_id":"ad2d6673-01ae-4cb3-92f9-dd61669f7895","system_id":"levelo_inurba_marseille","lat":43.28162,"lon":5.4264,"is_reserved":false,"is_disabled":true,"rental_uris":{"android":"levelo://app?vid=ad2d6673-01ae-4cb3-92f9-dd61669f7895","ios":"levelo://app?vid=ad2d6673-01ae-4cb3-92f9-dd61669f7895"},"vehicle_type_id":"4","last_reported":1748268620,"current_range_meters":1200,"station_id":"ce4bhnh2rcd13ifvqgug","pricing_plan_id":"cebpf4jnsgd1na2vs0mg"},{"bike_id":"d858327d-beba-4be9-a518-44009d545a5e","system_id":"levelo_inurba_marseille","lat":43.24085,"lon":5.3775,"is_reserved":false,"is_disabled":true,"rental_uris":{"android":"levelo://app?vid=d858327d-beba-4be9-a518-44009d545a5e","ios":"levelo://app?vid=d858327d-beba-4be9-a518-44009d545a5e"},"vehicle_type_id":"4","last_reported":1748268620,"current_range_meters":1200,"station_id":"ce4bhnp2rcd13ifvqgvg","pricing_plan_id":"cebpf4jnsgd1na2vs0mg"},{"bike_id":"149db685-52a2-450f-bd30-65e461b827ff","system_id":"levelo_inurba_marseille","lat":43.24167,"lon":5.36383,"is_reserved":false,"is_disabled":true,"rental_uris":{"android":"levelo://app?vid=149db685-52a2-450f-bd30-65e461b827ff","ios":"levelo://app?vid=149db685-52a2-450f-bd30-65e461b827ff"},"vehicle_type_id":"4","last_reported":1748268620,"current_range_meters":1200,"station_id":"cpo36qri1sfpv3e86is0","pricing_plan_id":"cebpf4jnsgd1na2vs0mg"},{"bike_id":"52cf2044-0837-4e69-baed-748c205cad74","system_id":"levelo_inurba_marseille","lat":43.29269,"lon":5.37619,"is_reserved":false,"is_disabled":true,"rental_uris":{"android":"levelo://app?vid=52cf2044-0837-4e69-baed-748c205cad74","ios":"levelo://app?vid=52cf2044-0837-4e69-baed-748c205cad74"},"vehicle_type_id":"4","last_reported":1748268620,"current_range_meters":1600,"station_id":"ce4bgi12rcd13ifvqb80","pricing_plan_id":"cebpf4jnsgd1na2vs0mg"},{"bike_id":"53f0df7a-b16c-4394-8f16-017d80ccf1b3","system_id":"levelo_inurba_marseille","lat":43.30798,"lon":5.38155,"is_reserved":false,"is_disabled":true,"rental_uris":{"android":"levelo://app?vid=53f0df7a-b16c-4394-8f16-017d80ccf1b3","ios":"levelo://app?vid=53f0df7a-b16c-4394-8f16-017d80ccf1b3"},"vehicle_type_id":"4","last_reported":1748268620,"current_range_meters":1600,"station_id":"ce4bgt12rcd13ifvqce0","pricing_plan_id":"cebpf4jnsgd1na2vs0mg"},{"bike_id":"18d91d21-3fbd-44ec-8ea5-ad154289350f","system_id":"levelo_inurba_marseille","lat":43.31102,"lon":5.37306,"is_reserved":false,"is_disabled":true,"rental_uris":{"android":"levelo://app?vid=18d91d21-3fbd-44ec-8ea5-ad154289350f","ios":"levelo://app?vid=18d91d21-3fbd-44ec-8ea5-ad154289350f"},"vehicle_type_id":"4","last_reported":1748268620,"current_range_meters":2000,"station_id":"","pricing_plan_id":"cebpf4jnsgd1na2vs0mg"},{"bike_id":"1dc5ef65-0352-43e8-a32f-2ae32b7b9adf","system_id":"levelo_inurba_marseille","lat":43.30433,"lon":5.3888,"is_reserved":false,"is_disabled":true,"rental_uris":{"android":"levelo://app?vid=1dc5ef65-0352-43e8-a32f-2ae32b7b9adf","ios":"levelo://app?vid=1dc5ef65-0352-43e8-a32f-2ae32b7b9adf"},"vehicle_type_id":"4","last_reported":1748268620,"current_range_meters":2000,"station_id":"ce4bgk12rcd13ifvqbi0","pricing_plan_id":"cebpf4jnsgd1na2vs0mg"},{"bike_id":"3b49f11b-5e53-4ad4-b507-f40d20a99149","system_id":"levelo_inurba_marseille","lat":43.284117,"lon":5.34983,"is_reserved":false,"is_disabled":true,"rental_uris":{"android":"levelo://app?vid=3b49f11b-5e53-4ad4-b507-f40d20a99149","ios":"levelo://app?vid=3b49f11b-5e53-4ad4-b507-f40d20a99149"},"vehicle_type_id":"4","last_reported":1748268620,"current_range_meters":2000,"station_id":"ce4bhbh2rcd13ifvqepg","pricing_plan_id":"cebpf4jnsgd1na2vs0mg"},{"bike_id":"3581c28c-41f2-4cb7-b494-0448776c0438","system_id":"levelo_inurba_marseille","lat":43.29649,"lon":5.3604,"is_reserved":false,"is_disabled":false,"rental_uris":{"android":"levelo://app?vid=3581c28c-41f2-4cb7-b494-0448776c0438","ios":"levelo://app?vid=3581c28c-41f2-4cb7-b494-0448776c0438"},"vehicle_type_id":"4","last_reported":1748268620,"current_range_meters":2800,"station_id":"","pricing_plan_id":"cebpf4jnsgd1na2vs0mg"},{"bike_id":"5efb112c-a2cf-48ba-9766-ca9fed9ac8e5","system_id":"levelo_inurba_marseille","lat":43.31172,"lon":5.38703,"is_reserved":false,"is_disabled":false,"rental_uris":{"android":"levelo://app?vid=5efb112c-a2cf-48ba-9766-ca9fed9ac8e5","ios":"levelo://app?vid=5efb112c-a2cf-48ba-9766-ca9fed9ac8e5"},"vehicle_type_id":"4","last_reported":1748268620,"current_range_meters":2800,"station_id":"ce4bgv12rcd13ifvqcp0","pricing_plan_id":"cebpf4jnsgd1na2vs0mg"},{"bike_id":"f8cac8d8-2217-4057-9cf7-5aae85120cad","system_id":"levelo_inurba_marseille","lat":43.290697,"lon":5.375471,"is_reserved":false,"is_disabled":false,"rental_uris":{"android":"levelo://app?vid=f8cac8d8-2217-4057-9cf7-5aae85120cad","ios":"levelo://app?vid=f8cac8d8-2217-4057-9cf7-5aae85120cad"},"vehicle_type_id":"4","last_reported":1748268620,"current_range_meters":2800,"station_id":"ce4bh692rcd13ifvqe90","pricing_plan_id":"cebpf4jnsgd1na2vs0mg"},{"bike_id":"54c7d6c4-2d5a-41d6-bfef-0b232a59923d","system_id":"levelo_inurba_marseille","lat":43.243998,"lon":5.368929,"is_reserved":false,"is_disabled":false,"rental_uris":{"android":"levelo://app?vid=54c7d6c4-2d5a-41d6-bfef-0b232a59923d","ios":"levelo://app?vid=54c7d6c4-2d5a-41d6-bfef-0b232a59923d"},"vehicle_type_id":"4","last_reported":1748268620,"current_range_meters":2800,"station_id":"ce4bhhh2rcd13ifvqfk0","pricing_plan_id":"cebpf4jnsgd1na2vs0mg"},{"bike_id":"daf24f7c-ccfc-4c83-8bc9-2cd6e547b42c","system_id":"levelo_inurba_marseille","lat":43.22943,"lon":5.35367,"is_reserved":false,"is_disabled":false,"rental_uris":{"android":"levelo://app?vid=daf24f7c-ccfc-4c83-8bc9-2cd6e547b42c","ios":"levelo://app?vid=daf24f7c-ccfc-4c83-8bc9-2cd6e547b42c"},"vehicle_type_id":"4","last_reported":1748268620,"current_range_meters":2800,"station_id":"cpo3532slgdg3j2ikp40","pricing_plan_id":"cebpf4jnsgd1na2vs0mg"},{"bike_id":"a6be63d9-0059-44b4-8f21-839cf9c85a6a","system_id":"levelo_inurba_marseille","lat":43.27623,"lon":5.36108,"is_reserved":false,"is_disabled":false,"rental_uris":{"android":"levelo://app?vid=a6be63d9-0059-44b4-8f21-839cf9c85a6a","ios":"levelo://app?vid=a6be63d9-0059-44b4-8f21-839cf9c85a6a"},"vehicle_type_id":"4","last_reported":1748268620,"current_range_meters":3200,"station_id":"ce4bgj92rcd13ifvqbe0","pricing_plan_id":"cebpf4jnsgd1na2vs0mg"},{"bike_id":"781202cc-d739-45a2-9114-279e27eff2cf","system_id":"levelo_inurba_marseille","lat":43.265511,"lon":5.372822,"is_reserved":false,"is_disabled":false,"rental_uris":{"android":"levelo://app?vid=781202cc-d739-45a2-9114-279e27eff2cf","ios":"levelo://app?vid=781202cc-d739-45a2-9114-279e27eff2cf"},"vehicle_type_id":"4","last_reported":1748268620,"current_range_meters":3200,"station_id":"ce4bhg12rcd13ifvqf70","pricing_plan_id":"cebpf4jnsgd1na2vs0mg"},{"bike_id":"fe2e9ccf-cbf5-4637-9358-2d866010485c","system_id":"levelo_inurba_marseille","lat":43.27386,"lon":5.36248,"is_reserved":false,"is_disabled":false,"rental_uris":{"android":"levelo://app?vid=fe2e9ccf-cbf5-4637-9358-2d866010485c","ios":"levelo://app?vid=fe2e9ccf-cbf5-4637-9358-2d866010485c"},"vehicle_type_id":"4","last_reported":1748268620,"current_range_meters":3600,"station_id":"ce4bhbh2rcd13ifvqeo0","pricing_plan_id":"cebpf4jnsgd1na2vs0mg"},{"bike_id":"51f4bd77-ab28-4f41-bad5-b6d39e46b3dd","system_id":"levelo_inurba_marseille","lat":43.28273,"lon":5.35067,"is_reserved":false,"is_disabled":false,"rental_uris":{"android":"levelo://app?vid=51f4bd77-ab28-4f41-bad5-b6d39e46b3dd","ios":"levelo://app?vid=51f4bd77-ab28-4f41-bad5-b6d39e46b3dd"},"vehicle_type_id":"4","last_reported":1748268620,"current_range_meters":3600,"station_id":"ce4bhbp2rcd13ifvqerg","pricing_plan_id":"cebpf4jnsgd1na2vs0mg"},{"bike_id":"9f2f7301-acbb-40d5-a133-ecec34c839e8","system_id":"levelo_inurba_marseille","lat":43.28275,"lon":5.3506,"is_reserved":false,"is_disabled":false,"rental_uris":{"android":"levelo://app?vid=9f2f7301-acbb-40d5-a133-ecec34c839e8","ios":"levelo://app?vid=9f2f7301-acbb-40d5-a133-ecec34c839e8"},"vehicle_type_id":"4","last_reported":1748268620,"current_range_meters":3600,"station_id":"ce4bhbp2rcd13ifvqerg","pricing_plan_id":"cebpf4jnsgd1na2vs0mg"},{"bike_id":"7fe3f5f1-fc2e-46de-aa24-0ae456d0a26e","system_id":"levelo_inurba_marseille","lat":43.29871,"lon":5.3978,"is_reserved":false,"is_disabled":false,"rental_uris":{"android":"levelo://app?vid=7fe3f5f1-fc2e-46de-aa24-0ae456d0a26e","ios":"levelo://app?vid=7fe3f5f1-fc2e-46de-aa24-0ae456d0a26e"},"vehicle_type_id":"4","last_reported":1748268620,"current_range_meters":4000,"station_id":"ce4bh0h2rcd13ifvqd50","pricing_plan_id":"cebpf4jnsgd1na2vs0mg"},{"bike_id":"da453a88-f81b-4e0f-9781-5a7f6c1d364c","system_id":"levelo_inurba_marseille","lat":43.337499,"lon":5.374469,"is_reserved":false,"is_disabled":false,"rental_uris":{"android":"levelo://app?vid=da453a88-f81b-4e0f-9781-5a7f6c1d364c","ios":"levelo://app?vid=da453a88-f81b-4e0f-9781-5a7f6c1d364c"},"vehicle_type_id":"4","last_reported":1748268620,"current_range_meters":4400,"station_id":"","pricing_plan_id":"cebpf4jnsgd1na2vs0mg"},{"bike_id":"985dfe2e-48ab-4438-8b44-7034bccf028e","system_id":"levelo_inurba_marseille","lat":43.26996,"lon":5.39852,"is_reserved":false,"is_disabled":false,"rental_uris":{"android":"levelo://app?vid=985dfe2e-48ab-4438-8b44-7034bccf028e","ios":"levelo://app?vid=985dfe2e-48ab-4438-8b44-7034bccf028e"},"vehicle_type_id":"4","last_reported":1748268620,"current_range_meters":4400,"station_id":"","pricing_plan_id":"cebpf4jnsgd1na2vs0mg"},{"bike_id":"1da35f9f-f4ec-4f7e-81f7-49dd3c19bd7a","system_id":"levelo_inurba_marseille","lat":43.2648,"lon":5.41877,"is_reserved":false,"is_disabled":false,"rental_uris":{"android":"levelo://app?vid=1da35f9f-f4ec-4f7e-81f7-49dd3c19bd7a","ios":"levelo://app?vid=1da35f9f-f4ec-4f7e-81f7-49dd3c19bd7a"},"vehicle_type_id":"4","last_reported":1748268620,"current_range_meters":4400,"station_id":"","pricing_plan_id":"cebpf4jnsgd1na2vs0mg"},{"bike_id":"4104daf9-2202-4fa0-9edc-4c34eee84679","system_id":"levelo_inurba_marseille","lat":43.28683,"lon":5.38654,"is_reserved":false,"is_disabled":false,"rental_uris":{"android":"levelo://app?vid=4104daf9-2202-4fa0-9edc-4c34eee84679","ios":"levelo://app?vid=4104daf9-2202-4fa0-9edc-4c34eee84679"},"vehicle_type_id":"4","last_reported":1748268620,"current_range_meters":4400,"station_id":"ce4bh492rcd13ifvqdug","pricing_plan_id":"cebpf4jnsgd1na2vs0mg"},{"bike_id":"bbd9e0b3-8f54-4761-844e-317750035ab5","system_id":"levelo_inurba_marseille","lat":43.25731,"lon":5.41105,"is_reserved":false,"is_disabled":false,"rental_uris":{"android":"levelo://app?vid=bbd9e0b3-8f54-4761-844e-317750035ab5","ios":"levelo://app?vid=bbd9e0b3-8f54-4761-844e-317750035ab5"},"vehicle_type_id":"4","last_reported":1748268620,"current_range_meters":4400,"station_id":"ce4bhkp2rcd13ifvqgd0","pricing_plan_id":"cebpf4jnsgd1na2vs0mg"},{"bike_id":"d9fa0449-e47c-4bbe-a91c-4939cab5d888","system_id":"levelo_inurba_marseille","lat":43.28581,"lon":5.4265,"is_reserved":false,"is_disabled":false,"rental_uris":{"android":"levelo://app?vid=d9fa0449-e47c-4bbe-a91c-4939cab5d888","ios":"levelo://app?vid=d9fa0449-e47c-4bbe-a91c-4939cab5d888"},"vehicle_type_id":"4","last_reported":1748268620,"current_range_meters":4800,"station_id":"","pricing_plan_id":"cebpf4jnsgd1na2vs0mg"},{"bike_id":"81a533f4-3eb4-4b6f-9795-088d7517e908","system_id":"levelo_inurba_marseille","lat":43.337444,"lon":5.374475,"is_reserved":false,"is_disabled":false,"rental_uris":{"android":"levelo://app?vid=81a533f4-3eb4-4b6f-9795-088d7517e908","ios":"levelo://app?vid=81a533f4-3eb4-4b6f-9795-088d7517e908"},"vehicle_type_id":"4","last_reported":1748268620,"current_range_meters":4800,"station_id":"","pricing_plan_id":"cebpf4jnsgd1na2vs0mg"},{"bike_id":"650ba0d8-22cd-4b2f-959a-beb43ca34e44","system_id":"levelo_inurba_marseille","lat":43.284768,"lon":5.384156,"is_reserved":false,"is_disabled":false,"rental_uris":{"android":"levelo://app?vid=650ba0d8-22cd-4b2f-959a-beb43ca34e44","ios":"levelo://app?vid=650ba0d8-22cd-4b2f-959a-beb43ca34e44"},"vehicle_type_id":"4","last_reported":1748268620,"current_range_meters":4800,"station_id":"ce4bh512rcd13ifvqe3g","pricing_plan_id":"cebpf4jnsgd1na2vs0mg"},{"bike_id":"c38bcb2f-2dd8-42be-bb8c-9b00b462ca3a","system_id":"levelo_inurba_marseille","lat":43.28468,"lon":5.35892,"is_reserved":false,"is_disabled":false,"rental_uris":{"android":"levelo://app?vid=c38bcb2f-2dd8-42be-bb8c-9b00b462ca3a","ios":"levelo://app?vid=c38bcb2f-2dd8-42be-bb8c-9b00b462ca3a"},"vehicle_type_id":"4","last_reported":1748268620,"current_range_meters":4800,"station_id":"ce4bhah2rcd13ifvqei0","pricing_plan_id":"cebpf4jnsgd1na2vs0mg"},{"bike_id":"e76d88ba-f4cb-4241-9481-8b0c7fd370b2","system_id":"levelo_inurba_marseille","lat":43.28278,"lon":5.35089,"is_reserved":false,"is_disabled":false,"rental_uris":{"android":"levelo://app?vid=e76d88ba-f4cb-4241-9481-8b0c7fd370b2","ios":"levelo://app?vid=e76d88ba-f4cb-4241-9481-8b0c7fd370b2"},"vehicle_type_id":"4","last_reported":1748268620,"current_range_meters":4800,"station_id":"ce4bhbp2rcd13ifvqerg","pricing_plan_id":"cebpf4jnsgd1na2vs0mg"},{"bike_id":"f7103827-56fc-4bd3-b9bf-ef0267a238eb","system_id":"levelo_inurba_marseille","lat":43.30145,"lon":5.37409,"is_reserved":false,"is_disabled":false,"rental_uris":{"android":"levelo://app?vid=f7103827-56fc-4bd3-b9bf-ef0267a238eb","ios":"levelo://app?vid=f7103827-56fc-4bd3-b9bf-ef0267a238eb"},"vehicle_type_id":"4","last_reported":1748268620,"current_range_meters":5600,"station_id":"ce4bgs92rcd13ifvqcc0","pricing_plan_id":"cebpf4jnsgd1na2vs0mg"},{"bike_id":"ab3cfbba-f006-4cce-8ae4-b18af8d05466","system_id":"levelo_inurba_marseille","lat":43.2738,"lon":5.362567,"is_reserved":false,"is_disabled":false,"rental_uris":{"android":"levelo://app?vid=ab3cfbba-f006-4cce-8ae4-b18af8d05466","ios":"levelo://app?vid=ab3cfbba-f006-4cce-8ae4-b18af8d05466"},"vehicle_type_id":"4","last_reported":1748268620,"current_range_meters":5600,"station_id":"ce4bhbh2rcd13ifvqeo0","pricing_plan_id":"cebpf4jnsgd1na2vs0mg"},{"bike_id":"9f9b4664-cc67-4cf3-a2c7-4a300b7c0b77","system_id":"levelo_inurba_marseille","lat":43.28948,"lon":5.36395,"is_reserved":false,"is_disabled":false,"rental_uris":{"android":"levelo://app?vid=9f9b4664-cc67-4cf3-a2c7-4a300b7c0b77","ios":"levelo://app?vid=9f9b4664-cc67-4cf3-a2c7-4a300b7c0b77"},"vehicle_type_id":"4","last_reported":1748268620,"current_range_meters":5600,"station_id":"ce4bhc92rcd13ifvqetg","pricing_plan_id":"cebpf4jnsgd1na2vs0mg"},{"bike_id":"14f53c3f-cc23-4617-bb96-8563fd13a1ad","system_id":"levelo_inurba_marseille","lat":43.26794,"lon":5.39409,"is_reserved":false,"is_disabled":false,"rental_uris":{"android":"levelo://app?vid=14f53c3f-cc23-4617-bb96-8563fd13a1ad","ios":"levelo://app?vid=14f53c3f-cc23-4617-bb96-8563fd13a1ad"},"vehicle_type_id":"4","last_reported":1748268620,"current_range_meters":5600,"station_id":"ce4bhh12rcd13ifvqfg0","pricing_plan_id":"cebpf4jnsgd1na2vs0mg"},{"bike_id":"e5e036d5-91cd-41ca-916e-a86d296a6267","system_id":"levelo_inurba_marseille","lat":43.25584,"lon":5.38228,"is_reserved":false,"is_disabled":false,"rental_uris":{"android":"levelo://app?vid=e5e036d5-91cd-41ca-916e-a86d296a6267","ios":"levelo://app?vid=e5e036d5-91cd-41ca-916e-a86d296a6267"},"vehicle_type_id":"4","last_reported":1748268620,"current_range_meters":5600,"station_id":"ce4bhih2rcd13ifvqfs0","pricing_plan_id":"cebpf4jnsgd1na2vs0mg"},{"bike_id":"fdfd0ce9-5fa3-48ae-9075-693f114f37d8","system_id":"levelo_inurba_marseille","lat":43.26942,"lon":5.40257,"is_reserved":false,"is_disabled":false,"rental_uris":{"android":"levelo://app?vid=fdfd0ce9-5fa3-48ae-9075-693f114f37d8","ios":"levelo://app?vid=fdfd0ce9-5fa3-48ae-9075-693f114f37d8"},"vehicle_type_id":"4","last_reported":1748268620,"current_range_meters":5600,"station_id":"cjm6bp8fraef2m0cb0m0","pricing_plan_id":"cebpf4jnsgd1na2vs0mg"},{"bike_id":"dab7ee0d-f820-455c-89c6-13e25f106faf","system_id":"levelo_inurba_marseille","lat":43.323793,"lon":5.42119,"is_reserved":false,"is_disabled":false,"rental_uris":{"android":"levelo://app?vid=dab7ee0d-f820-455c-89c6-13e25f106faf","ios":"levelo://app?vid=dab7ee0d-f820-455c-89c6-13e25f106faf"},"vehicle_type_id":"4","last_reported":1748268620,"current_range_meters":6000,"station_id":"","pricing_plan_id":"cebpf4jnsgd1na2vs0mg"},{"bike_id":"e60caf0a-bced-41d9-8817-46a3addc6f6b","system_id":"levelo_inurba_marseille","lat":43.27625,"lon":5.36099,"is_reserved":false,"is_disabled":false,"rental_uris":{"android":"levelo://app?vid=e60caf0a-bced-41d9-8817-46a3addc6f6b","ios":"levelo://app?vid=e60caf0a-bced-41d9-8817-46a3addc6f6b"},"vehicle_type_id":"4","last_reported":1748268620,"current_range_meters":6000,"station_id":"ce4bgj92rcd13ifvqbe0","pricing_plan_id":"cebpf4jnsgd1na2vs0mg"},{"bike_id":"a6dc1c78-7845-437e-ab8f-79c6f75d9e7e","system_id":"levelo_inurba_marseille","lat":43.288328,"lon":5.358546,"is_reserved":false,"is_disabled":false,"rental_uris":{"android":"levelo://app?vid=a6dc1c78-7845-437e-ab8f-79c6f75d9e7e","ios":"levelo://app?vid=a6dc1c78-7845-437e-ab8f-79c6f75d9e7e"},"vehicle_type_id":"4","last_reported":1748268620,"current_range_meters":6000,"station_id":"ce4bhb12rcd13ifvqem0","pricing_plan_id":"cebpf4jnsgd1na2vs0mg"},{"bike_id":"6c95e4e9-af72-4fa1-9682-85e62b305837","system_id":"levelo_inurba_marseille","lat":43.25725,"lon":5.411156,"is_reserved":false,"is_disabled":false,"rental_uris":{"android":"levelo://app?vid=6c95e4e9-af72-4fa1-9682-85e62b305837","ios":"levelo://app?vid=6c95e4e9-af72-4fa1-9682-85e62b305837"},"vehicle_type_id":"4","last_reported":1748268620,"current_range_meters":6000,"station_id":"ce4bhkp2rcd13ifvqgd0","pricing_plan_id":"cebpf4jnsgd1na2vs0mg"},{"bike_id":"83fcd392-2ab9-466c-a97f-3529b19bc91c","system_id":"levelo_inurba_marseille","lat":43.3013,"lon":5.39875,"is_reserved":false,"is_disabled":false,"rental_uris":{"android":"levelo://app?vid=83fcd392-2ab9-466c-a97f-3529b19bc91c","ios":"levelo://app?vid=83fcd392-2ab9-466c-a97f-3529b19bc91c"},"vehicle_type_id":"4","last_reported":1748268620,"current_range_meters":6400,"station_id":"ce4bh0h2rcd13ifvqd40","pricing_plan_id":"cebpf4jnsgd1na2vs0mg"},{"bike_id":"d2f6b88b-979d-490c-a258-4fe2e1e819d8","system_id":"levelo_inurba_marseille","lat":43.29129,"lon":5.38102,"is_reserved":false,"is_disabled":false,"rental_uris":{"android":"levelo://app?vid=d2f6b88b-979d-490c-a258-4fe2e1e819d8","ios":"levelo://app?vid=d2f6b88b-979d-490c-a258-4fe2e1e819d8"},"vehicle_type_id":"4","last_reported":1748268620,"current_range_meters":6400,"station_id":"ce4bh512rcd13ifvqe2g","pricing_plan_id":"cebpf4jnsgd1na2vs0mg"},{"bike_id":"34d75933-8031-4605-8c0a-cb147f7533ec","system_id":"levelo_inurba_marseille","lat":43.27379,"lon":5.36258,"is_reserved":false,"is_disabled":false,"rental_uris":{"android":"levelo://app?vid=34d75933-8031-4605-8c0a-cb147f7533ec","ios":"levelo://app?vid=34d75933-8031-4605-8c0a-cb147f7533ec"},"vehicle_type_id":"4","last_reported":1748268620,"current_range_meters":6400,"station_id":"ce4bhbh2rcd13ifvqeo0","pricing_plan_id":"cebpf4jnsgd1na2vs0mg"},{"bike_id":"072e21e2-307a-4097-9672-48210e154bf0","system_id":"levelo_inurba_marseille","lat":43.274,"lon":5.36265,"is_reserved":false,"is_disabled":false,"rental_uris":{"android":"levelo://app?vid=072e21e2-307a-4097-9672-48210e154bf0","ios":"levelo://app?vid=072e21e2-307a-4097-9672-48210e154bf0"},"vehicle_type_id":"4","last_reported":1748268620,"current_range_meters":6400,"station_id":"ce4bhbh2rcd13ifvqeo0","pricing_plan_id":"cebpf4jnsgd1na2vs0mg"},{"bike_id":"7152863f-a76d-462a-855d-1dfded7011aa","system_id":"levelo_inurba_marseille","lat":43.286278,"lon":5.351088,"is_reserved":false,"is_disabled":false,"rental_uris":{"android":"levelo://app?vid=7152863f-a76d-462a-855d-1dfded7011aa","ios":"levelo://app?vid=7152863f-a76d-462a-855d-1dfded7011aa"},"vehicle_type_id":"4","last_reported":1748268620,"current_range_meters":6400,"station_id":"ce4bhch2rcd13ifvqeug","pricing_plan_id":"cebpf4jnsgd1na2vs0mg"},{"bike_id":"a67cd030-5ab0-4740-bc11-0d418cff2152","system_id":"levelo_inurba_marseille","lat":43.279203,"lon":5.395783,"is_reserved":false,"is_disabled":false,"rental_uris":{"android":"levelo://app?vid=a67cd030-5ab0-4740-bc11-0d418cff2152","ios":"levelo://app?vid=a67cd030-5ab0-4740-bc11-0d418cff2152"},"vehicle_type_id":"4","last_reported":1748268620,"current_range_meters":6400,"station_id":"ce4bhf92rcd13ifvqf40","pricing_plan_id":"cebpf4jnsgd1na2vs0mg"},{"bike_id":"77cf0c52-83ad-4460-abe7-f01d003645c5","system_id":"levelo_inurba_marseille","lat":43.25504,"lon":5.37647,"is_reserved":false,"is_disabled":false,"rental_uris":{"android":"levelo://app?vid=77cf0c52-83ad-4460-abe7-f01d003645c5","ios":"levelo://app?vid=77cf0c52-83ad-4460-abe7-f01d003645c5"},"vehicle_type_id":"4","last_reported":1748268620,"current_range_meters":6400,"station_id":"ce4bhh12rcd13ifvqff0","pricing_plan_id":"cebpf4jnsgd1na2vs0mg"},{"bike_id":"6abb9ab4-3976-4e3e-b994-f2f72ee02055","system_id":"levelo_inurba_marseille","lat":43.31811,"lon":5.36825,"is_reserved":false,"is_disabled":false,"rental_uris":{"android":"levelo://app?vid=6abb9ab4-3976-4e3e-b994-f2f72ee02055","ios":"levelo://app?vid=6abb9ab4-3976-4e3e-b994-f2f72ee02055"},"vehicle_type_id":"4","last_reported":1748268620,"current_range_meters":6800,"station_id":"","pricing_plan_id":"cebpf4jnsgd1na2vs0mg"},{"bike_id":"30bf95b4-0d1e-4670-803b-0284b0c1d2b3","system_id":"levelo_inurba_marseille","lat":43.308,"lon":5.37645,"is_reserved":false,"is_disabled":false,"rental_uris":{"android":"levelo://app?vid=30bf95b4-0d1e-4670-803b-0284b0c1d2b3","ios":"levelo://app?vid=30bf95b4-0d1e-4670-803b-0284b0c1d2b3"},"vehicle_type_id":"4","last_reported":1748268620,"current_range_meters":6800,"station_id":"ce4bgv92rcd13ifvqcq0","pricing_plan_id":"cebpf4jnsgd1na2vs0mg"},{"bike_id":"a9f188c9-3491-4923-a74b-f5e4ae8f92e6","system_id":"levelo_inurba_marseille","lat":43.30335,"lon":5.40426,"is_reserved":false,"is_disabled":false,"rental_uris":{"android":"levelo://app?vid=a9f188c9-3491-4923-a74b-f5e4ae8f92e6","ios":"levelo://app?vid=a9f188c9-3491-4923-a74b-f5e4ae8f92e6"},"vehicle_type_id":"4","last_reported":1748268620,"current_range_meters":6800,"station_id":"ce4bh012rcd13ifvqd10","pricing_plan_id":"cebpf4jnsgd1na2vs0mg"},{"bike_id":"b95818a5-df87-4022-a227-e3dea04e4418","system_id":"levelo_inurba_marseille","lat":43.28619,"lon":5.35126,"is_reserved":false,"is_disabled":false,"rental_uris":{"android":"levelo://app?vid=b95818a5-df87-4022-a227-e3dea04e4418","ios":"levelo://app?vid=b95818a5-df87-4022-a227-e3dea04e4418"},"vehicle_type_id":"4","last_reported":1748268620,"current_range_meters":6800,"station_id":"ce4bhch2rcd13ifvqeug","pricing_plan_id":"cebpf4jnsgd1na2vs0mg"},{"bike_id":"6a842416-bf2c-4af5-aef9-c9afc1be5d7c","system_id":"levelo_inurba_marseille","lat":43.2319,"lon":5.39991,"is_reserved":false,"is_disabled":false,"rental_uris":{"android":"levelo://app?vid=6a842416-bf2c-4af5-aef9-c9afc1be5d7c","ios":"levelo://app?vid=6a842416-bf2c-4af5-aef9-c9afc1be5d7c"},"vehicle_type_id":"4","last_reported":1748268620,"current_range_meters":6800,"station_id":"ce4bhn12rcd13ifvqgqg","pricing_plan_id":"cebpf4jnsgd1na2vs0mg"},{"bike_id":"05857c38-b8d4-48b1-8c53-f7864d572c1e","system_id":"levelo_inurba_marseille","lat":43.232519,"lon":5.356118,"is_reserved":false,"is_disabled":false,"rental_uris":{"android":"levelo://app?vid=05857c38-b8d4-48b1-8c53-f7864d572c1e","ios":"levelo://app?vid=05857c38-b8d4-48b1-8c53-f7864d572c1e"},"vehicle_type_id":"4","last_reported":1748268620,"current_range_meters":6800,"station_id":"ce4bhu92rcd13ifvqi70","pricing_plan_id":"cebpf4jnsgd1na2vs0mg"},{"bike_id":"54321947-9051-4a28-b71a-784bfc9f4f18","system_id":"levelo_inurba_marseille","lat":43.28422,"lon":5.34978,"is_reserved":false,"is_disabled":false,"rental_uris":{"android":"levelo://app?vid=54321947-9051-4a28-b71a-784bfc9f4f18","ios":"levelo://app?vid=54321947-9051-4a28-b71a-784bfc9f4f18"},"vehicle_type_id":"4","last_reported":1748268620,"current_range_meters":7200,"station_id":"ce4bhbh2rcd13ifvqepg","pricing_plan_id":"cebpf4jnsgd1na2vs0mg"},{"bike_id":"43ecd41d-12a1-4159-8d04-fc041a38aeaa","system_id":"levelo_inurba_marseille","lat":43.255022,"lon":5.376493,"is_reserved":false,"is_disabled":false,"rental_uris":{"android":"levelo://app?vid=43ecd41d-12a1-4159-8d04-fc041a38aeaa","ios":"levelo://app?vid=43ecd41d-12a1-4159-8d04-fc041a38aeaa"},"vehicle_type_id":"4","last_reported":1748268620,"current_range_meters":7200,"station_id":"ce4bhh12rcd13ifvqff0","pricing_plan_id":"cebpf4jnsgd1na2vs0mg"},{"bike_id":"7bfc626b-1829-475b-9d50-d562994849f2","system_id":"levelo_inurba_marseille","lat":43.26788,"lon":5.39424,"is_reserved":false,"is_disabled":false,"rental_uris":{"android":"levelo://app?vid=7bfc626b-1829-475b-9d50-d562994849f2","ios":"levelo://app?vid=7bfc626b-1829-475b-9d50-d562994849f2"},"vehicle_type_id":"4","last_reported":1748268620,"current_range_meters":7200,"station_id":"ce4bhh12rcd13ifvqfg0","pricing_plan_id":"cebpf4jnsgd1na2vs0mg"},{"bike_id":"9af51550-7be6-4caa-81de-db4f7bea2d88","system_id":"levelo_inurba_marseille","lat":43.26231,"lon":5.4045,"is_reserved":false,"is_disabled":false,"rental_uris":{"android":"levelo://app?vid=9af51550-7be6-4caa-81de-db4f7bea2d88","ios":"levelo://app?vid=9af51550-7be6-4caa-81de-db4f7bea2d88"},"vehicle_type_id":"4","last_reported":1748268620,"current_range_meters":7200,"station_id":"ce4bhmh2rcd13ifvqgmg","pricing_plan_id":"cebpf4jnsgd1na2vs0mg"},{"bike_id":"20aedc1a-3258-494a-9b0e-5afc4945dd89","system_id":"levelo_inurba_marseille","lat":43.23189,"lon":5.39976,"is_reserved":false,"is_disabled":false,"rental_uris":{"android":"levelo://app?vid=20aedc1a-3258-494a-9b0e-5afc4945dd89","ios":"levelo://app?vid=20aedc1a-3258-494a-9b0e-5afc4945dd89"},"vehicle_type_id":"4","last_reported":1748268620,"current_range_meters":7200,"station_id":"ce4bhn12rcd13ifvqgqg","pricing_plan_id":"cebpf4jnsgd1na2vs0mg"},{"bike_id":"50a176c9-e1f4-4764-9662-ef5237e11199","system_id":"levelo_inurba_marseille","lat":43.28616,"lon":5.37059,"is_reserved":false,"is_disabled":false,"rental_uris":{"android":"levelo://app?vid=50a176c9-e1f4-4764-9662-ef5237e11199","ios":"levelo://app?vid=50a176c9-e1f4-4764-9662-ef5237e11199"},"vehicle_type_id":"4","last_reported":1748268620,"current_range_meters":7200,"station_id":"ce4bht12rcd13ifvqi60","pricing_plan_id":"cebpf4jnsgd1na2vs0mg"},{"bike_id":"ab485184-dee6-4278-8ed8-78cb97c31dd5","system_id":"levelo_inurba_marseille","lat":43.2921,"lon":5.35824,"is_reserved":false,"is_disabled":false,"rental_uris":{"android":"levelo://app?vid=ab485184-dee6-4278-8ed8-78cb97c31dd5","ios":"levelo://app?vid=ab485184-dee6-4278-8ed8-78cb97c31dd5"},"vehicle_type_id":"4","last_reported":1748268620,"current_range_meters":8000,"station_id":"","pricing_plan_id":"cebpf4jnsgd1na2vs0mg"},{"bike_id":"8f468b83-3a58-4790-9c7b-80dc84092c56","system_id":"levelo_inurba_marseille","lat":43.29281,"lon":5.40123,"is_reserved":false,"is_disabled":false,"rental_uris":{"android":"levelo://app?vid=8f468b83-3a58-4790-9c7b-80dc84092c56","ios":"levelo://app?vid=8f468b83-3a58-4790-9c7b-80dc84092c56"},"vehicle_type_id":"4","last_reported":1748268620,"current_range_meters":8000,"station_id":"ce4bh312rcd13ifvqdk0","pricing_plan_id":"cebpf4jnsgd1na2vs0mg"},{"bike_id":"123e6d40-2cf2-4eee-8f20-98adf7ab5a14","system_id":"levelo_inurba_marseille","lat":43.28668,"lon":5.36356,"is_reserved":false,"is_disabled":false,"rental_uris":{"android":"levelo://app?vid=123e6d40-2cf2-4eee-8f20-98adf7ab5a14","ios":"levelo://app?vid=123e6d40-2cf2-4eee-8f20-98adf7ab5a14"},"vehicle_type_id":"4","last_reported":1748268620,"current_range_meters":8000,"station_id":"ce4bhah2rcd13ifvqej0","pricing_plan_id":"cebpf4jnsgd1na2vs0mg"},{"bike_id":"6d56974c-90cf-48a5-be01-f63f51c0d503","system_id":"levelo_inurba_marseille","lat":43.27382,"lon":5.3626,"is_reserved":false,"is_disabled":false,"rental_uris":{"android":"levelo://app?vid=6d56974c-90cf-48a5-be01-f63f51c0d503","ios":"levelo://app?vid=6d56974c-90cf-48a5-be01-f63f51c0d503"},"vehicle_type_id":"4","last_reported":1748268620,"current_range_meters":8000,"station_id":"ce4bhbh2rcd13ifvqeo0","pricing_plan_id":"cebpf4jnsgd1na2vs0mg"},{"bike_id":"f93b74c5-5226-4250-aaa8-c7e610f5fc0b","system_id":"levelo_inurba_marseille","lat":43.27071,"lon":5.42272,"is_reserved":false,"is_disabled":false,"rental_uris":{"android":"levelo://app?vid=f93b74c5-5226-4250-aaa8-c7e610f5fc0b","ios":"levelo://app?vid=f93b74c5-5226-4250-aaa8-c7e610f5fc0b"},"vehicle_type_id":"4","last_reported":1748268620,"current_range_meters":8000,"station_id":"ce4bhk92rcd13ifvqgb0","pricing_plan_id":"cebpf4jnsgd1na2vs0mg"},{"bike_id":"885aa229-daab-4aa3-8026-00ce1f9bd000","system_id":"levelo_inurba_marseille","lat":43.2816,"lon":5.42649,"is_reserved":false,"is_disabled":false,"rental_uris":{"android":"levelo://app?vid=885aa229-daab-4aa3-8026-00ce1f9bd000","ios":"levelo://app?vid=885aa229-daab-4aa3-8026-00ce1f9bd000"},"vehicle_type_id":"4","last_reported":1748268620,"current_range_meters":8000,"station_id":"ce4bhnh2rcd13ifvqgug","pricing_plan_id":"cebpf4jnsgd1na2vs0mg"},{"bike_id":"5abb8a77-fbf0-4d21-805b-29790cff0e49","system_id":"levelo_inurba_marseille","lat":43.31103,"lon":5.42456,"is_reserved":false,"is_disabled":false,"rental_uris":{"android":"levelo://app?vid=5abb8a77-fbf0-4d21-805b-29790cff0e49","ios":"levelo://app?vid=5abb8a77-fbf0-4d21-805b-29790cff0e49"},"vehicle_type_id":"4","last_reported":1748268620,"current_range_meters":8000,"station_id":"ce4bhp92rcd13ifvqhag","pricing_plan_id":"cebpf4jnsgd1na2vs0mg"},{"bike_id":"af979162-54c5-4ca3-8eec-cdf17d660caa","system_id":"levelo_inurba_marseille","lat":43.32497,"lon":5.36571,"is_reserved":false,"is_disabled":false,"rental_uris":{"android":"levelo://app?vid=af979162-54c5-4ca3-8eec-cdf17d660caa","ios":"levelo://app?vid=af979162-54c5-4ca3-8eec-cdf17d660caa"},"vehicle_type_id":"4","last_reported":1748268620,"current_range_meters":8000,"station_id":"ce4bhs12rcd13ifvqhvg","pricing_plan_id":"cebpf4jnsgd1na2vs0mg"},{"bike_id":"4687539f-4482-4774-9e44-722fe1000969","system_id":"levelo_inurba_marseille","lat":43.29033,"lon":5.38649,"is_reserved":false,"is_disabled":false,"rental_uris":{"android":"levelo://app?vid=4687539f-4482-4774-9e44-722fe1000969","ios":"levelo://app?vid=4687539f-4482-4774-9e44-722fe1000969"},"vehicle_type_id":"4","last_reported":1748268620,"current_range_meters":8400,"station_id":"","pricing_plan_id":"cebpf4jnsgd1na2vs0mg"},{"bike_id":"dabc077c-bf8d-431d-a5ea-dcd441e9b7b1","system_id":"levelo_inurba_marseille","lat":43.24884,"lon":5.39735,"is_reserved":false,"is_disabled":false,"rental_uris":{"android":"levelo://app?vid=dabc077c-bf8d-431d-a5ea-dcd441e9b7b1","ios":"levelo://app?vid=dabc077c-bf8d-431d-a5ea-dcd441e9b7b1"},"vehicle_type_id":"4","last_reported":1748268620,"current_range_meters":8400,"station_id":"","pricing_plan_id":"cebpf4jnsgd1na2vs0mg"},{"bike_id":"6d9c2453-cb5a-434d-b054-c339fdb2d29b","system_id":"levelo_inurba_marseille","lat":43.29862,"lon":5.38358,"is_reserved":false,"is_disabled":false,"rental_uris":{"android":"levelo://app?vid=6d9c2453-cb5a-434d-b054-c339fdb2d29b","ios":"levelo://app?vid=6d9c2453-cb5a-434d-b054-c339fdb2d29b"},"vehicle_type_id":"4","last_reported":1748268620,"current_range_meters":8400,"station_id":"","pricing_plan_id":"cebpf4jnsgd1na2vs0mg"},{"bike_id":"51ac79f2-8e66-4c7c-9da9-4edb72c78c5f","system_id":"levelo_inurba_marseille","lat":43.337444,"lon":5.374475,"is_reserved":false,"is_disabled":false,"rental_uris":{"android":"levelo://app?vid=51ac79f2-8e66-4c7c-9da9-4edb72c78c5f","ios":"levelo://app?vid=51ac79f2-8e66-4c7c-9da9-4edb72c78c5f"},"vehicle_type_id":"4","last_reported":1748268620,"current_range_meters":8400,"station_id":"","pricing_plan_id":"cebpf4jnsgd1na2vs0mg"},{"bike_id":"2e0a9d83-cf4a-4420-aa51-7006308437c4","system_id":"levelo_inurba_marseille","lat":43.29925,"lon":5.37474,"is_reserved":false,"is_disabled":false,"rental_uris":{"android":"levelo://app?vid=2e0a9d83-cf4a-4420-aa51-7006308437c4","ios":"levelo://app?vid=2e0a9d83-cf4a-4420-aa51-7006308437c4"},"vehicle_type_id":"4","last_reported":1748268620,"current_range_meters":8400,"station_id":"ce4bgjh2rcd13ifvqbg0","pricing_plan_id":"cebpf4jnsgd1na2vs0mg"},{"bike_id":"ed6cfd05-5268-499a-a32e-fb7e4c0d5045","system_id":"levelo_inurba_marseille","lat":43.30602,"lon":5.37246,"is_reserved":false,"is_disabled":false,"rental_uris":{"android":"levelo://app?vid=ed6cfd05-5268-499a-a32e-fb7e4c0d5045","ios":"levelo://app?vid=ed6cfd05-5268-499a-a32e-fb7e4c0d5045"},"vehicle_type_id":"4","last_reported":1748268620,"current_range_meters":8400,"station_id":"ce4bgqh2rcd13ifvqc4g","pricing_plan_id":"cebpf4jnsgd1na2vs0mg"},{"bike_id":"e9496718-b841-4999-823d-28c5bee5d6f1","system_id":"levelo_inurba_marseille","lat":43.2654,"lon":5.39002,"is_reserved":false,"is_disabled":false,"rental_uris":{"android":"levelo://app?vid=e9496718-b841-4999-823d-28c5bee5d6f1","ios":"levelo://app?vid=e9496718-b841-4999-823d-28c5bee5d6f1"},"vehicle_type_id":"4","last_reported":1748268620,"current_range_meters":8400,"station_id":"ce4bhe12rcd13ifvqf30","pricing_plan_id":"cebpf4jnsgd1na2vs0mg"},{"bike_id":"ba7cb07d-3295-43aa-b540-c499a01a01bc","system_id":"levelo_inurba_marseille","lat":43.24995,"lon":5.38935,"is_reserved":false,"is_disabled":false,"rental_uris":{"android":"levelo://app?vid=ba7cb07d-3295-43aa-b540-c499a01a01bc","ios":"levelo://app?vid=ba7cb07d-3295-43aa-b540-c499a01a01bc"},"vehicle_type_id":"4","last_reported":1748268620,"current_range_meters":8400,"station_id":"ce4bhgp2rcd13ifvqfd0","pricing_plan_id":"cebpf4jnsgd1na2vs0mg"},{"bike_id":"f4d5f101-db74-49e2-a764-2e08ed697139","system_id":"levelo_inurba_marseille","lat":43.24674,"lon":5.38157,"is_reserved":false,"is_disabled":false,"rental_uris":{"android":"levelo://app?vid=f4d5f101-db74-49e2-a764-2e08ed697139","ios":"levelo://app?vid=f4d5f101-db74-49e2-a764-2e08ed697139"},"vehicle_type_id":"4","last_reported":1748268620,"current_range_meters":8400,"station_id":"ce4bhih2rcd13ifvqfr0","pricing_plan_id":"cebpf4jnsgd1na2vs0mg"},{"bike_id":"700614b0-7c0e-4e96-99af-34870b12b9d8","system_id":"levelo_inurba_marseille","lat":43.27036,"lon":5.39293,"is_reserved":false,"is_disabled":false,"rental_uris":{"android":"levelo://app?vid=700614b0-7c0e-4e96-99af-34870b12b9d8","ios":"levelo://app?vid=700614b0-7c0e-4e96-99af-34870b12b9d8"},"vehicle_type_id":"4","last_reported":1748268620,"current_range_meters":8800,"station_id":"","pricing_plan_id":"cebpf4jnsgd1na2vs0mg"},{"bike_id":"511b87fe-b916-45e6-85e2-1d98c3fd0912","system_id":"levelo_inurba_marseille","lat":43.29854,"lon":5.36286,"is_reserved":false,"is_disabled":false,"rental_uris":{"android":"levelo://app?vid=511b87fe-b916-45e6-85e2-1d98c3fd0912","ios":"levelo://app?vid=511b87fe-b916-45e6-85e2-1d98c3fd0912"},"vehicle_type_id":"4","last_reported":1748268620,"current_range_meters":8800,"station_id":"ce4bgpp2rcd13ifvqc3g","pricing_plan_id":"cebpf4jnsgd1na2vs0mg"},{"bike_id":"2b309488-5818-4488-93ad-2f5bd9471755","system_id":"levelo_inurba_marseille","lat":43.26562,"lon":5.37282,"is_reserved":false,"is_disabled":false,"rental_uris":{"android":"levelo://app?vid=2b309488-5818-4488-93ad-2f5bd9471755","ios":"levelo://app?vid=2b309488-5818-4488-93ad-2f5bd9471755"},"vehicle_type_id":"4","last_reported":1748268620,"current_range_meters":8800,"station_id":"ce4bhg12rcd13ifvqf70","pricing_plan_id":"cebpf4jnsgd1na2vs0mg"},{"bike_id":"5e15febb-ae5f-47bf-a021-b162e172b4f7","system_id":"levelo_inurba_marseille","lat":43.31377,"lon":5.36542,"is_reserved":false,"is_disabled":false,"rental_uris":{"android":"levelo://app?vid=5e15febb-ae5f-47bf-a021-b162e172b4f7","ios":"levelo://app?vid=5e15febb-ae5f-47bf-a021-b162e172b4f7"},"vehicle_type_id":"4","last_reported":1748268620,"current_range_meters":9200,"station_id":"","pricing_plan_id":"cebpf4jnsgd1na2vs0mg"},{"bike_id":"efd698cb-2450-498f-9f0b-bfc662548e61","system_id":"levelo_inurba_marseille","lat":43.266032,"lon":5.403332,"is_reserved":false,"is_disabled":false,"rental_uris":{"android":"levelo://app?vid=efd698cb-2450-498f-9f0b-bfc662548e61","ios":"levelo://app?vid=efd698cb-2450-498f-9f0b-bfc662548e61"},"vehicle_type_id":"4","last_reported":1748268620,"current_range_meters":9200,"station_id":"","pricing_plan_id":"cebpf4jnsgd1na2vs0mg"},{"bike_id":"232e2c0a-5694-4daf-91e7-5d1005f0e959","system_id":"levelo_inurba_marseille","lat":43.28669,"lon":5.36357,"is_reserved":false,"is_disabled":false,"rental_uris":{"android":"levelo://app?vid=232e2c0a-5694-4daf-91e7-5d1005f0e959","ios":"levelo://app?vid=232e2c0a-5694-4daf-91e7-5d1005f0e959"},"vehicle_type_id":"4","last_reported":1748268620,"current_range_meters":9200,"station_id":"ce4bhah2rcd13ifvqej0","pricing_plan_id":"cebpf4jnsgd1na2vs0mg"},{"bike_id":"ca6f4111-17b9-4446-aaca-83c2d5297df0","system_id":"levelo_inurba_marseille","lat":43.24811,"lon":5.37448,"is_reserved":false,"is_disabled":false,"rental_uris":{"android":"levelo://app?vid=ca6f4111-17b9-4446-aaca-83c2d5297df0","ios":"levelo://app?vid=ca6f4111-17b9-4446-aaca-83c2d5297df0"},"vehicle_type_id":"4","last_reported":1748268620,"current_range_meters":9200,"station_id":"ce4bhgh2rcd13ifvqfb0","pricing_plan_id":"cebpf4jnsgd1na2vs0mg"},{"bike_id":"29bc5731-3749-4a08-bfd5-0ca275639132","system_id":"levelo_inurba_marseille","lat":43.27217,"lon":5.3918,"is_reserved":false,"is_disabled":false,"rental_uris":{"android":"levelo://app?vid=29bc5731-3749-4a08-bfd5-0ca275639132","ios":"levelo://app?vid=29bc5731-3749-4a08-bfd5-0ca275639132"},"vehicle_type_id":"4","last_reported":1748268620,"current_range_meters":9200,"station_id":"ce4bhhp2rcd13ifvqfm0","pricing_plan_id":"cebpf4jnsgd1na2vs0mg"},{"bike_id":"40d1e164-26a3-4320-a2fc-47926097ff53","system_id":"levelo_inurba_marseille","lat":43.27063,"lon":5.4026,"is_reserved":false,"is_disabled":false,"rental_uris":{"android":"levelo://app?vid=40d1e164-26a3-4320-a2fc-47926097ff53","ios":"levelo://app?vid=40d1e164-26a3-4320-a2fc-47926097ff53"},"vehicle_type_id":"4","last_reported":1748268620,"current_range_meters":9200,"station_id":"ce4bhk92rcd13ifvqgc0","pricing_plan_id":"cebpf4jnsgd1na2vs0mg"},{"bike_id":"fc56555b-396d-4667-b896-0ad86036e39e","system_id":"levelo_inurba_marseille","lat":43.25908,"lon":5.38033,"is_reserved":false,"is_disabled":false,"rental_uris":{"android":"levelo://app?vid=fc56555b-396d-4667-b896-0ad86036e39e","ios":"levelo://app?vid=fc56555b-396d-4667-b896-0ad86036e39e"},"vehicle_type_id":"4","last_reported":1748268620,"current_range_meters":9600,"station_id":"","pricing_plan_id":"cebpf4jnsgd1na2vs0mg"},{"bike_id":"a4aef2b9-b7e8-4e2d-8340-592d28bc6c85","system_id":"levelo_inurba_marseille","lat":43.337654,"lon":5.37434,"is_reserved":false,"is_disabled":false,"rental_uris":{"android":"levelo://app?vid=a4aef2b9-b7e8-4e2d-8340-592d28bc6c85","ios":"levelo://app?vid=a4aef2b9-b7e8-4e2d-8340-592d28bc6c85"},"vehicle_type_id":"4","last_reported":1748268620,"current_range_meters":9600,"station_id":"","pricing_plan_id":"cebpf4jnsgd1na2vs0mg"},{"bike_id":"ede017e1-e7c0-43c3-8fd0-f30e7db5204d","system_id":"levelo_inurba_marseille","lat":43.31075,"lon":5.40105,"is_reserved":false,"is_disabled":false,"rental_uris":{"android":"levelo://app?vid=ede017e1-e7c0-43c3-8fd0-f30e7db5204d","ios":"levelo://app?vid=ede017e1-e7c0-43c3-8fd0-f30e7db5204d"},"vehicle_type_id":"4","last_reported":1748268620,"current_range_meters":9600,"station_id":"","pricing_plan_id":"cebpf4jnsgd1na2vs0mg"},{"bike_id":"d41bb87a-b623-490d-af22-a1d51dff0005","system_id":"levelo_inurba_marseille","lat":43.29708,"lon":5.37693,"is_reserved":false,"is_disabled":false,"rental_uris":{"android":"levelo://app?vid=d41bb87a-b623-490d-af22-a1d51dff0005","ios":"levelo://app?vid=d41bb87a-b623-490d-af22-a1d51dff0005"},"vehicle_type_id":"4","last_reported":1748268620,"current_range_meters":9600,"station_id":"ce4bgkh2rcd13ifvqbl0","pricing_plan_id":"cebpf4jnsgd1na2vs0mg"},{"bike_id":"8521075b-eefb-4b5c-bd1e-f792c59900a0","system_id":"levelo_inurba_marseille","lat":43.29016,"lon":5.35604,"is_reserved":false,"is_disabled":false,"rental_uris":{"android":"levelo://app?vid=8521075b-eefb-4b5c-bd1e-f792c59900a0","ios":"levelo://app?vid=8521075b-eefb-4b5c-bd1e-f792c59900a0"},"vehicle_type_id":"4","last_reported":1748268620,"current_range_meters":9600,"station_id":"ce4bhb92rcd13ifvqen0","pricing_plan_id":"cebpf4jnsgd1na2vs0mg"},{"bike_id":"cb3410a2-195f-49e3-b4f6-8b998ad49a5f","system_id":"levelo_inurba_marseille","lat":43.2862,"lon":5.35106,"is_reserved":false,"is_disabled":false,"rental_uris":{"android":"levelo://app?vid=cb3410a2-195f-49e3-b4f6-8b998ad49a5f","ios":"levelo://app?vid=cb3410a2-195f-49e3-b4f6-8b998ad49a5f"},"vehicle_type_id":"4","last_reported":1748268620,"current_range_meters":9600,"station_id":"ce4bhch2rcd13ifvqeug","pricing_plan_id":"cebpf4jnsgd1na2vs0mg"},{"bike_id":"db5be3b4-7e27-4b25-b860-e53de44a8a34","system_id":"levelo_inurba_marseille","lat":43.265655,"lon":5.403255,"is_reserved":false,"is_disabled":false,"rental_uris":{"android":"levelo://app?vid=db5be3b4-7e27-4b25-b860-e53de44a8a34","ios":"levelo://app?vid=db5be3b4-7e27-4b25-b860-e53de44a8a34"},"vehicle_type_id":"4","last_reported":1748268620,"current_range_meters":10000,"station_id":"","pricing_plan_id":"cebpf4jnsgd1na2vs0mg"},{"bike_id":"b744080c-dd77-486d-9609-00c9cf60c1ad","system_id":"levelo_inurba_marseille","lat":43.23638,"lon":5.39185,"is_reserved":false,"is_disabled":false,"rental_uris":{"android":"levelo://app?vid=b744080c-dd77-486d-9609-00c9cf60c1ad","ios":"levelo://app?vid=b744080c-dd77-486d-9609-00c9cf60c1ad"},"vehicle_type_id":"4","last_reported":1748268620,"current_range_meters":10000,"station_id":"","pricing_plan_id":"cebpf4jnsgd1na2vs0mg"},{"bike_id":"2103b79e-6713-431b-928d-c7bacd6dd0ef","system_id":"levelo_inurba_marseille","lat":43.217513,"lon":5.346125,"is_reserved":false,"is_disabled":false,"rental_uris":{"android":"levelo://app?vid=2103b79e-6713-431b-928d-c7bacd6dd0ef","ios":"levelo://app?vid=2103b79e-6713-431b-928d-c7bacd6dd0ef"},"vehicle_type_id":"4","last_reported":1748268620,"current_range_meters":10000,"station_id":"","pricing_plan_id":"cebpf4jnsgd1na2vs0mg"},{"bike_id":"70f10277-1100-4885-a901-a344bab3854b","system_id":"levelo_inurba_marseille","lat":43.3053,"lon":5.36532,"is_reserved":false,"is_disabled":false,"rental_uris":{"android":"levelo://app?vid=70f10277-1100-4885-a901-a344bab3854b","ios":"levelo://app?vid=70f10277-1100-4885-a901-a344bab3854b"},"vehicle_type_id":"4","last_reported":1748268620,"current_range_meters":10000,"station_id":"ce4bgs12rcd13ifvqcag","pricing_plan_id":"cebpf4jnsgd1na2vs0mg"},{"bike_id":"23b1ffd8-8058-4a87-93f2-0baf035895a9","system_id":"levelo_inurba_marseille","lat":43.31361,"lon":5.38504,"is_reserved":false,"is_disabled":false,"rental_uris":{"android":"levelo://app?vid=23b1ffd8-8058-4a87-93f2-0baf035895a9","ios":"levelo://app?vid=23b1ffd8-8058-4a87-93f2-0baf035895a9"},"vehicle_type_id":"4","last_reported":1748268620,"current_range_meters":10000,"station_id":"ce4bgt92rcd13ifvqcf0","pricing_plan_id":"cebpf4jnsgd1na2vs0mg"},{"bike_id":"52384be6-595f-46c4-bcad-7b8f0107f389","system_id":"levelo_inurba_marseille","lat":43.28839,"lon":5.35862,"is_reserved":false,"is_disabled":false,"rental_uris":{"android":"levelo://app?vid=52384be6-595f-46c4-bcad-7b8f0107f389","ios":"levelo://app?vid=52384be6-595f-46c4-bcad-7b8f0107f389"},"vehicle_type_id":"4","last_reported":1748268620,"current_range_meters":10000,"station_id":"ce4bhb12rcd13ifvqem0","pricing_plan_id":"cebpf4jnsgd1na2vs0mg"},{"bike_id":"ad97b112-d46f-47de-969d-e328b0b08ff0","system_id":"levelo_inurba_marseille","lat":43.28275,"lon":5.35059,"is_reserved":false,"is_disabled":false,"rental_uris":{"android":"levelo://app?vid=ad97b112-d46f-47de-969d-e328b0b08ff0","ios":"levelo://app?vid=ad97b112-d46f-47de-969d-e328b0b08ff0"},"vehicle_type_id":"4","last_reported":1748268620,"current_range_meters":10000,"station_id":"ce4bhbp2rcd13ifvqerg","pricing_plan_id":"cebpf4jnsgd1na2vs0mg"},{"bike_id":"fc31b3c8-af71-4206-8c48-6e3ea02e431d","system_id":"levelo_inurba_marseille","lat":43.285472,"lon":5.383997,"is_reserved":false,"is_disabled":false,"rental_uris":{"android":"levelo://app?vid=fc31b3c8-af71-4206-8c48-6e3ea02e431d","ios":"levelo://app?vid=fc31b3c8-af71-4206-8c48-6e3ea02e431d"},"vehicle_type_id":"4","last_reported":1748268620,"current_range_meters":10000,"station_id":"ce4bhi12rcd13ifvqfo0","pricing_plan_id":"cebpf4jnsgd1na2vs0mg"},{"bike_id":"2f164495-82dd-4026-b490-26ec204a426a","system_id":"levelo_inurba_marseille","lat":43.32132,"lon":5.36713,"is_reserved":false,"is_disabled":false,"rental_uris":{"android":"levelo://app?vid=2f164495-82dd-4026-b490-26ec204a426a","ios":"levelo://app?vid=2f164495-82dd-4026-b490-26ec204a426a"},"vehicle_type_id":"4","last_reported":1748268620,"current_range_meters":10000,"station_id":"ce4bhrh2rcd13ifvqhug","pricing_plan_id":"cebpf4jnsgd1na2vs0mg"},{"bike_id":"41d795fd-6b15-4eca-98cc-80356500dbfe","system_id":"levelo_inurba_marseille","lat":43.24163,"lon":5.36435,"is_reserved":false,"is_disabled":false,"rental_uris":{"android":"levelo://app?vid=41d795fd-6b15-4eca-98cc-80356500dbfe","ios":"levelo://app?vid=41d795fd-6b15-4eca-98cc-80356500dbfe"},"vehicle_type_id":"4","last_reported":1748268620,"current_range_meters":10000,"station_id":"cpo36qri1sfpv3e86is0","pricing_plan_id":"cebpf4jnsgd1na2vs0mg"},{"bike_id":"6a4612f8-d511-472f-9784-e69bac545256","system_id":"levelo_inurba_marseille","lat":43.290167,"lon":5.366297,"is_reserved":false,"is_disabled":false,"rental_uris":{"android":"levelo://app?vid=6a4612f8-d511-472f-9784-e69bac545256","ios":"levelo://app?vid=6a4612f8-d511-472f-9784-e69bac545256"},"vehicle_type_id":"4","last_reported":1748268620,"current_range_meters":10800,"station_id":"","pricing_plan_id":"cebpf4jnsgd1na2vs0mg"},{"bike_id":"8b3b3a4c-edec-4270-9954-c5c1a0e845b4","system_id":"levelo_inurba_marseille","lat":43.30803,"lon":5.38152,"is_reserved":false,"is_disabled":false,"rental_uris":{"android":"levelo://app?vid=8b3b3a4c-edec-4270-9954-c5c1a0e845b4","ios":"levelo://app?vid=8b3b3a4c-edec-4270-9954-c5c1a0e845b4"},"vehicle_type_id":"4","last_reported":1748268620,"current_range_meters":10800,"station_id":"ce4bgt12rcd13ifvqce0","pricing_plan_id":"cebpf4jnsgd1na2vs0mg"},{"bike_id":"f59e39d5-1879-41f2-b128-3bc754424b85","system_id":"levelo_inurba_marseille","lat":43.2872,"lon":5.37963,"is_reserved":false,"is_disabled":false,"rental_uris":{"android":"levelo://app?vid=f59e39d5-1879-41f2-b128-3bc754424b85","ios":"levelo://app?vid=f59e39d5-1879-41f2-b128-3bc754424b85"},"vehicle_type_id":"4","last_reported":1748268620,"current_range_meters":10800,"station_id":"ce4bh9p2rcd13ifvqec0","pricing_plan_id":"cebpf4jnsgd1na2vs0mg"},{"bike_id":"1fdc04e0-a3fa-40eb-8825-c327f4a93fb4","system_id":"levelo_inurba_marseille","lat":43.28407,"lon":5.34992,"is_reserved":false,"is_disabled":false,"rental_uris":{"android":"levelo://app?vid=1fdc04e0-a3fa-40eb-8825-c327f4a93fb4","ios":"levelo://app?vid=1fdc04e0-a3fa-40eb-8825-c327f4a93fb4"},"vehicle_type_id":"4","last_reported":1748268620,"current_range_meters":10800,"station_id":"ce4bhbh2rcd13ifvqepg","pricing_plan_id":"cebpf4jnsgd1na2vs0mg"},{"bike_id":"fa661a6f-2725-493b-b4e6-c96b26bef557","system_id":"levelo_inurba_marseille","lat":43.23965,"lon":5.36633,"is_reserved":false,"is_disabled":false,"rental_uris":{"android":"levelo://app?vid=fa661a6f-2725-493b-b4e6-c96b26bef557","ios":"levelo://app?vid=fa661a6f-2725-493b-b4e6-c96b26bef557"},"vehicle_type_id":"4","last_reported":1748268620,"current_range_meters":10800,"station_id":"ce4bhi12rcd13ifvqfp0","pricing_plan_id":"cebpf4jnsgd1na2vs0mg"},{"bike_id":"b784ac63-cd40-47ac-9a60-554b4bf98a63","system_id":"levelo_inurba_marseille","lat":43.29902,"lon":5.43661,"is_reserved":false,"is_disabled":false,"rental_uris":{"android":"levelo://app?vid=b784ac63-cd40-47ac-9a60-554b4bf98a63","ios":"levelo://app?vid=b784ac63-cd40-47ac-9a60-554b4bf98a63"},"vehicle_type_id":"4","last_reported":1748268620,"current_range_meters":10800,"station_id":"ce4bhpp2rcd13ifvqhfg","pricing_plan_id":"cebpf4jnsgd1na2vs0mg"},{"bike_id":"e6aa0331-45f7-4fb6-a512-285ab4bb4ce8","system_id":"levelo_inurba_marseille","lat":43.22508,"lon":5.34779,"is_reserved":false,"is_disabled":false,"rental_uris":{"android":"levelo://app?vid=e6aa0331-45f7-4fb6-a512-285ab4bb4ce8","ios":"levelo://app?vid=e6aa0331-45f7-4fb6-a512-285ab4bb4ce8"},"vehicle_type_id":"4","last_reported":1748268620,"current_range_meters":11200,"station_id":"","pricing_plan_id":"cebpf4jnsgd1na2vs0mg"},{"bike_id":"a876743d-3dea-49c4-ac0f-f44ae78983d8","system_id":"levelo_inurba_marseille","lat":43.30549,"lon":5.3673,"is_reserved":false,"is_disabled":false,"rental_uris":{"android":"levelo://app?vid=a876743d-3dea-49c4-ac0f-f44ae78983d8","ios":"levelo://app?vid=a876743d-3dea-49c4-ac0f-f44ae78983d8"},"vehicle_type_id":"4","last_reported":1748268620,"current_range_meters":11200,"station_id":"ce4bgrp2rcd13ifvqc9g","pricing_plan_id":"cebpf4jnsgd1na2vs0mg"},{"bike_id":"b2b2f9e4-a9f4-4b02-b6d3-243a40502101","system_id":"levelo_inurba_marseille","lat":43.29636,"lon":5.40599,"is_reserved":false,"is_disabled":false,"rental_uris":{"android":"levelo://app?vid=b2b2f9e4-a9f4-4b02-b6d3-243a40502101","ios":"levelo://app?vid=b2b2f9e4-a9f4-4b02-b6d3-243a40502101"},"vehicle_type_id":"4","last_reported":1748268620,"current_range_meters":11200,"station_id":"ce4bh0h2rcd13ifvqd60","pricing_plan_id":"cebpf4jnsgd1na2vs0mg"},{"bike_id":"5e66b624-5b62-45e6-91b3-f683934a172d","system_id":"levelo_inurba_marseille","lat":43.28417,"lon":5.3499,"is_reserved":false,"is_disabled":false,"rental_uris":{"android":"levelo://app?vid=5e66b624-5b62-45e6-91b3-f683934a172d","ios":"levelo://app?vid=5e66b624-5b62-45e6-91b3-f683934a172d"},"vehicle_type_id":"4","last_reported":1748268620,"current_range_meters":11200,"station_id":"ce4bhbh2rcd13ifvqepg","pricing_plan_id":"cebpf4jnsgd1na2vs0mg"},{"bike_id":"e7eededf-bc34-43c5-9a3d-de8a03fb2778","system_id":"levelo_inurba_marseille","lat":43.28425,"lon":5.34989,"is_reserved":false,"is_disabled":false,"rental_uris":{"android":"levelo://app?vid=e7eededf-bc34-43c5-9a3d-de8a03fb2778","ios":"levelo://app?vid=e7eededf-bc34-43c5-9a3d-de8a03fb2778"},"vehicle_type_id":"4","last_reported":1748268620,"current_range_meters":11200,"station_id":"ce4bhbh2rcd13ifvqepg","pricing_plan_id":"cebpf4jnsgd1na2vs0mg"},{"bike_id":"20610423-c287-44f9-acc1-2618375e68ed","system_id":"levelo_inurba_marseille","lat":43.31362,"lon":5.38489,"is_reserved":false,"is_disabled":false,"rental_uris":{"android":"levelo://app?vid=20610423-c287-44f9-acc1-2618375e68ed","ios":"levelo://app?vid=20610423-c287-44f9-acc1-2618375e68ed"},"vehicle_type_id":"4","last_reported":1748268620,"current_range_meters":11600,"station_id":"ce4bgt92rcd13ifvqcf0","pricing_plan_id":"cebpf4jnsgd1na2vs0mg"},{"bike_id":"eb1a2393-2be5-448a-95ea-f7764d4af808","system_id":"levelo_inurba_marseille","lat":43.30653,"lon":5.40087,"is_reserved":false,"is_disabled":false,"rental_uris":{"android":"levelo://app?vid=eb1a2393-2be5-448a-95ea-f7764d4af808","ios":"levelo://app?vid=eb1a2393-2be5-448a-95ea-f7764d4af808"},"vehicle_type_id":"4","last_reported":1748268620,"current_range_meters":11600,"station_id":"ce4bh112rcd13ifvqda0","pricing_plan_id":"cebpf4jnsgd1na2vs0mg"},{"bike_id":"55faee87-a122-413a-9f97-3ca1eb5f5a30","system_id":"levelo_inurba_marseille","lat":43.28963,"lon":5.36616,"is_reserved":false,"is_disabled":false,"rental_uris":{"android":"levelo://app?vid=55faee87-a122-413a-9f97-3ca1eb5f5a30","ios":"levelo://app?vid=55faee87-a122-413a-9f97-3ca1eb5f5a30"},"vehicle_type_id":"4","last_reported":1748268620,"current_range_meters":11600,"station_id":"ce4bhap2rcd13ifvqek0","pricing_plan_id":"cebpf4jnsgd1na2vs0mg"},{"bike_id":"788aaa03-d23b-41f3-a895-e488b7040b29","system_id":"levelo_inurba_marseille","lat":43.29188,"lon":5.35801,"is_reserved":false,"is_disabled":false,"rental_uris":{"android":"levelo://app?vid=788aaa03-d23b-41f3-a895-e488b7040b29","ios":"levelo://app?vid=788aaa03-d23b-41f3-a895-e488b7040b29"},"vehicle_type_id":"4","last_reported":1748268620,"current_range_meters":11600,"station_id":"ce4bhb12rcd13ifvqel0","pricing_plan_id":"cebpf4jnsgd1na2vs0mg"},{"bike_id":"ccfe911b-1915-425c-95bb-793630167948","system_id":"levelo_inurba_marseille","lat":43.29181,"lon":5.35799,"is_reserved":false,"is_disabled":false,"rental_uris":{"android":"levelo://app?vid=ccfe911b-1915-425c-95bb-793630167948","ios":"levelo://app?vid=ccfe911b-1915-425c-95bb-793630167948"},"vehicle_type_id":"4","last_reported":1748268620,"current_range_meters":11600,"station_id":"ce4bhb12rcd13ifvqel0","pricing_plan_id":"cebpf4jnsgd1na2vs0mg"},{"bike_id":"a7be7573-1ac9-4e5f-985c-60c8b194ef85","system_id":"levelo_inurba_marseille","lat":43.29269,"lon":5.36845,"is_reserved":false,"is_disabled":false,"rental_uris":{"android":"levelo://app?vid=a7be7573-1ac9-4e5f-985c-60c8b194ef85","ios":"levelo://app?vid=a7be7573-1ac9-4e5f-985c-60c8b194ef85"},"vehicle_type_id":"4","last_reported":1748268620,"current_range_meters":11600,"station_id":"ce4bhbp2rcd13ifvqesg","pricing_plan_id":"cebpf4jnsgd1na2vs0mg"},{"bike_id":"6a17cecb-9cd2-43e7-8c71-ebb38aa41cc3","system_id":"levelo_inurba_marseille","lat":43.241935,"lon":5.397275,"is_reserved":false,"is_disabled":false,"rental_uris":{"android":"levelo://app?vid=6a17cecb-9cd2-43e7-8c71-ebb38aa41cc3","ios":"levelo://app?vid=6a17cecb-9cd2-43e7-8c71-ebb38aa41cc3"},"vehicle_type_id":"4","last_reported":1748268620,"current_range_meters":11600,"station_id":"ce4bhn12rcd13ifvqgpg","pricing_plan_id":"cebpf4jnsgd1na2vs0mg"},{"bike_id":"6ffce816-e812-40d0-8a85-297110e6f94e","system_id":"levelo_inurba_marseille","lat":43.26941,"lon":5.40251,"is_reserved":false,"is_disabled":false,"rental_uris":{"android":"levelo://app?vid=6ffce816-e812-40d0-8a85-297110e6f94e","ios":"levelo://app?vid=6ffce816-e812-40d0-8a85-297110e6f94e"},"vehicle_type_id":"4","last_reported":1748268620,"current_range_meters":11600,"station_id":"cjm6bp8fraef2m0cb0m0","pricing_plan_id":"cebpf4jnsgd1na2vs0mg"},{"bike_id":"ccb4ae59-504a-4117-a242-ef5c606aeb6e","system_id":"levelo_inurba_marseille","lat":43.23058,"lon":5.35494,"is_reserved":false,"is_disabled":false,"rental_uris":{"android":"levelo://app?vid=ccb4ae59-504a-4117-a242-ef5c606aeb6e","ios":"levelo://app?vid=ccb4ae59-504a-4117-a242-ef5c606aeb6e"},"vehicle_type_id":"4","last_reported":1748268620,"current_range_meters":11600,"station_id":"cpo3342slgdg3j2ifvpg","pricing_plan_id":"cebpf4jnsgd1na2vs0mg"},{"bike_id":"ff49282d-035c-4051-94a4-d625a935ca6b","system_id":"levelo_inurba_marseille","lat":43.2175,"lon":5.34602,"is_reserved":false,"is_disabled":false,"rental_uris":{"android":"levelo://app?vid=ff49282d-035c-4051-94a4-d625a935ca6b","ios":"levelo://app?vid=ff49282d-035c-4051-94a4-d625a935ca6b"},"vehicle_type_id":"4","last_reported":1748268620,"current_range_meters":11600,"station_id":"st_cvj6r9ubvosntc0bgbag","pricing_plan_id":"cebpf4jnsgd1na2vs0mg"},{"bike_id":"d66dc5cc-6934-49c4-b117-f628e97db186","system_id":"levelo_inurba_marseille","lat":43.31498,"lon":5.37292,"is_reserved":false,"is_disabled":false,"rental_uris":{"android":"levelo://app?vid=d66dc5cc-6934-49c4-b117-f628e97db186","ios":"levelo://app?vid=d66dc5cc-6934-49c4-b117-f628e97db186"},"vehicle_type_id":"4","last_reported":1748268620,"current_range_meters":12000,"station_id":"ce4bgt12rcd13ifvqcd0","pricing_plan_id":"cebpf4jnsgd1na2vs0mg"},{"bike_id":"d1e951c0-dfd5-4d9c-82aa-e66d0c5764e5","system_id":"levelo_inurba_marseille","lat":43.26572,"lon":5.3901,"is_reserved":false,"is_disabled":false,"rental_uris":{"android":"levelo://app?vid=d1e951c0-dfd5-4d9c-82aa-e66d0c5764e5","ios":"levelo://app?vid=d1e951c0-dfd5-4d9c-82aa-e66d0c5764e5"},"vehicle_type_id":"4","last_reported":1748268620,"current_range_meters":12000,"station_id":"ce4bhe12rcd13ifvqf30","pricing_plan_id":"cebpf4jnsgd1na2vs0mg"},{"bike_id":"e1309a7d-01da-46e6-a1c9-5d968f37c7cd","system_id":"levelo_inurba_marseille","lat":43.25501,"lon":5.376645,"is_reserved":false,"is_disabled":false,"rental_uris":{"android":"levelo://app?vid=e1309a7d-01da-46e6-a1c9-5d968f37c7cd","ios":"levelo://app?vid=e1309a7d-01da-46e6-a1c9-5d968f37c7cd"},"vehicle_type_id":"4","last_reported":1748268620,"current_range_meters":12000,"station_id":"ce4bhh12rcd13ifvqff0","pricing_plan_id":"cebpf4jnsgd1na2vs0mg"},{"bike_id":"f0db987f-7a9b-45df-8e26-1d773e43b6e4","system_id":"levelo_inurba_marseille","lat":43.31723,"lon":5.43699,"is_reserved":false,"is_disabled":false,"rental_uris":{"android":"levelo://app?vid=f0db987f-7a9b-45df-8e26-1d773e43b6e4","ios":"levelo://app?vid=f0db987f-7a9b-45df-8e26-1d773e43b6e4"},"vehicle_type_id":"4","last_reported":1748268620,"current_range_meters":12000,"station_id":"ce4bhp92rcd13ifvqhcg","pricing_plan_id":"cebpf4jnsgd1na2vs0mg"},{"bike_id":"5148f8b2-1ecb-4c76-b37d-928f8d5cde64","system_id":"levelo_inurba_marseille","lat":43.32336,"lon":5.36784,"is_reserved":false,"is_disabled":false,"rental_uris":{"android":"levelo://app?vid=5148f8b2-1ecb-4c76-b37d-928f8d5cde64","ios":"levelo://app?vid=5148f8b2-1ecb-4c76-b37d-928f8d5cde64"},"vehicle_type_id":"4","last_reported":1748268620,"current_range_meters":12000,"station_id":"ce4bhsh2rcd13ifvqi2g","pricing_plan_id":"cebpf4jnsgd1na2vs0mg"},{"bike_id":"f5ae3080-2b63-49bb-80c7-58f068c3a42a","system_id":"levelo_inurba_marseille","lat":43.30779,"lon":5.37219,"is_reserved":false,"is_disabled":false,"rental_uris":{"android":"levelo://app?vid=f5ae3080-2b63-49bb-80c7-58f068c3a42a","ios":"levelo://app?vid=f5ae3080-2b63-49bb-80c7-58f068c3a42a"},"vehicle_type_id":"4","last_reported":1748268620,"current_range_meters":12400,"station_id":"","pricing_plan_id":"cebpf4jnsgd1na2vs0mg"},{"bike_id":"34fff8c5-a201-414f-b7a4-b52d5144c306","system_id":"levelo_inurba_marseille","lat":43.254969,"lon":5.37649,"is_reserved":false,"is_disabled":false,"rental_uris":{"android":"levelo://app?vid=34fff8c5-a201-414f-b7a4-b52d5144c306","ios":"levelo://app?vid=34fff8c5-a201-414f-b7a4-b52d5144c306"},"vehicle_type_id":"4","last_reported":1748268620,"current_range_meters":12400,"station_id":"","pricing_plan_id":"cebpf4jnsgd1na2vs0mg"},{"bike_id":"c2057230-85ef-4a94-9bcd-84b59872d4c7","system_id":"levelo_inurba_marseille","lat":43.30612,"lon":5.37239,"is_reserved":false,"is_disabled":false,"rental_uris":{"android":"levelo://app?vid=c2057230-85ef-4a94-9bcd-84b59872d4c7","ios":"levelo://app?vid=c2057230-85ef-4a94-9bcd-84b59872d4c7"},"vehicle_type_id":"4","last_reported":1748268620,"current_range_meters":12400,"station_id":"ce4bgqh2rcd13ifvqc4g","pricing_plan_id":"cebpf4jnsgd1na2vs0mg"},{"bike_id":"d4839aef-73ae-45c0-b6b6-c372f40a665c","system_id":"levelo_inurba_marseille","lat":43.31334,"lon":5.39692,"is_reserved":false,"is_disabled":false,"rental_uris":{"android":"levelo://app?vid=d4839aef-73ae-45c0-b6b6-c372f40a665c","ios":"levelo://app?vid=d4839aef-73ae-45c0-b6b6-c372f40a665c"},"vehicle_type_id":"4","last_reported":1748268620,"current_range_meters":12400,"station_id":"ce4bgvp2rcd13ifvqcu0","pricing_plan_id":"cebpf4jnsgd1na2vs0mg"},{"bike_id":"42b84312-eb3b-43d0-872a-b45972757dee","system_id":"levelo_inurba_marseille","lat":43.28414,"lon":5.34987,"is_reserved":false,"is_disabled":false,"rental_uris":{"android":"levelo://app?vid=42b84312-eb3b-43d0-872a-b45972757dee","ios":"levelo://app?vid=42b84312-eb3b-43d0-872a-b45972757dee"},"vehicle_type_id":"4","last_reported":1748268620,"current_range_meters":12400,"station_id":"ce4bhbh2rcd13ifvqepg","pricing_plan_id":"cebpf4jnsgd1na2vs0mg"},{"bike_id":"71c2b79a-1dde-4680-bafc-76bace525607","system_id":"levelo_inurba_marseille","lat":43.32662,"lon":5.40997,"is_reserved":false,"is_disabled":false,"rental_uris":{"android":"levelo://app?vid=71c2b79a-1dde-4680-bafc-76bace525607","ios":"levelo://app?vid=71c2b79a-1dde-4680-bafc-76bace525607"},"vehicle_type_id":"4","last_reported":1748268620,"current_range_meters":12400,"station_id":"ce4bhpp2rcd13ifvqhgg","pricing_plan_id":"cebpf4jnsgd1na2vs0mg"},{"bike_id":"7edf4998-bfc0-42b1-bee3-8006a5bdfd9f","system_id":"levelo_inurba_marseille","lat":43.26805,"lon":5.4027,"is_reserved":false,"is_disabled":false,"rental_uris":{"android":"levelo://app?vid=7edf4998-bfc0-42b1-bee3-8006a5bdfd9f","ios":"levelo://app?vid=7edf4998-bfc0-42b1-bee3-8006a5bdfd9f"},"vehicle_type_id":"4","last_reported":1748268620,"current_range_meters":12400,"station_id":"ce501612rcd8frsf0b60","pricing_plan_id":"cebpf4jnsgd1na2vs0mg"},{"bike_id":"ae6e6868-2635-4f49-b7c1-b03759c58ec7","system_id":"levelo_inurba_marseille","lat":43.27294,"lon":5.41601,"is_reserved":false,"is_disabled":false,"rental_uris":{"android":"levelo://app?vid=ae6e6868-2635-4f49-b7c1-b03759c58ec7","ios":"levelo://app?vid=ae6e6868-2635-4f49-b7c1-b03759c58ec7"},"vehicle_type_id":"4","last_reported":1748268620,"current_range_meters":12800,"station_id":"","pricing_plan_id":"cebpf4jnsgd1na2vs0mg"},{"bike_id":"c29f3832-daec-4804-bd21-f4b7d65ec6d2","system_id":"levelo_inurba_marseille","lat":43.30891,"lon":5.36821,"is_reserved":false,"is_disabled":false,"rental_uris":{"android":"levelo://app?vid=c29f3832-daec-4804-bd21-f4b7d65ec6d2","ios":"levelo://app?vid=c29f3832-daec-4804-bd21-f4b7d65ec6d2"},"vehicle_type_id":"4","last_reported":1748268620,"current_range_meters":12800,"station_id":"ce4bgn92rcd13ifvqbvg","pricing_plan_id":"cebpf4jnsgd1na2vs0mg"},{"bike_id":"1f23f2c3-7f7f-4e51-86f2-85ac08d85ecf","system_id":"levelo_inurba_marseille","lat":43.307955,"lon":5.381753,"is_reserved":false,"is_disabled":false,"rental_uris":{"android":"levelo://app?vid=1f23f2c3-7f7f-4e51-86f2-85ac08d85ecf","ios":"levelo://app?vid=1f23f2c3-7f7f-4e51-86f2-85ac08d85ecf"},"vehicle_type_id":"4","last_reported":1748268620,"current_range_meters":12800,"station_id":"ce4bgt12rcd13ifvqce0","pricing_plan_id":"cebpf4jnsgd1na2vs0mg"},{"bike_id":"75ebc7cc-eeb7-4baa-8f20-4ad57e4075ef","system_id":"levelo_inurba_marseille","lat":43.2481,"lon":5.37465,"is_reserved":false,"is_disabled":false,"rental_uris":{"android":"levelo://app?vid=75ebc7cc-eeb7-4baa-8f20-4ad57e4075ef","ios":"levelo://app?vid=75ebc7cc-eeb7-4baa-8f20-4ad57e4075ef"},"vehicle_type_id":"4","last_reported":1748268620,"current_range_meters":12800,"station_id":"ce4bhgh2rcd13ifvqfb0","pricing_plan_id":"cebpf4jnsgd1na2vs0mg"},{"bike_id":"d2291e52-7d1b-493c-b43c-76b36d289abf","system_id":"levelo_inurba_marseille","lat":43.30932,"lon":5.40148,"is_reserved":false,"is_disabled":false,"rental_uris":{"android":"levelo://app?vid=d2291e52-7d1b-493c-b43c-76b36d289abf","ios":"levelo://app?vid=d2291e52-7d1b-493c-b43c-76b36d289abf"},"vehicle_type_id":"4","last_reported":1748268620,"current_range_meters":13600,"station_id":"ce4bgvp2rcd13ifvqct0","pricing_plan_id":"cebpf4jnsgd1na2vs0mg"},{"bike_id":"25ecce2a-088f-4c5c-90bb-5e7244c74e5f","system_id":"levelo_inurba_marseille","lat":43.28426,"lon":5.34987,"is_reserved":false,"is_disabled":false,"rental_uris":{"android":"levelo://app?vid=25ecce2a-088f-4c5c-90bb-5e7244c74e5f","ios":"levelo://app?vid=25ecce2a-088f-4c5c-90bb-5e7244c74e5f"},"vehicle_type_id":"4","last_reported":1748268620,"current_range_meters":13600,"station_id":"ce4bhbh2rcd13ifvqepg","pricing_plan_id":"cebpf4jnsgd1na2vs0mg"},{"bike_id":"6208b45a-edfb-434f-9df9-292bd302bddb","system_id":"levelo_inurba_marseille","lat":43.28412,"lon":5.34988,"is_reserved":false,"is_disabled":false,"rental_uris":{"android":"levelo://app?vid=6208b45a-edfb-434f-9df9-292bd302bddb","ios":"levelo://app?vid=6208b45a-edfb-434f-9df9-292bd302bddb"},"vehicle_type_id":"4","last_reported":1748268620,"current_range_meters":13600,"station_id":"ce4bhbh2rcd13ifvqepg","pricing_plan_id":"cebpf4jnsgd1na2vs0mg"},{"bike_id":"8d53716a-98ec-4aec-ae8b-86cfd4b27847","system_id":"levelo_inurba_marseille","lat":43.24809,"lon":5.37453,"is_reserved":false,"is_disabled":false,"rental_uris":{"android":"levelo://app?vid=8d53716a-98ec-4aec-ae8b-86cfd4b27847","ios":"levelo://app?vid=8d53716a-98ec-4aec-ae8b-86cfd4b27847"},"vehicle_type_id":"4","last_reported":1748268620,"current_range_meters":13600,"station_id":"ce4bhgh2rcd13ifvqfb0","pricing_plan_id":"cebpf4jnsgd1na2vs0mg"},{"bike_id":"cab77c63-18ce-4417-b995-1ff778f4ccd7","system_id":"levelo_inurba_marseille","lat":43.231725,"lon":5.437262,"is_reserved":false,"is_disabled":false,"rental_uris":{"android":"levelo://app?vid=cab77c63-18ce-4417-b995-1ff778f4ccd7","ios":"levelo://app?vid=cab77c63-18ce-4417-b995-1ff778f4ccd7"},"vehicle_type_id":"4","last_reported":1748268620,"current_range_meters":13600,"station_id":"ce4bhmp2rcd13ifvqgog","pricing_plan_id":"cebpf4jnsgd1na2vs0mg"},{"bike_id":"1a0998e5-8bb9-474f-a827-53cad24c9e8f","system_id":"levelo_inurba_marseille","lat":43.320323,"lon":5.449646,"is_reserved":false,"is_disabled":false,"rental_uris":{"android":"levelo://app?vid=1a0998e5-8bb9-474f-a827-53cad24c9e8f","ios":"levelo://app?vid=1a0998e5-8bb9-474f-a827-53cad24c9e8f"},"vehicle_type_id":"4","last_reported":1748268620,"current_range_meters":14000,"station_id":"","pricing_plan_id":"cebpf4jnsgd1na2vs0mg"},{"bike_id":"f05d834d-f458-4564-99f3-dbd191f77412","system_id":"levelo_inurba_marseille","lat":43.30936,"lon":5.36849,"is_reserved":false,"is_disabled":false,"rental_uris":{"android":"levelo://app?vid=f05d834d-f458-4564-99f3-dbd191f77412","ios":"levelo://app?vid=f05d834d-f458-4564-99f3-dbd191f77412"},"vehicle_type_id":"4","last_reported":1748268620,"current_range_meters":14000,"station_id":"ce4bgn92rcd13ifvqbvg","pricing_plan_id":"cebpf4jnsgd1na2vs0mg"},{"bike_id":"378d7dc9-8d64-48f4-9033-194258d0337f","system_id":"levelo_inurba_marseille","lat":43.28259,"lon":5.3507,"is_reserved":false,"is_disabled":false,"rental_uris":{"android":"levelo://app?vid=378d7dc9-8d64-48f4-9033-194258d0337f","ios":"levelo://app?vid=378d7dc9-8d64-48f4-9033-194258d0337f"},"vehicle_type_id":"4","last_reported":1748268620,"current_range_meters":14000,"station_id":"ce4bhbp2rcd13ifvqerg","pricing_plan_id":"cebpf4jnsgd1na2vs0mg"},{"bike_id":"3f6cfcb0-6862-47f4-b78e-5b59fd21e90a","system_id":"levelo_inurba_marseille","lat":43.28619,"lon":5.35052,"is_reserved":false,"is_disabled":false,"rental_uris":{"android":"levelo://app?vid=3f6cfcb0-6862-47f4-b78e-5b59fd21e90a","ios":"levelo://app?vid=3f6cfcb0-6862-47f4-b78e-5b59fd21e90a"},"vehicle_type_id":"4","last_reported":1748268620,"current_range_meters":14000,"station_id":"ce4bhch2rcd13ifvqeug","pricing_plan_id":"cebpf4jnsgd1na2vs0mg"},{"bike_id":"b9b6691d-f458-4adc-8ac0-24c69380308a","system_id":"levelo_inurba_marseille","lat":43.32669,"lon":5.40996,"is_reserved":false,"is_disabled":false,"rental_uris":{"android":"levelo://app?vid=b9b6691d-f458-4adc-8ac0-24c69380308a","ios":"levelo://app?vid=b9b6691d-f458-4adc-8ac0-24c69380308a"},"vehicle_type_id":"4","last_reported":1748268620,"current_range_meters":14000,"station_id":"ce4bhpp2rcd13ifvqhgg","pricing_plan_id":"cebpf4jnsgd1na2vs0mg"},{"bike_id":"1a775a5e-1792-4706-b4f6-ec50ef749d53","system_id":"levelo_inurba_marseille","lat":43.255796,"lon":5.38223,"is_reserved":false,"is_disabled":false,"rental_uris":{"android":"levelo://app?vid=1a775a5e-1792-4706-b4f6-ec50ef749d53","ios":"levelo://app?vid=1a775a5e-1792-4706-b4f6-ec50ef749d53"},"vehicle_type_id":"4","last_reported":1748268620,"current_range_meters":14400,"station_id":"ce4bhih2rcd13ifvqfs0","pricing_plan_id":"cebpf4jnsgd1na2vs0mg"},{"bike_id":"6c7cad08-c890-4df4-975c-bd423f24ac81","system_id":"levelo_inurba_marseille","lat":43.30361,"lon":5.41871,"is_reserved":false,"is_disabled":false,"rental_uris":{"android":"levelo://app?vid=6c7cad08-c890-4df4-975c-bd423f24ac81","ios":"levelo://app?vid=6c7cad08-c890-4df4-975c-bd423f24ac81"},"vehicle_type_id":"4","last_reported":1748268620,"current_range_meters":14400,"station_id":"ce4bhop2rcd13ifvqh7g","pricing_plan_id":"cebpf4jnsgd1na2vs0mg"},{"bike_id":"e7f59612-6985-4dfb-8923-cb1adc6becec","system_id":"levelo_inurba_marseille","lat":43.324877,"lon":5.365654,"is_reserved":false,"is_disabled":false,"rental_uris":{"android":"levelo://app?vid=e7f59612-6985-4dfb-8923-cb1adc6becec","ios":"levelo://app?vid=e7f59612-6985-4dfb-8923-cb1adc6becec"},"vehicle_type_id":"4","last_reported":1748268620,"current_range_meters":14400,"station_id":"ce4bhs12rcd13ifvqhvg","pricing_plan_id":"cebpf4jnsgd1na2vs0mg"},{"bike_id":"f5b1aa50-af32-4b67-af03-fc8d46feddb5","system_id":"levelo_inurba_marseille","lat":43.292694,"lon":5.401271,"is_reserved":false,"is_disabled":false,"rental_uris":{"android":"levelo://app?vid=f5b1aa50-af32-4b67-af03-fc8d46feddb5","ios":"levelo://app?vid=f5b1aa50-af32-4b67-af03-fc8d46feddb5"},"vehicle_type_id":"4","last_reported":1748268620,"current_range_meters":14800,"station_id":"","pricing_plan_id":"cebpf4jnsgd1na2vs0mg"},{"bike_id":"b83bfe95-eca9-4be5-bea8-1889e701ae05","system_id":"levelo_inurba_marseille","lat":43.28619,"lon":5.35106,"is_reserved":false,"is_disabled":false,"rental_uris":{"android":"levelo://app?vid=b83bfe95-eca9-4be5-bea8-1889e701ae05","ios":"levelo://app?vid=b83bfe95-eca9-4be5-bea8-1889e701ae05"},"vehicle_type_id":"4","last_reported":1748268620,"current_range_meters":14800,"station_id":"ce4bhch2rcd13ifvqeug","pricing_plan_id":"cebpf4jnsgd1na2vs0mg"},{"bike_id":"2e5fdc7f-c2c5-4ff4-bd3e-249f41c4fa0c","system_id":"levelo_inurba_marseille","lat":43.26693,"lon":5.38257,"is_reserved":false,"is_disabled":false,"rental_uris":{"android":"levelo://app?vid=2e5fdc7f-c2c5-4ff4-bd3e-249f41c4fa0c","ios":"levelo://app?vid=2e5fdc7f-c2c5-4ff4-bd3e-249f41c4fa0c"},"vehicle_type_id":"4","last_reported":1748268620,"current_range_meters":14800,"station_id":"ce4bhg92rcd13ifvqf90","pricing_plan_id":"cebpf4jnsgd1na2vs0mg"},{"bike_id":"e6c65de3-7d92-4979-809c-6677188473c0","system_id":"levelo_inurba_marseille","lat":43.337684,"lon":5.37432,"is_reserved":false,"is_disabled":false,"rental_uris":{"android":"levelo://app?vid=e6c65de3-7d92-4979-809c-6677188473c0","ios":"levelo://app?vid=e6c65de3-7d92-4979-809c-6677188473c0"},"vehicle_type_id":"4","last_reported":1748268620,"current_range_meters":15200,"station_id":"","pricing_plan_id":"cebpf4jnsgd1na2vs0mg"},{"bike_id":"6ef27e84-462a-46f9-afe5-e09b209cc7f0","system_id":"levelo_inurba_marseille","lat":43.33116,"lon":5.36203,"is_reserved":false,"is_disabled":false,"rental_uris":{"android":"levelo://app?vid=6ef27e84-462a-46f9-afe5-e09b209cc7f0","ios":"levelo://app?vid=6ef27e84-462a-46f9-afe5-e09b209cc7f0"},"vehicle_type_id":"4","last_reported":1748268620,"current_range_meters":15200,"station_id":"","pricing_plan_id":"cebpf4jnsgd1na2vs0mg"},{"bike_id":"3bd5dde3-1b3b-4124-95d2-e6ff2c3d3ad4","system_id":"levelo_inurba_marseille","lat":43.29258,"lon":5.376,"is_reserved":false,"is_disabled":false,"rental_uris":{"android":"levelo://app?vid=3bd5dde3-1b3b-4124-95d2-e6ff2c3d3ad4","ios":"levelo://app?vid=3bd5dde3-1b3b-4124-95d2-e6ff2c3d3ad4"},"vehicle_type_id":"4","last_reported":1748268620,"current_range_meters":15200,"station_id":"ce4bgi12rcd13ifvqb80","pricing_plan_id":"cebpf4jnsgd1na2vs0mg"},{"bike_id":"85c2975d-3938-4b63-bb58-e9f93fa666e6","system_id":"levelo_inurba_marseille","lat":43.24805,"lon":5.37455,"is_reserved":false,"is_disabled":false,"rental_uris":{"android":"levelo://app?vid=85c2975d-3938-4b63-bb58-e9f93fa666e6","ios":"levelo://app?vid=85c2975d-3938-4b63-bb58-e9f93fa666e6"},"vehicle_type_id":"4","last_reported":1748268620,"current_range_meters":15200,"station_id":"ce4bhgh2rcd13ifvqfb0","pricing_plan_id":"cebpf4jnsgd1na2vs0mg"},{"bike_id":"e209d5d0-03ee-4f9d-ac08-ae4b4bb84b62","system_id":"levelo_inurba_marseille","lat":43.241781,"lon":5.397152,"is_reserved":false,"is_disabled":false,"rental_uris":{"android":"levelo://app?vid=e209d5d0-03ee-4f9d-ac08-ae4b4bb84b62","ios":"levelo://app?vid=e209d5d0-03ee-4f9d-ac08-ae4b4bb84b62"},"vehicle_type_id":"4","last_reported":1748268620,"current_range_meters":15200,"station_id":"ce4bhn12rcd13ifvqgpg","pricing_plan_id":"cebpf4jnsgd1na2vs0mg"},{"bike_id":"eb060acd-d403-4c33-9f13-e709466da355","system_id":"levelo_inurba_marseille","lat":43.296143,"lon":5.377079,"is_reserved":false,"is_disabled":false,"rental_uris":{"android":"levelo://app?vid=eb060acd-d403-4c33-9f13-e709466da355","ios":"levelo://app?vid=eb060acd-d403-4c33-9f13-e709466da355"},"vehicle_type_id":"4","last_reported":1748268620,"current_range_meters":16000,"station_id":"","pricing_plan_id":"cebpf4jnsgd1na2vs0mg"},{"bike_id":"2a046dee-b3af-48c9-9659-b7d30ba20af5","system_id":"levelo_inurba_marseille","lat":43.243253,"lon":5.379976,"is_reserved":false,"is_disabled":false,"rental_uris":{"android":"levelo://app?vid=2a046dee-b3af-48c9-9659-b7d30ba20af5","ios":"levelo://app?vid=2a046dee-b3af-48c9-9659-b7d30ba20af5"},"vehicle_type_id":"4","last_reported":1748268620,"current_range_meters":16000,"station_id":"","pricing_plan_id":"cebpf4jnsgd1na2vs0mg"},{"bike_id":"8abaecc5-0ffe-44fc-b9f5-d4aa22e2835d","system_id":"levelo_inurba_marseille","lat":43.30923,"lon":5.36854,"is_reserved":false,"is_disabled":false,"rental_uris":{"android":"levelo://app?vid=8abaecc5-0ffe-44fc-b9f5-d4aa22e2835d","ios":"levelo://app?vid=8abaecc5-0ffe-44fc-b9f5-d4aa22e2835d"},"vehicle_type_id":"4","last_reported":1748268620,"current_range_meters":16000,"station_id":"ce4bgn92rcd13ifvqbvg","pricing_plan_id":"cebpf4jnsgd1na2vs0mg"},{"bike_id":"11d54d51-2531-4860-88ae-2feaacae2a85","system_id":"levelo_inurba_marseille","lat":43.30787,"lon":5.37642,"is_reserved":false,"is_disabled":false,"rental_uris":{"android":"levelo://app?vid=11d54d51-2531-4860-88ae-2feaacae2a85","ios":"levelo://app?vid=11d54d51-2531-4860-88ae-2feaacae2a85"},"vehicle_type_id":"4","last_reported":1748268620,"current_range_meters":16000,"station_id":"ce4bgv92rcd13ifvqcq0","pricing_plan_id":"cebpf4jnsgd1na2vs0mg"},{"bike_id":"8002eb56-042b-4f7d-81ff-4b5a853c720d","system_id":"levelo_inurba_marseille","lat":43.2894,"lon":5.36634,"is_reserved":false,"is_disabled":false,"rental_uris":{"android":"levelo://app?vid=8002eb56-042b-4f7d-81ff-4b5a853c720d","ios":"levelo://app?vid=8002eb56-042b-4f7d-81ff-4b5a853c720d"},"vehicle_type_id":"4","last_reported":1748268620,"current_range_meters":16000,"station_id":"ce4bhap2rcd13ifvqek0","pricing_plan_id":"cebpf4jnsgd1na2vs0mg"},{"bike_id":"cc6623d0-efcf-4060-8a3f-cbae3be34a34","system_id":"levelo_inurba_marseille","lat":43.2893,"lon":5.36631,"is_reserved":false,"is_disabled":false,"rental_uris":{"android":"levelo://app?vid=cc6623d0-efcf-4060-8a3f-cbae3be34a34","ios":"levelo://app?vid=cc6623d0-efcf-4060-8a3f-cbae3be34a34"},"vehicle_type_id":"4","last_reported":1748268620,"current_range_meters":16000,"station_id":"ce4bhap2rcd13ifvqek0","pricing_plan_id":"cebpf4jnsgd1na2vs0mg"},{"bike_id":"23aa2692-a8eb-4df6-93c4-ba6b095a1b1a","system_id":"levelo_inurba_marseille","lat":43.284225,"lon":5.349855,"is_reserved":false,"is_disabled":false,"rental_uris":{"android":"levelo://app?vid=23aa2692-a8eb-4df6-93c4-ba6b095a1b1a","ios":"levelo://app?vid=23aa2692-a8eb-4df6-93c4-ba6b095a1b1a"},"vehicle_type_id":"4","last_reported":1748268620,"current_range_meters":16000,"station_id":"ce4bhbh2rcd13ifvqepg","pricing_plan_id":"cebpf4jnsgd1na2vs0mg"},{"bike_id":"6bec0308-1106-42f3-9329-904ba1845b5d","system_id":"levelo_inurba_marseille","lat":43.26242,"lon":5.40439,"is_reserved":false,"is_disabled":false,"rental_uris":{"android":"levelo://app?vid=6bec0308-1106-42f3-9329-904ba1845b5d","ios":"levelo://app?vid=6bec0308-1106-42f3-9329-904ba1845b5d"},"vehicle_type_id":"4","last_reported":1748268620,"current_range_meters":16000,"station_id":"ce4bhmh2rcd13ifvqgmg","pricing_plan_id":"cebpf4jnsgd1na2vs0mg"},{"bike_id":"87f4add9-295d-4711-98ed-ba962a81b1ad","system_id":"levelo_inurba_marseille","lat":43.2315,"lon":5.43714,"is_reserved":false,"is_disabled":false,"rental_uris":{"android":"levelo://app?vid=87f4add9-295d-4711-98ed-ba962a81b1ad","ios":"levelo://app?vid=87f4add9-295d-4711-98ed-ba962a81b1ad"},"vehicle_type_id":"4","last_reported":1748268620,"current_range_meters":16000,"station_id":"ce4bhmp2rcd13ifvqgog","pricing_plan_id":"cebpf4jnsgd1na2vs0mg"},{"bike_id":"494bb412-26a1-4e7b-a3d1-fc0566a174aa","system_id":"levelo_inurba_marseille","lat":43.3146,"lon":5.36693,"is_reserved":false,"is_disabled":false,"rental_uris":{"android":"levelo://app?vid=494bb412-26a1-4e7b-a3d1-fc0566a174aa","ios":"levelo://app?vid=494bb412-26a1-4e7b-a3d1-fc0566a174aa"},"vehicle_type_id":"4","last_reported":1748268620,"current_range_meters":16400,"station_id":"","pricing_plan_id":"cebpf4jnsgd1na2vs0mg"},{"bike_id":"6b482028-512e-4dbe-b943-3138dd0f6f46","system_id":"levelo_inurba_marseille","lat":43.2968,"lon":5.36896,"is_reserved":false,"is_disabled":false,"rental_uris":{"android":"levelo://app?vid=6b482028-512e-4dbe-b943-3138dd0f6f46","ios":"levelo://app?vid=6b482028-512e-4dbe-b943-3138dd0f6f46"},"vehicle_type_id":"4","last_reported":1748268620,"current_range_meters":16400,"station_id":"","pricing_plan_id":"cebpf4jnsgd1na2vs0mg"},{"bike_id":"f6934fff-b29d-4e7d-ba1c-8c832c3f6519","system_id":"levelo_inurba_marseille","lat":43.31365,"lon":5.38491,"is_reserved":false,"is_disabled":false,"rental_uris":{"android":"levelo://app?vid=f6934fff-b29d-4e7d-ba1c-8c832c3f6519","ios":"levelo://app?vid=f6934fff-b29d-4e7d-ba1c-8c832c3f6519"},"vehicle_type_id":"4","last_reported":1748268620,"current_range_meters":16400,"station_id":"ce4bgt92rcd13ifvqcf0","pricing_plan_id":"cebpf4jnsgd1na2vs0mg"},{"bike_id":"90de168b-2e87-4fd4-835d-df7215ea6965","system_id":"levelo_inurba_marseille","lat":43.288263,"lon":5.378915,"is_reserved":false,"is_disabled":false,"rental_uris":{"android":"levelo://app?vid=90de168b-2e87-4fd4-835d-df7215ea6965","ios":"levelo://app?vid=90de168b-2e87-4fd4-835d-df7215ea6965"},"vehicle_type_id":"4","last_reported":1748268620,"current_range_meters":16400,"station_id":"ce4bh9p2rcd13ifvqec0","pricing_plan_id":"cebpf4jnsgd1na2vs0mg"},{"bike_id":"f3459326-ce8f-4102-89ee-9299440221e3","system_id":"levelo_inurba_marseille","lat":43.28936,"lon":5.36629,"is_reserved":false,"is_disabled":false,"rental_uris":{"android":"levelo://app?vid=f3459326-ce8f-4102-89ee-9299440221e3","ios":"levelo://app?vid=f3459326-ce8f-4102-89ee-9299440221e3"},"vehicle_type_id":"4","last_reported":1748268620,"current_range_meters":16400,"station_id":"ce4bhap2rcd13ifvqek0","pricing_plan_id":"cebpf4jnsgd1na2vs0mg"},{"bike_id":"48cd0317-1c6f-4804-9cd1-21cb1ebe5af3","system_id":"levelo_inurba_marseille","lat":43.25504,"lon":5.37646,"is_reserved":false,"is_disabled":false,"rental_uris":{"android":"levelo://app?vid=48cd0317-1c6f-4804-9cd1-21cb1ebe5af3","ios":"levelo://app?vid=48cd0317-1c6f-4804-9cd1-21cb1ebe5af3"},"vehicle_type_id":"4","last_reported":1748268620,"current_range_meters":16400,"station_id":"ce4bhh12rcd13ifvqff0","pricing_plan_id":"cebpf4jnsgd1na2vs0mg"},{"bike_id":"f93b11a3-cd71-4c90-8de1-511b8af31530","system_id":"levelo_inurba_marseille","lat":43.27566,"lon":5.38439,"is_reserved":false,"is_disabled":false,"rental_uris":{"android":"levelo://app?vid=f93b11a3-cd71-4c90-8de1-511b8af31530","ios":"levelo://app?vid=f93b11a3-cd71-4c90-8de1-511b8af31530"},"vehicle_type_id":"4","last_reported":1748268620,"current_range_meters":16400,"station_id":"ce4bhh92rcd13ifvqfi0","pricing_plan_id":"cebpf4jnsgd1na2vs0mg"},{"bike_id":"8deb7f69-279a-465b-beab-f18d0e028d15","system_id":"levelo_inurba_marseille","lat":43.24176,"lon":5.39733,"is_reserved":false,"is_disabled":false,"rental_uris":{"android":"levelo://app?vid=8deb7f69-279a-465b-beab-f18d0e028d15","ios":"levelo://app?vid=8deb7f69-279a-465b-beab-f18d0e028d15"},"vehicle_type_id":"4","last_reported":1748268620,"current_range_meters":16400,"station_id":"ce4bhn12rcd13ifvqgpg","pricing_plan_id":"cebpf4jnsgd1na2vs0mg"},{"bike_id":"2908bb99-d973-4d3f-9702-35f6fa61c3b5","system_id":"levelo_inurba_marseille","lat":43.21731,"lon":5.34639,"is_reserved":false,"is_disabled":false,"rental_uris":{"android":"levelo://app?vid=2908bb99-d973-4d3f-9702-35f6fa61c3b5","ios":"levelo://app?vid=2908bb99-d973-4d3f-9702-35f6fa61c3b5"},"vehicle_type_id":"4","last_reported":1748268620,"current_range_meters":16400,"station_id":"st_cvj6r9ubvosntc0bgbag","pricing_plan_id":"cebpf4jnsgd1na2vs0mg"},{"bike_id":"ceb81090-b40e-47dd-bc35-8598d269ef58","system_id":"levelo_inurba_marseille","lat":43.26663,"lon":5.38431,"is_reserved":false,"is_disabled":false,"rental_uris":{"android":"levelo://app?vid=ceb81090-b40e-47dd-bc35-8598d269ef58","ios":"levelo://app?vid=ceb81090-b40e-47dd-bc35-8598d269ef58"},"vehicle_type_id":"4","last_reported":1748268620,"current_range_meters":16800,"station_id":"","pricing_plan_id":"cebpf4jnsgd1na2vs0mg"},{"bike_id":"e2d5d43f-99ef-4adb-9ebd-c923d56fd401","system_id":"levelo_inurba_marseille","lat":43.29879,"lon":5.39742,"is_reserved":false,"is_disabled":false,"rental_uris":{"android":"levelo://app?vid=e2d5d43f-99ef-4adb-9ebd-c923d56fd401","ios":"levelo://app?vid=e2d5d43f-99ef-4adb-9ebd-c923d56fd401"},"vehicle_type_id":"4","last_reported":1748268620,"current_range_meters":16800,"station_id":"ce4bh0h2rcd13ifvqd50","pricing_plan_id":"cebpf4jnsgd1na2vs0mg"},{"bike_id":"5422221d-1757-4b06-a22c-64de1124e94e","system_id":"levelo_inurba_marseille","lat":43.29059,"lon":5.371598,"is_reserved":false,"is_disabled":false,"rental_uris":{"android":"levelo://app?vid=5422221d-1757-4b06-a22c-64de1124e94e","ios":"levelo://app?vid=5422221d-1757-4b06-a22c-64de1124e94e"},"vehicle_type_id":"4","last_reported":1748268620,"current_range_meters":16800,"station_id":"ce4bh5p2rcd13ifvqe4g","pricing_plan_id":"cebpf4jnsgd1na2vs0mg"},{"bike_id":"dcbe4f75-0bf1-4125-9214-31e4aa5203b6","system_id":"levelo_inurba_marseille","lat":43.24644,"lon":5.38898,"is_reserved":false,"is_disabled":false,"rental_uris":{"android":"levelo://app?vid=dcbe4f75-0bf1-4125-9214-31e4aa5203b6","ios":"levelo://app?vid=dcbe4f75-0bf1-4125-9214-31e4aa5203b6"},"vehicle_type_id":"4","last_reported":1748268620,"current_range_meters":16800,"station_id":"ce4bhg12rcd13ifvqf60","pricing_plan_id":"cebpf4jnsgd1na2vs0mg"},{"bike_id":"e6d73e7c-0472-43b8-9fcf-1a0edc86c2ff","system_id":"levelo_inurba_marseille","lat":43.23165,"lon":5.43746,"is_reserved":false,"is_disabled":false,"rental_uris":{"android":"levelo://app?vid=e6d73e7c-0472-43b8-9fcf-1a0edc86c2ff","ios":"levelo://app?vid=e6d73e7c-0472-43b8-9fcf-1a0edc86c2ff"},"vehicle_type_id":"4","last_reported":1748268620,"current_range_meters":16800,"station_id":"ce4bhmp2rcd13ifvqgog","pricing_plan_id":"cebpf4jnsgd1na2vs0mg"},{"bike_id":"466f2bd1-bb8b-4e2d-8186-172373026554","system_id":"levelo_inurba_marseille","lat":43.24177,"lon":5.39724,"is_reserved":false,"is_disabled":false,"rental_uris":{"android":"levelo://app?vid=466f2bd1-bb8b-4e2d-8186-172373026554","ios":"levelo://app?vid=466f2bd1-bb8b-4e2d-8186-172373026554"},"vehicle_type_id":"4","last_reported":1748268620,"current_range_meters":16800,"station_id":"ce4bhn12rcd13ifvqgpg","pricing_plan_id":"cebpf4jnsgd1na2vs0mg"},{"bike_id":"24695fcc-1634-4887-9a04-00f71eb609f0","system_id":"levelo_inurba_marseille","lat":43.23183,"lon":5.40004,"is_reserved":false,"is_disabled":false,"rental_uris":{"android":"levelo://app?vid=24695fcc-1634-4887-9a04-00f71eb609f0","ios":"levelo://app?vid=24695fcc-1634-4887-9a04-00f71eb609f0"},"vehicle_type_id":"4","last_reported":1748268620,"current_range_meters":16800,"station_id":"ce4bhn12rcd13ifvqgqg","pricing_plan_id":"cebpf4jnsgd1na2vs0mg"},{"bike_id":"8dd88446-c109-43b3-a107-2b4a6e1b330a","system_id":"levelo_inurba_marseille","lat":43.31718,"lon":5.437019,"is_reserved":false,"is_disabled":false,"rental_uris":{"android":"levelo://app?vid=8dd88446-c109-43b3-a107-2b4a6e1b330a","ios":"levelo://app?vid=8dd88446-c109-43b3-a107-2b4a6e1b330a"},"vehicle_type_id":"4","last_reported":1748268620,"current_range_meters":16800,"station_id":"ce4bhp92rcd13ifvqhcg","pricing_plan_id":"cebpf4jnsgd1na2vs0mg"},{"bike_id":"dbbc3087-ad3b-473b-9341-4e6aa0da5126","system_id":"levelo_inurba_marseille","lat":43.24628,"lon":5.39349,"is_reserved":false,"is_disabled":false,"rental_uris":{"android":"levelo://app?vid=dbbc3087-ad3b-473b-9341-4e6aa0da5126","ios":"levelo://app?vid=dbbc3087-ad3b-473b-9341-4e6aa0da5126"},"vehicle_type_id":"4","last_reported":1748268620,"current_range_meters":17200,"station_id":"","pricing_plan_id":"cebpf4jnsgd1na2vs0mg"},