{"last_updated":1723748785,"ttl":30,"version":"2.2","data":{"bikes":[{"bike_id":"58440ee5-0617-4f21-90e2-7a59822c1ae2","system_id":"levelo_inurba_marseille","lat":43.313391,"lon":5.36706,"is_reserved":false,"is_disabled":false,"rental_uris":{"android":"levelo://app?vid=58440ee5-0617-4f21-90e2-7a59822c1ae2","ios":"levelo://app?vid=58440ee5-0617-4f21-90e2-7a59822c1ae2"},"vehicle_type_id":"4","last_reported":1723748785,"current_range_meters":22800,"station_id":"ce4bgr92rcd13ifvqc6g","pricing_plan_id":"cebpf4jnsgd1na2vs0mg"},{"bike_id":"329720f8-27ce-4ef3-8df7-efa894e814cd","system_id":"levelo_inurba_marseille","lat":43.312239,"lon":5.368562,"is_reserved":false,"is_disabled":false,"rental_uris":{"android":"levelo://app?vid=329720f8-27ce-4ef3-8df7-efa894e814cd","ios":"levelo://app?vid=329720f8-27ce-4ef3-8df7-efa894e814cd"},"vehicle_type_id":"4","last_reported":1723748785,"current_range_meters":2000,"station_id":"ce4bgl92rcd13ifvqbq0","pricing_plan_id":"cebpf4jnsgd1na2vs0mg"},{"bike_id":"d112b498-833e-4023-bf93-6ac7cddb2868","system_id":"levelo_inurba_marseille","lat":43.312239,"lon":5.368562,"is_reserved":false,"is_disabled":false,"rental_uris":{"android":"levelo://app?vid=d112b498-833e-4023-bf93-6ac7cddb2868","ios":"levelo://app?vid=d112b498-833e-4023-bf93-6ac7cddb2868"},"vehicle_type_id":"4","last_reported":1723748785,"current_range_meters":11200,"station_id":"ce4bgl92rcd13ifvqbq0","pricing_plan_id":"cebpf4jnsgd1na2vs0mg"},{"bike_id":"b72f775e-f258-42b9-acf2-b1b4ba2d4f77","system_id":"levelo_inurba_marseille","lat":43.312239,"lon":5.368562,"is_reserved":false,"is_disabled":false,"rental_uris":{"android":"levelo://app?vid=b72f775e-f258-42b9-acf2-b1b4ba2d4f77","ios":"levelo://app?vid=b72f775e-f258-42b9-acf2-b1b4ba2d4f77"},"vehicle_type_id":"4","last_reported":1723748785,"current_range_meters":17600,"station_id":"ce4bgl92rcd13ifvqbq0","pricing_plan_id":"cebpf4jnsgd1na2vs0mg"},{"bike_id":"84630644-e930-46c8-8cd4-e646656b0341","system_id":"levelo_inurba_marseille","lat":43.312239,"lon":5.368562,"is_reserved":false,"is_disabled":false,"rental_uris":{"android":"levelo://app?vid=84630644-e930-46c8-8cd4-e646656b0341","ios":"levelo://app?vid=84630644-e930-46c8-8cd4-e646656b0341"},"vehicle_type_id":"4","last_reported":1723748785,"current_range_meters":15200,"station_id":"ce4bgl92rcd13ifvqbq0","pricing_plan_id":"cebpf4jnsgd1na2vs0mg"},{"bike_id":"179f66dc-419a-4fc6-ade1-343399a4fd6b","system_id":"levelo_inurba_marseille","lat":43.312239,"lon":5.368562,"is_reserved":false,"is_disabled":false,"rental_uris":{"android":"levelo://app?vid=179f66dc-419a-4fc6-ade1-343399a4fd6b","ios":"levelo://app?vid=179f66dc-419a-4fc6-ade1-343399a4fd6b"},"vehicle_type_id":"4","last_reported":1723748785,"current_range_meters":10800,"station_id":"ce4bgl92rcd13ifvqbq0","pricing_plan_id":"cebpf4jnsgd1na2vs0mg"},{"bike_id":"7161c066-ab0c-428c-be3e-e73c0aa40639","system_id":"levelo_inurba_marseille","lat":43.312239,"lon":5.368562,"is_reserved":false,"is_disabled":false,"rental_uris":{"android":"levelo://app?vid=7161c066-ab0c-428c-be3e-e73c0aa40639","ios":"levelo://app?vid=7161c066-ab0c-428c-be3e-e73c0aa40639"},"vehicle_type_id":"4","last_reported":1723748785,"current_range_meters":16000,"station_id":"ce4bgl92rcd13ifvqbq0","pricing_plan_id":"cebpf4jnsgd1na2vs0mg"},{"bike_id":"b3e68624-6ee6-48e5-85c3-2a501c5eed99","system_id":"levelo_inurba_marseille","lat":43.312239,"lon":5.368562,"is_reserved":false,"is_disabled":false,"rental_uris":{"android":"levelo://app?vid=b3e68624-6ee6-48e5-85c3-2a501c5eed99","ios":"levelo://app?vid=b3e68624-6ee6-48e5-85c3-2a501c5eed99"},"vehicle_type_id":"4","last_reported":1723748785,"current_range_meters":400,"station_id":"ce4bgl92rcd13ifvqbq0","pricing_plan_id":"cebpf4jnsgd1na2vs0mg"},{"bike_id":"2d38d51b-121f-43cb-a68d-39debe9c165a","system_id":"levelo_inurba_marseille","lat":43.30913,"lon":5.368546,"is_reserved":false,"is_disabled":false,"rental_uris":{"android":"levelo://app?vid=2d38d51b-121f-43cb-a68d-39debe9c165a","ios":"levelo://app?vid=2d38d51b-121f-43cb-a68d-39debe9c165a"},"vehicle_type_id":"4","last_reported":1723748785,"current_range_meters":26000,"station_id":"ce4bgn92rcd13ifvqbvg","pricing_plan_id":"cebpf4jnsgd1na2vs0mg"},{"bike_id":"a1da6183-18b4-404f-acbf-36fc7b1cb76a","system_id":"levelo_inurba_marseille","lat":43.314811,"lon":5.373103,"is_reserved":false,"is_disabled":false,"rental_uris":{"android":"levelo://app?vid=a1da6183-18b4-404f-acbf-36fc7b1cb76a","ios":"levelo://app?vid=a1da6183-18b4-404f-acbf-36fc7b1cb76a"},"vehicle_type_id":"4","last_reported":1723748785,"current_range_meters":2400,"station_id":"ce4bgt12rcd13ifvqcd0","pricing_plan_id":"cebpf4jnsgd1na2vs0mg"},{"bike_id":"4a27ecfc-43b4-42ba-89af-6b7d3847f158","system_id":"levelo_inurba_marseille","lat":43.309039,"lon":5.371797,"is_reserved":false,"is_disabled":false,"rental_uris":{"android":"levelo://app?vid=4a27ecfc-43b4-42ba-89af-6b7d3847f158","ios":"levelo://app?vid=4a27ecfc-43b4-42ba-89af-6b7d3847f158"},"vehicle_type_id":"4","last_reported":1723748785,"current_range_meters":12800,"station_id":"ce4bguh2rcd13ifvqckg","pricing_plan_id":"cebpf4jnsgd1na2vs0mg"},{"bike_id":"5c3e7e5d-f7ea-4a48-88e2-4153987c3e38","system_id":"levelo_inurba_marseille","lat":43.309039,"lon":5.371797,"is_reserved":false,"is_disabled":false,"rental_uris":{"android":"levelo://app?vid=5c3e7e5d-f7ea-4a48-88e2-4153987c3e38","ios":"levelo://app?vid=5c3e7e5d-f7ea-4a48-88e2-4153987c3e38"},"vehicle_type_id":"4","last_reported":1723748785,"current_range_meters":31600,"station_id":"ce4bguh2rcd13ifvqckg","pricing_plan_id":"cebpf4jnsgd1na2vs0mg"},{"bike_id":"f8f2c95f-62cb-44b4-9672-a0119502fc8c","system_id":"levelo_inurba_marseille","lat":43.309034,"lon":5.371783,"is_reserved":false,"is_disabled":false,"rental_uris":{"android":"levelo://app?vid=f8f2c95f-62cb-44b4-9672-a0119502fc8c","ios":"levelo://app?vid=f8f2c95f-62cb-44b4-9672-a0119502fc8c"},"vehicle_type_id":"4","last_reported":1723748785,"current_range_meters":7600,"station_id":"ce4bguh2rcd13ifvqckg","pricing_plan_id":"cebpf4jnsgd1na2vs0mg"},{"bike_id":"d806e892-f2b5-4e7f-a4b4-b6e3da10b534","system_id":"levelo_inurba_marseille","lat":43.309039,"lon":5.371797,"is_reserved":false,"is_disabled":false,"rental_uris":{"android":"levelo://app?vid=d806e892-f2b5-4e7f-a4b4-b6e3da10b534","ios":"levelo://app?vid=d806e892-f2b5-4e7f-a4b4-b6e3da10b534"},"vehicle_type_id":"4","last_reported":1723748785,"current_range_meters":31200,"station_id":"ce4bguh2rcd13ifvqckg","pricing_plan_id":"cebpf4jnsgd1na2vs0mg"},{"bike_id":"11681b74-4faf-40d5-88a3-93c3a7bce89a","system_id":"levelo_inurba_marseille","lat":43.305706,"lon":5.365654,"is_reserved":false,"is_disabled":false,"rental_uris":{"android":"levelo://app?vid=11681b74-4faf-40d5-88a3-93c3a7bce89a","ios":"levelo://app?vid=11681b74-4faf-40d5-88a3-93c3a7bce89a"},"vehicle_type_id":"4","last_reported":1723748785,"current_range_meters":15200,"station_id":"ce4bgs12rcd13ifvqcag","pricing_plan_id":"cebpf4jnsgd1na2vs0mg"},{"bike_id":"17cd6cbd-ce35-4482-bbc6-3502c71d22df","system_id":"levelo_inurba_marseille","lat":43.305706,"lon":5.365654,"is_reserved":false,"is_disabled":false,"rental_uris":{"android":"levelo://app?vid=17cd6cbd-ce35-4482-bbc6-3502c71d22df","ios":"levelo://app?vid=17cd6cbd-ce35-4482-bbc6-3502c71d22df"},"vehicle_type_id":"4","last_reported":1723748785,"current_range_meters":22000,"station_id":"ce4bgs12rcd13ifvqcag","pricing_plan_id":"cebpf4jnsgd1na2vs0mg"},{"bike_id":"5bd0bbc3-b80e-41f0-a5b7-da4ca1bbe49d","system_id":"levelo_inurba_marseille","lat":43.305706,"lon":5.365654,"is_reserved":false,"is_disabled":false,"rental_uris":{"android":"levelo://app?vid=5bd0bbc3-b80e-41f0-a5b7-da4ca1bbe49d","ios":"levelo://app?vid=5bd0bbc3-b80e-41f0-a5b7-da4ca1bbe49d"},"vehicle_type_id":"4","last_reported":1723748785,"current_range_meters":22800,"station_id":"ce4bgs12rcd13ifvqcag","pricing_plan_id":"cebpf4jnsgd1na2vs0mg"},{"bike_id":"67badcad-e72a-4cb9-827e-06f95b290590","system_id":"levelo_inurba_marseille","lat":43.305706,"lon":5.365654,"is_reserved":false,"is_disabled":false,"rental_uris":{"android":"levelo://app?vid=67badcad-e72a-4cb9-827e-06f95b290590","ios":"levelo://app?vid=67badcad-e72a-4cb9-827e-06f95b290590"},"vehicle_type_id":"4","last_reported":1723748785,"current_range_meters":23200,"station_id":"ce4bgs12rcd13ifvqcag","pricing_plan_id":"cebpf4jnsgd1na2vs0mg"},{"bike_id":"2dc6d26d-c53f-487c-9ba4-4c14a4f33099","system_id":"levelo_inurba_marseille","lat":43.305989,"lon":5.37225,"is_reserved":false,"is_disabled":false,"rental_uris":{"android":"levelo://app?vid=2dc6d26d-c53f-487c-9ba4-4c14a4f33099","ios":"levelo://app?vid=2dc6d26d-c53f-487c-9ba4-4c14a4f33099"},"vehicle_type_id":"4","last_reported":1723748785,"current_range_meters":28800,"station_id":"ce4bgqh2rcd13ifvqc4g","pricing_plan_id":"cebpf4jnsgd1na2vs0mg"},{"bike_id":"57fab331-5ebd-414a-8358-85e1bf602fbb","system_id":"levelo_inurba_marseille","lat":43.305989,"lon":5.37225,"is_reserved":false,"is_disabled":false,"rental_uris":{"android":"levelo://app?vid=57fab331-5ebd-414a-8358-85e1bf602fbb","ios":"levelo://app?vid=57fab331-5ebd-414a-8358-85e1bf602fbb"},"vehicle_type_id":"4","last_reported":1723748785,"current_range_meters":24400,"station_id":"ce4bgqh2rcd13ifvqc4g","pricing_plan_id":"cebpf4jnsgd1na2vs0mg"},{"bike_id":"22863854-25f0-41d4-99cc-9a4c00fead21","system_id":"levelo_inurba_marseille","lat":43.305989,"lon":5.37225,"is_reserved":false,"is_disabled":false,"rental_uris":{"android":"levelo://app?vid=22863854-25f0-41d4-99cc-9a4c00fead21","ios":"levelo://app?vid=22863854-25f0-41d4-99cc-9a4c00fead21"},"vehicle_type_id":"4","last_reported":1723748785,"current_range_meters":22400,"station_id":"ce4bgqh2rcd13ifvqc4g","pricing_plan_id":"cebpf4jnsgd1na2vs0mg"},{"bike_id":"6fc50849-986e-4a90-a310-4c2ea5da0ea4","system_id":"levelo_inurba_marseille","lat":43.305989,"lon":5.37225,"is_reserved":false,"is_disabled":false,"rental_uris":{"android":"levelo://app?vid=6fc50849-986e-4a90-a310-4c2ea5da0ea4","ios":"levelo://app?vid=6fc50849-986e-4a90-a310-4c2ea5da0ea4"},"vehicle_type_id":"4","last_reported":1723748785,"current_range_meters":29200,"station_id":"ce4bgqh2rcd13ifvqc4g","pricing_plan_id":"cebpf4jnsgd1na2vs0mg"},{"bike_id":"2e7580c2-262a-41e0-a9f7-6595e6cbd21b","system_id":"levelo_inurba_marseille","lat":43.305986,"lon":5.372272,"is_reserved":false,"is_disabled":false,"rental_uris":{"android":"levelo://app?vid=2e7580c2-262a-41e0-a9f7-6595e6cbd21b","ios":"levelo://app?vid=2e7580c2-262a-41e0-a9f7-6595e6cbd21b"},"vehicle_type_id":"4","last_reported":1723748785,"current_range_meters":22000,"station_id":"ce4bgqh2rcd13ifvqc4g","pricing_plan_id":"cebpf4jnsgd1na2vs0mg"},{"bike_id":"ed5872e2-fe12-4b5e-b23a-b818f2a7ea40","system_id":"levelo_inurba_marseille","lat":43.305989,"lon":5.37225,"is_reserved":false,"is_disabled":false,"rental_uris":{"android":"levelo://app?vid=ed5872e2-fe12-4b5e-b23a-b818f2a7ea40","ios":"levelo://app?vid=ed5872e2-fe12-4b5e-b23a-b818f2a7ea40"},"vehicle_type_id":"4","last_reported":1723748785,"current_range_meters":15200,"station_id":"ce4bgqh2rcd13ifvqc4g","pricing_plan_id":"cebpf4jnsgd1na2vs0mg"},{"bike_id":"ae429a06-7270-4929-9c6d-468c8d76f891","system_id":"levelo_inurba_marseille","lat":43.311131,"lon":5.377651,"is_reserved":false,"is_disabled":false,"rental_uris":{"android":"levelo://app?vid=ae429a06-7270-4929-9c6d-468c8d76f891","ios":"levelo://app?vid=ae429a06-7270-4929-9c6d-468c8d76f891"},"vehicle_type_id":"4","last_reported":1723748785,"current_range_meters":4800,"station_id":"ce4bgt92rcd13ifvqcg0","pricing_plan_id":"cebpf4jnsgd1na2vs0mg"},{"bike_id":"8641847b-9493-46f4-b3a0-fa60cc513f2f","system_id":"levelo_inurba_marseille","lat":43.311131,"lon":5.377651,"is_reserved":false,"is_disabled":false,"rental_uris":{"android":"levelo://app?vid=8641847b-9493-46f4-b3a0-fa60cc513f2f","ios":"levelo://app?vid=8641847b-9493-46f4-b3a0-fa60cc513f2f"},"vehicle_type_id":"4","last_reported":1723748785,"current_range_meters":25200,"station_id":"ce4bgt92rcd13ifvqcg0","pricing_plan_id":"cebpf4jnsgd1na2vs0mg"},{"bike_id":"d1fa2367-0510-457b-accd-13512bc5c84d","system_id":"levelo_inurba_marseille","lat":43.3112,"lon":5.377699,"is_reserved":false,"is_disabled":false,"rental_uris":{"android":"levelo://app?vid=d1fa2367-0510-457b-accd-13512bc5c84d","ios":"levelo://app?vid=d1fa2367-0510-457b-accd-13512bc5c84d"},"vehicle_type_id":"4","last_reported":1723748785,"current_range_meters":22400,"station_id":"ce4bgt92rcd13ifvqcg0","pricing_plan_id":"cebpf4jnsgd1na2vs0mg"},{"bike_id":"838db905-0c27-4ab4-825e-13cc0886d266","system_id":"levelo_inurba_marseille","lat":43.311125,"lon":5.377624,"is_reserved":false,"is_disabled":false,"rental_uris":{"android":"levelo://app?vid=838db905-0c27-4ab4-825e-13cc0886d266","ios":"levelo://app?vid=838db905-0c27-4ab4-825e-13cc0886d266"},"vehicle_type_id":"4","last_reported":1723748785,"current_range_meters":4400,"station_id":"ce4bgt92rcd13ifvqcg0","pricing_plan_id":"cebpf4jnsgd1na2vs0mg"},{"bike_id":"7be836fa-f2e4-4475-885e-e28e2674ada4","system_id":"levelo_inurba_marseille","lat":43.311125,"lon":5.377624,"is_reserved":false,"is_disabled":false,"rental_uris":{"android":"levelo://app?vid=7be836fa-f2e4-4475-885e-e28e2674ada4","ios":"levelo://app?vid=7be836fa-f2e4-4475-885e-e28e2674ada4"},"vehicle_type_id":"4","last_reported":1723748785,"current_range_meters":14400,"station_id":"ce4bgt92rcd13ifvqcg0","pricing_plan_id":"cebpf4jnsgd1na2vs0mg"},{"bike_id":"a2e9f448-6470-40c0-9d47-5f8a989e1e44","system_id":"levelo_inurba_marseille","lat":43.31117,"lon":5.37785,"is_reserved":false,"is_disabled":false,"rental_uris":{"android":"levelo://app?vid=a2e9f448-6470-40c0-9d47-5f8a989e1e44","ios":"levelo://app?vid=a2e9f448-6470-40c0-9d47-5f8a989e1e44"},"vehicle_type_id":"4","last_reported":1723748785,"current_range_meters":22400,"station_id":"ce4bgt92rcd13ifvqcg0","pricing_plan_id":"cebpf4jnsgd1na2vs0mg"},{"bike_id":"909b3e9c-7d45-42ff-9c44-4da415d40128","system_id":"levelo_inurba_marseille","lat":43.307945,"lon":5.376487,"is_reserved":false,"is_disabled":false,"rental_uris":{"android":"levelo://app?vid=909b3e9c-7d45-42ff-9c44-4da415d40128","ios":"levelo://app?vid=909b3e9c-7d45-42ff-9c44-4da415d40128"},"vehicle_type_id":"4","last_reported":1723748785,"current_range_meters":25200,"station_id":"ce4bgv92rcd13ifvqcq0","pricing_plan_id":"cebpf4jnsgd1na2vs0mg"},{"bike_id":"47c0e401-d440-47d7-bb30-a1fb014af5bd","system_id":"levelo_inurba_marseille","lat":43.307945,"lon":5.376487,"is_reserved":false,"is_disabled":false,"rental_uris":{"android":"levelo://app?vid=47c0e401-d440-47d7-bb30-a1fb014af5bd","ios":"levelo://app?vid=47c0e401-d440-47d7-bb30-a1fb014af5bd"},"vehicle_type_id":"4","last_reported":1723748785,"current_range_meters":19200,"station_id":"ce4bgv92rcd13ifvqcq0","pricing_plan_id":"cebpf4jnsgd1na2vs0mg"},{"bike_id":"249052e8-fd9e-4827-b726-92d9a8d59755","system_id":"levelo_inurba_marseille","lat":43.307945,"lon":5.376487,"is_reserved":false,"is_disabled":false,"rental_uris":{"android":"levelo://app?vid=249052e8-fd9e-4827-b726-92d9a8d59755","ios":"levelo://app?vid=249052e8-fd9e-4827-b726-92d9a8d59755"},"vehicle_type_id":"4","last_reported":1723748785,"current_range_meters":4000,"station_id":"ce4bgv92rcd13ifvqcq0","pricing_plan_id":"cebpf4jnsgd1na2vs0mg"},{"bike_id":"f917f5e7-7f59-432d-b49b-a47b5f4619cc","system_id":"levelo_inurba_marseille","lat":43.317075,"lon":5.377367,"is_reserved":false,"is_disabled":false,"rental_uris":{"android":"levelo://app?vid=f917f5e7-7f59-432d-b49b-a47b5f4619cc","ios":"levelo://app?vid=f917f5e7-7f59-432d-b49b-a47b5f4619cc"},"vehicle_type_id":"4","last_reported":1723748785,"current_range_meters":27600,"station_id":"ce4bgth2rcd13ifvqch0","pricing_plan_id":"cebpf4jnsgd1na2vs0mg"},{"bike_id":"953b9600-5683-4bd9-a085-88635320162e","system_id":"levelo_inurba_marseille","lat":43.317075,"lon":5.377367,"is_reserved":false,"is_disabled":false,"rental_uris":{"android":"levelo://app?vid=953b9600-5683-4bd9-a085-88635320162e","ios":"levelo://app?vid=953b9600-5683-4bd9-a085-88635320162e"},"vehicle_type_id":"4","last_reported":1723748785,"current_range_meters":25200,"station_id":"ce4bgth2rcd13ifvqch0","pricing_plan_id":"cebpf4jnsgd1na2vs0mg"},{"bike_id":"71281239-3c13-4275-b73c-72e781b5f84a","system_id":"levelo_inurba_marseille","lat":43.317075,"lon":5.377367,"is_reserved":false,"is_disabled":false,"rental_uris":{"android":"levelo://app?vid=71281239-3c13-4275-b73c-72e781b5f84a","ios":"levelo://app?vid=71281239-3c13-4275-b73c-72e781b5f84a"},"vehicle_type_id":"4","last_reported":1723748785,"current_range_meters":22800,"station_id":"ce4bgth2rcd13ifvqch0","pricing_plan_id":"cebpf4jnsgd1na2vs0mg"},{"bike_id":"5721110d-450b-4740-adda-26c51a8a1e82","system_id":"levelo_inurba_marseille","lat":43.307945,"lon":5.376487,"is_reserved":false,"is_disabled":false,"rental_uris":{"android":"levelo://app?vid=5721110d-450b-4740-adda-26c51a8a1e82","ios":"levelo://app?vid=5721110d-450b-4740-adda-26c51a8a1e82"},"vehicle_type_id":"4","last_reported":1723748785,"current_range_meters":16000,"station_id":"ce4bgv92rcd13ifvqcq0","pricing_plan_id":"cebpf4jnsgd1na2vs0mg"},{"bike_id":"5797a3cb-2806-4df3-a0ab-805c340c8ff4","system_id":"levelo_inurba_marseille","lat":43.303046,"lon":5.368981,"is_reserved":false,"is_disabled":false,"rental_uris":{"android":"levelo://app?vid=5797a3cb-2806-4df3-a0ab-805c340c8ff4","ios":"levelo://app?vid=5797a3cb-2806-4df3-a0ab-805c340c8ff4"},"vehicle_type_id":"4","last_reported":1723748785,"current_range_meters":8000,"station_id":"ce4bgqh2rcd13ifvqc5g","pricing_plan_id":"cebpf4jnsgd1na2vs0mg"},{"bike_id":"29f6ec7c-3533-43b0-8bd7-a89d15b89ba0","system_id":"levelo_inurba_marseille","lat":43.30304,"lon":5.368987,"is_reserved":false,"is_disabled":false,"rental_uris":{"android":"levelo://app?vid=29f6ec7c-3533-43b0-8bd7-a89d15b89ba0","ios":"levelo://app?vid=29f6ec7c-3533-43b0-8bd7-a89d15b89ba0"},"vehicle_type_id":"4","last_reported":1723748785,"current_range_meters":20800,"station_id":"ce4bgqh2rcd13ifvqc5g","pricing_plan_id":"cebpf4jnsgd1na2vs0mg"},{"bike_id":"1805568c-9aec-44c8-9ca9-f1536fe89dae","system_id":"levelo_inurba_marseille","lat":43.30304,"lon":5.368987,"is_reserved":false,"is_disabled":false,"rental_uris":{"android":"levelo://app?vid=1805568c-9aec-44c8-9ca9-f1536fe89dae","ios":"levelo://app?vid=1805568c-9aec-44c8-9ca9-f1536fe89dae"},"vehicle_type_id":"4","last_reported":1723748785,"current_range_meters":20400,"station_id":"ce4bgqh2rcd13ifvqc5g","pricing_plan_id":"cebpf4jnsgd1na2vs0mg"},{"bike_id":"9b17d67d-7e53-4782-bc8a-9cf1998daee5","system_id":"levelo_inurba_marseille","lat":43.292749,"lon":5.368402,"is_reserved":false,"is_disabled":false,"rental_uris":{"android":"levelo://app?vid=9b17d67d-7e53-4782-bc8a-9cf1998daee5","ios":"levelo://app?vid=9b17d67d-7e53-4782-bc8a-9cf1998daee5"},"vehicle_type_id":"4","last_reported":1723748785,"current_range_meters":11200,"station_id":"ce4bhbp2rcd13ifvqesg","pricing_plan_id":"cebpf4jnsgd1na2vs0mg"},{"bike_id":"f119f568-d0a7-44ba-9c86-b5b2dc1fbe46","system_id":"levelo_inurba_marseille","lat":43.30304,"lon":5.368987,"is_reserved":false,"is_disabled":false,"rental_uris":{"android":"levelo://app?vid=f119f568-d0a7-44ba-9c86-b5b2dc1fbe46","ios":"levelo://app?vid=f119f568-d0a7-44ba-9c86-b5b2dc1fbe46"},"vehicle_type_id":"4","last_reported":1723748785,"current_range_meters":5600,"station_id":"ce4bgqh2rcd13ifvqc5g","pricing_plan_id":"cebpf4jnsgd1na2vs0mg"},{"bike_id":"156e012e-2349-4278-8540-a6aab5cf4508","system_id":"levelo_inurba_marseille","lat":43.30304,"lon":5.368987,"is_reserved":false,"is_disabled":false,"rental_uris":{"android":"levelo://app?vid=156e012e-2349-4278-8540-a6aab5cf4508","ios":"levelo://app?vid=156e012e-2349-4278-8540-a6aab5cf4508"},"vehicle_type_id":"4","last_reported":1723748785,"current_range_meters":15200,"station_id":"ce4bgqh2rcd13ifvqc5g","pricing_plan_id":"cebpf4jnsgd1na2vs0mg"},{"bike_id":"30cf6715-a4ff-4f73-91c3-4dea33dc52d8","system_id":"levelo_inurba_marseille","lat":43.301939,"lon":5.366286,"is_reserved":false,"is_disabled":false,"rental_uris":{"android":"levelo://app?vid=30cf6715-a4ff-4f73-91c3-4dea33dc52d8","ios":"levelo://app?vid=30cf6715-a4ff-4f73-91c3-4dea33dc52d8"},"vehicle_type_id":"4","last_reported":1723748785,"current_range_meters":30000,"station_id":"ce4bgrh2rcd13ifvqc8g","pricing_plan_id":"cebpf4jnsgd1na2vs0mg"},{"bike_id":"50c8c3dc-3a97-4188-8ebd-1a1ddbef9cf9","system_id":"levelo_inurba_marseille","lat":43.30123,"lon":5.365607,"is_reserved":false,"is_disabled":false,"rental_uris":{"android":"levelo://app?vid=50c8c3dc-3a97-4188-8ebd-1a1ddbef9cf9","ios":"levelo://app?vid=50c8c3dc-3a97-4188-8ebd-1a1ddbef9cf9"},"vehicle_type_id":"4","last_reported":1723748785,"current_range_meters":0,"station_id":"","pricing_plan_id":"cebpf4jnsgd1na2vs0mg"},{"bike_id":"f9dc0a59-91d6-4bb0-89b8-d1c5405b2b30","system_id":"levelo_inurba_marseille","lat":43.308012,"lon":5.381511,"is_reserved":false,"is_disabled":false,"rental_uris":{"android":"levelo://app?vid=f9dc0a59-91d6-4bb0-89b8-d1c5405b2b30","ios":"levelo://app?vid=f9dc0a59-91d6-4bb0-89b8-d1c5405b2b30"},"vehicle_type_id":"4","last_reported":1723748785,"current_range_meters":3200,"station_id":"ce4bgt12rcd13ifvqce0","pricing_plan_id":"cebpf4jnsgd1na2vs0mg"},{"bike_id":"b478172f-2b72-45e0-9e60-c1b561558f0e","system_id":"levelo_inurba_marseille","lat":43.304606,"lon":5.379026,"is_reserved":false,"is_disabled":false,"rental_uris":{"android":"levelo://app?vid=b478172f-2b72-45e0-9e60-c1b561558f0e","ios":"levelo://app?vid=b478172f-2b72-45e0-9e60-c1b561558f0e"},"vehicle_type_id":"4","last_reported":1723748785,"current_range_meters":31200,"station_id":"ce4bgup2rcd13ifvqcn0","pricing_plan_id":"cebpf4jnsgd1na2vs0mg"},{"bike_id":"a61a23c9-b3b4-4b71-9669-7a9aabda7293","system_id":"levelo_inurba_marseille","lat":43.30465,"lon":5.37903,"is_reserved":false,"is_disabled":false,"rental_uris":{"android":"levelo://app?vid=a61a23c9-b3b4-4b71-9669-7a9aabda7293","ios":"levelo://app?vid=a61a23c9-b3b4-4b71-9669-7a9aabda7293"},"vehicle_type_id":"4","last_reported":1723748785,"current_range_meters":6800,"station_id":"ce4bgup2rcd13ifvqcn0","pricing_plan_id":"cebpf4jnsgd1na2vs0mg"},{"bike_id":"a6f4d85c-bc5a-432a-a5cf-54d0eba20f33","system_id":"levelo_inurba_marseille","lat":43.30461,"lon":5.37902,"is_reserved":false,"is_disabled":false,"rental_uris":{"android":"levelo://app?vid=a6f4d85c-bc5a-432a-a5cf-54d0eba20f33","ios":"levelo://app?vid=a6f4d85c-bc5a-432a-a5cf-54d0eba20f33"},"vehicle_type_id":"4","last_reported":1723748785,"current_range_meters":6400,"station_id":"ce4bgup2rcd13ifvqcn0","pricing_plan_id":"cebpf4jnsgd1na2vs0mg"},{"bike_id":"0f07b1a1-3c13-49f4-92b1-cdc2167ebbbc","system_id":"levelo_inurba_marseille","lat":43.304606,"lon":5.379026,"is_reserved":false,"is_disabled":false,"rental_uris":{"android":"levelo://app?vid=0f07b1a1-3c13-49f4-92b1-cdc2167ebbbc","ios":"levelo://app?vid=0f07b1a1-3c13-49f4-92b1-cdc2167ebbbc"},"vehicle_type_id":"4","last_reported":1723748785,"current_range_meters":13200,"station_id":"ce4bgup2rcd13ifvqcn0","pricing_plan_id":"cebpf4jnsgd1na2vs0mg"},{"bike_id":"dd5a188a-bc7a-4fda-86ed-5d2d92f7fc96","system_id":"levelo_inurba_marseille","lat":43.304606,"lon":5.379026,"is_reserved":false,"is_disabled":false,"rental_uris":{"android":"levelo://app?vid=dd5a188a-bc7a-4fda-86ed-5d2d92f7fc96","ios":"levelo://app?vid=dd5a188a-bc7a-4fda-86ed-5d2d92f7fc96"},"vehicle_type_id":"4","last_reported":1723748785,"current_range_meters":15600,"station_id":"ce4bgup2rcd13ifvqcn0","pricing_plan_id":"cebpf4jnsgd1na2vs0mg"},{"bike_id":"bbfd279d-69b8-4a7a-97a9-61e7aa5ebbba","system_id":"levelo_inurba_marseille","lat":43.304606,"lon":5.379026,"is_reserved":false,"is_disabled":false,"rental_uris":{"android":"levelo://app?vid=bbfd279d-69b8-4a7a-97a9-61e7aa5ebbba","ios":"levelo://app?vid=bbfd279d-69b8-4a7a-97a9-61e7aa5ebbba"},"vehicle_type_id":"4","last_reported":1723748785,"current_range_meters":26000,"station_id":"ce4bgup2rcd13ifvqcn0","pricing_plan_id":"cebpf4jnsgd1na2vs0mg"},{"bike_id":"9916a15a-2397-4a36-9dfb-6009315d1729","system_id":"levelo_inurba_marseille","lat":43.324771,"lon":5.36557,"is_reserved":false,"is_disabled":false,"rental_uris":{"android":"levelo://app?vid=9916a15a-2397-4a36-9dfb-6009315d1729","ios":"levelo://app?vid=9916a15a-2397-4a36-9dfb-6009315d1729"},"vehicle_type_id":"4","last_reported":1723748785,"current_range_meters":27200,"station_id":"ce4bhs12rcd13ifvqhvg","pricing_plan_id":"cebpf4jnsgd1na2vs0mg"},{"bike_id":"2537a458-0791-4876-aed3-6d6e4fae2abf","system_id":"levelo_inurba_marseille","lat":43.3046,"lon":5.37905,"is_reserved":false,"is_disabled":false,"rental_uris":{"android":"levelo://app?vid=2537a458-0791-4876-aed3-6d6e4fae2abf","ios":"levelo://app?vid=2537a458-0791-4876-aed3-6d6e4fae2abf"},"vehicle_type_id":"4","last_reported":1723748785,"current_range_meters":26400,"station_id":"ce4bgup2rcd13ifvqcn0","pricing_plan_id":"cebpf4jnsgd1na2vs0mg"},{"bike_id":"682ca36a-a173-425b-adda-417c949a3188","system_id":"levelo_inurba_marseille","lat":43.324771,"lon":5.36557,"is_reserved":false,"is_disabled":false,"rental_uris":{"android":"levelo://app?vid=682ca36a-a173-425b-adda-417c949a3188","ios":"levelo://app?vid=682ca36a-a173-425b-adda-417c949a3188"},"vehicle_type_id":"4","last_reported":1723748785,"current_range_meters":5600,"station_id":"ce4bhs12rcd13ifvqhvg","pricing_plan_id":"cebpf4jnsgd1na2vs0mg"},{"bike_id":"994ba6f9-8732-4564-8903-245ebfcbcb0a","system_id":"levelo_inurba_marseille","lat":43.324771,"lon":5.36557,"is_reserved":false,"is_disabled":false,"rental_uris":{"android":"levelo://app?vid=994ba6f9-8732-4564-8903-245ebfcbcb0a","ios":"levelo://app?vid=994ba6f9-8732-4564-8903-245ebfcbcb0a"},"vehicle_type_id":"4","last_reported":1723748785,"current_range_meters":3200,"station_id":"ce4bhs12rcd13ifvqhvg","pricing_plan_id":"cebpf4jnsgd1na2vs0mg"},{"bike_id":"b83bb2e9-52aa-4fdb-a21f-a0c2d28522b3","system_id":"levelo_inurba_marseille","lat":43.324771,"lon":5.36557,"is_reserved":false,"is_disabled":false,"rental_uris":{"android":"levelo://app?vid=b83bb2e9-52aa-4fdb-a21f-a0c2d28522b3","ios":"levelo://app?vid=b83bb2e9-52aa-4fdb-a21f-a0c2d28522b3"},"vehicle_type_id":"4","last_reported":1723748785,"current_range_meters":6000,"station_id":"ce4bhs12rcd13ifvqhvg","pricing_plan_id":"cebpf4jnsgd1na2vs0mg"},{"bike_id":"f5216d6e-26db-4d3a-94a4-36be5da01dd0","system_id":"levelo_inurba_marseille","lat":43.324771,"lon":5.36557,"is_reserved":false,"is_disabled":false,"rental_uris":{"android":"levelo://app?vid=f5216d6e-26db-4d3a-94a4-36be5da01dd0","ios":"levelo://app?vid=f5216d6e-26db-4d3a-94a4-36be5da01dd0"},"vehicle_type_id":"4","last_reported":1723748785,"current_range_meters":4800,"station_id":"ce4bhs12rcd13ifvqhvg","pricing_plan_id":"cebpf4jnsgd1na2vs0mg"},{"bike_id":"301b8677-78ae-4fa0-8bff-f61e6fe4843a","system_id":"levelo_inurba_marseille","lat":43.324771,"lon":5.36557,"is_reserved":false,"is_disabled":false,"rental_uris":{"android":"levelo://app?vid=301b8677-78ae-4fa0-8bff-f61e6fe4843a","ios":"levelo://app?vid=301b8677-78ae-4fa0-8bff-f61e6fe4843a"},"vehicle_type_id":"4","last_reported":1723748785,"current_range_meters":15200,"station_id":"ce4bhs12rcd13ifvqhvg","pricing_plan_id":"cebpf4jnsgd1na2vs0mg"},{"bike_id":"8ecc26a6-4fe1-4bfa-842c-a85f186b33f5","system_id":"levelo_inurba_marseille","lat":43.32482,"lon":5.36558,"is_reserved":false,"is_disabled":false,"rental_uris":{"android":"levelo://app?vid=8ecc26a6-4fe1-4bfa-842c-a85f186b33f5","ios":"levelo://app?vid=8ecc26a6-4fe1-4bfa-842c-a85f186b33f5"},"vehicle_type_id":"4","last_reported":1723748785,"current_range_meters":17200,"station_id":"ce4bhs12rcd13ifvqhvg","pricing_plan_id":"cebpf4jnsgd1na2vs0mg"},{"bike_id":"13e655d3-c4a9-454b-bbc7-ca10820467fa","system_id":"levelo_inurba_marseille","lat":43.32482,"lon":5.36555,"is_reserved":false,"is_disabled":false,"rental_uris":{"android":"levelo://app?vid=13e655d3-c4a9-454b-bbc7-ca10820467fa","ios":"levelo://app?vid=13e655d3-c4a9-454b-bbc7-ca10820467fa"},"vehicle_type_id":"4","last_reported":1723748785,"current_range_meters":0,"station_id":"ce4bhs12rcd13ifvqhvg","pricing_plan_id":"cebpf4jnsgd1na2vs0mg"},{"bike_id":"44680a61-b1de-4b9c-b689-2ab765a147aa","system_id":"levelo_inurba_marseille","lat":43.324771,"lon":5.36557,"is_reserved":false,"is_disabled":false,"rental_uris":{"android":"levelo://app?vid=44680a61-b1de-4b9c-b689-2ab765a147aa","ios":"levelo://app?vid=44680a61-b1de-4b9c-b689-2ab765a147aa"},"vehicle_type_id":"4","last_reported":1723748785,"current_range_meters":31200,"station_id":"ce4bhs12rcd13ifvqhvg","pricing_plan_id":"cebpf4jnsgd1na2vs0mg"},{"bike_id":"bdf61be6-6755-4df3-ae77-6b81cc7b98f5","system_id":"levelo_inurba_marseille","lat":43.324771,"lon":5.36557,"is_reserved":false,"is_disabled":false,"rental_uris":{"android":"levelo://app?vid=bdf61be6-6755-4df3-ae77-6b81cc7b98f5","ios":"levelo://app?vid=bdf61be6-6755-4df3-ae77-6b81cc7b98f5"},"vehicle_type_id":"4","last_reported":1723748785,"current_range_meters":31200,"station_id":"ce4bhs12rcd13ifvqhvg","pricing_plan_id":"cebpf4jnsgd1na2vs0mg"},{"bike_id":"2a0481dc-9b2b-4b3c-a770-3ed234f995a1","system_id":"levelo_inurba_marseille","lat":43.319935,"lon":5.381699,"is_reserved":false,"is_disabled":false,"rental_uris":{"android":"levelo://app?vid=2a0481dc-9b2b-4b3c-a770-3ed234f995a1","ios":"levelo://app?vid=2a0481dc-9b2b-4b3c-a770-3ed234f995a1"},"vehicle_type_id":"4","last_reported":1723748785,"current_range_meters":18800,"station_id":"ce4bhr12rcd13ifvqhpg","pricing_plan_id":"cebpf4jnsgd1na2vs0mg"},{"bike_id":"17c06962-f8fd-41ae-8f74-b29b8a85bff2","system_id":"levelo_inurba_marseille","lat":43.310804,"lon":5.38359,"is_reserved":false,"is_disabled":false,"rental_uris":{"android":"levelo://app?vid=17c06962-f8fd-41ae-8f74-b29b8a85bff2","ios":"levelo://app?vid=17c06962-f8fd-41ae-8f74-b29b8a85bff2"},"vehicle_type_id":"4","last_reported":1723748785,"current_range_meters":0,"station_id":"ce4bgv92rcd13ifvqcr0","pricing_plan_id":"cebpf4jnsgd1na2vs0mg"},{"bike_id":"62e4b5bf-f60d-4a00-a4cf-52b889a083b0","system_id":"levelo_inurba_marseille","lat":43.310804,"lon":5.38359,"is_reserved":false,"is_disabled":false,"rental_uris":{"android":"levelo://app?vid=62e4b5bf-f60d-4a00-a4cf-52b889a083b0","ios":"levelo://app?vid=62e4b5bf-f60d-4a00-a4cf-52b889a083b0"},"vehicle_type_id":"4","last_reported":1723748785,"current_range_meters":0,"station_id":"ce4bgv92rcd13ifvqcr0","pricing_plan_id":"cebpf4jnsgd1na2vs0mg"},{"bike_id":"0eef37c2-eee7-4112-adba-1156ef919c59","system_id":"levelo_inurba_marseille","lat":43.310804,"lon":5.38359,"is_reserved":false,"is_disabled":false,"rental_uris":{"android":"levelo://app?vid=0eef37c2-eee7-4112-adba-1156ef919c59","ios":"levelo://app?vid=0eef37c2-eee7-4112-adba-1156ef919c59"},"vehicle_type_id":"4","last_reported":1723748785,"current_range_meters":22800,"station_id":"ce4bgv92rcd13ifvqcr0","pricing_plan_id":"cebpf4jnsgd1na2vs0mg"},{"bike_id":"e5a3ed2e-a89a-4d03-a6e7-72a986f38d2a","system_id":"levelo_inurba_marseille","lat":43.302784,"lon":5.377158,"is_reserved":false,"is_disabled":false,"rental_uris":{"android":"levelo://app?vid=e5a3ed2e-a89a-4d03-a6e7-72a986f38d2a","ios":"levelo://app?vid=e5a3ed2e-a89a-4d03-a6e7-72a986f38d2a"},"vehicle_type_id":"4","last_reported":1723748785,"current_range_meters":5200,"station_id":"ce4bguh2rcd13ifvqcj0","pricing_plan_id":"cebpf4jnsgd1na2vs0mg"},{"bike_id":"bd9d33e1-7f09-474f-adc8-beaed7ecefce","system_id":"levelo_inurba_marseille","lat":43.302784,"lon":5.377158,"is_reserved":false,"is_disabled":false,"rental_uris":{"android":"levelo://app?vid=bd9d33e1-7f09-474f-adc8-beaed7ecefce","ios":"levelo://app?vid=bd9d33e1-7f09-474f-adc8-beaed7ecefce"},"vehicle_type_id":"4","last_reported":1723748785,"current_range_meters":13600,"station_id":"ce4bguh2rcd13ifvqcj0","pricing_plan_id":"cebpf4jnsgd1na2vs0mg"},{"bike_id":"a52d3d15-b0f1-4d1d-8c4b-724d747f6fad","system_id":"levelo_inurba_marseille","lat":43.30143,"lon":5.37413,"is_reserved":false,"is_disabled":false,"rental_uris":{"android":"levelo://app?vid=a52d3d15-b0f1-4d1d-8c4b-724d747f6fad","ios":"levelo://app?vid=a52d3d15-b0f1-4d1d-8c4b-724d747f6fad"},"vehicle_type_id":"4","last_reported":1723748785,"current_range_meters":31200,"station_id":"ce4bgs92rcd13ifvqcc0","pricing_plan_id":"cebpf4jnsgd1na2vs0mg"},{"bike_id":"2c20bed0-c31e-4b7e-8320-aa4652e452c6","system_id":"levelo_inurba_marseille","lat":43.30143,"lon":5.37413,"is_reserved":false,"is_disabled":false,"rental_uris":{"android":"levelo://app?vid=2c20bed0-c31e-4b7e-8320-aa4652e452c6","ios":"levelo://app?vid=2c20bed0-c31e-4b7e-8320-aa4652e452c6"},"vehicle_type_id":"4","last_reported":1723748785,"current_range_meters":1200,"station_id":"ce4bgs92rcd13ifvqcc0","pricing_plan_id":"cebpf4jnsgd1na2vs0mg"},{"bike_id":"f2cfe0a4-0fe6-46da-a82f-d03c9b38b9fd","system_id":"levelo_inurba_marseille","lat":43.319935,"lon":5.381699,"is_reserved":false,"is_disabled":false,"rental_uris":{"android":"levelo://app?vid=f2cfe0a4-0fe6-46da-a82f-d03c9b38b9fd","ios":"levelo://app?vid=f2cfe0a4-0fe6-46da-a82f-d03c9b38b9fd"},"vehicle_type_id":"4","last_reported":1723748785,"current_range_meters":28800,"station_id":"ce4bhr12rcd13ifvqhpg","pricing_plan_id":"cebpf4jnsgd1na2vs0mg"},{"bike_id":"b60c3de7-795a-41ed-aa13-a41432f0f9c7","system_id":"levelo_inurba_marseille","lat":43.30304,"lon":5.368987,"is_reserved":false,"is_disabled":false,"rental_uris":{"android":"levelo://app?vid=b60c3de7-795a-41ed-aa13-a41432f0f9c7","ios":"levelo://app?vid=b60c3de7-795a-41ed-aa13-a41432f0f9c7"},"vehicle_type_id":"4","last_reported":1723748785,"current_range_meters":22000,"station_id":"ce4bgqh2rcd13ifvqc5g","pricing_plan_id":"cebpf4jnsgd1na2vs0mg"},{"bike_id":"b46b1b62-4cf9-40c6-8920-ce4555f4ccf3","system_id":"levelo_inurba_marseille","lat":43.30585,"lon":5.38187,"is_reserved":false,"is_disabled":false,"rental_uris":{"android":"levelo://app?vid=b46b1b62-4cf9-40c6-8920-ce4555f4ccf3","ios":"levelo://app?vid=b46b1b62-4cf9-40c6-8920-ce4555f4ccf3"},"vehicle_type_id":"4","last_reported":1723748785,"current_range_meters":24400,"station_id":"","pricing_plan_id":"cebpf4jnsgd1na2vs0mg"},{"bike_id":"0552c5bf-52b1-4aa0-8f79-9c0ffcf0f7cf","system_id":"levelo_inurba_marseille","lat":43.319935,"lon":5.381699,"is_reserved":false,"is_disabled":false,"rental_uris":{"android":"levelo://app?vid=0552c5bf-52b1-4aa0-8f79-9c0ffcf0f7cf","ios":"levelo://app?vid=0552c5bf-52b1-4aa0-8f79-9c0ffcf0f7cf"},"vehicle_type_id":"4","last_reported":1723748785,"current_range_meters":24000,"station_id":"ce4bhr12rcd13ifvqhpg","pricing_plan_id":"cebpf4jnsgd1na2vs0mg"},{"bike_id":"05a06412-04c5-4ce3-a2cd-976c65aa5b06","system_id":"levelo_inurba_marseille","lat":43.319935,"lon":5.381699,"is_reserved":false,"is_disabled":false,"rental_uris":{"android":"levelo://app?vid=05a06412-04c5-4ce3-a2cd-976c65aa5b06","ios":"levelo://app?vid=05a06412-04c5-4ce3-a2cd-976c65aa5b06"},"vehicle_type_id":"4","last_reported":1723748785,"current_range_meters":23600,"station_id":"ce4bhr12rcd13ifvqhpg","pricing_plan_id":"cebpf4jnsgd1na2vs0mg"},{"bike_id":"5b7511a3-e350-49eb-b303-6a6517490594","system_id":"levelo_inurba_marseille","lat":43.311382,"lon":5.384675,"is_reserved":false,"is_disabled":false,"rental_uris":{"android":"levelo://app?vid=5b7511a3-e350-49eb-b303-6a6517490594","ios":"levelo://app?vid=5b7511a3-e350-49eb-b303-6a6517490594"},"vehicle_type_id":"4","last_reported":1723748785,"current_range_meters":5600,"station_id":"","pricing_plan_id":"cebpf4jnsgd1na2vs0mg"},{"bike_id":"17e0a8b7-5aaa-44e2-9dbe-5188f17cbf66","system_id":"levelo_inurba_marseille","lat":43.313571,"lon":5.384829,"is_reserved":false,"is_disabled":false,"rental_uris":{"android":"levelo://app?vid=17e0a8b7-5aaa-44e2-9dbe-5188f17cbf66","ios":"levelo://app?vid=17e0a8b7-5aaa-44e2-9dbe-5188f17cbf66"},"vehicle_type_id":"4","last_reported":1723748785,"current_range_meters":6400,"station_id":"ce4bgt92rcd13ifvqcf0","pricing_plan_id":"cebpf4jnsgd1na2vs0mg"},{"bike_id":"d9914c9a-4acf-4bf7-95c4-c6f57fbb7a67","system_id":"levelo_inurba_marseille","lat":43.313571,"lon":5.384829,"is_reserved":false,"is_disabled":false,"rental_uris":{"android":"levelo://app?vid=d9914c9a-4acf-4bf7-95c4-c6f57fbb7a67","ios":"levelo://app?vid=d9914c9a-4acf-4bf7-95c4-c6f57fbb7a67"},"vehicle_type_id":"4","last_reported":1723748785,"current_range_meters":21200,"station_id":"ce4bgt92rcd13ifvqcf0","pricing_plan_id":"cebpf4jnsgd1na2vs0mg"},{"bike_id":"d3cdd09f-8c64-4e37-bc07-e5c3a1fbef5a","system_id":"levelo_inurba_marseille","lat":43.313571,"lon":5.384829,"is_reserved":false,"is_disabled":false,"rental_uris":{"android":"levelo://app?vid=d3cdd09f-8c64-4e37-bc07-e5c3a1fbef5a","ios":"levelo://app?vid=d3cdd09f-8c64-4e37-bc07-e5c3a1fbef5a"},"vehicle_type_id":"4","last_reported":1723748785,"current_range_meters":14000,"station_id":"ce4bgt92rcd13ifvqcf0","pricing_plan_id":"cebpf4jnsgd1na2vs0mg"},{"bike_id":"4f5ac885-d50d-48d8-8042-f34185388907","system_id":"levelo_inurba_marseille","lat":43.31365,"lon":5.38493,"is_reserved":false,"is_disabled":false,"rental_uris":{"android":"levelo://app?vid=4f5ac885-d50d-48d8-8042-f34185388907","ios":"levelo://app?vid=4f5ac885-d50d-48d8-8042-f34185388907"},"vehicle_type_id":"4","last_reported":1723748785,"current_range_meters":28000,"station_id":"ce4bgt92rcd13ifvqcf0","pricing_plan_id":"cebpf4jnsgd1na2vs0mg"},{"bike_id":"803fe397-df3f-4d13-8436-b161cb73fbdd","system_id":"levelo_inurba_marseille","lat":43.313571,"lon":5.384829,"is_reserved":false,"is_disabled":false,"rental_uris":{"android":"levelo://app?vid=803fe397-df3f-4d13-8436-b161cb73fbdd","ios":"levelo://app?vid=803fe397-df3f-4d13-8436-b161cb73fbdd"},"vehicle_type_id":"4","last_reported":1723748785,"current_range_meters":27200,"station_id":"ce4bgt92rcd13ifvqcf0","pricing_plan_id":"cebpf4jnsgd1na2vs0mg"},{"bike_id":"67dbdda0-5113-4fa6-9495-43583e6c1497","system_id":"levelo_inurba_marseille","lat":43.313162,"lon":5.386192,"is_reserved":false,"is_disabled":false,"rental_uris":{"android":"levelo://app?vid=67dbdda0-5113-4fa6-9495-43583e6c1497","ios":"levelo://app?vid=67dbdda0-5113-4fa6-9495-43583e6c1497"},"vehicle_type_id":"4","last_reported":1723748785,"current_range_meters":22000,"station_id":"","pricing_plan_id":"cebpf4jnsgd1na2vs0mg"},{"bike_id":"0d63dbbd-8159-404c-a7dc-25968867408a","system_id":"levelo_inurba_marseille","lat":43.299243,"lon":5.37481,"is_reserved":false,"is_disabled":false,"rental_uris":{"android":"levelo://app?vid=0d63dbbd-8159-404c-a7dc-25968867408a","ios":"levelo://app?vid=0d63dbbd-8159-404c-a7dc-25968867408a"},"vehicle_type_id":"4","last_reported":1723748785,"current_range_meters":25200,"station_id":"ce4bgjh2rcd13ifvqbg0","pricing_plan_id":"cebpf4jnsgd1na2vs0mg"},{"bike_id":"04885308-9765-46ed-9ce5-08b084a01573","system_id":"levelo_inurba_marseille","lat":43.298433,"lon":5.362774,"is_reserved":false,"is_disabled":false,"rental_uris":{"android":"levelo://app?vid=04885308-9765-46ed-9ce5-08b084a01573","ios":"levelo://app?vid=04885308-9765-46ed-9ce5-08b084a01573"},"vehicle_type_id":"4","last_reported":1723748785,"current_range_meters":22400,"station_id":"ce4bgpp2rcd13ifvqc3g","pricing_plan_id":"cebpf4jnsgd1na2vs0mg"},{"bike_id":"91018eae-296f-473a-a1f5-69c8a2921f14","system_id":"levelo_inurba_marseille","lat":43.305364,"lon":5.384119,"is_reserved":false,"is_disabled":false,"rental_uris":{"android":"levelo://app?vid=91018eae-296f-473a-a1f5-69c8a2921f14","ios":"levelo://app?vid=91018eae-296f-473a-a1f5-69c8a2921f14"},"vehicle_type_id":"4","last_reported":1723748785,"current_range_meters":26800,"station_id":"ce4bgg92rcd13ifvqb30","pricing_plan_id":"cebpf4jnsgd1na2vs0mg"},{"bike_id":"6622da98-77d6-4979-84bf-64bee6e89712","system_id":"levelo_inurba_marseille","lat":43.305364,"lon":5.384119,"is_reserved":false,"is_disabled":false,"rental_uris":{"android":"levelo://app?vid=6622da98-77d6-4979-84bf-64bee6e89712","ios":"levelo://app?vid=6622da98-77d6-4979-84bf-64bee6e89712"},"vehicle_type_id":"4","last_reported":1723748785,"current_range_meters":29600,"station_id":"ce4bgg92rcd13ifvqb30","pricing_plan_id":"cebpf4jnsgd1na2vs0mg"},{"bike_id":"81be7cce-f0fe-405b-8cd8-2660327a20ae","system_id":"levelo_inurba_marseille","lat":43.305364,"lon":5.384119,"is_reserved":false,"is_disabled":false,"rental_uris":{"android":"levelo://app?vid=81be7cce-f0fe-405b-8cd8-2660327a20ae","ios":"levelo://app?vid=81be7cce-f0fe-405b-8cd8-2660327a20ae"},"vehicle_type_id":"4","last_reported":1723748785,"current_range_meters":30000,"station_id":"ce4bgg92rcd13ifvqb30","pricing_plan_id":"cebpf4jnsgd1na2vs0mg"},{"bike_id":"c08dc808-5d4e-43e4-bc37-aee579e0ac73","system_id":"levelo_inurba_marseille","lat":43.29926,"lon":5.37491,"is_reserved":false,"is_disabled":false,"rental_uris":{"android":"levelo://app?vid=c08dc808-5d4e-43e4-bc37-aee579e0ac73","ios":"levelo://app?vid=c08dc808-5d4e-43e4-bc37-aee579e0ac73"},"vehicle_type_id":"4","last_reported":1723748785,"current_range_meters":20400,"station_id":"ce4bgjh2rcd13ifvqbg0","pricing_plan_id":"cebpf4jnsgd1na2vs0mg"},{"bike_id":"c54d7e75-76f4-4f18-a7ff-ffd79f186252","system_id":"levelo_inurba_marseille","lat":43.299243,"lon":5.37481,"is_reserved":false,"is_disabled":false,"rental_uris":{"android":"levelo://app?vid=c54d7e75-76f4-4f18-a7ff-ffd79f186252","ios":"levelo://app?vid=c54d7e75-76f4-4f18-a7ff-ffd79f186252"},"vehicle_type_id":"4","last_reported":1723748785,"current_range_meters":31200,"station_id":"ce4bgjh2rcd13ifvqbg0","pricing_plan_id":"cebpf4jnsgd1na2vs0mg"},{"bike_id":"c7f0eeac-1716-46dd-af09-8592bd1dc3eb","system_id":"levelo_inurba_marseille","lat":43.299243,"lon":5.374807,"is_reserved":false,"is_disabled":false,"rental_uris":{"android":"levelo://app?vid=c7f0eeac-1716-46dd-af09-8592bd1dc3eb","ios":"levelo://app?vid=c7f0eeac-1716-46dd-af09-8592bd1dc3eb"},"vehicle_type_id":"4","last_reported":1723748785,"current_range_meters":18400,"station_id":"ce4bgjh2rcd13ifvqbg0","pricing_plan_id":"cebpf4jnsgd1na2vs0mg"},{"bike_id":"a3fe6ff3-53f9-41ae-a557-86a7b0e1a29e","system_id":"levelo_inurba_marseille","lat":43.299243,"lon":5.374807,"is_reserved":false,"is_disabled":false,"rental_uris":{"android":"levelo://app?vid=a3fe6ff3-53f9-41ae-a557-86a7b0e1a29e","ios":"levelo://app?vid=a3fe6ff3-53f9-41ae-a557-86a7b0e1a29e"},"vehicle_type_id":"4","last_reported":1723748785,"current_range_meters":23600,"station_id":"ce4bgjh2rcd13ifvqbg0","pricing_plan_id":"cebpf4jnsgd1na2vs0mg"},{"bike_id":"3782859f-627a-4378-941a-fd82badcb252","system_id":"levelo_inurba_marseille","lat":43.299243,"lon":5.37481,"is_reserved":false,"is_disabled":false,"rental_uris":{"android":"levelo://app?vid=3782859f-627a-4378-941a-fd82badcb252","ios":"levelo://app?vid=3782859f-627a-4378-941a-fd82badcb252"},"vehicle_type_id":"4","last_reported":1723748785,"current_range_meters":13600,"station_id":"ce4bgjh2rcd13ifvqbg0","pricing_plan_id":"cebpf4jnsgd1na2vs0mg"},{"bike_id":"a4df7db5-fba7-4725-9eb7-d81e939249bb","system_id":"levelo_inurba_marseille","lat":43.29786,"lon":5.37096,"is_reserved":false,"is_disabled":false,"rental_uris":{"android":"levelo://app?vid=a4df7db5-fba7-4725-9eb7-d81e939249bb","ios":"levelo://app?vid=a4df7db5-fba7-4725-9eb7-d81e939249bb"},"vehicle_type_id":"4","last_reported":1723748785,"current_range_meters":24000,"station_id":"ce4bgop2rcd13ifvqc1g","pricing_plan_id":"cebpf4jnsgd1na2vs0mg"},{"bike_id":"88c8a942-667b-463a-a91b-acbb0847926d","system_id":"levelo_inurba_marseille","lat":43.297794,"lon":5.370888,"is_reserved":false,"is_disabled":false,"rental_uris":{"android":"levelo://app?vid=88c8a942-667b-463a-a91b-acbb0847926d","ios":"levelo://app?vid=88c8a942-667b-463a-a91b-acbb0847926d"},"vehicle_type_id":"4","last_reported":1723748785,"current_range_meters":20000,"station_id":"ce4bgop2rcd13ifvqc1g","pricing_plan_id":"cebpf4jnsgd1na2vs0mg"},{"bike_id":"f8ed67c4-0164-4250-afb7-cc4df0a09476","system_id":"levelo_inurba_marseille","lat":43.297831,"lon":5.370911,"is_reserved":false,"is_disabled":false,"rental_uris":{"android":"levelo://app?vid=f8ed67c4-0164-4250-afb7-cc4df0a09476","ios":"levelo://app?vid=f8ed67c4-0164-4250-afb7-cc4df0a09476"},"vehicle_type_id":"4","last_reported":1723748785,"current_range_meters":17200,"station_id":"ce4bgop2rcd13ifvqc1g","pricing_plan_id":"cebpf4jnsgd1na2vs0mg"},{"bike_id":"e010335f-0feb-4f69-bcc6-8844f6bf898a","system_id":"levelo_inurba_marseille","lat":43.29784,"lon":5.37104,"is_reserved":false,"is_disabled":false,"rental_uris":{"android":"levelo://app?vid=e010335f-0feb-4f69-bcc6-8844f6bf898a","ios":"levelo://app?vid=e010335f-0feb-4f69-bcc6-8844f6bf898a"},"vehicle_type_id":"4","last_reported":1723748785,"current_range_meters":14000,"station_id":"ce4bgop2rcd13ifvqc1g","pricing_plan_id":"cebpf4jnsgd1na2vs0mg"},{"bike_id":"ffea41c6-26b5-4f04-a129-fb8a610d44b8","system_id":"levelo_inurba_marseille","lat":43.29782,"lon":5.37096,"is_reserved":false,"is_disabled":false,"rental_uris":{"android":"levelo://app?vid=ffea41c6-26b5-4f04-a129-fb8a610d44b8","ios":"levelo://app?vid=ffea41c6-26b5-4f04-a129-fb8a610d44b8"},"vehicle_type_id":"4","last_reported":1723748785,"current_range_meters":16800,"station_id":"ce4bgop2rcd13ifvqc1g","pricing_plan_id":"cebpf4jnsgd1na2vs0mg"},{"bike_id":"93eada3b-a0ce-4689-aa08-a8093bf2a509","system_id":"levelo_inurba_marseille","lat":43.297794,"lon":5.370888,"is_reserved":false,"is_disabled":false,"rental_uris":{"android":"levelo://app?vid=93eada3b-a0ce-4689-aa08-a8093bf2a509","ios":"levelo://app?vid=93eada3b-a0ce-4689-aa08-a8093bf2a509"},"vehicle_type_id":"4","last_reported":1723748785,"current_range_meters":10000,"station_id":"ce4bgop2rcd13ifvqc1g","pricing_plan_id":"cebpf4jnsgd1na2vs0mg"},{"bike_id":"19bb504b-ca3e-473a-8611-439d16af6f5c","system_id":"levelo_inurba_marseille","lat":43.297774,"lon":5.370875,"is_reserved":false,"is_disabled":false,"rental_uris":{"android":"levelo://app?vid=19bb504b-ca3e-473a-8611-439d16af6f5c","ios":"levelo://app?vid=19bb504b-ca3e-473a-8611-439d16af6f5c"},"vehicle_type_id":"4","last_reported":1723748785,"current_range_meters":24000,"station_id":"ce4bgop2rcd13ifvqc1g","pricing_plan_id":"cebpf4jnsgd1na2vs0mg"},{"bike_id":"1899b9a9-2917-4623-ad8d-ac9c1179a318","system_id":"levelo_inurba_marseille","lat":43.322927,"lon":5.382559,"is_reserved":false,"is_disabled":false,"rental_uris":{"android":"levelo://app?vid=1899b9a9-2917-4623-ad8d-ac9c1179a318","ios":"levelo://app?vid=1899b9a9-2917-4623-ad8d-ac9c1179a318"},"vehicle_type_id":"4","last_reported":1723748785,"current_range_meters":27600,"station_id":"ce4bhr12rcd13ifvqhqg","pricing_plan_id":"cebpf4jnsgd1na2vs0mg"},{"bike_id":"62034c6e-8339-4b8c-b8ff-07d0e1cb2e5c","system_id":"levelo_inurba_marseille","lat":43.322872,"lon":5.382756,"is_reserved":false,"is_disabled":false,"rental_uris":{"android":"levelo://app?vid=62034c6e-8339-4b8c-b8ff-07d0e1cb2e5c","ios":"levelo://app?vid=62034c6e-8339-4b8c-b8ff-07d0e1cb2e5c"},"vehicle_type_id":"4","last_reported":1723748785,"current_range_meters":14000,"station_id":"ce4bhr12rcd13ifvqhqg","pricing_plan_id":"cebpf4jnsgd1na2vs0mg"},{"bike_id":"6aedd08f-232a-4f3c-9f3e-ac76a70f94d5","system_id":"levelo_inurba_marseille","lat":43.322872,"lon":5.382756,"is_reserved":false,"is_disabled":false,"rental_uris":{"android":"levelo://app?vid=6aedd08f-232a-4f3c-9f3e-ac76a70f94d5","ios":"levelo://app?vid=6aedd08f-232a-4f3c-9f3e-ac76a70f94d5"},"vehicle_type_id":"4","last_reported":1723748785,"current_range_meters":14000,"station_id":"ce4bhr12rcd13ifvqhqg","pricing_plan_id":"cebpf4jnsgd1na2vs0mg"},{"bike_id":"96e8e184-dca9-4791-822b-5ee5f3e47cf8","system_id":"levelo_inurba_marseille","lat":43.32291,"lon":5.38274,"is_reserved":false,"is_disabled":false,"rental_uris":{"android":"levelo://app?vid=96e8e184-dca9-4791-822b-5ee5f3e47cf8","ios":"levelo://app?vid=96e8e184-dca9-4791-822b-5ee5f3e47cf8"},"vehicle_type_id":"4","last_reported":1723748785,"current_range_meters":26800,"station_id":"ce4bhr12rcd13ifvqhqg","pricing_plan_id":"cebpf4jnsgd1na2vs0mg"},{"bike_id":"a01a0b89-d956-4484-96e1-ebb55e8beafd","system_id":"levelo_inurba_marseille","lat":43.29765,"lon":5.371,"is_reserved":false,"is_disabled":false,"rental_uris":{"android":"levelo://app?vid=a01a0b89-d956-4484-96e1-ebb55e8beafd","ios":"levelo://app?vid=a01a0b89-d956-4484-96e1-ebb55e8beafd"},"vehicle_type_id":"4","last_reported":1723748785,"current_range_meters":20000,"station_id":"ce4bgop2rcd13ifvqc1g","pricing_plan_id":"cebpf4jnsgd1na2vs0mg"},{"bike_id":"74c0cb5a-9951-4661-8039-5cf861ae0704","system_id":"levelo_inurba_marseille","lat":43.297278,"lon":5.368782,"is_reserved":false,"is_disabled":false,"rental_uris":{"android":"levelo://app?vid=74c0cb5a-9951-4661-8039-5cf861ae0704","ios":"levelo://app?vid=74c0cb5a-9951-4661-8039-5cf861ae0704"},"vehicle_type_id":"4","last_reported":1723748785,"current_range_meters":30800,"station_id":"","pricing_plan_id":"cebpf4jnsgd1na2vs0mg"},{"bike_id":"ba534199-60e8-4041-844e-9fd4d30b3eb3","system_id":"levelo_inurba_marseille","lat":43.297169,"lon":5.368756,"is_reserved":false,"is_disabled":false,"rental_uris":{"android":"levelo://app?vid=ba534199-60e8-4041-844e-9fd4d30b3eb3","ios":"levelo://app?vid=ba534199-60e8-4041-844e-9fd4d30b3eb3"},"vehicle_type_id":"4","last_reported":1723748785,"current_range_meters":23600,"station_id":"","pricing_plan_id":"cebpf4jnsgd1na2vs0mg"},{"bike_id":"468d4b90-2058-48bb-a931-04827b3cb8f3","system_id":"levelo_inurba_marseille","lat":43.321193,"lon":5.385884,"is_reserved":false,"is_disabled":false,"rental_uris":{"android":"levelo://app?vid=468d4b90-2058-48bb-a931-04827b3cb8f3","ios":"levelo://app?vid=468d4b90-2058-48bb-a931-04827b3cb8f3"},"vehicle_type_id":"4","last_reported":1723748785,"current_range_meters":28800,"station_id":"","pricing_plan_id":"cebpf4jnsgd1na2vs0mg"},{"bike_id":"dfbd50d9-9890-4e96-8ef1-a1568e60a918","system_id":"levelo_inurba_marseille","lat":43.2968,"lon":5.37291,"is_reserved":false,"is_disabled":false,"rental_uris":{"android":"levelo://app?vid=dfbd50d9-9890-4e96-8ef1-a1568e60a918","ios":"levelo://app?vid=dfbd50d9-9890-4e96-8ef1-a1568e60a918"},"vehicle_type_id":"4","last_reported":1723748785,"current_range_meters":26800,"station_id":"ce4bgk12rcd13ifvqbj0","pricing_plan_id":"cebpf4jnsgd1na2vs0mg"},{"bike_id":"5b4074fd-2b4c-4ac3-927d-abf92f660525","system_id":"levelo_inurba_marseille","lat":43.2968,"lon":5.37291,"is_reserved":false,"is_disabled":false,"rental_uris":{"android":"levelo://app?vid=5b4074fd-2b4c-4ac3-927d-abf92f660525","ios":"levelo://app?vid=5b4074fd-2b4c-4ac3-927d-abf92f660525"},"vehicle_type_id":"4","last_reported":1723748785,"current_range_meters":30800,"station_id":"ce4bgk12rcd13ifvqbj0","pricing_plan_id":"cebpf4jnsgd1na2vs0mg"},{"bike_id":"4861d65a-6b84-4f10-a1ae-a4e2c24323fb","system_id":"levelo_inurba_marseille","lat":43.323598,"lon":5.384366,"is_reserved":false,"is_disabled":false,"rental_uris":{"android":"levelo://app?vid=4861d65a-6b84-4f10-a1ae-a4e2c24323fb","ios":"levelo://app?vid=4861d65a-6b84-4f10-a1ae-a4e2c24323fb"},"vehicle_type_id":"4","last_reported":1723748785,"current_range_meters":24000,"station_id":"","pricing_plan_id":"cebpf4jnsgd1na2vs0mg"},{"bike_id":"71a9f699-4473-4e39-83a7-4d289a759b05","system_id":"levelo_inurba_marseille","lat":43.296131,"lon":5.370791,"is_reserved":false,"is_disabled":false,"rental_uris":{"android":"levelo://app?vid=71a9f699-4473-4e39-83a7-4d289a759b05","ios":"levelo://app?vid=71a9f699-4473-4e39-83a7-4d289a759b05"},"vehicle_type_id":"4","last_reported":1723748785,"current_range_meters":14800,"station_id":"ce4bgnh2rcd13ifvqc0g","pricing_plan_id":"cebpf4jnsgd1na2vs0mg"},{"bike_id":"bda570b4-aa30-4c9b-91b9-364ba18bd273","system_id":"levelo_inurba_marseille","lat":43.29573,"lon":5.367355,"is_reserved":false,"is_disabled":false,"rental_uris":{"android":"levelo://app?vid=bda570b4-aa30-4c9b-91b9-364ba18bd273","ios":"levelo://app?vid=bda570b4-aa30-4c9b-91b9-364ba18bd273"},"vehicle_type_id":"4","last_reported":1723748785,"current_range_meters":24400,"station_id":"ce4bgph2rcd13ifvqc2g","pricing_plan_id":"cebpf4jnsgd1na2vs0mg"},{"bike_id":"56c9c0d5-bcc8-4fa7-a809-d94ba6f08e36","system_id":"levelo_inurba_marseille","lat":43.297353,"lon":5.376867,"is_reserved":false,"is_disabled":false,"rental_uris":{"android":"levelo://app?vid=56c9c0d5-bcc8-4fa7-a809-d94ba6f08e36","ios":"levelo://app?vid=56c9c0d5-bcc8-4fa7-a809-d94ba6f08e36"},"vehicle_type_id":"4","last_reported":1723748785,"current_range_meters":3600,"station_id":"ce4bgkh2rcd13ifvqbl0","pricing_plan_id":"cebpf4jnsgd1na2vs0mg"},{"bike_id":"209d82bf-a0a5-4fbc-ab01-bb3cf716a79a","system_id":"levelo_inurba_marseille","lat":43.32885,"lon":5.35906,"is_reserved":false,"is_disabled":false,"rental_uris":{"android":"levelo://app?vid=209d82bf-a0a5-4fbc-ab01-bb3cf716a79a","ios":"levelo://app?vid=209d82bf-a0a5-4fbc-ab01-bb3cf716a79a"},"vehicle_type_id":"4","last_reported":1723748785,"current_range_meters":19200,"station_id":"","pricing_plan_id":"cebpf4jnsgd1na2vs0mg"},{"bike_id":"c0604c18-a45e-4392-a9cc-cf0707d73627","system_id":"levelo_inurba_marseille","lat":43.29716,"lon":5.37701,"is_reserved":false,"is_disabled":false,"rental_uris":{"android":"levelo://app?vid=c0604c18-a45e-4392-a9cc-cf0707d73627","ios":"levelo://app?vid=c0604c18-a45e-4392-a9cc-cf0707d73627"},"vehicle_type_id":"4","last_reported":1723748785,"current_range_meters":9200,"station_id":"ce4bgkh2rcd13ifvqbl0","pricing_plan_id":"cebpf4jnsgd1na2vs0mg"},{"bike_id":"b9f9f77f-3035-4cb5-876d-ad6c96e76a3c","system_id":"levelo_inurba_marseille","lat":43.299028,"lon":5.381509,"is_reserved":false,"is_disabled":false,"rental_uris":{"android":"levelo://app?vid=b9f9f77f-3035-4cb5-876d-ad6c96e76a3c","ios":"levelo://app?vid=b9f9f77f-3035-4cb5-876d-ad6c96e76a3c"},"vehicle_type_id":"4","last_reported":1723748785,"current_range_meters":27200,"station_id":"ce4bgj12rcd13ifvqbc0","pricing_plan_id":"cebpf4jnsgd1na2vs0mg"},{"bike_id":"836a5817-41dd-42cd-86aa-3fa85ef4da23","system_id":"levelo_inurba_marseille","lat":43.299028,"lon":5.381509,"is_reserved":false,"is_disabled":false,"rental_uris":{"android":"levelo://app?vid=836a5817-41dd-42cd-86aa-3fa85ef4da23","ios":"levelo://app?vid=836a5817-41dd-42cd-86aa-3fa85ef4da23"},"vehicle_type_id":"4","last_reported":1723748785,"current_range_meters":30000,"station_id":"ce4bgj12rcd13ifvqbc0","pricing_plan_id":"cebpf4jnsgd1na2vs0mg"},{"bike_id":"db054416-262c-4661-9c94-94cf0d983f9c","system_id":"levelo_inurba_marseille","lat":43.299028,"lon":5.381509,"is_reserved":false,"is_disabled":false,"rental_uris":{"android":"levelo://app?vid=db054416-262c-4661-9c94-94cf0d983f9c","ios":"levelo://app?vid=db054416-262c-4661-9c94-94cf0d983f9c"},"vehicle_type_id":"4","last_reported":1723748785,"current_range_meters":31200,"station_id":"ce4bgj12rcd13ifvqbc0","pricing_plan_id":"cebpf4jnsgd1na2vs0mg"},{"bike_id":"40cb8e2e-9695-4c28-a11d-b93c8e899879","system_id":"levelo_inurba_marseille","lat":43.299028,"lon":5.381509,"is_reserved":false,"is_disabled":false,"rental_uris":{"android":"levelo://app?vid=40cb8e2e-9695-4c28-a11d-b93c8e899879","ios":"levelo://app?vid=40cb8e2e-9695-4c28-a11d-b93c8e899879"},"vehicle_type_id":"4","last_reported":1723748785,"current_range_meters":12800,"station_id":"ce4bgj12rcd13ifvqbc0","pricing_plan_id":"cebpf4jnsgd1na2vs0mg"},{"bike_id":"86cb5d2b-18fc-4050-b472-eaad439ed6a5","system_id":"levelo_inurba_marseille","lat":43.299028,"lon":5.381509,"is_reserved":false,"is_disabled":false,"rental_uris":{"android":"levelo://app?vid=86cb5d2b-18fc-4050-b472-eaad439ed6a5","ios":"levelo://app?vid=86cb5d2b-18fc-4050-b472-eaad439ed6a5"},"vehicle_type_id":"4","last_reported":1723748785,"current_range_meters":22400,"station_id":"ce4bgj12rcd13ifvqbc0","pricing_plan_id":"cebpf4jnsgd1na2vs0mg"},{"bike_id":"82b9fa55-2f15-4d16-8c8b-55f0d672136f","system_id":"levelo_inurba_marseille","lat":43.299028,"lon":5.381509,"is_reserved":false,"is_disabled":false,"rental_uris":{"android":"levelo://app?vid=82b9fa55-2f15-4d16-8c8b-55f0d672136f","ios":"levelo://app?vid=82b9fa55-2f15-4d16-8c8b-55f0d672136f"},"vehicle_type_id":"4","last_reported":1723748785,"current_range_meters":31200,"station_id":"ce4bgj12rcd13ifvqbc0","pricing_plan_id":"cebpf4jnsgd1na2vs0mg"},{"bike_id":"ab8e3da5-b786-415f-902e-e7d8839a3576","system_id":"levelo_inurba_marseille","lat":43.298953,"lon":5.381317,"is_reserved":false,"is_disabled":false,"rental_uris":{"android":"levelo://app?vid=ab8e3da5-b786-415f-902e-e7d8839a3576","ios":"levelo://app?vid=ab8e3da5-b786-415f-902e-e7d8839a3576"},"vehicle_type_id":"4","last_reported":1723748785,"current_range_meters":21200,"station_id":"ce4bgj12rcd13ifvqbc0","pricing_plan_id":"cebpf4jnsgd1na2vs0mg"},{"bike_id":"5b88f5dd-efa8-4142-8a70-243407521427","system_id":"levelo_inurba_marseille","lat":43.299028,"lon":5.381509,"is_reserved":false,"is_disabled":false,"rental_uris":{"android":"levelo://app?vid=5b88f5dd-efa8-4142-8a70-243407521427","ios":"levelo://app?vid=5b88f5dd-efa8-4142-8a70-243407521427"},"vehicle_type_id":"4","last_reported":1723748785,"current_range_meters":20800,"station_id":"ce4bgj12rcd13ifvqbc0","pricing_plan_id":"cebpf4jnsgd1na2vs0mg"},{"bike_id":"747343f8-5b5b-4eaf-bd9e-24558b8ee472","system_id":"levelo_inurba_marseille","lat":43.309589,"lon":5.390258,"is_reserved":false,"is_disabled":false,"rental_uris":{"android":"levelo://app?vid=747343f8-5b5b-4eaf-bd9e-24558b8ee472","ios":"levelo://app?vid=747343f8-5b5b-4eaf-bd9e-24558b8ee472"},"vehicle_type_id":"4","last_reported":1723748785,"current_range_meters":2400,"station_id":"ce4bgup2rcd13ifvqco0","pricing_plan_id":"cebpf4jnsgd1na2vs0mg"},{"bike_id":"dd60d82e-39c0-45ca-8067-d0df336987b0","system_id":"levelo_inurba_marseille","lat":43.299028,"lon":5.381509,"is_reserved":false,"is_disabled":false,"rental_uris":{"android":"levelo://app?vid=dd60d82e-39c0-45ca-8067-d0df336987b0","ios":"levelo://app?vid=dd60d82e-39c0-45ca-8067-d0df336987b0"},"vehicle_type_id":"4","last_reported":1723748785,"current_range_meters":31200,"station_id":"ce4bgj12rcd13ifvqbc0","pricing_plan_id":"cebpf4jnsgd1na2vs0mg"},{"bike_id":"8deb223b-0888-4e76-809d-b630cc62d3bb","system_id":"levelo_inurba_marseille","lat":43.309589,"lon":5.390258,"is_reserved":false,"is_disabled":false,"rental_uris":{"android":"levelo://app?vid=8deb223b-0888-4e76-809d-b630cc62d3bb","ios":"levelo://app?vid=8deb223b-0888-4e76-809d-b630cc62d3bb"},"vehicle_type_id":"4","last_reported":1723748785,"current_range_meters":4000,"station_id":"ce4bgup2rcd13ifvqco0","pricing_plan_id":"cebpf4jnsgd1na2vs0mg"},{"bike_id":"e51e239a-3502-4253-8032-afe00c870ed3","system_id":"levelo_inurba_marseille","lat":43.309589,"lon":5.390258,"is_reserved":false,"is_disabled":false,"rental_uris":{"android":"levelo://app?vid=e51e239a-3502-4253-8032-afe00c870ed3","ios":"levelo://app?vid=e51e239a-3502-4253-8032-afe00c870ed3"},"vehicle_type_id":"4","last_reported":1723748785,"current_range_meters":22400,"station_id":"ce4bgup2rcd13ifvqco0","pricing_plan_id":"cebpf4jnsgd1na2vs0mg"},{"bike_id":"5faf9892-ed86-474e-9aa2-fd7738642a26","system_id":"levelo_inurba_marseille","lat":43.309589,"lon":5.390258,"is_reserved":false,"is_disabled":false,"rental_uris":{"android":"levelo://app?vid=5faf9892-ed86-474e-9aa2-fd7738642a26","ios":"levelo://app?vid=5faf9892-ed86-474e-9aa2-fd7738642a26"},"vehicle_type_id":"4","last_reported":1723748785,"current_range_meters":9200,"station_id":"ce4bgup2rcd13ifvqco0","pricing_plan_id":"cebpf4jnsgd1na2vs0mg"},{"bike_id":"17051b0d-e844-42ce-8d09-91aa8b916288","system_id":"levelo_inurba_marseille","lat":43.317557,"lon":5.390173,"is_reserved":false,"is_disabled":false,"rental_uris":{"android":"levelo://app?vid=17051b0d-e844-42ce-8d09-91aa8b916288","ios":"levelo://app?vid=17051b0d-e844-42ce-8d09-91aa8b916288"},"vehicle_type_id":"4","last_reported":1723748785,"current_range_meters":30400,"station_id":"ce4bhqp2rcd13ifvqhng","pricing_plan_id":"cebpf4jnsgd1na2vs0mg"},{"bike_id":"fae030c2-2212-44fe-a7d0-434632276c95","system_id":"levelo_inurba_marseille","lat":43.317557,"lon":5.390173,"is_reserved":false,"is_disabled":false,"rental_uris":{"android":"levelo://app?vid=fae030c2-2212-44fe-a7d0-434632276c95","ios":"levelo://app?vid=fae030c2-2212-44fe-a7d0-434632276c95"},"vehicle_type_id":"4","last_reported":1723748785,"current_range_meters":2000,"station_id":"ce4bhqp2rcd13ifvqhng","pricing_plan_id":"cebpf4jnsgd1na2vs0mg"},{"bike_id":"db019ba9-1d63-40a3-8077-d61cef282848","system_id":"levelo_inurba_marseille","lat":43.317557,"lon":5.390173,"is_reserved":false,"is_disabled":false,"rental_uris":{"android":"levelo://app?vid=db019ba9-1d63-40a3-8077-d61cef282848","ios":"levelo://app?vid=db019ba9-1d63-40a3-8077-d61cef282848"},"vehicle_type_id":"4","last_reported":1723748785,"current_range_meters":17600,"station_id":"ce4bhqp2rcd13ifvqhng","pricing_plan_id":"cebpf4jnsgd1na2vs0mg"},{"bike_id":"864dbf84-46a8-4a39-9e14-a484ee7bed9e","system_id":"levelo_inurba_marseille","lat":43.29747,"lon":5.37937,"is_reserved":false,"is_disabled":false,"rental_uris":{"android":"levelo://app?vid=864dbf84-46a8-4a39-9e14-a484ee7bed9e","ios":"levelo://app?vid=864dbf84-46a8-4a39-9e14-a484ee7bed9e"},"vehicle_type_id":"4","last_reported":1723748785,"current_range_meters":23600,"station_id":"","pricing_plan_id":"cebpf4jnsgd1na2vs0mg"},{"bike_id":"445cf0ec-a5f9-4ae4-bc95-f777d9116360","system_id":"levelo_inurba_marseille","lat":43.298037,"lon":5.381066,"is_reserved":false,"is_disabled":false,"rental_uris":{"android":"levelo://app?vid=445cf0ec-a5f9-4ae4-bc95-f777d9116360","ios":"levelo://app?vid=445cf0ec-a5f9-4ae4-bc95-f777d9116360"},"vehicle_type_id":"4","last_reported":1723748785,"current_range_meters":27600,"station_id":"ce4bgip2rcd13ifvqbb0","pricing_plan_id":"cebpf4jnsgd1na2vs0mg"},{"bike_id":"cf5883a9-22f7-4da0-a55c-dab4e9e28919","system_id":"levelo_inurba_marseille","lat":43.295845,"lon":5.37517,"is_reserved":false,"is_disabled":false,"rental_uris":{"android":"levelo://app?vid=cf5883a9-22f7-4da0-a55c-dab4e9e28919","ios":"levelo://app?vid=cf5883a9-22f7-4da0-a55c-dab4e9e28919"},"vehicle_type_id":"4","last_reported":1723748785,"current_range_meters":12400,"station_id":"ce4bgh92rcd13ifvqb50","pricing_plan_id":"cebpf4jnsgd1na2vs0mg"},{"bike_id":"020d35a5-f036-4d80-bc1a-4c99065947e2","system_id":"levelo_inurba_marseille","lat":43.295748,"lon":5.37522,"is_reserved":false,"is_disabled":false,"rental_uris":{"android":"levelo://app?vid=020d35a5-f036-4d80-bc1a-4c99065947e2","ios":"levelo://app?vid=020d35a5-f036-4d80-bc1a-4c99065947e2"},"vehicle_type_id":"4","last_reported":1723748785,"current_range_meters":8400,"station_id":"ce4bgh92rcd13ifvqb50","pricing_plan_id":"cebpf4jnsgd1na2vs0mg"},{"bike_id":"e5071708-2fa1-4117-988d-b15a392e0c9f","system_id":"levelo_inurba_marseille","lat":43.295748,"lon":5.37522,"is_reserved":false,"is_disabled":false,"rental_uris":{"android":"levelo://app?vid=e5071708-2fa1-4117-988d-b15a392e0c9f","ios":"levelo://app?vid=e5071708-2fa1-4117-988d-b15a392e0c9f"},"vehicle_type_id":"4","last_reported":1723748785,"current_range_meters":31600,"station_id":"ce4bgh92rcd13ifvqb50","pricing_plan_id":"cebpf4jnsgd1na2vs0mg"},{"bike_id":"16477488-7276-4c79-be65-29f04487f523","system_id":"levelo_inurba_marseille","lat":43.298037,"lon":5.381066,"is_reserved":false,"is_disabled":false,"rental_uris":{"android":"levelo://app?vid=16477488-7276-4c79-be65-29f04487f523","ios":"levelo://app?vid=16477488-7276-4c79-be65-29f04487f523"},"vehicle_type_id":"4","last_reported":1723748785,"current_range_meters":31200,"station_id":"ce4bgip2rcd13ifvqbb0","pricing_plan_id":"cebpf4jnsgd1na2vs0mg"},{"bike_id":"1c98cef0-3901-4e79-bf0e-6e2a86eefa91","system_id":"levelo_inurba_marseille","lat":43.298037,"lon":5.381066,"is_reserved":false,"is_disabled":false,"rental_uris":{"android":"levelo://app?vid=1c98cef0-3901-4e79-bf0e-6e2a86eefa91","ios":"levelo://app?vid=1c98cef0-3901-4e79-bf0e-6e2a86eefa91"},"vehicle_type_id":"4","last_reported":1723748785,"current_range_meters":30000,"station_id":"ce4bgip2rcd13ifvqbb0","pricing_plan_id":"cebpf4jnsgd1na2vs0mg"},{"bike_id":"fdadb0b6-5efa-4bc3-92b8-aaeec353d329","system_id":"levelo_inurba_marseille","lat":43.29577,"lon":5.3752,"is_reserved":false,"is_disabled":false,"rental_uris":{"android":"levelo://app?vid=fdadb0b6-5efa-4bc3-92b8-aaeec353d329","ios":"levelo://app?vid=fdadb0b6-5efa-4bc3-92b8-aaeec353d329"},"vehicle_type_id":"4","last_reported":1723748785,"current_range_meters":29600,"station_id":"ce4bgh92rcd13ifvqb50","pricing_plan_id":"cebpf4jnsgd1na2vs0mg"},{"bike_id":"83f7f9ac-edde-4899-8277-641438842db1","system_id":"levelo_inurba_marseille","lat":43.304278,"lon":5.388868,"is_reserved":false,"is_disabled":false,"rental_uris":{"android":"levelo://app?vid=83f7f9ac-edde-4899-8277-641438842db1","ios":"levelo://app?vid=83f7f9ac-edde-4899-8277-641438842db1"},"vehicle_type_id":"4","last_reported":1723748785,"current_range_meters":19600,"station_id":"ce4bgk12rcd13ifvqbi0","pricing_plan_id":"cebpf4jnsgd1na2vs0mg"},{"bike_id":"ba01a37f-86fb-4ad0-8b8a-750d04176f9a","system_id":"levelo_inurba_marseille","lat":43.304278,"lon":5.388868,"is_reserved":false,"is_disabled":false,"rental_uris":{"android":"levelo://app?vid=ba01a37f-86fb-4ad0-8b8a-750d04176f9a","ios":"levelo://app?vid=ba01a37f-86fb-4ad0-8b8a-750d04176f9a"},"vehicle_type_id":"4","last_reported":1723748785,"current_range_meters":27200,"station_id":"ce4bgk12rcd13ifvqbi0","pricing_plan_id":"cebpf4jnsgd1na2vs0mg"},{"bike_id":"3c2eefc0-dba9-47ec-afc4-ac98f71f4a84","system_id":"levelo_inurba_marseille","lat":43.295748,"lon":5.37522,"is_reserved":false,"is_disabled":false,"rental_uris":{"android":"levelo://app?vid=3c2eefc0-dba9-47ec-afc4-ac98f71f4a84","ios":"levelo://app?vid=3c2eefc0-dba9-47ec-afc4-ac98f71f4a84"},"vehicle_type_id":"4","last_reported":1723748785,"current_range_meters":31600,"station_id":"ce4bgh92rcd13ifvqb50","pricing_plan_id":"cebpf4jnsgd1na2vs0mg"},{"bike_id":"a8f7966f-d866-44f8-8eed-0beb5f92d395","system_id":"levelo_inurba_marseille","lat":43.295748,"lon":5.37522,"is_reserved":false,"is_disabled":false,"rental_uris":{"android":"levelo://app?vid=a8f7966f-d866-44f8-8eed-0beb5f92d395","ios":"levelo://app?vid=a8f7966f-d866-44f8-8eed-0beb5f92d395"},"vehicle_type_id":"4","last_reported":1723748785,"current_range_meters":8800,"station_id":"ce4bgh92rcd13ifvqb50","pricing_plan_id":"cebpf4jnsgd1na2vs0mg"},{"bike_id":"6fcc6daf-5618-403e-a421-4c2585b8cb73","system_id":"levelo_inurba_marseille","lat":43.304274,"lon":5.388873,"is_reserved":false,"is_disabled":false,"rental_uris":{"android":"levelo://app?vid=6fcc6daf-5618-403e-a421-4c2585b8cb73","ios":"levelo://app?vid=6fcc6daf-5618-403e-a421-4c2585b8cb73"},"vehicle_type_id":"4","last_reported":1723748785,"current_range_meters":23200,"station_id":"ce4bgk12rcd13ifvqbi0","pricing_plan_id":"cebpf4jnsgd1na2vs0mg"},{"bike_id":"a7672d19-58d7-46b8-b135-c49264182db7","system_id":"levelo_inurba_marseille","lat":43.295748,"lon":5.37522,"is_reserved":false,"is_disabled":false,"rental_uris":{"android":"levelo://app?vid=a7672d19-58d7-46b8-b135-c49264182db7","ios":"levelo://app?vid=a7672d19-58d7-46b8-b135-c49264182db7"},"vehicle_type_id":"4","last_reported":1723748785,"current_range_meters":15200,"station_id":"ce4bgh92rcd13ifvqb50","pricing_plan_id":"cebpf4jnsgd1na2vs0mg"},{"bike_id":"08828d12-374a-4e1b-9d4d-986575c7daff","system_id":"levelo_inurba_marseille","lat":43.304278,"lon":5.388868,"is_reserved":false,"is_disabled":false,"rental_uris":{"android":"levelo://app?vid=08828d12-374a-4e1b-9d4d-986575c7daff","ios":"levelo://app?vid=08828d12-374a-4e1b-9d4d-986575c7daff"},"vehicle_type_id":"4","last_reported":1723748785,"current_range_meters":1600,"station_id":"ce4bgk12rcd13ifvqbi0","pricing_plan_id":"cebpf4jnsgd1na2vs0mg"},{"bike_id":"45110328-1a9b-48fd-8c68-37c06d29aeda","system_id":"levelo_inurba_marseille","lat":43.295748,"lon":5.37522,"is_reserved":false,"is_disabled":false,"rental_uris":{"android":"levelo://app?vid=45110328-1a9b-48fd-8c68-37c06d29aeda","ios":"levelo://app?vid=45110328-1a9b-48fd-8c68-37c06d29aeda"},"vehicle_type_id":"4","last_reported":1723748785,"current_range_meters":8000,"station_id":"ce4bgh92rcd13ifvqb50","pricing_plan_id":"cebpf4jnsgd1na2vs0mg"},{"bike_id":"f6222cef-0c78-48a2-9f12-7c57e023fa1a","system_id":"levelo_inurba_marseille","lat":43.304278,"lon":5.388868,"is_reserved":false,"is_disabled":false,"rental_uris":{"android":"levelo://app?vid=f6222cef-0c78-48a2-9f12-7c57e023fa1a","ios":"levelo://app?vid=f6222cef-0c78-48a2-9f12-7c57e023fa1a"},"vehicle_type_id":"4","last_reported":1723748785,"current_range_meters":30400,"station_id":"ce4bgk12rcd13ifvqbi0","pricing_plan_id":"cebpf4jnsgd1na2vs0mg"},{"bike_id":"40593ce0-2636-4d97-b516-6b8b68b08b6c","system_id":"levelo_inurba_marseille","lat":43.298037,"lon":5.381066,"is_reserved":false,"is_disabled":false,"rental_uris":{"android":"levelo://app?vid=40593ce0-2636-4d97-b516-6b8b68b08b6c","ios":"levelo://app?vid=40593ce0-2636-4d97-b516-6b8b68b08b6c"},"vehicle_type_id":"4","last_reported":1723748785,"current_range_meters":16000,"station_id":"ce4bgip2rcd13ifvqbb0","pricing_plan_id":"cebpf4jnsgd1na2vs0mg"},{"bike_id":"a109235e-c0b5-4aa7-a1a0-7d4245201489","system_id":"levelo_inurba_marseille","lat":43.298037,"lon":5.381066,"is_reserved":false,"is_disabled":false,"rental_uris":{"android":"levelo://app?vid=a109235e-c0b5-4aa7-a1a0-7d4245201489","ios":"levelo://app?vid=a109235e-c0b5-4aa7-a1a0-7d4245201489"},"vehicle_type_id":"4","last_reported":1723748785,"current_range_meters":31200,"station_id":"ce4bgip2rcd13ifvqbb0","pricing_plan_id":"cebpf4jnsgd1na2vs0mg"},{"bike_id":"08edccc9-4d6f-4512-8feb-b95e56ef52ff","system_id":"levelo_inurba_marseille","lat":43.30435,"lon":5.389,"is_reserved":false,"is_disabled":false,"rental_uris":{"android":"levelo://app?vid=08edccc9-4d6f-4512-8feb-b95e56ef52ff","ios":"levelo://app?vid=08edccc9-4d6f-4512-8feb-b95e56ef52ff"},"vehicle_type_id":"4","last_reported":1723748785,"current_range_meters":19600,"station_id":"ce4bgk12rcd13ifvqbi0","pricing_plan_id":"cebpf4jnsgd1na2vs0mg"},{"bike_id":"ed966dda-5a34-48d5-910e-2d7f57397cd2","system_id":"levelo_inurba_marseille","lat":43.29745,"lon":5.38033,"is_reserved":false,"is_disabled":false,"rental_uris":{"android":"levelo://app?vid=ed966dda-5a34-48d5-910e-2d7f57397cd2","ios":"levelo://app?vid=ed966dda-5a34-48d5-910e-2d7f57397cd2"},"vehicle_type_id":"4","last_reported":1723748785,"current_range_meters":4400,"station_id":"ce4bgpp2rcd13ifvqc3g","pricing_plan_id":"cebpf4jnsgd1na2vs0mg"},{"bike_id":"fe65dde2-c336-4194-a1fb-ca937fc2d4d9","system_id":"levelo_inurba_marseille","lat":43.296263,"lon":5.377094,"is_reserved":false,"is_disabled":false,"rental_uris":{"android":"levelo://app?vid=fe65dde2-c336-4194-a1fb-ca937fc2d4d9","ios":"levelo://app?vid=fe65dde2-c336-4194-a1fb-ca937fc2d4d9"},"vehicle_type_id":"4","last_reported":1723748785,"current_range_meters":30800,"station_id":"ce4bgi92rcd13ifvqb90","pricing_plan_id":"cebpf4jnsgd1na2vs0mg"},{"bike_id":"0838220d-a56e-415a-b4ec-711fe6d1c3ef","system_id":"levelo_inurba_marseille","lat":43.304278,"lon":5.388868,"is_reserved":false,"is_disabled":false,"rental_uris":{"android":"levelo://app?vid=0838220d-a56e-415a-b4ec-711fe6d1c3ef","ios":"levelo://app?vid=0838220d-a56e-415a-b4ec-711fe6d1c3ef"},"vehicle_type_id":"4","last_reported":1723748785,"current_range_meters":21600,"station_id":"ce4bgk12rcd13ifvqbi0","pricing_plan_id":"cebpf4jnsgd1na2vs0mg"},{"bike_id":"8875135f-ab58-4145-8858-6374db1d4e76","system_id":"levelo_inurba_marseille","lat":43.29607,"lon":5.37719,"is_reserved":false,"is_disabled":false,"rental_uris":{"android":"levelo://app?vid=8875135f-ab58-4145-8858-6374db1d4e76","ios":"levelo://app?vid=8875135f-ab58-4145-8858-6374db1d4e76"},"vehicle_type_id":"4","last_reported":1723748785,"current_range_meters":17600,"station_id":"ce4bgi92rcd13ifvqb90","pricing_plan_id":"cebpf4jnsgd1na2vs0mg"},{"bike_id":"038f2c50-46a6-43b0-b668-1faec322a8d1","system_id":"levelo_inurba_marseille","lat":43.29987,"lon":5.3848,"is_reserved":false,"is_disabled":false,"rental_uris":{"android":"levelo://app?vid=038f2c50-46a6-43b0-b668-1faec322a8d1","ios":"levelo://app?vid=038f2c50-46a6-43b0-b668-1faec322a8d1"},"vehicle_type_id":"4","last_reported":1723748785,"current_range_meters":10000,"station_id":"ce4bgj92rcd13ifvqbd0","pricing_plan_id":"cebpf4jnsgd1na2vs0mg"},{"bike_id":"a5736d26-24a4-4dae-8f24-1ad03f29198f","system_id":"levelo_inurba_marseille","lat":43.29539,"lon":5.37497,"is_reserved":false,"is_disabled":false,"rental_uris":{"android":"levelo://app?vid=a5736d26-24a4-4dae-8f24-1ad03f29198f","ios":"levelo://app?vid=a5736d26-24a4-4dae-8f24-1ad03f29198f"},"vehicle_type_id":"4","last_reported":1723748785,"current_range_meters":4800,"station_id":"ce4bgkp2rcd13ifvqbmg","pricing_plan_id":"cebpf4jnsgd1na2vs0mg"},{"bike_id":"7357a1c0-3093-42c7-82ec-5fd65ad65d61","system_id":"levelo_inurba_marseille","lat":43.29784,"lon":5.38158,"is_reserved":false,"is_disabled":false,"rental_uris":{"android":"levelo://app?vid=7357a1c0-3093-42c7-82ec-5fd65ad65d61","ios":"levelo://app?vid=7357a1c0-3093-42c7-82ec-5fd65ad65d61"},"vehicle_type_id":"4","last_reported":1723748785,"current_range_meters":17600,"station_id":"ce4bgip2rcd13ifvqbb0","pricing_plan_id":"cebpf4jnsgd1na2vs0mg"},{"bike_id":"2d583bf6-f12c-43d1-99e0-e933380ee72c","system_id":"levelo_inurba_marseille","lat":43.299707,"lon":5.384859,"is_reserved":false,"is_disabled":false,"rental_uris":{"android":"levelo://app?vid=2d583bf6-f12c-43d1-99e0-e933380ee72c","ios":"levelo://app?vid=2d583bf6-f12c-43d1-99e0-e933380ee72c"},"vehicle_type_id":"4","last_reported":1723748785,"current_range_meters":31200,"station_id":"ce4bgj92rcd13ifvqbd0","pricing_plan_id":"cebpf4jnsgd1na2vs0mg"},{"bike_id":"967685e3-30c1-41bc-b26f-dca4c7ad934d","system_id":"levelo_inurba_marseille","lat":43.29979,"lon":5.3848,"is_reserved":false,"is_disabled":false,"rental_uris":{"android":"levelo://app?vid=967685e3-30c1-41bc-b26f-dca4c7ad934d","ios":"levelo://app?vid=967685e3-30c1-41bc-b26f-dca4c7ad934d"},"vehicle_type_id":"4","last_reported":1723748785,"current_range_meters":16800,"station_id":"ce4bgj92rcd13ifvqbd0","pricing_plan_id":"cebpf4jnsgd1na2vs0mg"},{"bike_id":"12966dae-1091-4b9e-aab9-fdde5bfbaea8","system_id":"levelo_inurba_marseille","lat":43.295279,"lon":5.375048,"is_reserved":false,"is_disabled":false,"rental_uris":{"android":"levelo://app?vid=12966dae-1091-4b9e-aab9-fdde5bfbaea8","ios":"levelo://app?vid=12966dae-1091-4b9e-aab9-fdde5bfbaea8"},"vehicle_type_id":"4","last_reported":1723748785,"current_range_meters":8800,"station_id":"ce4bgkp2rcd13ifvqbmg","pricing_plan_id":"cebpf4jnsgd1na2vs0mg"},{"bike_id":"5d8a0386-412f-4fc4-9b46-3dafead10027","system_id":"levelo_inurba_marseille","lat":43.299837,"lon":5.384901,"is_reserved":false,"is_disabled":false,"rental_uris":{"android":"levelo://app?vid=5d8a0386-412f-4fc4-9b46-3dafead10027","ios":"levelo://app?vid=5d8a0386-412f-4fc4-9b46-3dafead10027"},"vehicle_type_id":"4","last_reported":1723748785,"current_range_meters":15600,"station_id":"ce4bgj92rcd13ifvqbd0","pricing_plan_id":"cebpf4jnsgd1na2vs0mg"},{"bike_id":"d570d9de-c92c-41bf-901f-550e675edf74","system_id":"levelo_inurba_marseille","lat":43.295279,"lon":5.375048,"is_reserved":false,"is_disabled":false,"rental_uris":{"android":"levelo://app?vid=d570d9de-c92c-41bf-901f-550e675edf74","ios":"levelo://app?vid=d570d9de-c92c-41bf-901f-550e675edf74"},"vehicle_type_id":"4","last_reported":1723748785,"current_range_meters":18400,"station_id":"ce4bgkp2rcd13ifvqbmg","pricing_plan_id":"cebpf4jnsgd1na2vs0mg"},{"bike_id":"f13aff0c-7eeb-4c09-9267-bf72315253cc","system_id":"levelo_inurba_marseille","lat":43.299717,"lon":5.384845,"is_reserved":false,"is_disabled":false,"rental_uris":{"android":"levelo://app?vid=f13aff0c-7eeb-4c09-9267-bf72315253cc","ios":"levelo://app?vid=f13aff0c-7eeb-4c09-9267-bf72315253cc"},"vehicle_type_id":"4","last_reported":1723748785,"current_range_meters":31200,"station_id":"ce4bgj92rcd13ifvqbd0","pricing_plan_id":"cebpf4jnsgd1na2vs0mg"},{"bike_id":"50ba1bcc-225e-4bd5-b659-bb2f02c0be6d","system_id":"levelo_inurba_marseille","lat":43.299243,"lon":5.374807,"is_reserved":false,"is_disabled":false,"rental_uris":{"android":"levelo://app?vid=50ba1bcc-225e-4bd5-b659-bb2f02c0be6d","ios":"levelo://app?vid=50ba1bcc-225e-4bd5-b659-bb2f02c0be6d"},"vehicle_type_id":"4","last_reported":1723748785,"current_range_meters":17200,"station_id":"ce4bgjh2rcd13ifvqbg0","pricing_plan_id":"cebpf4jnsgd1na2vs0mg"},{"bike_id":"f440876f-6c77-4905-875f-3302c6cbe1c5","system_id":"levelo_inurba_marseille","lat":43.299717,"lon":5.384845,"is_reserved":false,"is_disabled":false,"rental_uris":{"android":"levelo://app?vid=f440876f-6c77-4905-875f-3302c6cbe1c5","ios":"levelo://app?vid=f440876f-6c77-4905-875f-3302c6cbe1c5"},"vehicle_type_id":"4","last_reported":1723748785,"current_range_meters":31200,"station_id":"ce4bgj92rcd13ifvqbd0","pricing_plan_id":"cebpf4jnsgd1na2vs0mg"},{"bike_id":"43cbd206-f888-4af4-8d60-316bb76f52a5","system_id":"levelo_inurba_marseille","lat":43.299717,"lon":5.384845,"is_reserved":false,"is_disabled":false,"rental_uris":{"android":"levelo://app?vid=43cbd206-f888-4af4-8d60-316bb76f52a5","ios":"levelo://app?vid=43cbd206-f888-4af4-8d60-316bb76f52a5"},"vehicle_type_id":"4","last_reported":1723748785,"current_range_meters":17600,"station_id":"ce4bgj92rcd13ifvqbd0","pricing_plan_id":"cebpf4jnsgd1na2vs0mg"},{"bike_id":"59be2b0f-9b03-4e79-b232-7bac17527b3d","system_id":"levelo_inurba_marseille","lat":43.29976,"lon":5.384953,"is_reserved":false,"is_disabled":false,"rental_uris":{"android":"levelo://app?vid=59be2b0f-9b03-4e79-b232-7bac17527b3d","ios":"levelo://app?vid=59be2b0f-9b03-4e79-b232-7bac17527b3d"},"vehicle_type_id":"4","last_reported":1723748785,"current_range_meters":27200,"station_id":"ce4bgj92rcd13ifvqbd0","pricing_plan_id":"cebpf4jnsgd1na2vs0mg"},{"bike_id":"e89e0fc9-06ab-42fa-b8f5-6e9a01b83475","system_id":"levelo_inurba_marseille","lat":43.299717,"lon":5.384845,"is_reserved":false,"is_disabled":false,"rental_uris":{"android":"levelo://app?vid=e89e0fc9-06ab-42fa-b8f5-6e9a01b83475","ios":"levelo://app?vid=e89e0fc9-06ab-42fa-b8f5-6e9a01b83475"},"vehicle_type_id":"4","last_reported":1723748785,"current_range_meters":31200,"station_id":"ce4bgj92rcd13ifvqbd0","pricing_plan_id":"cebpf4jnsgd1na2vs0mg"},{"bike_id":"43fea45d-cf29-4471-a37c-35d0f5e0c6e7","system_id":"levelo_inurba_marseille","lat":43.299707,"lon":5.384859,"is_reserved":false,"is_disabled":false,"rental_uris":{"android":"levelo://app?vid=43fea45d-cf29-4471-a37c-35d0f5e0c6e7","ios":"levelo://app?vid=43fea45d-cf29-4471-a37c-35d0f5e0c6e7"},"vehicle_type_id":"4","last_reported":1723748785,"current_range_meters":31200,"station_id":"ce4bgj92rcd13ifvqbd0","pricing_plan_id":"cebpf4jnsgd1na2vs0mg"},{"bike_id":"23775696-d642-47ab-90c4-eb60021de809","system_id":"levelo_inurba_marseille","lat":43.299717,"lon":5.384845,"is_reserved":false,"is_disabled":false,"rental_uris":{"android":"levelo://app?vid=23775696-d642-47ab-90c4-eb60021de809","ios":"levelo://app?vid=23775696-d642-47ab-90c4-eb60021de809"},"vehicle_type_id":"4","last_reported":1723748785,"current_range_meters":31200,"station_id":"ce4bgj92rcd13ifvqbd0","pricing_plan_id":"cebpf4jnsgd1na2vs0mg"},{"bike_id":"36d4d0dd-a9dd-4d3a-905b-e4880b5d397e","system_id":"levelo_inurba_marseille","lat":43.29972,"lon":5.38496,"is_reserved":false,"is_disabled":false,"rental_uris":{"android":"levelo://app?vid=36d4d0dd-a9dd-4d3a-905b-e4880b5d397e","ios":"levelo://app?vid=36d4d0dd-a9dd-4d3a-905b-e4880b5d397e"},"vehicle_type_id":"4","last_reported":1723748785,"current_range_meters":31200,"station_id":"ce4bgj92rcd13ifvqbd0","pricing_plan_id":"cebpf4jnsgd1na2vs0mg"},{"bike_id":"3fa349c4-8f33-4c58-9cee-7cca972fcd89","system_id":"levelo_inurba_marseille","lat":43.299717,"lon":5.384845,"is_reserved":false,"is_disabled":false,"rental_uris":{"android":"levelo://app?vid=3fa349c4-8f33-4c58-9cee-7cca972fcd89","ios":"levelo://app?vid=3fa349c4-8f33-4c58-9cee-7cca972fcd89"},"vehicle_type_id":"4","last_reported":1723748785,"current_range_meters":30400,"station_id":"ce4bgj92rcd13ifvqbd0","pricing_plan_id":"cebpf4jnsgd1na2vs0mg"},{"bike_id":"4d5b2fc5-fc86-49eb-ab47-6e481fc52b28","system_id":"levelo_inurba_marseille","lat":43.29964,"lon":5.38492,"is_reserved":false,"is_disabled":false,"rental_uris":{"android":"levelo://app?vid=4d5b2fc5-fc86-49eb-ab47-6e481fc52b28","ios":"levelo://app?vid=4d5b2fc5-fc86-49eb-ab47-6e481fc52b28"},"vehicle_type_id":"4","last_reported":1723748785,"current_range_meters":15200,"station_id":"ce4bgj92rcd13ifvqbd0","pricing_plan_id":"cebpf4jnsgd1na2vs0mg"},{"bike_id":"18e3f74d-c1d3-41c3-99ce-36bca9de465a","system_id":"levelo_inurba_marseille","lat":43.299717,"lon":5.384845,"is_reserved":false,"is_disabled":false,"rental_uris":{"android":"levelo://app?vid=18e3f74d-c1d3-41c3-99ce-36bca9de465a","ios":"levelo://app?vid=18e3f74d-c1d3-41c3-99ce-36bca9de465a"},"vehicle_type_id":"4","last_reported":1723748785,"current_range_meters":31200,"station_id":"ce4bgj92rcd13ifvqbd0","pricing_plan_id":"cebpf4jnsgd1na2vs0mg"},{"bike_id":"12529f72-e02e-46f9-b65c-c351a3bf11d5","system_id":"levelo_inurba_marseille","lat":43.297632,"lon":5.381663,"is_reserved":false,"is_disabled":false,"rental_uris":{"android":"levelo://app?vid=12529f72-e02e-46f9-b65c-c351a3bf11d5","ios":"levelo://app?vid=12529f72-e02e-46f9-b65c-c351a3bf11d5"},"vehicle_type_id":"4","last_reported":1723748785,"current_range_meters":26400,"station_id":"ce4bgip2rcd13ifvqbb0","pricing_plan_id":"cebpf4jnsgd1na2vs0mg"},{"bike_id":"344e7d63-aa02-48a7-b55a-c080c33d7748","system_id":"levelo_inurba_marseille","lat":43.29964,"lon":5.38494,"is_reserved":false,"is_disabled":false,"rental_uris":{"android":"levelo://app?vid=344e7d63-aa02-48a7-b55a-c080c33d7748","ios":"levelo://app?vid=344e7d63-aa02-48a7-b55a-c080c33d7748"},"vehicle_type_id":"4","last_reported":1723748785,"current_range_meters":24800,"station_id":"ce4bgj92rcd13ifvqbd0","pricing_plan_id":"cebpf4jnsgd1na2vs0mg"},{"bike_id":"a4a54bb1-c8f9-497c-aa96-1c054b723adc","system_id":"levelo_inurba_marseille","lat":43.29966,"lon":5.38501,"is_reserved":false,"is_disabled":false,"rental_uris":{"android":"levelo://app?vid=a4a54bb1-c8f9-497c-aa96-1c054b723adc","ios":"levelo://app?vid=a4a54bb1-c8f9-497c-aa96-1c054b723adc"},"vehicle_type_id":"4","last_reported":1723748785,"current_range_meters":30400,"station_id":"ce4bgj92rcd13ifvqbd0","pricing_plan_id":"cebpf4jnsgd1na2vs0mg"},{"bike_id":"21d90d53-de3c-4110-b217-68cc851e21d6","system_id":"levelo_inurba_marseille","lat":43.29965,"lon":5.385,"is_reserved":false,"is_disabled":false,"rental_uris":{"android":"levelo://app?vid=21d90d53-de3c-4110-b217-68cc851e21d6","ios":"levelo://app?vid=21d90d53-de3c-4110-b217-68cc851e21d6"},"vehicle_type_id":"4","last_reported":1723748785,"current_range_meters":6000,"station_id":"ce4bgj92rcd13ifvqbd0","pricing_plan_id":"cebpf4jnsgd1na2vs0mg"},{"bike_id":"041eedcc-61e8-4a94-a965-8697a73c81a4","system_id":"levelo_inurba_marseille","lat":43.299627,"lon":5.385027,"is_reserved":false,"is_disabled":false,"rental_uris":{"android":"levelo://app?vid=041eedcc-61e8-4a94-a965-8697a73c81a4","ios":"levelo://app?vid=041eedcc-61e8-4a94-a965-8697a73c81a4"},"vehicle_type_id":"4","last_reported":1723748785,"current_range_meters":15600,"station_id":"ce4bgj92rcd13ifvqbd0","pricing_plan_id":"cebpf4jnsgd1na2vs0mg"},{"bike_id":"bd47e4d0-f42c-4885-8654-5262e8703446","system_id":"levelo_inurba_marseille","lat":43.295279,"lon":5.375048,"is_reserved":false,"is_disabled":false,"rental_uris":{"android":"levelo://app?vid=bd47e4d0-f42c-4885-8654-5262e8703446","ios":"levelo://app?vid=bd47e4d0-f42c-4885-8654-5262e8703446"},"vehicle_type_id":"4","last_reported":1723748785,"current_range_meters":29200,"station_id":"ce4bgkp2rcd13ifvqbmg","pricing_plan_id":"cebpf4jnsgd1na2vs0mg"},{"bike_id":"c9db1efa-8716-4571-ba11-944c1c68f0d2","system_id":"levelo_inurba_marseille","lat":43.299623,"lon":5.38507,"is_reserved":false,"is_disabled":false,"rental_uris":{"android":"levelo://app?vid=c9db1efa-8716-4571-ba11-944c1c68f0d2","ios":"levelo://app?vid=c9db1efa-8716-4571-ba11-944c1c68f0d2"},"vehicle_type_id":"4","last_reported":1723748785,"current_range_meters":26000,"station_id":"ce4bgj92rcd13ifvqbd0","pricing_plan_id":"cebpf4jnsgd1na2vs0mg"},{"bike_id":"ff466b7d-4d7a-4955-90d0-f51b624290e9","system_id":"levelo_inurba_marseille","lat":43.299717,"lon":5.384845,"is_reserved":false,"is_disabled":false,"rental_uris":{"android":"levelo://app?vid=ff466b7d-4d7a-4955-90d0-f51b624290e9","ios":"levelo://app?vid=ff466b7d-4d7a-4955-90d0-f51b624290e9"},"vehicle_type_id":"4","last_reported":1723748785,"current_range_meters":12400,"station_id":"ce4bgj92rcd13ifvqbd0","pricing_plan_id":"cebpf4jnsgd1na2vs0mg"},{"bike_id":"9424e3a5-541c-4537-98ea-6a2f5af7daf5","system_id":"levelo_inurba_marseille","lat":43.29647,"lon":5.37993,"is_reserved":false,"is_disabled":false,"rental_uris":{"android":"levelo://app?vid=9424e3a5-541c-4537-98ea-6a2f5af7daf5","ios":"levelo://app?vid=9424e3a5-541c-4537-98ea-6a2f5af7daf5"},"vehicle_type_id":"4","last_reported":1723748785,"current_range_meters":15200,"station_id":"","pricing_plan_id":"cebpf4jnsgd1na2vs0mg"},{"bike_id":"7777e736-47f7-4c84-9530-4acf253dd6e1","system_id":"levelo_inurba_marseille","lat":43.301396,"lon":5.387812,"is_reserved":false,"is_disabled":false,"rental_uris":{"android":"levelo://app?vid=7777e736-47f7-4c84-9530-4acf253dd6e1","ios":"levelo://app?vid=7777e736-47f7-4c84-9530-4acf253dd6e1"},"vehicle_type_id":"4","last_reported":1723748785,"current_range_meters":17600,"station_id":"ce4bghh2rcd13ifvqb60","pricing_plan_id":"cebpf4jnsgd1na2vs0mg"},{"bike_id":"9c781eb3-142e-4642-b06a-8dde1c26ac3d","system_id":"levelo_inurba_marseille","lat":43.323633,"lon":5.38866,"is_reserved":false,"is_disabled":false,"rental_uris":{"android":"levelo://app?vid=9c781eb3-142e-4642-b06a-8dde1c26ac3d","ios":"levelo://app?vid=9c781eb3-142e-4642-b06a-8dde1c26ac3d"},"vehicle_type_id":"4","last_reported":1723748785,"current_range_meters":5200,"station_id":"ce4bhqp2rcd13ifvqhog","pricing_plan_id":"cebpf4jnsgd1na2vs0mg"},{"bike_id":"764e027a-cb8b-4ced-bb02-448973719bf9","system_id":"levelo_inurba_marseille","lat":43.317557,"lon":5.390173,"is_reserved":false,"is_disabled":false,"rental_uris":{"android":"levelo://app?vid=764e027a-cb8b-4ced-bb02-448973719bf9","ios":"levelo://app?vid=764e027a-cb8b-4ced-bb02-448973719bf9"},"vehicle_type_id":"4","last_reported":1723748785,"current_range_meters":30000,"station_id":"ce4bhqp2rcd13ifvqhng","pricing_plan_id":"cebpf4jnsgd1na2vs0mg"},{"bike_id":"80d03ceb-5aaa-42c4-89fa-e7704230b5bc","system_id":"levelo_inurba_marseille","lat":43.32368,"lon":5.38877,"is_reserved":false,"is_disabled":false,"rental_uris":{"android":"levelo://app?vid=80d03ceb-5aaa-42c4-89fa-e7704230b5bc","ios":"levelo://app?vid=80d03ceb-5aaa-42c4-89fa-e7704230b5bc"},"vehicle_type_id":"4","last_reported":1723748785,"current_range_meters":3600,"station_id":"ce4bhqp2rcd13ifvqhog","pricing_plan_id":"cebpf4jnsgd1na2vs0mg"},{"bike_id":"35c39432-0974-4acf-8cb7-2ec13f6061e0","system_id":"levelo_inurba_marseille","lat":43.32368,"lon":5.388785,"is_reserved":false,"is_disabled":false,"rental_uris":{"android":"levelo://app?vid=35c39432-0974-4acf-8cb7-2ec13f6061e0","ios":"levelo://app?vid=35c39432-0974-4acf-8cb7-2ec13f6061e0"},"vehicle_type_id":"4","last_reported":1723748785,"current_range_meters":24800,"station_id":"ce4bhqp2rcd13ifvqhog","pricing_plan_id":"cebpf4jnsgd1na2vs0mg"},{"bike_id":"0d595970-cc1d-441f-85df-eab93e02d00d","system_id":"levelo_inurba_marseille","lat":43.32363,"lon":5.38885,"is_reserved":false,"is_disabled":false,"rental_uris":{"android":"levelo://app?vid=0d595970-cc1d-441f-85df-eab93e02d00d","ios":"levelo://app?vid=0d595970-cc1d-441f-85df-eab93e02d00d"},"vehicle_type_id":"4","last_reported":1723748785,"current_range_meters":22400,"station_id":"ce4bhqp2rcd13ifvqhog","pricing_plan_id":"cebpf4jnsgd1na2vs0mg"},{"bike_id":"8f401e04-4a4d-4a89-89e8-753119c4158e","system_id":"levelo_inurba_marseille","lat":43.32363,"lon":5.38893,"is_reserved":false,"is_disabled":false,"rental_uris":{"android":"levelo://app?vid=8f401e04-4a4d-4a89-89e8-753119c4158e","ios":"levelo://app?vid=8f401e04-4a4d-4a89-89e8-753119c4158e"},"vehicle_type_id":"4","last_reported":1723748785,"current_range_meters":0,"station_id":"ce4bhqp2rcd13ifvqhog","pricing_plan_id":"cebpf4jnsgd1na2vs0mg"},{"bike_id":"35636d50-0765-48cd-a977-06a3cf5b435d","system_id":"levelo_inurba_marseille","lat":43.296086,"lon":5.380923,"is_reserved":false,"is_disabled":false,"rental_uris":{"android":"levelo://app?vid=35636d50-0765-48cd-a977-06a3cf5b435d","ios":"levelo://app?vid=35636d50-0765-48cd-a977-06a3cf5b435d"},"vehicle_type_id":"4","last_reported":1723748785,"current_range_meters":6400,"station_id":"ce4bgl12rcd13ifvqbo0","pricing_plan_id":"cebpf4jnsgd1na2vs0mg"},{"bike_id":"3fbb78f7-2fb4-452b-8c3f-f4db4ca9a369","system_id":"levelo_inurba_marseille","lat":43.296113,"lon":5.381123,"is_reserved":false,"is_disabled":false,"rental_uris":{"android":"levelo://app?vid=3fbb78f7-2fb4-452b-8c3f-f4db4ca9a369","ios":"levelo://app?vid=3fbb78f7-2fb4-452b-8c3f-f4db4ca9a369"},"vehicle_type_id":"4","last_reported":1723748785,"current_range_meters":8000,"station_id":"ce4bgl12rcd13ifvqbo0","pricing_plan_id":"cebpf4jnsgd1na2vs0mg"},{"bike_id":"82335ce8-ef0c-4597-8aff-2ea0582af115","system_id":"levelo_inurba_marseille","lat":43.29608,"lon":5.38112,"is_reserved":false,"is_disabled":false,"rental_uris":{"android":"levelo://app?vid=82335ce8-ef0c-4597-8aff-2ea0582af115","ios":"levelo://app?vid=82335ce8-ef0c-4597-8aff-2ea0582af115"},"vehicle_type_id":"4","last_reported":1723748785,"current_range_meters":6800,"station_id":"ce4bgl12rcd13ifvqbo0","pricing_plan_id":"cebpf4jnsgd1na2vs0mg"},{"bike_id":"b10f479e-c0b4-46a2-a942-03c8c2e0a5c3","system_id":"levelo_inurba_marseille","lat":43.29601,"lon":5.38098,"is_reserved":false,"is_disabled":false,"rental_uris":{"android":"levelo://app?vid=b10f479e-c0b4-46a2-a942-03c8c2e0a5c3","ios":"levelo://app?vid=b10f479e-c0b4-46a2-a942-03c8c2e0a5c3"},"vehicle_type_id":"4","last_reported":1723748785,"current_range_meters":28000,"station_id":"ce4bgl12rcd13ifvqbo0","pricing_plan_id":"cebpf4jnsgd1na2vs0mg"},{"bike_id":"63655e6e-cf00-47cb-b407-18cd3301c76b","system_id":"levelo_inurba_marseille","lat":43.296001,"lon":5.380982,"is_reserved":false,"is_disabled":false,"rental_uris":{"android":"levelo://app?vid=63655e6e-cf00-47cb-b407-18cd3301c76b","ios":"levelo://app?vid=63655e6e-cf00-47cb-b407-18cd3301c76b"},"vehicle_type_id":"4","last_reported":1723748785,"current_range_meters":12400,"station_id":"ce4bgl12rcd13ifvqbo0","pricing_plan_id":"cebpf4jnsgd1na2vs0mg"},{"bike_id":"ecc7aab3-ce7b-4aa7-840e-38b6f2b15985","system_id":"levelo_inurba_marseille","lat":43.295969,"lon":5.380929,"is_reserved":false,"is_disabled":false,"rental_uris":{"android":"levelo://app?vid=ecc7aab3-ce7b-4aa7-840e-38b6f2b15985","ios":"levelo://app?vid=ecc7aab3-ce7b-4aa7-840e-38b6f2b15985"},"vehicle_type_id":"4","last_reported":1723748785,"current_range_meters":16000,"station_id":"ce4bgl12rcd13ifvqbo0","pricing_plan_id":"cebpf4jnsgd1na2vs0mg"},{"bike_id":"91194db9-be2b-414f-b355-ba8ed74f883a","system_id":"levelo_inurba_marseille","lat":43.293298,"lon":5.370964,"is_reserved":false,"is_disabled":false,"rental_uris":{"android":"levelo://app?vid=91194db9-be2b-414f-b355-ba8ed74f883a","ios":"levelo://app?vid=91194db9-be2b-414f-b355-ba8ed74f883a"},"vehicle_type_id":"4","last_reported":1723748785,"current_range_meters":6400,"station_id":"","pricing_plan_id":"cebpf4jnsgd1na2vs0mg"},{"bike_id":"7b8a0f18-120a-4515-8500-87d995ab0c5d","system_id":"levelo_inurba_marseille","lat":43.29595,"lon":5.38106,"is_reserved":false,"is_disabled":false,"rental_uris":{"android":"levelo://app?vid=7b8a0f18-120a-4515-8500-87d995ab0c5d","ios":"levelo://app?vid=7b8a0f18-120a-4515-8500-87d995ab0c5d"},"vehicle_type_id":"4","last_reported":1723748785,"current_range_meters":27600,"station_id":"ce4bgl12rcd13ifvqbo0","pricing_plan_id":"cebpf4jnsgd1na2vs0mg"},{"bike_id":"5f338ff7-b1d6-474c-9d3e-faceb474eb2e","system_id":"levelo_inurba_marseille","lat":43.29591,"lon":5.38101,"is_reserved":false,"is_disabled":false,"rental_uris":{"android":"levelo://app?vid=5f338ff7-b1d6-474c-9d3e-faceb474eb2e","ios":"levelo://app?vid=5f338ff7-b1d6-474c-9d3e-faceb474eb2e"},"vehicle_type_id":"4","last_reported":1723748785,"current_range_meters":19600,"station_id":"ce4bgl12rcd13ifvqbo0","pricing_plan_id":"cebpf4jnsgd1na2vs0mg"},{"bike_id":"6ff99ece-276d-4a35-b027-43446149f2a0","system_id":"levelo_inurba_marseille","lat":43.295898,"lon":5.380997,"is_reserved":false,"is_disabled":false,"rental_uris":{"android":"levelo://app?vid=6ff99ece-276d-4a35-b027-43446149f2a0","ios":"levelo://app?vid=6ff99ece-276d-4a35-b027-43446149f2a0"},"vehicle_type_id":"4","last_reported":1723748785,"current_range_meters":26000,"station_id":"ce4bgl12rcd13ifvqbo0","pricing_plan_id":"cebpf4jnsgd1na2vs0mg"},{"bike_id":"1f06946e-5115-4899-b4c0-5815c6116cf4","system_id":"levelo_inurba_marseille","lat":43.292749,"lon":5.368402,"is_reserved":false,"is_disabled":false,"rental_uris":{"android":"levelo://app?vid=1f06946e-5115-4899-b4c0-5815c6116cf4","ios":"levelo://app?vid=1f06946e-5115-4899-b4c0-5815c6116cf4"},"vehicle_type_id":"4","last_reported":1723748785,"current_range_meters":26400,"station_id":"ce4bhbp2rcd13ifvqesg","pricing_plan_id":"cebpf4jnsgd1na2vs0mg"},{"bike_id":"48c3bbd8-fd4a-4631-a2ad-3c22770875a9","system_id":"levelo_inurba_marseille","lat":43.293104,"lon":5.371799,"is_reserved":false,"is_disabled":false,"rental_uris":{"android":"levelo://app?vid=48c3bbd8-fd4a-4631-a2ad-3c22770875a9","ios":"levelo://app?vid=48c3bbd8-fd4a-4631-a2ad-3c22770875a9"},"vehicle_type_id":"4","last_reported":1723748785,"current_range_meters":25200,"station_id":"","pricing_plan_id":"cebpf4jnsgd1na2vs0mg"},{"bike_id":"bf39a63a-4b3b-4f6f-97e1-ba7248e065bf","system_id":"levelo_inurba_marseille","lat":43.29307,"lon":5.37167,"is_reserved":false,"is_disabled":false,"rental_uris":{"android":"levelo://app?vid=bf39a63a-4b3b-4f6f-97e1-ba7248e065bf","ios":"levelo://app?vid=bf39a63a-4b3b-4f6f-97e1-ba7248e065bf"},"vehicle_type_id":"4","last_reported":1723748785,"current_range_meters":0,"station_id":"ce4bgh92rcd13ifvqb40","pricing_plan_id":"cebpf4jnsgd1na2vs0mg"},{"bike_id":"e31f87de-0680-4e61-af8d-3718c142fabb","system_id":"levelo_inurba_marseille","lat":43.293259,"lon":5.371586,"is_reserved":false,"is_disabled":false,"rental_uris":{"android":"levelo://app?vid=e31f87de-0680-4e61-af8d-3718c142fabb","ios":"levelo://app?vid=e31f87de-0680-4e61-af8d-3718c142fabb"},"vehicle_type_id":"4","last_reported":1723748785,"current_range_meters":9200,"station_id":"ce4bgh92rcd13ifvqb40","pricing_plan_id":"cebpf4jnsgd1na2vs0mg"},{"bike_id":"d0b236a0-94b0-47ed-8ed4-ee80e904b665","system_id":"levelo_inurba_marseille","lat":43.292749,"lon":5.368402,"is_reserved":false,"is_disabled":false,"rental_uris":{"android":"levelo://app?vid=d0b236a0-94b0-47ed-8ed4-ee80e904b665","ios":"levelo://app?vid=d0b236a0-94b0-47ed-8ed4-ee80e904b665"},"vehicle_type_id":"4","last_reported":1723748785,"current_range_meters":15600,"station_id":"ce4bhbp2rcd13ifvqesg","pricing_plan_id":"cebpf4jnsgd1na2vs0mg"},{"bike_id":"4140d889-aaf9-4b15-8a11-a581354b1510","system_id":"levelo_inurba_marseille","lat":43.293259,"lon":5.371586,"is_reserved":false,"is_disabled":false,"rental_uris":{"android":"levelo://app?vid=4140d889-aaf9-4b15-8a11-a581354b1510","ios":"levelo://app?vid=4140d889-aaf9-4b15-8a11-a581354b1510"},"vehicle_type_id":"4","last_reported":1723748785,"current_range_meters":14000,"station_id":"ce4bgh92rcd13ifvqb40","pricing_plan_id":"cebpf4jnsgd1na2vs0mg"},{"bike_id":"9ea7eca9-2e20-4fc9-bf5b-c27ed7fc585a","system_id":"levelo_inurba_marseille","lat":43.293041,"lon":5.371758,"is_reserved":false,"is_disabled":false,"rental_uris":{"android":"levelo://app?vid=9ea7eca9-2e20-4fc9-bf5b-c27ed7fc585a","ios":"levelo://app?vid=9ea7eca9-2e20-4fc9-bf5b-c27ed7fc585a"},"vehicle_type_id":"4","last_reported":1723748785,"current_range_meters":18800,"station_id":"ce4bh412rcd13ifvqds0","pricing_plan_id":"cebpf4jnsgd1na2vs0mg"},{"bike_id":"da3421fe-2898-45ef-b83d-5a1c7d38f9e1","system_id":"levelo_inurba_marseille","lat":43.292749,"lon":5.368402,"is_reserved":false,"is_disabled":false,"rental_uris":{"android":"levelo://app?vid=da3421fe-2898-45ef-b83d-5a1c7d38f9e1","ios":"levelo://app?vid=da3421fe-2898-45ef-b83d-5a1c7d38f9e1"},"vehicle_type_id":"4","last_reported":1723748785,"current_range_meters":28400,"station_id":"ce4bhbp2rcd13ifvqesg","pricing_plan_id":"cebpf4jnsgd1na2vs0mg"},{"bike_id":"495cb558-c7b1-4009-bf73-1444d90dcad7","system_id":"levelo_inurba_marseille","lat":43.29305,"lon":5.37191,"is_reserved":false,"is_disabled":false,"rental_uris":{"android":"levelo://app?vid=495cb558-c7b1-4009-bf73-1444d90dcad7","ios":"levelo://app?vid=495cb558-c7b1-4009-bf73-1444d90dcad7"},"vehicle_type_id":"4","last_reported":1723748785,"current_range_meters":14000,"station_id":"ce4bgh92rcd13ifvqb40","pricing_plan_id":"cebpf4jnsgd1na2vs0mg"},{"bike_id":"f235984b-822a-4dc1-b14d-6523dc64d6e8","system_id":"levelo_inurba_marseille","lat":43.293022,"lon":5.371788,"is_reserved":false,"is_disabled":false,"rental_uris":{"android":"levelo://app?vid=f235984b-822a-4dc1-b14d-6523dc64d6e8","ios":"levelo://app?vid=f235984b-822a-4dc1-b14d-6523dc64d6e8"},"vehicle_type_id":"4","last_reported":1723748785,"current_range_meters":0,"station_id":"ce4bgh92rcd13ifvqb40","pricing_plan_id":"cebpf4jnsgd1na2vs0mg"},{"bike_id":"7f7fdc81-4277-41e1-8251-acf72142fbc5","system_id":"levelo_inurba_marseille","lat":43.292999,"lon":5.371647,"is_reserved":false,"is_disabled":false,"rental_uris":{"android":"levelo://app?vid=7f7fdc81-4277-41e1-8251-acf72142fbc5","ios":"levelo://app?vid=7f7fdc81-4277-41e1-8251-acf72142fbc5"},"vehicle_type_id":"4","last_reported":1723748785,"current_range_meters":13200,"station_id":"ce4bgh92rcd13ifvqb40","pricing_plan_id":"cebpf4jnsgd1na2vs0mg"},{"bike_id":"ef035c8b-1383-4fb5-a0b3-ed89af682b5d","system_id":"levelo_inurba_marseille","lat":43.292749,"lon":5.368402,"is_reserved":false,"is_disabled":false,"rental_uris":{"android":"levelo://app?vid=ef035c8b-1383-4fb5-a0b3-ed89af682b5d","ios":"levelo://app?vid=ef035c8b-1383-4fb5-a0b3-ed89af682b5d"},"vehicle_type_id":"4","last_reported":1723748785,"current_range_meters":22800,"station_id":"ce4bhbp2rcd13ifvqesg","pricing_plan_id":"cebpf4jnsgd1na2vs0mg"},{"bike_id":"5a7ac43b-2a7b-4527-9da0-3bdeec71e915","system_id":"levelo_inurba_marseille","lat":43.292992,"lon":5.371728,"is_reserved":false,"is_disabled":false,"rental_uris":{"android":"levelo://app?vid=5a7ac43b-2a7b-4527-9da0-3bdeec71e915","ios":"levelo://app?vid=5a7ac43b-2a7b-4527-9da0-3bdeec71e915"},"vehicle_type_id":"4","last_reported":1723748785,"current_range_meters":16800,"station_id":"ce4bgh92rcd13ifvqb40","pricing_plan_id":"cebpf4jnsgd1na2vs0mg"},{"bike_id":"cf9cb12e-80f9-4c62-a2e8-4775c3412be3","system_id":"levelo_inurba_marseille","lat":43.292749,"lon":5.368402,"is_reserved":false,"is_disabled":false,"rental_uris":{"android":"levelo://app?vid=cf9cb12e-80f9-4c62-a2e8-4775c3412be3","ios":"levelo://app?vid=cf9cb12e-80f9-4c62-a2e8-4775c3412be3"},"vehicle_type_id":"4","last_reported":1723748785,"current_range_meters":6400,"station_id":"ce4bhbp2rcd13ifvqesg","pricing_plan_id":"cebpf4jnsgd1na2vs0mg"},{"bike_id":"0511bfe9-f134-4ed0-866d-1ff55dce77ea","system_id":"levelo_inurba_marseille","lat":43.29294,"lon":5.37163,"is_reserved":false,"is_disabled":false,"rental_uris":{"android":"levelo://app?vid=0511bfe9-f134-4ed0-866d-1ff55dce77ea","ios":"levelo://app?vid=0511bfe9-f134-4ed0-866d-1ff55dce77ea"},"vehicle_type_id":"4","last_reported":1723748785,"current_range_meters":24400,"station_id":"ce4bgh92rcd13ifvqb40","pricing_plan_id":"cebpf4jnsgd1na2vs0mg"},{"bike_id":"11119d7c-b0b3-4186-b288-179cfbb71a5d","system_id":"levelo_inurba_marseille","lat":43.292749,"lon":5.368398,"is_reserved":false,"is_disabled":false,"rental_uris":{"android":"levelo://app?vid=11119d7c-b0b3-4186-b288-179cfbb71a5d","ios":"levelo://app?vid=11119d7c-b0b3-4186-b288-179cfbb71a5d"},"vehicle_type_id":"4","last_reported":1723748785,"current_range_meters":22000,"station_id":"ce4bhbp2rcd13ifvqesg","pricing_plan_id":"cebpf4jnsgd1na2vs0mg"},{"bike_id":"e76737e5-1433-478e-9ce6-c2c08c6f9df9","system_id":"levelo_inurba_marseille","lat":43.305994,"lon":5.393687,"is_reserved":false,"is_disabled":false,"rental_uris":{"android":"levelo://app?vid=e76737e5-1433-478e-9ce6-c2c08c6f9df9","ios":"levelo://app?vid=e76737e5-1433-478e-9ce6-c2c08c6f9df9"},