{"last_updated":1726758582,"ttl":30,"version":"2.2","data":{"bikes":[{"bike_id":"5ed48b18-2b90-45f1-af20-b699b4ebafc3","system_id":"levelo_inurba_marseille","lat":43.26199,"lon":5.37933,"is_reserved":false,"is_disabled":false,"rental_uris":{"android":"levelo://app?vid=5ed48b18-2b90-45f1-af20-b699b4ebafc3","ios":"levelo://app?vid=5ed48b18-2b90-45f1-af20-b699b4ebafc3"},"vehicle_type_id":"4","last_reported":1726758582,"current_range_meters":17200,"station_id":"ce4bhjp2rcd13ifvqg90","pricing_plan_id":"cebpf4jnsgd1na2vs0mg"},{"bike_id":"da197540-7474-48bd-8111-bd86b2ab271e","system_id":"levelo_inurba_marseille","lat":43.32032,"lon":5.41505,"is_reserved":false,"is_disabled":false,"rental_uris":{"android":"levelo://app?vid=da197540-7474-48bd-8111-bd86b2ab271e","ios":"levelo://app?vid=da197540-7474-48bd-8111-bd86b2ab271e"},"vehicle_type_id":"4","last_reported":1726758582,"current_range_meters":38800,"station_id":"ce4bhq92rcd13ifvqhkg","pricing_plan_id":"cebpf4jnsgd1na2vs0mg"},{"bike_id":"cbc1a068-6efa-4300-b9e2-4da5d06d0c76","system_id":"levelo_inurba_marseille","lat":43.29258,"lon":5.40902,"is_reserved":false,"is_disabled":false,"rental_uris":{"android":"levelo://app?vid=cbc1a068-6efa-4300-b9e2-4da5d06d0c76","ios":"levelo://app?vid=cbc1a068-6efa-4300-b9e2-4da5d06d0c76"},"vehicle_type_id":"4","last_reported":1726758582,"current_range_meters":28800,"station_id":"ce4bh192rcd13ifvqdc0","pricing_plan_id":"cebpf4jnsgd1na2vs0mg"},{"bike_id":"9b35d704-72f3-44d5-b57e-5abdc53e96d2","system_id":"levelo_inurba_marseille","lat":43.2707,"lon":5.42279,"is_reserved":false,"is_disabled":false,"rental_uris":{"android":"levelo://app?vid=9b35d704-72f3-44d5-b57e-5abdc53e96d2","ios":"levelo://app?vid=9b35d704-72f3-44d5-b57e-5abdc53e96d2"},"vehicle_type_id":"4","last_reported":1726758582,"current_range_meters":22800,"station_id":"ce4bhk92rcd13ifvqgb0","pricing_plan_id":"cebpf4jnsgd1na2vs0mg"},{"bike_id":"4030ad33-7d9b-4230-8d99-01eabf0a0575","system_id":"levelo_inurba_marseille","lat":43.27501,"lon":5.42454,"is_reserved":false,"is_disabled":false,"rental_uris":{"android":"levelo://app?vid=4030ad33-7d9b-4230-8d99-01eabf0a0575","ios":"levelo://app?vid=4030ad33-7d9b-4230-8d99-01eabf0a0575"},"vehicle_type_id":"4","last_reported":1726758582,"current_range_meters":4400,"station_id":"ce4bhn92rcd13ifvqgrg","pricing_plan_id":"cebpf4jnsgd1na2vs0mg"},{"bike_id":"e532fd53-ad12-4848-82ea-70ac934c1c37","system_id":"levelo_inurba_marseille","lat":43.3375,"lon":5.37446,"is_reserved":false,"is_disabled":false,"rental_uris":{"android":"levelo://app?vid=e532fd53-ad12-4848-82ea-70ac934c1c37","ios":"levelo://app?vid=e532fd53-ad12-4848-82ea-70ac934c1c37"},"vehicle_type_id":"4","last_reported":1726758582,"current_range_meters":37600,"station_id":"","pricing_plan_id":"cebpf4jnsgd1na2vs0mg"},{"bike_id":"e76c12a4-a8f8-46c3-993f-ba3a559fa50a","system_id":"levelo_inurba_marseille","lat":43.30422,"lon":5.39745,"is_reserved":false,"is_disabled":false,"rental_uris":{"android":"levelo://app?vid=e76c12a4-a8f8-46c3-993f-ba3a559fa50a","ios":"levelo://app?vid=e76c12a4-a8f8-46c3-993f-ba3a559fa50a"},"vehicle_type_id":"4","last_reported":1726758582,"current_range_meters":26800,"station_id":"ce4bh092rcd13ifvqd20","pricing_plan_id":"cebpf4jnsgd1na2vs0mg"},{"bike_id":"ac78a539-4fc4-44cf-a8c3-86827d0cd2c6","system_id":"levelo_inurba_marseille","lat":43.30545,"lon":5.36697,"is_reserved":false,"is_disabled":false,"rental_uris":{"android":"levelo://app?vid=ac78a539-4fc4-44cf-a8c3-86827d0cd2c6","ios":"levelo://app?vid=ac78a539-4fc4-44cf-a8c3-86827d0cd2c6"},"vehicle_type_id":"4","last_reported":1726758582,"current_range_meters":28000,"station_id":"ce4bgrp2rcd13ifvqc9g","pricing_plan_id":"cebpf4jnsgd1na2vs0mg"},{"bike_id":"6e1c1b52-9b71-44f4-96d1-72c0e5f2c3bc","system_id":"levelo_inurba_marseille","lat":43.296361,"lon":5.406082,"is_reserved":false,"is_disabled":false,"rental_uris":{"android":"levelo://app?vid=6e1c1b52-9b71-44f4-96d1-72c0e5f2c3bc","ios":"levelo://app?vid=6e1c1b52-9b71-44f4-96d1-72c0e5f2c3bc"},"vehicle_type_id":"4","last_reported":1726758582,"current_range_meters":30400,"station_id":"ce4bh0h2rcd13ifvqd60","pricing_plan_id":"cebpf4jnsgd1na2vs0mg"},{"bike_id":"108573da-c24a-438a-b2f7-17657d029314","system_id":"levelo_inurba_marseille","lat":43.29957,"lon":5.41315,"is_reserved":false,"is_disabled":false,"rental_uris":{"android":"levelo://app?vid=108573da-c24a-438a-b2f7-17657d029314","ios":"levelo://app?vid=108573da-c24a-438a-b2f7-17657d029314"},"vehicle_type_id":"4","last_reported":1726758582,"current_range_meters":22400,"station_id":"ce4bhp12rcd13ifvqh9g","pricing_plan_id":"cebpf4jnsgd1na2vs0mg"},{"bike_id":"371721f5-c84b-4ce1-9152-1691286ac576","system_id":"levelo_inurba_marseille","lat":43.30787,"lon":5.37649,"is_reserved":false,"is_disabled":false,"rental_uris":{"android":"levelo://app?vid=371721f5-c84b-4ce1-9152-1691286ac576","ios":"levelo://app?vid=371721f5-c84b-4ce1-9152-1691286ac576"},"vehicle_type_id":"4","last_reported":1726758582,"current_range_meters":24400,"station_id":"ce4bgv92rcd13ifvqcq0","pricing_plan_id":"cebpf4jnsgd1na2vs0mg"},{"bike_id":"4af403ff-232e-437f-a15e-03f83dae4a86","system_id":"levelo_inurba_marseille","lat":43.30527,"lon":5.36523,"is_reserved":false,"is_disabled":false,"rental_uris":{"android":"levelo://app?vid=4af403ff-232e-437f-a15e-03f83dae4a86","ios":"levelo://app?vid=4af403ff-232e-437f-a15e-03f83dae4a86"},"vehicle_type_id":"4","last_reported":1726758582,"current_range_meters":24000,"station_id":"ce4bgs12rcd13ifvqcag","pricing_plan_id":"cebpf4jnsgd1na2vs0mg"},{"bike_id":"992f5934-b3dd-4e66-8d93-635b92739fdd","system_id":"levelo_inurba_marseille","lat":43.29816,"lon":5.40408,"is_reserved":false,"is_disabled":false,"rental_uris":{"android":"levelo://app?vid=992f5934-b3dd-4e66-8d93-635b92739fdd","ios":"levelo://app?vid=992f5934-b3dd-4e66-8d93-635b92739fdd"},"vehicle_type_id":"4","last_reported":1726758582,"current_range_meters":23200,"station_id":"ce4bh112rcd13ifvqd90","pricing_plan_id":"cebpf4jnsgd1na2vs0mg"},{"bike_id":"64b8db7b-e020-426b-bc67-cc08026eaa92","system_id":"levelo_inurba_marseille","lat":43.29841,"lon":5.36261,"is_reserved":false,"is_disabled":false,"rental_uris":{"android":"levelo://app?vid=64b8db7b-e020-426b-bc67-cc08026eaa92","ios":"levelo://app?vid=64b8db7b-e020-426b-bc67-cc08026eaa92"},"vehicle_type_id":"4","last_reported":1726758582,"current_range_meters":38800,"station_id":"ce4bgpp2rcd13ifvqc3g","pricing_plan_id":"cebpf4jnsgd1na2vs0mg"},{"bike_id":"eaeb40de-a389-48ed-aca5-7eb1e8029275","system_id":"levelo_inurba_marseille","lat":43.28705,"lon":5.39979,"is_reserved":false,"is_disabled":false,"rental_uris":{"android":"levelo://app?vid=eaeb40de-a389-48ed-aca5-7eb1e8029275","ios":"levelo://app?vid=eaeb40de-a389-48ed-aca5-7eb1e8029275"},"vehicle_type_id":"4","last_reported":1726758582,"current_range_meters":28000,"station_id":"ce4bho92rcd13ifvqh3g","pricing_plan_id":"cebpf4jnsgd1na2vs0mg"},{"bike_id":"beee4afc-53f8-41f2-9e6c-65e668f46cc2","system_id":"levelo_inurba_marseille","lat":43.30888,"lon":5.39642,"is_reserved":false,"is_disabled":false,"rental_uris":{"android":"levelo://app?vid=beee4afc-53f8-41f2-9e6c-65e668f46cc2","ios":"levelo://app?vid=beee4afc-53f8-41f2-9e6c-65e668f46cc2"},"vehicle_type_id":"4","last_reported":1726758582,"current_range_meters":22800,"station_id":"ce4bh012rcd13ifvqcv0","pricing_plan_id":"cebpf4jnsgd1na2vs0mg"},{"bike_id":"1f38c5e5-09a9-4ae7-8f54-ff418ef86142","system_id":"levelo_inurba_marseille","lat":43.3093,"lon":5.40148,"is_reserved":false,"is_disabled":false,"rental_uris":{"android":"levelo://app?vid=1f38c5e5-09a9-4ae7-8f54-ff418ef86142","ios":"levelo://app?vid=1f38c5e5-09a9-4ae7-8f54-ff418ef86142"},"vehicle_type_id":"4","last_reported":1726758582,"current_range_meters":38800,"station_id":"ce4bgvp2rcd13ifvqct0","pricing_plan_id":"cebpf4jnsgd1na2vs0mg"},{"bike_id":"ccb097de-b4ac-4f35-842f-36a47f706a1d","system_id":"levelo_inurba_marseille","lat":43.30936,"lon":5.40142,"is_reserved":false,"is_disabled":false,"rental_uris":{"android":"levelo://app?vid=ccb097de-b4ac-4f35-842f-36a47f706a1d","ios":"levelo://app?vid=ccb097de-b4ac-4f35-842f-36a47f706a1d"},"vehicle_type_id":"4","last_reported":1726758582,"current_range_meters":19600,"station_id":"ce4bgvp2rcd13ifvqct0","pricing_plan_id":"cebpf4jnsgd1na2vs0mg"},{"bike_id":"2bc21d36-e9c1-4ac7-aae9-a800945214f5","system_id":"levelo_inurba_marseille","lat":43.30141,"lon":5.37405,"is_reserved":false,"is_disabled":false,"rental_uris":{"android":"levelo://app?vid=2bc21d36-e9c1-4ac7-aae9-a800945214f5","ios":"levelo://app?vid=2bc21d36-e9c1-4ac7-aae9-a800945214f5"},"vehicle_type_id":"4","last_reported":1726758582,"current_range_meters":25600,"station_id":"ce4bgs92rcd13ifvqcc0","pricing_plan_id":"cebpf4jnsgd1na2vs0mg"},{"bike_id":"f6a036b3-1fa2-4383-93fb-408b0070a243","system_id":"levelo_inurba_marseille","lat":43.31224,"lon":5.36867,"is_reserved":false,"is_disabled":false,"rental_uris":{"android":"levelo://app?vid=f6a036b3-1fa2-4383-93fb-408b0070a243","ios":"levelo://app?vid=f6a036b3-1fa2-4383-93fb-408b0070a243"},"vehicle_type_id":"4","last_reported":1726758582,"current_range_meters":11200,"station_id":"ce4bgl92rcd13ifvqbq0","pricing_plan_id":"cebpf4jnsgd1na2vs0mg"},{"bike_id":"6f7464c7-3e4e-4443-b0a9-cabc2fc99d65","system_id":"levelo_inurba_marseille","lat":43.26804,"lon":5.40273,"is_reserved":false,"is_disabled":false,"rental_uris":{"android":"levelo://app?vid=6f7464c7-3e4e-4443-b0a9-cabc2fc99d65","ios":"levelo://app?vid=6f7464c7-3e4e-4443-b0a9-cabc2fc99d65"},"vehicle_type_id":"4","last_reported":1726758582,"current_range_meters":32400,"station_id":"ce501612rcd8frsf0b60","pricing_plan_id":"cebpf4jnsgd1na2vs0mg"},{"bike_id":"5ca94590-4353-43c2-a723-4c2f4940f6d1","system_id":"levelo_inurba_marseille","lat":43.30136,"lon":5.3878,"is_reserved":false,"is_disabled":false,"rental_uris":{"android":"levelo://app?vid=5ca94590-4353-43c2-a723-4c2f4940f6d1","ios":"levelo://app?vid=5ca94590-4353-43c2-a723-4c2f4940f6d1"},"vehicle_type_id":"4","last_reported":1726758582,"current_range_meters":33600,"station_id":"ce4bghh2rcd13ifvqb60","pricing_plan_id":"cebpf4jnsgd1na2vs0mg"},{"bike_id":"fca93cc1-d69f-4036-9572-1654ec6806a3","system_id":"levelo_inurba_marseille","lat":43.29526,"lon":5.38533,"is_reserved":false,"is_disabled":false,"rental_uris":{"android":"levelo://app?vid=fca93cc1-d69f-4036-9572-1654ec6806a3","ios":"levelo://app?vid=fca93cc1-d69f-4036-9572-1654ec6806a3"},"vehicle_type_id":"4","last_reported":1726758582,"current_range_meters":30800,"station_id":"ce4bgih2rcd13ifvqba0","pricing_plan_id":"cebpf4jnsgd1na2vs0mg"},{"bike_id":"05870746-cfa0-4a67-9dda-26f6e3272252","system_id":"levelo_inurba_marseille","lat":43.28441,"lon":5.39196,"is_reserved":false,"is_disabled":false,"rental_uris":{"android":"levelo://app?vid=05870746-cfa0-4a67-9dda-26f6e3272252","ios":"levelo://app?vid=05870746-cfa0-4a67-9dda-26f6e3272252"},"vehicle_type_id":"4","last_reported":1726758582,"current_range_meters":18800,"station_id":"ce4bhoh2rcd13ifvqh5g","pricing_plan_id":"cebpf4jnsgd1na2vs0mg"},{"bike_id":"e91e1ccf-44cb-429d-b7ac-34182311bde0","system_id":"levelo_inurba_marseille","lat":43.29537,"lon":5.37504,"is_reserved":false,"is_disabled":false,"rental_uris":{"android":"levelo://app?vid=e91e1ccf-44cb-429d-b7ac-34182311bde0","ios":"levelo://app?vid=e91e1ccf-44cb-429d-b7ac-34182311bde0"},"vehicle_type_id":"4","last_reported":1726758582,"current_range_meters":16400,"station_id":"ce4bgkp2rcd13ifvqbmg","pricing_plan_id":"cebpf4jnsgd1na2vs0mg"},{"bike_id":"3ddc290e-5a67-453f-a356-251b8cb031fe","system_id":"levelo_inurba_marseille","lat":43.32487,"lon":5.36565,"is_reserved":false,"is_disabled":false,"rental_uris":{"android":"levelo://app?vid=3ddc290e-5a67-453f-a356-251b8cb031fe","ios":"levelo://app?vid=3ddc290e-5a67-453f-a356-251b8cb031fe"},"vehicle_type_id":"4","last_reported":1726758582,"current_range_meters":5600,"station_id":"ce4bhs12rcd13ifvqhvg","pricing_plan_id":"cebpf4jnsgd1na2vs0mg"},{"bike_id":"04394a73-34a5-4d88-bac1-80c0695aafe5","system_id":"levelo_inurba_marseille","lat":43.337444,"lon":5.374475,"is_reserved":false,"is_disabled":false,"rental_uris":{"android":"levelo://app?vid=04394a73-34a5-4d88-bac1-80c0695aafe5","ios":"levelo://app?vid=04394a73-34a5-4d88-bac1-80c0695aafe5"},"vehicle_type_id":"4","last_reported":1726758582,"current_range_meters":24000,"station_id":"","pricing_plan_id":"cebpf4jnsgd1na2vs0mg"},{"bike_id":"d34e9410-738d-4495-be3c-d6a3f7391f8f","system_id":"levelo_inurba_marseille","lat":43.23057,"lon":5.35491,"is_reserved":false,"is_disabled":false,"rental_uris":{"android":"levelo://app?vid=d34e9410-738d-4495-be3c-d6a3f7391f8f","ios":"levelo://app?vid=d34e9410-738d-4495-be3c-d6a3f7391f8f"},"vehicle_type_id":"4","last_reported":1726758582,"current_range_meters":16800,"station_id":"cpo3342slgdg3j2ifvpg","pricing_plan_id":"cebpf4jnsgd1na2vs0mg"},{"bike_id":"036ab25f-0c34-4c45-8e88-1fc9200da6fd","system_id":"levelo_inurba_marseille","lat":43.27174,"lon":5.42703,"is_reserved":false,"is_disabled":false,"rental_uris":{"android":"levelo://app?vid=036ab25f-0c34-4c45-8e88-1fc9200da6fd","ios":"levelo://app?vid=036ab25f-0c34-4c45-8e88-1fc9200da6fd"},"vehicle_type_id":"4","last_reported":1726758582,"current_range_meters":29600,"station_id":"","pricing_plan_id":"cebpf4jnsgd1na2vs0mg"},{"bike_id":"a8b7ebce-212d-47d0-a60c-376fb45c8df4","system_id":"levelo_inurba_marseille","lat":43.30547,"lon":5.36537,"is_reserved":false,"is_disabled":false,"rental_uris":{"android":"levelo://app?vid=a8b7ebce-212d-47d0-a60c-376fb45c8df4","ios":"levelo://app?vid=a8b7ebce-212d-47d0-a60c-376fb45c8df4"},"vehicle_type_id":"4","last_reported":1726758582,"current_range_meters":14400,"station_id":"ce4bgs12rcd13ifvqcag","pricing_plan_id":"cebpf4jnsgd1na2vs0mg"},{"bike_id":"298ac1dc-024a-45f9-bee5-67e6e0d001f8","system_id":"levelo_inurba_marseille","lat":43.32293,"lon":5.38259,"is_reserved":false,"is_disabled":false,"rental_uris":{"android":"levelo://app?vid=298ac1dc-024a-45f9-bee5-67e6e0d001f8","ios":"levelo://app?vid=298ac1dc-024a-45f9-bee5-67e6e0d001f8"},"vehicle_type_id":"4","last_reported":1726758582,"current_range_meters":32400,"station_id":"ce4bhr12rcd13ifvqhqg","pricing_plan_id":"cebpf4jnsgd1na2vs0mg"},{"bike_id":"e459f2eb-7488-4ddd-92aa-1c7e3d71b225","system_id":"levelo_inurba_marseille","lat":43.28469,"lon":5.35885,"is_reserved":false,"is_disabled":false,"rental_uris":{"android":"levelo://app?vid=e459f2eb-7488-4ddd-92aa-1c7e3d71b225","ios":"levelo://app?vid=e459f2eb-7488-4ddd-92aa-1c7e3d71b225"},"vehicle_type_id":"4","last_reported":1726758582,"current_range_meters":16000,"station_id":"ce4bhah2rcd13ifvqei0","pricing_plan_id":"cebpf4jnsgd1na2vs0mg"},{"bike_id":"aa4b1a9c-75a6-4f1c-b96d-303cd8b269bf","system_id":"levelo_inurba_marseille","lat":43.29572,"lon":5.39956,"is_reserved":false,"is_disabled":false,"rental_uris":{"android":"levelo://app?vid=aa4b1a9c-75a6-4f1c-b96d-303cd8b269bf","ios":"levelo://app?vid=aa4b1a9c-75a6-4f1c-b96d-303cd8b269bf"},"vehicle_type_id":"4","last_reported":1726758582,"current_range_meters":16800,"station_id":"ce4bh312rcd13ifvqdj0","pricing_plan_id":"cebpf4jnsgd1na2vs0mg"},{"bike_id":"f8b73d7c-0166-4a62-8c52-ef0f80e400dd","system_id":"levelo_inurba_marseille","lat":43.31362,"lon":5.36701,"is_reserved":false,"is_disabled":false,"rental_uris":{"android":"levelo://app?vid=f8b73d7c-0166-4a62-8c52-ef0f80e400dd","ios":"levelo://app?vid=f8b73d7c-0166-4a62-8c52-ef0f80e400dd"},"vehicle_type_id":"4","last_reported":1726758582,"current_range_meters":28400,"station_id":"ce4bgr92rcd13ifvqc6g","pricing_plan_id":"cebpf4jnsgd1na2vs0mg"},{"bike_id":"8b4f895d-709c-454c-af27-eba36ce3b55d","system_id":"levelo_inurba_marseille","lat":43.29964,"lon":5.38494,"is_reserved":false,"is_disabled":false,"rental_uris":{"android":"levelo://app?vid=8b4f895d-709c-454c-af27-eba36ce3b55d","ios":"levelo://app?vid=8b4f895d-709c-454c-af27-eba36ce3b55d"},"vehicle_type_id":"4","last_reported":1726758582,"current_range_meters":38800,"station_id":"ce4bgj92rcd13ifvqbd0","pricing_plan_id":"cebpf4jnsgd1na2vs0mg"},{"bike_id":"b66de52d-4254-4409-b14d-ea04c76cb1c6","system_id":"levelo_inurba_marseille","lat":43.29705,"lon":5.36601,"is_reserved":false,"is_disabled":false,"rental_uris":{"android":"levelo://app?vid=b66de52d-4254-4409-b14d-ea04c76cb1c6","ios":"levelo://app?vid=b66de52d-4254-4409-b14d-ea04c76cb1c6"},"vehicle_type_id":"4","last_reported":1726758582,"current_range_meters":39200,"station_id":"ce4bgn12rcd13ifvqbt0","pricing_plan_id":"cebpf4jnsgd1na2vs0mg"},{"bike_id":"e9a0caef-aeb1-49b5-b70f-05bef312b586","system_id":"levelo_inurba_marseille","lat":43.32097,"lon":5.36771,"is_reserved":false,"is_disabled":false,"rental_uris":{"android":"levelo://app?vid=e9a0caef-aeb1-49b5-b70f-05bef312b586","ios":"levelo://app?vid=e9a0caef-aeb1-49b5-b70f-05bef312b586"},"vehicle_type_id":"4","last_reported":1726758582,"current_range_meters":20000,"station_id":"","pricing_plan_id":"cebpf4jnsgd1na2vs0mg"},{"bike_id":"bcec9f11-f5af-4ea0-a594-ed228c060279","system_id":"levelo_inurba_marseille","lat":43.31077,"lon":5.38353,"is_reserved":false,"is_disabled":false,"rental_uris":{"android":"levelo://app?vid=bcec9f11-f5af-4ea0-a594-ed228c060279","ios":"levelo://app?vid=bcec9f11-f5af-4ea0-a594-ed228c060279"},"vehicle_type_id":"4","last_reported":1726758582,"current_range_meters":19200,"station_id":"ce4bgv92rcd13ifvqcr0","pricing_plan_id":"cebpf4jnsgd1na2vs0mg"},{"bike_id":"cedfa32f-d763-4d88-b956-7cf5dade646b","system_id":"levelo_inurba_marseille","lat":43.31169,"lon":5.38724,"is_reserved":false,"is_disabled":false,"rental_uris":{"android":"levelo://app?vid=cedfa32f-d763-4d88-b956-7cf5dade646b","ios":"levelo://app?vid=cedfa32f-d763-4d88-b956-7cf5dade646b"},"vehicle_type_id":"4","last_reported":1726758582,"current_range_meters":30800,"station_id":"ce4bgv12rcd13ifvqcp0","pricing_plan_id":"cebpf4jnsgd1na2vs0mg"},{"bike_id":"970a3606-dfc3-4112-9853-bf5590805399","system_id":"levelo_inurba_marseille","lat":43.294434,"lon":5.397492,"is_reserved":false,"is_disabled":false,"rental_uris":{"android":"levelo://app?vid=970a3606-dfc3-4112-9853-bf5590805399","ios":"levelo://app?vid=970a3606-dfc3-4112-9853-bf5590805399"},"vehicle_type_id":"4","last_reported":1726758582,"current_range_meters":18800,"station_id":"ce4bh3h2rcd13ifvqdo0","pricing_plan_id":"cebpf4jnsgd1na2vs0mg"},{"bike_id":"4f42d43e-c75b-4fc4-873a-0a4d26d10804","system_id":"levelo_inurba_marseille","lat":43.31716,"lon":5.43713,"is_reserved":false,"is_disabled":false,"rental_uris":{"android":"levelo://app?vid=4f42d43e-c75b-4fc4-873a-0a4d26d10804","ios":"levelo://app?vid=4f42d43e-c75b-4fc4-873a-0a4d26d10804"},"vehicle_type_id":"4","last_reported":1726758582,"current_range_meters":36400,"station_id":"ce4bhp92rcd13ifvqhcg","pricing_plan_id":"cebpf4jnsgd1na2vs0mg"},{"bike_id":"2b67caa3-7267-414b-867b-e9cc4161cb69","system_id":"levelo_inurba_marseille","lat":43.29043,"lon":5.35923,"is_reserved":false,"is_disabled":false,"rental_uris":{"android":"levelo://app?vid=2b67caa3-7267-414b-867b-e9cc4161cb69","ios":"levelo://app?vid=2b67caa3-7267-414b-867b-e9cc4161cb69"},"vehicle_type_id":"4","last_reported":1726758582,"current_range_meters":36000,"station_id":"ce4bha92rcd13ifvqeg0","pricing_plan_id":"cebpf4jnsgd1na2vs0mg"},{"bike_id":"5326ae8e-2f35-4b98-baa5-5056825ee5b7","system_id":"levelo_inurba_marseille","lat":43.27052,"lon":5.40257,"is_reserved":false,"is_disabled":false,"rental_uris":{"android":"levelo://app?vid=5326ae8e-2f35-4b98-baa5-5056825ee5b7","ios":"levelo://app?vid=5326ae8e-2f35-4b98-baa5-5056825ee5b7"},"vehicle_type_id":"4","last_reported":1726758582,"current_range_meters":5600,"station_id":"ce4bhk92rcd13ifvqgc0","pricing_plan_id":"cebpf4jnsgd1na2vs0mg"},{"bike_id":"5752b5f5-cd15-4ee3-b2da-d6f99f214ba4","system_id":"levelo_inurba_marseille","lat":43.25112,"lon":5.40323,"is_reserved":false,"is_disabled":false,"rental_uris":{"android":"levelo://app?vid=5752b5f5-cd15-4ee3-b2da-d6f99f214ba4","ios":"levelo://app?vid=5752b5f5-cd15-4ee3-b2da-d6f99f214ba4"},"vehicle_type_id":"4","last_reported":1726758582,"current_range_meters":25200,"station_id":"ce4bhlh2rcd13ifvqgig","pricing_plan_id":"cebpf4jnsgd1na2vs0mg"},{"bike_id":"b196a0a7-c491-44fa-ae00-2d4de531c481","system_id":"levelo_inurba_marseille","lat":43.26499,"lon":5.39537,"is_reserved":false,"is_disabled":false,"rental_uris":{"android":"levelo://app?vid=b196a0a7-c491-44fa-ae00-2d4de531c481","ios":"levelo://app?vid=b196a0a7-c491-44fa-ae00-2d4de531c481"},"vehicle_type_id":"4","last_reported":1726758582,"current_range_meters":28800,"station_id":"ce4bhi12rcd13ifvqfq0","pricing_plan_id":"cebpf4jnsgd1na2vs0mg"},{"bike_id":"1d5b1bdc-6dca-4a31-a66b-8f0ad41b0aa1","system_id":"levelo_inurba_marseille","lat":43.24668,"lon":5.3816,"is_reserved":false,"is_disabled":false,"rental_uris":{"android":"levelo://app?vid=1d5b1bdc-6dca-4a31-a66b-8f0ad41b0aa1","ios":"levelo://app?vid=1d5b1bdc-6dca-4a31-a66b-8f0ad41b0aa1"},"vehicle_type_id":"4","last_reported":1726758582,"current_range_meters":30000,"station_id":"ce4bhih2rcd13ifvqfr0","pricing_plan_id":"cebpf4jnsgd1na2vs0mg"},{"bike_id":"43356356-1ebf-41d4-a9de-4fa2973940ef","system_id":"levelo_inurba_marseille","lat":43.29963,"lon":5.41329,"is_reserved":false,"is_disabled":false,"rental_uris":{"android":"levelo://app?vid=43356356-1ebf-41d4-a9de-4fa2973940ef","ios":"levelo://app?vid=43356356-1ebf-41d4-a9de-4fa2973940ef"},"vehicle_type_id":"4","last_reported":1726758582,"current_range_meters":36400,"station_id":"ce4bhp12rcd13ifvqh9g","pricing_plan_id":"cebpf4jnsgd1na2vs0mg"},{"bike_id":"a0ea4c20-eeae-4054-a4b5-699b69c4c176","system_id":"levelo_inurba_marseille","lat":43.29557,"lon":5.42282,"is_reserved":false,"is_disabled":false,"rental_uris":{"android":"levelo://app?vid=a0ea4c20-eeae-4054-a4b5-699b69c4c176","ios":"levelo://app?vid=a0ea4c20-eeae-4054-a4b5-699b69c4c176"},"vehicle_type_id":"4","last_reported":1726758582,"current_range_meters":12800,"station_id":"ce4bhph2rcd13ifvqhdg","pricing_plan_id":"cebpf4jnsgd1na2vs0mg"},{"bike_id":"956af1a1-7cce-470f-a0a3-d676b0c09ad6","system_id":"levelo_inurba_marseille","lat":43.28572,"lon":5.39494,"is_reserved":false,"is_disabled":false,"rental_uris":{"android":"levelo://app?vid=956af1a1-7cce-470f-a0a3-d676b0c09ad6","ios":"levelo://app?vid=956af1a1-7cce-470f-a0a3-d676b0c09ad6"},"vehicle_type_id":"4","last_reported":1726758582,"current_range_meters":35600,"station_id":"ce4bh292rcd13ifvqdg0","pricing_plan_id":"cebpf4jnsgd1na2vs0mg"},{"bike_id":"edf171b0-2d54-409d-a330-4dcc2b4c165d","system_id":"levelo_inurba_marseille","lat":43.30798,"lon":5.43519,"is_reserved":false,"is_disabled":false,"rental_uris":{"android":"levelo://app?vid=edf171b0-2d54-409d-a330-4dcc2b4c165d","ios":"levelo://app?vid=edf171b0-2d54-409d-a330-4dcc2b4c165d"},"vehicle_type_id":"4","last_reported":1726758582,"current_range_meters":21600,"station_id":"ce4bhph2rcd13ifvqheg","pricing_plan_id":"cebpf4jnsgd1na2vs0mg"},{"bike_id":"f739118e-477b-47ff-a17e-a772748c0615","system_id":"levelo_inurba_marseille","lat":43.276642,"lon":5.38894,"is_reserved":false,"is_disabled":false,"rental_uris":{"android":"levelo://app?vid=f739118e-477b-47ff-a17e-a772748c0615","ios":"levelo://app?vid=f739118e-477b-47ff-a17e-a772748c0615"},"vehicle_type_id":"4","last_reported":1726758582,"current_range_meters":9600,"station_id":"ce4bhah2rcd13ifvqej0","pricing_plan_id":"cebpf4jnsgd1na2vs0mg"},{"bike_id":"1e58a787-48d1-4212-9b23-eccc70dd2da1","system_id":"levelo_inurba_marseille","lat":43.27174,"lon":5.40996,"is_reserved":false,"is_disabled":false,"rental_uris":{"android":"levelo://app?vid=1e58a787-48d1-4212-9b23-eccc70dd2da1","ios":"levelo://app?vid=1e58a787-48d1-4212-9b23-eccc70dd2da1"},"vehicle_type_id":"4","last_reported":1726758582,"current_range_meters":37600,"station_id":"ce4bhl12rcd13ifvqgf0","pricing_plan_id":"cebpf4jnsgd1na2vs0mg"},{"bike_id":"33297716-1762-49eb-9332-0e5fc371d980","system_id":"levelo_inurba_marseille","lat":43.290398,"lon":5.375558,"is_reserved":false,"is_disabled":false,"rental_uris":{"android":"levelo://app?vid=33297716-1762-49eb-9332-0e5fc371d980","ios":"levelo://app?vid=33297716-1762-49eb-9332-0e5fc371d980"},"vehicle_type_id":"4","last_reported":1726758582,"current_range_meters":14000,"station_id":"ce4bh692rcd13ifvqe90","pricing_plan_id":"cebpf4jnsgd1na2vs0mg"},{"bike_id":"99a7dc90-2d6f-44d5-8363-3b98e8384430","system_id":"levelo_inurba_marseille","lat":43.26559,"lon":5.37283,"is_reserved":false,"is_disabled":false,"rental_uris":{"android":"levelo://app?vid=99a7dc90-2d6f-44d5-8363-3b98e8384430","ios":"levelo://app?vid=99a7dc90-2d6f-44d5-8363-3b98e8384430"},"vehicle_type_id":"4","last_reported":1726758582,"current_range_meters":20800,"station_id":"ce4bhg12rcd13ifvqf70","pricing_plan_id":"cebpf4jnsgd1na2vs0mg"},{"bike_id":"3c1e2fe8-50b9-4d89-acfa-881e0423911f","system_id":"levelo_inurba_marseille","lat":43.32055,"lon":5.41562,"is_reserved":false,"is_disabled":false,"rental_uris":{"android":"levelo://app?vid=3c1e2fe8-50b9-4d89-acfa-881e0423911f","ios":"levelo://app?vid=3c1e2fe8-50b9-4d89-acfa-881e0423911f"},"vehicle_type_id":"4","last_reported":1726758582,"current_range_meters":17200,"station_id":"ce4bhq92rcd13ifvqhkg","pricing_plan_id":"cebpf4jnsgd1na2vs0mg"},{"bike_id":"9a5c2289-3f01-4be7-ac79-490dd3e2c2dd","system_id":"levelo_inurba_marseille","lat":43.25875,"lon":5.39892,"is_reserved":false,"is_disabled":false,"rental_uris":{"android":"levelo://app?vid=9a5c2289-3f01-4be7-ac79-490dd3e2c2dd","ios":"levelo://app?vid=9a5c2289-3f01-4be7-ac79-490dd3e2c2dd"},"vehicle_type_id":"4","last_reported":1726758582,"current_range_meters":17200,"station_id":"ce4bhl92rcd13ifvqghg","pricing_plan_id":"cebpf4jnsgd1na2vs0mg"},{"bike_id":"cb445fcc-998d-4732-8027-424ccd974d3c","system_id":"levelo_inurba_marseille","lat":43.29904,"lon":5.38141,"is_reserved":false,"is_disabled":false,"rental_uris":{"android":"levelo://app?vid=cb445fcc-998d-4732-8027-424ccd974d3c","ios":"levelo://app?vid=cb445fcc-998d-4732-8027-424ccd974d3c"},"vehicle_type_id":"4","last_reported":1726758582,"current_range_meters":23200,"station_id":"ce4bgj12rcd13ifvqbc0","pricing_plan_id":"cebpf4jnsgd1na2vs0mg"},{"bike_id":"c58a09e0-e27d-474f-b410-f612c6647346","system_id":"levelo_inurba_marseille","lat":43.30554,"lon":5.36699,"is_reserved":false,"is_disabled":false,"rental_uris":{"android":"levelo://app?vid=c58a09e0-e27d-474f-b410-f612c6647346","ios":"levelo://app?vid=c58a09e0-e27d-474f-b410-f612c6647346"},"vehicle_type_id":"4","last_reported":1726758582,"current_range_meters":27200,"station_id":"ce4bgrp2rcd13ifvqc9g","pricing_plan_id":"cebpf4jnsgd1na2vs0mg"},{"bike_id":"e5bdffd7-fc91-42cf-a288-27f8e8f46385","system_id":"levelo_inurba_marseille","lat":43.2827,"lon":5.35068,"is_reserved":false,"is_disabled":false,"rental_uris":{"android":"levelo://app?vid=e5bdffd7-fc91-42cf-a288-27f8e8f46385","ios":"levelo://app?vid=e5bdffd7-fc91-42cf-a288-27f8e8f46385"},"vehicle_type_id":"4","last_reported":1726758582,"current_range_meters":27600,"station_id":"ce4bhbp2rcd13ifvqerg","pricing_plan_id":"cebpf4jnsgd1na2vs0mg"},{"bike_id":"283c4eb3-d030-4754-b69c-979f606b70e9","system_id":"levelo_inurba_marseille","lat":43.287018,"lon":5.373702,"is_reserved":false,"is_disabled":false,"rental_uris":{"android":"levelo://app?vid=283c4eb3-d030-4754-b69c-979f606b70e9","ios":"levelo://app?vid=283c4eb3-d030-4754-b69c-979f606b70e9"},"vehicle_type_id":"4","last_reported":1726758582,"current_range_meters":24000,"station_id":"ce4bh3p2rcd13ifvqdq0","pricing_plan_id":"cebpf4jnsgd1na2vs0mg"},{"bike_id":"a01a4a21-dbb1-4a02-b900-30af3a75c27a","system_id":"levelo_inurba_marseille","lat":43.24652,"lon":5.38893,"is_reserved":false,"is_disabled":false,"rental_uris":{"android":"levelo://app?vid=a01a4a21-dbb1-4a02-b900-30af3a75c27a","ios":"levelo://app?vid=a01a4a21-dbb1-4a02-b900-30af3a75c27a"},"vehicle_type_id":"4","last_reported":1726758582,"current_range_meters":8400,"station_id":"ce4bhg12rcd13ifvqf60","pricing_plan_id":"cebpf4jnsgd1na2vs0mg"},{"bike_id":"a98ac186-b378-4aea-88f9-0361333d19ad","system_id":"levelo_inurba_marseille","lat":43.31237,"lon":5.36855,"is_reserved":false,"is_disabled":false,"rental_uris":{"android":"levelo://app?vid=a98ac186-b378-4aea-88f9-0361333d19ad","ios":"levelo://app?vid=a98ac186-b378-4aea-88f9-0361333d19ad"},"vehicle_type_id":"4","last_reported":1726758582,"current_range_meters":14400,"station_id":"ce4bgl92rcd13ifvqbq0","pricing_plan_id":"cebpf4jnsgd1na2vs0mg"},{"bike_id":"e669bd6c-abbe-4921-ba26-9fc661d40bbb","system_id":"levelo_inurba_marseille","lat":43.30544,"lon":5.36532,"is_reserved":false,"is_disabled":false,"rental_uris":{"android":"levelo://app?vid=e669bd6c-abbe-4921-ba26-9fc661d40bbb","ios":"levelo://app?vid=e669bd6c-abbe-4921-ba26-9fc661d40bbb"},"vehicle_type_id":"4","last_reported":1726758582,"current_range_meters":35200,"station_id":"ce4bgs12rcd13ifvqcag","pricing_plan_id":"cebpf4jnsgd1na2vs0mg"},{"bike_id":"78189870-b114-4146-b75a-b46bf65a6561","system_id":"levelo_inurba_marseille","lat":43.27368,"lon":5.36247,"is_reserved":false,"is_disabled":false,"rental_uris":{"android":"levelo://app?vid=78189870-b114-4146-b75a-b46bf65a6561","ios":"levelo://app?vid=78189870-b114-4146-b75a-b46bf65a6561"},"vehicle_type_id":"4","last_reported":1726758582,"current_range_meters":26800,"station_id":"ce4bhbh2rcd13ifvqeo0","pricing_plan_id":"cebpf4jnsgd1na2vs0mg"},{"bike_id":"525a2090-426e-4554-bf90-1b99bee087bc","system_id":"levelo_inurba_marseille","lat":43.27494,"lon":5.42452,"is_reserved":false,"is_disabled":false,"rental_uris":{"android":"levelo://app?vid=525a2090-426e-4554-bf90-1b99bee087bc","ios":"levelo://app?vid=525a2090-426e-4554-bf90-1b99bee087bc"},"vehicle_type_id":"4","last_reported":1726758582,"current_range_meters":28000,"station_id":"ce4bhn92rcd13ifvqgrg","pricing_plan_id":"cebpf4jnsgd1na2vs0mg"},{"bike_id":"f2fb56ea-037c-4ad8-8f8c-ad6c611f3003","system_id":"levelo_inurba_marseille","lat":43.3154,"lon":5.3803,"is_reserved":false,"is_disabled":false,"rental_uris":{"android":"levelo://app?vid=f2fb56ea-037c-4ad8-8f8c-ad6c611f3003","ios":"levelo://app?vid=f2fb56ea-037c-4ad8-8f8c-ad6c611f3003"},"vehicle_type_id":"4","last_reported":1726758582,"current_range_meters":27600,"station_id":"ce4bhsp2rcd13ifvqi50","pricing_plan_id":"cebpf4jnsgd1na2vs0mg"},{"bike_id":"d66839c5-9035-44bd-844e-0f44dadbb1c7","system_id":"levelo_inurba_marseille","lat":43.27676,"lon":5.38874,"is_reserved":false,"is_disabled":false,"rental_uris":{"android":"levelo://app?vid=d66839c5-9035-44bd-844e-0f44dadbb1c7","ios":"levelo://app?vid=d66839c5-9035-44bd-844e-0f44dadbb1c7"},"vehicle_type_id":"4","last_reported":1726758582,"current_range_meters":24400,"station_id":"ce4bhh92rcd13ifvqfj0","pricing_plan_id":"cebpf4jnsgd1na2vs0mg"},{"bike_id":"d06d9c61-4e22-4f53-84aa-8d04a75b567d","system_id":"levelo_inurba_marseille","lat":43.30555,"lon":5.36707,"is_reserved":false,"is_disabled":false,"rental_uris":{"android":"levelo://app?vid=d06d9c61-4e22-4f53-84aa-8d04a75b567d","ios":"levelo://app?vid=d06d9c61-4e22-4f53-84aa-8d04a75b567d"},"vehicle_type_id":"4","last_reported":1726758582,"current_range_meters":36000,"station_id":"ce4bgrp2rcd13ifvqc9g","pricing_plan_id":"cebpf4jnsgd1na2vs0mg"},{"bike_id":"fb24808e-3cb1-4168-bff7-af5400702ebb","system_id":"levelo_inurba_marseille","lat":43.27613,"lon":5.36115,"is_reserved":false,"is_disabled":false,"rental_uris":{"android":"levelo://app?vid=fb24808e-3cb1-4168-bff7-af5400702ebb","ios":"levelo://app?vid=fb24808e-3cb1-4168-bff7-af5400702ebb"},"vehicle_type_id":"4","last_reported":1726758582,"current_range_meters":38000,"station_id":"ce4bgj92rcd13ifvqbe0","pricing_plan_id":"cebpf4jnsgd1na2vs0mg"},{"bike_id":"c32dc568-f10c-4010-ad55-d5f360cf461f","system_id":"levelo_inurba_marseille","lat":43.30541,"lon":5.36539,"is_reserved":false,"is_disabled":false,"rental_uris":{"android":"levelo://app?vid=c32dc568-f10c-4010-ad55-d5f360cf461f","ios":"levelo://app?vid=c32dc568-f10c-4010-ad55-d5f360cf461f"},"vehicle_type_id":"4","last_reported":1726758582,"current_range_meters":38400,"station_id":"ce4bgs12rcd13ifvqcag","pricing_plan_id":"cebpf4jnsgd1na2vs0mg"},{"bike_id":"aaeae615-2194-47c5-84e0-363507d6e824","system_id":"levelo_inurba_marseille","lat":43.32289,"lon":5.38267,"is_reserved":false,"is_disabled":false,"rental_uris":{"android":"levelo://app?vid=aaeae615-2194-47c5-84e0-363507d6e824","ios":"levelo://app?vid=aaeae615-2194-47c5-84e0-363507d6e824"},"vehicle_type_id":"4","last_reported":1726758582,"current_range_meters":24400,"station_id":"ce4bhr12rcd13ifvqhqg","pricing_plan_id":"cebpf4jnsgd1na2vs0mg"},{"bike_id":"73f058f6-4a1a-407a-9137-aa0018967656","system_id":"levelo_inurba_marseille","lat":43.24807,"lon":5.37455,"is_reserved":false,"is_disabled":false,"rental_uris":{"android":"levelo://app?vid=73f058f6-4a1a-407a-9137-aa0018967656","ios":"levelo://app?vid=73f058f6-4a1a-407a-9137-aa0018967656"},"vehicle_type_id":"4","last_reported":1726758582,"current_range_meters":8400,"station_id":"ce4bhgh2rcd13ifvqfb0","pricing_plan_id":"cebpf4jnsgd1na2vs0mg"},{"bike_id":"498149d4-acab-4fc8-b3b3-bda0da3e2eab","system_id":"levelo_inurba_marseille","lat":43.31763,"lon":5.39011,"is_reserved":false,"is_disabled":false,"rental_uris":{"android":"levelo://app?vid=498149d4-acab-4fc8-b3b3-bda0da3e2eab","ios":"levelo://app?vid=498149d4-acab-4fc8-b3b3-bda0da3e2eab"},"vehicle_type_id":"4","last_reported":1726758582,"current_range_meters":7200,"station_id":"ce4bhqp2rcd13ifvqhng","pricing_plan_id":"cebpf4jnsgd1na2vs0mg"},{"bike_id":"9be94feb-a495-4651-8693-da9a946157ae","system_id":"levelo_inurba_marseille","lat":43.25008,"lon":5.38919,"is_reserved":false,"is_disabled":false,"rental_uris":{"android":"levelo://app?vid=9be94feb-a495-4651-8693-da9a946157ae","ios":"levelo://app?vid=9be94feb-a495-4651-8693-da9a946157ae"},"vehicle_type_id":"4","last_reported":1726758582,"current_range_meters":14400,"station_id":"ce4bhgp2rcd13ifvqfd0","pricing_plan_id":"cebpf4jnsgd1na2vs0mg"},{"bike_id":"5853071a-a7de-43ad-87c8-982495d79fa0","system_id":"levelo_inurba_marseille","lat":43.25009,"lon":5.38916,"is_reserved":false,"is_disabled":false,"rental_uris":{"android":"levelo://app?vid=5853071a-a7de-43ad-87c8-982495d79fa0","ios":"levelo://app?vid=5853071a-a7de-43ad-87c8-982495d79fa0"},"vehicle_type_id":"4","last_reported":1726758582,"current_range_meters":34000,"station_id":"ce4bhgp2rcd13ifvqfd0","pricing_plan_id":"cebpf4jnsgd1na2vs0mg"},{"bike_id":"9b4a4749-10a4-40b9-9935-90a919cd5fdc","system_id":"levelo_inurba_marseille","lat":43.26211,"lon":5.37441,"is_reserved":false,"is_disabled":false,"rental_uris":{"android":"levelo://app?vid=9b4a4749-10a4-40b9-9935-90a919cd5fdc","ios":"levelo://app?vid=9b4a4749-10a4-40b9-9935-90a919cd5fdc"},"vehicle_type_id":"4","last_reported":1726758582,"current_range_meters":36000,"station_id":"ce4bhgp2rcd13ifvqfc0","pricing_plan_id":"cebpf4jnsgd1na2vs0mg"},{"bike_id":"3630ae71-48f9-4d81-afca-e56c21e7f268","system_id":"levelo_inurba_marseille","lat":43.31485,"lon":5.37307,"is_reserved":false,"is_disabled":false,"rental_uris":{"android":"levelo://app?vid=3630ae71-48f9-4d81-afca-e56c21e7f268","ios":"levelo://app?vid=3630ae71-48f9-4d81-afca-e56c21e7f268"},"vehicle_type_id":"4","last_reported":1726758582,"current_range_meters":36400,"station_id":"ce4bgt12rcd13ifvqcd0","pricing_plan_id":"cebpf4jnsgd1na2vs0mg"},{"bike_id":"1ea07208-1563-4fe1-a21a-971832852df4","system_id":"levelo_inurba_marseille","lat":43.33028,"lon":5.39046,"is_reserved":false,"is_disabled":false,"rental_uris":{"android":"levelo://app?vid=1ea07208-1563-4fe1-a21a-971832852df4","ios":"levelo://app?vid=1ea07208-1563-4fe1-a21a-971832852df4"},"vehicle_type_id":"4","last_reported":1726758582,"current_range_meters":28800,"station_id":"ce4bhr92rcd13ifvqhrg","pricing_plan_id":"cebpf4jnsgd1na2vs0mg"},{"bike_id":"31e454cb-9d59-4375-ab64-1fbf39c22a43","system_id":"levelo_inurba_marseille","lat":43.28462,"lon":5.35881,"is_reserved":false,"is_disabled":false,"rental_uris":{"android":"levelo://app?vid=31e454cb-9d59-4375-ab64-1fbf39c22a43","ios":"levelo://app?vid=31e454cb-9d59-4375-ab64-1fbf39c22a43"},"vehicle_type_id":"4","last_reported":1726758582,"current_range_meters":26000,"station_id":"ce4bhah2rcd13ifvqei0","pricing_plan_id":"cebpf4jnsgd1na2vs0mg"},{"bike_id":"ec31023c-8c18-4f34-b01d-3a3f1445f8e2","system_id":"levelo_inurba_marseille","lat":43.28075,"lon":5.39656,"is_reserved":false,"is_disabled":false,"rental_uris":{"android":"levelo://app?vid=ec31023c-8c18-4f34-b01d-3a3f1445f8e2","ios":"levelo://app?vid=ec31023c-8c18-4f34-b01d-3a3f1445f8e2"},"vehicle_type_id":"4","last_reported":1726758582,"current_range_meters":11200,"station_id":"ce4bho12rcd13ifvqh2g","pricing_plan_id":"cebpf4jnsgd1na2vs0mg"},{"bike_id":"d7d8a090-dc98-47a6-877a-f3b0c39133e4","system_id":"levelo_inurba_marseille","lat":43.230682,"lon":5.354909,"is_reserved":false,"is_disabled":false,"rental_uris":{"android":"levelo://app?vid=d7d8a090-dc98-47a6-877a-f3b0c39133e4","ios":"levelo://app?vid=d7d8a090-dc98-47a6-877a-f3b0c39133e4"},"vehicle_type_id":"4","last_reported":1726758582,"current_range_meters":20000,"station_id":"cpo3342slgdg3j2ifvpg","pricing_plan_id":"cebpf4jnsgd1na2vs0mg"},{"bike_id":"1d3b47bd-fee8-492b-9454-cfd096b53b68","system_id":"levelo_inurba_marseille","lat":43.30532,"lon":5.3653,"is_reserved":false,"is_disabled":false,"rental_uris":{"android":"levelo://app?vid=1d3b47bd-fee8-492b-9454-cfd096b53b68","ios":"levelo://app?vid=1d3b47bd-fee8-492b-9454-cfd096b53b68"},"vehicle_type_id":"4","last_reported":1726758582,"current_range_meters":32400,"station_id":"ce4bgs12rcd13ifvqcag","pricing_plan_id":"cebpf4jnsgd1na2vs0mg"},{"bike_id":"92706b24-1d9c-413f-a3c6-1aeb8dcbf369","system_id":"levelo_inurba_marseille","lat":43.2621,"lon":5.37931,"is_reserved":false,"is_disabled":false,"rental_uris":{"android":"levelo://app?vid=92706b24-1d9c-413f-a3c6-1aeb8dcbf369","ios":"levelo://app?vid=92706b24-1d9c-413f-a3c6-1aeb8dcbf369"},"vehicle_type_id":"4","last_reported":1726758582,"current_range_meters":34000,"station_id":"ce4bhjp2rcd13ifvqg90","pricing_plan_id":"cebpf4jnsgd1na2vs0mg"},{"bike_id":"442cf40b-ee6a-43db-bf0b-1d4f16339a98","system_id":"levelo_inurba_marseille","lat":43.23185,"lon":5.39989,"is_reserved":false,"is_disabled":false,"rental_uris":{"android":"levelo://app?vid=442cf40b-ee6a-43db-bf0b-1d4f16339a98","ios":"levelo://app?vid=442cf40b-ee6a-43db-bf0b-1d4f16339a98"},"vehicle_type_id":"4","last_reported":1726758582,"current_range_meters":22000,"station_id":"ce4bhih2rcd13ifvqfs0","pricing_plan_id":"cebpf4jnsgd1na2vs0mg"},{"bike_id":"e0924bbc-960e-4922-86ab-869bd1c036fe","system_id":"levelo_inurba_marseille","lat":43.29423,"lon":5.38624,"is_reserved":false,"is_disabled":false,"rental_uris":{"android":"levelo://app?vid=e0924bbc-960e-4922-86ab-869bd1c036fe","ios":"levelo://app?vid=e0924bbc-960e-4922-86ab-869bd1c036fe"},"vehicle_type_id":"4","last_reported":1726758582,"current_range_meters":4400,"station_id":"ce4bh2h2rcd13ifvqdh0","pricing_plan_id":"cebpf4jnsgd1na2vs0mg"},{"bike_id":"1d11107c-38bd-4306-b6d7-070a3d687dc7","system_id":"levelo_inurba_marseille","lat":43.30311,"lon":5.36899,"is_reserved":false,"is_disabled":false,"rental_uris":{"android":"levelo://app?vid=1d11107c-38bd-4306-b6d7-070a3d687dc7","ios":"levelo://app?vid=1d11107c-38bd-4306-b6d7-070a3d687dc7"},"vehicle_type_id":"4","last_reported":1726758582,"current_range_meters":30000,"station_id":"ce4bgqh2rcd13ifvqc5g","pricing_plan_id":"cebpf4jnsgd1na2vs0mg"},{"bike_id":"55fed244-caf4-46e6-99fc-fcd916ddb5b7","system_id":"levelo_inurba_marseille","lat":43.23206,"lon":5.35548,"is_reserved":false,"is_disabled":false,"rental_uris":{"android":"levelo://app?vid=55fed244-caf4-46e6-99fc-fcd916ddb5b7","ios":"levelo://app?vid=55fed244-caf4-46e6-99fc-fcd916ddb5b7"},"vehicle_type_id":"4","last_reported":1726758582,"current_range_meters":18000,"station_id":"ce4bhu92rcd13ifvqi70","pricing_plan_id":"cebpf4jnsgd1na2vs0mg"},{"bike_id":"fcd868b4-ba82-4e13-932e-0f4118808294","system_id":"levelo_inurba_marseille","lat":43.23189,"lon":5.35559,"is_reserved":false,"is_disabled":false,"rental_uris":{"android":"levelo://app?vid=fcd868b4-ba82-4e13-932e-0f4118808294","ios":"levelo://app?vid=fcd868b4-ba82-4e13-932e-0f4118808294"},"vehicle_type_id":"4","last_reported":1726758582,"current_range_meters":4800,"station_id":"ce4bhu92rcd13ifvqi70","pricing_plan_id":"cebpf4jnsgd1na2vs0mg"},{"bike_id":"ecca5e48-56e9-43f8-a592-aa934aa56c8d","system_id":"levelo_inurba_marseille","lat":43.29292,"lon":5.37462,"is_reserved":false,"is_disabled":false,"rental_uris":{"android":"levelo://app?vid=ecca5e48-56e9-43f8-a592-aa934aa56c8d","ios":"levelo://app?vid=ecca5e48-56e9-43f8-a592-aa934aa56c8d"},"vehicle_type_id":"4","last_reported":1726758582,"current_range_meters":27600,"station_id":"ce4bgi12rcd13ifvqb70","pricing_plan_id":"cebpf4jnsgd1na2vs0mg"},{"bike_id":"5d8b7f7d-de27-4dc7-99fe-55a7fc5cf2c0","system_id":"levelo_inurba_marseille","lat":43.24172,"lon":5.36386,"is_reserved":false,"is_disabled":false,"rental_uris":{"android":"levelo://app?vid=5d8b7f7d-de27-4dc7-99fe-55a7fc5cf2c0","ios":"levelo://app?vid=5d8b7f7d-de27-4dc7-99fe-55a7fc5cf2c0"},"vehicle_type_id":"4","last_reported":1726758582,"current_range_meters":10000,"station_id":"cpo36qri1sfpv3e86is0","pricing_plan_id":"cebpf4jnsgd1na2vs0mg"},{"bike_id":"c47f45fd-a8ec-452f-a0b4-59df0b7a83af","system_id":"levelo_inurba_marseille","lat":43.30414,"lon":5.41282,"is_reserved":false,"is_disabled":false,"rental_uris":{"android":"levelo://app?vid=c47f45fd-a8ec-452f-a0b4-59df0b7a83af","ios":"levelo://app?vid=c47f45fd-a8ec-452f-a0b4-59df0b7a83af"},"vehicle_type_id":"4","last_reported":1726758582,"current_range_meters":17200,"station_id":"ce4bhop2rcd13ifvqh8g","pricing_plan_id":"cebpf4jnsgd1na2vs0mg"},{"bike_id":"bdb68511-c177-47fa-aada-4a478f020243","system_id":"levelo_inurba_marseille","lat":43.28442,"lon":5.39197,"is_reserved":false,"is_disabled":false,"rental_uris":{"android":"levelo://app?vid=bdb68511-c177-47fa-aada-4a478f020243","ios":"levelo://app?vid=bdb68511-c177-47fa-aada-4a478f020243"},"vehicle_type_id":"4","last_reported":1726758582,"current_range_meters":8800,"station_id":"ce4bhoh2rcd13ifvqh5g","pricing_plan_id":"cebpf4jnsgd1na2vs0mg"},{"bike_id":"1ccb1831-a5dc-464b-838b-dae4f6eb38cc","system_id":"levelo_inurba_marseille","lat":43.3109,"lon":5.42433,"is_reserved":false,"is_disabled":false,"rental_uris":{"android":"levelo://app?vid=1ccb1831-a5dc-464b-838b-dae4f6eb38cc","ios":"levelo://app?vid=1ccb1831-a5dc-464b-838b-dae4f6eb38cc"},"vehicle_type_id":"4","last_reported":1726758582,"current_range_meters":27200,"station_id":"ce4bhp92rcd13ifvqhag","pricing_plan_id":"cebpf4jnsgd1na2vs0mg"},{"bike_id":"4fa0ca0d-342c-4cd6-990b-f5e4ae40db2b","system_id":"levelo_inurba_marseille","lat":43.29966,"lon":5.41332,"is_reserved":false,"is_disabled":false,"rental_uris":{"android":"levelo://app?vid=4fa0ca0d-342c-4cd6-990b-f5e4ae40db2b","ios":"levelo://app?vid=4fa0ca0d-342c-4cd6-990b-f5e4ae40db2b"},"vehicle_type_id":"4","last_reported":1726758582,"current_range_meters":38800,"station_id":"ce4bhp12rcd13ifvqh9g","pricing_plan_id":"cebpf4jnsgd1na2vs0mg"},{"bike_id":"60a6f6c2-c23b-4cfd-a0cb-c3d4101e03a6","system_id":"levelo_inurba_marseille","lat":43.2985,"lon":5.36261,"is_reserved":false,"is_disabled":false,"rental_uris":{"android":"levelo://app?vid=60a6f6c2-c23b-4cfd-a0cb-c3d4101e03a6","ios":"levelo://app?vid=60a6f6c2-c23b-4cfd-a0cb-c3d4101e03a6"},"vehicle_type_id":"4","last_reported":1726758582,"current_range_meters":38800,"station_id":"ce4bgpp2rcd13ifvqc3g","pricing_plan_id":"cebpf4jnsgd1na2vs0mg"},{"bike_id":"b319d72d-8448-42ca-8896-31571d353658","system_id":"levelo_inurba_marseille","lat":43.29526,"lon":5.3854,"is_reserved":false,"is_disabled":false,"rental_uris":{"android":"levelo://app?vid=b319d72d-8448-42ca-8896-31571d353658","ios":"levelo://app?vid=b319d72d-8448-42ca-8896-31571d353658"},"vehicle_type_id":"4","last_reported":1726758582,"current_range_meters":3600,"station_id":"ce4bgih2rcd13ifvqba0","pricing_plan_id":"cebpf4jnsgd1na2vs0mg"},{"bike_id":"44729857-84ce-4d64-93ee-9eab1ad8a35f","system_id":"levelo_inurba_marseille","lat":43.2465,"lon":5.38895,"is_reserved":false,"is_disabled":false,"rental_uris":{"android":"levelo://app?vid=44729857-84ce-4d64-93ee-9eab1ad8a35f","ios":"levelo://app?vid=44729857-84ce-4d64-93ee-9eab1ad8a35f"},"vehicle_type_id":"4","last_reported":1726758582,"current_range_meters":28400,"station_id":"ce4bhg12rcd13ifvqf60","pricing_plan_id":"cebpf4jnsgd1na2vs0mg"},{"bike_id":"4529145d-5aed-4ca3-87da-49247880fe33","system_id":"levelo_inurba_marseille","lat":43.32541,"lon":5.41439,"is_reserved":false,"is_disabled":false,"rental_uris":{"android":"levelo://app?vid=4529145d-5aed-4ca3-87da-49247880fe33","ios":"levelo://app?vid=4529145d-5aed-4ca3-87da-49247880fe33"},"vehicle_type_id":"4","last_reported":1726758582,"current_range_meters":6800,"station_id":"ce4bhq12rcd13ifvqhhg","pricing_plan_id":"cebpf4jnsgd1na2vs0mg"},{"bike_id":"7a7ec394-a522-4875-b4fb-dd040df3cf3a","system_id":"levelo_inurba_marseille","lat":43.2942,"lon":5.38622,"is_reserved":false,"is_disabled":false,"rental_uris":{"android":"levelo://app?vid=7a7ec394-a522-4875-b4fb-dd040df3cf3a","ios":"levelo://app?vid=7a7ec394-a522-4875-b4fb-dd040df3cf3a"},"vehicle_type_id":"4","last_reported":1726758582,"current_range_meters":31200,"station_id":"ce4bh2h2rcd13ifvqdh0","pricing_plan_id":"cebpf4jnsgd1na2vs0mg"},{"bike_id":"7ab4a6d1-ed36-4a88-9935-55cc047f4242","system_id":"levelo_inurba_marseille","lat":43.29611,"lon":5.37059,"is_reserved":false,"is_disabled":false,"rental_uris":{"android":"levelo://app?vid=7ab4a6d1-ed36-4a88-9935-55cc047f4242","ios":"levelo://app?vid=7ab4a6d1-ed36-4a88-9935-55cc047f4242"},"vehicle_type_id":"4","last_reported":1726758582,"current_range_meters":10000,"station_id":"ce4bh292rcd13ifvqdf0","pricing_plan_id":"cebpf4jnsgd1na2vs0mg"},{"bike_id":"3450e49a-3810-4469-8f17-4407126f60e1","system_id":"levelo_inurba_marseille","lat":43.27536,"lon":5.42621,"is_reserved":false,"is_disabled":false,"rental_uris":{"android":"levelo://app?vid=3450e49a-3810-4469-8f17-4407126f60e1","ios":"levelo://app?vid=3450e49a-3810-4469-8f17-4407126f60e1"},"vehicle_type_id":"4","last_reported":1726758582,"current_range_meters":3200,"station_id":"","pricing_plan_id":"cebpf4jnsgd1na2vs0mg"},{"bike_id":"7b9dd459-340b-4978-bfb0-6c163a5263e8","system_id":"levelo_inurba_marseille","lat":43.23195,"lon":5.35547,"is_reserved":false,"is_disabled":false,"rental_uris":{"android":"levelo://app?vid=7b9dd459-340b-4978-bfb0-6c163a5263e8","ios":"levelo://app?vid=7b9dd459-340b-4978-bfb0-6c163a5263e8"},"vehicle_type_id":"4","last_reported":1726758582,"current_range_meters":38800,"station_id":"ce4bhu92rcd13ifvqi70","pricing_plan_id":"cebpf4jnsgd1na2vs0mg"},{"bike_id":"cd8b2533-9628-47af-a4d2-168a9a46de98","system_id":"levelo_inurba_marseille","lat":43.31499,"lon":5.37313,"is_reserved":false,"is_disabled":false,"rental_uris":{"android":"levelo://app?vid=cd8b2533-9628-47af-a4d2-168a9a46de98","ios":"levelo://app?vid=cd8b2533-9628-47af-a4d2-168a9a46de98"},"vehicle_type_id":"4","last_reported":1726758582,"current_range_meters":20000,"station_id":"ce4bgt12rcd13ifvqcd0","pricing_plan_id":"cebpf4jnsgd1na2vs0mg"},{"bike_id":"396ba37e-88b0-4568-8a14-731de662ee27","system_id":"levelo_inurba_marseille","lat":43.31995,"lon":5.38142,"is_reserved":false,"is_disabled":false,"rental_uris":{"android":"levelo://app?vid=396ba37e-88b0-4568-8a14-731de662ee27","ios":"levelo://app?vid=396ba37e-88b0-4568-8a14-731de662ee27"},"vehicle_type_id":"4","last_reported":1726758582,"current_range_meters":32000,"station_id":"ce4bhr12rcd13ifvqhpg","pricing_plan_id":"cebpf4jnsgd1na2vs0mg"},{"bike_id":"244947d2-014e-486c-a132-6f0e792f1df2","system_id":"levelo_inurba_marseille","lat":43.25721,"lon":5.41116,"is_reserved":false,"is_disabled":false,"rental_uris":{"android":"levelo://app?vid=244947d2-014e-486c-a132-6f0e792f1df2","ios":"levelo://app?vid=244947d2-014e-486c-a132-6f0e792f1df2"},"vehicle_type_id":"4","last_reported":1726758582,"current_range_meters":12800,"station_id":"ce4bhkp2rcd13ifvqgd0","pricing_plan_id":"cebpf4jnsgd1na2vs0mg"},{"bike_id":"ee5b51b2-81bc-41f3-a8b6-ee3b6fb51f2a","system_id":"levelo_inurba_marseille","lat":43.27368,"lon":5.36252,"is_reserved":false,"is_disabled":false,"rental_uris":{"android":"levelo://app?vid=ee5b51b2-81bc-41f3-a8b6-ee3b6fb51f2a","ios":"levelo://app?vid=ee5b51b2-81bc-41f3-a8b6-ee3b6fb51f2a"},"vehicle_type_id":"4","last_reported":1726758582,"current_range_meters":38800,"station_id":"ce4bhbh2rcd13ifvqeo0","pricing_plan_id":"cebpf4jnsgd1na2vs0mg"},{"bike_id":"d754f33d-521b-4be2-bc4f-141ebc18889c","system_id":"levelo_inurba_marseille","lat":43.32656,"lon":5.40994,"is_reserved":false,"is_disabled":false,"rental_uris":{"android":"levelo://app?vid=d754f33d-521b-4be2-bc4f-141ebc18889c","ios":"levelo://app?vid=d754f33d-521b-4be2-bc4f-141ebc18889c"},"vehicle_type_id":"4","last_reported":1726758582,"current_range_meters":18000,"station_id":"ce4bhpp2rcd13ifvqhgg","pricing_plan_id":"cebpf4jnsgd1na2vs0mg"},{"bike_id":"562f457a-aa29-4b68-a448-6fa3f2de5b36","system_id":"levelo_inurba_marseille","lat":43.23054,"lon":5.35493,"is_reserved":false,"is_disabled":false,"rental_uris":{"android":"levelo://app?vid=562f457a-aa29-4b68-a448-6fa3f2de5b36","ios":"levelo://app?vid=562f457a-aa29-4b68-a448-6fa3f2de5b36"},"vehicle_type_id":"4","last_reported":1726758582,"current_range_meters":37600,"station_id":"cpo3342slgdg3j2ifvpg","pricing_plan_id":"cebpf4jnsgd1na2vs0mg"},{"bike_id":"6abd6ed8-e9da-4163-9975-ae064d953b07","system_id":"levelo_inurba_marseille","lat":43.25935,"lon":5.40915,"is_reserved":false,"is_disabled":false,"rental_uris":{"android":"levelo://app?vid=6abd6ed8-e9da-4163-9975-ae064d953b07","ios":"levelo://app?vid=6abd6ed8-e9da-4163-9975-ae064d953b07"},"vehicle_type_id":"4","last_reported":1726758582,"current_range_meters":30000,"station_id":"ce4bhm92rcd13ifvqglg","pricing_plan_id":"cebpf4jnsgd1na2vs0mg"},{"bike_id":"25320ad4-43fa-4639-9e8b-a1ca42d1bfcd","system_id":"levelo_inurba_marseille","lat":43.25932,"lon":5.40909,"is_reserved":false,"is_disabled":false,"rental_uris":{"android":"levelo://app?vid=25320ad4-43fa-4639-9e8b-a1ca42d1bfcd","ios":"levelo://app?vid=25320ad4-43fa-4639-9e8b-a1ca42d1bfcd"},"vehicle_type_id":"4","last_reported":1726758582,"current_range_meters":32400,"station_id":"ce4bhm92rcd13ifvqglg","pricing_plan_id":"cebpf4jnsgd1na2vs0mg"},{"bike_id":"5bd40d00-2634-4bcf-a192-849d165bf61d","system_id":"levelo_inurba_marseille","lat":43.22937,"lon":5.3538,"is_reserved":false,"is_disabled":false,"rental_uris":{"android":"levelo://app?vid=5bd40d00-2634-4bcf-a192-849d165bf61d","ios":"levelo://app?vid=5bd40d00-2634-4bcf-a192-849d165bf61d"},"vehicle_type_id":"4","last_reported":1726758582,"current_range_meters":17600,"station_id":"cpo3532slgdg3j2ikp40","pricing_plan_id":"cebpf4jnsgd1na2vs0mg"},{"bike_id":"b6d36420-b26c-42b4-a16a-ada2d6d760b7","system_id":"levelo_inurba_marseille","lat":43.2306,"lon":5.35495,"is_reserved":false,"is_disabled":false,"rental_uris":{"android":"levelo://app?vid=b6d36420-b26c-42b4-a16a-ada2d6d760b7","ios":"levelo://app?vid=b6d36420-b26c-42b4-a16a-ada2d6d760b7"},"vehicle_type_id":"4","last_reported":1726758582,"current_range_meters":38000,"station_id":"cpo3342slgdg3j2ifvpg","pricing_plan_id":"cebpf4jnsgd1na2vs0mg"},{"bike_id":"9067796f-bbca-4343-8495-857f562cd69a","system_id":"levelo_inurba_marseille","lat":43.2481,"lon":5.37459,"is_reserved":false,"is_disabled":false,"rental_uris":{"android":"levelo://app?vid=9067796f-bbca-4343-8495-857f562cd69a","ios":"levelo://app?vid=9067796f-bbca-4343-8495-857f562cd69a"},"vehicle_type_id":"4","last_reported":1726758582,"current_range_meters":24400,"station_id":"ce4bhgh2rcd13ifvqfb0","pricing_plan_id":"cebpf4jnsgd1na2vs0mg"},{"bike_id":"a897211c-4472-4263-8fd5-8a4b88f40ac1","system_id":"levelo_inurba_marseille","lat":43.2717,"lon":5.40992,"is_reserved":false,"is_disabled":false,"rental_uris":{"android":"levelo://app?vid=a897211c-4472-4263-8fd5-8a4b88f40ac1","ios":"levelo://app?vid=a897211c-4472-4263-8fd5-8a4b88f40ac1"},"vehicle_type_id":"4","last_reported":1726758582,"current_range_meters":11600,"station_id":"ce4bhl12rcd13ifvqgf0","pricing_plan_id":"cebpf4jnsgd1na2vs0mg"},{"bike_id":"bf81f4bc-2ae5-48cc-bd52-20fb0c924ced","system_id":"levelo_inurba_marseille","lat":43.30539,"lon":5.36702,"is_reserved":false,"is_disabled":false,"rental_uris":{"android":"levelo://app?vid=bf81f4bc-2ae5-48cc-bd52-20fb0c924ced","ios":"levelo://app?vid=bf81f4bc-2ae5-48cc-bd52-20fb0c924ced"},"vehicle_type_id":"4","last_reported":1726758582,"current_range_meters":26000,"station_id":"ce4bgrp2rcd13ifvqc9g","pricing_plan_id":"cebpf4jnsgd1na2vs0mg"},{"bike_id":"29b0bd92-db4a-4923-aff7-839b66f50cc1","system_id":"levelo_inurba_marseille","lat":43.303073,"lon":5.368919,"is_reserved":false,"is_disabled":false,"rental_uris":{"android":"levelo://app?vid=29b0bd92-db4a-4923-aff7-839b66f50cc1","ios":"levelo://app?vid=29b0bd92-db4a-4923-aff7-839b66f50cc1"},"vehicle_type_id":"4","last_reported":1726758582,"current_range_meters":35200,"station_id":"ce4bgqh2rcd13ifvqc5g","pricing_plan_id":"cebpf4jnsgd1na2vs0mg"},{"bike_id":"b0154446-30b1-4374-bfef-f6974c90099e","system_id":"levelo_inurba_marseille","lat":43.30539,"lon":5.36699,"is_reserved":false,"is_disabled":false,"rental_uris":{"android":"levelo://app?vid=b0154446-30b1-4374-bfef-f6974c90099e","ios":"levelo://app?vid=b0154446-30b1-4374-bfef-f6974c90099e"},"vehicle_type_id":"4","last_reported":1726758582,"current_range_meters":38800,"station_id":"ce4bgrp2rcd13ifvqc9g","pricing_plan_id":"cebpf4jnsgd1na2vs0mg"},{"bike_id":"3054afe6-4c88-4656-9a5d-c31a1a4a065f","system_id":"levelo_inurba_marseille","lat":43.32465,"lon":5.36564,"is_reserved":false,"is_disabled":false,"rental_uris":{"android":"levelo://app?vid=3054afe6-4c88-4656-9a5d-c31a1a4a065f","ios":"levelo://app?vid=3054afe6-4c88-4656-9a5d-c31a1a4a065f"},"vehicle_type_id":"4","last_reported":1726758582,"current_range_meters":32800,"station_id":"ce4bhs12rcd13ifvqhvg","pricing_plan_id":"cebpf4jnsgd1na2vs0mg"},{"bike_id":"4067aecf-3566-4117-96c1-3e96dd04fdfa","system_id":"levelo_inurba_marseille","lat":43.31127,"lon":5.3776,"is_reserved":false,"is_disabled":false,"rental_uris":{"android":"levelo://app?vid=4067aecf-3566-4117-96c1-3e96dd04fdfa","ios":"levelo://app?vid=4067aecf-3566-4117-96c1-3e96dd04fdfa"},"vehicle_type_id":"4","last_reported":1726758582,"current_range_meters":8400,"station_id":"ce4bgt92rcd13ifvqcg0","pricing_plan_id":"cebpf4jnsgd1na2vs0mg"},{"bike_id":"6d5cbd2e-3ab7-491d-a944-8cfd37cbcb61","system_id":"levelo_inurba_marseille","lat":43.2621,"lon":5.3744,"is_reserved":false,"is_disabled":false,"rental_uris":{"android":"levelo://app?vid=6d5cbd2e-3ab7-491d-a944-8cfd37cbcb61","ios":"levelo://app?vid=6d5cbd2e-3ab7-491d-a944-8cfd37cbcb61"},"vehicle_type_id":"4","last_reported":1726758582,"current_range_meters":9600,"station_id":"ce4bhgp2rcd13ifvqfc0","pricing_plan_id":"cebpf4jnsgd1na2vs0mg"},{"bike_id":"d702706d-cdf6-4cf9-9f3f-96ababd7ca5e","system_id":"levelo_inurba_marseille","lat":43.31229,"lon":5.36865,"is_reserved":false,"is_disabled":false,"rental_uris":{"android":"levelo://app?vid=d702706d-cdf6-4cf9-9f3f-96ababd7ca5e","ios":"levelo://app?vid=d702706d-cdf6-4cf9-9f3f-96ababd7ca5e"},"vehicle_type_id":"4","last_reported":1726758582,"current_range_meters":36400,"station_id":"ce4bgl92rcd13ifvqbq0","pricing_plan_id":"cebpf4jnsgd1na2vs0mg"},{"bike_id":"902190e7-1fe9-4270-9546-498dac581307","system_id":"levelo_inurba_marseille","lat":43.28012,"lon":5.40587,"is_reserved":false,"is_disabled":false,"rental_uris":{"android":"levelo://app?vid=902190e7-1fe9-4270-9546-498dac581307","ios":"levelo://app?vid=902190e7-1fe9-4270-9546-498dac581307"},"vehicle_type_id":"4","last_reported":1726758582,"current_range_meters":36000,"station_id":"","pricing_plan_id":"cebpf4jnsgd1na2vs0mg"},{"bike_id":"804b3646-259f-4a84-a03f-2f262500c2a5","system_id":"levelo_inurba_marseille","lat":43.31756,"lon":5.39014,"is_reserved":false,"is_disabled":false,"rental_uris":{"android":"levelo://app?vid=804b3646-259f-4a84-a03f-2f262500c2a5","ios":"levelo://app?vid=804b3646-259f-4a84-a03f-2f262500c2a5"},"vehicle_type_id":"4","last_reported":1726758582,"current_range_meters":32800,"station_id":"ce4bhqp2rcd13ifvqhng","pricing_plan_id":"cebpf4jnsgd1na2vs0mg"},{"bike_id":"6f2b60c4-292a-45ef-b9a3-bad241acd711","system_id":"levelo_inurba_marseille","lat":43.28666,"lon":5.36353,"is_reserved":false,"is_disabled":false,"rental_uris":{"android":"levelo://app?vid=6f2b60c4-292a-45ef-b9a3-bad241acd711","ios":"levelo://app?vid=6f2b60c4-292a-45ef-b9a3-bad241acd711"},"vehicle_type_id":"4","last_reported":1726758582,"current_range_meters":7200,"station_id":"ce4bhah2rcd13ifvqej0","pricing_plan_id":"cebpf4jnsgd1na2vs0mg"},{"bike_id":"8623e04a-e72c-4d77-989d-d8e018f8c780","system_id":"levelo_inurba_marseille","lat":43.26217,"lon":5.37446,"is_reserved":false,"is_disabled":false,"rental_uris":{"android":"levelo://app?vid=8623e04a-e72c-4d77-989d-d8e018f8c780","ios":"levelo://app?vid=8623e04a-e72c-4d77-989d-d8e018f8c780"},"vehicle_type_id":"4","last_reported":1726758582,"current_range_meters":24800,"station_id":"ce4bhgp2rcd13ifvqfc0","pricing_plan_id":"cebpf4jnsgd1na2vs0mg"},{"bike_id":"7ed6941b-afc4-460f-8af3-ab9c555ffb27","system_id":"levelo_inurba_marseille","lat":43.30542,"lon":5.36702,"is_reserved":false,"is_disabled":false,"rental_uris":{"android":"levelo://app?vid=7ed6941b-afc4-460f-8af3-ab9c555ffb27","ios":"levelo://app?vid=7ed6941b-afc4-460f-8af3-ab9c555ffb27"},"vehicle_type_id":"4","last_reported":1726758582,"current_range_meters":38800,"station_id":"ce4bgrp2rcd13ifvqc9g","pricing_plan_id":"cebpf4jnsgd1na2vs0mg"},{"bike_id":"66979b52-14f7-44b1-a286-4b115afc35a7","system_id":"levelo_inurba_marseille","lat":43.25001,"lon":5.38925,"is_reserved":false,"is_disabled":false,"rental_uris":{"android":"levelo://app?vid=66979b52-14f7-44b1-a286-4b115afc35a7","ios":"levelo://app?vid=66979b52-14f7-44b1-a286-4b115afc35a7"},"vehicle_type_id":"4","last_reported":1726758582,"current_range_meters":27200,"station_id":"ce4bhgp2rcd13ifvqfd0","pricing_plan_id":"cebpf4jnsgd1na2vs0mg"},{"bike_id":"db5bed51-afb9-4548-98e9-7b7ae226c501","system_id":"levelo_inurba_marseille","lat":43.33756,"lon":5.37453,"is_reserved":false,"is_disabled":false,"rental_uris":{"android":"levelo://app?vid=db5bed51-afb9-4548-98e9-7b7ae226c501","ios":"levelo://app?vid=db5bed51-afb9-4548-98e9-7b7ae226c501"},"vehicle_type_id":"4","last_reported":1726758582,"current_range_meters":21600,"station_id":"","pricing_plan_id":"cebpf4jnsgd1na2vs0mg"},{"bike_id":"26ddec16-7638-44dd-bc32-ccda042b6c90","system_id":"levelo_inurba_marseille","lat":43.27499,"lon":5.42449,"is_reserved":false,"is_disabled":false,"rental_uris":{"android":"levelo://app?vid=26ddec16-7638-44dd-bc32-ccda042b6c90","ios":"levelo://app?vid=26ddec16-7638-44dd-bc32-ccda042b6c90"},"vehicle_type_id":"4","last_reported":1726758582,"current_range_meters":4800,"station_id":"ce4bhn92rcd13ifvqgrg","pricing_plan_id":"cebpf4jnsgd1na2vs0mg"},{"bike_id":"f1925469-9217-450d-9259-fc5ba656a5ff","system_id":"levelo_inurba_marseille","lat":43.25926,"lon":5.40901,"is_reserved":false,"is_disabled":false,"rental_uris":{"android":"levelo://app?vid=f1925469-9217-450d-9259-fc5ba656a5ff","ios":"levelo://app?vid=f1925469-9217-450d-9259-fc5ba656a5ff"},"vehicle_type_id":"4","last_reported":1726758582,"current_range_meters":37600,"station_id":"ce4bhm92rcd13ifvqglg","pricing_plan_id":"cebpf4jnsgd1na2vs0mg"},{"bike_id":"69399783-5eae-4af9-ae4b-1495b2d249b1","system_id":"levelo_inurba_marseille","lat":43.24165,"lon":5.36403,"is_reserved":false,"is_disabled":false,"rental_uris":{"android":"levelo://app?vid=69399783-5eae-4af9-ae4b-1495b2d249b1","ios":"levelo://app?vid=69399783-5eae-4af9-ae4b-1495b2d249b1"},"vehicle_type_id":"4","last_reported":1726758582,"current_range_meters":32400,"station_id":"cpo36qri1sfpv3e86is0","pricing_plan_id":"cebpf4jnsgd1na2vs0mg"},{"bike_id":"05d9e1a0-183b-4dac-b436-3806179c79d3","system_id":"levelo_inurba_marseille","lat":43.25084,"lon":5.3952,"is_reserved":false,"is_disabled":false,"rental_uris":{"android":"levelo://app?vid=05d9e1a0-183b-4dac-b436-3806179c79d3","ios":"levelo://app?vid=05d9e1a0-183b-4dac-b436-3806179c79d3"},"vehicle_type_id":"4","last_reported":1726758582,"current_range_meters":2800,"station_id":"ce4bhm12rcd13ifvqgkg","pricing_plan_id":"cebpf4jnsgd1na2vs0mg"},{"bike_id":"bd927aa5-ad55-4c31-98ef-da4f41e33d85","system_id":"levelo_inurba_marseille","lat":43.25001,"lon":5.38932,"is_reserved":false,"is_disabled":false,"rental_uris":{"android":"levelo://app?vid=bd927aa5-ad55-4c31-98ef-da4f41e33d85","ios":"levelo://app?vid=bd927aa5-ad55-4c31-98ef-da4f41e33d85"},"vehicle_type_id":"4","last_reported":1726758582,"current_range_meters":25600,"station_id":"ce4bhgp2rcd13ifvqfd0","pricing_plan_id":"cebpf4jnsgd1na2vs0mg"},{"bike_id":"1ea00979-3861-4145-b43d-7975e348f63b","system_id":"levelo_inurba_marseille","lat":43.30647,"lon":5.40099,"is_reserved":false,"is_disabled":false,"rental_uris":{"android":"levelo://app?vid=1ea00979-3861-4145-b43d-7975e348f63b","ios":"levelo://app?vid=1ea00979-3861-4145-b43d-7975e348f63b"},"vehicle_type_id":"4","last_reported":1726758582,"current_range_meters":19600,"station_id":"ce4bh112rcd13ifvqda0","pricing_plan_id":"cebpf4jnsgd1na2vs0mg"},{"bike_id":"c07f4740-ebab-4d5c-b22e-deddf1ddd7da","system_id":"levelo_inurba_marseille","lat":43.2984,"lon":5.36265,"is_reserved":false,"is_disabled":false,"rental_uris":{"android":"levelo://app?vid=c07f4740-ebab-4d5c-b22e-deddf1ddd7da","ios":"levelo://app?vid=c07f4740-ebab-4d5c-b22e-deddf1ddd7da"},"vehicle_type_id":"4","last_reported":1726758582,"current_range_meters":38800,"station_id":"ce4bgpp2rcd13ifvqc3g","pricing_plan_id":"cebpf4jnsgd1na2vs0mg"},{"bike_id":"27b255d1-4277-4fa2-a8b9-9542358aedfa","system_id":"levelo_inurba_marseille","lat":43.25087,"lon":5.39524,"is_reserved":false,"is_disabled":false,"rental_uris":{"android":"levelo://app?vid=27b255d1-4277-4fa2-a8b9-9542358aedfa","ios":"levelo://app?vid=27b255d1-4277-4fa2-a8b9-9542358aedfa"},"vehicle_type_id":"4","last_reported":1726758582,"current_range_meters":14000,"station_id":"ce4bhm12rcd13ifvqgkg","pricing_plan_id":"cebpf4jnsgd1na2vs0mg"},{"bike_id":"94d4b6a0-0dd0-43db-8825-ebe5f3cbd6bb","system_id":"levelo_inurba_marseille","lat":43.26559,"lon":5.37284,"is_reserved":false,"is_disabled":false,"rental_uris":{"android":"levelo://app?vid=94d4b6a0-0dd0-43db-8825-ebe5f3cbd6bb","ios":"levelo://app?vid=94d4b6a0-0dd0-43db-8825-ebe5f3cbd6bb"},"vehicle_type_id":"4","last_reported":1726758582,"current_range_meters":25200,"station_id":"ce4bhg12rcd13ifvqf70","pricing_plan_id":"cebpf4jnsgd1na2vs0mg"},{"bike_id":"cfbdab39-38b9-4fe4-9edf-be45de33a7e0","system_id":"levelo_inurba_marseille","lat":43.25121,"lon":5.40313,"is_reserved":false,"is_disabled":false,"rental_uris":{"android":"levelo://app?vid=cfbdab39-38b9-4fe4-9edf-be45de33a7e0","ios":"levelo://app?vid=cfbdab39-38b9-4fe4-9edf-be45de33a7e0"},"vehicle_type_id":"4","last_reported":1726758582,"current_range_meters":16800,"station_id":"ce4bhlh2rcd13ifvqgig","pricing_plan_id":"cebpf4jnsgd1na2vs0mg"},{"bike_id":"884b4613-2a72-46e8-b1fd-814e1222921b","system_id":"levelo_inurba_marseille","lat":43.30549,"lon":5.36698,"is_reserved":false,"is_disabled":false,"rental_uris":{"android":"levelo://app?vid=884b4613-2a72-46e8-b1fd-814e1222921b","ios":"levelo://app?vid=884b4613-2a72-46e8-b1fd-814e1222921b"},"vehicle_type_id":"4","last_reported":1726758582,"current_range_meters":37600,"station_id":"ce4bgrp2rcd13ifvqc9g","pricing_plan_id":"cebpf4jnsgd1na2vs0mg"},{"bike_id":"96010521-6df8-4499-9193-686a24ef9ec2","system_id":"levelo_inurba_marseille","lat":43.3018,"lon":5.36927,"is_reserved":false,"is_disabled":false,"rental_uris":{"android":"levelo://app?vid=96010521-6df8-4499-9193-686a24ef9ec2","ios":"levelo://app?vid=96010521-6df8-4499-9193-686a24ef9ec2"},"vehicle_type_id":"4","last_reported":1726758582,"current_range_meters":17200,"station_id":"","pricing_plan_id":"cebpf4jnsgd1na2vs0mg"},{"bike_id":"58014cc6-4f39-4119-a8a0-cdc0e2507820","system_id":"levelo_inurba_marseille","lat":43.32284,"lon":5.3828,"is_reserved":false,"is_disabled":false,"rental_uris":{"android":"levelo://app?vid=58014cc6-4f39-4119-a8a0-cdc0e2507820","ios":"levelo://app?vid=58014cc6-4f39-4119-a8a0-cdc0e2507820"},"vehicle_type_id":"4","last_reported":1726758582,"current_range_meters":38800,"station_id":"ce4bhr12rcd13ifvqhqg","pricing_plan_id":"cebpf4jnsgd1na2vs0mg"},{"bike_id":"3f34116d-3cac-4f12-8df9-1e5886ab50a1","system_id":"levelo_inurba_marseille","lat":43.29898,"lon":5.38151,"is_reserved":false,"is_disabled":false,"rental_uris":{"android":"levelo://app?vid=3f34116d-3cac-4f12-8df9-1e5886ab50a1","ios":"levelo://app?vid=3f34116d-3cac-4f12-8df9-1e5886ab50a1"},"vehicle_type_id":"4","last_reported":1726758582,"current_range_meters":34000,"station_id":"ce4bgj12rcd13ifvqbc0","pricing_plan_id":"cebpf4jnsgd1na2vs0mg"},{"bike_id":"008ab8ff-e578-4b46-8d61-c471e8546bbf","system_id":"levelo_inurba_marseille","lat":43.32035,"lon":5.41571,"is_reserved":false,"is_disabled":false,"rental_uris":{"android":"levelo://app?vid=008ab8ff-e578-4b46-8d61-c471e8546bbf","ios":"levelo://app?vid=008ab8ff-e578-4b46-8d61-c471e8546bbf"},"vehicle_type_id":"4","last_reported":1726758582,"current_range_meters":20400,"station_id":"ce4bhq92rcd13ifvqhkg","pricing_plan_id":"cebpf4jnsgd1na2vs0mg"},{"bike_id":"5d6c88fc-efc8-4249-8c5b-89110d08e918","system_id":"levelo_inurba_marseille","lat":43.30204,"lon":5.39457,"is_reserved":false,"is_disabled":false,"rental_uris":{"android":"levelo://app?vid=5d6c88fc-efc8-4249-8c5b-89110d08e918","ios":"levelo://app?vid=5d6c88fc-efc8-4249-8c5b-89110d08e918"},"vehicle_type_id":"4","last_reported":1726758582,"current_range_meters":38800,"station_id":"ce4bh0p2rcd13ifvqd70","pricing_plan_id":"cebpf4jnsgd1na2vs0mg"},{"bike_id":"cca37e3e-c17b-4384-8cfa-0cf71d91b7ae","system_id":"levelo_inurba_marseille","lat":43.29878,"lon":5.3974,"is_reserved":false,"is_disabled":false,"rental_uris":{"android":"levelo://app?vid=cca37e3e-c17b-4384-8cfa-0cf71d91b7ae","ios":"levelo://app?vid=cca37e3e-c17b-4384-8cfa-0cf71d91b7ae"},"vehicle_type_id":"4","last_reported":1726758582,"current_range_meters":38400,"station_id":"ce4bh0h2rcd13ifvqd50","pricing_plan_id":"cebpf4jnsgd1na2vs0mg"},{"bike_id":"5233d46e-d1eb-464b-b12e-38374025c1b4","system_id":"levelo_inurba_marseille","lat":43.312714,"lon":5.401646,"is_reserved":false,"is_disabled":false,"rental_uris":{"android":"levelo://app?vid=5233d46e-d1eb-464b-b12e-38374025c1b4","ios":"levelo://app?vid=5233d46e-d1eb-464b-b12e-38374025c1b4"},"vehicle_type_id":"4","last_reported":1726758582,"current_range_meters":34800,"station_id":"ce4bh092rcd13ifvqd30","pricing_plan_id":"cebpf4jnsgd1na2vs0mg"},{"bike_id":"45f1e9f4-44d0-4856-b4ce-62cb208c790d","system_id":"levelo_inurba_marseille","lat":43.30539,"lon":5.36704,"is_reserved":false,"is_disabled":false,"rental_uris":{"android":"levelo://app?vid=45f1e9f4-44d0-4856-b4ce-62cb208c790d","ios":"levelo://app?vid=45f1e9f4-44d0-4856-b4ce-62cb208c790d"},"vehicle_type_id":"4","last_reported":1726758582,"current_range_meters":22000,"station_id":"ce4bgrp2rcd13ifvqc9g","pricing_plan_id":"cebpf4jnsgd1na2vs0mg"},{"bike_id":"bce83964-771d-421d-a795-c2b376c5b9dc","system_id":"levelo_inurba_marseille","lat":43.23194,"lon":5.35554,"is_reserved":false,"is_disabled":false,"rental_uris":{"android":"levelo://app?vid=bce83964-771d-421d-a795-c2b376c5b9dc","ios":"levelo://app?vid=bce83964-771d-421d-a795-c2b376c5b9dc"},"vehicle_type_id":"4","last_reported":1726758582,"current_range_meters":19200,"station_id":"ce4bhu92rcd13ifvqi70","pricing_plan_id":"cebpf4jnsgd1na2vs0mg"},{"bike_id":"74764600-b04c-4a52-938e-c00f328806e7","system_id":"levelo_inurba_marseille","lat":43.26217,"lon":5.37437,"is_reserved":false,"is_disabled":false,"rental_uris":{"android":"levelo://app?vid=74764600-b04c-4a52-938e-c00f328806e7","ios":"levelo://app?vid=74764600-b04c-4a52-938e-c00f328806e7"},"vehicle_type_id":"4","last_reported":1726758582,"current_range_meters":14800,"station_id":"ce4bhgp2rcd13ifvqfc0","pricing_plan_id":"cebpf4jnsgd1na2vs0mg"},{"bike_id":"f88655fb-8466-486f-9041-31878b0e6353","system_id":"levelo_inurba_marseille","lat":43.28271,"lon":5.35073,"is_reserved":false,"is_disabled":false,"rental_uris":{"android":"levelo://app?vid=f88655fb-8466-486f-9041-31878b0e6353","ios":"levelo://app?vid=f88655fb-8466-486f-9041-31878b0e6353"},"vehicle_type_id":"4","last_reported":1726758582,"current_range_meters":39200,"station_id":"ce4bhbp2rcd13ifvqerg","pricing_plan_id":"cebpf4jnsgd1na2vs0mg"},{"bike_id":"f7cbb25a-4844-4c93-85ef-dcacc64050e9","system_id":"levelo_inurba_marseille","lat":43.26199,"lon":5.37454,"is_reserved":false,"is_disabled":false,"rental_uris":{"android":"levelo://app?vid=f7cbb25a-4844-4c93-85ef-dcacc64050e9","ios":"levelo://app?vid=f7cbb25a-4844-4c93-85ef-dcacc64050e9"},"vehicle_type_id":"4","last_reported":1726758582,"current_range_meters":26800,"station_id":"ce4bhgp2rcd13ifvqfc0","pricing_plan_id":"cebpf4jnsgd1na2vs0mg"},{"bike_id":"c23d81c8-03ab-4796-b259-8740261e6eed","system_id":"levelo_inurba_marseille","lat":43.31083,"lon":5.42429,"is_reserved":false,"is_disabled":false,"rental_uris":{"android":"levelo://app?vid=c23d81c8-03ab-4796-b259-8740261e6eed","ios":"levelo://app?vid=c23d81c8-03ab-4796-b259-8740261e6eed"},"vehicle_type_id":"4","last_reported":1726758582,"current_range_meters":4400,"station_id":"ce4bhp92rcd13ifvqhag","pricing_plan_id":"cebpf4jnsgd1na2vs0mg"},{"bike_id":"5c643d73-df91-4773-be66-12c4b540fa63","system_id":"levelo_inurba_marseille","lat":43.32364,"lon":5.38879,"is_reserved":false,"is_disabled":false,"rental_uris":{"android":"levelo://app?vid=5c643d73-df91-4773-be66-12c4b540fa63","ios":"levelo://app?vid=5c643d73-df91-4773-be66-12c4b540fa63"},"vehicle_type_id":"4","last_reported":1726758582,"current_range_meters":35200,"station_id":"ce4bhqp2rcd13ifvqhog","pricing_plan_id":"cebpf4jnsgd1na2vs0mg"},{"bike_id":"be92f24c-101f-4f27-8707-dd6c3a0c8ea1","system_id":"levelo_inurba_marseille","lat":43.28268,"lon":5.3506,"is_reserved":false,"is_disabled":false,"rental_uris":{"android":"levelo://app?vid=be92f24c-101f-4f27-8707-dd6c3a0c8ea1","ios":"levelo://app?vid=be92f24c-101f-4f27-8707-dd6c3a0c8ea1"},"vehicle_type_id":"4","last_reported":1726758582,"current_range_meters":4400,"station_id":"ce4bhbp2rcd13ifvqerg","pricing_plan_id":"cebpf4jnsgd1na2vs0mg"},{"bike_id":"e99a13b7-cb18-4df2-9875-6881477f91d3","system_id":"levelo_inurba_marseille","lat":43.290314,"lon":5.399778,"is_reserved":false,"is_disabled":false,"rental_uris":{"android":"levelo://app?vid=e99a13b7-cb18-4df2-9875-6881477f91d3","ios":"levelo://app?vid=e99a13b7-cb18-4df2-9875-6881477f91d3"},"vehicle_type_id":"4","last_reported":1726758582,"current_range_meters":20400,"station_id":"ce4bho92rcd13ifvqh3g","pricing_plan_id":"cebpf4jnsgd1na2vs0mg"},{"bike_id":"b1ab4565-119f-404e-ac17-99dfc9fc3b01","system_id":"levelo_inurba_marseille","lat":43.3388,"lon":5.39164,"is_reserved":false,"is_disabled":false,"rental_uris":{"android":"levelo://app?vid=b1ab4565-119f-404e-ac17-99dfc9fc3b01","ios":"levelo://app?vid=b1ab4565-119f-404e-ac17-99dfc9fc3b01"},"vehicle_type_id":"4","last_reported":1726758582,"current_range_meters":3600,"station_id":"","pricing_plan_id":"cebpf4jnsgd1na2vs0mg"},{"bike_id":"a90a8355-c86e-4630-b9ce-4f3d4253bdbb","system_id":"levelo_inurba_marseille","lat":43.31702,"lon":5.40474,"is_reserved":false,"is_disabled":false,"rental_uris":{"android":"levelo://app?vid=a90a8355-c86e-4630-b9ce-4f3d4253bdbb","ios":"levelo://app?vid=a90a8355-c86e-4630-b9ce-4f3d4253bdbb"},"vehicle_type_id":"4","last_reported":1726758582,"current_range_meters":38800,"station_id":"ce4bh012rcd13ifvqd00","pricing_plan_id":"cebpf4jnsgd1na2vs0mg"},{"bike_id":"6b6c4fab-0bd1-4725-a1b7-466b87a727bc","system_id":"levelo_inurba_marseille","lat":43.30535,"lon":5.36545,"is_reserved":false,"is_disabled":false,"rental_uris":{"android":"levelo://app?vid=6b6c4fab-0bd1-4725-a1b7-466b87a727bc","ios":"levelo://app?vid=6b6c4fab-0bd1-4725-a1b7-466b87a727bc"},"vehicle_type_id":"4","last_reported":1726758582,"current_range_meters":25200,"station_id":"ce4bgs12rcd13ifvqcag","pricing_plan_id":"cebpf4jnsgd1na2vs0mg"},{"bike_id":"1ddc360d-ab01-4527-bc71-ee8513ff3bf0","system_id":"levelo_inurba_marseille","lat":43.31352,"lon":5.36732,"is_reserved":false,"is_disabled":false,"rental_uris":{"android":"levelo://app?vid=1ddc360d-ab01-4527-bc71-ee8513ff3bf0","ios":"levelo://app?vid=1ddc360d-ab01-4527-bc71-ee8513ff3bf0"},"vehicle_type_id":"4","last_reported":1726758582,"current_range_meters":3200,"station_id":"ce4bgr92rcd13ifvqc6g","pricing_plan_id":"cebpf4jnsgd1na2vs0mg"},{"bike_id":"b58c164b-fb98-4cbb-90ed-c96f4092383a","system_id":"levelo_inurba_marseille","lat":43.27069,"lon":5.42274,"is_reserved":false,"is_disabled":false,"rental_uris":{"android":"levelo://app?vid=b58c164b-fb98-4cbb-90ed-c96f4092383a","ios":"levelo://app?vid=b58c164b-fb98-4cbb-90ed-c96f4092383a"},"vehicle_type_id":"4","last_reported":1726758582,"current_range_meters":34000,"station_id":"ce4bhk92rcd13ifvqgb0","pricing_plan_id":"cebpf4jnsgd1na2vs0mg"},{"bike_id":"1ac23373-1d9e-469d-b9c9-0fa13157db30","system_id":"levelo_inurba_marseille","lat":43.22929,"lon":5.35374,"is_reserved":false,"is_disabled":false,"rental_uris":{"android":"levelo://app?vid=1ac23373-1d9e-469d-b9c9-0fa13157db30","ios":"levelo://app?vid=1ac23373-1d9e-469d-b9c9-0fa13157db30"},"vehicle_type_id":"4","last_reported":1726758582,"current_range_meters":38800,"station_id":"cpo3532slgdg3j2ikp40","pricing_plan_id":"cebpf4jnsgd1na2vs0mg"},{"bike_id":"fa2e946d-01fe-4bb4-a2b0-55af60a0bcec","system_id":"levelo_inurba_marseille","lat":43.33733,"lon":5.3919,"is_reserved":false,"is_disabled":false,"rental_uris":{"android":"levelo://app?vid=fa2e946d-01fe-4bb4-a2b0-55af60a0bcec","ios":"levelo://app?vid=fa2e946d-01fe-4bb4-a2b0-55af60a0bcec"},"vehicle_type_id":"4","last_reported":1726758582,"current_range_meters":37600,"station_id":"ce4bhr92rcd13ifvqhsg","pricing_plan_id":"cebpf4jnsgd1na2vs0mg"},{"bike_id":"132dc555-3f2f-4a90-8c3b-7e320397f84d","system_id":"levelo_inurba_marseille","lat":43.25088,"lon":5.39522,"is_reserved":false,"is_disabled":false,"rental_uris":{"android":"levelo://app?vid=132dc555-3f2f-4a90-8c3b-7e320397f84d","ios":"levelo://app?vid=132dc555-3f2f-4a90-8c3b-7e320397f84d"},"vehicle_type_id":"4","last_reported":1726758582,"current_range_meters":30000,"station_id":"ce4bhm12rcd13ifvqgkg","pricing_plan_id":"cebpf4jnsgd1na2vs0mg"},{"bike_id":"9ff42941-53bc-4269-979d-857fecdc6f7e","system_id":"levelo_inurba_marseille","lat":43.29903,"lon":5.38891,"is_reserved":false,"is_disabled":false,"rental_uris":{"android":"levelo://app?vid=9ff42941-53bc-4269-979d-857fecdc6f7e","ios":"levelo://app?vid=9ff42941-53bc-4269-979d-857fecdc6f7e"},"vehicle_type_id":"4","last_reported":1726758582,"current_range_meters":8000,"station_id":"ce4bh392rcd13ifvqdl0","pricing_plan_id":"cebpf4jnsgd1na2vs0mg"},{"bike_id":"41c47646-e4b9-4932-91b6-3b2c2e51e143","system_id":"levelo_inurba_marseille","lat":43.28711,"lon":5.37944,"is_reserved":false,"is_disabled":false,"rental_uris":{"android":"levelo://app?vid=41c47646-e4b9-4932-91b6-3b2c2e51e143","ios":"levelo://app?vid=41c47646-e4b9-4932-91b6-3b2c2e51e143"},"vehicle_type_id":"4","last_reported":1726758582,"current_range_meters":4000,"station_id":"ce4bh9p2rcd13ifvqec0","pricing_plan_id":"cebpf4jnsgd1na2vs0mg"},{"bike_id":"328d45f9-980e-4811-97c0-47d761861509","system_id":"levelo_inurba_marseille","lat":43.29847,"lon":5.37836,"is_reserved":false,"is_disabled":false,"rental_uris":{"android":"levelo://app?vid=328d45f9-980e-4811-97c0-47d761861509","ios":"levelo://app?vid=328d45f9-980e-4811-97c0-47d761861509"},"vehicle_type_id":"4","last_reported":1726758582,"current_range_meters":6000,"station_id":"","pricing_plan_id":"cebpf4jnsgd1na2vs0mg"},{"bike_id":"dd367730-7b03-463b-b800-a4b419907d00","system_id":"levelo_inurba_marseille","lat":43.30932,"lon":5.40144,"is_reserved":false,"is_disabled":false,"rental_uris":{"android":"levelo://app?vid=dd367730-7b03-463b-b800-a4b419907d00","ios":"levelo://app?vid=dd367730-7b03-463b-b800-a4b419907d00"},"vehicle_type_id":"4","last_reported":1726758582,"current_range_meters":11200,"station_id":"ce4bgvp2rcd13ifvqct0","pricing_plan_id":"cebpf4jnsgd1na2vs0mg"},{"bike_id":"01cd51da-b961-4bd0-adee-b192b3b29a9f","system_id":"levelo_inurba_marseille","lat":43.27501,"lon":5.4245,"is_reserved":false,"is_disabled":false,"rental_uris":{"android":"levelo://app?vid=01cd51da-b961-4bd0-adee-b192b3b29a9f","ios":"levelo://app?vid=01cd51da-b961-4bd0-adee-b192b3b29a9f"},"vehicle_type_id":"4","last_reported":1726758582,"current_range_meters":30400,"station_id":"ce4bhn92rcd13ifvqgrg","pricing_plan_id":"cebpf4jnsgd1na2vs0mg"},{"bike_id":"7f74fc9e-b0a4-43d0-8b3e-945d61ceba2b","system_id":"levelo_inurba_marseille","lat":43.33024,"lon":5.39035,"is_reserved":false,"is_disabled":false,"rental_uris":{"android":"levelo://app?vid=7f74fc9e-b0a4-43d0-8b3e-945d61ceba2b","ios":"levelo://app?vid=7f74fc9e-b0a4-43d0-8b3e-945d61ceba2b"},"vehicle_type_id":"4","last_reported":1726758582,"current_range_meters":30000,"station_id":"ce4bhr92rcd13ifvqhrg","pricing_plan_id":"cebpf4jnsgd1na2vs0mg"},{"bike_id":"fa690805-233a-4a70-a9f3-33f1b67cdb1f","system_id":"levelo_inurba_marseille","lat":43.32282,"lon":5.38263,"is_reserved":false,"is_disabled":false,"rental_uris":{"android":"levelo://app?vid=fa690805-233a-4a70-a9f3-33f1b67cdb1f","ios":"levelo://app?vid=fa690805-233a-4a70-a9f3-33f1b67cdb1f"},"vehicle_type_id":"4","last_reported":1726758582,"current_range_meters":23200,"station_id":"ce4bhr12rcd13ifvqhqg","pricing_plan_id":"cebpf4jnsgd1na2vs0mg"},{"bike_id":"4bd16f42-8f32-4264-9b5b-2a81cb86b967","system_id":"levelo_inurba_marseille","lat":43.2827,"lon":5.35071,"is_reserved":false,"is_disabled":false,"rental_uris":{"android":"levelo://app?vid=4bd16f42-8f32-4264-9b5b-2a81cb86b967","ios":"levelo://app?vid=4bd16f42-8f32-4264-9b5b-2a81cb86b967"},"vehicle_type_id":"4","last_reported":1726758582,"current_range_meters":15200,"station_id":"ce4bhbp2rcd13ifvqerg","pricing_plan_id":"cebpf4jnsgd1na2vs0mg"},{"bike_id":"b5aaf55d-317f-46e0-913d-5437f8a74d17","system_id":"levelo_inurba_marseille","lat":43.31714,"lon":5.43708,"is_reserved":false,"is_disabled":false,"rental_uris":{"android":"levelo://app?vid=b5aaf55d-317f-46e0-913d-5437f8a74d17","ios":"levelo://app?vid=b5aaf55d-317f-46e0-913d-5437f8a74d17"},"vehicle_type_id":"4","last_reported":1726758582,"current_range_meters":19200,"station_id":"ce4bhp92rcd13ifvqhcg","pricing_plan_id":"cebpf4jnsgd1na2vs0mg"},{"bike_id":"122360ef-905f-4501-a729-dc448e9626d7","system_id":"levelo_inurba_marseille","lat":43.29377,"lon":5.37839,"is_reserved":false,"is_disabled":false,"rental_uris":{"android":"levelo://app?vid=122360ef-905f-4501-a729-dc448e9626d7","ios":"levelo://app?vid=122360ef-905f-4501-a729-dc448e9626d7"},"vehicle_type_id":"4","last_reported":1726758582,"current_range_meters":18800,"station_id":"ce4bgjh2rcd13ifvqbf0","pricing_plan_id":"cebpf4jnsgd1na2vs0mg"},{"bike_id":"58649c0e-357f-464e-a378-c77a22d095ac","system_id":"levelo_inurba_marseille","lat":43.305298,"lon":5.365385,"is_reserved":false,"is_disabled":false,"rental_uris":{"android":"levelo://app?vid=58649c0e-357f-464e-a378-c77a22d095ac","ios":"levelo://app?vid=58649c0e-357f-464e-a378-c77a22d095ac"},"vehicle_type_id":"4","last_reported":1726758582,"current_range_meters":10000,"station_id":"ce4bgs12rcd13ifvqcag","pricing_plan_id":"cebpf4jnsgd1na2vs0mg"},{"bike_id":"b2763354-ec6c-4733-8de6-6c4493759ae9","system_id":"levelo_inurba_marseille","lat":43.29103,"lon":5.40188,"is_reserved":false,"is_disabled":false,"rental_uris":{"android":"levelo://app?vid=b2763354-ec6c-4733-8de6-6c4493759ae9","ios":"levelo://app?vid=b2763354-ec6c-4733-8de6-6c4493759ae9"},"vehicle_type_id":"4","last_reported":1726758582,"current_range_meters":25600,"station_id":"","pricing_plan_id":"cebpf4jnsgd1na2vs0mg"},{"bike_id":"190afb13-fc25-42e3-ba7b-e4fb430dc103","system_id":"levelo_inurba_marseille","lat":43.27492,"lon":5.42448,"is_reserved":false,"is_disabled":false,"rental_uris":{"android":"levelo://app?vid=190afb13-fc25-42e3-ba7b-e4fb430dc103","ios":"levelo://app?vid=190afb13-fc25-42e3-ba7b-e4fb430dc103"},"vehicle_type_id":"4","last_reported":1726758582,"current_range_meters":18000,"station_id":"ce4bhn92rcd13ifvqgrg","pricing_plan_id":"cebpf4jnsgd1na2vs0mg"},{"bike_id":"d73ed22d-01d0-46a9-a0c1-c496cc8b3a54","system_id":"levelo_inurba_marseille","lat":43.30554,"lon":5.36534,"is_reserved":false,"is_disabled":false,"rental_uris":{"android":"levelo://app?vid=d73ed22d-01d0-46a9-a0c1-c496cc8b3a54","ios":"levelo://app?vid=d73ed22d-01d0-46a9-a0c1-c496cc8b3a54"},"vehicle_type_id":"4","last_reported":1726758582,"current_range_meters":40000,"station_id":"ce4bgs12rcd13ifvqcag","pricing_plan_id":"cebpf4jnsgd1na2vs0mg"},{"bike_id":"c18c2a06-f2aa-42c8-b64f-08dadd1f4665","system_id":"levelo_inurba_marseille","lat":43.28718,"lon":5.36088,"is_reserved":false,"is_disabled":false,"rental_uris":{"android":"levelo://app?vid=c18c2a06-f2aa-42c8-b64f-08dadd1f4665","ios":"levelo://app?vid=c18c2a06-f2aa-42c8-b64f-08dadd1f4665"},"vehicle_type_id":"4","last_reported":1726758582,"current_range_meters":28800,"station_id":"cki0cbj6b192h4jlfktg","pricing_plan_id":"cebpf4jnsgd1na2vs0mg"},{"bike_id":"d83a01c5-d00d-49bf-acda-94e4fd781fc3","system_id":"levelo_inurba_marseille","lat":43.27495,"lon":5.42453,"is_reserved":false,"is_disabled":false,"rental_uris":{"android":"levelo://app?vid=d83a01c5-d00d-49bf-acda-94e4fd781fc3","ios":"levelo://app?vid=d83a01c5-d00d-49bf-acda-94e4fd781fc3"},"vehicle_type_id":"4","last_reported":1726758582,"current_range_meters":17200,"station_id":"ce4bhn92rcd13ifvqgrg","pricing_plan_id":"cebpf4jnsgd1na2vs0mg"},{"bike_id":"1fb5ffe0-203d-4470-83ec-9169ae7b0773","system_id":"levelo_inurba_marseille","lat":43.24802,"lon":5.37454,"is_reserved":false,"is_disabled":false,"rental_uris":{"android":"levelo://app?vid=1fb5ffe0-203d-4470-83ec-9169ae7b0773","ios":"levelo://app?vid=1fb5ffe0-203d-4470-83ec-9169ae7b0773"},"vehicle_type_id":"4","last_reported":1726758582,"current_range_meters":24400,"station_id":"ce4bhgh2rcd13ifvqfb0","pricing_plan_id":"cebpf4jnsgd1na2vs0mg"},{"bike_id":"9b8fe04e-d5e7-4374-b89e-e64c6bfae679","system_id":"levelo_inurba_marseille","lat":43.27376,"lon":5.36251,"is_reserved":false,"is_disabled":false,"rental_uris":{"android":"levelo://app?vid=9b8fe04e-d5e7-4374-b89e-e64c6bfae679","ios":"levelo://app?vid=9b8fe04e-d5e7-4374-b89e-e64c6bfae679"},"vehicle_type_id":"4","last_reported":1726758582,"current_range_meters":26800,"station_id":"ce4bhbh2rcd13ifvqeo0","pricing_plan_id":"cebpf4jnsgd1na2vs0mg"},{"bike_id":"f166909f-a22c-4613-a881-062fe73ab23c","system_id":"levelo_inurba_marseille","lat":43.28462,"lon":5.35879,"is_reserved":false,"is_disabled":false,"rental_uris":{"android":"levelo://app?vid=f166909f-a22c-4613-a881-062fe73ab23c","ios":"levelo://app?vid=f166909f-a22c-4613-a881-062fe73ab23c"},"vehicle_type_id":"4","last_reported":1726758582,"current_range_meters":36000,"station_id":"ce4bhah2rcd13ifvqei0","pricing_plan_id":"cebpf4jnsgd1na2vs0mg"},{"bike_id":"3b5c402c-27d5-4010-ae48-42592c44e1cb","system_id":"levelo_inurba_marseille","lat":43.29217,"lon":5.38279,"is_reserved":false,"is_disabled":false,"rental_uris":{"android":"levelo://app?vid=3b5c402c-27d5-4010-ae48-42592c44e1cb","ios":"levelo://app?vid=3b5c402c-27d5-4010-ae48-42592c44e1cb"},"vehicle_type_id":"4","last_reported":1726758582,"current_range_meters":31200,"station_id":"","pricing_plan_id":"cebpf4jnsgd1na2vs0mg"},{"bike_id":"2f8b80e6-ac05-4bec-8c8f-425e5a1c234d","system_id":"levelo_inurba_marseille","lat":43.29528,"lon":5.37544,"is_reserved":false,"is_disabled":false,"rental_uris":{"android":"levelo://app?vid=2f8b80e6-ac05-4bec-8c8f-425e5a1c234d","ios":"levelo://app?vid=2f8b80e6-ac05-4bec-8c8f-425e5a1c234d"},"vehicle_type_id":"4","last_reported":1726758582,"current_range_meters":33200,"station_id":"ce4bgkp2rcd13ifvqbmg","pricing_plan_id":"cebpf4jnsgd1na2vs0mg"},{"bike_id":"71ac1fa5-71e0-44d1-b749-d4031b9c482e","system_id":"levelo_inurba_marseille","lat":43.301486,"lon":5.374152,"is_reserved":false,"is_disabled":false,"rental_uris":{"android":"levelo://app?vid=71ac1fa5-71e0-44d1-b749-d4031b9c482e","ios":"levelo://app?vid=71ac1fa5-71e0-44d1-b749-d4031b9c482e"},"vehicle_type_id":"4","last_reported":1726758582,"current_range_meters":32400,"station_id":"ce4bhi12rcd13ifvqfp0","pricing_plan_id":"cebpf4jnsgd1na2vs0mg"},{"bike_id":"c2c9a555-6ec8-4b92-b33e-073571605c93","system_id":"levelo_inurba_marseille","lat":43.23194,"lon":5.35556,"is_reserved":false,"is_disabled":false,"rental_uris":{"android":"levelo://app?vid=c2c9a555-6ec8-4b92-b33e-073571605c93","ios":"levelo://app?vid=c2c9a555-6ec8-4b92-b33e-073571605c93"},"vehicle_type_id":"4","last_reported":1726758582,"current_range_meters":32000,"station_id":"ce4bhu92rcd13ifvqi70","pricing_plan_id":"cebpf4jnsgd1na2vs0mg"},{"bike_id":"f29ac150-73fb-47ad-bc72-5411b6f0d7ce","system_id":"levelo_inurba_marseille","lat":43.2681,"lon":5.40271,"is_reserved":false,"is_disabled":false,"rental_uris":{"android":"levelo://app?vid=f29ac150-73fb-47ad-bc72-5411b6f0d7ce","ios":"levelo://app?vid=f29ac150-73fb-47ad-bc72-5411b6f0d7ce"},"vehicle_type_id":"4","last_reported":1726758582,"current_range_meters":7200,"station_id":"ce501612rcd8frsf0b60","pricing_plan_id":"cebpf4jnsgd1na2vs0mg"},{"bike_id":"96cf33b3-d979-46f1-ac0c-1280eb5c8ade","system_id":"levelo_inurba_marseille","lat":43.29555,"lon":5.42283,"is_reserved":false,"is_disabled":false,"rental_uris":{"android":"levelo://app?vid=96cf33b3-d979-46f1-ac0c-1280eb5c8ade","ios":"levelo://app?vid=96cf33b3-d979-46f1-ac0c-1280eb5c8ade"},"vehicle_type_id":"4","last_reported":1726758582,"current_range_meters":30800,"station_id":"ce4bhph2rcd13ifvqhdg","pricing_plan_id":"cebpf4jnsgd1na2vs0mg"},{"bike_id":"3ea8f54f-9145-4e7d-b8dd-375864b1fadc","system_id":"levelo_inurba_marseille","lat":43.31993,"lon":5.37202,"is_reserved":false,"is_disabled":false,"rental_uris":{"android":"levelo://app?vid=3ea8f54f-9145-4e7d-b8dd-375864b1fadc","ios":"levelo://app?vid=3ea8f54f-9145-4e7d-b8dd-375864b1fadc"},"vehicle_type_id":"4","last_reported":1726758582,"current_range_meters":18800,"station_id":"","pricing_plan_id":"cebpf4jnsgd1na2vs0mg"},{"bike_id":"f20cfc77-a79b-4077-a090-ff98c24ecc64","system_id":"levelo_inurba_marseille","lat":43.30554,"lon":5.36711,"is_reserved":false,"is_disabled":false,"rental_uris":{"android":"levelo://app?vid=f20cfc77-a79b-4077-a090-ff98c24ecc64","ios":"levelo://app?vid=f20cfc77-a79b-4077-a090-ff98c24ecc64"},"vehicle_type_id":"4","last_reported":1726758582,"current_range_meters":30000,"station_id":"ce4bgrp2rcd13ifvqc9g","pricing_plan_id":"cebpf4jnsgd1na2vs0mg"},{"bike_id":"1358537a-93f3-48f4-991a-e30060de39dd","system_id":"levelo_inurba_marseille","lat":43.29548,"lon":5.42293,"is_reserved":false,"is_disabled":false,"rental_uris":{"android":"levelo://app?vid=1358537a-93f3-48f4-991a-e30060de39dd","ios":"levelo://app?vid=1358537a-93f3-48f4-991a-e30060de39dd"},"vehicle_type_id":"4","last_reported":1726758582,"current_range_meters":10800,"station_id":"ce4bhph2rcd13ifvqhdg","pricing_plan_id":"cebpf4jnsgd1na2vs0mg"},{"bike_id":"4ee666ae-9183-467e-8736-10bcab55bd03","system_id":"levelo_inurba_marseille","lat":43.27999,"lon":5.40016,"is_reserved":false,"is_disabled":false,"rental_uris":{"android":"levelo://app?vid=4ee666ae-9183-467e-8736-10bcab55bd03","ios":"levelo://app?vid=4ee666ae-9183-467e-8736-10bcab55bd03"},"vehicle_type_id":"4","last_reported":1726758582,"current_range_meters":27600,"station_id":"ce4bho92rcd13ifvqh4g","pricing_plan_id":"cebpf4jnsgd1na2vs0mg"},{"bike_id":"7776ab3b-8d40-4a78-883a-d256e51019a0","system_id":"levelo_inurba_marseille","lat":43.28437,"lon":5.39191,"is_reserved":false,"is_disabled":false,"rental_uris":{"android":"levelo://app?vid=7776ab3b-8d40-4a78-883a-d256e51019a0","ios":"levelo://app?vid=7776ab3b-8d40-4a78-883a-d256e51019a0"},"vehicle_type_id":"4","last_reported":1726758582,"current_range_meters":36400,"station_id":"ce4bhoh2rcd13ifvqh5g","pricing_plan_id":"cebpf4jnsgd1na2vs0mg"},{"bike_id":"1120a87e-f56f-4309-a214-8069889a3cc3","system_id":"levelo_inurba_marseille","lat":43.26191,"lon":5.3745,"is_reserved":false,"is_disabled":false,"rental_uris":{"android":"levelo://app?vid=1120a87e-f56f-4309-a214-8069889a3cc3","ios":"levelo://app?vid=1120a87e-f56f-4309-a214-8069889a3cc3"},"vehicle_type_id":"4","last_reported":1726758582,"current_range_meters":38800,"station_id":"ce4bhgp2rcd13ifvqfc0","pricing_plan_id":"cebpf4jnsgd1na2vs0mg"},{"bike_id":"e4323aca-ee3b-42de-9701-7ea43fdfc61d","system_id":"levelo_inurba_marseille","lat":43.26216,"lon":5.37442,"is_reserved":false,"is_disabled":false,"rental_uris":{"android":"levelo://app?vid=e4323aca-ee3b-42de-9701-7ea43fdfc61d","ios":"levelo://app?vid=e4323aca-ee3b-42de-9701-7ea43fdfc61d"},"vehicle_type_id":"4","last_reported":1726758582,"current_range_meters":28800,"station_id":"ce4bhgp2rcd13ifvqfc0","pricing_plan_id":"cebpf4jnsgd1na2vs0mg"},{"bike_id":"edeeb84e-d23d-408a-bc9a-7234bbcc70d0","system_id":"levelo_inurba_marseille","lat":43.2842,"lon":5.34986,"is_reserved":false,"is_disabled":false,"rental_uris":{"android":"levelo://app?vid=edeeb84e-d23d-408a-bc9a-7234bbcc70d0","ios":"levelo://app?vid=edeeb84e-d23d-408a-bc9a-7234bbcc70d0"},"vehicle_type_id":"4","last_reported":1726758582,"current_range_meters":8000,"station_id":"ce4bhbh2rcd13ifvqepg","pricing_plan_id":"cebpf4jnsgd1na2vs0mg"},{"bike_id":"8e1cb32d-6352-48fb-a509-90f760954f3e","system_id":"levelo_inurba_marseille","lat":43.30556,"lon":5.36702,"is_reserved":false,"is_disabled":false,"rental_uris":{"android":"levelo://app?vid=8e1cb32d-6352-48fb-a509-90f760954f3e","ios":"levelo://app?vid=8e1cb32d-6352-48fb-a509-90f760954f3e"},"vehicle_type_id":"4","last_reported":1726758582,"current_range_meters":22000,"station_id":"ce4bgrp2rcd13ifvqc9g","pricing_plan_id":"cebpf4jnsgd1na2vs0mg"},{"bike_id":"ceb834a7-bb1b-42f7-ad8b-173397ac2c3e","system_id":"levelo_inurba_marseille","lat":43.30597,"lon":5.37236,"is_reserved":false,"is_disabled":false,"rental_uris":{"android":"levelo://app?vid=ceb834a7-bb1b-42f7-ad8b-173397ac2c3e","ios":"levelo://app?vid=ceb834a7-bb1b-42f7-ad8b-173397ac2c3e"},"vehicle_type_id":"4","last_reported":1726758582,"current_range_meters":25200,"station_id":"ce4bgqh2rcd13ifvqc4g","pricing_plan_id":"cebpf4jnsgd1na2vs0mg"},{"bike_id":"88068615-8377-4919-a422-c6e9bcaa3ab4","system_id":"levelo_inurba_marseille","lat":43.32292,"lon":5.38273,"is_reserved":false,"is_disabled":false,"rental_uris":{"android":"levelo://app?vid=88068615-8377-4919-a422-c6e9bcaa3ab4","ios":"levelo://app?vid=88068615-8377-4919-a422-c6e9bcaa3ab4"},"vehicle_type_id":"4","last_reported":1726758582,"current_range_meters":38800,"station_id":"ce4bhr12rcd13ifvqhqg","pricing_plan_id":"cebpf4jnsgd1na2vs0mg"},{"bike_id":"0c20ab6c-334d-49f2-88b1-a7741e392094","system_id":"levelo_inurba_marseille","lat":43.24552,"lon":5.39514,"is_reserved":false,"is_disabled":false,"rental_uris":{"android":"levelo://app?vid=0c20ab6c-334d-49f2-88b1-a7741e392094","ios":"levelo://app?vid=0c20ab6c-334d-49f2-88b1-a7741e392094"},"vehicle_type_id":"4","last_reported":1726758582,"current_range_meters":34800,"station_id":"ce4bhlp2rcd13ifvqgjg","pricing_plan_id":"cebpf4jnsgd1na2vs0mg"},{"bike_id":"4722ba9d-e474-4ce6-acc7-586090fe99fe","system_id":"levelo_inurba_marseille","lat":43.337444,"lon":5.374475,"is_reserved":false,"is_disabled":false,"rental_uris":{"android":"levelo://app?vid=4722ba9d-e474-4ce6-acc7-586090fe99fe","ios":"levelo://app?vid=4722ba9d-e474-4ce6-acc7-586090fe99fe"},"vehicle_type_id":"4","last_reported":1726758582,"current_range_meters":16000,"station_id":"","pricing_plan_id":"cebpf4jnsgd1na2vs0mg"},{"bike_id":"75b93ba7-eec2-4f7c-b126-88a0f3942a66","system_id":"levelo_inurba_marseille","lat":43.22932,"lon":5.35375,"is_reserved":false,"is_disabled":false,"rental_uris":{"android":"levelo://app?vid=75b93ba7-eec2-4f7c-b126-88a0f3942a66","ios":"levelo://app?vid=75b93ba7-eec2-4f7c-b126-88a0f3942a66"},"vehicle_type_id":"4","last_reported":1726758582,"current_range_meters":30400,"station_id":"cpo3532slgdg3j2ikp40","pricing_plan_id":"cebpf4jnsgd1na2vs0mg"},{"bike_id":"68159eba-e301-4077-943e-46befe1273f0","system_id":"levelo_inurba_marseille","lat":43.23192,"lon":5.35562,"is_reserved":false,"is_disabled":false,"rental_uris":{"android":"levelo://app?vid=68159eba-e301-4077-943e-46befe1273f0","ios":"levelo://app?vid=68159eba-e301-4077-943e-46befe1273f0"},"vehicle_type_id":"4","last_reported":1726758582,"current_range_meters":37600,"station_id":"ce4bhu92rcd13ifvqi70","pricing_plan_id":"cebpf4jnsgd1na2vs0mg"},{"bike_id":"686a7ca1-b460-40b5-9c68-158c7e315083","system_id":"levelo_inurba_marseille","lat":43.28616,"lon":5.35096,"is_reserved":false,"is_disabled":false,"rental_uris":{"android":"levelo://app?vid=686a7ca1-b460-40b5-9c68-158c7e315083","ios":"levelo://app?vid=686a7ca1-b460-40b5-9c68-158c7e315083"},"vehicle_type_id":"4","last_reported":1726758582,"current_range_meters":20400,"station_id":"ce4bhch2rcd13ifvqeug","pricing_plan_id":"cebpf4jnsgd1na2vs0mg"},{"bike_id":"60bef230-2d55-477e-b367-7df41276ee67","system_id":"levelo_inurba_marseille","lat":43.262118,"lon":5.374441,"is_reserved":false,"is_disabled":false,"rental_uris":{"android":"levelo://app?vid=60bef230-2d55-477e-b367-7df41276ee67","ios":"levelo://app?vid=60bef230-2d55-477e-b367-7df41276ee67"},"vehicle_type_id":"4","last_reported":1726758582,"current_range_meters":22800,"station_id":"ce4bhgp2rcd13ifvqfc0","pricing_plan_id":"cebpf4jnsgd1na2vs0mg"},{"bike_id":"2812296a-8897-448f-870c-c9b7e30cdf42","system_id":"levelo_inurba_marseille","lat":43.29517,"lon":5.37497,"is_reserved":false,"is_disabled":false,"rental_uris":{"android":"levelo://app?vid=2812296a-8897-448f-870c-c9b7e30cdf42","ios":"levelo://app?vid=2812296a-8897-448f-870c-c9b7e30cdf42"},"vehicle_type_id":"4","last_reported":1726758582,"current_range_meters":30000,"station_id":"ce4bgkp2rcd13ifvqbmg","pricing_plan_id":"cebpf4jnsgd1na2vs0mg"},{"bike_id":"8f09406c-87a7-4af6-8c83-97a374333b71","system_id":"levelo_inurba_marseille","lat":43.2958,"lon":5.3752,"is_reserved":false,"is_disabled":false,"rental_uris":{"android":"levelo://app?vid=8f09406c-87a7-4af6-8c83-97a374333b71","ios":"levelo://app?vid=8f09406c-87a7-4af6-8c83-97a374333b71"},"vehicle_type_id":"4","last_reported":1726758582,"current_range_meters":20000,"station_id":"ce4bgh92rcd13ifvqb50","pricing_plan_id":"cebpf4jnsgd1na2vs0mg"},{"bike_id":"6d760fd8-3e59-4275-82d2-70708398a2f0","system_id":"levelo_inurba_marseille","lat":43.29421,"lon":5.38617,"is_reserved":false,"is_disabled":false,"rental_uris":{"android":"levelo://app?vid=6d760fd8-3e59-4275-82d2-70708398a2f0","ios":"levelo://app?vid=6d760fd8-3e59-4275-82d2-70708398a2f0"},"vehicle_type_id":"4","last_reported":1726758582,"current_range_meters":30800,"station_id":"ce4bh2h2rcd13ifvqdh0","pricing_plan_id":"cebpf4jnsgd1na2vs0mg"},{"bike_id":"0f9e353b-34be-4131-bc94-f528c8afe4b7","system_id":"levelo_inurba_marseille","lat":43.32484,"lon":5.36559,"is_reserved":false,"is_disabled":false,"rental_uris":{"android":"levelo://app?vid=0f9e353b-34be-4131-bc94-f528c8afe4b7","ios":"levelo://app?vid=0f9e353b-34be-4131-bc94-f528c8afe4b7"},"vehicle_type_id":"4","last_reported":1726758582,"current_range_meters":23200,"station_id":"ce4bhs12rcd13ifvqhvg","pricing_plan_id":"cebpf4jnsgd1na2vs0mg"},{"bike_id":"bce00908-476b-48ab-a54d-9b0f6ad0a5d7","system_id":"levelo_inurba_marseille","lat":43.25109,"lon":5.40323,"is_reserved":false,"is_disabled":false,"rental_uris":{"android":"levelo://app?vid=bce00908-476b-48ab-a54d-9b0f6ad0a5d7","ios":"levelo://app?vid=bce00908-476b-48ab-a54d-9b0f6ad0a5d7"},"vehicle_type_id":"4","last_reported":1726758582,"current_range_meters":30800,"station_id":"ce4bhlh2rcd13ifvqgig","pricing_plan_id":"cebpf4jnsgd1na2vs0mg"},{"bike_id":"c785ed4a-1600-48fc-b4c7-835751fe33f0","system_id":"levelo_inurba_marseille","lat":43.29635,"lon":5.406,"is_reserved":false,"is_disabled":false,"rental_uris":{"android":"levelo://app?vid=c785ed4a-1600-48fc-b4c7-835751fe33f0","ios":"levelo://app?vid=c785ed4a-1600-48fc-b4c7-835751fe33f0"},"vehicle_type_id":"4","last_reported":1726758582,"current_range_meters":28400,"station_id":"ce4bh0h2rcd13ifvqd60","pricing_plan_id":"cebpf4jnsgd1na2vs0mg"},{"bike_id":"fafa835d-b96d-43e6-853a-96c7a19bd5c5","system_id":"levelo_inurba_marseille","lat":43.31124,"lon":5.37766,"is_reserved":false,"is_disabled":false,"rental_uris":{"android":"levelo://app?vid=fafa835d-b96d-43e6-853a-96c7a19bd5c5","ios":"levelo://app?vid=fafa835d-b96d-43e6-853a-96c7a19bd5c5"},"vehicle_type_id":"4","last_reported":1726758582,"current_range_meters":37600,"station_id":"ce4bgt92rcd13ifvqcg0","pricing_plan_id":"cebpf4jnsgd1na2vs0mg"},{"bike_id":"7ee8aea1-3130-4ccb-a712-84e09fd20fa5","system_id":"levelo_inurba_marseille","lat":43.29516,"lon":5.37503,"is_reserved":false,"is_disabled":false,"rental_uris":{"android":"levelo://app?vid=7ee8aea1-3130-4ccb-a712-84e09fd20fa5","ios":"levelo://app?vid=7ee8aea1-3130-4ccb-a712-84e09fd20fa5"},"vehicle_type_id":"4","last_reported":1726758582,"current_range_meters":21600,"station_id":"ce4bgkp2rcd13ifvqbmg","pricing_plan_id":"cebpf4jnsgd1na2vs0mg"},{"bike_id":"acf44b62-d8c8-47a7-a8d1-9161d6244362","system_id":"levelo_inurba_marseille","lat":43.23195,"lon":5.35554,"is_reserved":false,"is_disabled":false,"rental_uris":{"android":"levelo://app?vid=acf44b62-d8c8-47a7-a8d1-9161d6244362","ios":"levelo://app?vid=acf44b62-d8c8-47a7-a8d1-9161d6244362"},"vehicle_type_id":"4","last_reported":1726758582,"current_range_meters":12000,"station_id":"ce4bhu92rcd13ifvqi70","pricing_plan_id":"cebpf4jnsgd1na2vs0mg"},{"bike_id":"c92c956f-ff68-47f5-b957-0b36b25bdd87","system_id":"levelo_inurba_marseille","lat":43.29578,"lon":5.36741,"is_reserved":false,"is_disabled":false,"rental_uris":{"android":"levelo://app?vid=c92c956f-ff68-47f5-b957-0b36b25bdd87","ios":"levelo://app?vid=c92c956f-ff68-47f5-b957-0b36b25bdd87"},"vehicle_type_id":"4","last_reported":1726758582,"current_range_meters":28000,"station_id":"ce4bgph2rcd13ifvqc2g","pricing_plan_id":"cebpf4jnsgd1na2vs0mg"},{"bike_id":"bceb081d-2f93-4ea4-85e0-810ea411875a","system_id":"levelo_inurba_marseille","lat":43.32478,"lon":5.36567,"is_reserved":false,"is_disabled":false,"rental_uris":{"android":"levelo://app?vid=bceb081d-2f93-4ea4-85e0-810ea411875a","ios":"levelo://app?vid=bceb081d-2f93-4ea4-85e0-810ea411875a"},"vehicle_type_id":"4","last_reported":1726758582,"current_range_meters":38400,"station_id":"ce4bhs12rcd13ifvqhvg","pricing_plan_id":"cebpf4jnsgd1na2vs0mg"},{"bike_id":"e2b38383-16c2-4b47-bc2f-0bcdac78c28e","system_id":"levelo_inurba_marseille","lat":43.25785,"lon":5.41079,"is_reserved":false,"is_disabled":false,"rental_uris":{"android":"levelo://app?vid=e2b38383-16c2-4b47-bc2f-0bcdac78c28e","ios":"levelo://app?vid=e2b38383-16c2-4b47-bc2f-0bcdac78c28e"},"vehicle_type_id":"4","last_reported":1726758582,"current_range_meters":24400,"station_id":"","pricing_plan_id":"cebpf4jnsgd1na2vs0mg"},{"bike_id":"cc3f3ae1-0112-4305-9a27-17d0ada41f9b","system_id":"levelo_inurba_marseille","lat":43.26945,"lon":5.40244,"is_reserved":false,"is_disabled":false,"rental_uris":{"android":"levelo://app?vid=cc3f3ae1-0112-4305-9a27-17d0ada41f9b","ios":"levelo://app?vid=cc3f3ae1-0112-4305-9a27-17d0ada41f9b"},"vehicle_type_id":"4","last_reported":1726758582,"current_range_meters":23200,"station_id":"cjm6bp8fraef2m0cb0m0","pricing_plan_id":"cebpf4jnsgd1na2vs0mg"},{"bike_id":"6f988c5d-2bc1-49fc-a315-8d26e5bbc8e2","system_id":"levelo_inurba_marseille","lat":43.30537,"lon":5.367,"is_reserved":false,"is_disabled":false,"rental_uris":{"android":"levelo://app?vid=6f988c5d-2bc1-49fc-a315-8d26e5bbc8e2","ios":"levelo://app?vid=6f988c5d-2bc1-49fc-a315-8d26e5bbc8e2"},"vehicle_type_id":"4","last_reported":1726758582,"current_range_meters":38800,"station_id":"ce4bgrp2rcd13ifvqc9g","pricing_plan_id":"cebpf4jnsgd1na2vs0mg"},