{"last_updated":1720458420,"ttl":30,"version":"2.2","data":{"bikes":[{"bike_id":"5bc1f65c-6b7c-4100-924e-7daf24a2b7fb","system_id":"levelo_inurba_marseille","lat":43.312239,"lon":5.368562,"is_reserved":false,"is_disabled":false,"rental_uris":{"android":"levelo://app?vid=5bc1f65c-6b7c-4100-924e-7daf24a2b7fb","ios":"levelo://app?vid=5bc1f65c-6b7c-4100-924e-7daf24a2b7fb"},"vehicle_type_id":"4","last_reported":1720458420,"current_range_meters":28400,"station_id":"ce4bgl92rcd13ifvqbq0","pricing_plan_id":"cebpf4jnsgd1na2vs0mg"},{"bike_id":"189bad21-60ac-472e-abbc-f53947339b78","system_id":"levelo_inurba_marseille","lat":43.314811,"lon":5.373103,"is_reserved":false,"is_disabled":false,"rental_uris":{"android":"levelo://app?vid=189bad21-60ac-472e-abbc-f53947339b78","ios":"levelo://app?vid=189bad21-60ac-472e-abbc-f53947339b78"},"vehicle_type_id":"4","last_reported":1720458420,"current_range_meters":400,"station_id":"ce4bgt12rcd13ifvqcd0","pricing_plan_id":"cebpf4jnsgd1na2vs0mg"},{"bike_id":"2a5e531a-ff5b-4a33-94c9-cb2aba221a80","system_id":"levelo_inurba_marseille","lat":43.314811,"lon":5.373103,"is_reserved":false,"is_disabled":false,"rental_uris":{"android":"levelo://app?vid=2a5e531a-ff5b-4a33-94c9-cb2aba221a80","ios":"levelo://app?vid=2a5e531a-ff5b-4a33-94c9-cb2aba221a80"},"vehicle_type_id":"4","last_reported":1720458420,"current_range_meters":21200,"station_id":"ce4bgt12rcd13ifvqcd0","pricing_plan_id":"cebpf4jnsgd1na2vs0mg"},{"bike_id":"b643edf9-654c-4207-893a-8920fe44cd60","system_id":"levelo_inurba_marseille","lat":43.314811,"lon":5.373104,"is_reserved":false,"is_disabled":false,"rental_uris":{"android":"levelo://app?vid=b643edf9-654c-4207-893a-8920fe44cd60","ios":"levelo://app?vid=b643edf9-654c-4207-893a-8920fe44cd60"},"vehicle_type_id":"4","last_reported":1720458420,"current_range_meters":31600,"station_id":"ce4bgt12rcd13ifvqcd0","pricing_plan_id":"cebpf4jnsgd1na2vs0mg"},{"bike_id":"bbf0a617-a1ba-4369-8e35-cb47cf26cc55","system_id":"levelo_inurba_marseille","lat":43.31457,"lon":5.373826,"is_reserved":false,"is_disabled":false,"rental_uris":{"android":"levelo://app?vid=bbf0a617-a1ba-4369-8e35-cb47cf26cc55","ios":"levelo://app?vid=bbf0a617-a1ba-4369-8e35-cb47cf26cc55"},"vehicle_type_id":"4","last_reported":1720458420,"current_range_meters":11200,"station_id":"","pricing_plan_id":"cebpf4jnsgd1na2vs0mg"},{"bike_id":"ef29b4eb-86ee-4265-a077-a4dc6ea48121","system_id":"levelo_inurba_marseille","lat":43.313487,"lon":5.374557,"is_reserved":false,"is_disabled":false,"rental_uris":{"android":"levelo://app?vid=ef29b4eb-86ee-4265-a077-a4dc6ea48121","ios":"levelo://app?vid=ef29b4eb-86ee-4265-a077-a4dc6ea48121"},"vehicle_type_id":"4","last_reported":1720458420,"current_range_meters":0,"station_id":"","pricing_plan_id":"cebpf4jnsgd1na2vs0mg"},{"bike_id":"7736c4af-5712-42c2-a5b9-ff19402a26ce","system_id":"levelo_inurba_marseille","lat":43.30552,"lon":5.36555,"is_reserved":false,"is_disabled":false,"rental_uris":{"android":"levelo://app?vid=7736c4af-5712-42c2-a5b9-ff19402a26ce","ios":"levelo://app?vid=7736c4af-5712-42c2-a5b9-ff19402a26ce"},"vehicle_type_id":"4","last_reported":1720458420,"current_range_meters":0,"station_id":"ce4bgs12rcd13ifvqcag","pricing_plan_id":"cebpf4jnsgd1na2vs0mg"},{"bike_id":"0b05e00d-2f89-4ab6-a18d-c6b8aa675a50","system_id":"levelo_inurba_marseille","lat":43.305368,"lon":5.367343,"is_reserved":false,"is_disabled":false,"rental_uris":{"android":"levelo://app?vid=0b05e00d-2f89-4ab6-a18d-c6b8aa675a50","ios":"levelo://app?vid=0b05e00d-2f89-4ab6-a18d-c6b8aa675a50"},"vehicle_type_id":"4","last_reported":1720458420,"current_range_meters":7200,"station_id":"ce4bgrp2rcd13ifvqc9g","pricing_plan_id":"cebpf4jnsgd1na2vs0mg"},{"bike_id":"8c7c93ca-eee3-4ce0-be2f-4b740987cd66","system_id":"levelo_inurba_marseille","lat":43.30534,"lon":5.36661,"is_reserved":false,"is_disabled":false,"rental_uris":{"android":"levelo://app?vid=8c7c93ca-eee3-4ce0-be2f-4b740987cd66","ios":"levelo://app?vid=8c7c93ca-eee3-4ce0-be2f-4b740987cd66"},"vehicle_type_id":"4","last_reported":1720458420,"current_range_meters":24400,"station_id":"","pricing_plan_id":"cebpf4jnsgd1na2vs0mg"},{"bike_id":"16141fa9-a9d7-413f-904b-33f00b2c0115","system_id":"levelo_inurba_marseille","lat":43.305989,"lon":5.37225,"is_reserved":false,"is_disabled":false,"rental_uris":{"android":"levelo://app?vid=16141fa9-a9d7-413f-904b-33f00b2c0115","ios":"levelo://app?vid=16141fa9-a9d7-413f-904b-33f00b2c0115"},"vehicle_type_id":"4","last_reported":1720458420,"current_range_meters":0,"station_id":"ce4bgqh2rcd13ifvqc4g","pricing_plan_id":"cebpf4jnsgd1na2vs0mg"},{"bike_id":"9b3c8259-0b1a-44c9-b136-5918c5e1d05e","system_id":"levelo_inurba_marseille","lat":43.311125,"lon":5.377624,"is_reserved":false,"is_disabled":false,"rental_uris":{"android":"levelo://app?vid=9b3c8259-0b1a-44c9-b136-5918c5e1d05e","ios":"levelo://app?vid=9b3c8259-0b1a-44c9-b136-5918c5e1d05e"},"vehicle_type_id":"4","last_reported":1720458420,"current_range_meters":4800,"station_id":"ce4bgt92rcd13ifvqcg0","pricing_plan_id":"cebpf4jnsgd1na2vs0mg"},{"bike_id":"2ed80a52-7ca2-4dfd-8755-908c57bfcb7b","system_id":"levelo_inurba_marseille","lat":43.311131,"lon":5.377651,"is_reserved":false,"is_disabled":false,"rental_uris":{"android":"levelo://app?vid=2ed80a52-7ca2-4dfd-8755-908c57bfcb7b","ios":"levelo://app?vid=2ed80a52-7ca2-4dfd-8755-908c57bfcb7b"},"vehicle_type_id":"4","last_reported":1720458420,"current_range_meters":6800,"station_id":"ce4bgt92rcd13ifvqcg0","pricing_plan_id":"cebpf4jnsgd1na2vs0mg"},{"bike_id":"6784afd0-c86f-4b0a-9d5d-a3e13f2d4c0f","system_id":"levelo_inurba_marseille","lat":43.31716,"lon":5.37741,"is_reserved":false,"is_disabled":false,"rental_uris":{"android":"levelo://app?vid=6784afd0-c86f-4b0a-9d5d-a3e13f2d4c0f","ios":"levelo://app?vid=6784afd0-c86f-4b0a-9d5d-a3e13f2d4c0f"},"vehicle_type_id":"4","last_reported":1720458420,"current_range_meters":21600,"station_id":"ce4bgth2rcd13ifvqch0","pricing_plan_id":"cebpf4jnsgd1na2vs0mg"},{"bike_id":"3714ec43-7374-4e1e-a24a-ae319751c984","system_id":"levelo_inurba_marseille","lat":43.30579,"lon":5.37445,"is_reserved":false,"is_disabled":false,"rental_uris":{"android":"levelo://app?vid=3714ec43-7374-4e1e-a24a-ae319751c984","ios":"levelo://app?vid=3714ec43-7374-4e1e-a24a-ae319751c984"},"vehicle_type_id":"4","last_reported":1720458420,"current_range_meters":16400,"station_id":"","pricing_plan_id":"cebpf4jnsgd1na2vs0mg"},{"bike_id":"c9e025aa-a5ae-442d-9fad-105c464adb1e","system_id":"levelo_inurba_marseille","lat":43.301396,"lon":5.387812,"is_reserved":false,"is_disabled":false,"rental_uris":{"android":"levelo://app?vid=c9e025aa-a5ae-442d-9fad-105c464adb1e","ios":"levelo://app?vid=c9e025aa-a5ae-442d-9fad-105c464adb1e"},"vehicle_type_id":"4","last_reported":1720458420,"current_range_meters":6800,"station_id":"ce4bghh2rcd13ifvqb60","pricing_plan_id":"cebpf4jnsgd1na2vs0mg"},{"bike_id":"f19210e1-ac27-456c-8ae2-b967c6dac243","system_id":"levelo_inurba_marseille","lat":43.301939,"lon":5.366286,"is_reserved":false,"is_disabled":false,"rental_uris":{"android":"levelo://app?vid=f19210e1-ac27-456c-8ae2-b967c6dac243","ios":"levelo://app?vid=f19210e1-ac27-456c-8ae2-b967c6dac243"},"vehicle_type_id":"4","last_reported":1720458420,"current_range_meters":400,"station_id":"ce4bgrh2rcd13ifvqc8g","pricing_plan_id":"cebpf4jnsgd1na2vs0mg"},{"bike_id":"7fe7052d-a78d-4a30-8a4d-bb84250b5a7b","system_id":"levelo_inurba_marseille","lat":43.301907,"lon":5.366227,"is_reserved":false,"is_disabled":false,"rental_uris":{"android":"levelo://app?vid=7fe7052d-a78d-4a30-8a4d-bb84250b5a7b","ios":"levelo://app?vid=7fe7052d-a78d-4a30-8a4d-bb84250b5a7b"},"vehicle_type_id":"4","last_reported":1720458420,"current_range_meters":0,"station_id":"ce4bgrh2rcd13ifvqc8g","pricing_plan_id":"cebpf4jnsgd1na2vs0mg"},{"bike_id":"874f8bf2-bf7c-4550-9a7e-aefaa9b9c6dd","system_id":"levelo_inurba_marseille","lat":43.301939,"lon":5.366286,"is_reserved":false,"is_disabled":false,"rental_uris":{"android":"levelo://app?vid=874f8bf2-bf7c-4550-9a7e-aefaa9b9c6dd","ios":"levelo://app?vid=874f8bf2-bf7c-4550-9a7e-aefaa9b9c6dd"},"vehicle_type_id":"4","last_reported":1720458420,"current_range_meters":18000,"station_id":"ce4bgrh2rcd13ifvqc8g","pricing_plan_id":"cebpf4jnsgd1na2vs0mg"},{"bike_id":"b002fede-79ce-4139-bb55-6a87446cf623","system_id":"levelo_inurba_marseille","lat":43.30173,"lon":5.36854,"is_reserved":false,"is_disabled":false,"rental_uris":{"android":"levelo://app?vid=b002fede-79ce-4139-bb55-6a87446cf623","ios":"levelo://app?vid=b002fede-79ce-4139-bb55-6a87446cf623"},"vehicle_type_id":"4","last_reported":1720458420,"current_range_meters":24800,"station_id":"","pricing_plan_id":"cebpf4jnsgd1na2vs0mg"},{"bike_id":"10547e81-fc8d-4808-b367-a784008cf1cb","system_id":"levelo_inurba_marseille","lat":43.301008,"lon":5.368712,"is_reserved":false,"is_disabled":false,"rental_uris":{"android":"levelo://app?vid=10547e81-fc8d-4808-b367-a784008cf1cb","ios":"levelo://app?vid=10547e81-fc8d-4808-b367-a784008cf1cb"},"vehicle_type_id":"4","last_reported":1720458420,"current_range_meters":11200,"station_id":"","pricing_plan_id":"cebpf4jnsgd1na2vs0mg"},{"bike_id":"4501fb02-015c-4902-b78b-53bc4746f442","system_id":"levelo_inurba_marseille","lat":43.324753,"lon":5.365737,"is_reserved":false,"is_disabled":false,"rental_uris":{"android":"levelo://app?vid=4501fb02-015c-4902-b78b-53bc4746f442","ios":"levelo://app?vid=4501fb02-015c-4902-b78b-53bc4746f442"},"vehicle_type_id":"4","last_reported":1720458420,"current_range_meters":18800,"station_id":"ce4bhs12rcd13ifvqhvg","pricing_plan_id":"cebpf4jnsgd1na2vs0mg"},{"bike_id":"53f41f08-9ebe-4743-9c64-53f3d0ac2a2f","system_id":"levelo_inurba_marseille","lat":43.32478,"lon":5.36573,"is_reserved":false,"is_disabled":false,"rental_uris":{"android":"levelo://app?vid=53f41f08-9ebe-4743-9c64-53f3d0ac2a2f","ios":"levelo://app?vid=53f41f08-9ebe-4743-9c64-53f3d0ac2a2f"},"vehicle_type_id":"4","last_reported":1720458420,"current_range_meters":28000,"station_id":"ce4bhs12rcd13ifvqhvg","pricing_plan_id":"cebpf4jnsgd1na2vs0mg"},{"bike_id":"9fd9b59a-5da4-4134-b647-b99f24518221","system_id":"levelo_inurba_marseille","lat":43.324843,"lon":5.365719,"is_reserved":false,"is_disabled":false,"rental_uris":{"android":"levelo://app?vid=9fd9b59a-5da4-4134-b647-b99f24518221","ios":"levelo://app?vid=9fd9b59a-5da4-4134-b647-b99f24518221"},"vehicle_type_id":"4","last_reported":1720458420,"current_range_meters":22800,"station_id":"ce4bhs12rcd13ifvqhvg","pricing_plan_id":"cebpf4jnsgd1na2vs0mg"},{"bike_id":"bfbac28e-ca61-49be-a138-f21128ab9ef8","system_id":"levelo_inurba_marseille","lat":43.324771,"lon":5.36557,"is_reserved":false,"is_disabled":false,"rental_uris":{"android":"levelo://app?vid=bfbac28e-ca61-49be-a138-f21128ab9ef8","ios":"levelo://app?vid=bfbac28e-ca61-49be-a138-f21128ab9ef8"},"vehicle_type_id":"4","last_reported":1720458420,"current_range_meters":20000,"station_id":"ce4bhs12rcd13ifvqhvg","pricing_plan_id":"cebpf4jnsgd1na2vs0mg"},{"bike_id":"10c2353a-2c4a-482a-8efb-60eb4dbf93f8","system_id":"levelo_inurba_marseille","lat":43.324847,"lon":5.365706,"is_reserved":false,"is_disabled":false,"rental_uris":{"android":"levelo://app?vid=10c2353a-2c4a-482a-8efb-60eb4dbf93f8","ios":"levelo://app?vid=10c2353a-2c4a-482a-8efb-60eb4dbf93f8"},"vehicle_type_id":"4","last_reported":1720458420,"current_range_meters":7200,"station_id":"ce4bhs12rcd13ifvqhvg","pricing_plan_id":"cebpf4jnsgd1na2vs0mg"},{"bike_id":"3237f52b-a4e3-48fd-b51b-50a85dc47cc3","system_id":"levelo_inurba_marseille","lat":43.324771,"lon":5.36557,"is_reserved":false,"is_disabled":false,"rental_uris":{"android":"levelo://app?vid=3237f52b-a4e3-48fd-b51b-50a85dc47cc3","ios":"levelo://app?vid=3237f52b-a4e3-48fd-b51b-50a85dc47cc3"},"vehicle_type_id":"4","last_reported":1720458420,"current_range_meters":20400,"station_id":"ce4bhs12rcd13ifvqhvg","pricing_plan_id":"cebpf4jnsgd1na2vs0mg"},{"bike_id":"e9f581c0-f781-4499-8fc4-a5bc32e8edb1","system_id":"levelo_inurba_marseille","lat":43.324917,"lon":5.365688,"is_reserved":false,"is_disabled":false,"rental_uris":{"android":"levelo://app?vid=e9f581c0-f781-4499-8fc4-a5bc32e8edb1","ios":"levelo://app?vid=e9f581c0-f781-4499-8fc4-a5bc32e8edb1"},"vehicle_type_id":"4","last_reported":1720458420,"current_range_meters":22000,"station_id":"ce4bhs12rcd13ifvqhvg","pricing_plan_id":"cebpf4jnsgd1na2vs0mg"},{"bike_id":"2253b3b9-2fce-4049-9f7a-c741c740d458","system_id":"levelo_inurba_marseille","lat":43.310804,"lon":5.38359,"is_reserved":false,"is_disabled":false,"rental_uris":{"android":"levelo://app?vid=2253b3b9-2fce-4049-9f7a-c741c740d458","ios":"levelo://app?vid=2253b3b9-2fce-4049-9f7a-c741c740d458"},"vehicle_type_id":"4","last_reported":1720458420,"current_range_meters":16400,"station_id":"ce4bgv92rcd13ifvqcr0","pricing_plan_id":"cebpf4jnsgd1na2vs0mg"},{"bike_id":"49c7e1dc-3964-489a-87f8-9338077392fd","system_id":"levelo_inurba_marseille","lat":43.310804,"lon":5.38359,"is_reserved":false,"is_disabled":false,"rental_uris":{"android":"levelo://app?vid=49c7e1dc-3964-489a-87f8-9338077392fd","ios":"levelo://app?vid=49c7e1dc-3964-489a-87f8-9338077392fd"},"vehicle_type_id":"4","last_reported":1720458420,"current_range_meters":0,"station_id":"ce4bgv92rcd13ifvqcr0","pricing_plan_id":"cebpf4jnsgd1na2vs0mg"},{"bike_id":"7001b0da-d9d8-45a9-9c5b-eb07131f0bd4","system_id":"levelo_inurba_marseille","lat":43.319935,"lon":5.381699,"is_reserved":false,"is_disabled":false,"rental_uris":{"android":"levelo://app?vid=7001b0da-d9d8-45a9-9c5b-eb07131f0bd4","ios":"levelo://app?vid=7001b0da-d9d8-45a9-9c5b-eb07131f0bd4"},"vehicle_type_id":"4","last_reported":1720458420,"current_range_meters":7200,"station_id":"ce4bhr12rcd13ifvqhpg","pricing_plan_id":"cebpf4jnsgd1na2vs0mg"},{"bike_id":"a7dd91ad-18e9-4d19-b8b2-c076a582d7ac","system_id":"levelo_inurba_marseille","lat":43.319935,"lon":5.381699,"is_reserved":false,"is_disabled":false,"rental_uris":{"android":"levelo://app?vid=a7dd91ad-18e9-4d19-b8b2-c076a582d7ac","ios":"levelo://app?vid=a7dd91ad-18e9-4d19-b8b2-c076a582d7ac"},"vehicle_type_id":"4","last_reported":1720458420,"current_range_meters":25200,"station_id":"ce4bhr12rcd13ifvqhpg","pricing_plan_id":"cebpf4jnsgd1na2vs0mg"},{"bike_id":"c1fe336f-8cde-409c-ae7f-9ae0078192a2","system_id":"levelo_inurba_marseille","lat":43.313571,"lon":5.384829,"is_reserved":false,"is_disabled":false,"rental_uris":{"android":"levelo://app?vid=c1fe336f-8cde-409c-ae7f-9ae0078192a2","ios":"levelo://app?vid=c1fe336f-8cde-409c-ae7f-9ae0078192a2"},"vehicle_type_id":"4","last_reported":1720458420,"current_range_meters":6800,"station_id":"ce4bgt92rcd13ifvqcf0","pricing_plan_id":"cebpf4jnsgd1na2vs0mg"},{"bike_id":"a7772409-fb78-42fe-8b4a-36dfe78671e4","system_id":"levelo_inurba_marseille","lat":43.30292,"lon":5.37927,"is_reserved":false,"is_disabled":false,"rental_uris":{"android":"levelo://app?vid=a7772409-fb78-42fe-8b4a-36dfe78671e4","ios":"levelo://app?vid=a7772409-fb78-42fe-8b4a-36dfe78671e4"},"vehicle_type_id":"4","last_reported":1720458420,"current_range_meters":26000,"station_id":"","pricing_plan_id":"cebpf4jnsgd1na2vs0mg"},{"bike_id":"042ff05e-c34b-475d-a4de-14fbada44eef","system_id":"levelo_inurba_marseille","lat":43.299222,"lon":5.365554,"is_reserved":false,"is_disabled":false,"rental_uris":{"android":"levelo://app?vid=042ff05e-c34b-475d-a4de-14fbada44eef","ios":"levelo://app?vid=042ff05e-c34b-475d-a4de-14fbada44eef"},"vehicle_type_id":"4","last_reported":1720458420,"current_range_meters":0,"station_id":"ce4bgm92rcd13ifvqbr0","pricing_plan_id":"cebpf4jnsgd1na2vs0mg"},{"bike_id":"216d2b7e-b4ac-4188-a652-0eb99d1ec67b","system_id":"levelo_inurba_marseille","lat":43.299724,"lon":5.371829,"is_reserved":false,"is_disabled":false,"rental_uris":{"android":"levelo://app?vid=216d2b7e-b4ac-4188-a652-0eb99d1ec67b","ios":"levelo://app?vid=216d2b7e-b4ac-4188-a652-0eb99d1ec67b"},"vehicle_type_id":"4","last_reported":1720458420,"current_range_meters":1200,"station_id":"ce4bgr92rcd13ifvqc7g","pricing_plan_id":"cebpf4jnsgd1na2vs0mg"},{"bike_id":"484d25e3-ca64-44e9-aab1-1150010ced0a","system_id":"levelo_inurba_marseille","lat":43.299724,"lon":5.371829,"is_reserved":false,"is_disabled":false,"rental_uris":{"android":"levelo://app?vid=484d25e3-ca64-44e9-aab1-1150010ced0a","ios":"levelo://app?vid=484d25e3-ca64-44e9-aab1-1150010ced0a"},"vehicle_type_id":"4","last_reported":1720458420,"current_range_meters":5200,"station_id":"ce4bgr92rcd13ifvqc7g","pricing_plan_id":"cebpf4jnsgd1na2vs0mg"},{"bike_id":"ab20f38a-9568-4700-a136-c68ec98621f6","system_id":"levelo_inurba_marseille","lat":43.29965,"lon":5.3751,"is_reserved":false,"is_disabled":false,"rental_uris":{"android":"levelo://app?vid=ab20f38a-9568-4700-a136-c68ec98621f6","ios":"levelo://app?vid=ab20f38a-9568-4700-a136-c68ec98621f6"},"vehicle_type_id":"4","last_reported":1720458420,"current_range_meters":6800,"station_id":"","pricing_plan_id":"cebpf4jnsgd1na2vs0mg"},{"bike_id":"1f904b9e-c3f6-4147-b794-142442742761","system_id":"levelo_inurba_marseille","lat":43.299243,"lon":5.37481,"is_reserved":false,"is_disabled":false,"rental_uris":{"android":"levelo://app?vid=1f904b9e-c3f6-4147-b794-142442742761","ios":"levelo://app?vid=1f904b9e-c3f6-4147-b794-142442742761"},"vehicle_type_id":"4","last_reported":1720458420,"current_range_meters":0,"station_id":"ce4bgjh2rcd13ifvqbg0","pricing_plan_id":"cebpf4jnsgd1na2vs0mg"},{"bike_id":"0679963c-a717-4812-9753-319370b19b5f","system_id":"levelo_inurba_marseille","lat":43.297794,"lon":5.370888,"is_reserved":false,"is_disabled":false,"rental_uris":{"android":"levelo://app?vid=0679963c-a717-4812-9753-319370b19b5f","ios":"levelo://app?vid=0679963c-a717-4812-9753-319370b19b5f"},"vehicle_type_id":"4","last_reported":1720458420,"current_range_meters":0,"station_id":"ce4bgop2rcd13ifvqc1g","pricing_plan_id":"cebpf4jnsgd1na2vs0mg"},{"bike_id":"1850a1fa-e612-49a2-a917-0aae7c85fd85","system_id":"levelo_inurba_marseille","lat":43.322872,"lon":5.382756,"is_reserved":false,"is_disabled":false,"rental_uris":{"android":"levelo://app?vid=1850a1fa-e612-49a2-a917-0aae7c85fd85","ios":"levelo://app?vid=1850a1fa-e612-49a2-a917-0aae7c85fd85"},"vehicle_type_id":"4","last_reported":1720458420,"current_range_meters":8400,"station_id":"ce4bhr12rcd13ifvqhqg","pricing_plan_id":"cebpf4jnsgd1na2vs0mg"},{"bike_id":"055a507c-e996-4961-a388-94203e9f53fe","system_id":"levelo_inurba_marseille","lat":43.29715,"lon":5.36596,"is_reserved":false,"is_disabled":false,"rental_uris":{"android":"levelo://app?vid=055a507c-e996-4961-a388-94203e9f53fe","ios":"levelo://app?vid=055a507c-e996-4961-a388-94203e9f53fe"},"vehicle_type_id":"4","last_reported":1720458420,"current_range_meters":16800,"station_id":"ce4bgn12rcd13ifvqbt0","pricing_plan_id":"cebpf4jnsgd1na2vs0mg"},{"bike_id":"25f02564-538e-4ac4-9808-57a6e1235ebc","system_id":"levelo_inurba_marseille","lat":43.297163,"lon":5.365866,"is_reserved":false,"is_disabled":false,"rental_uris":{"android":"levelo://app?vid=25f02564-538e-4ac4-9808-57a6e1235ebc","ios":"levelo://app?vid=25f02564-538e-4ac4-9808-57a6e1235ebc"},"vehicle_type_id":"4","last_reported":1720458420,"current_range_meters":17600,"station_id":"ce4bgn12rcd13ifvqbt0","pricing_plan_id":"cebpf4jnsgd1na2vs0mg"},{"bike_id":"69f8ac5e-a6a4-4c97-a8a9-deb221488823","system_id":"levelo_inurba_marseille","lat":43.297163,"lon":5.365866,"is_reserved":false,"is_disabled":false,"rental_uris":{"android":"levelo://app?vid=69f8ac5e-a6a4-4c97-a8a9-deb221488823","ios":"levelo://app?vid=69f8ac5e-a6a4-4c97-a8a9-deb221488823"},"vehicle_type_id":"4","last_reported":1720458420,"current_range_meters":23600,"station_id":"ce4bgn12rcd13ifvqbt0","pricing_plan_id":"cebpf4jnsgd1na2vs0mg"},{"bike_id":"897bf193-702e-45dd-86fb-cfda8529a371","system_id":"levelo_inurba_marseille","lat":43.326633,"lon":5.378697,"is_reserved":false,"is_disabled":false,"rental_uris":{"android":"levelo://app?vid=897bf193-702e-45dd-86fb-cfda8529a371","ios":"levelo://app?vid=897bf193-702e-45dd-86fb-cfda8529a371"},"vehicle_type_id":"4","last_reported":1720458420,"current_range_meters":0,"station_id":"","pricing_plan_id":"cebpf4jnsgd1na2vs0mg"},{"bike_id":"4cadb642-a280-414f-945e-dfd1fc01f230","system_id":"levelo_inurba_marseille","lat":43.304274,"lon":5.388873,"is_reserved":false,"is_disabled":false,"rental_uris":{"android":"levelo://app?vid=4cadb642-a280-414f-945e-dfd1fc01f230","ios":"levelo://app?vid=4cadb642-a280-414f-945e-dfd1fc01f230"},"vehicle_type_id":"4","last_reported":1720458420,"current_range_meters":800,"station_id":"ce4bgk12rcd13ifvqbi0","pricing_plan_id":"cebpf4jnsgd1na2vs0mg"},{"bike_id":"258ec780-1a8f-48d0-9345-f3621fabca36","system_id":"levelo_inurba_marseille","lat":43.3044,"lon":5.38891,"is_reserved":false,"is_disabled":false,"rental_uris":{"android":"levelo://app?vid=258ec780-1a8f-48d0-9345-f3621fabca36","ios":"levelo://app?vid=258ec780-1a8f-48d0-9345-f3621fabca36"},"vehicle_type_id":"4","last_reported":1720458420,"current_range_meters":0,"station_id":"ce4bgk12rcd13ifvqbi0","pricing_plan_id":"cebpf4jnsgd1na2vs0mg"},{"bike_id":"4fe2c722-5177-4f66-8640-8777bcf4a34c","system_id":"levelo_inurba_marseille","lat":43.304274,"lon":5.388873,"is_reserved":false,"is_disabled":false,"rental_uris":{"android":"levelo://app?vid=4fe2c722-5177-4f66-8640-8777bcf4a34c","ios":"levelo://app?vid=4fe2c722-5177-4f66-8640-8777bcf4a34c"},"vehicle_type_id":"4","last_reported":1720458420,"current_range_meters":5600,"station_id":"ce4bgk12rcd13ifvqbi0","pricing_plan_id":"cebpf4jnsgd1na2vs0mg"},{"bike_id":"c2e9a9e7-e5db-4aa2-aa25-99d187326db3","system_id":"levelo_inurba_marseille","lat":43.296263,"lon":5.377094,"is_reserved":false,"is_disabled":false,"rental_uris":{"android":"levelo://app?vid=c2e9a9e7-e5db-4aa2-aa25-99d187326db3","ios":"levelo://app?vid=c2e9a9e7-e5db-4aa2-aa25-99d187326db3"},"vehicle_type_id":"4","last_reported":1720458420,"current_range_meters":0,"station_id":"ce4bgi92rcd13ifvqb90","pricing_plan_id":"cebpf4jnsgd1na2vs0mg"},{"bike_id":"c94e445f-f1ec-4e33-b287-d9af1e168345","system_id":"levelo_inurba_marseille","lat":43.296277,"lon":5.377108,"is_reserved":false,"is_disabled":false,"rental_uris":{"android":"levelo://app?vid=c94e445f-f1ec-4e33-b287-d9af1e168345","ios":"levelo://app?vid=c94e445f-f1ec-4e33-b287-d9af1e168345"},"vehicle_type_id":"4","last_reported":1720458420,"current_range_meters":0,"station_id":"ce4bgi92rcd13ifvqb90","pricing_plan_id":"cebpf4jnsgd1na2vs0mg"},{"bike_id":"440ba0d0-d98f-4d86-803a-c8aa0cfd05df","system_id":"levelo_inurba_marseille","lat":43.2953,"lon":5.37382,"is_reserved":false,"is_disabled":false,"rental_uris":{"android":"levelo://app?vid=440ba0d0-d98f-4d86-803a-c8aa0cfd05df","ios":"levelo://app?vid=440ba0d0-d98f-4d86-803a-c8aa0cfd05df"},"vehicle_type_id":"4","last_reported":1720458420,"current_range_meters":0,"station_id":"","pricing_plan_id":"cebpf4jnsgd1na2vs0mg"},{"bike_id":"b72eb1d2-dd8f-4891-ade8-b742848af65a","system_id":"levelo_inurba_marseille","lat":43.296277,"lon":5.377108,"is_reserved":false,"is_disabled":false,"rental_uris":{"android":"levelo://app?vid=b72eb1d2-dd8f-4891-ade8-b742848af65a","ios":"levelo://app?vid=b72eb1d2-dd8f-4891-ade8-b742848af65a"},"vehicle_type_id":"4","last_reported":1720458420,"current_range_meters":7200,"station_id":"ce4bgi92rcd13ifvqb90","pricing_plan_id":"cebpf4jnsgd1na2vs0mg"},{"bike_id":"3611906f-470c-4dd8-b6d4-ae921e4eae07","system_id":"levelo_inurba_marseille","lat":43.29547,"lon":5.37502,"is_reserved":false,"is_disabled":false,"rental_uris":{"android":"levelo://app?vid=3611906f-470c-4dd8-b6d4-ae921e4eae07","ios":"levelo://app?vid=3611906f-470c-4dd8-b6d4-ae921e4eae07"},"vehicle_type_id":"4","last_reported":1720458420,"current_range_meters":0,"station_id":"ce4bgkp2rcd13ifvqbmg","pricing_plan_id":"cebpf4jnsgd1na2vs0mg"},{"bike_id":"02bc99a4-1322-4095-b62b-32cf4215d216","system_id":"levelo_inurba_marseille","lat":43.295279,"lon":5.375048,"is_reserved":false,"is_disabled":false,"rental_uris":{"android":"levelo://app?vid=02bc99a4-1322-4095-b62b-32cf4215d216","ios":"levelo://app?vid=02bc99a4-1322-4095-b62b-32cf4215d216"},"vehicle_type_id":"4","last_reported":1720458420,"current_range_meters":0,"station_id":"ce4bgkp2rcd13ifvqbmg","pricing_plan_id":"cebpf4jnsgd1na2vs0mg"},{"bike_id":"5a20bfd4-1034-428c-8287-6166f3af0611","system_id":"levelo_inurba_marseille","lat":43.29534,"lon":5.37505,"is_reserved":false,"is_disabled":false,"rental_uris":{"android":"levelo://app?vid=5a20bfd4-1034-428c-8287-6166f3af0611","ios":"levelo://app?vid=5a20bfd4-1034-428c-8287-6166f3af0611"},"vehicle_type_id":"4","last_reported":1720458420,"current_range_meters":0,"station_id":"ce4bgkp2rcd13ifvqbmg","pricing_plan_id":"cebpf4jnsgd1na2vs0mg"},{"bike_id":"87356d8d-a0fb-4285-8eb4-2be545ef0f9c","system_id":"levelo_inurba_marseille","lat":43.299717,"lon":5.384845,"is_reserved":false,"is_disabled":false,"rental_uris":{"android":"levelo://app?vid=87356d8d-a0fb-4285-8eb4-2be545ef0f9c","ios":"levelo://app?vid=87356d8d-a0fb-4285-8eb4-2be545ef0f9c"},"vehicle_type_id":"4","last_reported":1720458420,"current_range_meters":0,"station_id":"ce4bgj92rcd13ifvqbd0","pricing_plan_id":"cebpf4jnsgd1na2vs0mg"},{"bike_id":"4a9b52e6-c9f7-4f5e-bfd4-7b07fd87a121","system_id":"levelo_inurba_marseille","lat":43.299724,"lon":5.384848,"is_reserved":false,"is_disabled":false,"rental_uris":{"android":"levelo://app?vid=4a9b52e6-c9f7-4f5e-bfd4-7b07fd87a121","ios":"levelo://app?vid=4a9b52e6-c9f7-4f5e-bfd4-7b07fd87a121"},"vehicle_type_id":"4","last_reported":1720458420,"current_range_meters":15200,"station_id":"ce4bgj92rcd13ifvqbd0","pricing_plan_id":"cebpf4jnsgd1na2vs0mg"},{"bike_id":"68089bfb-db6b-4653-9a0a-60b0f03f94b6","system_id":"levelo_inurba_marseille","lat":43.3014,"lon":5.38784,"is_reserved":false,"is_disabled":false,"rental_uris":{"android":"levelo://app?vid=68089bfb-db6b-4653-9a0a-60b0f03f94b6","ios":"levelo://app?vid=68089bfb-db6b-4653-9a0a-60b0f03f94b6"},"vehicle_type_id":"4","last_reported":1720458420,"current_range_meters":0,"station_id":"ce4bghh2rcd13ifvqb60","pricing_plan_id":"cebpf4jnsgd1na2vs0mg"},{"bike_id":"52ccf2b0-191c-484e-a74f-0278b3ee9c14","system_id":"levelo_inurba_marseille","lat":43.32367,"lon":5.388836,"is_reserved":false,"is_disabled":false,"rental_uris":{"android":"levelo://app?vid=52ccf2b0-191c-484e-a74f-0278b3ee9c14","ios":"levelo://app?vid=52ccf2b0-191c-484e-a74f-0278b3ee9c14"},"vehicle_type_id":"4","last_reported":1720458420,"current_range_meters":30000,"station_id":"ce4bhqp2rcd13ifvqhog","pricing_plan_id":"cebpf4jnsgd1na2vs0mg"},{"bike_id":"dbbbd3e7-4a1b-421d-bdea-fe40bf3fc8f8","system_id":"levelo_inurba_marseille","lat":43.32367,"lon":5.388836,"is_reserved":false,"is_disabled":false,"rental_uris":{"android":"levelo://app?vid=dbbbd3e7-4a1b-421d-bdea-fe40bf3fc8f8","ios":"levelo://app?vid=dbbbd3e7-4a1b-421d-bdea-fe40bf3fc8f8"},"vehicle_type_id":"4","last_reported":1720458420,"current_range_meters":2400,"station_id":"ce4bhqp2rcd13ifvqhog","pricing_plan_id":"cebpf4jnsgd1na2vs0mg"},{"bike_id":"c4dfbc80-0981-498c-b5a1-9f589b26e220","system_id":"levelo_inurba_marseille","lat":43.30172,"lon":5.38897,"is_reserved":false,"is_disabled":false,"rental_uris":{"android":"levelo://app?vid=c4dfbc80-0981-498c-b5a1-9f589b26e220","ios":"levelo://app?vid=c4dfbc80-0981-498c-b5a1-9f589b26e220"},"vehicle_type_id":"4","last_reported":1720458420,"current_range_meters":5200,"station_id":"","pricing_plan_id":"cebpf4jnsgd1na2vs0mg"},{"bike_id":"06b43f4e-ae7e-4e4c-8409-ad061fcef81e","system_id":"levelo_inurba_marseille","lat":43.29602,"lon":5.381084,"is_reserved":false,"is_disabled":false,"rental_uris":{"android":"levelo://app?vid=06b43f4e-ae7e-4e4c-8409-ad061fcef81e","ios":"levelo://app?vid=06b43f4e-ae7e-4e4c-8409-ad061fcef81e"},"vehicle_type_id":"4","last_reported":1720458420,"current_range_meters":26400,"station_id":"ce4bgl12rcd13ifvqbo0","pricing_plan_id":"cebpf4jnsgd1na2vs0mg"},{"bike_id":"f9b51d49-1ae5-4190-970b-d6aed7169d43","system_id":"levelo_inurba_marseille","lat":43.29308,"lon":5.37172,"is_reserved":false,"is_disabled":false,"rental_uris":{"android":"levelo://app?vid=f9b51d49-1ae5-4190-970b-d6aed7169d43","ios":"levelo://app?vid=f9b51d49-1ae5-4190-970b-d6aed7169d43"},"vehicle_type_id":"4","last_reported":1720458420,"current_range_meters":31200,"station_id":"ce4bgh92rcd13ifvqb40","pricing_plan_id":"cebpf4jnsgd1na2vs0mg"},{"bike_id":"44be9c98-b0f0-411d-99ba-755985e936ae","system_id":"levelo_inurba_marseille","lat":43.29305,"lon":5.37177,"is_reserved":false,"is_disabled":false,"rental_uris":{"android":"levelo://app?vid=44be9c98-b0f0-411d-99ba-755985e936ae","ios":"levelo://app?vid=44be9c98-b0f0-411d-99ba-755985e936ae"},"vehicle_type_id":"4","last_reported":1720458420,"current_range_meters":0,"station_id":"ce4bgh92rcd13ifvqb40","pricing_plan_id":"cebpf4jnsgd1na2vs0mg"},{"bike_id":"86fa4518-0e5e-4371-94ba-7837c1be5198","system_id":"levelo_inurba_marseille","lat":43.293009,"lon":5.374584,"is_reserved":false,"is_disabled":false,"rental_uris":{"android":"levelo://app?vid=86fa4518-0e5e-4371-94ba-7837c1be5198","ios":"levelo://app?vid=86fa4518-0e5e-4371-94ba-7837c1be5198"},"vehicle_type_id":"4","last_reported":1720458420,"current_range_meters":0,"station_id":"ce4bgi12rcd13ifvqb70","pricing_plan_id":"cebpf4jnsgd1na2vs0mg"},{"bike_id":"c752eca1-4689-43b4-a19a-ac15d906c47d","system_id":"levelo_inurba_marseille","lat":43.2936,"lon":5.37835,"is_reserved":false,"is_disabled":false,"rental_uris":{"android":"levelo://app?vid=c752eca1-4689-43b4-a19a-ac15d906c47d","ios":"levelo://app?vid=c752eca1-4689-43b4-a19a-ac15d906c47d"},"vehicle_type_id":"4","last_reported":1720458420,"current_range_meters":4800,"station_id":"ce4bgjh2rcd13ifvqbf0","pricing_plan_id":"cebpf4jnsgd1na2vs0mg"},{"bike_id":"0fa5dd2b-c714-4f5f-af34-21e3be8018c9","system_id":"levelo_inurba_marseille","lat":43.300761,"lon":5.390303,"is_reserved":false,"is_disabled":false,"rental_uris":{"android":"levelo://app?vid=0fa5dd2b-c714-4f5f-af34-21e3be8018c9","ios":"levelo://app?vid=0fa5dd2b-c714-4f5f-af34-21e3be8018c9"},"vehicle_type_id":"4","last_reported":1720458420,"current_range_meters":0,"station_id":"ce4bh192rcd13ifvqdb0","pricing_plan_id":"cebpf4jnsgd1na2vs0mg"},{"bike_id":"cb35a629-05ed-4081-baef-d3f424115a8a","system_id":"levelo_inurba_marseille","lat":43.292311,"lon":5.360731,"is_reserved":false,"is_disabled":false,"rental_uris":{"android":"levelo://app?vid=cb35a629-05ed-4081-baef-d3f424115a8a","ios":"levelo://app?vid=cb35a629-05ed-4081-baef-d3f424115a8a"},"vehicle_type_id":"4","last_reported":1720458420,"current_range_meters":7600,"station_id":"ce4bhbh2rcd13ifvqeqg","pricing_plan_id":"cebpf4jnsgd1na2vs0mg"},{"bike_id":"a9684b05-da30-4314-b1ee-582ecb487ef0","system_id":"levelo_inurba_marseille","lat":43.29223,"lon":5.36057,"is_reserved":false,"is_disabled":false,"rental_uris":{"android":"levelo://app?vid=a9684b05-da30-4314-b1ee-582ecb487ef0","ios":"levelo://app?vid=a9684b05-da30-4314-b1ee-582ecb487ef0"},"vehicle_type_id":"4","last_reported":1720458420,"current_range_meters":0,"station_id":"ce4bhbh2rcd13ifvqeqg","pricing_plan_id":"cebpf4jnsgd1na2vs0mg"},{"bike_id":"672e09ca-110d-4d05-a979-628ff5e1c6f4","system_id":"levelo_inurba_marseille","lat":43.284538,"lon":5.358657,"is_reserved":false,"is_disabled":false,"rental_uris":{"android":"levelo://app?vid=672e09ca-110d-4d05-a979-628ff5e1c6f4","ios":"levelo://app?vid=672e09ca-110d-4d05-a979-628ff5e1c6f4"},"vehicle_type_id":"4","last_reported":1720458420,"current_range_meters":26800,"station_id":"ce4bhah2rcd13ifvqei0","pricing_plan_id":"cebpf4jnsgd1na2vs0mg"},{"bike_id":"b86bfa25-42d5-477c-a75a-405a52425839","system_id":"levelo_inurba_marseille","lat":43.291994,"lon":5.357886,"is_reserved":false,"is_disabled":false,"rental_uris":{"android":"levelo://app?vid=b86bfa25-42d5-477c-a75a-405a52425839","ios":"levelo://app?vid=b86bfa25-42d5-477c-a75a-405a52425839"},"vehicle_type_id":"4","last_reported":1720458420,"current_range_meters":0,"station_id":"ce4bhb12rcd13ifvqel0","pricing_plan_id":"cebpf4jnsgd1na2vs0mg"},{"bike_id":"1dd5a12b-4f09-4464-96e7-b1fcb2e8dc31","system_id":"levelo_inurba_marseille","lat":43.291994,"lon":5.357886,"is_reserved":false,"is_disabled":false,"rental_uris":{"android":"levelo://app?vid=1dd5a12b-4f09-4464-96e7-b1fcb2e8dc31","ios":"levelo://app?vid=1dd5a12b-4f09-4464-96e7-b1fcb2e8dc31"},"vehicle_type_id":"4","last_reported":1720458420,"current_range_meters":0,"station_id":"ce4bhb12rcd13ifvqel0","pricing_plan_id":"cebpf4jnsgd1na2vs0mg"},{"bike_id":"75d2210b-ec7f-48a6-8ba1-a11756083d2a","system_id":"levelo_inurba_marseille","lat":43.292005,"lon":5.357875,"is_reserved":false,"is_disabled":false,"rental_uris":{"android":"levelo://app?vid=75d2210b-ec7f-48a6-8ba1-a11756083d2a","ios":"levelo://app?vid=75d2210b-ec7f-48a6-8ba1-a11756083d2a"},"vehicle_type_id":"4","last_reported":1720458420,"current_range_meters":1200,"station_id":"ce4bhb12rcd13ifvqel0","pricing_plan_id":"cebpf4jnsgd1na2vs0mg"},{"bike_id":"f0560142-4811-4564-8835-0ea8c8aa7af6","system_id":"levelo_inurba_marseille","lat":43.291994,"lon":5.357886,"is_reserved":false,"is_disabled":false,"rental_uris":{"android":"levelo://app?vid=f0560142-4811-4564-8835-0ea8c8aa7af6","ios":"levelo://app?vid=f0560142-4811-4564-8835-0ea8c8aa7af6"},"vehicle_type_id":"4","last_reported":1720458420,"current_range_meters":2800,"station_id":"ce4bhb12rcd13ifvqel0","pricing_plan_id":"cebpf4jnsgd1na2vs0mg"},{"bike_id":"a528df29-e466-488b-a09b-c1509d714d64","system_id":"levelo_inurba_marseille","lat":43.31336,"lon":5.39692,"is_reserved":false,"is_disabled":false,"rental_uris":{"android":"levelo://app?vid=a528df29-e466-488b-a09b-c1509d714d64","ios":"levelo://app?vid=a528df29-e466-488b-a09b-c1509d714d64"},"vehicle_type_id":"4","last_reported":1720458420,"current_range_meters":0,"station_id":"ce4bgvp2rcd13ifvqcu0","pricing_plan_id":"cebpf4jnsgd1na2vs0mg"},{"bike_id":"e11da926-5f53-4ea0-94ee-71531b3e13bd","system_id":"levelo_inurba_marseille","lat":43.313291,"lon":5.396838,"is_reserved":false,"is_disabled":false,"rental_uris":{"android":"levelo://app?vid=e11da926-5f53-4ea0-94ee-71531b3e13bd","ios":"levelo://app?vid=e11da926-5f53-4ea0-94ee-71531b3e13bd"},"vehicle_type_id":"4","last_reported":1720458420,"current_range_meters":0,"station_id":"ce4bgvp2rcd13ifvqcu0","pricing_plan_id":"cebpf4jnsgd1na2vs0mg"},{"bike_id":"e8522f6a-a329-4ee7-bbc4-7ca380e1d2af","system_id":"levelo_inurba_marseille","lat":43.309047,"lon":5.396551,"is_reserved":false,"is_disabled":false,"rental_uris":{"android":"levelo://app?vid=e8522f6a-a329-4ee7-bbc4-7ca380e1d2af","ios":"levelo://app?vid=e8522f6a-a329-4ee7-bbc4-7ca380e1d2af"},"vehicle_type_id":"4","last_reported":1720458420,"current_range_meters":9600,"station_id":"ce4bh012rcd13ifvqcv0","pricing_plan_id":"cebpf4jnsgd1na2vs0mg"},{"bike_id":"0b3a53e6-8d5a-4ea1-b763-871fe4898b74","system_id":"levelo_inurba_marseille","lat":43.309047,"lon":5.396551,"is_reserved":false,"is_disabled":false,"rental_uris":{"android":"levelo://app?vid=0b3a53e6-8d5a-4ea1-b763-871fe4898b74","ios":"levelo://app?vid=0b3a53e6-8d5a-4ea1-b763-871fe4898b74"},"vehicle_type_id":"4","last_reported":1720458420,"current_range_meters":400,"station_id":"ce4bh012rcd13ifvqcv0","pricing_plan_id":"cebpf4jnsgd1na2vs0mg"},{"bike_id":"9232bf8c-5ba2-45ff-8da7-4825e83f6ef3","system_id":"levelo_inurba_marseille","lat":43.29529,"lon":5.385581,"is_reserved":false,"is_disabled":false,"rental_uris":{"android":"levelo://app?vid=9232bf8c-5ba2-45ff-8da7-4825e83f6ef3","ios":"levelo://app?vid=9232bf8c-5ba2-45ff-8da7-4825e83f6ef3"},"vehicle_type_id":"4","last_reported":1720458420,"current_range_meters":24800,"station_id":"ce4bgih2rcd13ifvqba0","pricing_plan_id":"cebpf4jnsgd1na2vs0mg"},{"bike_id":"0cf7f651-0db2-4ce3-8796-19bd676c578b","system_id":"levelo_inurba_marseille","lat":43.29529,"lon":5.385581,"is_reserved":false,"is_disabled":false,"rental_uris":{"android":"levelo://app?vid=0cf7f651-0db2-4ce3-8796-19bd676c578b","ios":"levelo://app?vid=0cf7f651-0db2-4ce3-8796-19bd676c578b"},"vehicle_type_id":"4","last_reported":1720458420,"current_range_meters":10000,"station_id":"ce4bgih2rcd13ifvqba0","pricing_plan_id":"cebpf4jnsgd1na2vs0mg"},{"bike_id":"a71d1b26-b03b-429d-bc06-baa2eeeedd4f","system_id":"levelo_inurba_marseille","lat":43.29529,"lon":5.385581,"is_reserved":false,"is_disabled":false,"rental_uris":{"android":"levelo://app?vid=a71d1b26-b03b-429d-bc06-baa2eeeedd4f","ios":"levelo://app?vid=a71d1b26-b03b-429d-bc06-baa2eeeedd4f"},"vehicle_type_id":"4","last_reported":1720458420,"current_range_meters":0,"station_id":"ce4bgih2rcd13ifvqba0","pricing_plan_id":"cebpf4jnsgd1na2vs0mg"},{"bike_id":"59b14a39-123b-448b-9dbc-29090f0abc7e","system_id":"levelo_inurba_marseille","lat":43.289468,"lon":5.363719,"is_reserved":false,"is_disabled":false,"rental_uris":{"android":"levelo://app?vid=59b14a39-123b-448b-9dbc-29090f0abc7e","ios":"levelo://app?vid=59b14a39-123b-448b-9dbc-29090f0abc7e"},"vehicle_type_id":"4","last_reported":1720458420,"current_range_meters":15600,"station_id":"ce4bhc92rcd13ifvqetg","pricing_plan_id":"cebpf4jnsgd1na2vs0mg"},{"bike_id":"84366b80-2ece-4877-b752-a458061ba890","system_id":"levelo_inurba_marseille","lat":43.29038,"lon":5.35928,"is_reserved":false,"is_disabled":false,"rental_uris":{"android":"levelo://app?vid=84366b80-2ece-4877-b752-a458061ba890","ios":"levelo://app?vid=84366b80-2ece-4877-b752-a458061ba890"},"vehicle_type_id":"4","last_reported":1720458420,"current_range_meters":29600,"station_id":"ce4bha92rcd13ifvqeg0","pricing_plan_id":"cebpf4jnsgd1na2vs0mg"},{"bike_id":"14f58dc3-265c-4847-98d6-3a9e74b28c11","system_id":"levelo_inurba_marseille","lat":43.290631,"lon":5.359244,"is_reserved":false,"is_disabled":false,"rental_uris":{"android":"levelo://app?vid=14f58dc3-265c-4847-98d6-3a9e74b28c11","ios":"levelo://app?vid=14f58dc3-265c-4847-98d6-3a9e74b28c11"},"vehicle_type_id":"4","last_reported":1720458420,"current_range_meters":0,"station_id":"ce4bha92rcd13ifvqeg0","pricing_plan_id":"cebpf4jnsgd1na2vs0mg"},{"bike_id":"69db4504-58dc-4947-b994-bca01785b638","system_id":"levelo_inurba_marseille","lat":43.294162,"lon":5.386292,"is_reserved":false,"is_disabled":false,"rental_uris":{"android":"levelo://app?vid=69db4504-58dc-4947-b994-bca01785b638","ios":"levelo://app?vid=69db4504-58dc-4947-b994-bca01785b638"},"vehicle_type_id":"4","last_reported":1720458420,"current_range_meters":1200,"station_id":"ce4bh2h2rcd13ifvqdh0","pricing_plan_id":"cebpf4jnsgd1na2vs0mg"},{"bike_id":"b5ed2ca9-ba46-4911-9808-3ae9b1f85f98","system_id":"levelo_inurba_marseille","lat":43.29422,"lon":5.38629,"is_reserved":false,"is_disabled":false,"rental_uris":{"android":"levelo://app?vid=b5ed2ca9-ba46-4911-9808-3ae9b1f85f98","ios":"levelo://app?vid=b5ed2ca9-ba46-4911-9808-3ae9b1f85f98"},"vehicle_type_id":"4","last_reported":1720458420,"current_range_meters":0,"station_id":"ce4bh2h2rcd13ifvqdh0","pricing_plan_id":"cebpf4jnsgd1na2vs0mg"},{"bike_id":"5bd17f41-945c-473a-adb2-22ceb85e16f2","system_id":"levelo_inurba_marseille","lat":43.29417,"lon":5.3863,"is_reserved":false,"is_disabled":false,"rental_uris":{"android":"levelo://app?vid=5bd17f41-945c-473a-adb2-22ceb85e16f2","ios":"levelo://app?vid=5bd17f41-945c-473a-adb2-22ceb85e16f2"},"vehicle_type_id":"4","last_reported":1720458420,"current_range_meters":0,"station_id":"ce4bh2h2rcd13ifvqdh0","pricing_plan_id":"cebpf4jnsgd1na2vs0mg"},{"bike_id":"ba13a6b4-69a6-4e20-bddf-963c365d4f96","system_id":"levelo_inurba_marseille","lat":43.289343,"lon":5.366233,"is_reserved":false,"is_disabled":false,"rental_uris":{"android":"levelo://app?vid=ba13a6b4-69a6-4e20-bddf-963c365d4f96","ios":"levelo://app?vid=ba13a6b4-69a6-4e20-bddf-963c365d4f96"},"vehicle_type_id":"4","last_reported":1720458420,"current_range_meters":0,"station_id":"ce4bhap2rcd13ifvqek0","pricing_plan_id":"cebpf4jnsgd1na2vs0mg"},{"bike_id":"83e5e6f0-091e-46ca-b7c3-97f342189234","system_id":"levelo_inurba_marseille","lat":43.289468,"lon":5.363719,"is_reserved":false,"is_disabled":false,"rental_uris":{"android":"levelo://app?vid=83e5e6f0-091e-46ca-b7c3-97f342189234","ios":"levelo://app?vid=83e5e6f0-091e-46ca-b7c3-97f342189234"},"vehicle_type_id":"4","last_reported":1720458420,"current_range_meters":24800,"station_id":"ce4bhc92rcd13ifvqetg","pricing_plan_id":"cebpf4jnsgd1na2vs0mg"},{"bike_id":"7765e5b9-c68a-47d4-a73b-5f8aaf1bb947","system_id":"levelo_inurba_marseille","lat":43.2927,"lon":5.38434,"is_reserved":false,"is_disabled":false,"rental_uris":{"android":"levelo://app?vid=7765e5b9-c68a-47d4-a73b-5f8aaf1bb947","ios":"levelo://app?vid=7765e5b9-c68a-47d4-a73b-5f8aaf1bb947"},"vehicle_type_id":"4","last_reported":1720458420,"current_range_meters":14800,"station_id":"ce4bh692rcd13ifvqea0","pricing_plan_id":"cebpf4jnsgd1na2vs0mg"},{"bike_id":"8f965279-aeba-4e2d-836a-817b4f1f7bfa","system_id":"levelo_inurba_marseille","lat":43.304274,"lon":5.397513,"is_reserved":false,"is_disabled":false,"rental_uris":{"android":"levelo://app?vid=8f965279-aeba-4e2d-836a-817b4f1f7bfa","ios":"levelo://app?vid=8f965279-aeba-4e2d-836a-817b4f1f7bfa"},"vehicle_type_id":"4","last_reported":1720458420,"current_range_meters":0,"station_id":"ce4bh092rcd13ifvqd20","pricing_plan_id":"cebpf4jnsgd1na2vs0mg"},{"bike_id":"3c88cbb4-4bb4-4339-9fcf-a3edca208336","system_id":"levelo_inurba_marseille","lat":43.29195,"lon":5.38278,"is_reserved":false,"is_disabled":false,"rental_uris":{"android":"levelo://app?vid=3c88cbb4-4bb4-4339-9fcf-a3edca208336","ios":"levelo://app?vid=3c88cbb4-4bb4-4339-9fcf-a3edca208336"},"vehicle_type_id":"4","last_reported":1720458420,"current_range_meters":0,"station_id":"","pricing_plan_id":"cebpf4jnsgd1na2vs0mg"},{"bike_id":"7341b617-ef47-4e2a-9477-c28e41582d42","system_id":"levelo_inurba_marseille","lat":43.29265,"lon":5.38441,"is_reserved":false,"is_disabled":false,"rental_uris":{"android":"levelo://app?vid=7341b617-ef47-4e2a-9477-c28e41582d42","ios":"levelo://app?vid=7341b617-ef47-4e2a-9477-c28e41582d42"},"vehicle_type_id":"4","last_reported":1720458420,"current_range_meters":22000,"station_id":"ce4bh692rcd13ifvqea0","pricing_plan_id":"cebpf4jnsgd1na2vs0mg"},{"bike_id":"3ed03b02-161a-48df-9587-64e8d507c103","system_id":"levelo_inurba_marseille","lat":43.292644,"lon":5.384257,"is_reserved":false,"is_disabled":false,"rental_uris":{"android":"levelo://app?vid=3ed03b02-161a-48df-9587-64e8d507c103","ios":"levelo://app?vid=3ed03b02-161a-48df-9587-64e8d507c103"},"vehicle_type_id":"4","last_reported":1720458420,"current_range_meters":4800,"station_id":"ce4bh692rcd13ifvqea0","pricing_plan_id":"cebpf4jnsgd1na2vs0mg"},{"bike_id":"827f9e53-403a-44bb-b92c-7bf9867f8cd2","system_id":"levelo_inurba_marseille","lat":43.292642,"lon":5.384254,"is_reserved":false,"is_disabled":false,"rental_uris":{"android":"levelo://app?vid=827f9e53-403a-44bb-b92c-7bf9867f8cd2","ios":"levelo://app?vid=827f9e53-403a-44bb-b92c-7bf9867f8cd2"},"vehicle_type_id":"4","last_reported":1720458420,"current_range_meters":800,"station_id":"ce4bh692rcd13ifvqea0","pricing_plan_id":"cebpf4jnsgd1na2vs0mg"},{"bike_id":"4fc25dba-7ae6-40d5-8af4-366e9260d780","system_id":"levelo_inurba_marseille","lat":43.29009,"lon":5.35616,"is_reserved":false,"is_disabled":false,"rental_uris":{"android":"levelo://app?vid=4fc25dba-7ae6-40d5-8af4-366e9260d780","ios":"levelo://app?vid=4fc25dba-7ae6-40d5-8af4-366e9260d780"},"vehicle_type_id":"4","last_reported":1720458420,"current_range_meters":29200,"station_id":"ce4bhb92rcd13ifvqen0","pricing_plan_id":"cebpf4jnsgd1na2vs0mg"},{"bike_id":"08a6ad78-edd3-40e7-8c42-ca9206994a7b","system_id":"levelo_inurba_marseille","lat":43.290104,"lon":5.356111,"is_reserved":false,"is_disabled":false,"rental_uris":{"android":"levelo://app?vid=08a6ad78-edd3-40e7-8c42-ca9206994a7b","ios":"levelo://app?vid=08a6ad78-edd3-40e7-8c42-ca9206994a7b"},"vehicle_type_id":"4","last_reported":1720458420,"current_range_meters":3200,"station_id":"ce4bhb92rcd13ifvqen0","pricing_plan_id":"cebpf4jnsgd1na2vs0mg"},{"bike_id":"b3c35c3f-3410-4821-bd4a-ea2fa8dbd40a","system_id":"levelo_inurba_marseille","lat":43.290104,"lon":5.356111,"is_reserved":false,"is_disabled":false,"rental_uris":{"android":"levelo://app?vid=b3c35c3f-3410-4821-bd4a-ea2fa8dbd40a","ios":"levelo://app?vid=b3c35c3f-3410-4821-bd4a-ea2fa8dbd40a"},"vehicle_type_id":"4","last_reported":1720458420,"current_range_meters":800,"station_id":"ce4bhb92rcd13ifvqen0","pricing_plan_id":"cebpf4jnsgd1na2vs0mg"},{"bike_id":"018735c8-5142-40f4-a63e-c48f1d8902d3","system_id":"levelo_inurba_marseille","lat":43.290104,"lon":5.356111,"is_reserved":false,"is_disabled":false,"rental_uris":{"android":"levelo://app?vid=018735c8-5142-40f4-a63e-c48f1d8902d3","ios":"levelo://app?vid=018735c8-5142-40f4-a63e-c48f1d8902d3"},"vehicle_type_id":"4","last_reported":1720458420,"current_range_meters":400,"station_id":"ce4bhb92rcd13ifvqen0","pricing_plan_id":"cebpf4jnsgd1na2vs0mg"},{"bike_id":"603c4b8e-1f3e-4600-a5f8-b867100e9e39","system_id":"levelo_inurba_marseille","lat":43.290103,"lon":5.356114,"is_reserved":false,"is_disabled":false,"rental_uris":{"android":"levelo://app?vid=603c4b8e-1f3e-4600-a5f8-b867100e9e39","ios":"levelo://app?vid=603c4b8e-1f3e-4600-a5f8-b867100e9e39"},"vehicle_type_id":"4","last_reported":1720458420,"current_range_meters":0,"station_id":"ce4bhb92rcd13ifvqen0","pricing_plan_id":"cebpf4jnsgd1na2vs0mg"},{"bike_id":"0f3c56c6-4695-4c2d-97d0-515f89d56076","system_id":"levelo_inurba_marseille","lat":43.28998,"lon":5.35613,"is_reserved":false,"is_disabled":false,"rental_uris":{"android":"levelo://app?vid=0f3c56c6-4695-4c2d-97d0-515f89d56076","ios":"levelo://app?vid=0f3c56c6-4695-4c2d-97d0-515f89d56076"},"vehicle_type_id":"4","last_reported":1720458420,"current_range_meters":26000,"station_id":"ce4bhb92rcd13ifvqen0","pricing_plan_id":"cebpf4jnsgd1na2vs0mg"},{"bike_id":"65fee752-f215-4302-8b95-29407bc2d51c","system_id":"levelo_inurba_marseille","lat":43.29105,"lon":5.38135,"is_reserved":false,"is_disabled":false,"rental_uris":{"android":"levelo://app?vid=65fee752-f215-4302-8b95-29407bc2d51c","ios":"levelo://app?vid=65fee752-f215-4302-8b95-29407bc2d51c"},"vehicle_type_id":"4","last_reported":1720458420,"current_range_meters":0,"station_id":"ce4bh512rcd13ifvqe2g","pricing_plan_id":"cebpf4jnsgd1na2vs0mg"},{"bike_id":"a918a11d-265b-4115-a43d-d2b90f201f67","system_id":"levelo_inurba_marseille","lat":43.29103,"lon":5.38146,"is_reserved":false,"is_disabled":false,"rental_uris":{"android":"levelo://app?vid=a918a11d-265b-4115-a43d-d2b90f201f67","ios":"levelo://app?vid=a918a11d-265b-4115-a43d-d2b90f201f67"},"vehicle_type_id":"4","last_reported":1720458420,"current_range_meters":0,"station_id":"ce4bh512rcd13ifvqe2g","pricing_plan_id":"cebpf4jnsgd1na2vs0mg"},{"bike_id":"e920020e-844f-4dfa-9a84-b9c3ca6ef8bd","system_id":"levelo_inurba_marseille","lat":43.297815,"lon":5.393548,"is_reserved":false,"is_disabled":false,"rental_uris":{"android":"levelo://app?vid=e920020e-844f-4dfa-9a84-b9c3ca6ef8bd","ios":"levelo://app?vid=e920020e-844f-4dfa-9a84-b9c3ca6ef8bd"},"vehicle_type_id":"4","last_reported":1720458420,"current_range_meters":1600,"station_id":"chh1huq6cuj3fo74tm60","pricing_plan_id":"cebpf4jnsgd1na2vs0mg"},{"bike_id":"6df9a380-a79b-4f67-bdfb-2d517acd62b4","system_id":"levelo_inurba_marseille","lat":43.295169,"lon":5.390426,"is_reserved":false,"is_disabled":false,"rental_uris":{"android":"levelo://app?vid=6df9a380-a79b-4f67-bdfb-2d517acd62b4","ios":"levelo://app?vid=6df9a380-a79b-4f67-bdfb-2d517acd62b4"},"vehicle_type_id":"4","last_reported":1720458420,"current_range_meters":400,"station_id":"ce4bh3p2rcd13ifvqdp0","pricing_plan_id":"cebpf4jnsgd1na2vs0mg"},{"bike_id":"19d8a945-e9b5-4250-a661-360a8aa14567","system_id":"levelo_inurba_marseille","lat":43.330442,"lon":5.389148,"is_reserved":false,"is_disabled":false,"rental_uris":{"android":"levelo://app?vid=19d8a945-e9b5-4250-a661-360a8aa14567","ios":"levelo://app?vid=19d8a945-e9b5-4250-a661-360a8aa14567"},"vehicle_type_id":"4","last_reported":1720458420,"current_range_meters":24400,"station_id":"ce4bhr92rcd13ifvqhrg","pricing_plan_id":"cebpf4jnsgd1na2vs0mg"},{"bike_id":"3c43a08a-2b2e-443b-bcf9-9481ddf0b50d","system_id":"levelo_inurba_marseille","lat":43.289715,"lon":5.378313,"is_reserved":false,"is_disabled":false,"rental_uris":{"android":"levelo://app?vid=3c43a08a-2b2e-443b-bcf9-9481ddf0b50d","ios":"levelo://app?vid=3c43a08a-2b2e-443b-bcf9-9481ddf0b50d"},"vehicle_type_id":"4","last_reported":1720458420,"current_range_meters":0,"station_id":"ce4bh9p2rcd13ifvqed0","pricing_plan_id":"cebpf4jnsgd1na2vs0mg"},{"bike_id":"e2ef798e-bb3d-4424-ba55-444207c9c3b8","system_id":"levelo_inurba_marseille","lat":43.28974,"lon":5.37842,"is_reserved":false,"is_disabled":false,"rental_uris":{"android":"levelo://app?vid=e2ef798e-bb3d-4424-ba55-444207c9c3b8","ios":"levelo://app?vid=e2ef798e-bb3d-4424-ba55-444207c9c3b8"},"vehicle_type_id":"4","last_reported":1720458420,"current_range_meters":0,"station_id":"ce4bh9p2rcd13ifvqed0","pricing_plan_id":"cebpf4jnsgd1na2vs0mg"},{"bike_id":"e8fe8ea8-7a3b-4cb7-a001-daa6729baefc","system_id":"levelo_inurba_marseille","lat":43.330442,"lon":5.389148,"is_reserved":false,"is_disabled":false,"rental_uris":{"android":"levelo://app?vid=e8fe8ea8-7a3b-4cb7-a001-daa6729baefc","ios":"levelo://app?vid=e8fe8ea8-7a3b-4cb7-a001-daa6729baefc"},"vehicle_type_id":"4","last_reported":1720458420,"current_range_meters":5600,"station_id":"ce4bhr92rcd13ifvqhrg","pricing_plan_id":"cebpf4jnsgd1na2vs0mg"},{"bike_id":"051a1c52-7015-43d6-8392-dc17a9e24371","system_id":"levelo_inurba_marseille","lat":43.330442,"lon":5.389148,"is_reserved":false,"is_disabled":false,"rental_uris":{"android":"levelo://app?vid=051a1c52-7015-43d6-8392-dc17a9e24371","ios":"levelo://app?vid=051a1c52-7015-43d6-8392-dc17a9e24371"},"vehicle_type_id":"4","last_reported":1720458420,"current_range_meters":13200,"station_id":"ce4bhr92rcd13ifvqhrg","pricing_plan_id":"cebpf4jnsgd1na2vs0mg"},{"bike_id":"c1872e10-ef92-492f-a807-00d386cf467f","system_id":"levelo_inurba_marseille","lat":43.289741,"lon":5.378306,"is_reserved":false,"is_disabled":false,"rental_uris":{"android":"levelo://app?vid=c1872e10-ef92-492f-a807-00d386cf467f","ios":"levelo://app?vid=c1872e10-ef92-492f-a807-00d386cf467f"},"vehicle_type_id":"4","last_reported":1720458420,"current_range_meters":17200,"station_id":"ce4bh9p2rcd13ifvqed0","pricing_plan_id":"cebpf4jnsgd1na2vs0mg"},{"bike_id":"610c38af-c6c5-45e7-97b8-8243e3cb5882","system_id":"levelo_inurba_marseille","lat":43.29026,"lon":5.38134,"is_reserved":false,"is_disabled":false,"rental_uris":{"android":"levelo://app?vid=610c38af-c6c5-45e7-97b8-8243e3cb5882","ios":"levelo://app?vid=610c38af-c6c5-45e7-97b8-8243e3cb5882"},"vehicle_type_id":"4","last_reported":1720458420,"current_range_meters":0,"station_id":"ce4bh4p2rcd13ifvqe1g","pricing_plan_id":"cebpf4jnsgd1na2vs0mg"},{"bike_id":"f0963267-9890-4a95-951d-79525e5f6973","system_id":"levelo_inurba_marseille","lat":43.290238,"lon":5.381299,"is_reserved":false,"is_disabled":false,"rental_uris":{"android":"levelo://app?vid=f0963267-9890-4a95-951d-79525e5f6973","ios":"levelo://app?vid=f0963267-9890-4a95-951d-79525e5f6973"},"vehicle_type_id":"4","last_reported":1720458420,"current_range_meters":0,"station_id":"ce4bh4p2rcd13ifvqe1g","pricing_plan_id":"cebpf4jnsgd1na2vs0mg"},{"bike_id":"801efe9f-5ab5-41c6-af08-3ab553689421","system_id":"levelo_inurba_marseille","lat":43.312609,"lon":5.401662,"is_reserved":false,"is_disabled":false,"rental_uris":{"android":"levelo://app?vid=801efe9f-5ab5-41c6-af08-3ab553689421","ios":"levelo://app?vid=801efe9f-5ab5-41c6-af08-3ab553689421"},"vehicle_type_id":"4","last_reported":1720458420,"current_range_meters":31600,"station_id":"ce4bh092rcd13ifvqd30","pricing_plan_id":"cebpf4jnsgd1na2vs0mg"},{"bike_id":"a0d64720-b0ba-4bc1-8462-910508369b4b","system_id":"levelo_inurba_marseille","lat":43.312609,"lon":5.401662,"is_reserved":false,"is_disabled":false,"rental_uris":{"android":"levelo://app?vid=a0d64720-b0ba-4bc1-8462-910508369b4b","ios":"levelo://app?vid=a0d64720-b0ba-4bc1-8462-910508369b4b"},"vehicle_type_id":"4","last_reported":1720458420,"current_range_meters":5200,"station_id":"ce4bh092rcd13ifvqd30","pricing_plan_id":"cebpf4jnsgd1na2vs0mg"},{"bike_id":"8638ec37-430e-4f44-beaf-80a1ea0a0393","system_id":"levelo_inurba_marseille","lat":43.309371,"lon":5.401449,"is_reserved":false,"is_disabled":false,"rental_uris":{"android":"levelo://app?vid=8638ec37-430e-4f44-beaf-80a1ea0a0393","ios":"levelo://app?vid=8638ec37-430e-4f44-beaf-80a1ea0a0393"},"vehicle_type_id":"4","last_reported":1720458420,"current_range_meters":400,"station_id":"ce4bgvp2rcd13ifvqct0","pricing_plan_id":"cebpf4jnsgd1na2vs0mg"},{"bike_id":"9366f619-009b-45e5-ba62-de7bc50d4da0","system_id":"levelo_inurba_marseille","lat":43.3375,"lon":5.37479,"is_reserved":false,"is_disabled":false,"rental_uris":{"android":"levelo://app?vid=9366f619-009b-45e5-ba62-de7bc50d4da0","ios":"levelo://app?vid=9366f619-009b-45e5-ba62-de7bc50d4da0"},"vehicle_type_id":"4","last_reported":1720458420,"current_range_meters":27600,"station_id":"","pricing_plan_id":"cebpf4jnsgd1na2vs0mg"},{"bike_id":"a32eebf3-9a92-4e90-889c-315b9c3f5282","system_id":"levelo_inurba_marseille","lat":43.30642,"lon":5.401031,"is_reserved":false,"is_disabled":false,"rental_uris":{"android":"levelo://app?vid=a32eebf3-9a92-4e90-889c-315b9c3f5282","ios":"levelo://app?vid=a32eebf3-9a92-4e90-889c-315b9c3f5282"},"vehicle_type_id":"4","last_reported":1720458420,"current_range_meters":15600,"station_id":"ce4bh112rcd13ifvqda0","pricing_plan_id":"cebpf4jnsgd1na2vs0mg"},{"bike_id":"aebb537c-93e0-44ae-9e1f-23e4cf7d7a32","system_id":"levelo_inurba_marseille","lat":43.3377,"lon":5.37462,"is_reserved":false,"is_disabled":false,"rental_uris":{"android":"levelo://app?vid=aebb537c-93e0-44ae-9e1f-23e4cf7d7a32","ios":"levelo://app?vid=aebb537c-93e0-44ae-9e1f-23e4cf7d7a32"},"vehicle_type_id":"4","last_reported":1720458420,"current_range_meters":10400,"station_id":"","pricing_plan_id":"cebpf4jnsgd1na2vs0mg"},{"bike_id":"55653093-405e-49bf-877c-2fbf47c42743","system_id":"levelo_inurba_marseille","lat":43.28727,"lon":5.36078,"is_reserved":false,"is_disabled":false,"rental_uris":{"android":"levelo://app?vid=55653093-405e-49bf-877c-2fbf47c42743","ios":"levelo://app?vid=55653093-405e-49bf-877c-2fbf47c42743"},"vehicle_type_id":"4","last_reported":1720458420,"current_range_meters":12000,"station_id":"cki0cbj6b192h4jlfktg","pricing_plan_id":"cebpf4jnsgd1na2vs0mg"},{"bike_id":"7475da3b-3bc3-4e35-aa07-6712b6330195","system_id":"levelo_inurba_marseille","lat":43.28727,"lon":5.36078,"is_reserved":false,"is_disabled":false,"rental_uris":{"android":"levelo://app?vid=7475da3b-3bc3-4e35-aa07-6712b6330195","ios":"levelo://app?vid=7475da3b-3bc3-4e35-aa07-6712b6330195"},"vehicle_type_id":"4","last_reported":1720458420,"current_range_meters":14000,"station_id":"cki0cbj6b192h4jlfktg","pricing_plan_id":"cebpf4jnsgd1na2vs0mg"},{"bike_id":"ff24c229-b245-4d69-a83a-9ba278d3a8b8","system_id":"levelo_inurba_marseille","lat":43.28727,"lon":5.36078,"is_reserved":false,"is_disabled":false,"rental_uris":{"android":"levelo://app?vid=ff24c229-b245-4d69-a83a-9ba278d3a8b8","ios":"levelo://app?vid=ff24c229-b245-4d69-a83a-9ba278d3a8b8"},"vehicle_type_id":"4","last_reported":1720458420,"current_range_meters":4400,"station_id":"cki0cbj6b192h4jlfktg","pricing_plan_id":"cebpf4jnsgd1na2vs0mg"},{"bike_id":"52800bb2-04d5-4f58-9248-31c75bc24a50","system_id":"levelo_inurba_marseille","lat":43.28727,"lon":5.36078,"is_reserved":false,"is_disabled":false,"rental_uris":{"android":"levelo://app?vid=52800bb2-04d5-4f58-9248-31c75bc24a50","ios":"levelo://app?vid=52800bb2-04d5-4f58-9248-31c75bc24a50"},"vehicle_type_id":"4","last_reported":1720458420,"current_range_meters":12400,"station_id":"cki0cbj6b192h4jlfktg","pricing_plan_id":"cebpf4jnsgd1na2vs0mg"},{"bike_id":"fa5103f5-4728-45ae-b242-77650a11c4e0","system_id":"levelo_inurba_marseille","lat":43.298681,"lon":5.397225,"is_reserved":false,"is_disabled":false,"rental_uris":{"android":"levelo://app?vid=fa5103f5-4728-45ae-b242-77650a11c4e0","ios":"levelo://app?vid=fa5103f5-4728-45ae-b242-77650a11c4e0"},"vehicle_type_id":"4","last_reported":1720458420,"current_range_meters":0,"station_id":"ce4bh0h2rcd13ifvqd50","pricing_plan_id":"cebpf4jnsgd1na2vs0mg"},{"bike_id":"a8e4665f-0e8a-4ab4-a6e9-3610e3d5f875","system_id":"levelo_inurba_marseille","lat":43.28706,"lon":5.37384,"is_reserved":false,"is_disabled":false,"rental_uris":{"android":"levelo://app?vid=a8e4665f-0e8a-4ab4-a6e9-3610e3d5f875","ios":"levelo://app?vid=a8e4665f-0e8a-4ab4-a6e9-3610e3d5f875"},"vehicle_type_id":"4","last_reported":1720458420,"current_range_meters":0,"station_id":"ce4bh3p2rcd13ifvqdq0","pricing_plan_id":"cebpf4jnsgd1na2vs0mg"},{"bike_id":"88eba4ef-c99e-4e2f-be8e-462c4ee639b0","system_id":"levelo_inurba_marseille","lat":43.28704,"lon":5.37377,"is_reserved":false,"is_disabled":false,"rental_uris":{"android":"levelo://app?vid=88eba4ef-c99e-4e2f-be8e-462c4ee639b0","ios":"levelo://app?vid=88eba4ef-c99e-4e2f-be8e-462c4ee639b0"},"vehicle_type_id":"4","last_reported":1720458420,"current_range_meters":26800,"station_id":"ce4bh3p2rcd13ifvqdq0","pricing_plan_id":"cebpf4jnsgd1na2vs0mg"},{"bike_id":"c3e417a7-7381-4a1d-8ecc-806bd7f403e3","system_id":"levelo_inurba_marseille","lat":43.286593,"lon":5.363346,"is_reserved":false,"is_disabled":false,"rental_uris":{"android":"levelo://app?vid=c3e417a7-7381-4a1d-8ecc-806bd7f403e3","ios":"levelo://app?vid=c3e417a7-7381-4a1d-8ecc-806bd7f403e3"},"vehicle_type_id":"4","last_reported":1720458420,"current_range_meters":0,"station_id":"ce4bhah2rcd13ifvqej0","pricing_plan_id":"cebpf4jnsgd1na2vs0mg"},{"bike_id":"0c100388-d480-45ee-a699-0717b7f3c86f","system_id":"levelo_inurba_marseille","lat":43.2987,"lon":5.3974,"is_reserved":false,"is_disabled":false,"rental_uris":{"android":"levelo://app?vid=0c100388-d480-45ee-a699-0717b7f3c86f","ios":"levelo://app?vid=0c100388-d480-45ee-a699-0717b7f3c86f"},"vehicle_type_id":"4","last_reported":1720458420,"current_range_meters":0,"station_id":"ce4bh0h2rcd13ifvqd50","pricing_plan_id":"cebpf4jnsgd1na2vs0mg"},{"bike_id":"ea6fb3ec-fa77-41ec-9fa2-7fbe97e64e90","system_id":"levelo_inurba_marseille","lat":43.286593,"lon":5.363346,"is_reserved":false,"is_disabled":false,"rental_uris":{"android":"levelo://app?vid=ea6fb3ec-fa77-41ec-9fa2-7fbe97e64e90","ios":"levelo://app?vid=ea6fb3ec-fa77-41ec-9fa2-7fbe97e64e90"},"vehicle_type_id":"4","last_reported":1720458420,"current_range_meters":3200,"station_id":"ce4bhah2rcd13ifvqej0","pricing_plan_id":"cebpf4jnsgd1na2vs0mg"},{"bike_id":"9672deb1-6cd8-4b43-bfc4-f36abab8664c","system_id":"levelo_inurba_marseille","lat":43.286961,"lon":5.373785,"is_reserved":false,"is_disabled":false,"rental_uris":{"android":"levelo://app?vid=9672deb1-6cd8-4b43-bfc4-f36abab8664c","ios":"levelo://app?vid=9672deb1-6cd8-4b43-bfc4-f36abab8664c"},"vehicle_type_id":"4","last_reported":1720458420,"current_range_meters":1200,"station_id":"ce4bh3p2rcd13ifvqdq0","pricing_plan_id":"cebpf4jnsgd1na2vs0mg"},{"bike_id":"a6509b11-7a1f-4c4e-8927-cc6d136d62e5","system_id":"levelo_inurba_marseille","lat":43.289307,"lon":5.38406,"is_reserved":false,"is_disabled":false,"rental_uris":{"android":"levelo://app?vid=a6509b11-7a1f-4c4e-8927-cc6d136d62e5","ios":"levelo://app?vid=a6509b11-7a1f-4c4e-8927-cc6d136d62e5"},"vehicle_type_id":"4","last_reported":1720458420,"current_range_meters":1200,"station_id":"ce4bh612rcd13ifvqe6g","pricing_plan_id":"cebpf4jnsgd1na2vs0mg"},{"bike_id":"c0f26ae8-9319-4209-9409-b2c3987ee2a7","system_id":"levelo_inurba_marseille","lat":43.290336,"lon":5.386425,"is_reserved":false,"is_disabled":false,"rental_uris":{"android":"levelo://app?vid=c0f26ae8-9319-4209-9409-b2c3987ee2a7","ios":"levelo://app?vid=c0f26ae8-9319-4209-9409-b2c3987ee2a7"},"vehicle_type_id":"4","last_reported":1720458420,"current_range_meters":1600,"station_id":"ce4bh4p2rcd13ifvqe0g","pricing_plan_id":"cebpf4jnsgd1na2vs0mg"},{"bike_id":"bb666db8-e993-411c-8abe-633b0e0cc914","system_id":"levelo_inurba_marseille","lat":43.29504,"lon":5.39413,"is_reserved":false,"is_disabled":false,"rental_uris":{"android":"levelo://app?vid=bb666db8-e993-411c-8abe-633b0e0cc914","ios":"levelo://app?vid=bb666db8-e993-411c-8abe-633b0e0cc914"},"vehicle_type_id":"4","last_reported":1720458420,"current_range_meters":0,"station_id":"ce4bh292rcd13ifvqdf0","pricing_plan_id":"cebpf4jnsgd1na2vs0mg"},{"bike_id":"f7434c86-6ba8-41f9-b135-63fbb449c73c","system_id":"levelo_inurba_marseille","lat":43.302759,"lon":5.400793,"is_reserved":false,"is_disabled":false,"rental_uris":{"android":"levelo://app?vid=f7434c86-6ba8-41f9-b135-63fbb449c73c","ios":"levelo://app?vid=f7434c86-6ba8-41f9-b135-63fbb449c73c"},"vehicle_type_id":"4","last_reported":1720458420,"current_range_meters":3200,"station_id":"ce4bgvh2rcd13ifvqcs0","pricing_plan_id":"cebpf4jnsgd1na2vs0mg"},{"bike_id":"ffb81d58-476c-4b6d-859d-bc06d5692ad2","system_id":"levelo_inurba_marseille","lat":43.286039,"lon":5.370681,"is_reserved":false,"is_disabled":false,"rental_uris":{"android":"levelo://app?vid=ffb81d58-476c-4b6d-859d-bc06d5692ad2","ios":"levelo://app?vid=ffb81d58-476c-4b6d-859d-bc06d5692ad2"},"vehicle_type_id":"4","last_reported":1720458420,"current_range_meters":22400,"station_id":"ce4bht12rcd13ifvqi60","pricing_plan_id":"cebpf4jnsgd1na2vs0mg"},{"bike_id":"66657a6b-955f-4732-9380-035c26f99e9d","system_id":"levelo_inurba_marseille","lat":43.286039,"lon":5.370681,"is_reserved":false,"is_disabled":false,"rental_uris":{"android":"levelo://app?vid=66657a6b-955f-4732-9380-035c26f99e9d","ios":"levelo://app?vid=66657a6b-955f-4732-9380-035c26f99e9d"},"vehicle_type_id":"4","last_reported":1720458420,"current_range_meters":19600,"station_id":"ce4bht12rcd13ifvqi60","pricing_plan_id":"cebpf4jnsgd1na2vs0mg"},{"bike_id":"db81dc3d-35c3-436f-a0d5-95c96e1e6fce","system_id":"levelo_inurba_marseille","lat":43.286039,"lon":5.370681,"is_reserved":false,"is_disabled":false,"rental_uris":{"android":"levelo://app?vid=db81dc3d-35c3-436f-a0d5-95c96e1e6fce","ios":"levelo://app?vid=db81dc3d-35c3-436f-a0d5-95c96e1e6fce"},"vehicle_type_id":"4","last_reported":1720458420,"current_range_meters":25200,"station_id":"ce4bht12rcd13ifvqi60","pricing_plan_id":"cebpf4jnsgd1na2vs0mg"},{"bike_id":"8b7a09b7-4451-4fdf-9fda-b3b5774032d8","system_id":"levelo_inurba_marseille","lat":43.28722,"lon":5.37929,"is_reserved":false,"is_disabled":false,"rental_uris":{"android":"levelo://app?vid=8b7a09b7-4451-4fdf-9fda-b3b5774032d8","ios":"levelo://app?vid=8b7a09b7-4451-4fdf-9fda-b3b5774032d8"},"vehicle_type_id":"4","last_reported":1720458420,"current_range_meters":400,"station_id":"ce4bh9p2rcd13ifvqec0","pricing_plan_id":"cebpf4jnsgd1na2vs0mg"},{"bike_id":"8a74a2b4-805f-4a55-a21a-73a14b95a110","system_id":"levelo_inurba_marseille","lat":43.292569,"lon":5.409107,"is_reserved":false,"is_disabled":false,"rental_uris":{"android":"levelo://app?vid=8a74a2b4-805f-4a55-a21a-73a14b95a110","ios":"levelo://app?vid=8a74a2b4-805f-4a55-a21a-73a14b95a110"},"vehicle_type_id":"4","last_reported":1720458420,"current_range_meters":3200,"station_id":"ce4bh192rcd13ifvqdc0","pricing_plan_id":"cebpf4jnsgd1na2vs0mg"},{"bike_id":"f2f5795b-03b7-4c7d-b070-7f198c567292","system_id":"levelo_inurba_marseille","lat":43.291994,"lon":5.392907,"is_reserved":false,"is_disabled":false,"rental_uris":{"android":"levelo://app?vid=f2f5795b-03b7-4c7d-b070-7f198c567292","ios":"levelo://app?vid=f2f5795b-03b7-4c7d-b070-7f198c567292"},"vehicle_type_id":"4","last_reported":1720458420,"current_range_meters":1600,"station_id":"ce4bh192rcd13ifvqdd0","pricing_plan_id":"cebpf4jnsgd1na2vs0mg"},{"bike_id":"8282b88a-59b3-49bc-933d-e6a6e336117e","system_id":"levelo_inurba_marseille","lat":43.28489,"lon":5.35986,"is_reserved":false,"is_disabled":false,"rental_uris":{"android":"levelo://app?vid=8282b88a-59b3-49bc-933d-e6a6e336117e","ios":"levelo://app?vid=8282b88a-59b3-49bc-933d-e6a6e336117e"},"vehicle_type_id":"4","last_reported":1720458420,"current_range_meters":26000,"station_id":"","pricing_plan_id":"cebpf4jnsgd1na2vs0mg"},{"bike_id":"9212dd97-cf87-4867-9269-48fb72a06d11","system_id":"levelo_inurba_marseille","lat":43.28487,"lon":5.35978,"is_reserved":false,"is_disabled":false,"rental_uris":{"android":"levelo://app?vid=9212dd97-cf87-4867-9269-48fb72a06d11","ios":"levelo://app?vid=9212dd97-cf87-4867-9269-48fb72a06d11"},"vehicle_type_id":"4","last_reported":1720458420,"current_range_meters":13600,"station_id":"","pricing_plan_id":"cebpf4jnsgd1na2vs0mg"},{"bike_id":"494f88a4-f140-4307-ad49-04d6e1e4880d","system_id":"levelo_inurba_marseille","lat":43.29934,"lon":5.40128,"is_reserved":false,"is_disabled":false,"rental_uris":{"android":"levelo://app?vid=494f88a4-f140-4307-ad49-04d6e1e4880d","ios":"levelo://app?vid=494f88a4-f140-4307-ad49-04d6e1e4880d"},"vehicle_type_id":"4","last_reported":1720458420,"current_range_meters":12000,"station_id":"","pricing_plan_id":"cebpf4jnsgd1na2vs0mg"},{"bike_id":"60ccd87a-bbba-445e-a2c2-d3b81366217b","system_id":"levelo_inurba_marseille","lat":43.284534,"lon":5.358662,"is_reserved":false,"is_disabled":false,"rental_uris":{"android":"levelo://app?vid=60ccd87a-bbba-445e-a2c2-d3b81366217b","ios":"levelo://app?vid=60ccd87a-bbba-445e-a2c2-d3b81366217b"},"vehicle_type_id":"4","last_reported":1720458420,"current_range_meters":6800,"station_id":"ce4bhah2rcd13ifvqei0","pricing_plan_id":"cebpf4jnsgd1na2vs0mg"},{"bike_id":"1f365a5c-1e95-43cd-9a99-d1b63ff79193","system_id":"levelo_inurba_marseille","lat":43.284538,"lon":5.358657,"is_reserved":false,"is_disabled":false,"rental_uris":{"android":"levelo://app?vid=1f365a5c-1e95-43cd-9a99-d1b63ff79193","ios":"levelo://app?vid=1f365a5c-1e95-43cd-9a99-d1b63ff79193"},"vehicle_type_id":"4","last_reported":1720458420,"current_range_meters":9600,"station_id":"ce4bhah2rcd13ifvqei0","pricing_plan_id":"cebpf4jnsgd1na2vs0mg"},{"bike_id":"5e034bdf-eb14-4a0e-8e9c-a6c08b01594c","system_id":"levelo_inurba_marseille","lat":43.284538,"lon":5.358657,"is_reserved":false,"is_disabled":false,"rental_uris":{"android":"levelo://app?vid=5e034bdf-eb14-4a0e-8e9c-a6c08b01594c","ios":"levelo://app?vid=5e034bdf-eb14-4a0e-8e9c-a6c08b01594c"},"vehicle_type_id":"4","last_reported":1720458420,"current_range_meters":7600,"station_id":"ce4bhah2rcd13ifvqei0","pricing_plan_id":"cebpf4jnsgd1na2vs0mg"},{"bike_id":"0cf89ad2-b50a-4806-bdb2-3a11b877b2bc","system_id":"levelo_inurba_marseille","lat":43.284538,"lon":5.358657,"is_reserved":false,"is_disabled":false,"rental_uris":{"android":"levelo://app?vid=0cf89ad2-b50a-4806-bdb2-3a11b877b2bc","ios":"levelo://app?vid=0cf89ad2-b50a-4806-bdb2-3a11b877b2bc"},"vehicle_type_id":"4","last_reported":1720458420,"current_range_meters":31200,"station_id":"ce4bhah2rcd13ifvqei0","pricing_plan_id":"cebpf4jnsgd1na2vs0mg"},{"bike_id":"57173db6-ffcf-40bb-ada3-8a721b6b8067","system_id":"levelo_inurba_marseille","lat":43.284538,"lon":5.358657,"is_reserved":false,"is_disabled":false,"rental_uris":{"android":"levelo://app?vid=57173db6-ffcf-40bb-ada3-8a721b6b8067","ios":"levelo://app?vid=57173db6-ffcf-40bb-ada3-8a721b6b8067"},"vehicle_type_id":"4","last_reported":1720458420,"current_range_meters":26400,"station_id":"ce4bhah2rcd13ifvqei0","pricing_plan_id":"cebpf4jnsgd1na2vs0mg"},{"bike_id":"ca53f0d7-3f31-4dff-81cf-f3f207c25b3f","system_id":"levelo_inurba_marseille","lat":43.284534,"lon":5.358662,"is_reserved":false,"is_disabled":false,"rental_uris":{"android":"levelo://app?vid=ca53f0d7-3f31-4dff-81cf-f3f207c25b3f","ios":"levelo://app?vid=ca53f0d7-3f31-4dff-81cf-f3f207c25b3f"},"vehicle_type_id":"4","last_reported":1720458420,"current_range_meters":31200,"station_id":"ce4bhah2rcd13ifvqei0","pricing_plan_id":"cebpf4jnsgd1na2vs0mg"},{"bike_id":"c20f42d1-0d3d-4db8-b0dc-f1e171cf5104","system_id":"levelo_inurba_marseille","lat":43.284534,"lon":5.358662,"is_reserved":false,"is_disabled":false,"rental_uris":{"android":"levelo://app?vid=c20f42d1-0d3d-4db8-b0dc-f1e171cf5104","ios":"levelo://app?vid=c20f42d1-0d3d-4db8-b0dc-f1e171cf5104"},"vehicle_type_id":"4","last_reported":1720458420,"current_range_meters":6000,"station_id":"ce4bhah2rcd13ifvqei0","pricing_plan_id":"cebpf4jnsgd1na2vs0mg"},{"bike_id":"585cab3c-33f6-4faf-863b-99898eca4f17","system_id":"levelo_inurba_marseille","lat":43.284538,"lon":5.358657,"is_reserved":false,"is_disabled":false,"rental_uris":{"android":"levelo://app?vid=585cab3c-33f6-4faf-863b-99898eca4f17","ios":"levelo://app?vid=585cab3c-33f6-4faf-863b-99898eca4f17"},"vehicle_type_id":"4","last_reported":1720458420,"current_range_meters":7600,"station_id":"ce4bhah2rcd13ifvqei0","pricing_plan_id":"cebpf4jnsgd1na2vs0mg"},{"bike_id":"dc582f5b-713b-40f9-ad55-2b24cdbf8766","system_id":"levelo_inurba_marseille","lat":43.284538,"lon":5.358657,"is_reserved":false,"is_disabled":false,"rental_uris":{"android":"levelo://app?vid=dc582f5b-713b-40f9-ad55-2b24cdbf8766","ios":"levelo://app?vid=dc582f5b-713b-40f9-ad55-2b24cdbf8766"},"vehicle_type_id":"4","last_reported":1720458420,"current_range_meters":31600,"station_id":"ce4bhah2rcd13ifvqei0","pricing_plan_id":"cebpf4jnsgd1na2vs0mg"},{"bike_id":"ded8155c-f9d2-4689-ad78-0ac3d094339d","system_id":"levelo_inurba_marseille","lat":43.284538,"lon":5.358657,"is_reserved":false,"is_disabled":false,"rental_uris":{"android":"levelo://app?vid=ded8155c-f9d2-4689-ad78-0ac3d094339d","ios":"levelo://app?vid=ded8155c-f9d2-4689-ad78-0ac3d094339d"},"vehicle_type_id":"4","last_reported":1720458420,"current_range_meters":31200,"station_id":"ce4bhah2rcd13ifvqei0","pricing_plan_id":"cebpf4jnsgd1na2vs0mg"},{"bike_id":"09e6a6d2-45bf-49f7-90a3-57883448b48c","system_id":"levelo_inurba_marseille","lat":43.284538,"lon":5.358657,"is_reserved":false,"is_disabled":false,"rental_uris":{"android":"levelo://app?vid=09e6a6d2-45bf-49f7-90a3-57883448b48c","ios":"levelo://app?vid=09e6a6d2-45bf-49f7-90a3-57883448b48c"},"vehicle_type_id":"4","last_reported":1720458420,"current_range_meters":31200,"station_id":"ce4bhah2rcd13ifvqei0","pricing_plan_id":"cebpf4jnsgd1na2vs0mg"},{"bike_id":"56490de7-8d9c-4562-b39e-a892d2dfb2ee","system_id":"levelo_inurba_marseille","lat":43.284538,"lon":5.358657,"is_reserved":false,"is_disabled":false,"rental_uris":{"android":"levelo://app?vid=56490de7-8d9c-4562-b39e-a892d2dfb2ee","ios":"levelo://app?vid=56490de7-8d9c-4562-b39e-a892d2dfb2ee"},"vehicle_type_id":"4","last_reported":1720458420,"current_range_meters":17200,"station_id":"ce4bhah2rcd13ifvqei0","pricing_plan_id":"cebpf4jnsgd1na2vs0mg"},{"bike_id":"24fa8b9e-2b09-42ba-9422-ca62090dfb24","system_id":"levelo_inurba_marseille","lat":43.284538,"lon":5.358657,"is_reserved":false,"is_disabled":false,"rental_uris":{"android":"levelo://app?vid=24fa8b9e-2b09-42ba-9422-ca62090dfb24","ios":"levelo://app?vid=24fa8b9e-2b09-42ba-9422-ca62090dfb24"},"vehicle_type_id":"4","last_reported":1720458420,"current_range_meters":9200,"station_id":"ce4bhah2rcd13ifvqei0","pricing_plan_id":"cebpf4jnsgd1na2vs0mg"},{"bike_id":"d96d1fa0-bfc1-493a-a99a-4c56ab382df9","system_id":"levelo_inurba_marseille","lat":43.284538,"lon":5.358657,"is_reserved":false,"is_disabled":false,"rental_uris":{"android":"levelo://app?vid=d96d1fa0-bfc1-493a-a99a-4c56ab382df9","ios":"levelo://app?vid=d96d1fa0-bfc1-493a-a99a-4c56ab382df9"},"vehicle_type_id":"4","last_reported":1720458420,"current_range_meters":30400,"station_id":"ce4bhah2rcd13ifvqei0","pricing_plan_id":"cebpf4jnsgd1na2vs0mg"},{"bike_id":"6ec747cc-11b1-4936-a109-50e7f34cab4f","system_id":"levelo_inurba_marseille","lat":43.28454,"lon":5.35885,"is_reserved":false,"is_disabled":false,"rental_uris":{"android":"levelo://app?vid=6ec747cc-11b1-4936-a109-50e7f34cab4f","ios":"levelo://app?vid=6ec747cc-11b1-4936-a109-50e7f34cab4f"},"vehicle_type_id":"4","last_reported":1720458420,"current_range_meters":2800,"station_id":"ce4bhah2rcd13ifvqei0","pricing_plan_id":"cebpf4jnsgd1na2vs0mg"},{"bike_id":"c2740f49-4eea-4e61-ba55-9b81db9b46ce","system_id":"levelo_inurba_marseille","lat":43.285856,"lon":5.350771,"is_reserved":false,"is_disabled":false,"rental_uris":{"android":"levelo://app?vid=c2740f49-4eea-4e61-ba55-9b81db9b46ce","ios":"levelo://app?vid=c2740f49-4eea-4e61-ba55-9b81db9b46ce"},"vehicle_type_id":"4","last_reported":1720458420,"current_range_meters":400,"station_id":"ce4bhch2rcd13ifvqeug","pricing_plan_id":"cebpf4jnsgd1na2vs0mg"},{"bike_id":"44e1d664-5e69-4018-9ee9-33e9ba61db26","system_id":"levelo_inurba_marseille","lat":43.285856,"lon":5.350771,"is_reserved":false,"is_disabled":false,"rental_uris":{"android":"levelo://app?vid=44e1d664-5e69-4018-9ee9-33e9ba61db26","ios":"levelo://app?vid=44e1d664-5e69-4018-9ee9-33e9ba61db26"},"vehicle_type_id":"4","last_reported":1720458420,"current_range_meters":8400,"station_id":"ce4bhch2rcd13ifvqeug","pricing_plan_id":"cebpf4jnsgd1na2vs0mg"},{"bike_id":"56ceddbf-c102-4740-9611-447945276c61","system_id":"levelo_inurba_marseille","lat":43.28619,"lon":5.35106,"is_reserved":false,"is_disabled":false,"rental_uris":{"android":"levelo://app?vid=56ceddbf-c102-4740-9611-447945276c61","ios":"levelo://app?vid=56ceddbf-c102-4740-9611-447945276c61"},"vehicle_type_id":"4","last_reported":1720458420,"current_range_meters":31200,"station_id":"ce4bhch2rcd13ifvqeug","pricing_plan_id":"cebpf4jnsgd1na2vs0mg"},{"bike_id":"c3392d99-dbf0-42d5-865e-8ec773756b3e","system_id":"levelo_inurba_marseille","lat":43.28619,"lon":5.35106,"is_reserved":false,"is_disabled":false,"rental_uris":{"android":"levelo://app?vid=c3392d99-dbf0-42d5-865e-8ec773756b3e","ios":"levelo://app?vid=c3392d99-dbf0-42d5-865e-8ec773756b3e"},"vehicle_type_id":"4","last_reported":1720458420,"current_range_meters":0,"station_id":"ce4bhch2rcd13ifvqeug","pricing_plan_id":"cebpf4jnsgd1na2vs0mg"},{"bike_id":"2d088aa1-522e-4f7a-98d6-8c0448c766d1","system_id":"levelo_inurba_marseille","lat":43.285856,"lon":5.350771,"is_reserved":false,"is_disabled":false,"rental_uris":{"android":"levelo://app?vid=2d088aa1-522e-4f7a-98d6-8c0448c766d1","ios":"levelo://app?vid=2d088aa1-522e-4f7a-98d6-8c0448c766d1"},"vehicle_type_id":"4","last_reported":1720458420,"current_range_meters":10000,"station_id":"ce4bhch2rcd13ifvqeug","pricing_plan_id":"cebpf4jnsgd1na2vs0mg"},{"bike_id":"107ff3ef-a6c2-41b3-81c2-6e5e7597459d","system_id":"levelo_inurba_marseille","lat":43.28616,"lon":5.35108,"is_reserved":false,"is_disabled":false,"rental_uris":{"android":"levelo://app?vid=107ff3ef-a6c2-41b3-81c2-6e5e7597459d","ios":"levelo://app?vid=107ff3ef-a6c2-41b3-81c2-6e5e7597459d"},"vehicle_type_id":"4","last_reported":1720458420,"current_range_meters":31200,"station_id":"ce4bhch2rcd13ifvqeug","pricing_plan_id":"cebpf4jnsgd1na2vs0mg"},{"bike_id":"7d0abf7e-0624-42e3-b7a3-d80d236b20b9","system_id":"levelo_inurba_marseille","lat":43.285856,"lon":5.350771,"is_reserved":false,"is_disabled":false,"rental_uris":{"android":"levelo://app?vid=7d0abf7e-0624-42e3-b7a3-d80d236b20b9","ios":"levelo://app?vid=7d0abf7e-0624-42e3-b7a3-d80d236b20b9"},"vehicle_type_id":"4","last_reported":1720458420,"current_range_meters":5600,"station_id":"ce4bhch2rcd13ifvqeug","pricing_plan_id":"cebpf4jnsgd1na2vs0mg"},{"bike_id":"e64534ec-550b-40f6-82a0-f9ce83accab4","system_id":"levelo_inurba_marseille","lat":43.28618,"lon":5.35101,"is_reserved":false,"is_disabled":false,"rental_uris":{"android":"levelo://app?vid=e64534ec-550b-40f6-82a0-f9ce83accab4","ios":"levelo://app?vid=e64534ec-550b-40f6-82a0-f9ce83accab4"},"vehicle_type_id":"4","last_reported":1720458420,"current_range_meters":24000,"station_id":"ce4bhch2rcd13ifvqeug","pricing_plan_id":"cebpf4jnsgd1na2vs0mg"},{"bike_id":"76c6cfda-f424-410f-8ade-587c094da394","system_id":"levelo_inurba_marseille","lat":43.285856,"lon":5.350771,"is_reserved":false,"is_disabled":false,"rental_uris":{"android":"levelo://app?vid=76c6cfda-f424-410f-8ade-587c094da394","ios":"levelo://app?vid=76c6cfda-f424-410f-8ade-587c094da394"},"vehicle_type_id":"4","last_reported":1720458420,"current_range_meters":14000,"station_id":"ce4bhch2rcd13ifvqeug","pricing_plan_id":"cebpf4jnsgd1na2vs0mg"},{"bike_id":"c28f1db9-2004-4cab-8182-77eaa0c007e6","system_id":"levelo_inurba_marseille","lat":43.285856,"lon":5.350771,"is_reserved":false,"is_disabled":false,"rental_uris":{"android":"levelo://app?vid=c28f1db9-2004-4cab-8182-77eaa0c007e6","ios":"levelo://app?vid=c28f1db9-2004-4cab-8182-77eaa0c007e6"},"vehicle_type_id":"4","last_reported":1720458420,"current_range_meters":12000,"station_id":"ce4bhch2rcd13ifvqeug","pricing_plan_id":"cebpf4jnsgd1na2vs0mg"},{"bike_id":"7af7353c-0534-4c86-b3f3-910a498e8f61","system_id":"levelo_inurba_marseille","lat":43.28616,"lon":5.35105,"is_reserved":false,"is_disabled":false,"rental_uris":{"android":"levelo://app?vid=7af7353c-0534-4c86-b3f3-910a498e8f61","ios":"levelo://app?vid=7af7353c-0534-4c86-b3f3-910a498e8f61"},"vehicle_type_id":"4","last_reported":1720458420,"current_range_meters":6000,"station_id":"ce4bhch2rcd13ifvqeug","pricing_plan_id":"cebpf4jnsgd1na2vs0mg"},{"bike_id":"53ded633-5dbe-4d8e-8d3d-1e1a2697fb54","system_id":"levelo_inurba_marseille","lat":43.28612,"lon":5.35115,"is_reserved":false,"is_disabled":false,"rental_uris":{"android":"levelo://app?vid=53ded633-5dbe-4d8e-8d3d-1e1a2697fb54","ios":"levelo://app?vid=53ded633-5dbe-4d8e-8d3d-1e1a2697fb54"},"vehicle_type_id":"4","last_reported":1720458420,"current_range_meters":16400,"station_id":"ce4bhch2rcd13ifvqeug","pricing_plan_id":"cebpf4jnsgd1na2vs0mg"},{"bike_id":"d3dcdd0a-8613-44ca-812c-329dce8fbcab","system_id":"levelo_inurba_marseille","lat":43.28615,"lon":5.35101,"is_reserved":false,"is_disabled":false,"rental_uris":{"android":"levelo://app?vid=d3dcdd0a-8613-44ca-812c-329dce8fbcab","ios":"levelo://app?vid=d3dcdd0a-8613-44ca-812c-329dce8fbcab"},"vehicle_type_id":"4","last_reported":1720458420,"current_range_meters":4000,"station_id":"ce4bhch2rcd13ifvqeug","pricing_plan_id":"cebpf4jnsgd1na2vs0mg"},{"bike_id":"53dcaf01-38db-4f10-a68b-3aee55cc431d","system_id":"levelo_inurba_marseille","lat":43.285856,"lon":5.350771,"is_reserved":false,"is_disabled":false,"rental_uris":{"android":"levelo://app?vid=53dcaf01-38db-4f10-a68b-3aee55cc431d","ios":"levelo://app?vid=53dcaf01-38db-4f10-a68b-3aee55cc431d"},"vehicle_type_id":"4","last_reported":1720458420,"current_range_meters":26800,"station_id":"ce4bhch2rcd13ifvqeug","pricing_plan_id":"cebpf4jnsgd1na2vs0mg"},{"bike_id":"5e245da9-5277-4909-967f-b466896374f9","system_id":"levelo_inurba_marseille","lat":43.283998,"lon":5.375062,"is_reserved":false,"is_disabled":false,"rental_uris":{"android":"levelo://app?vid=5e245da9-5277-4909-967f-b466896374f9","ios":"levelo://app?vid=5e245da9-5277-4909-967f-b466896374f9"},"vehicle_type_id":"4","last_reported":1720458420,"current_range_meters":23600,"station_id":"ce4bh412rcd13ifvqds0","pricing_plan_id":"cebpf4jnsgd1na2vs0mg"},{"bike_id":"fb2be9f8-b37e-4fc5-897c-2b7f57a0140e","system_id":"levelo_inurba_marseille","lat":43.28613,"lon":5.35105,"is_reserved":false,"is_disabled":false,"rental_uris":{"android":"levelo://app?vid=fb2be9f8-b37e-4fc5-897c-2b7f57a0140e","ios":"levelo://app?vid=fb2be9f8-b37e-4fc5-897c-2b7f57a0140e"},"vehicle_type_id":"4","last_reported":1720458420,"current_range_meters":2800,"station_id":"ce4bhch2rcd13ifvqeug","pricing_plan_id":"cebpf4jnsgd1na2vs0mg"},{"bike_id":"28f78b44-8bfe-4327-a2e4-620d9305c1ba","system_id":"levelo_inurba_marseille","lat":43.286137,"lon":5.35098,"is_reserved":false,"is_disabled":false,"rental_uris":{"android":"levelo://app?vid=28f78b44-8bfe-4327-a2e4-620d9305c1ba","ios":"levelo://app?vid=28f78b44-8bfe-4327-a2e4-620d9305c1ba"},"vehicle_type_id":"4","last_reported":1720458420,"current_range_meters":12000,"station_id":"ce4bhch2rcd13ifvqeug","pricing_plan_id":"cebpf4jnsgd1na2vs0mg"},{"bike_id":"5cabee59-b047-48b4-bfef-a0fa51806cd4","system_id":"levelo_inurba_marseille","lat":43.28613,"lon":5.351,"is_reserved":false,"is_disabled":false,"rental_uris":{"android":"levelo://app?vid=5cabee59-b047-48b4-bfef-a0fa51806cd4","ios":"levelo://app?vid=5cabee59-b047-48b4-bfef-a0fa51806cd4"},"vehicle_type_id":"4","last_reported":1720458420,"current_range_meters":24800,"station_id":"ce4bhch2rcd13ifvqeug","pricing_plan_id":"cebpf4jnsgd1na2vs0mg"},{"bike_id":"90e09b3e-4399-44fe-a94f-558869a0bdd6","system_id":"levelo_inurba_marseille","lat":43.28613,"lon":5.351,"is_reserved":false,"is_disabled":false,"rental_uris":{"android":"levelo://app?vid=90e09b3e-4399-44fe-a94f-558869a0bdd6","ios":"levelo://app?vid=90e09b3e-4399-44fe-a94f-558869a0bdd6"},"vehicle_type_id":"4","last_reported":1720458420,"current_range_meters":30000,"station_id":"ce4bhch2rcd13ifvqeug","pricing_plan_id":"cebpf4jnsgd1na2vs0mg"},{"bike_id":"57f5e50a-fd08-4f45-b6ce-e432d35afe60","system_id":"levelo_inurba_marseille","lat":43.28436,"lon":5.35843,"is_reserved":false,"is_disabled":false,"rental_uris":{"android":"levelo://app?vid=57f5e50a-fd08-4f45-b6ce-e432d35afe60","ios":"levelo://app?vid=57f5e50a-fd08-4f45-b6ce-e432d35afe60"},"vehicle_type_id":"4","last_reported":1720458420,"current_range_meters":6800,"station_id":"ce4bhah2rcd13ifvqei0","pricing_plan_id":"cebpf4jnsgd1na2vs0mg"},{"bike_id":"bb63c563-dd5f-40ac-8492-e0661d301f1f","system_id":"levelo_inurba_marseille","lat":43.28609,"lon":5.35103,"is_reserved":false,"is_disabled":false,"rental_uris":{"android":"levelo://app?vid=bb63c563-dd5f-40ac-8492-e0661d301f1f","ios":"levelo://app?vid=bb63c563-dd5f-40ac-8492-e0661d301f1f"},"vehicle_type_id":"4","last_reported":1720458420,"current_range_meters":22400,"station_id":"ce4bhch2rcd13ifvqeug","pricing_plan_id":"cebpf4jnsgd1na2vs0mg"},{"bike_id":"baf2e06c-c6f8-4f85-82f7-0439e529bc06","system_id":"levelo_inurba_marseille","lat":43.28427,"lon":5.37512,"is_reserved":false,"is_disabled":false,"rental_uris":{"android":"levelo://app?vid=baf2e06c-c6f8-4f85-82f7-0439e529bc06","ios":"levelo://app?vid=baf2e06c-c6f8-4f85-82f7-0439e529bc06"},"vehicle_type_id":"4","last_reported":1720458420,"current_range_meters":0,"station_id":"ce4bh412rcd13ifvqds0","pricing_plan_id":"cebpf4jnsgd1na2vs0mg"},{"bike_id":"0be7eca3-c958-4e57-b2cc-3a914316c578","system_id":"levelo_inurba_marseille","lat":43.283998,"lon":5.375062,"is_reserved":false,"is_disabled":false,"rental_uris":{"android":"levelo://app?vid=0be7eca3-c958-4e57-b2cc-3a914316c578","ios":"levelo://app?vid=0be7eca3-c958-4e57-b2cc-3a914316c578"},"vehicle_type_id":"4","last_reported":1720458420,"current_range_meters":800,"station_id":"ce4bh412rcd13ifvqds0","pricing_plan_id":"cebpf4jnsgd1na2vs0mg"},{"bike_id":"b12b237e-ab98-4c76-ae5f-f9c70ba8e51c","system_id":"levelo_inurba_marseille","lat":43.283998,"lon":5.375062,"is_reserved":false,"is_disabled":false,"rental_uris":{"android":"levelo://app?vid=b12b237e-ab98-4c76-ae5f-f9c70ba8e51c","ios":"levelo://app?vid=b12b237e-ab98-4c76-ae5f-f9c70ba8e51c"},"vehicle_type_id":"4","last_reported":1720458420,"current_range_meters":9600,"station_id":"ce4bh412rcd13ifvqds0","pricing_plan_id":"cebpf4jnsgd1na2vs0mg"},{"bike_id":"37f1d681-f879-42e9-a92d-d5a803d25bb6","system_id":"levelo_inurba_marseille","lat":43.284077,"lon":5.375187,"is_reserved":false,"is_disabled":false,"rental_uris":{"android":"levelo://app?vid=37f1d681-f879-42e9-a92d-d5a803d25bb6","ios":"levelo://app?vid=37f1d681-f879-42e9-a92d-d5a803d25bb6"},"vehicle_type_id":"4","last_reported":1720458420,"current_range_meters":0,"station_id":"ce4bh412rcd13ifvqds0","pricing_plan_id":"cebpf4jnsgd1na2vs0mg"},{"bike_id":"78ae2098-2f59-4a36-a237-3675a44339be","system_id":"levelo_inurba_marseille","lat":43.284243,"lon":5.357423,"is_reserved":false,"is_disabled":false,"rental_uris":{"android":"levelo://app?vid=78ae2098-2f59-4a36-a237-3675a44339be","ios":"levelo://app?vid=78ae2098-2f59-4a36-a237-3675a44339be"},"vehicle_type_id":"4","last_reported":1720458420,"current_range_meters":16000,"station_id":"","pricing_plan_id":"cebpf4jnsgd1na2vs0mg"},{"bike_id":"cfc61ac2-e571-432b-96f4-375f8b5fc998","system_id":"levelo_inurba_marseille","lat":43.28398,"lon":5.3752,"is_reserved":false,"is_disabled":false,"rental_uris":{"android":"levelo://app?vid=cfc61ac2-e571-432b-96f4-375f8b5fc998","ios":"levelo://app?vid=cfc61ac2-e571-432b-96f4-375f8b5fc998"},"vehicle_type_id":"4","last_reported":1720458420,"current_range_meters":0,"station_id":"ce4bh412rcd13ifvqds0","pricing_plan_id":"cebpf4jnsgd1na2vs0mg"},{"bike_id":"8ea5f67f-0700-4076-915d-6a78385188cb","system_id":"levelo_inurba_marseille","lat":43.28397,"lon":5.35604,"is_reserved":false,"is_disabled":false,"rental_uris":{"android":"levelo://app?vid=8ea5f67f-0700-4076-915d-6a78385188cb","ios":"levelo://app?vid=8ea5f67f-0700-4076-915d-6a78385188cb"},"vehicle_type_id":"4","last_reported":1720458420,"current_range_meters":5600,"station_id":"ce4bhah2rcd13ifvqei0","pricing_plan_id":"cebpf4jnsgd1na2vs0mg"},{"bike_id":"ace8ecb1-c7cb-4c4b-ba85-73a2d3dccbf1","system_id":"levelo_inurba_marseille","lat":43.28377,"lon":5.356485,"is_reserved":false,"is_disabled":false,"rental_uris":{"android":"levelo://app?vid=ace8ecb1-c7cb-4c4b-ba85-73a2d3dccbf1","ios":"levelo://app?vid=ace8ecb1-c7cb-4c4b-ba85-73a2d3dccbf1"},"vehicle_type_id":"4","last_reported":1720458420,"current_range_meters":14000,"station_id":"","pricing_plan_id":"cebpf4jnsgd1na2vs0mg"},{"bike_id":"cebd6ec5-7e2e-4a0e-a412-8e68555090de","system_id":"levelo_inurba_marseille","lat":43.33717,"lon":5.391857,"is_reserved":false,"is_disabled":false,"rental_uris":{"android":"levelo://app?vid=cebd6ec5-7e2e-4a0e-a412-8e68555090de","ios":"levelo://app?vid=cebd6ec5-7e2e-4a0e-a412-8e68555090de"},"vehicle_type_id":"4","last_reported":1720458420,"current_range_meters":2000,"station_id":"ce4bhr92rcd13ifvqhsg","pricing_plan_id":"cebpf4jnsgd1na2vs0mg"},{"bike_id":"3d9b1e8c-2977-480f-b9e9-ec7778baf4fd","system_id":"levelo_inurba_marseille","lat":43.284793,"lon":5.384113,"is_reserved":false,"is_disabled":false,"rental_uris":{"android":"levelo://app?vid=3d9b1e8c-2977-480f-b9e9-ec7778baf4fd","ios":"levelo://app?vid=3d9b1e8c-2977-480f-b9e9-ec7778baf4fd"},"vehicle_type_id":"4","last_reported":1720458420,"current_range_meters":2800,"station_id":"ce4bh512rcd13ifvqe3g","pricing_plan_id":"cebpf4jnsgd1na2vs0mg"},{"bike_id":"9d437996-a62b-4b20-97d1-3810ad5adc36","system_id":"levelo_inurba_marseille","lat":43.323464,"lon":5.406297,"is_reserved":false,"is_disabled":false,"rental_uris":{"android":"levelo://app?vid=9d437996-a62b-4b20-97d1-3810ad5adc36","ios":"levelo://app?vid=9d437996-a62b-4b20-97d1-3810ad5adc36"},"vehicle_type_id":"4","last_reported":1720458420,"current_range_meters":14800,"station_id":"ce4bhq92rcd13ifvqhjg","pricing_plan_id":"cebpf4jnsgd1na2vs0mg"},{"bike_id":"5a42673e-7e17-437b-8909-eb1e31501967","system_id":"levelo_inurba_marseille","lat":43.297946,"lon":5.404063,"is_reserved":false,"is_disabled":false,"rental_uris":{"android":"levelo://app?vid=5a42673e-7e17-437b-8909-eb1e31501967","ios":"levelo://app?vid=5a42673e-7e17-437b-8909-eb1e31501967"},"vehicle_type_id":"4","last_reported":1720458420,"current_range_meters":800,"station_id":"ce4bh112rcd13ifvqd90","pricing_plan_id":"cebpf4jnsgd1na2vs0mg"},{"bike_id":"9dad98b9-fd9c-4940-9880-bbee7979cdbe","system_id":"levelo_inurba_marseille","lat":43.283494,"lon":5.380945,"is_reserved":false,"is_disabled":false,"rental_uris":{"android":"levelo://app?vid=9dad98b9-fd9c-4940-9880-bbee7979cdbe","ios":"levelo://app?vid=9dad98b9-fd9c-4940-9880-bbee7979cdbe"},"vehicle_type_id":"4","last_reported":1720458420,"current_range_meters":17600,"station_id":"ce4bh412rcd13ifvqdr0","pricing_plan_id":"cebpf4jnsgd1na2vs0mg"},{"bike_id":"25dcd406-7f23-4268-941c-c60237e00826","system_id":"levelo_inurba_marseille","lat":43.283498,"lon":5.380948,"is_reserved":false,"is_disabled":false,"rental_uris":{"android":"levelo://app?vid=25dcd406-7f23-4268-941c-c60237e00826","ios":"levelo://app?vid=25dcd406-7f23-4268-941c-c60237e00826"},"vehicle_type_id":"4","last_reported":1720458420,"current_range_meters":0,"station_id":"ce4bh412rcd13ifvqdr0","pricing_plan_id":"cebpf4jnsgd1na2vs0mg"},{"bike_id":"ece8fb23-fc1e-441b-ac1d-a42c63fd01c1","system_id":"levelo_inurba_marseille","lat":43.284776,"lon":5.385603,"is_reserved":false,"is_disabled":false,"rental_uris":{"android":"levelo://app?vid=ece8fb23-fc1e-441b-ac1d-a42c63fd01c1","ios":"levelo://app?vid=ece8fb23-fc1e-441b-ac1d-a42c63fd01c1"},"vehicle_type_id":"4","last_reported":1720458420,"current_range_meters":25200,"station_id":"ce4bh8p2rcd13ifvqeb0","pricing_plan_id":"cebpf4jnsgd1na2vs0mg"},{"bike_id":"cc744e07-01bd-43f9-8bd0-bd1fa6da1558","system_id":"levelo_inurba_marseille","lat":43.284366,"lon":5.34989,"is_reserved":false,"is_disabled":false,"rental_uris":{"android":"levelo://app?vid=cc744e07-01bd-43f9-8bd0-bd1fa6da1558","ios":"levelo://app?vid=cc744e07-01bd-43f9-8bd0-bd1fa6da1558"},"vehicle_type_id":"4","last_reported":1720458420,"current_range_meters":29200,"station_id":"ce4bhbh2rcd13ifvqepg","pricing_plan_id":"cebpf4jnsgd1na2vs0mg"},{"bike_id":"db4502a1-06b6-4f76-b1f4-2618b8701e11","system_id":"levelo_inurba_marseille","lat":43.28352,"lon":5.38101,"is_reserved":false,"is_disabled":false,"rental_uris":{"android":"levelo://app?vid=db4502a1-06b6-4f76-b1f4-2618b8701e11","ios":"levelo://app?vid=db4502a1-06b6-4f76-b1f4-2618b8701e11"},"vehicle_type_id":"4","last_reported":1720458420,"current_range_meters":0,"station_id":"ce4bh412rcd13ifvqdr0","pricing_plan_id":"cebpf4jnsgd1na2vs0mg"},{"bike_id":"db75e0eb-83ae-4507-aa31-73d6d1d9c26d","system_id":"levelo_inurba_marseille","lat":43.28434,"lon":5.3499,"is_reserved":false,"is_disabled":false,"rental_uris":{"android":"levelo://app?vid=db75e0eb-83ae-4507-aa31-73d6d1d9c26d","ios":"levelo://app?vid=db75e0eb-83ae-4507-aa31-73d6d1d9c26d"},"vehicle_type_id":"4","last_reported":1720458420,"current_range_meters":10800,"station_id":"ce4bhbh2rcd13ifvqepg","pricing_plan_id":"cebpf4jnsgd1na2vs0mg"},{"bike_id":"5aff13d5-f03c-41e6-bab5-792e39116c1e","system_id":"levelo_inurba_marseille","lat":43.284295,"lon":5.349951,"is_reserved":false,"is_disabled":false,"rental_uris":{"android":"levelo://app?vid=5aff13d5-f03c-41e6-bab5-792e39116c1e","ios":"levelo://app?vid=5aff13d5-f03c-41e6-bab5-792e39116c1e"},"vehicle_type_id":"4","last_reported":1720458420,"current_range_meters":12000,"station_id":"ce4bhbh2rcd13ifvqepg","pricing_plan_id":"cebpf4jnsgd1na2vs0mg"},{"bike_id":"2cc37d82-8b81-4291-b2f6-d9f74abfc450","system_id":"levelo_inurba_marseille","lat":43.284306,"lon":5.349837,"is_reserved":false,"is_disabled":false,"rental_uris":{"android":"levelo://app?vid=2cc37d82-8b81-4291-b2f6-d9f74abfc450","ios":"levelo://app?vid=2cc37d82-8b81-4291-b2f6-d9f74abfc450"},"vehicle_type_id":"4","last_reported":1720458420,"current_range_meters":22400,"station_id":"ce4bhbh2rcd13ifvqepg","pricing_plan_id":"cebpf4jnsgd1na2vs0mg"},{"bike_id":"c188b46e-d9a1-4f33-b413-51810bc57663","system_id":"levelo_inurba_marseille","lat":43.28428,"lon":5.34989,"is_reserved":false,"is_disabled":false,"rental_uris":{"android":"levelo://app?vid=c188b46e-d9a1-4f33-b413-51810bc57663","ios":"levelo://app?vid=c188b46e-d9a1-4f33-b413-51810bc57663"},"vehicle_type_id":"4","last_reported":1720458420,"current_range_meters":0,"station_id":"ce4bhbh2rcd13ifvqepg","pricing_plan_id":"cebpf4jnsgd1na2vs0mg"},{"bike_id":"02a63b04-9c7d-4d08-87d2-18fa819271ed","system_id":"levelo_inurba_marseille","lat":43.28425,"lon":5.34993,"is_reserved":false,"is_disabled":false,"rental_uris":{"android":"levelo://app?vid=02a63b04-9c7d-4d08-87d2-18fa819271ed","ios":"levelo://app?vid=02a63b04-9c7d-4d08-87d2-18fa819271ed"},"vehicle_type_id":"4","last_reported":1720458420,"current_range_meters":30800,"station_id":"ce4bhbh2rcd13ifvqepg","pricing_plan_id":"cebpf4jnsgd1na2vs0mg"},{"bike_id":"50045b28-4a63-4896-86a6-c294326263eb","system_id":"levelo_inurba_marseille","lat":43.28425,"lon":5.349906,"is_reserved":false,"is_disabled":false,"rental_uris":{"android":"levelo://app?vid=50045b28-4a63-4896-86a6-c294326263eb","ios":"levelo://app?vid=50045b28-4a63-4896-86a6-c294326263eb"},"vehicle_type_id":"4","last_reported":1720458420,"current_range_meters":29600,"station_id":"ce4bhbh2rcd13ifvqepg","pricing_plan_id":"cebpf4jnsgd1na2vs0mg"},{"bike_id":"e6365d46-6499-46de-bd7a-0fc06c3bc4af","system_id":"levelo_inurba_marseille","lat":43.28428,"lon":5.3498,"is_reserved":false,"is_disabled":false,"rental_uris":{"android":"levelo://app?vid=e6365d46-6499-46de-bd7a-0fc06c3bc4af","ios":"levelo://app?vid=e6365d46-6499-46de-bd7a-0fc06c3bc4af"},"vehicle_type_id":"4","last_reported":1720458420,"current_range_meters":4400,"station_id":"ce4bhbh2rcd13ifvqepg","pricing_plan_id":"cebpf4jnsgd1na2vs0mg"},{"bike_id":"09c0ed9e-c9bb-4f33-a30b-58aa397336ea","system_id":"levelo_inurba_marseille","lat":43.28429,"lon":5.34972,"is_reserved":false,"is_disabled":false,"rental_uris":{"android":"levelo://app?vid=09c0ed9e-c9bb-4f33-a30b-58aa397336ea","ios":"levelo://app?vid=09c0ed9e-c9bb-4f33-a30b-58aa397336ea"},"vehicle_type_id":"4","last_reported":1720458420,"current_range_meters":11200,"station_id":"ce4bhbh2rcd13ifvqepg","pricing_plan_id":"cebpf4jnsgd1na2vs0mg"},{"bike_id":"71f4d3f1-333e-4983-a4ac-551a6e819c79","system_id":"levelo_inurba_marseille","lat":43.28428,"lon":5.34974,"is_reserved":false,"is_disabled":false,"rental_uris":{"android":"levelo://app?vid=71f4d3f1-333e-4983-a4ac-551a6e819c79","ios":"levelo://app?vid=71f4d3f1-333e-4983-a4ac-551a6e819c79"},"vehicle_type_id":"4","last_reported":1720458420,"current_range_meters":20800,"station_id":"ce4bhbh2rcd13ifvqepg","pricing_plan_id":"cebpf4jnsgd1na2vs0mg"},{"bike_id":"e0007373-c4b1-4da6-bd59-fc2c3b2d0eab","system_id":"levelo_inurba_marseille","lat":43.28427,"lon":5.34977,"is_reserved":false,"is_disabled":false,"rental_uris":{"android":"levelo://app?vid=e0007373-c4b1-4da6-bd59-fc2c3b2d0eab","ios":"levelo://app?vid=e0007373-c4b1-4da6-bd59-fc2c3b2d0eab"},"vehicle_type_id":"4","last_reported":1720458420,"current_range_meters":10800,"station_id":"ce4bhbh2rcd13ifvqepg","pricing_plan_id":"cebpf4jnsgd1na2vs0mg"},{"bike_id":"f0beb411-721f-45c1-b02b-1ef825282855","system_id":"levelo_inurba_marseille","lat":43.284213,"lon":5.349907,"is_reserved":false,"is_disabled":false,"rental_uris":{"android":"levelo://app?vid=f0beb411-721f-45c1-b02b-1ef825282855","ios":"levelo://app?vid=f0beb411-721f-45c1-b02b-1ef825282855"},"vehicle_type_id":"4","last_reported":1720458420,"current_range_meters":31200,"station_id":"ce4bhbh2rcd13ifvqepg","pricing_plan_id":"cebpf4jnsgd1na2vs0mg"},{"bike_id":"fe8a7e1c-eebe-43a5-abe1-50442f68dc00","system_id":"levelo_inurba_marseille","lat":43.28425,"lon":5.34979,"is_reserved":false,"is_disabled":false,"rental_uris":{"android":"levelo://app?vid=fe8a7e1c-eebe-43a5-abe1-50442f68dc00","ios":"levelo://app?vid=fe8a7e1c-eebe-43a5-abe1-50442f68dc00"},"vehicle_type_id":"4","last_reported":1720458420,"current_range_meters":6000,"station_id":"ce4bhbh2rcd13ifvqepg","pricing_plan_id":"cebpf4jnsgd1na2vs0mg"},{"bike_id":"7891b49c-e9ed-4276-a140-b7d4ca1885a4","system_id":"levelo_inurba_marseille","lat":43.28424,"lon":5.34982,"is_reserved":false,"is_disabled":false,"rental_uris":{"android":"levelo://app?vid=7891b49c-e9ed-4276-a140-b7d4ca1885a4","ios":"levelo://app?vid=7891b49c-e9ed-4276-a140-b7d4ca1885a4"},"vehicle_type_id":"4","last_reported":1720458420,"current_range_meters":21600,"station_id":"ce4bhbh2rcd13ifvqepg","pricing_plan_id":"cebpf4jnsgd1na2vs0mg"},{"bike_id":"a3709e64-a66e-4387-9fec-36131e0f212c","system_id":"levelo_inurba_marseille","lat":43.284217,"lon":5.349697,"is_reserved":false,"is_disabled":false,"rental_uris":{"android":"levelo://app?vid=a3709e64-a66e-4387-9fec-36131e0f212c","ios":"levelo://app?vid=a3709e64-a66e-4387-9fec-36131e0f212c"},"vehicle_type_id":"4","last_reported":1720458420,"current_range_meters":12000,"station_id":"ce4bhbh2rcd13ifvqepg","pricing_plan_id":"cebpf4jnsgd1na2vs0mg"},{"bike_id":"d610093c-4082-4455-a9a2-01bf754266a2","system_id":"levelo_inurba_marseille","lat":43.284217,"lon":5.349697,"is_reserved":false,"is_disabled":false,"rental_uris":{"android":"levelo://app?vid=d610093c-4082-4455-a9a2-01bf754266a2","ios":"levelo://app?vid=d610093c-4082-4455-a9a2-01bf754266a2"},"vehicle_type_id":"4","last_reported":1720458420,"current_range_meters":8400,"station_id":"ce4bhbh2rcd13ifvqepg","pricing_plan_id":"cebpf4jnsgd1na2vs0mg"},{"bike_id":"2485cf33-606d-4397-a868-b7f02021c54b","system_id":"levelo_inurba_marseille","lat":43.28422,"lon":5.34985,"is_reserved":false,"is_disabled":false,"rental_uris":{"android":"levelo://app?vid=2485cf33-606d-4397-a868-b7f02021c54b","ios":"levelo://app?vid=2485cf33-606d-4397-a868-b7f02021c54b"},"vehicle_type_id":"4","last_reported":1720458420,"current_range_meters":14800,"station_id":"ce4bhbh2rcd13ifvqepg","pricing_plan_id":"cebpf4jnsgd1na2vs0mg"},{"bike_id":"d9495617-13ad-4e75-b58e-e83a6ea8f6cf","system_id":"levelo_inurba_marseille","lat":43.28423,"lon":5.34981,"is_reserved":false,"is_disabled":false,"rental_uris":{"android":"levelo://app?vid=d9495617-13ad-4e75-b58e-e83a6ea8f6cf","ios":"levelo://app?vid=d9495617-13ad-4e75-b58e-e83a6ea8f6cf"},"vehicle_type_id":"4","last_reported":1720458420,"current_range_meters":0,"station_id":"ce4bhbh2rcd13ifvqepg","pricing_plan_id":"cebpf4jnsgd1na2vs0mg"},{"bike_id":"b017b768-68af-46fe-a9ba-c7288d9fbe2a","system_id":"levelo_inurba_marseille","lat":43.284228,"lon":5.349811,"is_reserved":false,"is_disabled":false,"rental_uris":{"android":"levelo://app?vid=b017b768-68af-46fe-a9ba-c7288d9fbe2a","ios":"levelo://app?vid=b017b768-68af-46fe-a9ba-c7288d9fbe2a"},"vehicle_type_id":"4","last_reported":1720458420,"current_range_meters":2800,"station_id":"ce4bhbh2rcd13ifvqepg","pricing_plan_id":"cebpf4jnsgd1na2vs0mg"},{"bike_id":"ae892b17-ae11-401b-87ce-62a60d8b887f","system_id":"levelo_inurba_marseille","lat":43.28424,"lon":5.34976,"is_reserved":false,"is_disabled":false,"rental_uris":{"android":"levelo://app?vid=ae892b17-ae11-401b-87ce-62a60d8b887f","ios":"levelo://app?vid=ae892b17-ae11-401b-87ce-62a60d8b887f"},"vehicle_type_id":"4","last_reported":1720458420,"current_range_meters":1600,"station_id":"ce4bhbh2rcd13ifvqepg","pricing_plan_id":"cebpf4jnsgd1na2vs0mg"},{"bike_id":"0065ff83-0a31-4888-b258-ef9aefd9fad2","system_id":"levelo_inurba_marseille","lat":43.284169,"lon":5.349978,"is_reserved":false,"is_disabled":false,"rental_uris":{"android":"levelo://app?vid=0065ff83-0a31-4888-b258-ef9aefd9fad2","ios":"levelo://app?vid=0065ff83-0a31-4888-b258-ef9aefd9fad2"},"vehicle_type_id":"4","last_reported":1720458420,"current_range_meters":24800,"station_id":"ce4bhbh2rcd13ifvqepg","pricing_plan_id":"cebpf4jnsgd1na2vs0mg"},{"bike_id":"a9b30860-7dea-49ac-b94f-6a031390db66","system_id":"levelo_inurba_marseille","lat":43.28423,"lon":5.34976,"is_reserved":false,"is_disabled":false,"rental_uris":{"android":"levelo://app?vid=a9b30860-7dea-49ac-b94f-6a031390db66","ios":"levelo://app?vid=a9b30860-7dea-49ac-b94f-6a031390db66"},"vehicle_type_id":"4","last_reported":1720458420,"current_range_meters":14800,"station_id":"ce4bhbh2rcd13ifvqepg","pricing_plan_id":"cebpf4jnsgd1na2vs0mg"},{"bike_id":"b491b336-19e2-4e25-8e3e-f9806a15dadf","system_id":"levelo_inurba_marseille","lat":43.28423,"lon":5.34975,"is_reserved":false,"is_disabled":false,"rental_uris":{"android":"levelo://app?vid=b491b336-19e2-4e25-8e3e-f9806a15dadf","ios":"levelo://app?vid=b491b336-19e2-4e25-8e3e-f9806a15dadf"},"vehicle_type_id":"4","last_reported":1720458420,"current_range_meters":27200,"station_id":"ce4bhbh2rcd13ifvqepg","pricing_plan_id":"cebpf4jnsgd1na2vs0mg"},{"bike_id":"9e6b6874-76e7-4cfd-bd90-2cfc915bd140","system_id":"levelo_inurba_marseille","lat":43.2842,"lon":5.34983,"is_reserved":false,"is_disabled":false,"rental_uris":{"android":"levelo://app?vid=9e6b6874-76e7-4cfd-bd90-2cfc915bd140","ios":"levelo://app?vid=9e6b6874-76e7-4cfd-bd90-2cfc915bd140"},"vehicle_type_id":"4","last_reported":1720458420,"current_range_meters":10000,"station_id":"ce4bhbh2rcd13ifvqepg","pricing_plan_id":"cebpf4jnsgd1na2vs0mg"},{"bike_id":"3e49df54-cf34-46f6-8686-c0528b0755de","system_id":"levelo_inurba_marseille","lat":43.284186,"lon":5.349864,"is_reserved":false,"is_disabled":false,"rental_uris":{"android":"levelo://app?vid=3e49df54-cf34-46f6-8686-c0528b0755de","ios":"levelo://app?vid=3e49df54-cf34-46f6-8686-c0528b0755de"},"vehicle_type_id":"4","last_reported":1720458420,"current_range_meters":6000,"station_id":"ce4bhbh2rcd13ifvqepg","pricing_plan_id":"cebpf4jnsgd1na2vs0mg"},