{"last_updated":1740745054,"ttl":60,"version":"2.2","data":{"bikes":[{"bike_id":"f6cf34c5-0589-448b-aa25-98534dbb95de","system_id":"levelo_inurba_marseille","lat":43.26563,"lon":5.37296,"is_reserved":false,"is_disabled":false,"rental_uris":{"android":"levelo://app?vid=f6cf34c5-0589-448b-aa25-98534dbb95de","ios":"levelo://app?vid=f6cf34c5-0589-448b-aa25-98534dbb95de"},"vehicle_type_id":"4","last_reported":1740745054,"current_range_meters":2800,"station_id":"ce4bhg12rcd13ifvqf70","pricing_plan_id":"cebpf4jnsgd1na2vs0mg"},{"bike_id":"c9fa590d-1eff-4802-8d20-21641101f4a0","system_id":"levelo_inurba_marseille","lat":43.26809,"lon":5.40272,"is_reserved":false,"is_disabled":false,"rental_uris":{"android":"levelo://app?vid=c9fa590d-1eff-4802-8d20-21641101f4a0","ios":"levelo://app?vid=c9fa590d-1eff-4802-8d20-21641101f4a0"},"vehicle_type_id":"4","last_reported":1740745054,"current_range_meters":2800,"station_id":"ce501612rcd8frsf0b60","pricing_plan_id":"cebpf4jnsgd1na2vs0mg"},{"bike_id":"14a09975-3ba1-4bbf-a317-7998ab484667","system_id":"levelo_inurba_marseille","lat":43.29256,"lon":5.38422,"is_reserved":false,"is_disabled":false,"rental_uris":{"android":"levelo://app?vid=14a09975-3ba1-4bbf-a317-7998ab484667","ios":"levelo://app?vid=14a09975-3ba1-4bbf-a317-7998ab484667"},"vehicle_type_id":"4","last_reported":1740745054,"current_range_meters":2000,"station_id":"ce4bh692rcd13ifvqea0","pricing_plan_id":"cebpf4jnsgd1na2vs0mg"},{"bike_id":"b18fb5d3-9648-464a-9910-059846a5f6a3","system_id":"levelo_inurba_marseille","lat":43.23968,"lon":5.36634,"is_reserved":false,"is_disabled":false,"rental_uris":{"android":"levelo://app?vid=b18fb5d3-9648-464a-9910-059846a5f6a3","ios":"levelo://app?vid=b18fb5d3-9648-464a-9910-059846a5f6a3"},"vehicle_type_id":"4","last_reported":1740745054,"current_range_meters":0,"station_id":"ce4bhi12rcd13ifvqfp0","pricing_plan_id":"cebpf4jnsgd1na2vs0mg"},{"bike_id":"f0c27d30-8b97-46c2-a7eb-d0465ad4f7ce","system_id":"levelo_inurba_marseille","lat":43.3014,"lon":5.38764,"is_reserved":false,"is_disabled":false,"rental_uris":{"android":"levelo://app?vid=f0c27d30-8b97-46c2-a7eb-d0465ad4f7ce","ios":"levelo://app?vid=f0c27d30-8b97-46c2-a7eb-d0465ad4f7ce"},"vehicle_type_id":"4","last_reported":1740745054,"current_range_meters":3200,"station_id":"ce4bghh2rcd13ifvqb60","pricing_plan_id":"cebpf4jnsgd1na2vs0mg"},{"bike_id":"17b1ed6c-b0e6-497b-bae9-6afa735119d2","system_id":"levelo_inurba_marseille","lat":43.297824,"lon":5.393429,"is_reserved":false,"is_disabled":false,"rental_uris":{"android":"levelo://app?vid=17b1ed6c-b0e6-497b-bae9-6afa735119d2","ios":"levelo://app?vid=17b1ed6c-b0e6-497b-bae9-6afa735119d2"},"vehicle_type_id":"4","last_reported":1740745054,"current_range_meters":3600,"station_id":"chh1huq6cuj3fo74tm60","pricing_plan_id":"cebpf4jnsgd1na2vs0mg"},{"bike_id":"b6cb8932-dbb0-4b58-828e-dc769cbeb454","system_id":"levelo_inurba_marseille","lat":43.29421,"lon":5.38604,"is_reserved":false,"is_disabled":false,"rental_uris":{"android":"levelo://app?vid=b6cb8932-dbb0-4b58-828e-dc769cbeb454","ios":"levelo://app?vid=b6cb8932-dbb0-4b58-828e-dc769cbeb454"},"vehicle_type_id":"4","last_reported":1740745054,"current_range_meters":1200,"station_id":"ce4bh2h2rcd13ifvqdh0","pricing_plan_id":"cebpf4jnsgd1na2vs0mg"},{"bike_id":"062cf1df-89f8-4721-a6f2-7dad610bb9cd","system_id":"levelo_inurba_marseille","lat":43.27987,"lon":5.41669,"is_reserved":false,"is_disabled":false,"rental_uris":{"android":"levelo://app?vid=062cf1df-89f8-4721-a6f2-7dad610bb9cd","ios":"levelo://app?vid=062cf1df-89f8-4721-a6f2-7dad610bb9cd"},"vehicle_type_id":"4","last_reported":1740745054,"current_range_meters":3600,"station_id":"ce4bho12rcd13ifvqh1g","pricing_plan_id":"cebpf4jnsgd1na2vs0mg"},{"bike_id":"d2185018-21f9-453b-a10a-4321146ecf18","system_id":"levelo_inurba_marseille","lat":43.296,"lon":5.38111,"is_reserved":false,"is_disabled":false,"rental_uris":{"android":"levelo://app?vid=d2185018-21f9-453b-a10a-4321146ecf18","ios":"levelo://app?vid=d2185018-21f9-453b-a10a-4321146ecf18"},"vehicle_type_id":"4","last_reported":1740745054,"current_range_meters":3600,"station_id":"ce4bgl12rcd13ifvqbo0","pricing_plan_id":"cebpf4jnsgd1na2vs0mg"},{"bike_id":"099421b5-7db2-48ba-ad14-b6ae1bca939f","system_id":"levelo_inurba_marseille","lat":43.28696,"lon":5.39982,"is_reserved":false,"is_disabled":false,"rental_uris":{"android":"levelo://app?vid=099421b5-7db2-48ba-ad14-b6ae1bca939f","ios":"levelo://app?vid=099421b5-7db2-48ba-ad14-b6ae1bca939f"},"vehicle_type_id":"4","last_reported":1740745054,"current_range_meters":4000,"station_id":"ce4bho92rcd13ifvqh3g","pricing_plan_id":"cebpf4jnsgd1na2vs0mg"},{"bike_id":"cdaeb97d-2b62-4327-8139-fb9633f8d092","system_id":"levelo_inurba_marseille","lat":43.27434,"lon":5.39413,"is_reserved":false,"is_disabled":false,"rental_uris":{"android":"levelo://app?vid=cdaeb97d-2b62-4327-8139-fb9633f8d092","ios":"levelo://app?vid=cdaeb97d-2b62-4327-8139-fb9633f8d092"},"vehicle_type_id":"4","last_reported":1740745054,"current_range_meters":3600,"station_id":"ce4bhdp2rcd13ifvqf20","pricing_plan_id":"cebpf4jnsgd1na2vs0mg"},{"bike_id":"81acfb86-10d2-47ad-9b6e-1a4bed5f7695","system_id":"levelo_inurba_marseille","lat":43.26204,"lon":5.37937,"is_reserved":false,"is_disabled":false,"rental_uris":{"android":"levelo://app?vid=81acfb86-10d2-47ad-9b6e-1a4bed5f7695","ios":"levelo://app?vid=81acfb86-10d2-47ad-9b6e-1a4bed5f7695"},"vehicle_type_id":"4","last_reported":1740745054,"current_range_meters":3600,"station_id":"ce4bhjp2rcd13ifvqg90","pricing_plan_id":"cebpf4jnsgd1na2vs0mg"},{"bike_id":"9b5dc849-223e-4a65-9d20-a043ce3b692f","system_id":"levelo_inurba_marseille","lat":43.24172,"lon":5.39715,"is_reserved":false,"is_disabled":false,"rental_uris":{"android":"levelo://app?vid=9b5dc849-223e-4a65-9d20-a043ce3b692f","ios":"levelo://app?vid=9b5dc849-223e-4a65-9d20-a043ce3b692f"},"vehicle_type_id":"4","last_reported":1740745054,"current_range_meters":5600,"station_id":"ce4bhn12rcd13ifvqgpg","pricing_plan_id":"cebpf4jnsgd1na2vs0mg"},{"bike_id":"bf43bc0c-3b10-4d36-938e-a4873dd298e2","system_id":"levelo_inurba_marseille","lat":43.31531,"lon":5.38033,"is_reserved":false,"is_disabled":false,"rental_uris":{"android":"levelo://app?vid=bf43bc0c-3b10-4d36-938e-a4873dd298e2","ios":"levelo://app?vid=bf43bc0c-3b10-4d36-938e-a4873dd298e2"},"vehicle_type_id":"4","last_reported":1740745054,"current_range_meters":4400,"station_id":"ce4bhsp2rcd13ifvqi50","pricing_plan_id":"cebpf4jnsgd1na2vs0mg"},{"bike_id":"b3073896-8043-4e66-9c28-eb02d204bd45","system_id":"levelo_inurba_marseille","lat":43.29998,"lon":5.37161,"is_reserved":false,"is_disabled":false,"rental_uris":{"android":"levelo://app?vid=b3073896-8043-4e66-9c28-eb02d204bd45","ios":"levelo://app?vid=b3073896-8043-4e66-9c28-eb02d204bd45"},"vehicle_type_id":"4","last_reported":1740745054,"current_range_meters":4000,"station_id":"ce4bgr92rcd13ifvqc7g","pricing_plan_id":"cebpf4jnsgd1na2vs0mg"},{"bike_id":"17635321-397b-4f8b-9d46-58a5891c7b21","system_id":"levelo_inurba_marseille","lat":43.28091,"lon":5.39661,"is_reserved":false,"is_disabled":false,"rental_uris":{"android":"levelo://app?vid=17635321-397b-4f8b-9d46-58a5891c7b21","ios":"levelo://app?vid=17635321-397b-4f8b-9d46-58a5891c7b21"},"vehicle_type_id":"4","last_reported":1740745054,"current_range_meters":4400,"station_id":"ce4bho12rcd13ifvqh2g","pricing_plan_id":"cebpf4jnsgd1na2vs0mg"},{"bike_id":"71f6f520-cab8-4a7d-974f-37d7918c8730","system_id":"levelo_inurba_marseille","lat":43.2953,"lon":5.38546,"is_reserved":false,"is_disabled":false,"rental_uris":{"android":"levelo://app?vid=71f6f520-cab8-4a7d-974f-37d7918c8730","ios":"levelo://app?vid=71f6f520-cab8-4a7d-974f-37d7918c8730"},"vehicle_type_id":"4","last_reported":1740745054,"current_range_meters":4400,"station_id":"ce4bgih2rcd13ifvqba0","pricing_plan_id":"cebpf4jnsgd1na2vs0mg"},{"bike_id":"f216d3f0-1e95-4b9e-998c-30cf5d3ea79f","system_id":"levelo_inurba_marseille","lat":43.32111,"lon":5.36768,"is_reserved":false,"is_disabled":false,"rental_uris":{"android":"levelo://app?vid=f216d3f0-1e95-4b9e-998c-30cf5d3ea79f","ios":"levelo://app?vid=f216d3f0-1e95-4b9e-998c-30cf5d3ea79f"},"vehicle_type_id":"4","last_reported":1740745054,"current_range_meters":4800,"station_id":"ce4bhrh2rcd13ifvqhug","pricing_plan_id":"cebpf4jnsgd1na2vs0mg"},{"bike_id":"5720b569-e546-43c4-9008-c5cabe48354c","system_id":"levelo_inurba_marseille","lat":43.28474,"lon":5.38415,"is_reserved":false,"is_disabled":false,"rental_uris":{"android":"levelo://app?vid=5720b569-e546-43c4-9008-c5cabe48354c","ios":"levelo://app?vid=5720b569-e546-43c4-9008-c5cabe48354c"},"vehicle_type_id":"4","last_reported":1740745054,"current_range_meters":6000,"station_id":"ce4bh512rcd13ifvqe3g","pricing_plan_id":"cebpf4jnsgd1na2vs0mg"},{"bike_id":"718ff3ba-3187-4b34-b0a3-fbf4b954f478","system_id":"levelo_inurba_marseille","lat":43.2893,"lon":5.3664,"is_reserved":false,"is_disabled":false,"rental_uris":{"android":"levelo://app?vid=718ff3ba-3187-4b34-b0a3-fbf4b954f478","ios":"levelo://app?vid=718ff3ba-3187-4b34-b0a3-fbf4b954f478"},"vehicle_type_id":"4","last_reported":1740745054,"current_range_meters":4800,"station_id":"ce4bhap2rcd13ifvqek0","pricing_plan_id":"cebpf4jnsgd1na2vs0mg"},{"bike_id":"7b66045f-2a56-4aa5-9c12-76b4f1c1fb45","system_id":"levelo_inurba_marseille","lat":43.29268,"lon":5.38428,"is_reserved":false,"is_disabled":false,"rental_uris":{"android":"levelo://app?vid=7b66045f-2a56-4aa5-9c12-76b4f1c1fb45","ios":"levelo://app?vid=7b66045f-2a56-4aa5-9c12-76b4f1c1fb45"},"vehicle_type_id":"4","last_reported":1740745054,"current_range_meters":4400,"station_id":"ce4bh692rcd13ifvqea0","pricing_plan_id":"cebpf4jnsgd1na2vs0mg"},{"bike_id":"961f3694-6ba3-4290-ae4b-8063d35a8ede","system_id":"levelo_inurba_marseille","lat":43.29846,"lon":5.36288,"is_reserved":false,"is_disabled":false,"rental_uris":{"android":"levelo://app?vid=961f3694-6ba3-4290-ae4b-8063d35a8ede","ios":"levelo://app?vid=961f3694-6ba3-4290-ae4b-8063d35a8ede"},"vehicle_type_id":"4","last_reported":1740745054,"current_range_meters":4800,"station_id":"ce4bgpp2rcd13ifvqc3g","pricing_plan_id":"cebpf4jnsgd1na2vs0mg"},{"bike_id":"f690bf84-9b4a-415a-bdf8-23ece8bc6149","system_id":"levelo_inurba_marseille","lat":43.25493,"lon":5.3765,"is_reserved":false,"is_disabled":false,"rental_uris":{"android":"levelo://app?vid=f690bf84-9b4a-415a-bdf8-23ece8bc6149","ios":"levelo://app?vid=f690bf84-9b4a-415a-bdf8-23ece8bc6149"},"vehicle_type_id":"4","last_reported":1740745054,"current_range_meters":4800,"station_id":"ce4bhh12rcd13ifvqff0","pricing_plan_id":"cebpf4jnsgd1na2vs0mg"},{"bike_id":"01d45fb4-dbdc-46c6-be28-a528dadccbd5","system_id":"levelo_inurba_marseille","lat":43.30545,"lon":5.36558,"is_reserved":false,"is_disabled":false,"rental_uris":{"android":"levelo://app?vid=01d45fb4-dbdc-46c6-be28-a528dadccbd5","ios":"levelo://app?vid=01d45fb4-dbdc-46c6-be28-a528dadccbd5"},"vehicle_type_id":"4","last_reported":1740745054,"current_range_meters":5600,"station_id":"ce4bgs12rcd13ifvqcag","pricing_plan_id":"cebpf4jnsgd1na2vs0mg"},{"bike_id":"547472db-081c-4d57-a36d-0a14420d826d","system_id":"levelo_inurba_marseille","lat":43.277,"lon":5.35702,"is_reserved":false,"is_disabled":false,"rental_uris":{"android":"levelo://app?vid=547472db-081c-4d57-a36d-0a14420d826d","ios":"levelo://app?vid=547472db-081c-4d57-a36d-0a14420d826d"},"vehicle_type_id":"4","last_reported":1740745054,"current_range_meters":5600,"station_id":"","pricing_plan_id":"cebpf4jnsgd1na2vs0mg"},{"bike_id":"e3641f51-9f64-4f34-bd97-4f69580d65ba","system_id":"levelo_inurba_marseille","lat":43.2977,"lon":5.3711,"is_reserved":false,"is_disabled":false,"rental_uris":{"android":"levelo://app?vid=e3641f51-9f64-4f34-bd97-4f69580d65ba","ios":"levelo://app?vid=e3641f51-9f64-4f34-bd97-4f69580d65ba"},"vehicle_type_id":"4","last_reported":1740745054,"current_range_meters":4800,"station_id":"ce4bgop2rcd13ifvqc1g","pricing_plan_id":"cebpf4jnsgd1na2vs0mg"},{"bike_id":"dee04613-fbaa-4eb6-911c-d41130b55850","system_id":"levelo_inurba_marseille","lat":43.26702,"lon":5.38279,"is_reserved":false,"is_disabled":true,"rental_uris":{"android":"levelo://app?vid=dee04613-fbaa-4eb6-911c-d41130b55850","ios":"levelo://app?vid=dee04613-fbaa-4eb6-911c-d41130b55850"},"vehicle_type_id":"4","last_reported":1740745054,"current_range_meters":5600,"station_id":"ce4bhg92rcd13ifvqf90","pricing_plan_id":"cebpf4jnsgd1na2vs0mg"},{"bike_id":"b5c04338-71b5-40e7-914f-5f1200a51a92","system_id":"levelo_inurba_marseille","lat":43.259347,"lon":5.409035,"is_reserved":false,"is_disabled":false,"rental_uris":{"android":"levelo://app?vid=b5c04338-71b5-40e7-914f-5f1200a51a92","ios":"levelo://app?vid=b5c04338-71b5-40e7-914f-5f1200a51a92"},"vehicle_type_id":"4","last_reported":1740745054,"current_range_meters":6000,"station_id":"ce4bhm92rcd13ifvqglg","pricing_plan_id":"cebpf4jnsgd1na2vs0mg"},{"bike_id":"923f6719-ca10-4b23-9077-96c31350c78e","system_id":"levelo_inurba_marseille","lat":43.27432,"lon":5.39428,"is_reserved":false,"is_disabled":false,"rental_uris":{"android":"levelo://app?vid=923f6719-ca10-4b23-9077-96c31350c78e","ios":"levelo://app?vid=923f6719-ca10-4b23-9077-96c31350c78e"},"vehicle_type_id":"4","last_reported":1740745054,"current_range_meters":2000,"station_id":"ce4bhdp2rcd13ifvqf20","pricing_plan_id":"cebpf4jnsgd1na2vs0mg"},{"bike_id":"48b32eb1-671c-43af-bb2c-ce97fd960462","system_id":"levelo_inurba_marseille","lat":43.26963,"lon":5.38649,"is_reserved":false,"is_disabled":false,"rental_uris":{"android":"levelo://app?vid=48b32eb1-671c-43af-bb2c-ce97fd960462","ios":"levelo://app?vid=48b32eb1-671c-43af-bb2c-ce97fd960462"},"vehicle_type_id":"4","last_reported":1740745054,"current_range_meters":5600,"station_id":"ce4bhh92rcd13ifvqfh0","pricing_plan_id":"cebpf4jnsgd1na2vs0mg"},{"bike_id":"dc500c65-b239-45d1-83ec-b280f6d80274","system_id":"levelo_inurba_marseille","lat":43.30593,"lon":5.39365,"is_reserved":false,"is_disabled":false,"rental_uris":{"android":"levelo://app?vid=dc500c65-b239-45d1-83ec-b280f6d80274","ios":"levelo://app?vid=dc500c65-b239-45d1-83ec-b280f6d80274"},"vehicle_type_id":"4","last_reported":1740745054,"current_range_meters":5600,"station_id":"ce4bh0p2rcd13ifvqd80","pricing_plan_id":"cebpf4jnsgd1na2vs0mg"},{"bike_id":"f1ee1f3c-a29e-412d-891f-b8df83c4f4ac","system_id":"levelo_inurba_marseille","lat":43.295297,"lon":5.385391,"is_reserved":false,"is_disabled":false,"rental_uris":{"android":"levelo://app?vid=f1ee1f3c-a29e-412d-891f-b8df83c4f4ac","ios":"levelo://app?vid=f1ee1f3c-a29e-412d-891f-b8df83c4f4ac"},"vehicle_type_id":"4","last_reported":1740745054,"current_range_meters":6000,"station_id":"ce4bgqh2rcd13ifvqc4g","pricing_plan_id":"cebpf4jnsgd1na2vs0mg"},{"bike_id":"836cc54f-c84b-4a9f-b5cb-58bf9a6a782a","system_id":"levelo_inurba_marseille","lat":43.28464,"lon":5.38547,"is_reserved":false,"is_disabled":false,"rental_uris":{"android":"levelo://app?vid=836cc54f-c84b-4a9f-b5cb-58bf9a6a782a","ios":"levelo://app?vid=836cc54f-c84b-4a9f-b5cb-58bf9a6a782a"},"vehicle_type_id":"4","last_reported":1740745054,"current_range_meters":6000,"station_id":"ce4bh8p2rcd13ifvqeb0","pricing_plan_id":"cebpf4jnsgd1na2vs0mg"},{"bike_id":"58e4eb19-3c88-4838-b85d-7f4e29c87c70","system_id":"levelo_inurba_marseille","lat":43.270732,"lon":5.422823,"is_reserved":false,"is_disabled":false,"rental_uris":{"android":"levelo://app?vid=58e4eb19-3c88-4838-b85d-7f4e29c87c70","ios":"levelo://app?vid=58e4eb19-3c88-4838-b85d-7f4e29c87c70"},"vehicle_type_id":"4","last_reported":1740745054,"current_range_meters":6000,"station_id":"ce4bhk92rcd13ifvqgb0","pricing_plan_id":"cebpf4jnsgd1na2vs0mg"},{"bike_id":"789337b8-0f05-440f-b866-6442627770c5","system_id":"levelo_inurba_marseille","lat":43.29847,"lon":5.36251,"is_reserved":false,"is_disabled":false,"rental_uris":{"android":"levelo://app?vid=789337b8-0f05-440f-b866-6442627770c5","ios":"levelo://app?vid=789337b8-0f05-440f-b866-6442627770c5"},"vehicle_type_id":"4","last_reported":1740745054,"current_range_meters":6400,"station_id":"ce4bgpp2rcd13ifvqc3g","pricing_plan_id":"cebpf4jnsgd1na2vs0mg"},{"bike_id":"87b97a31-0b23-4a28-b8e7-550e84c654e9","system_id":"levelo_inurba_marseille","lat":43.248077,"lon":5.374568,"is_reserved":false,"is_disabled":false,"rental_uris":{"android":"levelo://app?vid=87b97a31-0b23-4a28-b8e7-550e84c654e9","ios":"levelo://app?vid=87b97a31-0b23-4a28-b8e7-550e84c654e9"},"vehicle_type_id":"4","last_reported":1740745054,"current_range_meters":6000,"station_id":"ce4bhgh2rcd13ifvqfb0","pricing_plan_id":"cebpf4jnsgd1na2vs0mg"},{"bike_id":"138882a3-ed4c-4122-8d5f-84ed720827af","system_id":"levelo_inurba_marseille","lat":43.29953,"lon":5.3653,"is_reserved":false,"is_disabled":false,"rental_uris":{"android":"levelo://app?vid=138882a3-ed4c-4122-8d5f-84ed720827af","ios":"levelo://app?vid=138882a3-ed4c-4122-8d5f-84ed720827af"},"vehicle_type_id":"4","last_reported":1740745054,"current_range_meters":6000,"station_id":"ce4bgm92rcd13ifvqbr0","pricing_plan_id":"cebpf4jnsgd1na2vs0mg"},{"bike_id":"61ca1d08-5c96-4ae3-b92d-03fb13a0aa37","system_id":"levelo_inurba_marseille","lat":43.23964,"lon":5.36626,"is_reserved":false,"is_disabled":false,"rental_uris":{"android":"levelo://app?vid=61ca1d08-5c96-4ae3-b92d-03fb13a0aa37","ios":"levelo://app?vid=61ca1d08-5c96-4ae3-b92d-03fb13a0aa37"},"vehicle_type_id":"4","last_reported":1740745054,"current_range_meters":1600,"station_id":"ce4bhi12rcd13ifvqfp0","pricing_plan_id":"cebpf4jnsgd1na2vs0mg"},{"bike_id":"58734ddf-a6a1-4aa4-933a-9e18fdd8a769","system_id":"levelo_inurba_marseille","lat":43.30542,"lon":5.36548,"is_reserved":false,"is_disabled":false,"rental_uris":{"android":"levelo://app?vid=58734ddf-a6a1-4aa4-933a-9e18fdd8a769","ios":"levelo://app?vid=58734ddf-a6a1-4aa4-933a-9e18fdd8a769"},"vehicle_type_id":"4","last_reported":1740745054,"current_range_meters":6400,"station_id":"ce4bgs12rcd13ifvqcag","pricing_plan_id":"cebpf4jnsgd1na2vs0mg"},{"bike_id":"b8b5a57c-8dde-4019-bb6a-ae49adc55d76","system_id":"levelo_inurba_marseille","lat":43.26953,"lon":5.38631,"is_reserved":false,"is_disabled":false,"rental_uris":{"android":"levelo://app?vid=b8b5a57c-8dde-4019-bb6a-ae49adc55d76","ios":"levelo://app?vid=b8b5a57c-8dde-4019-bb6a-ae49adc55d76"},"vehicle_type_id":"4","last_reported":1740745054,"current_range_meters":6400,"station_id":"ce4bhh92rcd13ifvqfh0","pricing_plan_id":"cebpf4jnsgd1na2vs0mg"},{"bike_id":"25ce0e5e-cba0-4bbd-9436-879a4ec1e088","system_id":"levelo_inurba_marseille","lat":43.28476,"lon":5.38558,"is_reserved":false,"is_disabled":false,"rental_uris":{"android":"levelo://app?vid=25ce0e5e-cba0-4bbd-9436-879a4ec1e088","ios":"levelo://app?vid=25ce0e5e-cba0-4bbd-9436-879a4ec1e088"},"vehicle_type_id":"4","last_reported":1740745054,"current_range_meters":6400,"station_id":"ce4bh8p2rcd13ifvqeb0","pricing_plan_id":"cebpf4jnsgd1na2vs0mg"},{"bike_id":"bcbc4442-8472-4de3-9548-7cd44e940b67","system_id":"levelo_inurba_marseille","lat":43.29251,"lon":5.37605,"is_reserved":false,"is_disabled":false,"rental_uris":{"android":"levelo://app?vid=bcbc4442-8472-4de3-9548-7cd44e940b67","ios":"levelo://app?vid=bcbc4442-8472-4de3-9548-7cd44e940b67"},"vehicle_type_id":"4","last_reported":1740745054,"current_range_meters":6400,"station_id":"ce4bgi12rcd13ifvqb80","pricing_plan_id":"cebpf4jnsgd1na2vs0mg"},{"bike_id":"a2d02fdf-8a8c-4c7b-943d-63dc15a38352","system_id":"levelo_inurba_marseille","lat":43.30599,"lon":5.37229,"is_reserved":false,"is_disabled":false,"rental_uris":{"android":"levelo://app?vid=a2d02fdf-8a8c-4c7b-943d-63dc15a38352","ios":"levelo://app?vid=a2d02fdf-8a8c-4c7b-943d-63dc15a38352"},"vehicle_type_id":"4","last_reported":1740745054,"current_range_meters":6400,"station_id":"ce4bgqh2rcd13ifvqc4g","pricing_plan_id":"cebpf4jnsgd1na2vs0mg"},{"bike_id":"95f42861-4cde-4681-8d13-6ca7d9080a7c","system_id":"levelo_inurba_marseille","lat":43.29002,"lon":5.35614,"is_reserved":false,"is_disabled":false,"rental_uris":{"android":"levelo://app?vid=95f42861-4cde-4681-8d13-6ca7d9080a7c","ios":"levelo://app?vid=95f42861-4cde-4681-8d13-6ca7d9080a7c"},"vehicle_type_id":"4","last_reported":1740745054,"current_range_meters":6800,"station_id":"ce4bhb92rcd13ifvqen0","pricing_plan_id":"cebpf4jnsgd1na2vs0mg"},{"bike_id":"61fc8cb4-50b7-407b-875f-ecb5ad7c68d5","system_id":"levelo_inurba_marseille","lat":43.297852,"lon":5.393296,"is_reserved":false,"is_disabled":false,"rental_uris":{"android":"levelo://app?vid=61fc8cb4-50b7-407b-875f-ecb5ad7c68d5","ios":"levelo://app?vid=61fc8cb4-50b7-407b-875f-ecb5ad7c68d5"},"vehicle_type_id":"4","last_reported":1740745054,"current_range_meters":6400,"station_id":"chh1huq6cuj3fo74tm60","pricing_plan_id":"cebpf4jnsgd1na2vs0mg"},{"bike_id":"a402dcb0-63b6-4569-b9e8-ad825500c3f8","system_id":"levelo_inurba_marseille","lat":43.28989,"lon":5.35908,"is_reserved":false,"is_disabled":false,"rental_uris":{"android":"levelo://app?vid=a402dcb0-63b6-4569-b9e8-ad825500c3f8","ios":"levelo://app?vid=a402dcb0-63b6-4569-b9e8-ad825500c3f8"},"vehicle_type_id":"4","last_reported":1740745054,"current_range_meters":6800,"station_id":"","pricing_plan_id":"cebpf4jnsgd1na2vs0mg"},{"bike_id":"3af92434-3b2d-448d-902f-3f178f1b7861","system_id":"levelo_inurba_marseille","lat":43.29046,"lon":5.40016,"is_reserved":false,"is_disabled":false,"rental_uris":{"android":"levelo://app?vid=3af92434-3b2d-448d-902f-3f178f1b7861","ios":"levelo://app?vid=3af92434-3b2d-448d-902f-3f178f1b7861"},"vehicle_type_id":"4","last_reported":1740745054,"current_range_meters":6800,"station_id":"ce4bh392rcd13ifvqdm0","pricing_plan_id":"cebpf4jnsgd1na2vs0mg"},{"bike_id":"fc43f240-dbbb-4748-be2b-8b9caa4a15b1","system_id":"levelo_inurba_marseille","lat":43.2796,"lon":5.4106,"is_reserved":false,"is_disabled":false,"rental_uris":{"android":"levelo://app?vid=fc43f240-dbbb-4748-be2b-8b9caa4a15b1","ios":"levelo://app?vid=fc43f240-dbbb-4748-be2b-8b9caa4a15b1"},"vehicle_type_id":"4","last_reported":1740745054,"current_range_meters":6800,"station_id":"ce4bhnp2rcd13ifvqh0g","pricing_plan_id":"cebpf4jnsgd1na2vs0mg"},{"bike_id":"04d0144f-f616-4d91-9c70-438d242315f4","system_id":"levelo_inurba_marseille","lat":43.280792,"lon":5.396665,"is_reserved":false,"is_disabled":false,"rental_uris":{"android":"levelo://app?vid=04d0144f-f616-4d91-9c70-438d242315f4","ios":"levelo://app?vid=04d0144f-f616-4d91-9c70-438d242315f4"},"vehicle_type_id":"4","last_reported":1740745054,"current_range_meters":6800,"station_id":"ce4bho12rcd13ifvqh2g","pricing_plan_id":"cebpf4jnsgd1na2vs0mg"},{"bike_id":"5e0e22b0-e973-48d0-8bed-a771273f721a","system_id":"levelo_inurba_marseille","lat":43.2738,"lon":5.36256,"is_reserved":false,"is_disabled":false,"rental_uris":{"android":"levelo://app?vid=5e0e22b0-e973-48d0-8bed-a771273f721a","ios":"levelo://app?vid=5e0e22b0-e973-48d0-8bed-a771273f721a"},"vehicle_type_id":"4","last_reported":1740745054,"current_range_meters":7200,"station_id":"ce4bhbh2rcd13ifvqeo0","pricing_plan_id":"cebpf4jnsgd1na2vs0mg"},{"bike_id":"1e6c36e9-5d7f-42aa-9009-beb1bd3367b9","system_id":"levelo_inurba_marseille","lat":43.23184,"lon":5.39991,"is_reserved":false,"is_disabled":false,"rental_uris":{"android":"levelo://app?vid=1e6c36e9-5d7f-42aa-9009-beb1bd3367b9","ios":"levelo://app?vid=1e6c36e9-5d7f-42aa-9009-beb1bd3367b9"},"vehicle_type_id":"4","last_reported":1740745054,"current_range_meters":11600,"station_id":"ce4bhn12rcd13ifvqgqg","pricing_plan_id":"cebpf4jnsgd1na2vs0mg"},{"bike_id":"d298b8e1-bdb9-4f37-ba70-cf4a47deb1ea","system_id":"levelo_inurba_marseille","lat":43.29522,"lon":5.37498,"is_reserved":false,"is_disabled":true,"rental_uris":{"android":"levelo://app?vid=d298b8e1-bdb9-4f37-ba70-cf4a47deb1ea","ios":"levelo://app?vid=d298b8e1-bdb9-4f37-ba70-cf4a47deb1ea"},"vehicle_type_id":"4","last_reported":1740745054,"current_range_meters":7200,"station_id":"ce4bgkp2rcd13ifvqbmg","pricing_plan_id":"cebpf4jnsgd1na2vs0mg"},{"bike_id":"89d30cf7-0fa6-4fd6-ab1b-7af06ec344e9","system_id":"levelo_inurba_marseille","lat":43.24176,"lon":5.39731,"is_reserved":false,"is_disabled":false,"rental_uris":{"android":"levelo://app?vid=89d30cf7-0fa6-4fd6-ab1b-7af06ec344e9","ios":"levelo://app?vid=89d30cf7-0fa6-4fd6-ab1b-7af06ec344e9"},"vehicle_type_id":"4","last_reported":1740745054,"current_range_meters":6800,"station_id":"ce4bhn12rcd13ifvqgpg","pricing_plan_id":"cebpf4jnsgd1na2vs0mg"},{"bike_id":"c75b3f4d-27b2-4224-a2b8-048ffba493c0","system_id":"levelo_inurba_marseille","lat":43.32094,"lon":5.36757,"is_reserved":false,"is_disabled":false,"rental_uris":{"android":"levelo://app?vid=c75b3f4d-27b2-4224-a2b8-048ffba493c0","ios":"levelo://app?vid=c75b3f4d-27b2-4224-a2b8-048ffba493c0"},"vehicle_type_id":"4","last_reported":1740745054,"current_range_meters":7200,"station_id":"ce4bhrh2rcd13ifvqhug","pricing_plan_id":"cebpf4jnsgd1na2vs0mg"},{"bike_id":"346220dd-9c7d-4d77-be12-828e664c8a40","system_id":"levelo_inurba_marseille","lat":43.29874,"lon":5.36282,"is_reserved":false,"is_disabled":false,"rental_uris":{"android":"levelo://app?vid=346220dd-9c7d-4d77-be12-828e664c8a40","ios":"levelo://app?vid=346220dd-9c7d-4d77-be12-828e664c8a40"},"vehicle_type_id":"4","last_reported":1740745054,"current_range_meters":8000,"station_id":"ce4bgpp2rcd13ifvqc3g","pricing_plan_id":"cebpf4jnsgd1na2vs0mg"},{"bike_id":"50ed1e7a-f4d6-4a92-abe5-fc238ab6bb28","system_id":"levelo_inurba_marseille","lat":43.29989,"lon":5.37178,"is_reserved":false,"is_disabled":false,"rental_uris":{"android":"levelo://app?vid=50ed1e7a-f4d6-4a92-abe5-fc238ab6bb28","ios":"levelo://app?vid=50ed1e7a-f4d6-4a92-abe5-fc238ab6bb28"},"vehicle_type_id":"4","last_reported":1740745054,"current_range_meters":8000,"station_id":"ce4bgr92rcd13ifvqc7g","pricing_plan_id":"cebpf4jnsgd1na2vs0mg"},{"bike_id":"a857a849-1414-4d4d-9dae-cc5261b581b9","system_id":"levelo_inurba_marseille","lat":43.23191,"lon":5.35558,"is_reserved":false,"is_disabled":false,"rental_uris":{"android":"levelo://app?vid=a857a849-1414-4d4d-9dae-cc5261b581b9","ios":"levelo://app?vid=a857a849-1414-4d4d-9dae-cc5261b581b9"},"vehicle_type_id":"4","last_reported":1740745054,"current_range_meters":7200,"station_id":"ce4bhu92rcd13ifvqi70","pricing_plan_id":"cebpf4jnsgd1na2vs0mg"},{"bike_id":"c2cd62fa-5421-4d8d-83f3-aa1ab92d9420","system_id":"levelo_inurba_marseille","lat":43.31367,"lon":5.36731,"is_reserved":false,"is_disabled":false,"rental_uris":{"android":"levelo://app?vid=c2cd62fa-5421-4d8d-83f3-aa1ab92d9420","ios":"levelo://app?vid=c2cd62fa-5421-4d8d-83f3-aa1ab92d9420"},"vehicle_type_id":"4","last_reported":1740745054,"current_range_meters":8000,"station_id":"ce4bgr92rcd13ifvqc6g","pricing_plan_id":"cebpf4jnsgd1na2vs0mg"},{"bike_id":"c4bc2955-1d82-4895-ba00-fd5a3355a495","system_id":"levelo_inurba_marseille","lat":43.27811,"lon":5.40716,"is_reserved":false,"is_disabled":false,"rental_uris":{"android":"levelo://app?vid=c4bc2955-1d82-4895-ba00-fd5a3355a495","ios":"levelo://app?vid=c4bc2955-1d82-4895-ba00-fd5a3355a495"},"vehicle_type_id":"4","last_reported":1740745054,"current_range_meters":8000,"station_id":"ce4bhnh2rcd13ifvqgtg","pricing_plan_id":"cebpf4jnsgd1na2vs0mg"},{"bike_id":"2d713e86-84c1-414d-8586-0104afd3a051","system_id":"levelo_inurba_marseille","lat":43.31131,"lon":5.38409,"is_reserved":false,"is_disabled":true,"rental_uris":{"android":"levelo://app?vid=2d713e86-84c1-414d-8586-0104afd3a051","ios":"levelo://app?vid=2d713e86-84c1-414d-8586-0104afd3a051"},"vehicle_type_id":"4","last_reported":1740745054,"current_range_meters":8000,"station_id":"","pricing_plan_id":"cebpf4jnsgd1na2vs0mg"},{"bike_id":"e82a1286-988f-4104-9a62-e4d3a0d39d3a","system_id":"levelo_inurba_marseille","lat":43.29032,"lon":5.35914,"is_reserved":false,"is_disabled":false,"rental_uris":{"android":"levelo://app?vid=e82a1286-988f-4104-9a62-e4d3a0d39d3a","ios":"levelo://app?vid=e82a1286-988f-4104-9a62-e4d3a0d39d3a"},"vehicle_type_id":"4","last_reported":1740745054,"current_range_meters":8000,"station_id":"ce4bha92rcd13ifvqeg0","pricing_plan_id":"cebpf4jnsgd1na2vs0mg"},{"bike_id":"8dff4b22-c278-42c0-889c-314489fa7e55","system_id":"levelo_inurba_marseille","lat":43.24389,"lon":5.37064,"is_reserved":false,"is_disabled":false,"rental_uris":{"android":"levelo://app?vid=8dff4b22-c278-42c0-889c-314489fa7e55","ios":"levelo://app?vid=8dff4b22-c278-42c0-889c-314489fa7e55"},"vehicle_type_id":"4","last_reported":1740745054,"current_range_meters":8400,"station_id":"ce4bhhh2rcd13ifvqfk0","pricing_plan_id":"cebpf4jnsgd1na2vs0mg"},{"bike_id":"0fa1537a-723f-4029-a1cc-94edc24d3f3b","system_id":"levelo_inurba_marseille","lat":43.25924,"lon":5.40856,"is_reserved":false,"is_disabled":true,"rental_uris":{"android":"levelo://app?vid=0fa1537a-723f-4029-a1cc-94edc24d3f3b","ios":"levelo://app?vid=0fa1537a-723f-4029-a1cc-94edc24d3f3b"},"vehicle_type_id":"4","last_reported":1740745054,"current_range_meters":8400,"station_id":"ce4bhm92rcd13ifvqglg","pricing_plan_id":"cebpf4jnsgd1na2vs0mg"},{"bike_id":"aee61c5d-f3c3-49eb-bbc9-9394e54541d0","system_id":"levelo_inurba_marseille","lat":43.24807,"lon":5.37443,"is_reserved":false,"is_disabled":false,"rental_uris":{"android":"levelo://app?vid=aee61c5d-f3c3-49eb-bbc9-9394e54541d0","ios":"levelo://app?vid=aee61c5d-f3c3-49eb-bbc9-9394e54541d0"},"vehicle_type_id":"4","last_reported":1740745054,"current_range_meters":8400,"station_id":"ce4bhgh2rcd13ifvqfb0","pricing_plan_id":"cebpf4jnsgd1na2vs0mg"},{"bike_id":"f5a3245d-59bb-4ab5-be82-fa38d8d3be3a","system_id":"levelo_inurba_marseille","lat":43.27069,"lon":5.42278,"is_reserved":false,"is_disabled":false,"rental_uris":{"android":"levelo://app?vid=f5a3245d-59bb-4ab5-be82-fa38d8d3be3a","ios":"levelo://app?vid=f5a3245d-59bb-4ab5-be82-fa38d8d3be3a"},"vehicle_type_id":"4","last_reported":1740745054,"current_range_meters":8000,"station_id":"ce4bhk92rcd13ifvqgb0","pricing_plan_id":"cebpf4jnsgd1na2vs0mg"},{"bike_id":"0c805cb3-0ad2-4800-8571-a210aa1a0037","system_id":"levelo_inurba_marseille","lat":43.2926,"lon":5.37615,"is_reserved":false,"is_disabled":false,"rental_uris":{"android":"levelo://app?vid=0c805cb3-0ad2-4800-8571-a210aa1a0037","ios":"levelo://app?vid=0c805cb3-0ad2-4800-8571-a210aa1a0037"},"vehicle_type_id":"4","last_reported":1740745054,"current_range_meters":8000,"station_id":"ce4bgi12rcd13ifvqb80","pricing_plan_id":"cebpf4jnsgd1na2vs0mg"},{"bike_id":"65088479-67a3-40cf-a81e-01c7566ba65e","system_id":"levelo_inurba_marseille","lat":43.27554,"lon":5.38411,"is_reserved":false,"is_disabled":false,"rental_uris":{"android":"levelo://app?vid=65088479-67a3-40cf-a81e-01c7566ba65e","ios":"levelo://app?vid=65088479-67a3-40cf-a81e-01c7566ba65e"},"vehicle_type_id":"4","last_reported":1740745054,"current_range_meters":8400,"station_id":"ce4bhh92rcd13ifvqfi0","pricing_plan_id":"cebpf4jnsgd1na2vs0mg"},{"bike_id":"91162707-5565-46fe-a278-24d9a621dea6","system_id":"levelo_inurba_marseille","lat":43.30904,"lon":5.36835,"is_reserved":false,"is_disabled":false,"rental_uris":{"android":"levelo://app?vid=91162707-5565-46fe-a278-24d9a621dea6","ios":"levelo://app?vid=91162707-5565-46fe-a278-24d9a621dea6"},"vehicle_type_id":"4","last_reported":1740745054,"current_range_meters":8400,"station_id":"ce4bgn92rcd13ifvqbvg","pricing_plan_id":"cebpf4jnsgd1na2vs0mg"},{"bike_id":"38798852-c5e2-45dc-8837-d635140dad8b","system_id":"levelo_inurba_marseille","lat":43.2781,"lon":5.40707,"is_reserved":false,"is_disabled":false,"rental_uris":{"android":"levelo://app?vid=38798852-c5e2-45dc-8837-d635140dad8b","ios":"levelo://app?vid=38798852-c5e2-45dc-8837-d635140dad8b"},"vehicle_type_id":"4","last_reported":1740745054,"current_range_meters":8400,"station_id":"ce4bhnh2rcd13ifvqgtg","pricing_plan_id":"cebpf4jnsgd1na2vs0mg"},{"bike_id":"ec0c3b7d-e59a-44ca-a91a-f860d2fd7a88","system_id":"levelo_inurba_marseille","lat":43.30839,"lon":5.374,"is_reserved":false,"is_disabled":false,"rental_uris":{"android":"levelo://app?vid=ec0c3b7d-e59a-44ca-a91a-f860d2fd7a88","ios":"levelo://app?vid=ec0c3b7d-e59a-44ca-a91a-f860d2fd7a88"},"vehicle_type_id":"4","last_reported":1740745054,"current_range_meters":8400,"station_id":"","pricing_plan_id":"cebpf4jnsgd1na2vs0mg"},{"bike_id":"f6b766a8-c3a4-4901-a0b5-48fa8736a3ec","system_id":"levelo_inurba_marseille","lat":43.30537,"lon":5.3672,"is_reserved":false,"is_disabled":false,"rental_uris":{"android":"levelo://app?vid=f6b766a8-c3a4-4901-a0b5-48fa8736a3ec","ios":"levelo://app?vid=f6b766a8-c3a4-4901-a0b5-48fa8736a3ec"},"vehicle_type_id":"4","last_reported":1740745054,"current_range_meters":8400,"station_id":"ce4bgrp2rcd13ifvqc9g","pricing_plan_id":"cebpf4jnsgd1na2vs0mg"},{"bike_id":"5e2b066e-b30f-4528-b707-0258e0903ba1","system_id":"levelo_inurba_marseille","lat":43.277069,"lon":5.388669,"is_reserved":false,"is_disabled":false,"rental_uris":{"android":"levelo://app?vid=5e2b066e-b30f-4528-b707-0258e0903ba1","ios":"levelo://app?vid=5e2b066e-b30f-4528-b707-0258e0903ba1"},"vehicle_type_id":"4","last_reported":1740745054,"current_range_meters":8400,"station_id":"ce4bhi12rcd13ifvqfo0","pricing_plan_id":"cebpf4jnsgd1na2vs0mg"},{"bike_id":"6208017f-24c9-4f36-a465-a818621e4412","system_id":"levelo_inurba_marseille","lat":43.262078,"lon":5.37927,"is_reserved":false,"is_disabled":false,"rental_uris":{"android":"levelo://app?vid=6208017f-24c9-4f36-a465-a818621e4412","ios":"levelo://app?vid=6208017f-24c9-4f36-a465-a818621e4412"},"vehicle_type_id":"4","last_reported":1740745054,"current_range_meters":8400,"station_id":"ce4bhjp2rcd13ifvqg90","pricing_plan_id":"cebpf4jnsgd1na2vs0mg"},{"bike_id":"d4ffb101-314e-4834-9fe6-d05f389a1ee7","system_id":"levelo_inurba_marseille","lat":43.28017,"lon":5.40019,"is_reserved":false,"is_disabled":false,"rental_uris":{"android":"levelo://app?vid=d4ffb101-314e-4834-9fe6-d05f389a1ee7","ios":"levelo://app?vid=d4ffb101-314e-4834-9fe6-d05f389a1ee7"},"vehicle_type_id":"4","last_reported":1740745054,"current_range_meters":9200,"station_id":"ce4bho92rcd13ifvqh4g","pricing_plan_id":"cebpf4jnsgd1na2vs0mg"},{"bike_id":"026e178e-412a-49e0-9772-e5f6d0abaab4","system_id":"levelo_inurba_marseille","lat":43.30859,"lon":5.3708,"is_reserved":false,"is_disabled":false,"rental_uris":{"android":"levelo://app?vid=026e178e-412a-49e0-9772-e5f6d0abaab4","ios":"levelo://app?vid=026e178e-412a-49e0-9772-e5f6d0abaab4"},"vehicle_type_id":"4","last_reported":1740745054,"current_range_meters":9200,"station_id":"","pricing_plan_id":"cebpf4jnsgd1na2vs0mg"},{"bike_id":"35bca0a4-b61f-42ad-9dcb-20c4ccd40ab5","system_id":"levelo_inurba_marseille","lat":43.286912,"lon":5.36374,"is_reserved":false,"is_disabled":false,"rental_uris":{"android":"levelo://app?vid=35bca0a4-b61f-42ad-9dcb-20c4ccd40ab5","ios":"levelo://app?vid=35bca0a4-b61f-42ad-9dcb-20c4ccd40ab5"},"vehicle_type_id":"4","last_reported":1740745054,"current_range_meters":9200,"station_id":"ce4bhah2rcd13ifvqej0","pricing_plan_id":"cebpf4jnsgd1na2vs0mg"},{"bike_id":"1ab7b098-f66b-40af-b0cc-bd927e3e0ad1","system_id":"levelo_inurba_marseille","lat":43.23208,"lon":5.35551,"is_reserved":false,"is_disabled":false,"rental_uris":{"android":"levelo://app?vid=1ab7b098-f66b-40af-b0cc-bd927e3e0ad1","ios":"levelo://app?vid=1ab7b098-f66b-40af-b0cc-bd927e3e0ad1"},"vehicle_type_id":"4","last_reported":1740745054,"current_range_meters":8800,"station_id":"ce4bhu92rcd13ifvqi70","pricing_plan_id":"cebpf4jnsgd1na2vs0mg"},{"bike_id":"904b676c-637a-4cb0-8421-f3015f73457b","system_id":"levelo_inurba_marseille","lat":43.28482,"lon":5.38552,"is_reserved":false,"is_disabled":false,"rental_uris":{"android":"levelo://app?vid=904b676c-637a-4cb0-8421-f3015f73457b","ios":"levelo://app?vid=904b676c-637a-4cb0-8421-f3015f73457b"},"vehicle_type_id":"4","last_reported":1740745054,"current_range_meters":9200,"station_id":"ce4bh8p2rcd13ifvqeb0","pricing_plan_id":"cebpf4jnsgd1na2vs0mg"},{"bike_id":"a7a40b0b-f01e-4c06-b0fc-24e84457d197","system_id":"levelo_inurba_marseille","lat":43.26785,"lon":5.39409,"is_reserved":false,"is_disabled":false,"rental_uris":{"android":"levelo://app?vid=a7a40b0b-f01e-4c06-b0fc-24e84457d197","ios":"levelo://app?vid=a7a40b0b-f01e-4c06-b0fc-24e84457d197"},"vehicle_type_id":"4","last_reported":1740745054,"current_range_meters":8400,"station_id":"ce4bhh12rcd13ifvqfg0","pricing_plan_id":"cebpf4jnsgd1na2vs0mg"},{"bike_id":"caf035ae-a885-49e1-b2b4-a508dd2b9e40","system_id":"levelo_inurba_marseille","lat":43.312714,"lon":5.401694,"is_reserved":false,"is_disabled":false,"rental_uris":{"android":"levelo://app?vid=caf035ae-a885-49e1-b2b4-a508dd2b9e40","ios":"levelo://app?vid=caf035ae-a885-49e1-b2b4-a508dd2b9e40"},"vehicle_type_id":"4","last_reported":1740745054,"current_range_meters":8800,"station_id":"ce4bgv12rcd13ifvqcp0","pricing_plan_id":"cebpf4jnsgd1na2vs0mg"},{"bike_id":"4cc53186-c4a3-480f-8c91-dfc75a3250fa","system_id":"levelo_inurba_marseille","lat":43.26235,"lon":5.40461,"is_reserved":false,"is_disabled":false,"rental_uris":{"android":"levelo://app?vid=4cc53186-c4a3-480f-8c91-dfc75a3250fa","ios":"levelo://app?vid=4cc53186-c4a3-480f-8c91-dfc75a3250fa"},"vehicle_type_id":"4","last_reported":1740745054,"current_range_meters":8400,"station_id":"ce4bhmh2rcd13ifvqgmg","pricing_plan_id":"cebpf4jnsgd1na2vs0mg"},{"bike_id":"a9f1f1e3-d3f5-491e-b067-729e0dc90246","system_id":"levelo_inurba_marseille","lat":43.30179,"lon":5.38097,"is_reserved":false,"is_disabled":false,"rental_uris":{"android":"levelo://app?vid=a9f1f1e3-d3f5-491e-b067-729e0dc90246","ios":"levelo://app?vid=a9f1f1e3-d3f5-491e-b067-729e0dc90246"},"vehicle_type_id":"4","last_reported":1740745054,"current_range_meters":9200,"station_id":"ce4bgjp2rcd13ifvqbh0","pricing_plan_id":"cebpf4jnsgd1na2vs0mg"},{"bike_id":"3382c0a8-2e88-4e7a-b9b3-49a5a902c193","system_id":"levelo_inurba_marseille","lat":43.30428,"lon":5.38858,"is_reserved":false,"is_disabled":false,"rental_uris":{"android":"levelo://app?vid=3382c0a8-2e88-4e7a-b9b3-49a5a902c193","ios":"levelo://app?vid=3382c0a8-2e88-4e7a-b9b3-49a5a902c193"},"vehicle_type_id":"4","last_reported":1740745054,"current_range_meters":9600,"station_id":"ce4bgk12rcd13ifvqbi0","pricing_plan_id":"cebpf4jnsgd1na2vs0mg"},{"bike_id":"af48260f-7450-44d2-af77-60ea47d09858","system_id":"levelo_inurba_marseille","lat":43.29991,"lon":5.37172,"is_reserved":false,"is_disabled":false,"rental_uris":{"android":"levelo://app?vid=af48260f-7450-44d2-af77-60ea47d09858","ios":"levelo://app?vid=af48260f-7450-44d2-af77-60ea47d09858"},"vehicle_type_id":"4","last_reported":1740745054,"current_range_meters":5600,"station_id":"ce4bgr92rcd13ifvqc7g","pricing_plan_id":"cebpf4jnsgd1na2vs0mg"},{"bike_id":"4eaca41f-4a0a-4e6e-8949-3475e29bde1e","system_id":"levelo_inurba_marseille","lat":43.27177,"lon":5.40994,"is_reserved":false,"is_disabled":false,"rental_uris":{"android":"levelo://app?vid=4eaca41f-4a0a-4e6e-8949-3475e29bde1e","ios":"levelo://app?vid=4eaca41f-4a0a-4e6e-8949-3475e29bde1e"},"vehicle_type_id":"4","last_reported":1740745054,"current_range_meters":9200,"station_id":"ce4bhl12rcd13ifvqgf0","pricing_plan_id":"cebpf4jnsgd1na2vs0mg"},{"bike_id":"738790dd-10dd-4ca0-b799-c7e96fb84b4b","system_id":"levelo_inurba_marseille","lat":43.3209,"lon":5.36748,"is_reserved":false,"is_disabled":false,"rental_uris":{"android":"levelo://app?vid=738790dd-10dd-4ca0-b799-c7e96fb84b4b","ios":"levelo://app?vid=738790dd-10dd-4ca0-b799-c7e96fb84b4b"},"vehicle_type_id":"4","last_reported":1740745054,"current_range_meters":9200,"station_id":"ce4bhrh2rcd13ifvqhug","pricing_plan_id":"cebpf4jnsgd1na2vs0mg"},{"bike_id":"379f4009-2fed-4f96-9809-f0eeee54aaf5","system_id":"levelo_inurba_marseille","lat":43.29842,"lon":5.36269,"is_reserved":false,"is_disabled":false,"rental_uris":{"android":"levelo://app?vid=379f4009-2fed-4f96-9809-f0eeee54aaf5","ios":"levelo://app?vid=379f4009-2fed-4f96-9809-f0eeee54aaf5"},"vehicle_type_id":"4","last_reported":1740745054,"current_range_meters":9200,"station_id":"ce4bgpp2rcd13ifvqc3g","pricing_plan_id":"cebpf4jnsgd1na2vs0mg"},{"bike_id":"d02aabfa-cf11-4e8c-afae-e75fbab4027c","system_id":"levelo_inurba_marseille","lat":43.3249,"lon":5.365625,"is_reserved":false,"is_disabled":false,"rental_uris":{"android":"levelo://app?vid=d02aabfa-cf11-4e8c-afae-e75fbab4027c","ios":"levelo://app?vid=d02aabfa-cf11-4e8c-afae-e75fbab4027c"},"vehicle_type_id":"4","last_reported":1740745054,"current_range_meters":9200,"station_id":"ce4bhs12rcd13ifvqhvg","pricing_plan_id":"cebpf4jnsgd1na2vs0mg"},{"bike_id":"a97ef810-7225-4bf9-ae16-85c852e9dbad","system_id":"levelo_inurba_marseille","lat":43.30558,"lon":5.36532,"is_reserved":false,"is_disabled":false,"rental_uris":{"android":"levelo://app?vid=a97ef810-7225-4bf9-ae16-85c852e9dbad","ios":"levelo://app?vid=a97ef810-7225-4bf9-ae16-85c852e9dbad"},"vehicle_type_id":"4","last_reported":1740745054,"current_range_meters":9200,"station_id":"ce4bgs12rcd13ifvqcag","pricing_plan_id":"cebpf4jnsgd1na2vs0mg"},{"bike_id":"61cbde4b-8974-40c7-bd11-4ce231691fa0","system_id":"levelo_inurba_marseille","lat":43.29272,"lon":5.36838,"is_reserved":false,"is_disabled":false,"rental_uris":{"android":"levelo://app?vid=61cbde4b-8974-40c7-bd11-4ce231691fa0","ios":"levelo://app?vid=61cbde4b-8974-40c7-bd11-4ce231691fa0"},"vehicle_type_id":"4","last_reported":1740745054,"current_range_meters":9200,"station_id":"ce4bhbp2rcd13ifvqesg","pricing_plan_id":"cebpf4jnsgd1na2vs0mg"},{"bike_id":"dae47c4b-f4aa-40f9-b578-663f23812fe5","system_id":"levelo_inurba_marseille","lat":43.2783,"lon":5.40711,"is_reserved":false,"is_disabled":false,"rental_uris":{"android":"levelo://app?vid=dae47c4b-f4aa-40f9-b578-663f23812fe5","ios":"levelo://app?vid=dae47c4b-f4aa-40f9-b578-663f23812fe5"},"vehicle_type_id":"4","last_reported":1740745054,"current_range_meters":11600,"station_id":"ce4bhnh2rcd13ifvqgtg","pricing_plan_id":"cebpf4jnsgd1na2vs0mg"},{"bike_id":"b73bc810-b600-46ea-8898-7b9456349cb9","system_id":"levelo_inurba_marseille","lat":43.2957,"lon":5.37519,"is_reserved":false,"is_disabled":false,"rental_uris":{"android":"levelo://app?vid=b73bc810-b600-46ea-8898-7b9456349cb9","ios":"levelo://app?vid=b73bc810-b600-46ea-8898-7b9456349cb9"},"vehicle_type_id":"4","last_reported":1740745054,"current_range_meters":9200,"station_id":"ce4bgh92rcd13ifvqb50","pricing_plan_id":"cebpf4jnsgd1na2vs0mg"},{"bike_id":"b2170b74-3be6-4597-a967-507fed882669","system_id":"levelo_inurba_marseille","lat":43.29613,"lon":5.3773,"is_reserved":false,"is_disabled":false,"rental_uris":{"android":"levelo://app?vid=b2170b74-3be6-4597-a967-507fed882669","ios":"levelo://app?vid=b2170b74-3be6-4597-a967-507fed882669"},"vehicle_type_id":"4","last_reported":1740745054,"current_range_meters":9200,"station_id":"ce4bgi92rcd13ifvqb90","pricing_plan_id":"cebpf4jnsgd1na2vs0mg"},{"bike_id":"cb7a1a55-e2d1-4bbd-9938-659e603cd24a","system_id":"levelo_inurba_marseille","lat":43.287232,"lon":5.37936,"is_reserved":false,"is_disabled":false,"rental_uris":{"android":"levelo://app?vid=cb7a1a55-e2d1-4bbd-9938-659e603cd24a","ios":"levelo://app?vid=cb7a1a55-e2d1-4bbd-9938-659e603cd24a"},"vehicle_type_id":"4","last_reported":1740745054,"current_range_meters":9200,"station_id":"ce4bguh2rcd13ifvqcj0","pricing_plan_id":"cebpf4jnsgd1na2vs0mg"},{"bike_id":"1393e48a-5096-48c2-8ef4-ef737b7b43ae","system_id":"levelo_inurba_marseille","lat":43.25088,"lon":5.39508,"is_reserved":false,"is_disabled":false,"rental_uris":{"android":"levelo://app?vid=1393e48a-5096-48c2-8ef4-ef737b7b43ae","ios":"levelo://app?vid=1393e48a-5096-48c2-8ef4-ef737b7b43ae"},"vehicle_type_id":"4","last_reported":1740745054,"current_range_meters":9600,"station_id":"ce4bhm12rcd13ifvqgkg","pricing_plan_id":"cebpf4jnsgd1na2vs0mg"},{"bike_id":"bd810eba-030e-453f-9802-1c0cac6a989c","system_id":"levelo_inurba_marseille","lat":43.30596,"lon":5.37227,"is_reserved":false,"is_disabled":false,"rental_uris":{"android":"levelo://app?vid=bd810eba-030e-453f-9802-1c0cac6a989c","ios":"levelo://app?vid=bd810eba-030e-453f-9802-1c0cac6a989c"},"vehicle_type_id":"4","last_reported":1740745054,"current_range_meters":15200,"station_id":"ce4bgqh2rcd13ifvqc4g","pricing_plan_id":"cebpf4jnsgd1na2vs0mg"},{"bike_id":"71f68bea-1636-449e-a230-6d983096a86d","system_id":"levelo_inurba_marseille","lat":43.24055,"lon":5.37745,"is_reserved":false,"is_disabled":false,"rental_uris":{"android":"levelo://app?vid=71f68bea-1636-449e-a230-6d983096a86d","ios":"levelo://app?vid=71f68bea-1636-449e-a230-6d983096a86d"},"vehicle_type_id":"4","last_reported":1740745054,"current_range_meters":9600,"station_id":"ce4bhnp2rcd13ifvqgvg","pricing_plan_id":"cebpf4jnsgd1na2vs0mg"},{"bike_id":"5f20cddd-1e4b-47ac-8c9e-25f33d126ab5","system_id":"levelo_inurba_marseille","lat":43.29794,"lon":5.38119,"is_reserved":false,"is_disabled":true,"rental_uris":{"android":"levelo://app?vid=5f20cddd-1e4b-47ac-8c9e-25f33d126ab5","ios":"levelo://app?vid=5f20cddd-1e4b-47ac-8c9e-25f33d126ab5"},"vehicle_type_id":"4","last_reported":1740745054,"current_range_meters":8800,"station_id":"ce4bgip2rcd13ifvqbb0","pricing_plan_id":"cebpf4jnsgd1na2vs0mg"},{"bike_id":"6ee7b2a1-bfbd-4161-8d2f-be641460562b","system_id":"levelo_inurba_marseille","lat":43.2883,"lon":5.35835,"is_reserved":false,"is_disabled":false,"rental_uris":{"android":"levelo://app?vid=6ee7b2a1-bfbd-4161-8d2f-be641460562b","ios":"levelo://app?vid=6ee7b2a1-bfbd-4161-8d2f-be641460562b"},"vehicle_type_id":"4","last_reported":1740745054,"current_range_meters":8000,"station_id":"ce4bhb12rcd13ifvqem0","pricing_plan_id":"cebpf4jnsgd1na2vs0mg"},{"bike_id":"06b91644-fcc8-46ff-8717-fd99f2ee51d4","system_id":"levelo_inurba_marseille","lat":43.3089,"lon":5.3684,"is_reserved":false,"is_disabled":false,"rental_uris":{"android":"levelo://app?vid=06b91644-fcc8-46ff-8717-fd99f2ee51d4","ios":"levelo://app?vid=06b91644-fcc8-46ff-8717-fd99f2ee51d4"},"vehicle_type_id":"4","last_reported":1740745054,"current_range_meters":9600,"station_id":"ce4bgn92rcd13ifvqbvg","pricing_plan_id":"cebpf4jnsgd1na2vs0mg"},{"bike_id":"3de9aeda-1f9a-4bbc-8b90-e02a49e56ca9","system_id":"levelo_inurba_marseille","lat":43.23193,"lon":5.35546,"is_reserved":false,"is_disabled":false,"rental_uris":{"android":"levelo://app?vid=3de9aeda-1f9a-4bbc-8b90-e02a49e56ca9","ios":"levelo://app?vid=3de9aeda-1f9a-4bbc-8b90-e02a49e56ca9"},"vehicle_type_id":"4","last_reported":1740745054,"current_range_meters":9600,"station_id":"ce4bhu92rcd13ifvqi70","pricing_plan_id":"cebpf4jnsgd1na2vs0mg"},{"bike_id":"b41a910e-e61d-47c4-bcf8-0d1aa55c4324","system_id":"levelo_inurba_marseille","lat":43.27622,"lon":5.36109,"is_reserved":false,"is_disabled":false,"rental_uris":{"android":"levelo://app?vid=b41a910e-e61d-47c4-bcf8-0d1aa55c4324","ios":"levelo://app?vid=b41a910e-e61d-47c4-bcf8-0d1aa55c4324"},"vehicle_type_id":"4","last_reported":1740745054,"current_range_meters":10800,"station_id":"ce4bgj92rcd13ifvqbe0","pricing_plan_id":"cebpf4jnsgd1na2vs0mg"},{"bike_id":"11de2f33-46dc-4b42-bb77-b4ff3a4e96a1","system_id":"levelo_inurba_marseille","lat":43.29692,"lon":5.37295,"is_reserved":false,"is_disabled":false,"rental_uris":{"android":"levelo://app?vid=11de2f33-46dc-4b42-bb77-b4ff3a4e96a1","ios":"levelo://app?vid=11de2f33-46dc-4b42-bb77-b4ff3a4e96a1"},"vehicle_type_id":"4","last_reported":1740745054,"current_range_meters":10000,"station_id":"ce4bgk12rcd13ifvqbj0","pricing_plan_id":"cebpf4jnsgd1na2vs0mg"},{"bike_id":"c4aaec2d-c2fd-442e-ab39-1c1382bfa4a2","system_id":"levelo_inurba_marseille","lat":43.2861,"lon":5.37057,"is_reserved":false,"is_disabled":false,"rental_uris":{"android":"levelo://app?vid=c4aaec2d-c2fd-442e-ab39-1c1382bfa4a2","ios":"levelo://app?vid=c4aaec2d-c2fd-442e-ab39-1c1382bfa4a2"},"vehicle_type_id":"4","last_reported":1740745054,"current_range_meters":10000,"station_id":"ce4bht12rcd13ifvqi60","pricing_plan_id":"cebpf4jnsgd1na2vs0mg"},{"bike_id":"c9aa3345-f205-4eda-a735-d06951ebe8f8","system_id":"levelo_inurba_marseille","lat":43.29251,"lon":5.37617,"is_reserved":false,"is_disabled":false,"rental_uris":{"android":"levelo://app?vid=c9aa3345-f205-4eda-a735-d06951ebe8f8","ios":"levelo://app?vid=c9aa3345-f205-4eda-a735-d06951ebe8f8"},"vehicle_type_id":"4","last_reported":1740745054,"current_range_meters":10800,"station_id":"ce4bgi12rcd13ifvqb80","pricing_plan_id":"cebpf4jnsgd1na2vs0mg"},{"bike_id":"d4918d6a-5525-4be8-b0c4-7af64b54343d","system_id":"levelo_inurba_marseille","lat":43.24175,"lon":5.36414,"is_reserved":false,"is_disabled":false,"rental_uris":{"android":"levelo://app?vid=d4918d6a-5525-4be8-b0c4-7af64b54343d","ios":"levelo://app?vid=d4918d6a-5525-4be8-b0c4-7af64b54343d"},"vehicle_type_id":"4","last_reported":1740745054,"current_range_meters":10800,"station_id":"cpo36qri1sfpv3e86is0","pricing_plan_id":"cebpf4jnsgd1na2vs0mg"},{"bike_id":"8b679270-3ad3-48ad-bd51-a31873b88cbe","system_id":"levelo_inurba_marseille","lat":43.289414,"lon":5.363846,"is_reserved":false,"is_disabled":false,"rental_uris":{"android":"levelo://app?vid=8b679270-3ad3-48ad-bd51-a31873b88cbe","ios":"levelo://app?vid=8b679270-3ad3-48ad-bd51-a31873b88cbe"},"vehicle_type_id":"4","last_reported":1740745054,"current_range_meters":10800,"station_id":"ce4bhc92rcd13ifvqetg","pricing_plan_id":"cebpf4jnsgd1na2vs0mg"},{"bike_id":"e280b146-7258-4063-a351-8701d2c8e01b","system_id":"levelo_inurba_marseille","lat":43.30603,"lon":5.37198,"is_reserved":false,"is_disabled":false,"rental_uris":{"android":"levelo://app?vid=e280b146-7258-4063-a351-8701d2c8e01b","ios":"levelo://app?vid=e280b146-7258-4063-a351-8701d2c8e01b"},"vehicle_type_id":"4","last_reported":1740745054,"current_range_meters":11200,"station_id":"ce4bgqh2rcd13ifvqc4g","pricing_plan_id":"cebpf4jnsgd1na2vs0mg"},{"bike_id":"9cefaa5f-2047-4a29-ba27-fbad559e4baa","system_id":"levelo_inurba_marseille","lat":43.29593,"lon":5.375,"is_reserved":false,"is_disabled":true,"rental_uris":{"android":"levelo://app?vid=9cefaa5f-2047-4a29-ba27-fbad559e4baa","ios":"levelo://app?vid=9cefaa5f-2047-4a29-ba27-fbad559e4baa"},"vehicle_type_id":"4","last_reported":1740745054,"current_range_meters":10800,"station_id":"ce4bgh92rcd13ifvqb50","pricing_plan_id":"cebpf4jnsgd1na2vs0mg"},{"bike_id":"10be055f-dd9f-4dc6-8d3f-7aba3762d29b","system_id":"levelo_inurba_marseille","lat":43.32118,"lon":5.36785,"is_reserved":false,"is_disabled":false,"rental_uris":{"android":"levelo://app?vid=10be055f-dd9f-4dc6-8d3f-7aba3762d29b","ios":"levelo://app?vid=10be055f-dd9f-4dc6-8d3f-7aba3762d29b"},"vehicle_type_id":"4","last_reported":1740745054,"current_range_meters":10800,"station_id":"ce4bhrh2rcd13ifvqhug","pricing_plan_id":"cebpf4jnsgd1na2vs0mg"},{"bike_id":"5b28cd77-a409-482f-8702-f764eef9151e","system_id":"levelo_inurba_marseille","lat":43.25941,"lon":5.40904,"is_reserved":false,"is_disabled":false,"rental_uris":{"android":"levelo://app?vid=5b28cd77-a409-482f-8702-f764eef9151e","ios":"levelo://app?vid=5b28cd77-a409-482f-8702-f764eef9151e"},"vehicle_type_id":"4","last_reported":1740745054,"current_range_meters":10800,"station_id":"ce4bhm92rcd13ifvqglg","pricing_plan_id":"cebpf4jnsgd1na2vs0mg"},{"bike_id":"9696cc61-7dec-4161-a75a-edf3fc9105f4","system_id":"levelo_inurba_marseille","lat":43.30191,"lon":5.36622,"is_reserved":false,"is_disabled":false,"rental_uris":{"android":"levelo://app?vid=9696cc61-7dec-4161-a75a-edf3fc9105f4","ios":"levelo://app?vid=9696cc61-7dec-4161-a75a-edf3fc9105f4"},"vehicle_type_id":"4","last_reported":1740745054,"current_range_meters":9600,"station_id":"ce4bgrh2rcd13ifvqc8g","pricing_plan_id":"cebpf4jnsgd1na2vs0mg"},{"bike_id":"9fe1686b-87f4-4090-857d-b2cad3d05448","system_id":"levelo_inurba_marseille","lat":43.2594,"lon":5.40871,"is_reserved":false,"is_disabled":false,"rental_uris":{"android":"levelo://app?vid=9fe1686b-87f4-4090-857d-b2cad3d05448","ios":"levelo://app?vid=9fe1686b-87f4-4090-857d-b2cad3d05448"},"vehicle_type_id":"4","last_reported":1740745054,"current_range_meters":10800,"station_id":"ce4bhm92rcd13ifvqglg","pricing_plan_id":"cebpf4jnsgd1na2vs0mg"},{"bike_id":"94dc094b-e528-48cb-9927-c0d224136f8c","system_id":"levelo_inurba_marseille","lat":43.32469,"lon":5.36568,"is_reserved":false,"is_disabled":false,"rental_uris":{"android":"levelo://app?vid=94dc094b-e528-48cb-9927-c0d224136f8c","ios":"levelo://app?vid=94dc094b-e528-48cb-9927-c0d224136f8c"},"vehicle_type_id":"4","last_reported":1740745054,"current_range_meters":10800,"station_id":"ce4bhs12rcd13ifvqhvg","pricing_plan_id":"cebpf4jnsgd1na2vs0mg"},{"bike_id":"36aaff39-aaa8-465d-bd0a-3f671adb5484","system_id":"levelo_inurba_marseille","lat":43.29852,"lon":5.36295,"is_reserved":false,"is_disabled":false,"rental_uris":{"android":"levelo://app?vid=36aaff39-aaa8-465d-bd0a-3f671adb5484","ios":"levelo://app?vid=36aaff39-aaa8-465d-bd0a-3f671adb5484"},"vehicle_type_id":"4","last_reported":1740745054,"current_range_meters":11200,"station_id":"ce4bgpp2rcd13ifvqc3g","pricing_plan_id":"cebpf4jnsgd1na2vs0mg"},{"bike_id":"ba7216ea-7170-48e4-989f-8fd3c18333ce","system_id":"levelo_inurba_marseille","lat":43.2872,"lon":5.39975,"is_reserved":false,"is_disabled":false,"rental_uris":{"android":"levelo://app?vid=ba7216ea-7170-48e4-989f-8fd3c18333ce","ios":"levelo://app?vid=ba7216ea-7170-48e4-989f-8fd3c18333ce"},"vehicle_type_id":"4","last_reported":1740745054,"current_range_meters":11200,"station_id":"ce4bho92rcd13ifvqh3g","pricing_plan_id":"cebpf4jnsgd1na2vs0mg"},{"bike_id":"199f6953-90bf-452d-a70b-9790e3c9500e","system_id":"levelo_inurba_marseille","lat":43.28419,"lon":5.34976,"is_reserved":false,"is_disabled":false,"rental_uris":{"android":"levelo://app?vid=199f6953-90bf-452d-a70b-9790e3c9500e","ios":"levelo://app?vid=199f6953-90bf-452d-a70b-9790e3c9500e"},"vehicle_type_id":"4","last_reported":1740745054,"current_range_meters":11200,"station_id":"ce4bhbh2rcd13ifvqepg","pricing_plan_id":"cebpf4jnsgd1na2vs0mg"},{"bike_id":"d0c53f7b-8dee-4a17-bfb1-b9784dd3a32b","system_id":"levelo_inurba_marseille","lat":43.29518,"lon":5.39413,"is_reserved":false,"is_disabled":false,"rental_uris":{"android":"levelo://app?vid=d0c53f7b-8dee-4a17-bfb1-b9784dd3a32b","ios":"levelo://app?vid=d0c53f7b-8dee-4a17-bfb1-b9784dd3a32b"},"vehicle_type_id":"4","last_reported":1740745054,"current_range_meters":12000,"station_id":"ce4bh292rcd13ifvqdf0","pricing_plan_id":"cebpf4jnsgd1na2vs0mg"},{"bike_id":"b5ca02ca-a37e-4a38-aef6-b46c6368f8ab","system_id":"levelo_inurba_marseille","lat":43.31317,"lon":5.37376,"is_reserved":false,"is_disabled":false,"rental_uris":{"android":"levelo://app?vid=b5ca02ca-a37e-4a38-aef6-b46c6368f8ab","ios":"levelo://app?vid=b5ca02ca-a37e-4a38-aef6-b46c6368f8ab"},"vehicle_type_id":"4","last_reported":1740745054,"current_range_meters":11200,"station_id":"","pricing_plan_id":"cebpf4jnsgd1na2vs0mg"},{"bike_id":"7f664b6f-782d-4c22-9ef7-d7d25fe464e8","system_id":"levelo_inurba_marseille","lat":43.32544,"lon":5.4144,"is_reserved":false,"is_disabled":false,"rental_uris":{"android":"levelo://app?vid=7f664b6f-782d-4c22-9ef7-d7d25fe464e8","ios":"levelo://app?vid=7f664b6f-782d-4c22-9ef7-d7d25fe464e8"},"vehicle_type_id":"4","last_reported":1740745054,"current_range_meters":12000,"station_id":"ce4bhq12rcd13ifvqhhg","pricing_plan_id":"cebpf4jnsgd1na2vs0mg"},{"bike_id":"c32773e6-fdd1-4c85-898d-22ee801eb4f7","system_id":"levelo_inurba_marseille","lat":43.29561,"lon":5.42291,"is_reserved":false,"is_disabled":false,"rental_uris":{"android":"levelo://app?vid=c32773e6-fdd1-4c85-898d-22ee801eb4f7","ios":"levelo://app?vid=c32773e6-fdd1-4c85-898d-22ee801eb4f7"},"vehicle_type_id":"4","last_reported":1740745054,"current_range_meters":12000,"station_id":"ce4bhph2rcd13ifvqhdg","pricing_plan_id":"cebpf4jnsgd1na2vs0mg"},{"bike_id":"133a8dbd-41fe-4119-8c2a-9a672d986c8c","system_id":"levelo_inurba_marseille","lat":43.25819,"lon":5.3942,"is_reserved":false,"is_disabled":false,"rental_uris":{"android":"levelo://app?vid=133a8dbd-41fe-4119-8c2a-9a672d986c8c","ios":"levelo://app?vid=133a8dbd-41fe-4119-8c2a-9a672d986c8c"},"vehicle_type_id":"4","last_reported":1740745054,"current_range_meters":10000,"station_id":"ce4bhip2rcd13ifvqft0","pricing_plan_id":"cebpf4jnsgd1na2vs0mg"},{"bike_id":"43d6aa6f-20c7-4a1b-bcb8-31b660876567","system_id":"levelo_inurba_marseille","lat":43.26564,"lon":5.37298,"is_reserved":false,"is_disabled":false,"rental_uris":{"android":"levelo://app?vid=43d6aa6f-20c7-4a1b-bcb8-31b660876567","ios":"levelo://app?vid=43d6aa6f-20c7-4a1b-bcb8-31b660876567"},"vehicle_type_id":"4","last_reported":1740745054,"current_range_meters":12000,"station_id":"ce4bhg12rcd13ifvqf70","pricing_plan_id":"cebpf4jnsgd1na2vs0mg"},{"bike_id":"59798304-50bd-422d-aa68-f5d2aeb6a58f","system_id":"levelo_inurba_marseille","lat":43.28474,"lon":5.38567,"is_reserved":false,"is_disabled":false,"rental_uris":{"android":"levelo://app?vid=59798304-50bd-422d-aa68-f5d2aeb6a58f","ios":"levelo://app?vid=59798304-50bd-422d-aa68-f5d2aeb6a58f"},"vehicle_type_id":"4","last_reported":1740745054,"current_range_meters":12000,"station_id":"ce4bh8p2rcd13ifvqeb0","pricing_plan_id":"cebpf4jnsgd1na2vs0mg"},{"bike_id":"3f5e4c77-943b-4a46-b257-614bf13afec4","system_id":"levelo_inurba_marseille","lat":43.24164,"lon":5.36417,"is_reserved":false,"is_disabled":false,"rental_uris":{"android":"levelo://app?vid=3f5e4c77-943b-4a46-b257-614bf13afec4","ios":"levelo://app?vid=3f5e4c77-943b-4a46-b257-614bf13afec4"},"vehicle_type_id":"4","last_reported":1740745054,"current_range_meters":12400,"station_id":"cpo36qri1sfpv3e86is0","pricing_plan_id":"cebpf4jnsgd1na2vs0mg"},{"bike_id":"04cc12a1-339d-4cfd-8541-987866583604","system_id":"levelo_inurba_marseille","lat":43.25865,"lon":5.39907,"is_reserved":false,"is_disabled":false,"rental_uris":{"android":"levelo://app?vid=04cc12a1-339d-4cfd-8541-987866583604","ios":"levelo://app?vid=04cc12a1-339d-4cfd-8541-987866583604"},"vehicle_type_id":"4","last_reported":1740745054,"current_range_meters":12000,"station_id":"ce4bhl92rcd13ifvqghg","pricing_plan_id":"cebpf4jnsgd1na2vs0mg"},{"bike_id":"2d27ac76-e0fe-440d-b07c-fce8fe732f43","system_id":"levelo_inurba_marseille","lat":43.30794,"lon":5.37642,"is_reserved":false,"is_disabled":false,"rental_uris":{"android":"levelo://app?vid=2d27ac76-e0fe-440d-b07c-fce8fe732f43","ios":"levelo://app?vid=2d27ac76-e0fe-440d-b07c-fce8fe732f43"},"vehicle_type_id":"4","last_reported":1740745054,"current_range_meters":12800,"station_id":"ce4bgv92rcd13ifvqcq0","pricing_plan_id":"cebpf4jnsgd1na2vs0mg"},{"bike_id":"732a97d5-0729-4819-ba8b-6971e35284ba","system_id":"levelo_inurba_marseille","lat":43.28361,"lon":5.38621,"is_reserved":false,"is_disabled":false,"rental_uris":{"android":"levelo://app?vid=732a97d5-0729-4819-ba8b-6971e35284ba","ios":"levelo://app?vid=732a97d5-0729-4819-ba8b-6971e35284ba"},"vehicle_type_id":"4","last_reported":1740745054,"current_range_meters":14400,"station_id":"ce4bh492rcd13ifvqdvg","pricing_plan_id":"cebpf4jnsgd1na2vs0mg"},{"bike_id":"fea912ef-3fee-4d82-ad81-2f668645dbc3","system_id":"levelo_inurba_marseille","lat":43.26495,"lon":5.39543,"is_reserved":false,"is_disabled":false,"rental_uris":{"android":"levelo://app?vid=fea912ef-3fee-4d82-ad81-2f668645dbc3","ios":"levelo://app?vid=fea912ef-3fee-4d82-ad81-2f668645dbc3"},"vehicle_type_id":"4","last_reported":1740745054,"current_range_meters":12400,"station_id":"ce4bhi12rcd13ifvqfq0","pricing_plan_id":"cebpf4jnsgd1na2vs0mg"},{"bike_id":"afe74da2-8f9b-490f-ac13-478a925f939f","system_id":"levelo_inurba_marseille","lat":43.27808,"lon":5.40717,"is_reserved":false,"is_disabled":false,"rental_uris":{"android":"levelo://app?vid=afe74da2-8f9b-490f-ac13-478a925f939f","ios":"levelo://app?vid=afe74da2-8f9b-490f-ac13-478a925f939f"},"vehicle_type_id":"4","last_reported":1740745054,"current_range_meters":12800,"station_id":"ce4bhnh2rcd13ifvqgtg","pricing_plan_id":"cebpf4jnsgd1na2vs0mg"},{"bike_id":"00ba6ba6-94c0-4d09-8436-1c63c86c044e","system_id":"levelo_inurba_marseille","lat":43.28487,"lon":5.38553,"is_reserved":false,"is_disabled":false,"rental_uris":{"android":"levelo://app?vid=00ba6ba6-94c0-4d09-8436-1c63c86c044e","ios":"levelo://app?vid=00ba6ba6-94c0-4d09-8436-1c63c86c044e"},"vehicle_type_id":"4","last_reported":1740745054,"current_range_meters":13600,"station_id":"ce4bh8p2rcd13ifvqeb0","pricing_plan_id":"cebpf4jnsgd1na2vs0mg"},{"bike_id":"3eac0972-2f73-4523-a964-c2270dde0be4","system_id":"levelo_inurba_marseille","lat":43.296147,"lon":5.37716,"is_reserved":false,"is_disabled":false,"rental_uris":{"android":"levelo://app?vid=3eac0972-2f73-4523-a964-c2270dde0be4","ios":"levelo://app?vid=3eac0972-2f73-4523-a964-c2270dde0be4"},"vehicle_type_id":"4","last_reported":1740745054,"current_range_meters":13600,"station_id":"ce4bhb92rcd13ifvqen0","pricing_plan_id":"cebpf4jnsgd1na2vs0mg"},{"bike_id":"4d5ed569-9a59-499f-b7ff-40328d242c2b","system_id":"levelo_inurba_marseille","lat":43.27568,"lon":5.38418,"is_reserved":false,"is_disabled":false,"rental_uris":{"android":"levelo://app?vid=4d5ed569-9a59-499f-b7ff-40328d242c2b","ios":"levelo://app?vid=4d5ed569-9a59-499f-b7ff-40328d242c2b"},"vehicle_type_id":"4","last_reported":1740745054,"current_range_meters":12800,"station_id":"ce4bhh92rcd13ifvqfi0","pricing_plan_id":"cebpf4jnsgd1na2vs0mg"},{"bike_id":"86f76fa1-a16e-4bfe-b047-8289609b715c","system_id":"levelo_inurba_marseille","lat":43.26677,"lon":5.38267,"is_reserved":false,"is_disabled":false,"rental_uris":{"android":"levelo://app?vid=86f76fa1-a16e-4bfe-b047-8289609b715c","ios":"levelo://app?vid=86f76fa1-a16e-4bfe-b047-8289609b715c"},"vehicle_type_id":"4","last_reported":1740745054,"current_range_meters":14000,"station_id":"ce4bhg92rcd13ifvqf90","pricing_plan_id":"cebpf4jnsgd1na2vs0mg"},{"bike_id":"2170cf9b-a356-48a6-b073-7b7cd3fce914","system_id":"levelo_inurba_marseille","lat":43.31215,"lon":5.36852,"is_reserved":false,"is_disabled":false,"rental_uris":{"android":"levelo://app?vid=2170cf9b-a356-48a6-b073-7b7cd3fce914","ios":"levelo://app?vid=2170cf9b-a356-48a6-b073-7b7cd3fce914"},"vehicle_type_id":"4","last_reported":1740745054,"current_range_meters":14000,"station_id":"ce4bgl92rcd13ifvqbq0","pricing_plan_id":"cebpf4jnsgd1na2vs0mg"},{"bike_id":"b61f0806-190c-4a93-a7f8-261fe3a6d0c4","system_id":"levelo_inurba_marseille","lat":43.26563,"lon":5.37288,"is_reserved":false,"is_disabled":true,"rental_uris":{"android":"levelo://app?vid=b61f0806-190c-4a93-a7f8-261fe3a6d0c4","ios":"levelo://app?vid=b61f0806-190c-4a93-a7f8-261fe3a6d0c4"},"vehicle_type_id":"4","last_reported":1740745054,"current_range_meters":14000,"station_id":"ce4bhg12rcd13ifvqf70","pricing_plan_id":"cebpf4jnsgd1na2vs0mg"},{"bike_id":"e73557ec-12fc-4b31-84a8-85363ae9bfde","system_id":"levelo_inurba_marseille","lat":43.26573,"lon":5.37266,"is_reserved":false,"is_disabled":false,"rental_uris":{"android":"levelo://app?vid=e73557ec-12fc-4b31-84a8-85363ae9bfde","ios":"levelo://app?vid=e73557ec-12fc-4b31-84a8-85363ae9bfde"},"vehicle_type_id":"4","last_reported":1740745054,"current_range_meters":14400,"station_id":"ce4bhg12rcd13ifvqf70","pricing_plan_id":"cebpf4jnsgd1na2vs0mg"},{"bike_id":"9a01249f-a7e6-4d4c-af7a-0fae8942f0f3","system_id":"levelo_inurba_marseille","lat":43.23062,"lon":5.35493,"is_reserved":false,"is_disabled":false,"rental_uris":{"android":"levelo://app?vid=9a01249f-a7e6-4d4c-af7a-0fae8942f0f3","ios":"levelo://app?vid=9a01249f-a7e6-4d4c-af7a-0fae8942f0f3"},"vehicle_type_id":"4","last_reported":1740745054,"current_range_meters":14000,"station_id":"cpo3342slgdg3j2ifvpg","pricing_plan_id":"cebpf4jnsgd1na2vs0mg"},{"bike_id":"4cb1e6e3-0f81-4fc8-9132-1b0395677107","system_id":"levelo_inurba_marseille","lat":43.27811,"lon":5.4071,"is_reserved":false,"is_disabled":false,"rental_uris":{"android":"levelo://app?vid=4cb1e6e3-0f81-4fc8-9132-1b0395677107","ios":"levelo://app?vid=4cb1e6e3-0f81-4fc8-9132-1b0395677107"},"vehicle_type_id":"4","last_reported":1740745054,"current_range_meters":14000,"station_id":"ce4bhnh2rcd13ifvqgtg","pricing_plan_id":"cebpf4jnsgd1na2vs0mg"},{"bike_id":"b4183a71-aa84-4a21-bb2a-34ce9aec794b","system_id":"levelo_inurba_marseille","lat":43.32538,"lon":5.41435,"is_reserved":false,"is_disabled":false,"rental_uris":{"android":"levelo://app?vid=b4183a71-aa84-4a21-bb2a-34ce9aec794b","ios":"levelo://app?vid=b4183a71-aa84-4a21-bb2a-34ce9aec794b"},"vehicle_type_id":"4","last_reported":1740745054,"current_range_meters":14800,"station_id":"ce4bhq12rcd13ifvqhhg","pricing_plan_id":"cebpf4jnsgd1na2vs0mg"},{"bike_id":"4b48f531-4c13-4b8b-86d6-01eea62085ab","system_id":"levelo_inurba_marseille","lat":43.23192,"lon":5.35553,"is_reserved":false,"is_disabled":false,"rental_uris":{"android":"levelo://app?vid=4b48f531-4c13-4b8b-86d6-01eea62085ab","ios":"levelo://app?vid=4b48f531-4c13-4b8b-86d6-01eea62085ab"},"vehicle_type_id":"4","last_reported":1740745054,"current_range_meters":14000,"station_id":"ce4bhu92rcd13ifvqi70","pricing_plan_id":"cebpf4jnsgd1na2vs0mg"},{"bike_id":"f5fe4361-1d3d-4314-a7e8-95ca49fcf6f9","system_id":"levelo_inurba_marseille","lat":43.32492,"lon":5.38275,"is_reserved":false,"is_disabled":false,"rental_uris":{"android":"levelo://app?vid=f5fe4361-1d3d-4314-a7e8-95ca49fcf6f9","ios":"levelo://app?vid=f5fe4361-1d3d-4314-a7e8-95ca49fcf6f9"},"vehicle_type_id":"4","last_reported":1740745054,"current_range_meters":14000,"station_id":"","pricing_plan_id":"cebpf4jnsgd1na2vs0mg"},{"bike_id":"382d557d-8024-4f45-8140-482a40d06b19","system_id":"levelo_inurba_marseille","lat":43.27822,"lon":5.40713,"is_reserved":false,"is_disabled":false,"rental_uris":{"android":"levelo://app?vid=382d557d-8024-4f45-8140-482a40d06b19","ios":"levelo://app?vid=382d557d-8024-4f45-8140-482a40d06b19"},"vehicle_type_id":"4","last_reported":1740745054,"current_range_meters":14000,"station_id":"ce4bhnh2rcd13ifvqgtg","pricing_plan_id":"cebpf4jnsgd1na2vs0mg"},{"bike_id":"593edb3c-7add-4a3d-9dbe-95cef549de0d","system_id":"levelo_inurba_marseille","lat":43.23071,"lon":5.35497,"is_reserved":false,"is_disabled":false,"rental_uris":{"android":"levelo://app?vid=593edb3c-7add-4a3d-9dbe-95cef549de0d","ios":"levelo://app?vid=593edb3c-7add-4a3d-9dbe-95cef549de0d"},"vehicle_type_id":"4","last_reported":1740745054,"current_range_meters":14000,"station_id":"cpo3342slgdg3j2ifvpg","pricing_plan_id":"cebpf4jnsgd1na2vs0mg"},{"bike_id":"ad5b58ef-35aa-402d-94e0-da855fa183c3","system_id":"levelo_inurba_marseille","lat":43.3134,"lon":5.39693,"is_reserved":false,"is_disabled":false,"rental_uris":{"android":"levelo://app?vid=ad5b58ef-35aa-402d-94e0-da855fa183c3","ios":"levelo://app?vid=ad5b58ef-35aa-402d-94e0-da855fa183c3"},"vehicle_type_id":"4","last_reported":1740745054,"current_range_meters":14400,"station_id":"ce4bgvp2rcd13ifvqcu0","pricing_plan_id":"cebpf4jnsgd1na2vs0mg"},{"bike_id":"565e20a9-2ed4-42ee-8b39-067fb09371f7","system_id":"levelo_inurba_marseille","lat":43.2848,"lon":5.38556,"is_reserved":false,"is_disabled":false,"rental_uris":{"android":"levelo://app?vid=565e20a9-2ed4-42ee-8b39-067fb09371f7","ios":"levelo://app?vid=565e20a9-2ed4-42ee-8b39-067fb09371f7"},"vehicle_type_id":"4","last_reported":1740745054,"current_range_meters":14800,"station_id":"ce4bh8p2rcd13ifvqeb0","pricing_plan_id":"cebpf4jnsgd1na2vs0mg"},{"bike_id":"ea3df299-1fcc-42a7-80d2-e53f95d1ebcf","system_id":"levelo_inurba_marseille","lat":43.2903,"lon":5.38644,"is_reserved":false,"is_disabled":false,"rental_uris":{"android":"levelo://app?vid=ea3df299-1fcc-42a7-80d2-e53f95d1ebcf","ios":"levelo://app?vid=ea3df299-1fcc-42a7-80d2-e53f95d1ebcf"},"vehicle_type_id":"4","last_reported":1740745054,"current_range_meters":14400,"station_id":"ce4bh4p2rcd13ifvqe0g","pricing_plan_id":"cebpf4jnsgd1na2vs0mg"},{"bike_id":"f8d0ac2e-407c-474b-97ad-51fae515c95f","system_id":"levelo_inurba_marseille","lat":43.303076,"lon":5.392055,"is_reserved":false,"is_disabled":false,"rental_uris":{"android":"levelo://app?vid=f8d0ac2e-407c-474b-97ad-51fae515c95f","ios":"levelo://app?vid=f8d0ac2e-407c-474b-97ad-51fae515c95f"},"vehicle_type_id":"4","last_reported":1740745054,"current_range_meters":14400,"station_id":"ce4bhbh2rcd13ifvqeqg","pricing_plan_id":"cebpf4jnsgd1na2vs0mg"},{"bike_id":"48230f5b-000f-4f09-94ae-fd4dbf4c2595","system_id":"levelo_inurba_marseille","lat":43.26802,"lon":5.40267,"is_reserved":false,"is_disabled":false,"rental_uris":{"android":"levelo://app?vid=48230f5b-000f-4f09-94ae-fd4dbf4c2595","ios":"levelo://app?vid=48230f5b-000f-4f09-94ae-fd4dbf4c2595"},"vehicle_type_id":"4","last_reported":1740745054,"current_range_meters":14400,"station_id":"ce501612rcd8frsf0b60","pricing_plan_id":"cebpf4jnsgd1na2vs0mg"},{"bike_id":"01927d52-0d2f-437d-9b74-066a0681654b","system_id":"levelo_inurba_marseille","lat":43.30134,"lon":5.37425,"is_reserved":false,"is_disabled":false,"rental_uris":{"android":"levelo://app?vid=01927d52-0d2f-437d-9b74-066a0681654b","ios":"levelo://app?vid=01927d52-0d2f-437d-9b74-066a0681654b"},"vehicle_type_id":"4","last_reported":1740745054,"current_range_meters":14400,"station_id":"ce4bgs92rcd13ifvqcc0","pricing_plan_id":"cebpf4jnsgd1na2vs0mg"},{"bike_id":"74ae05e8-2b6a-4e12-b42a-d1bc08e22e8e","system_id":"levelo_inurba_marseille","lat":43.29568,"lon":5.37485,"is_reserved":false,"is_disabled":true,"rental_uris":{"android":"levelo://app?vid=74ae05e8-2b6a-4e12-b42a-d1bc08e22e8e","ios":"levelo://app?vid=74ae05e8-2b6a-4e12-b42a-d1bc08e22e8e"},"vehicle_type_id":"4","last_reported":1740745054,"current_range_meters":14800,"station_id":"ce4bgh92rcd13ifvqb50","pricing_plan_id":"cebpf4jnsgd1na2vs0mg"},{"bike_id":"f00788a2-0a2f-43a1-8323-5b5bb0f3d51d","system_id":"levelo_inurba_marseille","lat":43.2794,"lon":5.41058,"is_reserved":false,"is_disabled":false,"rental_uris":{"android":"levelo://app?vid=f00788a2-0a2f-43a1-8323-5b5bb0f3d51d","ios":"levelo://app?vid=f00788a2-0a2f-43a1-8323-5b5bb0f3d51d"},"vehicle_type_id":"4","last_reported":1740745054,"current_range_meters":15200,"station_id":"ce4bhnp2rcd13ifvqh0g","pricing_plan_id":"cebpf4jnsgd1na2vs0mg"},{"bike_id":"559339ca-a14c-4dd9-9415-d5fda2aa56f2","system_id":"levelo_inurba_marseille","lat":43.29857,"lon":5.36267,"is_reserved":false,"is_disabled":false,"rental_uris":{"android":"levelo://app?vid=559339ca-a14c-4dd9-9415-d5fda2aa56f2","ios":"levelo://app?vid=559339ca-a14c-4dd9-9415-d5fda2aa56f2"},"vehicle_type_id":"4","last_reported":1740745054,"current_range_meters":14800,"station_id":"ce4bgpp2rcd13ifvqc3g","pricing_plan_id":"cebpf4jnsgd1na2vs0mg"},{"bike_id":"d6e65dbc-7283-4f55-82a6-0b9b11a10833","system_id":"levelo_inurba_marseille","lat":43.26956,"lon":5.38634,"is_reserved":false,"is_disabled":false,"rental_uris":{"android":"levelo://app?vid=d6e65dbc-7283-4f55-82a6-0b9b11a10833","ios":"levelo://app?vid=d6e65dbc-7283-4f55-82a6-0b9b11a10833"},"vehicle_type_id":"4","last_reported":1740745054,"current_range_meters":14800,"station_id":"ce4bhh92rcd13ifvqfh0","pricing_plan_id":"cebpf4jnsgd1na2vs0mg"},{"bike_id":"a2d1254e-7615-4685-9808-11fb1391d415","system_id":"levelo_inurba_marseille","lat":43.27553,"lon":5.38415,"is_reserved":false,"is_disabled":false,"rental_uris":{"android":"levelo://app?vid=a2d1254e-7615-4685-9808-11fb1391d415","ios":"levelo://app?vid=a2d1254e-7615-4685-9808-11fb1391d415"},"vehicle_type_id":"4","last_reported":1740745054,"current_range_meters":14800,"station_id":"ce4bhh92rcd13ifvqfi0","pricing_plan_id":"cebpf4jnsgd1na2vs0mg"},{"bike_id":"364b209e-752e-45ea-b26c-06b2552c1833","system_id":"levelo_inurba_marseille","lat":43.23188,"lon":5.35547,"is_reserved":false,"is_disabled":false,"rental_uris":{"android":"levelo://app?vid=364b209e-752e-45ea-b26c-06b2552c1833","ios":"levelo://app?vid=364b209e-752e-45ea-b26c-06b2552c1833"},"vehicle_type_id":"4","last_reported":1740745054,"current_range_meters":14800,"station_id":"ce4bhu92rcd13ifvqi70","pricing_plan_id":"cebpf4jnsgd1na2vs0mg"},{"bike_id":"96e729dd-c4e6-452d-bf5a-c3e412fdbcef","system_id":"levelo_inurba_marseille","lat":43.26555,"lon":5.37283,"is_reserved":false,"is_disabled":false,"rental_uris":{"android":"levelo://app?vid=96e729dd-c4e6-452d-bf5a-c3e412fdbcef","ios":"levelo://app?vid=96e729dd-c4e6-452d-bf5a-c3e412fdbcef"},"vehicle_type_id":"4","last_reported":1740745054,"current_range_meters":14800,"station_id":"ce4bhg12rcd13ifvqf70","pricing_plan_id":"cebpf4jnsgd1na2vs0mg"},{"bike_id":"01a81465-38b1-441e-8526-2af394e1cfe1","system_id":"levelo_inurba_marseille","lat":43.29628,"lon":5.37183,"is_reserved":false,"is_disabled":false,"rental_uris":{"android":"levelo://app?vid=01a81465-38b1-441e-8526-2af394e1cfe1","ios":"levelo://app?vid=01a81465-38b1-441e-8526-2af394e1cfe1"},"vehicle_type_id":"4","last_reported":1740745054,"current_range_meters":14800,"station_id":"ce4bgnh2rcd13ifvqc0g","pricing_plan_id":"cebpf4jnsgd1na2vs0mg"},{"bike_id":"420367c0-fdb7-4184-9642-593e9bc62cb3","system_id":"levelo_inurba_marseille","lat":43.30349,"lon":5.36908,"is_reserved":false,"is_disabled":false,"rental_uris":{"android":"levelo://app?vid=420367c0-fdb7-4184-9642-593e9bc62cb3","ios":"levelo://app?vid=420367c0-fdb7-4184-9642-593e9bc62cb3"},"vehicle_type_id":"4","last_reported":1740745054,"current_range_meters":14800,"station_id":"","pricing_plan_id":"cebpf4jnsgd1na2vs0mg"},{"bike_id":"b72bf45a-1f39-439f-90dd-2f97a7a7af0a","system_id":"levelo_inurba_marseille","lat":43.28488,"lon":5.38558,"is_reserved":false,"is_disabled":false,"rental_uris":{"android":"levelo://app?vid=b72bf45a-1f39-439f-90dd-2f97a7a7af0a","ios":"levelo://app?vid=b72bf45a-1f39-439f-90dd-2f97a7a7af0a"},"vehicle_type_id":"4","last_reported":1740745054,"current_range_meters":15200,"station_id":"ce4bh8p2rcd13ifvqeb0","pricing_plan_id":"cebpf4jnsgd1na2vs0mg"},{"bike_id":"b512e819-657e-4709-b725-ca7fe89e43e9","system_id":"levelo_inurba_marseille","lat":43.27304,"lon":5.39096,"is_reserved":false,"is_disabled":false,"rental_uris":{"android":"levelo://app?vid=b512e819-657e-4709-b725-ca7fe89e43e9","ios":"levelo://app?vid=b512e819-657e-4709-b725-ca7fe89e43e9"},"vehicle_type_id":"4","last_reported":1740745054,"current_range_meters":15200,"station_id":"ce4bhgp2rcd13ifvqfe0","pricing_plan_id":"cebpf4jnsgd1na2vs0mg"},{"bike_id":"c3879c4a-1f8e-4ca7-8a3b-195d6726be8b","system_id":"levelo_inurba_marseille","lat":43.30151,"lon":5.38085,"is_reserved":false,"is_disabled":false,"rental_uris":{"android":"levelo://app?vid=c3879c4a-1f8e-4ca7-8a3b-195d6726be8b","ios":"levelo://app?vid=c3879c4a-1f8e-4ca7-8a3b-195d6726be8b"},"vehicle_type_id":"4","last_reported":1740745054,"current_range_meters":15200,"station_id":"ce4bgjp2rcd13ifvqbh0","pricing_plan_id":"cebpf4jnsgd1na2vs0mg"},{"bike_id":"fcb342d7-b615-4886-87e8-80b5fe8aa407","system_id":"levelo_inurba_marseille","lat":43.29035,"lon":5.39966,"is_reserved":false,"is_disabled":false,"rental_uris":{"android":"levelo://app?vid=fcb342d7-b615-4886-87e8-80b5fe8aa407","ios":"levelo://app?vid=fcb342d7-b615-4886-87e8-80b5fe8aa407"},"vehicle_type_id":"4","last_reported":1740745054,"current_range_meters":14800,"station_id":"ce4bh392rcd13ifvqdm0","pricing_plan_id":"cebpf4jnsgd1na2vs0mg"},{"bike_id":"312c0796-4211-4a4b-a575-a7d5329105cb","system_id":"levelo_inurba_marseille","lat":43.304695,"lon":5.37904,"is_reserved":false,"is_disabled":false,"rental_uris":{"android":"levelo://app?vid=312c0796-4211-4a4b-a575-a7d5329105cb","ios":"levelo://app?vid=312c0796-4211-4a4b-a575-a7d5329105cb"},"vehicle_type_id":"4","last_reported":1740745054,"current_range_meters":15200,"station_id":"ce4bgup2rcd13ifvqcn0","pricing_plan_id":"cebpf4jnsgd1na2vs0mg"},{"bike_id":"0501f8aa-6ef3-4096-bfab-1f4bec0b9845","system_id":"levelo_inurba_marseille","lat":43.25124,"lon":5.40319,"is_reserved":false,"is_disabled":false,"rental_uris":{"android":"levelo://app?vid=0501f8aa-6ef3-4096-bfab-1f4bec0b9845","ios":"levelo://app?vid=0501f8aa-6ef3-4096-bfab-1f4bec0b9845"},"vehicle_type_id":"4","last_reported":1740745054,"current_range_meters":16400,"station_id":"ce4bhlh2rcd13ifvqgig","pricing_plan_id":"cebpf4jnsgd1na2vs0mg"},{"bike_id":"41e981c6-7bc3-430d-aca0-3b7dc2ff325a","system_id":"levelo_inurba_marseille","lat":43.27971,"lon":5.38743,"is_reserved":false,"is_disabled":false,"rental_uris":{"android":"levelo://app?vid=41e981c6-7bc3-430d-aca0-3b7dc2ff325a","ios":"levelo://app?vid=41e981c6-7bc3-430d-aca0-3b7dc2ff325a"},"vehicle_type_id":"4","last_reported":1740745054,"current_range_meters":15200,"station_id":"ce4bhg12rcd13ifvqf80","pricing_plan_id":"cebpf4jnsgd1na2vs0mg"},{"bike_id":"49e9cdc7-76a5-4b66-ae2d-61c73beb73a8","system_id":"levelo_inurba_marseille","lat":43.24198,"lon":5.36416,"is_reserved":false,"is_disabled":false,"rental_uris":{"android":"levelo://app?vid=49e9cdc7-76a5-4b66-ae2d-61c73beb73a8","ios":"levelo://app?vid=49e9cdc7-76a5-4b66-ae2d-61c73beb73a8"},"vehicle_type_id":"4","last_reported":1740745054,"current_range_meters":15200,"station_id":"cpo36qri1sfpv3e86is0","pricing_plan_id":"cebpf4jnsgd1na2vs0mg"},{"bike_id":"aed92985-d89d-4e1e-836b-2b9802ce0d5a","system_id":"levelo_inurba_marseille","lat":43.27569,"lon":5.38408,"is_reserved":false,"is_disabled":false,"rental_uris":{"android":"levelo://app?vid=aed92985-d89d-4e1e-836b-2b9802ce0d5a","ios":"levelo://app?vid=aed92985-d89d-4e1e-836b-2b9802ce0d5a"},"vehicle_type_id":"4","last_reported":1740745054,"current_range_meters":16000,"station_id":"ce4bhh92rcd13ifvqfi0","pricing_plan_id":"cebpf4jnsgd1na2vs0mg"},{"bike_id":"8b383fad-f10f-4d6c-aa72-edd1d8053e2b","system_id":"levelo_inurba_marseille","lat":43.2999,"lon":5.37352,"is_reserved":false,"is_disabled":false,"rental_uris":{"android":"levelo://app?vid=8b383fad-f10f-4d6c-aa72-edd1d8053e2b","ios":"levelo://app?vid=8b383fad-f10f-4d6c-aa72-edd1d8053e2b"},"vehicle_type_id":"4","last_reported":1740745054,"current_range_meters":16400,"station_id":"","pricing_plan_id":"cebpf4jnsgd1na2vs0mg"},{"bike_id":"2881844b-89de-4112-b79a-0d31ba478f4b","system_id":"levelo_inurba_marseille","lat":43.27812,"lon":5.40717,"is_reserved":false,"is_disabled":false,"rental_uris":{"android":"levelo://app?vid=2881844b-89de-4112-b79a-0d31ba478f4b","ios":"levelo://app?vid=2881844b-89de-4112-b79a-0d31ba478f4b"},"vehicle_type_id":"4","last_reported":1740745054,"current_range_meters":16000,"station_id":"ce4bhnh2rcd13ifvqgtg","pricing_plan_id":"cebpf4jnsgd1na2vs0mg"},{"bike_id":"817f3517-abb2-49ae-b81a-8c9e128c2c95","system_id":"levelo_inurba_marseille","lat":43.24804,"lon":5.37456,"is_reserved":false,"is_disabled":false,"rental_uris":{"android":"levelo://app?vid=817f3517-abb2-49ae-b81a-8c9e128c2c95","ios":"levelo://app?vid=817f3517-abb2-49ae-b81a-8c9e128c2c95"},"vehicle_type_id":"4","last_reported":1740745054,"current_range_meters":16400,"station_id":"ce4bhgh2rcd13ifvqfb0","pricing_plan_id":"cebpf4jnsgd1na2vs0mg"},{"bike_id":"b64ac18b-e386-4017-a69f-d8149166eab7","system_id":"levelo_inurba_marseille","lat":43.30169,"lon":5.38084,"is_reserved":false,"is_disabled":false,"rental_uris":{"android":"levelo://app?vid=b64ac18b-e386-4017-a69f-d8149166eab7","ios":"levelo://app?vid=b64ac18b-e386-4017-a69f-d8149166eab7"},"vehicle_type_id":"4","last_reported":1740745054,"current_range_meters":16000,"station_id":"ce4bgjp2rcd13ifvqbh0","pricing_plan_id":"cebpf4jnsgd1na2vs0mg"},{"bike_id":"06116ad4-eb16-4434-b1e0-edfed27379c6","system_id":"levelo_inurba_marseille","lat":43.30464,"lon":5.3791,"is_reserved":false,"is_disabled":false,"rental_uris":{"android":"levelo://app?vid=06116ad4-eb16-4434-b1e0-edfed27379c6","ios":"levelo://app?vid=06116ad4-eb16-4434-b1e0-edfed27379c6"},"vehicle_type_id":"4","last_reported":1740745054,"current_range_meters":16000,"station_id":"ce4bgup2rcd13ifvqcn0","pricing_plan_id":"cebpf4jnsgd1na2vs0mg"},{"bike_id":"c8649755-e93f-4cda-a4ed-aa72cd8d18a8","system_id":"levelo_inurba_marseille","lat":43.27994,"lon":5.40018,"is_reserved":false,"is_disabled":false,"rental_uris":{"android":"levelo://app?vid=c8649755-e93f-4cda-a4ed-aa72cd8d18a8","ios":"levelo://app?vid=c8649755-e93f-4cda-a4ed-aa72cd8d18a8"},"vehicle_type_id":"4","last_reported":1740745054,"current_range_meters":16000,"station_id":"ce4bho92rcd13ifvqh4g","pricing_plan_id":"cebpf4jnsgd1na2vs0mg"},{"bike_id":"67d57d60-f4d2-4a73-9196-6d581f723bad","system_id":"levelo_inurba_marseille","lat":43.29555,"lon":5.42287,"is_reserved":false,"is_disabled":false,"rental_uris":{"android":"levelo://app?vid=67d57d60-f4d2-4a73-9196-6d581f723bad","ios":"levelo://app?vid=67d57d60-f4d2-4a73-9196-6d581f723bad"},"vehicle_type_id":"4","last_reported":1740745054,"current_range_meters":16000,"station_id":"ce4bhph2rcd13ifvqhdg","pricing_plan_id":"cebpf4jnsgd1na2vs0mg"},{"bike_id":"597c78d8-1097-48db-b3be-fafc8754eab9","system_id":"levelo_inurba_marseille","lat":43.24172,"lon":5.36392,"is_reserved":false,"is_disabled":false,"rental_uris":{"android":"levelo://app?vid=597c78d8-1097-48db-b3be-fafc8754eab9","ios":"levelo://app?vid=597c78d8-1097-48db-b3be-fafc8754eab9"},"vehicle_type_id":"4","last_reported":1740745054,"current_range_meters":16000,"station_id":"cpo36qri1sfpv3e86is0","pricing_plan_id":"cebpf4jnsgd1na2vs0mg"},{"bike_id":"73768aeb-f85a-4fc2-a4fa-473980ceabf5","system_id":"levelo_inurba_marseille","lat":43.25504,"lon":5.37651,"is_reserved":false,"is_disabled":false,"rental_uris":{"android":"levelo://app?vid=73768aeb-f85a-4fc2-a4fa-473980ceabf5","ios":"levelo://app?vid=73768aeb-f85a-4fc2-a4fa-473980ceabf5"},"vehicle_type_id":"4","last_reported":1740745054,"current_range_meters":16400,"station_id":"ce4bhh12rcd13ifvqff0","pricing_plan_id":"cebpf4jnsgd1na2vs0mg"},{"bike_id":"df5e2f43-22c4-456f-9bb7-ad548083c724","system_id":"levelo_inurba_marseille","lat":43.28725,"lon":5.36088,"is_reserved":false,"is_disabled":false,"rental_uris":{"android":"levelo://app?vid=df5e2f43-22c4-456f-9bb7-ad548083c724","ios":"levelo://app?vid=df5e2f43-22c4-456f-9bb7-ad548083c724"},"vehicle_type_id":"4","last_reported":1740745054,"current_range_meters":16400,"station_id":"cki0cbj6b192h4jlfktg","pricing_plan_id":"cebpf4jnsgd1na2vs0mg"},{"bike_id":"c84f47e5-27b1-47a9-a2d2-ba104cc1f39a","system_id":"levelo_inurba_marseille","lat":43.323567,"lon":5.367565,"is_reserved":false,"is_disabled":false,"rental_uris":{"android":"levelo://app?vid=c84f47e5-27b1-47a9-a2d2-ba104cc1f39a","ios":"levelo://app?vid=c84f47e5-27b1-47a9-a2d2-ba104cc1f39a"},"vehicle_type_id":"4","last_reported":1740745054,"current_range_meters":16400,"station_id":"ce4bhsh2rcd13ifvqi2g","pricing_plan_id":"cebpf4jnsgd1na2vs0mg"},{"bike_id":"2193ae5d-0953-4459-a4f7-d70be091ec85","system_id":"levelo_inurba_marseille","lat":43.28483,"lon":5.38555,"is_reserved":false,"is_disabled":false,"rental_uris":{"android":"levelo://app?vid=2193ae5d-0953-4459-a4f7-d70be091ec85","ios":"levelo://app?vid=2193ae5d-0953-4459-a4f7-d70be091ec85"},"vehicle_type_id":"4","last_reported":1740745054,"current_range_meters":16400,"station_id":"ce4bh8p2rcd13ifvqeb0","pricing_plan_id":"cebpf4jnsgd1na2vs0mg"},{"bike_id":"d593aa35-3fe9-4582-bd4f-2cfbcdc8b01b","system_id":"levelo_inurba_marseille","lat":43.23187,"lon":5.39977,"is_reserved":false,"is_disabled":false,"rental_uris":{"android":"levelo://app?vid=d593aa35-3fe9-4582-bd4f-2cfbcdc8b01b","ios":"levelo://app?vid=d593aa35-3fe9-4582-bd4f-2cfbcdc8b01b"},"vehicle_type_id":"4","last_reported":1740745054,"current_range_meters":16400,"station_id":"ce4bhn12rcd13ifvqgqg","pricing_plan_id":"cebpf4jnsgd1na2vs0mg"},{"bike_id":"5afe3ca4-4293-472f-af4b-7206f75b5a44","system_id":"levelo_inurba_marseille","lat":43.29842,"lon":5.3627,"is_reserved":false,"is_disabled":false,"rental_uris":{"android":"levelo://app?vid=5afe3ca4-4293-472f-af4b-7206f75b5a44","ios":"levelo://app?vid=5afe3ca4-4293-472f-af4b-7206f75b5a44"},"vehicle_type_id":"4","last_reported":1740745054,"current_range_meters":16400,"station_id":"ce4bgpp2rcd13ifvqc3g","pricing_plan_id":"cebpf4jnsgd1na2vs0mg"},{"bike_id":"a31e8575-ca75-4a73-bc44-6f66413b72db","system_id":"levelo_inurba_marseille","lat":43.28721,"lon":5.36085,"is_reserved":false,"is_disabled":false,"rental_uris":{"android":"levelo://app?vid=a31e8575-ca75-4a73-bc44-6f66413b72db","ios":"levelo://app?vid=a31e8575-ca75-4a73-bc44-6f66413b72db"},"vehicle_type_id":"4","last_reported":1740745054,"current_range_meters":16800,"station_id":"cki0cbj6b192h4jlfktg","pricing_plan_id":"cebpf4jnsgd1na2vs0mg"},{"bike_id":"571f586b-2d1c-43ed-9a84-ac73b57b4805","system_id":"levelo_inurba_marseille","lat":43.27206,"lon":5.39185,"is_reserved":false,"is_disabled":false,"rental_uris":{"android":"levelo://app?vid=571f586b-2d1c-43ed-9a84-ac73b57b4805","ios":"levelo://app?vid=571f586b-2d1c-43ed-9a84-ac73b57b4805"},"vehicle_type_id":"4","last_reported":1740745054,"current_range_meters":16400,"station_id":"ce4bhhp2rcd13ifvqfm0","pricing_plan_id":"cebpf4jnsgd1na2vs0mg"},{"bike_id":"2b8bf6fc-56e5-4dac-a442-7648a02cd6cc","system_id":"levelo_inurba_marseille","lat":43.29194,"lon":5.35801,"is_reserved":false,"is_disabled":false,"rental_uris":{"android":"levelo://app?vid=2b8bf6fc-56e5-4dac-a442-7648a02cd6cc","ios":"levelo://app?vid=2b8bf6fc-56e5-4dac-a442-7648a02cd6cc"},"vehicle_type_id":"4","last_reported":1740745054,"current_range_meters":16400,"station_id":"ce4bhb12rcd13ifvqel0","pricing_plan_id":"cebpf4jnsgd1na2vs0mg"},{"bike_id":"8d29ea9c-4781-41ad-8baa-79805fb2b086","system_id":"levelo_inurba_marseille","lat":43.24386,"lon":5.37056,"is_reserved":false,"is_disabled":false,"rental_uris":{"android":"levelo://app?vid=8d29ea9c-4781-41ad-8baa-79805fb2b086","ios":"levelo://app?vid=8d29ea9c-4781-41ad-8baa-79805fb2b086"},"vehicle_type_id":"4","last_reported":1740745054,"current_range_meters":16400,"station_id":"ce4bhhh2rcd13ifvqfk0","pricing_plan_id":"cebpf4jnsgd1na2vs0mg"},{"bike_id":"00be5e14-a31d-406b-a5dd-acc7bb68b1a0","system_id":"levelo_inurba_marseille","lat":43.29255,"lon":5.37619,"is_reserved":false,"is_disabled":false,"rental_uris":{"android":"levelo://app?vid=00be5e14-a31d-406b-a5dd-acc7bb68b1a0","ios":"levelo://app?vid=00be5e14-a31d-406b-a5dd-acc7bb68b1a0"},"vehicle_type_id":"4","last_reported":1740745054,"current_range_meters":16400,"station_id":"ce4bgi12rcd13ifvqb80","pricing_plan_id":"cebpf4jnsgd1na2vs0mg"},{"bike_id":"64fc1650-f3a1-4993-be35-bbc0c55c0232","system_id":"levelo_inurba_marseille","lat":43.27836,"lon":5.36268,"is_reserved":false,"is_disabled":false,"rental_uris":{"android":"levelo://app?vid=64fc1650-f3a1-4993-be35-bbc0c55c0232","ios":"levelo://app?vid=64fc1650-f3a1-4993-be35-bbc0c55c0232"},"vehicle_type_id":"4","last_reported":1740745054,"current_range_meters":16800,"station_id":"","pricing_plan_id":"cebpf4jnsgd1na2vs0mg"},{"bike_id":"a43d23d2-0d6e-4cf7-8691-8ab079a8ff69","system_id":"levelo_inurba_marseille","lat":43.29924,"lon":5.43674,"is_reserved":false,"is_disabled":false,"rental_uris":{"android":"levelo://app?vid=a43d23d2-0d6e-4cf7-8691-8ab079a8ff69","ios":"levelo://app?vid=a43d23d2-0d6e-4cf7-8691-8ab079a8ff69"},"vehicle_type_id":"4","last_reported":1740745054,"current_range_meters":16800,"station_id":"","pricing_plan_id":"cebpf4jnsgd1na2vs0mg"},{"bike_id":"766f9252-76ba-4151-9194-6d162e66f1d3","system_id":"levelo_inurba_marseille","lat":43.24824,"lon":5.37465,"is_reserved":false,"is_disabled":false,"rental_uris":{"android":"levelo://app?vid=766f9252-76ba-4151-9194-6d162e66f1d3","ios":"levelo://app?vid=766f9252-76ba-4151-9194-6d162e66f1d3"},"vehicle_type_id":"4","last_reported":1740745054,"current_range_meters":16800,"station_id":"ce4bhgh2rcd13ifvqfb0","pricing_plan_id":"cebpf4jnsgd1na2vs0mg"},{"bike_id":"695e9a27-d903-4bbc-b050-bcc463be80aa","system_id":"levelo_inurba_marseille","lat":43.24176,"lon":5.36412,"is_reserved":false,"is_disabled":false,"rental_uris":{"android":"levelo://app?vid=695e9a27-d903-4bbc-b050-bcc463be80aa","ios":"levelo://app?vid=695e9a27-d903-4bbc-b050-bcc463be80aa"},"vehicle_type_id":"4","last_reported":1740745054,"current_range_meters":16800,"station_id":"cpo36qri1sfpv3e86is0","pricing_plan_id":"cebpf4jnsgd1na2vs0mg"},{"bike_id":"f18c2d38-27b4-4fc8-8ead-33215890d3a1","system_id":"levelo_inurba_marseille","lat":43.29683,"lon":5.37284,"is_reserved":false,"is_disabled":false,"rental_uris":{"android":"levelo://app?vid=f18c2d38-27b4-4fc8-8ead-33215890d3a1","ios":"levelo://app?vid=f18c2d38-27b4-4fc8-8ead-33215890d3a1"},"vehicle_type_id":"4","last_reported":1740745054,"current_range_meters":16800,"station_id":"ce4bgk12rcd13ifvqbj0","pricing_plan_id":"cebpf4jnsgd1na2vs0mg"},{"bike_id":"7778c47e-3e30-43f2-8bac-ea5f7133a32e","system_id":"levelo_inurba_marseille","lat":43.27495,"lon":5.4245,"is_reserved":false,"is_disabled":false,"rental_uris":{"android":"levelo://app?vid=7778c47e-3e30-43f2-8bac-ea5f7133a32e","ios":"levelo://app?vid=7778c47e-3e30-43f2-8bac-ea5f7133a32e"},"vehicle_type_id":"4","last_reported":1740745054,"current_range_meters":17200,"station_id":"ce4bhn92rcd13ifvqgrg","pricing_plan_id":"cebpf4jnsgd1na2vs0mg"},{"bike_id":"aff6a0b5-436d-475a-b287-4f983c1b60a0","system_id":"levelo_inurba_marseille","lat":43.3136,"lon":5.38488,"is_reserved":false,"is_disabled":false,"rental_uris":{"android":"levelo://app?vid=aff6a0b5-436d-475a-b287-4f983c1b60a0","ios":"levelo://app?vid=aff6a0b5-436d-475a-b287-4f983c1b60a0"},"vehicle_type_id":"4","last_reported":1740745054,"current_range_meters":16800,"station_id":"ce4bgt92rcd13ifvqcf0","pricing_plan_id":"cebpf4jnsgd1na2vs0mg"},{"bike_id":"f9f6bb57-d9a4-471d-95a7-50892c4dbabd","system_id":"levelo_inurba_marseille","lat":43.29847,"lon":5.36286,"is_reserved":false,"is_disabled":false,"rental_uris":{"android":"levelo://app?vid=f9f6bb57-d9a4-471d-95a7-50892c4dbabd","ios":"levelo://app?vid=f9f6bb57-d9a4-471d-95a7-50892c4dbabd"},"vehicle_type_id":"4","last_reported":1740745054,"current_range_meters":16800,"station_id":"ce4bgpp2rcd13ifvqc3g","pricing_plan_id":"cebpf4jnsgd1na2vs0mg"},{"bike_id":"a1fd3f17-fa63-4344-9e7b-d93c80bda6a3","system_id":"levelo_inurba_marseille","lat":43.29439,"lon":5.39754,"is_reserved":false,"is_disabled":false,"rental_uris":{"android":"levelo://app?vid=a1fd3f17-fa63-4344-9e7b-d93c80bda6a3","ios":"levelo://app?vid=a1fd3f17-fa63-4344-9e7b-d93c80bda6a3"},"vehicle_type_id":"4","last_reported":1740745054,"current_range_meters":17200,"station_id":"ce4bh3h2rcd13ifvqdo0","pricing_plan_id":"cebpf4jnsgd1na2vs0mg"},{"bike_id":"25d7f85d-c4d8-4a24-8bb1-13741d8311b2","system_id":"levelo_inurba_marseille","lat":43.3127,"lon":5.40169,"is_reserved":false,"is_disabled":false,"rental_uris":{"android":"levelo://app?vid=25d7f85d-c4d8-4a24-8bb1-13741d8311b2","ios":"levelo://app?vid=25d7f85d-c4d8-4a24-8bb1-13741d8311b2"},"vehicle_type_id":"4","last_reported":1740745054,"current_range_meters":16800,"station_id":"","pricing_plan_id":"cebpf4jnsgd1na2vs0mg"},{"bike_id":"ed6b08ad-b95a-4e9d-9008-e59bc332731c","system_id":"levelo_inurba_marseille","lat":43.29872,"lon":5.39742,"is_reserved":false,"is_disabled":false,"rental_uris":{"android":"levelo://app?vid=ed6b08ad-b95a-4e9d-9008-e59bc332731c","ios":"levelo://app?vid=ed6b08ad-b95a-4e9d-9008-e59bc332731c"},"vehicle_type_id":"4","last_reported":1740745054,"current_range_meters":16800,"station_id":"ce4bh0h2rcd13ifvqd50","pricing_plan_id":"cebpf4jnsgd1na2vs0mg"},{"bike_id":"27f8d61f-de01-4772-8b8c-ceceaf4de61e","system_id":"levelo_inurba_marseille","lat":43.29057,"lon":5.37143,"is_reserved":false,"is_disabled":true,"rental_uris":{"android":"levelo://app?vid=27f8d61f-de01-4772-8b8c-ceceaf4de61e","ios":"levelo://app?vid=27f8d61f-de01-4772-8b8c-ceceaf4de61e"},"vehicle_type_id":"4","last_reported":1740745054,"current_range_meters":16800,"station_id":"ce4bh5p2rcd13ifvqe4g","pricing_plan_id":"cebpf4jnsgd1na2vs0mg"},{"bike_id":"2b24c891-5e99-4e97-9ea9-3c3457b90bf2","system_id":"levelo_inurba_marseille","lat":43.29029,"lon":5.38637,"is_reserved":false,"is_disabled":false,"rental_uris":{"android":"levelo://app?vid=2b24c891-5e99-4e97-9ea9-3c3457b90bf2","ios":"levelo://app?vid=2b24c891-5e99-4e97-9ea9-3c3457b90bf2"},"vehicle_type_id":"4","last_reported":1740745054,"current_range_meters":16400,"station_id":"ce4bh4p2rcd13ifvqe0g","pricing_plan_id":"cebpf4jnsgd1na2vs0mg"},{"bike_id":"0693b9d6-4a9d-4e38-bfa2-80f934bcc2e3","system_id":"levelo_inurba_marseille","lat":43.24187,"lon":5.36418,"is_reserved":false,"is_disabled":false,"rental_uris":{"android":"levelo://app?vid=0693b9d6-4a9d-4e38-bfa2-80f934bcc2e3","ios":"levelo://app?vid=0693b9d6-4a9d-4e38-bfa2-80f934bcc2e3"},"vehicle_type_id":"4","last_reported":1740745054,"current_range_meters":17200,"station_id":"cpo36qri1sfpv3e86is0","pricing_plan_id":"cebpf4jnsgd1na2vs0mg"},{"bike_id":"9777a404-a34e-4307-b73a-c10ec0fcce57","system_id":"levelo_inurba_marseille","lat":43.31213,"lon":5.36849,"is_reserved":false,"is_disabled":false,"rental_uris":{"android":"levelo://app?vid=9777a404-a34e-4307-b73a-c10ec0fcce57","ios":"levelo://app?vid=9777a404-a34e-4307-b73a-c10ec0fcce57"},"vehicle_type_id":"4","last_reported":1740745054,"current_range_meters":17200,"station_id":"ce4bgl92rcd13ifvqbq0","pricing_plan_id":"cebpf4jnsgd1na2vs0mg"},{"bike_id":"f6b60c26-4fc3-4c17-8527-89b0b5720839","system_id":"levelo_inurba_marseille","lat":43.241502,"lon":5.363853,"is_reserved":false,"is_disabled":false,"rental_uris":{"android":"levelo://app?vid=f6b60c26-4fc3-4c17-8527-89b0b5720839","ios":"levelo://app?vid=f6b60c26-4fc3-4c17-8527-89b0b5720839"},"vehicle_type_id":"4","last_reported":1740745054,"current_range_meters":17200,"station_id":"ce4bhap2rcd13ifvqek0","pricing_plan_id":"cebpf4jnsgd1na2vs0mg"},{"bike_id":"8c86cb21-5e53-44c8-a766-70640a93721c","system_id":"levelo_inurba_marseille","lat":43.29171,"lon":5.37556,"is_reserved":false,"is_disabled":false,"rental_uris":{"android":"levelo://app?vid=8c86cb21-5e53-44c8-a766-70640a93721c","ios":"levelo://app?vid=8c86cb21-5e53-44c8-a766-70640a93721c"},"vehicle_type_id":"4","last_reported":1740745054,"current_range_meters":17200,"station_id":"","pricing_plan_id":"cebpf4jnsgd1na2vs0mg"},{"bike_id":"5f4cf244-626a-4498-b821-e2c8eb028a3a","system_id":"levelo_inurba_marseille","lat":43.2418,"lon":5.39729,"is_reserved":false,"is_disabled":false,"rental_uris":{"android":"levelo://app?vid=5f4cf244-626a-4498-b821-e2c8eb028a3a","ios":"levelo://app?vid=5f4cf244-626a-4498-b821-e2c8eb028a3a"},"vehicle_type_id":"4","last_reported":1740745054,"current_range_meters":17200,"station_id":"ce4bhn12rcd13ifvqgpg","pricing_plan_id":"cebpf4jnsgd1na2vs0mg"},{"bike_id":"085d28c3-d678-460a-a2b0-03561e14272e","system_id":"levelo_inurba_marseille","lat":43.32124,"lon":5.36771,"is_reserved":false,"is_disabled":false,"rental_uris":{"android":"levelo://app?vid=085d28c3-d678-460a-a2b0-03561e14272e","ios":"levelo://app?vid=085d28c3-d678-460a-a2b0-03561e14272e"},"vehicle_type_id":"4","last_reported":1740745054,"current_range_meters":17600,"station_id":"ce4bhrh2rcd13ifvqhug","pricing_plan_id":"cebpf4jnsgd1na2vs0mg"},{"bike_id":"4015c440-7267-44b4-8be2-f4b87cb51aa9","system_id":"levelo_inurba_marseille","lat":43.255754,"lon":5.382433,"is_reserved":false,"is_disabled":false,"rental_uris":{"android":"levelo://app?vid=4015c440-7267-44b4-8be2-f4b87cb51aa9","ios":"levelo://app?vid=4015c440-7267-44b4-8be2-f4b87cb51aa9"},"vehicle_type_id":"4","last_reported":1740745054,"current_range_meters":17200,"station_id":"ce4bhih2rcd13ifvqfs0","pricing_plan_id":"cebpf4jnsgd1na2vs0mg"},{"bike_id":"26fe3e13-b729-44fe-88a2-388fca06b459","system_id":"levelo_inurba_marseille","lat":43.27572,"lon":5.38411,"is_reserved":false,"is_disabled":false,"rental_uris":{"android":"levelo://app?vid=26fe3e13-b729-44fe-88a2-388fca06b459","ios":"levelo://app?vid=26fe3e13-b729-44fe-88a2-388fca06b459"},"vehicle_type_id":"4","last_reported":1740745054,"current_range_meters":17600,"station_id":"ce4bhh92rcd13ifvqfi0","pricing_plan_id":"cebpf4jnsgd1na2vs0mg"},{"bike_id":"3b51f321-7860-478d-8dcb-446f467539e5","system_id":"levelo_inurba_marseille","lat":43.31221,"lon":5.36844,"is_reserved":false,"is_disabled":false,"rental_uris":{"android":"levelo://app?vid=3b51f321-7860-478d-8dcb-446f467539e5","ios":"levelo://app?vid=3b51f321-7860-478d-8dcb-446f467539e5"},"vehicle_type_id":"4","last_reported":1740745054,"current_range_meters":17200,"station_id":"ce4bgl92rcd13ifvqbq0","pricing_plan_id":"cebpf4jnsgd1na2vs0mg"},{"bike_id":"def9e2a0-5e7a-433a-86cc-874309487989","system_id":"levelo_inurba_marseille","lat":43.30545,"lon":5.3654,"is_reserved":false,"is_disabled":false,"rental_uris":{"android":"levelo://app?vid=def9e2a0-5e7a-433a-86cc-874309487989","ios":"levelo://app?vid=def9e2a0-5e7a-433a-86cc-874309487989"},"vehicle_type_id":"4","last_reported":1740745054,"current_range_meters":17200,"station_id":"ce4bgs12rcd13ifvqcag","pricing_plan_id":"cebpf4jnsgd1na2vs0mg"},{"bike_id":"57ec8465-c3c9-4132-bf64-41992c2bd7c6","system_id":"levelo_inurba_marseille","lat":43.3123,"lon":5.36867,"is_reserved":false,"is_disabled":false,"rental_uris":{"android":"levelo://app?vid=57ec8465-c3c9-4132-bf64-41992c2bd7c6","ios":"levelo://app?vid=57ec8465-c3c9-4132-bf64-41992c2bd7c6"},"vehicle_type_id":"4","last_reported":1740745054,"current_range_meters":16400,"station_id":"ce4bgl92rcd13ifvqbq0","pricing_plan_id":"cebpf4jnsgd1na2vs0mg"},{"bike_id":"8d91c655-19ff-47c9-a3e3-8857cd75c678","system_id":"levelo_inurba_marseille","lat":43.24814,"lon":5.37454,"is_reserved":false,"is_disabled":false,"rental_uris":{"android":"levelo://app?vid=8d91c655-19ff-47c9-a3e3-8857cd75c678","ios":"levelo://app?vid=8d91c655-19ff-47c9-a3e3-8857cd75c678"},"vehicle_type_id":"4","last_reported":1740745054,"current_range_meters":17200,"station_id":"ce4bhgh2rcd13ifvqfb0","pricing_plan_id":"cebpf4jnsgd1na2vs0mg"},{"bike_id":"9c42929e-516a-4067-8d10-74247088aef5","system_id":"levelo_inurba_marseille","lat":43.33022,"lon":5.39036,"is_reserved":false,"is_disabled":false,"rental_uris":{"android":"levelo://app?vid=9c42929e-516a-4067-8d10-74247088aef5","ios":"levelo://app?vid=9c42929e-516a-4067-8d10-74247088aef5"},"vehicle_type_id":"4","last_reported":1740745054,"current_range_meters":17200,"station_id":"ce4bhr92rcd13ifvqhrg","pricing_plan_id":"cebpf4jnsgd1na2vs0mg"},{"bike_id":"25e89ac1-d6d0-41be-86e5-48f8b7f864e8","system_id":"levelo_inurba_marseille","lat":43.31435,"lon":5.36713,"is_reserved":false,"is_disabled":false,"rental_uris":{"android":"levelo://app?vid=25e89ac1-d6d0-41be-86e5-48f8b7f864e8","ios":"levelo://app?vid=25e89ac1-d6d0-41be-86e5-48f8b7f864e8"},"vehicle_type_id":"4","last_reported":1740745054,"current_range_meters":17600,"station_id":"","pricing_plan_id":"cebpf4jnsgd1na2vs0mg"},{"bike_id":"fd1afb46-7763-4076-9ec8-e3ab3ebcdeba","system_id":"levelo_inurba_marseille","lat":43.30533,"lon":5.36695,"is_reserved":false,"is_disabled":false,"rental_uris":{"android":"levelo://app?vid=fd1afb46-7763-4076-9ec8-e3ab3ebcdeba","ios":"levelo://app?vid=fd1afb46-7763-4076-9ec8-e3ab3ebcdeba"},"vehicle_type_id":"4","last_reported":1740745054,"current_range_meters":17600,"station_id":"ce4bgrp2rcd13ifvqc9g","pricing_plan_id":"cebpf4jnsgd1na2vs0mg"},{"bike_id":"e3b9b7c4-e6c5-4fed-98fe-467d95aa23c6","system_id":"levelo_inurba_marseille","lat":43.22924,"lon":5.35373,"is_reserved":false,"is_disabled":true,"rental_uris":{"android":"levelo://app?vid=e3b9b7c4-e6c5-4fed-98fe-467d95aa23c6","ios":"levelo://app?vid=e3b9b7c4-e6c5-4fed-98fe-467d95aa23c6"},"vehicle_type_id":"4","last_reported":1740745054,"current_range_meters":17600,"station_id":"cpo3532slgdg3j2ikp40","pricing_plan_id":"cebpf4jnsgd1na2vs0mg"},{"bike_id":"ce7ffd98-be94-4fef-861c-b95054e0a2a7","system_id":"levelo_inurba_marseille","lat":43.31324,"lon":5.39696,"is_reserved":false,"is_disabled":false,"rental_uris":{"android":"levelo://app?vid=ce7ffd98-be94-4fef-861c-b95054e0a2a7","ios":"levelo://app?vid=ce7ffd98-be94-4fef-861c-b95054e0a2a7"},"vehicle_type_id":"4","last_reported":1740745054,"current_range_meters":17600,"station_id":"ce4bgvp2rcd13ifvqcu0","pricing_plan_id":"cebpf4jnsgd1na2vs0mg"},{"bike_id":"78f1b19c-8196-475f-a0bf-6273ce4d5e5b","system_id":"levelo_inurba_marseille","lat":43.28355,"lon":5.38641,"is_reserved":false,"is_disabled":false,"rental_uris":{"android":"levelo://app?vid=78f1b19c-8196-475f-a0bf-6273ce4d5e5b","ios":"levelo://app?vid=78f1b19c-8196-475f-a0bf-6273ce4d5e5b"},"vehicle_type_id":"4","last_reported":1740745054,"current_range_meters":17600,"station_id":"ce4bh492rcd13ifvqdvg","pricing_plan_id":"cebpf4jnsgd1na2vs0mg"},{"bike_id":"b9286100-9f76-4cd7-8e5c-52eab453158d","system_id":"levelo_inurba_marseille","lat":43.31369,"lon":5.36721,"is_reserved":false,"is_disabled":false,"rental_uris":{"android":"levelo://app?vid=b9286100-9f76-4cd7-8e5c-52eab453158d","ios":"levelo://app?vid=b9286100-9f76-4cd7-8e5c-52eab453158d"},"vehicle_type_id":"4","last_reported":1740745054,"current_range_meters":18000,"station_id":"ce4bgr92rcd13ifvqc6g","pricing_plan_id":"cebpf4jnsgd1na2vs0mg"},