{"last_updated":1751981243,"ttl":60,"version":"2.2","data":{"bikes":[{"bike_id":"cd20cfea-2f2f-444d-a882-a49b6cf370eb","system_id":"levelo_inurba_marseille","lat":43.337444,"lon":5.374475,"is_reserved":false,"is_disabled":true,"rental_uris":{"android":"levelo://app?vid=cd20cfea-2f2f-444d-a882-a49b6cf370eb","ios":"levelo://app?vid=cd20cfea-2f2f-444d-a882-a49b6cf370eb"},"vehicle_type_id":"4","last_reported":1751981244,"current_range_meters":0,"station_id":"","pricing_plan_id":"cebpf4jnsgd1na2vs0mg"},{"bike_id":"3da29fb8-fc97-44c6-b9ac-31dd456b2fd4","system_id":"levelo_inurba_marseille","lat":43.33771,"lon":5.37424,"is_reserved":false,"is_disabled":true,"rental_uris":{"android":"levelo://app?vid=3da29fb8-fc97-44c6-b9ac-31dd456b2fd4","ios":"levelo://app?vid=3da29fb8-fc97-44c6-b9ac-31dd456b2fd4"},"vehicle_type_id":"4","last_reported":1751981244,"current_range_meters":0,"station_id":"","pricing_plan_id":"cebpf4jnsgd1na2vs0mg"},{"bike_id":"01861ad8-a8d7-4be6-816e-651927c87584","system_id":"levelo_inurba_marseille","lat":43.33751,"lon":5.37456,"is_reserved":false,"is_disabled":true,"rental_uris":{"android":"levelo://app?vid=01861ad8-a8d7-4be6-816e-651927c87584","ios":"levelo://app?vid=01861ad8-a8d7-4be6-816e-651927c87584"},"vehicle_type_id":"4","last_reported":1751981244,"current_range_meters":0,"station_id":"","pricing_plan_id":"cebpf4jnsgd1na2vs0mg"},{"bike_id":"3d508917-55ee-42b6-894b-89c2a444dc06","system_id":"levelo_inurba_marseille","lat":43.33817,"lon":5.37498,"is_reserved":false,"is_disabled":true,"rental_uris":{"android":"levelo://app?vid=3d508917-55ee-42b6-894b-89c2a444dc06","ios":"levelo://app?vid=3d508917-55ee-42b6-894b-89c2a444dc06"},"vehicle_type_id":"4","last_reported":1751981244,"current_range_meters":0,"station_id":"","pricing_plan_id":"cebpf4jnsgd1na2vs0mg"},{"bike_id":"d5677444-d26f-45f5-84d9-a37e6d9b2f41","system_id":"levelo_inurba_marseille","lat":43.25973,"lon":5.40851,"is_reserved":false,"is_disabled":true,"rental_uris":{"android":"levelo://app?vid=d5677444-d26f-45f5-84d9-a37e6d9b2f41","ios":"levelo://app?vid=d5677444-d26f-45f5-84d9-a37e6d9b2f41"},"vehicle_type_id":"4","last_reported":1751981244,"current_range_meters":0,"station_id":"","pricing_plan_id":"cebpf4jnsgd1na2vs0mg"},{"bike_id":"c2cc834c-1ed8-423d-a8d9-915547e7f3ab","system_id":"levelo_inurba_marseille","lat":43.28614,"lon":5.35106,"is_reserved":false,"is_disabled":true,"rental_uris":{"android":"levelo://app?vid=c2cc834c-1ed8-423d-a8d9-915547e7f3ab","ios":"levelo://app?vid=c2cc834c-1ed8-423d-a8d9-915547e7f3ab"},"vehicle_type_id":"4","last_reported":1751981244,"current_range_meters":0,"station_id":"ce4bhch2rcd13ifvqeug","pricing_plan_id":"cebpf4jnsgd1na2vs0mg"},{"bike_id":"773f39ec-7428-4f92-aa09-1c12bfb7be7d","system_id":"levelo_inurba_marseille","lat":43.26701,"lon":5.38279,"is_reserved":false,"is_disabled":true,"rental_uris":{"android":"levelo://app?vid=773f39ec-7428-4f92-aa09-1c12bfb7be7d","ios":"levelo://app?vid=773f39ec-7428-4f92-aa09-1c12bfb7be7d"},"vehicle_type_id":"4","last_reported":1751981244,"current_range_meters":0,"station_id":"ce4bhg92rcd13ifvqf90","pricing_plan_id":"cebpf4jnsgd1na2vs0mg"},{"bike_id":"2db1b37c-342a-4b93-bec6-bf92617633be","system_id":"levelo_inurba_marseille","lat":43.276833,"lon":5.389208,"is_reserved":false,"is_disabled":true,"rental_uris":{"android":"levelo://app?vid=2db1b37c-342a-4b93-bec6-bf92617633be","ios":"levelo://app?vid=2db1b37c-342a-4b93-bec6-bf92617633be"},"vehicle_type_id":"4","last_reported":1751981244,"current_range_meters":0,"station_id":"ce4bhi12rcd13ifvqfo0","pricing_plan_id":"cebpf4jnsgd1na2vs0mg"},{"bike_id":"3fa60b66-7123-4290-8ce2-567d218498c6","system_id":"levelo_inurba_marseille","lat":43.25724,"lon":5.41116,"is_reserved":false,"is_disabled":true,"rental_uris":{"android":"levelo://app?vid=3fa60b66-7123-4290-8ce2-567d218498c6","ios":"levelo://app?vid=3fa60b66-7123-4290-8ce2-567d218498c6"},"vehicle_type_id":"4","last_reported":1751981244,"current_range_meters":0,"station_id":"ce4bhkp2rcd13ifvqgd0","pricing_plan_id":"cebpf4jnsgd1na2vs0mg"},{"bike_id":"f619513e-0984-42d2-8794-fc6696bc6c16","system_id":"levelo_inurba_marseille","lat":43.2994,"lon":5.36543,"is_reserved":false,"is_disabled":true,"rental_uris":{"android":"levelo://app?vid=f619513e-0984-42d2-8794-fc6696bc6c16","ios":"levelo://app?vid=f619513e-0984-42d2-8794-fc6696bc6c16"},"vehicle_type_id":"4","last_reported":1751981244,"current_range_meters":400,"station_id":"ce4bgm92rcd13ifvqbr0","pricing_plan_id":"cebpf4jnsgd1na2vs0mg"},{"bike_id":"54a2f1e5-2131-4519-86e0-7f2d61397e98","system_id":"levelo_inurba_marseille","lat":43.30535,"lon":5.36559,"is_reserved":false,"is_disabled":true,"rental_uris":{"android":"levelo://app?vid=54a2f1e5-2131-4519-86e0-7f2d61397e98","ios":"levelo://app?vid=54a2f1e5-2131-4519-86e0-7f2d61397e98"},"vehicle_type_id":"4","last_reported":1751981244,"current_range_meters":400,"station_id":"ce4bgs12rcd13ifvqcag","pricing_plan_id":"cebpf4jnsgd1na2vs0mg"},{"bike_id":"6d412f8b-f1c0-414a-82a1-35b511a619d8","system_id":"levelo_inurba_marseille","lat":43.30461,"lon":5.37916,"is_reserved":false,"is_disabled":true,"rental_uris":{"android":"levelo://app?vid=6d412f8b-f1c0-414a-82a1-35b511a619d8","ios":"levelo://app?vid=6d412f8b-f1c0-414a-82a1-35b511a619d8"},"vehicle_type_id":"4","last_reported":1751981244,"current_range_meters":400,"station_id":"ce4bgup2rcd13ifvqcn0","pricing_plan_id":"cebpf4jnsgd1na2vs0mg"},{"bike_id":"59f71107-9a3c-4968-a9c5-357fe3dd570d","system_id":"levelo_inurba_marseille","lat":43.27369,"lon":5.36262,"is_reserved":false,"is_disabled":true,"rental_uris":{"android":"levelo://app?vid=59f71107-9a3c-4968-a9c5-357fe3dd570d","ios":"levelo://app?vid=59f71107-9a3c-4968-a9c5-357fe3dd570d"},"vehicle_type_id":"4","last_reported":1751981244,"current_range_meters":800,"station_id":"ce4bhbh2rcd13ifvqeo0","pricing_plan_id":"cebpf4jnsgd1na2vs0mg"},{"bike_id":"dfc6cbc1-e3dd-46ad-abc2-d3cba006052f","system_id":"levelo_inurba_marseille","lat":43.27997,"lon":5.40007,"is_reserved":false,"is_disabled":true,"rental_uris":{"android":"levelo://app?vid=dfc6cbc1-e3dd-46ad-abc2-d3cba006052f","ios":"levelo://app?vid=dfc6cbc1-e3dd-46ad-abc2-d3cba006052f"},"vehicle_type_id":"4","last_reported":1751981244,"current_range_meters":800,"station_id":"ce4bho92rcd13ifvqh4g","pricing_plan_id":"cebpf4jnsgd1na2vs0mg"},{"bike_id":"569c7585-9bcd-4879-8477-21abfc1b4214","system_id":"levelo_inurba_marseille","lat":43.30139,"lon":5.38782,"is_reserved":false,"is_disabled":true,"rental_uris":{"android":"levelo://app?vid=569c7585-9bcd-4879-8477-21abfc1b4214","ios":"levelo://app?vid=569c7585-9bcd-4879-8477-21abfc1b4214"},"vehicle_type_id":"4","last_reported":1751981244,"current_range_meters":1200,"station_id":"ce4bghh2rcd13ifvqb60","pricing_plan_id":"cebpf4jnsgd1na2vs0mg"},{"bike_id":"77515c47-72ed-4c95-9778-b8f5f78dae7e","system_id":"levelo_inurba_marseille","lat":43.28475,"lon":5.38444,"is_reserved":false,"is_disabled":true,"rental_uris":{"android":"levelo://app?vid=77515c47-72ed-4c95-9778-b8f5f78dae7e","ios":"levelo://app?vid=77515c47-72ed-4c95-9778-b8f5f78dae7e"},"vehicle_type_id":"4","last_reported":1751981244,"current_range_meters":1200,"station_id":"ce4bh512rcd13ifvqe3g","pricing_plan_id":"cebpf4jnsgd1na2vs0mg"},{"bike_id":"99c26134-9188-4592-8016-820f81b9849f","system_id":"levelo_inurba_marseille","lat":43.29262,"lon":5.38444,"is_reserved":false,"is_disabled":true,"rental_uris":{"android":"levelo://app?vid=99c26134-9188-4592-8016-820f81b9849f","ios":"levelo://app?vid=99c26134-9188-4592-8016-820f81b9849f"},"vehicle_type_id":"4","last_reported":1751981244,"current_range_meters":1200,"station_id":"ce4bh692rcd13ifvqea0","pricing_plan_id":"cebpf4jnsgd1na2vs0mg"},{"bike_id":"21f95dbf-edfb-44a9-9d84-7f15cd7a0734","system_id":"levelo_inurba_marseille","lat":43.27369,"lon":5.3626,"is_reserved":false,"is_disabled":true,"rental_uris":{"android":"levelo://app?vid=21f95dbf-edfb-44a9-9d84-7f15cd7a0734","ios":"levelo://app?vid=21f95dbf-edfb-44a9-9d84-7f15cd7a0734"},"vehicle_type_id":"4","last_reported":1751981244,"current_range_meters":1200,"station_id":"ce4bhbh2rcd13ifvqeo0","pricing_plan_id":"cebpf4jnsgd1na2vs0mg"},{"bike_id":"8c1d3ab6-20e0-4713-8bb9-a64b3afb4759","system_id":"levelo_inurba_marseille","lat":43.266195,"lon":5.381887,"is_reserved":false,"is_disabled":true,"rental_uris":{"android":"levelo://app?vid=8c1d3ab6-20e0-4713-8bb9-a64b3afb4759","ios":"levelo://app?vid=8c1d3ab6-20e0-4713-8bb9-a64b3afb4759"},"vehicle_type_id":"4","last_reported":1751981244,"current_range_meters":1600,"station_id":"ce4bhg92rcd13ifvqf90","pricing_plan_id":"cebpf4jnsgd1na2vs0mg"},{"bike_id":"5475ed22-5afe-4394-9e91-7d6abe34d725","system_id":"levelo_inurba_marseille","lat":43.28075,"lon":5.39662,"is_reserved":false,"is_disabled":true,"rental_uris":{"android":"levelo://app?vid=5475ed22-5afe-4394-9e91-7d6abe34d725","ios":"levelo://app?vid=5475ed22-5afe-4394-9e91-7d6abe34d725"},"vehicle_type_id":"4","last_reported":1751981244,"current_range_meters":1600,"station_id":"ce4bho12rcd13ifvqh2g","pricing_plan_id":"cebpf4jnsgd1na2vs0mg"},{"bike_id":"039fd7cf-c40f-461f-aa92-7cae146a454f","system_id":"levelo_inurba_marseille","lat":43.29552,"lon":5.42294,"is_reserved":false,"is_disabled":true,"rental_uris":{"android":"levelo://app?vid=039fd7cf-c40f-461f-aa92-7cae146a454f","ios":"levelo://app?vid=039fd7cf-c40f-461f-aa92-7cae146a454f"},"vehicle_type_id":"4","last_reported":1751981244,"current_range_meters":1600,"station_id":"ce4bhph2rcd13ifvqhdg","pricing_plan_id":"cebpf4jnsgd1na2vs0mg"},{"bike_id":"ed290504-6948-4f69-8584-2e2b0286febf","system_id":"levelo_inurba_marseille","lat":43.211923,"lon":5.35074,"is_reserved":false,"is_disabled":true,"rental_uris":{"android":"levelo://app?vid=ed290504-6948-4f69-8584-2e2b0286febf","ios":"levelo://app?vid=ed290504-6948-4f69-8584-2e2b0286febf"},"vehicle_type_id":"4","last_reported":1751981244,"current_range_meters":1600,"station_id":"st_cvj6sg6p6f1abm77japg","pricing_plan_id":"cebpf4jnsgd1na2vs0mg"},{"bike_id":"f019955e-f7a1-4a35-8f42-1fdf08ee12bc","system_id":"levelo_inurba_marseille","lat":43.29714,"lon":5.37811,"is_reserved":false,"is_disabled":true,"rental_uris":{"android":"levelo://app?vid=f019955e-f7a1-4a35-8f42-1fdf08ee12bc","ios":"levelo://app?vid=f019955e-f7a1-4a35-8f42-1fdf08ee12bc"},"vehicle_type_id":"4","last_reported":1751981244,"current_range_meters":2000,"station_id":"","pricing_plan_id":"cebpf4jnsgd1na2vs0mg"},{"bike_id":"9c00894e-1c7c-456a-9af5-d2b3d6e5d8dd","system_id":"levelo_inurba_marseille","lat":43.29967,"lon":5.385,"is_reserved":false,"is_disabled":true,"rental_uris":{"android":"levelo://app?vid=9c00894e-1c7c-456a-9af5-d2b3d6e5d8dd","ios":"levelo://app?vid=9c00894e-1c7c-456a-9af5-d2b3d6e5d8dd"},"vehicle_type_id":"4","last_reported":1751981244,"current_range_meters":2000,"station_id":"ce4bgj92rcd13ifvqbd0","pricing_plan_id":"cebpf4jnsgd1na2vs0mg"},{"bike_id":"0f1c7783-be1c-44d4-b7fe-6b4cc56b45ce","system_id":"levelo_inurba_marseille","lat":43.31229,"lon":5.36854,"is_reserved":false,"is_disabled":true,"rental_uris":{"android":"levelo://app?vid=0f1c7783-be1c-44d4-b7fe-6b4cc56b45ce","ios":"levelo://app?vid=0f1c7783-be1c-44d4-b7fe-6b4cc56b45ce"},"vehicle_type_id":"4","last_reported":1751981244,"current_range_meters":2000,"station_id":"ce4bgl92rcd13ifvqbq0","pricing_plan_id":"cebpf4jnsgd1na2vs0mg"},{"bike_id":"8593c664-766e-46bc-b394-c20b4ff09fcc","system_id":"levelo_inurba_marseille","lat":43.29526,"lon":5.39396,"is_reserved":false,"is_disabled":true,"rental_uris":{"android":"levelo://app?vid=8593c664-766e-46bc-b394-c20b4ff09fcc","ios":"levelo://app?vid=8593c664-766e-46bc-b394-c20b4ff09fcc"},"vehicle_type_id":"4","last_reported":1751981244,"current_range_meters":2000,"station_id":"ce4bh292rcd13ifvqdf0","pricing_plan_id":"cebpf4jnsgd1na2vs0mg"},{"bike_id":"040ec2b8-1681-49c4-b7de-caa5611ccfe0","system_id":"levelo_inurba_marseille","lat":43.29526,"lon":5.39404,"is_reserved":false,"is_disabled":true,"rental_uris":{"android":"levelo://app?vid=040ec2b8-1681-49c4-b7de-caa5611ccfe0","ios":"levelo://app?vid=040ec2b8-1681-49c4-b7de-caa5611ccfe0"},"vehicle_type_id":"4","last_reported":1751981244,"current_range_meters":2000,"station_id":"ce4bh292rcd13ifvqdf0","pricing_plan_id":"cebpf4jnsgd1na2vs0mg"},{"bike_id":"26ac0076-7cba-48d1-a4fb-52359bed3b34","system_id":"levelo_inurba_marseille","lat":43.30795,"lon":5.38154,"is_reserved":false,"is_disabled":false,"rental_uris":{"android":"levelo://app?vid=26ac0076-7cba-48d1-a4fb-52359bed3b34","ios":"levelo://app?vid=26ac0076-7cba-48d1-a4fb-52359bed3b34"},"vehicle_type_id":"4","last_reported":1751981244,"current_range_meters":2800,"station_id":"ce4bgt12rcd13ifvqce0","pricing_plan_id":"cebpf4jnsgd1na2vs0mg"},{"bike_id":"f3812cc5-393b-4e88-95e3-4855b286937b","system_id":"levelo_inurba_marseille","lat":43.31075,"lon":5.38353,"is_reserved":false,"is_disabled":false,"rental_uris":{"android":"levelo://app?vid=f3812cc5-393b-4e88-95e3-4855b286937b","ios":"levelo://app?vid=f3812cc5-393b-4e88-95e3-4855b286937b"},"vehicle_type_id":"4","last_reported":1751981244,"current_range_meters":2800,"station_id":"ce4bgv92rcd13ifvqcr0","pricing_plan_id":"cebpf4jnsgd1na2vs0mg"},{"bike_id":"3b638e02-6a55-403d-b500-cc62d0041fbc","system_id":"levelo_inurba_marseille","lat":43.26937,"lon":5.38905,"is_reserved":false,"is_disabled":false,"rental_uris":{"android":"levelo://app?vid=3b638e02-6a55-403d-b500-cc62d0041fbc","ios":"levelo://app?vid=3b638e02-6a55-403d-b500-cc62d0041fbc"},"vehicle_type_id":"4","last_reported":1751981244,"current_range_meters":2800,"station_id":"ce4bhhh2rcd13ifvqfl0","pricing_plan_id":"cebpf4jnsgd1na2vs0mg"},{"bike_id":"616336cc-0c91-47ba-88e7-9d04794daa36","system_id":"levelo_inurba_marseille","lat":43.25735,"lon":5.4113,"is_reserved":false,"is_disabled":false,"rental_uris":{"android":"levelo://app?vid=616336cc-0c91-47ba-88e7-9d04794daa36","ios":"levelo://app?vid=616336cc-0c91-47ba-88e7-9d04794daa36"},"vehicle_type_id":"4","last_reported":1751981244,"current_range_meters":2800,"station_id":"ce4bhkp2rcd13ifvqgd0","pricing_plan_id":"cebpf4jnsgd1na2vs0mg"},{"bike_id":"47cc12e9-1f9d-4b29-b948-db655857089a","system_id":"levelo_inurba_marseille","lat":43.22505,"lon":5.34789,"is_reserved":false,"is_disabled":false,"rental_uris":{"android":"levelo://app?vid=47cc12e9-1f9d-4b29-b948-db655857089a","ios":"levelo://app?vid=47cc12e9-1f9d-4b29-b948-db655857089a"},"vehicle_type_id":"4","last_reported":1751981244,"current_range_meters":2800,"station_id":"st_cvj5dfep6f1abm77gieg","pricing_plan_id":"cebpf4jnsgd1na2vs0mg"},{"bike_id":"de3c7479-ad03-448f-a78e-88898eddd51a","system_id":"levelo_inurba_marseille","lat":43.32974,"lon":5.39691,"is_reserved":false,"is_disabled":false,"rental_uris":{"android":"levelo://app?vid=de3c7479-ad03-448f-a78e-88898eddd51a","ios":"levelo://app?vid=de3c7479-ad03-448f-a78e-88898eddd51a"},"vehicle_type_id":"4","last_reported":1751981244,"current_range_meters":3200,"station_id":"","pricing_plan_id":"cebpf4jnsgd1na2vs0mg"},{"bike_id":"49c2d64d-25cd-4af2-b4f1-ec24ac5779c5","system_id":"levelo_inurba_marseille","lat":43.30653,"lon":5.40069,"is_reserved":false,"is_disabled":false,"rental_uris":{"android":"levelo://app?vid=49c2d64d-25cd-4af2-b4f1-ec24ac5779c5","ios":"levelo://app?vid=49c2d64d-25cd-4af2-b4f1-ec24ac5779c5"},"vehicle_type_id":"4","last_reported":1751981244,"current_range_meters":3200,"station_id":"ce4bh112rcd13ifvqda0","pricing_plan_id":"cebpf4jnsgd1na2vs0mg"},{"bike_id":"5dca33cf-60d9-40cd-bafd-b8058d47bcb2","system_id":"levelo_inurba_marseille","lat":43.28414,"lon":5.37522,"is_reserved":false,"is_disabled":false,"rental_uris":{"android":"levelo://app?vid=5dca33cf-60d9-40cd-bafd-b8058d47bcb2","ios":"levelo://app?vid=5dca33cf-60d9-40cd-bafd-b8058d47bcb2"},"vehicle_type_id":"4","last_reported":1751981244,"current_range_meters":3200,"station_id":"ce4bh412rcd13ifvqds0","pricing_plan_id":"cebpf4jnsgd1na2vs0mg"},{"bike_id":"9def0ec1-138e-43cf-8384-2b31b614d8bb","system_id":"levelo_inurba_marseille","lat":43.2501,"lon":5.38934,"is_reserved":false,"is_disabled":false,"rental_uris":{"android":"levelo://app?vid=9def0ec1-138e-43cf-8384-2b31b614d8bb","ios":"levelo://app?vid=9def0ec1-138e-43cf-8384-2b31b614d8bb"},"vehicle_type_id":"4","last_reported":1751981244,"current_range_meters":3200,"station_id":"ce4bhgp2rcd13ifvqfd0","pricing_plan_id":"cebpf4jnsgd1na2vs0mg"},{"bike_id":"adf5fd38-5bac-49d1-8127-6f8650cd93fc","system_id":"levelo_inurba_marseille","lat":43.25496,"lon":5.37651,"is_reserved":false,"is_disabled":false,"rental_uris":{"android":"levelo://app?vid=adf5fd38-5bac-49d1-8127-6f8650cd93fc","ios":"levelo://app?vid=adf5fd38-5bac-49d1-8127-6f8650cd93fc"},"vehicle_type_id":"4","last_reported":1751981244,"current_range_meters":3200,"station_id":"ce4bhh12rcd13ifvqff0","pricing_plan_id":"cebpf4jnsgd1na2vs0mg"},{"bike_id":"ff6969fc-5512-4edf-a61d-6936ccb9a278","system_id":"levelo_inurba_marseille","lat":43.330142,"lon":5.36378,"is_reserved":false,"is_disabled":false,"rental_uris":{"android":"levelo://app?vid=ff6969fc-5512-4edf-a61d-6936ccb9a278","ios":"levelo://app?vid=ff6969fc-5512-4edf-a61d-6936ccb9a278"},"vehicle_type_id":"4","last_reported":1751981244,"current_range_meters":4000,"station_id":"","pricing_plan_id":"cebpf4jnsgd1na2vs0mg"},{"bike_id":"cdc5593e-e69a-469e-b59d-f6d125469094","system_id":"levelo_inurba_marseille","lat":43.29257,"lon":5.40913,"is_reserved":false,"is_disabled":false,"rental_uris":{"android":"levelo://app?vid=cdc5593e-e69a-469e-b59d-f6d125469094","ios":"levelo://app?vid=cdc5593e-e69a-469e-b59d-f6d125469094"},"vehicle_type_id":"4","last_reported":1751981244,"current_range_meters":4000,"station_id":"ce4bh192rcd13ifvqdc0","pricing_plan_id":"cebpf4jnsgd1na2vs0mg"},{"bike_id":"ce176b8b-48be-4c80-9168-50838c67c122","system_id":"levelo_inurba_marseille","lat":43.29522,"lon":5.39055,"is_reserved":false,"is_disabled":false,"rental_uris":{"android":"levelo://app?vid=ce176b8b-48be-4c80-9168-50838c67c122","ios":"levelo://app?vid=ce176b8b-48be-4c80-9168-50838c67c122"},"vehicle_type_id":"4","last_reported":1751981244,"current_range_meters":4400,"station_id":"ce4bh3p2rcd13ifvqdp0","pricing_plan_id":"cebpf4jnsgd1na2vs0mg"},{"bike_id":"7ae32b87-7a0b-489d-823c-18c48e3a0576","system_id":"levelo_inurba_marseille","lat":43.24167,"lon":5.36394,"is_reserved":false,"is_disabled":false,"rental_uris":{"android":"levelo://app?vid=7ae32b87-7a0b-489d-823c-18c48e3a0576","ios":"levelo://app?vid=7ae32b87-7a0b-489d-823c-18c48e3a0576"},"vehicle_type_id":"4","last_reported":1751981244,"current_range_meters":4400,"station_id":"cpo36qri1sfpv3e86is0","pricing_plan_id":"cebpf4jnsgd1na2vs0mg"},{"bike_id":"b2254882-941e-42b1-be36-ebc1c96e0473","system_id":"levelo_inurba_marseille","lat":43.30006,"lon":5.36397,"is_reserved":false,"is_disabled":false,"rental_uris":{"android":"levelo://app?vid=b2254882-941e-42b1-be36-ebc1c96e0473","ios":"levelo://app?vid=b2254882-941e-42b1-be36-ebc1c96e0473"},"vehicle_type_id":"4","last_reported":1751981244,"current_range_meters":4800,"station_id":"","pricing_plan_id":"cebpf4jnsgd1na2vs0mg"},{"bike_id":"61336426-2247-43c2-bae0-c87abe5ef141","system_id":"levelo_inurba_marseille","lat":43.295683,"lon":5.375858,"is_reserved":false,"is_disabled":false,"rental_uris":{"android":"levelo://app?vid=61336426-2247-43c2-bae0-c87abe5ef141","ios":"levelo://app?vid=61336426-2247-43c2-bae0-c87abe5ef141"},"vehicle_type_id":"4","last_reported":1751981244,"current_range_meters":4800,"station_id":"ce4bgih2rcd13ifvqba0","pricing_plan_id":"cebpf4jnsgd1na2vs0mg"},{"bike_id":"07647627-1ddd-4101-a84e-55f41b105f0f","system_id":"levelo_inurba_marseille","lat":43.31359,"lon":5.38497,"is_reserved":false,"is_disabled":false,"rental_uris":{"android":"levelo://app?vid=07647627-1ddd-4101-a84e-55f41b105f0f","ios":"levelo://app?vid=07647627-1ddd-4101-a84e-55f41b105f0f"},"vehicle_type_id":"4","last_reported":1751981244,"current_range_meters":4800,"station_id":"ce4bgt92rcd13ifvqcf0","pricing_plan_id":"cebpf4jnsgd1na2vs0mg"},{"bike_id":"27cee291-461f-4dd5-ae08-5bf2b80cfa1a","system_id":"levelo_inurba_marseille","lat":43.28494,"lon":5.38567,"is_reserved":false,"is_disabled":false,"rental_uris":{"android":"levelo://app?vid=27cee291-461f-4dd5-ae08-5bf2b80cfa1a","ios":"levelo://app?vid=27cee291-461f-4dd5-ae08-5bf2b80cfa1a"},"vehicle_type_id":"4","last_reported":1751981244,"current_range_meters":6000,"station_id":"ce4bh8p2rcd13ifvqeb0","pricing_plan_id":"cebpf4jnsgd1na2vs0mg"},{"bike_id":"1dfe2a62-5151-4cd4-bb1b-c713bf0a102e","system_id":"levelo_inurba_marseille","lat":43.28462,"lon":5.35884,"is_reserved":false,"is_disabled":false,"rental_uris":{"android":"levelo://app?vid=1dfe2a62-5151-4cd4-bb1b-c713bf0a102e","ios":"levelo://app?vid=1dfe2a62-5151-4cd4-bb1b-c713bf0a102e"},"vehicle_type_id":"4","last_reported":1751981244,"current_range_meters":6000,"station_id":"ce4bhah2rcd13ifvqei0","pricing_plan_id":"cebpf4jnsgd1na2vs0mg"},{"bike_id":"d6ef221b-47f5-4a21-8211-f962995765bb","system_id":"levelo_inurba_marseille","lat":43.2798,"lon":5.38748,"is_reserved":false,"is_disabled":false,"rental_uris":{"android":"levelo://app?vid=d6ef221b-47f5-4a21-8211-f962995765bb","ios":"levelo://app?vid=d6ef221b-47f5-4a21-8211-f962995765bb"},"vehicle_type_id":"4","last_reported":1751981244,"current_range_meters":6000,"station_id":"ce4bhg12rcd13ifvqf80","pricing_plan_id":"cebpf4jnsgd1na2vs0mg"},{"bike_id":"6622e7fd-50eb-4e73-8b5c-2bdb13cdea02","system_id":"levelo_inurba_marseille","lat":43.26203,"lon":5.379336,"is_reserved":false,"is_disabled":false,"rental_uris":{"android":"levelo://app?vid=6622e7fd-50eb-4e73-8b5c-2bdb13cdea02","ios":"levelo://app?vid=6622e7fd-50eb-4e73-8b5c-2bdb13cdea02"},"vehicle_type_id":"4","last_reported":1751981244,"current_range_meters":6000,"station_id":"ce4bhjp2rcd13ifvqg90","pricing_plan_id":"cebpf4jnsgd1na2vs0mg"},{"bike_id":"7b527f00-f6ea-4963-b59d-8da04a2feedb","system_id":"levelo_inurba_marseille","lat":43.32075,"lon":5.40191,"is_reserved":false,"is_disabled":false,"rental_uris":{"android":"levelo://app?vid=7b527f00-f6ea-4963-b59d-8da04a2feedb","ios":"levelo://app?vid=7b527f00-f6ea-4963-b59d-8da04a2feedb"},"vehicle_type_id":"4","last_reported":1751981244,"current_range_meters":6400,"station_id":"","pricing_plan_id":"cebpf4jnsgd1na2vs0mg"},{"bike_id":"80a1831c-f776-40da-821b-12d8caebb72b","system_id":"levelo_inurba_marseille","lat":43.31576,"lon":5.38543,"is_reserved":false,"is_disabled":false,"rental_uris":{"android":"levelo://app?vid=80a1831c-f776-40da-821b-12d8caebb72b","ios":"levelo://app?vid=80a1831c-f776-40da-821b-12d8caebb72b"},"vehicle_type_id":"4","last_reported":1751981244,"current_range_meters":6400,"station_id":"","pricing_plan_id":"cebpf4jnsgd1na2vs0mg"},{"bike_id":"e28b4adf-14ef-4e1f-a30c-5b0c7d933c54","system_id":"levelo_inurba_marseille","lat":43.30883,"lon":5.39661,"is_reserved":false,"is_disabled":false,"rental_uris":{"android":"levelo://app?vid=e28b4adf-14ef-4e1f-a30c-5b0c7d933c54","ios":"levelo://app?vid=e28b4adf-14ef-4e1f-a30c-5b0c7d933c54"},"vehicle_type_id":"4","last_reported":1751981244,"current_range_meters":6400,"station_id":"ce4bh012rcd13ifvqcv0","pricing_plan_id":"cebpf4jnsgd1na2vs0mg"},{"bike_id":"3b22f952-d0bc-4c00-8fd3-7e27b88aea23","system_id":"levelo_inurba_marseille","lat":43.29659,"lon":5.36245,"is_reserved":false,"is_disabled":false,"rental_uris":{"android":"levelo://app?vid=3b22f952-d0bc-4c00-8fd3-7e27b88aea23","ios":"levelo://app?vid=3b22f952-d0bc-4c00-8fd3-7e27b88aea23"},"vehicle_type_id":"4","last_reported":1751981244,"current_range_meters":6800,"station_id":"","pricing_plan_id":"cebpf4jnsgd1na2vs0mg"},{"bike_id":"e97ee5c0-87e5-403c-92ed-929b14d6ff8f","system_id":"levelo_inurba_marseille","lat":43.28325,"lon":5.38499,"is_reserved":false,"is_disabled":false,"rental_uris":{"android":"levelo://app?vid=e97ee5c0-87e5-403c-92ed-929b14d6ff8f","ios":"levelo://app?vid=e97ee5c0-87e5-403c-92ed-929b14d6ff8f"},"vehicle_type_id":"4","last_reported":1751981244,"current_range_meters":6800,"station_id":"","pricing_plan_id":"cebpf4jnsgd1na2vs0mg"},{"bike_id":"88ea42cb-cf0f-4e4a-8442-732645bc4ba5","system_id":"levelo_inurba_marseille","lat":43.310876,"lon":5.366963,"is_reserved":false,"is_disabled":false,"rental_uris":{"android":"levelo://app?vid=88ea42cb-cf0f-4e4a-8442-732645bc4ba5","ios":"levelo://app?vid=88ea42cb-cf0f-4e4a-8442-732645bc4ba5"},"vehicle_type_id":"4","last_reported":1751981244,"current_range_meters":6800,"station_id":"","pricing_plan_id":"cebpf4jnsgd1na2vs0mg"},{"bike_id":"d7b15bc4-66f4-447a-a1cf-e11681da69b8","system_id":"levelo_inurba_marseille","lat":43.30543,"lon":5.36726,"is_reserved":false,"is_disabled":false,"rental_uris":{"android":"levelo://app?vid=d7b15bc4-66f4-447a-a1cf-e11681da69b8","ios":"levelo://app?vid=d7b15bc4-66f4-447a-a1cf-e11681da69b8"},"vehicle_type_id":"4","last_reported":1751981244,"current_range_meters":7200,"station_id":"ce4bgrp2rcd13ifvqc9g","pricing_plan_id":"cebpf4jnsgd1na2vs0mg"},{"bike_id":"8ca8021e-6684-4f1e-8d41-b77694dce596","system_id":"levelo_inurba_marseille","lat":43.28075,"lon":5.39643,"is_reserved":false,"is_disabled":false,"rental_uris":{"android":"levelo://app?vid=8ca8021e-6684-4f1e-8d41-b77694dce596","ios":"levelo://app?vid=8ca8021e-6684-4f1e-8d41-b77694dce596"},"vehicle_type_id":"4","last_reported":1751981244,"current_range_meters":7200,"station_id":"ce4bho12rcd13ifvqh2g","pricing_plan_id":"cebpf4jnsgd1na2vs0mg"},{"bike_id":"37f2becd-23f9-4f13-a711-38b8024eeec7","system_id":"levelo_inurba_marseille","lat":43.33768,"lon":5.37516,"is_reserved":false,"is_disabled":false,"rental_uris":{"android":"levelo://app?vid=37f2becd-23f9-4f13-a711-38b8024eeec7","ios":"levelo://app?vid=37f2becd-23f9-4f13-a711-38b8024eeec7"},"vehicle_type_id":"4","last_reported":1751981244,"current_range_meters":8000,"station_id":"","pricing_plan_id":"cebpf4jnsgd1na2vs0mg"},{"bike_id":"f6b0e988-0f2c-406e-b522-1f57986a504a","system_id":"levelo_inurba_marseille","lat":43.27975,"lon":5.38738,"is_reserved":false,"is_disabled":false,"rental_uris":{"android":"levelo://app?vid=f6b0e988-0f2c-406e-b522-1f57986a504a","ios":"levelo://app?vid=f6b0e988-0f2c-406e-b522-1f57986a504a"},"vehicle_type_id":"4","last_reported":1751981244,"current_range_meters":8000,"station_id":"ce4bhg12rcd13ifvqf80","pricing_plan_id":"cebpf4jnsgd1na2vs0mg"},{"bike_id":"a177d90b-566f-413a-91bb-13fbc5ecf461","system_id":"levelo_inurba_marseille","lat":43.262056,"lon":5.379317,"is_reserved":false,"is_disabled":false,"rental_uris":{"android":"levelo://app?vid=a177d90b-566f-413a-91bb-13fbc5ecf461","ios":"levelo://app?vid=a177d90b-566f-413a-91bb-13fbc5ecf461"},"vehicle_type_id":"4","last_reported":1751981244,"current_range_meters":8000,"station_id":"ce4bhjp2rcd13ifvqg90","pricing_plan_id":"cebpf4jnsgd1na2vs0mg"},{"bike_id":"5b4c9824-ed04-48a9-95ad-8e351b024e1d","system_id":"levelo_inurba_marseille","lat":43.28481,"lon":5.38418,"is_reserved":false,"is_disabled":false,"rental_uris":{"android":"levelo://app?vid=5b4c9824-ed04-48a9-95ad-8e351b024e1d","ios":"levelo://app?vid=5b4c9824-ed04-48a9-95ad-8e351b024e1d"},"vehicle_type_id":"4","last_reported":1751981244,"current_range_meters":8400,"station_id":"ce4bh512rcd13ifvqe3g","pricing_plan_id":"cebpf4jnsgd1na2vs0mg"},{"bike_id":"f386750a-c2ec-4f5d-9a50-0178b32ef1fc","system_id":"levelo_inurba_marseille","lat":43.29007,"lon":5.35609,"is_reserved":false,"is_disabled":false,"rental_uris":{"android":"levelo://app?vid=f386750a-c2ec-4f5d-9a50-0178b32ef1fc","ios":"levelo://app?vid=f386750a-c2ec-4f5d-9a50-0178b32ef1fc"},"vehicle_type_id":"4","last_reported":1751981244,"current_range_meters":8400,"station_id":"ce4bhb92rcd13ifvqen0","pricing_plan_id":"cebpf4jnsgd1na2vs0mg"},{"bike_id":"35165e0f-c1bb-4604-8e8e-457cf53840b4","system_id":"levelo_inurba_marseille","lat":43.27325,"lon":5.39103,"is_reserved":false,"is_disabled":false,"rental_uris":{"android":"levelo://app?vid=35165e0f-c1bb-4604-8e8e-457cf53840b4","ios":"levelo://app?vid=35165e0f-c1bb-4604-8e8e-457cf53840b4"},"vehicle_type_id":"4","last_reported":1751981244,"current_range_meters":8400,"station_id":"ce4bhgp2rcd13ifvqfe0","pricing_plan_id":"cebpf4jnsgd1na2vs0mg"},{"bike_id":"4393d324-1b0f-47e3-998a-8deecfe61a0f","system_id":"levelo_inurba_marseille","lat":43.262016,"lon":5.379347,"is_reserved":false,"is_disabled":false,"rental_uris":{"android":"levelo://app?vid=4393d324-1b0f-47e3-998a-8deecfe61a0f","ios":"levelo://app?vid=4393d324-1b0f-47e3-998a-8deecfe61a0f"},"vehicle_type_id":"4","last_reported":1751981244,"current_range_meters":8400,"station_id":"ce4bhjp2rcd13ifvqg90","pricing_plan_id":"cebpf4jnsgd1na2vs0mg"},{"bike_id":"6be72918-3cd2-4aad-b445-794042e160be","system_id":"levelo_inurba_marseille","lat":43.23189,"lon":5.39985,"is_reserved":false,"is_disabled":false,"rental_uris":{"android":"levelo://app?vid=6be72918-3cd2-4aad-b445-794042e160be","ios":"levelo://app?vid=6be72918-3cd2-4aad-b445-794042e160be"},"vehicle_type_id":"4","last_reported":1751981244,"current_range_meters":8400,"station_id":"ce4bhn12rcd13ifvqgqg","pricing_plan_id":"cebpf4jnsgd1na2vs0mg"},{"bike_id":"625cf6e2-53ad-48e8-8f2b-c97a61b545be","system_id":"levelo_inurba_marseille","lat":43.23167,"lon":5.40015,"is_reserved":false,"is_disabled":false,"rental_uris":{"android":"levelo://app?vid=625cf6e2-53ad-48e8-8f2b-c97a61b545be","ios":"levelo://app?vid=625cf6e2-53ad-48e8-8f2b-c97a61b545be"},"vehicle_type_id":"4","last_reported":1751981244,"current_range_meters":8400,"station_id":"ce4bhn12rcd13ifvqgqg","pricing_plan_id":"cebpf4jnsgd1na2vs0mg"},{"bike_id":"730acc7c-d5c8-4dfa-992b-6204d9203e70","system_id":"levelo_inurba_marseille","lat":43.32056,"lon":5.41541,"is_reserved":false,"is_disabled":false,"rental_uris":{"android":"levelo://app?vid=730acc7c-d5c8-4dfa-992b-6204d9203e70","ios":"levelo://app?vid=730acc7c-d5c8-4dfa-992b-6204d9203e70"},"vehicle_type_id":"4","last_reported":1751981244,"current_range_meters":8400,"station_id":"ce4bhq92rcd13ifvqhkg","pricing_plan_id":"cebpf4jnsgd1na2vs0mg"},{"bike_id":"bd220533-a4a2-4b36-bceb-c92454162b9c","system_id":"levelo_inurba_marseille","lat":43.29256,"lon":5.40904,"is_reserved":false,"is_disabled":false,"rental_uris":{"android":"levelo://app?vid=bd220533-a4a2-4b36-bceb-c92454162b9c","ios":"levelo://app?vid=bd220533-a4a2-4b36-bceb-c92454162b9c"},"vehicle_type_id":"4","last_reported":1751981244,"current_range_meters":8800,"station_id":"ce4bh192rcd13ifvqdc0","pricing_plan_id":"cebpf4jnsgd1na2vs0mg"},{"bike_id":"e3069ed6-1bf3-4800-bb3b-037e2a6e0ccd","system_id":"levelo_inurba_marseille","lat":43.28408,"lon":5.37521,"is_reserved":false,"is_disabled":false,"rental_uris":{"android":"levelo://app?vid=e3069ed6-1bf3-4800-bb3b-037e2a6e0ccd","ios":"levelo://app?vid=e3069ed6-1bf3-4800-bb3b-037e2a6e0ccd"},"vehicle_type_id":"4","last_reported":1751981244,"current_range_meters":8800,"station_id":"ce4bh412rcd13ifvqds0","pricing_plan_id":"cebpf4jnsgd1na2vs0mg"},{"bike_id":"2c423baa-ecca-420a-87d7-ad0b7e0b9ebb","system_id":"levelo_inurba_marseille","lat":43.28039,"lon":5.35361,"is_reserved":false,"is_disabled":false,"rental_uris":{"android":"levelo://app?vid=2c423baa-ecca-420a-87d7-ad0b7e0b9ebb","ios":"levelo://app?vid=2c423baa-ecca-420a-87d7-ad0b7e0b9ebb"},"vehicle_type_id":"4","last_reported":1751981244,"current_range_meters":9200,"station_id":"","pricing_plan_id":"cebpf4jnsgd1na2vs0mg"},{"bike_id":"48082b34-fbbb-4a3e-8d10-0eb69300a24e","system_id":"levelo_inurba_marseille","lat":43.3078,"lon":5.376515,"is_reserved":false,"is_disabled":false,"rental_uris":{"android":"levelo://app?vid=48082b34-fbbb-4a3e-8d10-0eb69300a24e","ios":"levelo://app?vid=48082b34-fbbb-4a3e-8d10-0eb69300a24e"},"vehicle_type_id":"4","last_reported":1751981244,"current_range_meters":9200,"station_id":"ce4bgv92rcd13ifvqcq0","pricing_plan_id":"cebpf4jnsgd1na2vs0mg"},{"bike_id":"a70cfab5-f447-4d61-b80a-343a49825360","system_id":"levelo_inurba_marseille","lat":43.31706,"lon":5.37614,"is_reserved":false,"is_disabled":false,"rental_uris":{"android":"levelo://app?vid=a70cfab5-f447-4d61-b80a-343a49825360","ios":"levelo://app?vid=a70cfab5-f447-4d61-b80a-343a49825360"},"vehicle_type_id":"4","last_reported":1751981244,"current_range_meters":9600,"station_id":"","pricing_plan_id":"cebpf4jnsgd1na2vs0mg"},{"bike_id":"1beb9811-25b2-4378-9566-9af6e47206ed","system_id":"levelo_inurba_marseille","lat":43.30539,"lon":5.36517,"is_reserved":false,"is_disabled":false,"rental_uris":{"android":"levelo://app?vid=1beb9811-25b2-4378-9566-9af6e47206ed","ios":"levelo://app?vid=1beb9811-25b2-4378-9566-9af6e47206ed"},"vehicle_type_id":"4","last_reported":1751981244,"current_range_meters":9600,"station_id":"ce4bgs12rcd13ifvqcag","pricing_plan_id":"cebpf4jnsgd1na2vs0mg"},{"bike_id":"f8dc89b9-88e1-4d80-8f23-ae9007f5be9c","system_id":"levelo_inurba_marseille","lat":43.305467,"lon":5.36538,"is_reserved":false,"is_disabled":false,"rental_uris":{"android":"levelo://app?vid=f8dc89b9-88e1-4d80-8f23-ae9007f5be9c","ios":"levelo://app?vid=f8dc89b9-88e1-4d80-8f23-ae9007f5be9c"},"vehicle_type_id":"4","last_reported":1751981244,"current_range_meters":9600,"station_id":"ce4bgs12rcd13ifvqcag","pricing_plan_id":"cebpf4jnsgd1na2vs0mg"},{"bike_id":"b4074bce-94fe-4ab6-bec7-26f670adb100","system_id":"levelo_inurba_marseille","lat":43.30279,"lon":5.37713,"is_reserved":false,"is_disabled":false,"rental_uris":{"android":"levelo://app?vid=b4074bce-94fe-4ab6-bec7-26f670adb100","ios":"levelo://app?vid=b4074bce-94fe-4ab6-bec7-26f670adb100"},"vehicle_type_id":"4","last_reported":1751981244,"current_range_meters":9600,"station_id":"ce4bguh2rcd13ifvqcj0","pricing_plan_id":"cebpf4jnsgd1na2vs0mg"},{"bike_id":"2961f737-008d-4a4a-a091-50a1d41b86a2","system_id":"levelo_inurba_marseille","lat":43.27986,"lon":5.38696,"is_reserved":false,"is_disabled":false,"rental_uris":{"android":"levelo://app?vid=2961f737-008d-4a4a-a091-50a1d41b86a2","ios":"levelo://app?vid=2961f737-008d-4a4a-a091-50a1d41b86a2"},"vehicle_type_id":"4","last_reported":1751981244,"current_range_meters":9600,"station_id":"ce4bhg12rcd13ifvqf80","pricing_plan_id":"cebpf4jnsgd1na2vs0mg"},{"bike_id":"c25fd98d-ad81-4896-a1b4-4bcd19f38ec9","system_id":"levelo_inurba_marseille","lat":43.26212,"lon":5.37445,"is_reserved":false,"is_disabled":false,"rental_uris":{"android":"levelo://app?vid=c25fd98d-ad81-4896-a1b4-4bcd19f38ec9","ios":"levelo://app?vid=c25fd98d-ad81-4896-a1b4-4bcd19f38ec9"},"vehicle_type_id":"4","last_reported":1751981244,"current_range_meters":9600,"station_id":"ce4bhgp2rcd13ifvqfc0","pricing_plan_id":"cebpf4jnsgd1na2vs0mg"},{"bike_id":"d9af8011-b181-4105-8941-372c6f5279f6","system_id":"levelo_inurba_marseille","lat":43.25925,"lon":5.40907,"is_reserved":false,"is_disabled":false,"rental_uris":{"android":"levelo://app?vid=d9af8011-b181-4105-8941-372c6f5279f6","ios":"levelo://app?vid=d9af8011-b181-4105-8941-372c6f5279f6"},"vehicle_type_id":"4","last_reported":1751981244,"current_range_meters":9600,"station_id":"ce4bhm92rcd13ifvqglg","pricing_plan_id":"cebpf4jnsgd1na2vs0mg"},{"bike_id":"a31d7b1d-f875-4f27-b8f6-640a4ac62493","system_id":"levelo_inurba_marseille","lat":43.33734,"lon":5.39202,"is_reserved":false,"is_disabled":false,"rental_uris":{"android":"levelo://app?vid=a31d7b1d-f875-4f27-b8f6-640a4ac62493","ios":"levelo://app?vid=a31d7b1d-f875-4f27-b8f6-640a4ac62493"},"vehicle_type_id":"4","last_reported":1751981244,"current_range_meters":9600,"station_id":"ce4bhr92rcd13ifvqhsg","pricing_plan_id":"cebpf4jnsgd1na2vs0mg"},{"bike_id":"b59f07e3-a36f-4713-a7fe-ad89174796ea","system_id":"levelo_inurba_marseille","lat":43.29799,"lon":5.381,"is_reserved":false,"is_disabled":false,"rental_uris":{"android":"levelo://app?vid=b59f07e3-a36f-4713-a7fe-ad89174796ea","ios":"levelo://app?vid=b59f07e3-a36f-4713-a7fe-ad89174796ea"},"vehicle_type_id":"4","last_reported":1751981244,"current_range_meters":10000,"station_id":"ce4bgip2rcd13ifvqbb0","pricing_plan_id":"cebpf4jnsgd1na2vs0mg"},{"bike_id":"044e77fa-4679-4fa3-8c05-af8b0e584d50","system_id":"levelo_inurba_marseille","lat":43.31297,"lon":5.36724,"is_reserved":false,"is_disabled":false,"rental_uris":{"android":"levelo://app?vid=044e77fa-4679-4fa3-8c05-af8b0e584d50","ios":"levelo://app?vid=044e77fa-4679-4fa3-8c05-af8b0e584d50"},"vehicle_type_id":"4","last_reported":1751981244,"current_range_meters":10000,"station_id":"ce4bgr92rcd13ifvqc6g","pricing_plan_id":"cebpf4jnsgd1na2vs0mg"},{"bike_id":"50fe8f16-7b67-43df-8d85-b575609f03d7","system_id":"levelo_inurba_marseille","lat":43.29263,"lon":5.38438,"is_reserved":false,"is_disabled":false,"rental_uris":{"android":"levelo://app?vid=50fe8f16-7b67-43df-8d85-b575609f03d7","ios":"levelo://app?vid=50fe8f16-7b67-43df-8d85-b575609f03d7"},"vehicle_type_id":"4","last_reported":1751981244,"current_range_meters":10000,"station_id":"ce4bh692rcd13ifvqea0","pricing_plan_id":"cebpf4jnsgd1na2vs0mg"},{"bike_id":"1a096bfe-aa2d-48b0-9089-869ea6c51cb6","system_id":"levelo_inurba_marseille","lat":43.32668,"lon":5.40986,"is_reserved":false,"is_disabled":false,"rental_uris":{"android":"levelo://app?vid=1a096bfe-aa2d-48b0-9089-869ea6c51cb6","ios":"levelo://app?vid=1a096bfe-aa2d-48b0-9089-869ea6c51cb6"},"vehicle_type_id":"4","last_reported":1751981244,"current_range_meters":10000,"station_id":"ce4bhpp2rcd13ifvqhgg","pricing_plan_id":"cebpf4jnsgd1na2vs0mg"},{"bike_id":"3b221991-7468-432b-9817-59017df7fdd6","system_id":"levelo_inurba_marseille","lat":43.31268,"lon":5.40165,"is_reserved":false,"is_disabled":false,"rental_uris":{"android":"levelo://app?vid=3b221991-7468-432b-9817-59017df7fdd6","ios":"levelo://app?vid=3b221991-7468-432b-9817-59017df7fdd6"},"vehicle_type_id":"4","last_reported":1751981244,"current_range_meters":10800,"station_id":"ce4bh092rcd13ifvqd30","pricing_plan_id":"cebpf4jnsgd1na2vs0mg"},{"bike_id":"298ec104-135b-422b-8d68-86b06772e8b3","system_id":"levelo_inurba_marseille","lat":43.2175,"lon":5.34603,"is_reserved":false,"is_disabled":false,"rental_uris":{"android":"levelo://app?vid=298ec104-135b-422b-8d68-86b06772e8b3","ios":"levelo://app?vid=298ec104-135b-422b-8d68-86b06772e8b3"},"vehicle_type_id":"4","last_reported":1751981244,"current_range_meters":10800,"station_id":"st_cvj6r9ubvosntc0bgbag","pricing_plan_id":"cebpf4jnsgd1na2vs0mg"},{"bike_id":"373f7154-05e4-4923-8d21-eb4b99691656","system_id":"levelo_inurba_marseille","lat":43.31528,"lon":5.38671,"is_reserved":false,"is_disabled":false,"rental_uris":{"android":"levelo://app?vid=373f7154-05e4-4923-8d21-eb4b99691656","ios":"levelo://app?vid=373f7154-05e4-4923-8d21-eb4b99691656"},"vehicle_type_id":"4","last_reported":1751981244,"current_range_meters":11200,"station_id":"","pricing_plan_id":"cebpf4jnsgd1na2vs0mg"},{"bike_id":"e06a20dc-fc8c-426f-a3ff-3d5eb4e3cf56","system_id":"levelo_inurba_marseille","lat":43.2962,"lon":5.37166,"is_reserved":false,"is_disabled":false,"rental_uris":{"android":"levelo://app?vid=e06a20dc-fc8c-426f-a3ff-3d5eb4e3cf56","ios":"levelo://app?vid=e06a20dc-fc8c-426f-a3ff-3d5eb4e3cf56"},"vehicle_type_id":"4","last_reported":1751981244,"current_range_meters":11200,"station_id":"ce4bgnh2rcd13ifvqc0g","pricing_plan_id":"cebpf4jnsgd1na2vs0mg"},{"bike_id":"a9fd3e12-457b-4213-a7e1-b92703b095cb","system_id":"levelo_inurba_marseille","lat":43.27158,"lon":5.391998,"is_reserved":false,"is_disabled":false,"rental_uris":{"android":"levelo://app?vid=a9fd3e12-457b-4213-a7e1-b92703b095cb","ios":"levelo://app?vid=a9fd3e12-457b-4213-a7e1-b92703b095cb"},"vehicle_type_id":"4","last_reported":1751981244,"current_range_meters":11200,"station_id":"ce4bhnh2rcd13ifvqgtg","pricing_plan_id":"cebpf4jnsgd1na2vs0mg"},{"bike_id":"2090512e-543d-4a55-b888-2423e2f84234","system_id":"levelo_inurba_marseille","lat":43.24064,"lon":5.37726,"is_reserved":false,"is_disabled":false,"rental_uris":{"android":"levelo://app?vid=2090512e-543d-4a55-b888-2423e2f84234","ios":"levelo://app?vid=2090512e-543d-4a55-b888-2423e2f84234"},"vehicle_type_id":"4","last_reported":1751981244,"current_range_meters":11200,"station_id":"ce4bhnp2rcd13ifvqgvg","pricing_plan_id":"cebpf4jnsgd1na2vs0mg"},{"bike_id":"aeac7521-43dd-49a4-9400-0d497e5b5c56","system_id":"levelo_inurba_marseille","lat":43.28078,"lon":5.39662,"is_reserved":false,"is_disabled":false,"rental_uris":{"android":"levelo://app?vid=aeac7521-43dd-49a4-9400-0d497e5b5c56","ios":"levelo://app?vid=aeac7521-43dd-49a4-9400-0d497e5b5c56"},"vehicle_type_id":"4","last_reported":1751981244,"current_range_meters":11200,"station_id":"ce4bho12rcd13ifvqh2g","pricing_plan_id":"cebpf4jnsgd1na2vs0mg"},{"bike_id":"0e400d37-5159-4e46-912d-62ee145e4a44","system_id":"levelo_inurba_marseille","lat":43.32674,"lon":5.40979,"is_reserved":false,"is_disabled":false,"rental_uris":{"android":"levelo://app?vid=0e400d37-5159-4e46-912d-62ee145e4a44","ios":"levelo://app?vid=0e400d37-5159-4e46-912d-62ee145e4a44"},"vehicle_type_id":"4","last_reported":1751981244,"current_range_meters":11200,"station_id":"ce4bhpp2rcd13ifvqhgg","pricing_plan_id":"cebpf4jnsgd1na2vs0mg"},{"bike_id":"98f46642-8fdc-43be-8379-a5bf33d8441b","system_id":"levelo_inurba_marseille","lat":43.2119,"lon":5.35071,"is_reserved":false,"is_disabled":false,"rental_uris":{"android":"levelo://app?vid=98f46642-8fdc-43be-8379-a5bf33d8441b","ios":"levelo://app?vid=98f46642-8fdc-43be-8379-a5bf33d8441b"},"vehicle_type_id":"4","last_reported":1751981244,"current_range_meters":11200,"station_id":"st_cvj6sg6p6f1abm77japg","pricing_plan_id":"cebpf4jnsgd1na2vs0mg"},{"bike_id":"c2ee7d66-374b-44cd-b9d7-9ad64301293b","system_id":"levelo_inurba_marseille","lat":43.33774,"lon":5.37456,"is_reserved":false,"is_disabled":false,"rental_uris":{"android":"levelo://app?vid=c2ee7d66-374b-44cd-b9d7-9ad64301293b","ios":"levelo://app?vid=c2ee7d66-374b-44cd-b9d7-9ad64301293b"},"vehicle_type_id":"4","last_reported":1751981244,"current_range_meters":11600,"station_id":"","pricing_plan_id":"cebpf4jnsgd1na2vs0mg"},{"bike_id":"8696ae5c-7046-4b80-b671-54f1f745fe73","system_id":"levelo_inurba_marseille","lat":43.26207,"lon":5.37928,"is_reserved":false,"is_disabled":false,"rental_uris":{"android":"levelo://app?vid=8696ae5c-7046-4b80-b671-54f1f745fe73","ios":"levelo://app?vid=8696ae5c-7046-4b80-b671-54f1f745fe73"},"vehicle_type_id":"4","last_reported":1751981244,"current_range_meters":11600,"station_id":"ce4bhjp2rcd13ifvqg90","pricing_plan_id":"cebpf4jnsgd1na2vs0mg"},{"bike_id":"361c5398-2978-4873-882e-a3172612449b","system_id":"levelo_inurba_marseille","lat":43.26217,"lon":5.40428,"is_reserved":false,"is_disabled":false,"rental_uris":{"android":"levelo://app?vid=361c5398-2978-4873-882e-a3172612449b","ios":"levelo://app?vid=361c5398-2978-4873-882e-a3172612449b"},"vehicle_type_id":"4","last_reported":1751981244,"current_range_meters":11600,"station_id":"ce4bhmh2rcd13ifvqgmg","pricing_plan_id":"cebpf4jnsgd1na2vs0mg"},{"bike_id":"558c27cf-0296-44ad-81a4-527b14fd9bdb","system_id":"levelo_inurba_marseille","lat":43.3137,"lon":5.367415,"is_reserved":false,"is_disabled":false,"rental_uris":{"android":"levelo://app?vid=558c27cf-0296-44ad-81a4-527b14fd9bdb","ios":"levelo://app?vid=558c27cf-0296-44ad-81a4-527b14fd9bdb"},"vehicle_type_id":"4","last_reported":1751981244,"current_range_meters":12000,"station_id":"ce4bgr92rcd13ifvqc6g","pricing_plan_id":"cebpf4jnsgd1na2vs0mg"},{"bike_id":"f940b955-f1f7-4edb-b570-18bd2ae50eba","system_id":"levelo_inurba_marseille","lat":43.29475,"lon":5.39045,"is_reserved":false,"is_disabled":false,"rental_uris":{"android":"levelo://app?vid=f940b955-f1f7-4edb-b570-18bd2ae50eba","ios":"levelo://app?vid=f940b955-f1f7-4edb-b570-18bd2ae50eba"},"vehicle_type_id":"4","last_reported":1751981244,"current_range_meters":12000,"station_id":"ce4bh3p2rcd13ifvqdp0","pricing_plan_id":"cebpf4jnsgd1na2vs0mg"},{"bike_id":"ef37d4e2-0ac0-46be-951e-4995a78ba684","system_id":"levelo_inurba_marseille","lat":43.25493,"lon":5.3765,"is_reserved":false,"is_disabled":false,"rental_uris":{"android":"levelo://app?vid=ef37d4e2-0ac0-46be-951e-4995a78ba684","ios":"levelo://app?vid=ef37d4e2-0ac0-46be-951e-4995a78ba684"},"vehicle_type_id":"4","last_reported":1751981244,"current_range_meters":12000,"station_id":"ce4bhh12rcd13ifvqff0","pricing_plan_id":"cebpf4jnsgd1na2vs0mg"},{"bike_id":"d0c5d792-0761-4141-a0b1-6f288f3c6fc1","system_id":"levelo_inurba_marseille","lat":43.271884,"lon":5.392147,"is_reserved":false,"is_disabled":false,"rental_uris":{"android":"levelo://app?vid=d0c5d792-0761-4141-a0b1-6f288f3c6fc1","ios":"levelo://app?vid=d0c5d792-0761-4141-a0b1-6f288f3c6fc1"},"vehicle_type_id":"4","last_reported":1751981244,"current_range_meters":12000,"station_id":"ce4bhhp2rcd13ifvqfm0","pricing_plan_id":"cebpf4jnsgd1na2vs0mg"},{"bike_id":"910e7672-d724-4195-a4e9-ffc3ceef0d80","system_id":"levelo_inurba_marseille","lat":43.307937,"lon":5.435224,"is_reserved":false,"is_disabled":false,"rental_uris":{"android":"levelo://app?vid=910e7672-d724-4195-a4e9-ffc3ceef0d80","ios":"levelo://app?vid=910e7672-d724-4195-a4e9-ffc3ceef0d80"},"vehicle_type_id":"4","last_reported":1751981244,"current_range_meters":12000,"station_id":"ce4bhph2rcd13ifvqheg","pricing_plan_id":"cebpf4jnsgd1na2vs0mg"},{"bike_id":"e54a69bc-634c-4579-91a1-2ea1e7521c68","system_id":"levelo_inurba_marseille","lat":43.30136,"lon":5.37216,"is_reserved":false,"is_disabled":false,"rental_uris":{"android":"levelo://app?vid=e54a69bc-634c-4579-91a1-2ea1e7521c68","ios":"levelo://app?vid=e54a69bc-634c-4579-91a1-2ea1e7521c68"},"vehicle_type_id":"4","last_reported":1751981244,"current_range_meters":12400,"station_id":"","pricing_plan_id":"cebpf4jnsgd1na2vs0mg"},{"bike_id":"6ffc31bf-be63-440b-8353-4ff83386083b","system_id":"levelo_inurba_marseille","lat":43.29842,"lon":5.36402,"is_reserved":false,"is_disabled":false,"rental_uris":{"android":"levelo://app?vid=6ffc31bf-be63-440b-8353-4ff83386083b","ios":"levelo://app?vid=6ffc31bf-be63-440b-8353-4ff83386083b"},"vehicle_type_id":"4","last_reported":1751981244,"current_range_meters":12400,"station_id":"","pricing_plan_id":"cebpf4jnsgd1na2vs0mg"},{"bike_id":"888522e3-39b6-4ff3-ad74-ff6c6f771157","system_id":"levelo_inurba_marseille","lat":43.29503,"lon":5.40271,"is_reserved":false,"is_disabled":false,"rental_uris":{"android":"levelo://app?vid=888522e3-39b6-4ff3-ad74-ff6c6f771157","ios":"levelo://app?vid=888522e3-39b6-4ff3-ad74-ff6c6f771157"},"vehicle_type_id":"4","last_reported":1751981244,"current_range_meters":12400,"station_id":"","pricing_plan_id":"cebpf4jnsgd1na2vs0mg"},{"bike_id":"da5bf823-9235-4eab-86bd-acf46c146b10","system_id":"levelo_inurba_marseille","lat":43.30896,"lon":5.37188,"is_reserved":false,"is_disabled":false,"rental_uris":{"android":"levelo://app?vid=da5bf823-9235-4eab-86bd-acf46c146b10","ios":"levelo://app?vid=da5bf823-9235-4eab-86bd-acf46c146b10"},"vehicle_type_id":"4","last_reported":1751981244,"current_range_meters":12400,"station_id":"ce4bguh2rcd13ifvqckg","pricing_plan_id":"cebpf4jnsgd1na2vs0mg"},{"bike_id":"bc91ac3b-909c-48b6-951a-ecee23e820fe","system_id":"levelo_inurba_marseille","lat":43.30601,"lon":5.37234,"is_reserved":false,"is_disabled":false,"rental_uris":{"android":"levelo://app?vid=bc91ac3b-909c-48b6-951a-ecee23e820fe","ios":"levelo://app?vid=bc91ac3b-909c-48b6-951a-ecee23e820fe"},"vehicle_type_id":"4","last_reported":1751981244,"current_range_meters":12800,"station_id":"ce4bgqh2rcd13ifvqc4g","pricing_plan_id":"cebpf4jnsgd1na2vs0mg"},{"bike_id":"65c1170e-7584-49a6-9924-5b5fa939d71d","system_id":"levelo_inurba_marseille","lat":43.29437,"lon":5.39748,"is_reserved":false,"is_disabled":false,"rental_uris":{"android":"levelo://app?vid=65c1170e-7584-49a6-9924-5b5fa939d71d","ios":"levelo://app?vid=65c1170e-7584-49a6-9924-5b5fa939d71d"},"vehicle_type_id":"4","last_reported":1751981244,"current_range_meters":12800,"station_id":"ce4bh3h2rcd13ifvqdo0","pricing_plan_id":"cebpf4jnsgd1na2vs0mg"},{"bike_id":"42c7c65d-b271-44a1-b22a-db3e0f69a5e8","system_id":"levelo_inurba_marseille","lat":43.28662,"lon":5.38659,"is_reserved":false,"is_disabled":false,"rental_uris":{"android":"levelo://app?vid=42c7c65d-b271-44a1-b22a-db3e0f69a5e8","ios":"levelo://app?vid=42c7c65d-b271-44a1-b22a-db3e0f69a5e8"},"vehicle_type_id":"4","last_reported":1751981244,"current_range_meters":12800,"station_id":"ce4bh492rcd13ifvqdug","pricing_plan_id":"cebpf4jnsgd1na2vs0mg"},{"bike_id":"624cb722-0a96-4b62-8eb0-82852e21331a","system_id":"levelo_inurba_marseille","lat":43.28999,"lon":5.37821,"is_reserved":false,"is_disabled":false,"rental_uris":{"android":"levelo://app?vid=624cb722-0a96-4b62-8eb0-82852e21331a","ios":"levelo://app?vid=624cb722-0a96-4b62-8eb0-82852e21331a"},"vehicle_type_id":"4","last_reported":1751981244,"current_range_meters":12800,"station_id":"ce4bh9p2rcd13ifvqed0","pricing_plan_id":"cebpf4jnsgd1na2vs0mg"},{"bike_id":"a3653a29-bef8-4d42-8540-9b2bbd5cd893","system_id":"levelo_inurba_marseille","lat":43.324813,"lon":5.365707,"is_reserved":false,"is_disabled":false,"rental_uris":{"android":"levelo://app?vid=a3653a29-bef8-4d42-8540-9b2bbd5cd893","ios":"levelo://app?vid=a3653a29-bef8-4d42-8540-9b2bbd5cd893"},"vehicle_type_id":"4","last_reported":1751981244,"current_range_meters":12800,"station_id":"ce4bhs12rcd13ifvqhvg","pricing_plan_id":"cebpf4jnsgd1na2vs0mg"},{"bike_id":"587f984b-f5a0-4719-8b26-6ce9e8d8382d","system_id":"levelo_inurba_marseille","lat":43.21193,"lon":5.3507,"is_reserved":false,"is_disabled":false,"rental_uris":{"android":"levelo://app?vid=587f984b-f5a0-4719-8b26-6ce9e8d8382d","ios":"levelo://app?vid=587f984b-f5a0-4719-8b26-6ce9e8d8382d"},"vehicle_type_id":"4","last_reported":1751981244,"current_range_meters":12800,"station_id":"st_cvj6sg6p6f1abm77japg","pricing_plan_id":"cebpf4jnsgd1na2vs0mg"},{"bike_id":"c481d05e-a9c3-47d6-9114-ee8028f5c36a","system_id":"levelo_inurba_marseille","lat":43.28455,"lon":5.38432,"is_reserved":false,"is_disabled":false,"rental_uris":{"android":"levelo://app?vid=c481d05e-a9c3-47d6-9114-ee8028f5c36a","ios":"levelo://app?vid=c481d05e-a9c3-47d6-9114-ee8028f5c36a"},"vehicle_type_id":"4","last_reported":1751981244,"current_range_meters":13600,"station_id":"ce4bh512rcd13ifvqe3g","pricing_plan_id":"cebpf4jnsgd1na2vs0mg"},{"bike_id":"058fd885-773e-49c6-a92f-fa9bee67cf1a","system_id":"levelo_inurba_marseille","lat":43.28465,"lon":5.35884,"is_reserved":false,"is_disabled":false,"rental_uris":{"android":"levelo://app?vid=058fd885-773e-49c6-a92f-fa9bee67cf1a","ios":"levelo://app?vid=058fd885-773e-49c6-a92f-fa9bee67cf1a"},"vehicle_type_id":"4","last_reported":1751981244,"current_range_meters":13600,"station_id":"ce4bhah2rcd13ifvqei0","pricing_plan_id":"cebpf4jnsgd1na2vs0mg"},{"bike_id":"82f40aca-214c-480a-99d7-4df294448107","system_id":"levelo_inurba_marseille","lat":43.254894,"lon":5.376452,"is_reserved":false,"is_disabled":false,"rental_uris":{"android":"levelo://app?vid=82f40aca-214c-480a-99d7-4df294448107","ios":"levelo://app?vid=82f40aca-214c-480a-99d7-4df294448107"},"vehicle_type_id":"4","last_reported":1751981244,"current_range_meters":13600,"station_id":"ce4bhh12rcd13ifvqff0","pricing_plan_id":"cebpf4jnsgd1na2vs0mg"},{"bike_id":"b287377f-3d0b-47ac-86fe-9e0dfc1563de","system_id":"levelo_inurba_marseille","lat":43.22502,"lon":5.3477,"is_reserved":false,"is_disabled":false,"rental_uris":{"android":"levelo://app?vid=b287377f-3d0b-47ac-86fe-9e0dfc1563de","ios":"levelo://app?vid=b287377f-3d0b-47ac-86fe-9e0dfc1563de"},"vehicle_type_id":"4","last_reported":1751981244,"current_range_meters":13600,"station_id":"st_cvj5dfep6f1abm77gieg","pricing_plan_id":"cebpf4jnsgd1na2vs0mg"},{"bike_id":"d5ef770d-9759-47e3-b3a5-7d2785ef76db","system_id":"levelo_inurba_marseille","lat":43.32929,"lon":5.39031,"is_reserved":false,"is_disabled":false,"rental_uris":{"android":"levelo://app?vid=d5ef770d-9759-47e3-b3a5-7d2785ef76db","ios":"levelo://app?vid=d5ef770d-9759-47e3-b3a5-7d2785ef76db"},"vehicle_type_id":"4","last_reported":1751981244,"current_range_meters":14000,"station_id":"","pricing_plan_id":"cebpf4jnsgd1na2vs0mg"},{"bike_id":"e07099cc-ccdf-4511-aa53-76cc8d902771","system_id":"levelo_inurba_marseille","lat":43.2899,"lon":5.35614,"is_reserved":false,"is_disabled":false,"rental_uris":{"android":"levelo://app?vid=e07099cc-ccdf-4511-aa53-76cc8d902771","ios":"levelo://app?vid=e07099cc-ccdf-4511-aa53-76cc8d902771"},"vehicle_type_id":"4","last_reported":1751981244,"current_range_meters":14000,"station_id":"ce4bhb92rcd13ifvqen0","pricing_plan_id":"cebpf4jnsgd1na2vs0mg"},{"bike_id":"77c63ecf-8ec4-46ab-b695-3fed0ff0fb70","system_id":"levelo_inurba_marseille","lat":43.29903,"lon":5.43674,"is_reserved":false,"is_disabled":false,"rental_uris":{"android":"levelo://app?vid=77c63ecf-8ec4-46ab-b695-3fed0ff0fb70","ios":"levelo://app?vid=77c63ecf-8ec4-46ab-b695-3fed0ff0fb70"},"vehicle_type_id":"4","last_reported":1751981244,"current_range_meters":14000,"station_id":"ce4bhpp2rcd13ifvqhfg","pricing_plan_id":"cebpf4jnsgd1na2vs0mg"},{"bike_id":"22810e77-3886-4fde-9f3f-76150db17e17","system_id":"levelo_inurba_marseille","lat":43.23193,"lon":5.35561,"is_reserved":false,"is_disabled":false,"rental_uris":{"android":"levelo://app?vid=22810e77-3886-4fde-9f3f-76150db17e17","ios":"levelo://app?vid=22810e77-3886-4fde-9f3f-76150db17e17"},"vehicle_type_id":"4","last_reported":1751981244,"current_range_meters":14000,"station_id":"ce4bhu92rcd13ifvqi70","pricing_plan_id":"cebpf4jnsgd1na2vs0mg"},{"bike_id":"afd2c671-b274-4716-95f7-9abfdfc6dc55","system_id":"levelo_inurba_marseille","lat":43.31382,"lon":5.37561,"is_reserved":false,"is_disabled":false,"rental_uris":{"android":"levelo://app?vid=afd2c671-b274-4716-95f7-9abfdfc6dc55","ios":"levelo://app?vid=afd2c671-b274-4716-95f7-9abfdfc6dc55"},"vehicle_type_id":"4","last_reported":1751981244,"current_range_meters":14400,"station_id":"","pricing_plan_id":"cebpf4jnsgd1na2vs0mg"},{"bike_id":"cc233e37-29e8-4861-89b7-694fc9eea2af","system_id":"levelo_inurba_marseille","lat":43.30571,"lon":5.36528,"is_reserved":false,"is_disabled":false,"rental_uris":{"android":"levelo://app?vid=cc233e37-29e8-4861-89b7-694fc9eea2af","ios":"levelo://app?vid=cc233e37-29e8-4861-89b7-694fc9eea2af"},"vehicle_type_id":"4","last_reported":1751981244,"current_range_meters":14400,"station_id":"ce4bgs12rcd13ifvqcag","pricing_plan_id":"cebpf4jnsgd1na2vs0mg"},{"bike_id":"88bdd5e4-407e-4475-b50d-41526c3101a1","system_id":"levelo_inurba_marseille","lat":43.300031,"lon":5.375791,"is_reserved":false,"is_disabled":false,"rental_uris":{"android":"levelo://app?vid=88bdd5e4-407e-4475-b50d-41526c3101a1","ios":"levelo://app?vid=88bdd5e4-407e-4475-b50d-41526c3101a1"},"vehicle_type_id":"4","last_reported":1751981244,"current_range_meters":14400,"station_id":"ce4bguh2rcd13ifvqcj0","pricing_plan_id":"cebpf4jnsgd1na2vs0mg"},{"bike_id":"589ab234-675a-4d9a-b49f-995a3ed33c18","system_id":"levelo_inurba_marseille","lat":43.3078,"lon":5.3765,"is_reserved":false,"is_disabled":false,"rental_uris":{"android":"levelo://app?vid=589ab234-675a-4d9a-b49f-995a3ed33c18","ios":"levelo://app?vid=589ab234-675a-4d9a-b49f-995a3ed33c18"},"vehicle_type_id":"4","last_reported":1751981244,"current_range_meters":14400,"station_id":"ce4bgv92rcd13ifvqcq0","pricing_plan_id":"cebpf4jnsgd1na2vs0mg"},{"bike_id":"673b6816-b47b-4273-b53c-28fe32f5b2af","system_id":"levelo_inurba_marseille","lat":43.303131,"lon":5.40439,"is_reserved":false,"is_disabled":false,"rental_uris":{"android":"levelo://app?vid=673b6816-b47b-4273-b53c-28fe32f5b2af","ios":"levelo://app?vid=673b6816-b47b-4273-b53c-28fe32f5b2af"},"vehicle_type_id":"4","last_reported":1751981244,"current_range_meters":14400,"station_id":"ce4bh012rcd13ifvqd10","pricing_plan_id":"cebpf4jnsgd1na2vs0mg"},{"bike_id":"94ee0226-6045-4461-a167-18aa1f20956e","system_id":"levelo_inurba_marseille","lat":43.28409,"lon":5.37514,"is_reserved":false,"is_disabled":false,"rental_uris":{"android":"levelo://app?vid=94ee0226-6045-4461-a167-18aa1f20956e","ios":"levelo://app?vid=94ee0226-6045-4461-a167-18aa1f20956e"},"vehicle_type_id":"4","last_reported":1751981244,"current_range_meters":14400,"station_id":"ce4bh412rcd13ifvqds0","pricing_plan_id":"cebpf4jnsgd1na2vs0mg"},{"bike_id":"f5c5d48c-b7cf-48a8-84f0-a80044871d04","system_id":"levelo_inurba_marseille","lat":43.264907,"lon":5.395394,"is_reserved":false,"is_disabled":false,"rental_uris":{"android":"levelo://app?vid=f5c5d48c-b7cf-48a8-84f0-a80044871d04","ios":"levelo://app?vid=f5c5d48c-b7cf-48a8-84f0-a80044871d04"},"vehicle_type_id":"4","last_reported":1751981244,"current_range_meters":14800,"station_id":"","pricing_plan_id":"cebpf4jnsgd1na2vs0mg"},{"bike_id":"87c2d236-4978-4760-be77-27d7f5a212e4","system_id":"levelo_inurba_marseille","lat":43.29644,"lon":5.36205,"is_reserved":false,"is_disabled":false,"rental_uris":{"android":"levelo://app?vid=87c2d236-4978-4760-be77-27d7f5a212e4","ios":"levelo://app?vid=87c2d236-4978-4760-be77-27d7f5a212e4"},"vehicle_type_id":"4","last_reported":1751981244,"current_range_meters":14800,"station_id":"","pricing_plan_id":"cebpf4jnsgd1na2vs0mg"},{"bike_id":"6d27f62a-3b81-48b7-8488-8336488e548f","system_id":"levelo_inurba_marseille","lat":43.29258,"lon":5.40899,"is_reserved":false,"is_disabled":false,"rental_uris":{"android":"levelo://app?vid=6d27f62a-3b81-48b7-8488-8336488e548f","ios":"levelo://app?vid=6d27f62a-3b81-48b7-8488-8336488e548f"},"vehicle_type_id":"4","last_reported":1751981244,"current_range_meters":14800,"station_id":"ce4bh192rcd13ifvqdc0","pricing_plan_id":"cebpf4jnsgd1na2vs0mg"},{"bike_id":"8b6556f0-b1a0-495a-9af8-2f63475c8a21","system_id":"levelo_inurba_marseille","lat":43.28705,"lon":5.37398,"is_reserved":false,"is_disabled":false,"rental_uris":{"android":"levelo://app?vid=8b6556f0-b1a0-495a-9af8-2f63475c8a21","ios":"levelo://app?vid=8b6556f0-b1a0-495a-9af8-2f63475c8a21"},"vehicle_type_id":"4","last_reported":1751981244,"current_range_meters":14800,"station_id":"ce4bh3p2rcd13ifvqdq0","pricing_plan_id":"cebpf4jnsgd1na2vs0mg"},{"bike_id":"6f1e3c55-b20b-4960-b0ea-8745d2af9fab","system_id":"levelo_inurba_marseille","lat":43.24545,"lon":5.39527,"is_reserved":false,"is_disabled":false,"rental_uris":{"android":"levelo://app?vid=6f1e3c55-b20b-4960-b0ea-8745d2af9fab","ios":"levelo://app?vid=6f1e3c55-b20b-4960-b0ea-8745d2af9fab"},"vehicle_type_id":"4","last_reported":1751981244,"current_range_meters":14800,"station_id":"ce4bhlp2rcd13ifvqgjg","pricing_plan_id":"cebpf4jnsgd1na2vs0mg"},{"bike_id":"a3a3043d-c808-4263-8f68-f97fde7e86c0","system_id":"levelo_inurba_marseille","lat":43.30079,"lon":5.38067,"is_reserved":false,"is_disabled":false,"rental_uris":{"android":"levelo://app?vid=a3a3043d-c808-4263-8f68-f97fde7e86c0","ios":"levelo://app?vid=a3a3043d-c808-4263-8f68-f97fde7e86c0"},"vehicle_type_id":"4","last_reported":1751981244,"current_range_meters":15200,"station_id":"","pricing_plan_id":"cebpf4jnsgd1na2vs0mg"},{"bike_id":"940f04f4-5dec-4ff8-8d1b-fd8eb1722f45","system_id":"levelo_inurba_marseille","lat":43.27494,"lon":5.4245,"is_reserved":false,"is_disabled":false,"rental_uris":{"android":"levelo://app?vid=940f04f4-5dec-4ff8-8d1b-fd8eb1722f45","ios":"levelo://app?vid=940f04f4-5dec-4ff8-8d1b-fd8eb1722f45"},"vehicle_type_id":"4","last_reported":1751981244,"current_range_meters":15200,"station_id":"ce4bhn92rcd13ifvqgrg","pricing_plan_id":"cebpf4jnsgd1na2vs0mg"},{"bike_id":"def02f4e-f795-415c-a597-1b2cc2f1e8ea","system_id":"levelo_inurba_marseille","lat":43.30373,"lon":5.42491,"is_reserved":false,"is_disabled":false,"rental_uris":{"android":"levelo://app?vid=def02f4e-f795-415c-a597-1b2cc2f1e8ea","ios":"levelo://app?vid=def02f4e-f795-415c-a597-1b2cc2f1e8ea"},"vehicle_type_id":"4","last_reported":1751981244,"current_range_meters":15200,"station_id":"ce4bhoh2rcd13ifvqh6g","pricing_plan_id":"cebpf4jnsgd1na2vs0mg"},{"bike_id":"3030cb07-c041-4d87-a253-8c849c24aa85","system_id":"levelo_inurba_marseille","lat":43.32633,"lon":5.36227,"is_reserved":false,"is_disabled":false,"rental_uris":{"android":"levelo://app?vid=3030cb07-c041-4d87-a253-8c849c24aa85","ios":"levelo://app?vid=3030cb07-c041-4d87-a253-8c849c24aa85"},"vehicle_type_id":"4","last_reported":1751981244,"current_range_meters":16000,"station_id":"","pricing_plan_id":"cebpf4jnsgd1na2vs0mg"},{"bike_id":"13c84df3-55fc-4465-b582-17389625d267","system_id":"levelo_inurba_marseille","lat":43.26008,"lon":5.41759,"is_reserved":false,"is_disabled":false,"rental_uris":{"android":"levelo://app?vid=13c84df3-55fc-4465-b582-17389625d267","ios":"levelo://app?vid=13c84df3-55fc-4465-b582-17389625d267"},"vehicle_type_id":"4","last_reported":1751981244,"current_range_meters":16000,"station_id":"","pricing_plan_id":"cebpf4jnsgd1na2vs0mg"},{"bike_id":"41c10a1a-01a8-4305-98e2-8817b475b668","system_id":"levelo_inurba_marseille","lat":43.27619,"lon":5.36116,"is_reserved":false,"is_disabled":false,"rental_uris":{"android":"levelo://app?vid=41c10a1a-01a8-4305-98e2-8817b475b668","ios":"levelo://app?vid=41c10a1a-01a8-4305-98e2-8817b475b668"},"vehicle_type_id":"4","last_reported":1751981244,"current_range_meters":16000,"station_id":"ce4bgj92rcd13ifvqbe0","pricing_plan_id":"cebpf4jnsgd1na2vs0mg"},{"bike_id":"865797cd-3648-4678-90af-fdb3236e61f3","system_id":"levelo_inurba_marseille","lat":43.30523,"lon":5.36714,"is_reserved":false,"is_disabled":false,"rental_uris":{"android":"levelo://app?vid=865797cd-3648-4678-90af-fdb3236e61f3","ios":"levelo://app?vid=865797cd-3648-4678-90af-fdb3236e61f3"},"vehicle_type_id":"4","last_reported":1751981244,"current_range_meters":16000,"station_id":"ce4bgrp2rcd13ifvqc9g","pricing_plan_id":"cebpf4jnsgd1na2vs0mg"},{"bike_id":"4a414fc3-eddc-421b-aaa5-54ff4f0d1b7c","system_id":"levelo_inurba_marseille","lat":43.21744,"lon":5.34603,"is_reserved":false,"is_disabled":false,"rental_uris":{"android":"levelo://app?vid=4a414fc3-eddc-421b-aaa5-54ff4f0d1b7c","ios":"levelo://app?vid=4a414fc3-eddc-421b-aaa5-54ff4f0d1b7c"},"vehicle_type_id":"4","last_reported":1751981244,"current_range_meters":16400,"station_id":"","pricing_plan_id":"cebpf4jnsgd1na2vs0mg"},{"bike_id":"53aae479-7cb2-4d20-b9b4-84580ba6cf54","system_id":"levelo_inurba_marseille","lat":43.31692,"lon":5.40402,"is_reserved":false,"is_disabled":false,"rental_uris":{"android":"levelo://app?vid=53aae479-7cb2-4d20-b9b4-84580ba6cf54","ios":"levelo://app?vid=53aae479-7cb2-4d20-b9b4-84580ba6cf54"},"vehicle_type_id":"4","last_reported":1751981244,"current_range_meters":16400,"station_id":"ce4bh012rcd13ifvqd00","pricing_plan_id":"cebpf4jnsgd1na2vs0mg"},{"bike_id":"1209fe8a-e378-4741-a1ef-db96c2c0fe10","system_id":"levelo_inurba_marseille","lat":43.28465,"lon":5.3842,"is_reserved":false,"is_disabled":false,"rental_uris":{"android":"levelo://app?vid=1209fe8a-e378-4741-a1ef-db96c2c0fe10","ios":"levelo://app?vid=1209fe8a-e378-4741-a1ef-db96c2c0fe10"},"vehicle_type_id":"4","last_reported":1751981244,"current_range_meters":16400,"station_id":"ce4bh512rcd13ifvqe3g","pricing_plan_id":"cebpf4jnsgd1na2vs0mg"},{"bike_id":"dfed5170-dd30-4c34-b10d-0827cb5726cb","system_id":"levelo_inurba_marseille","lat":43.23193,"lon":5.39977,"is_reserved":false,"is_disabled":false,"rental_uris":{"android":"levelo://app?vid=dfed5170-dd30-4c34-b10d-0827cb5726cb","ios":"levelo://app?vid=dfed5170-dd30-4c34-b10d-0827cb5726cb"},"vehicle_type_id":"4","last_reported":1751981244,"current_range_meters":16400,"station_id":"ce4bhn12rcd13ifvqgqg","pricing_plan_id":"cebpf4jnsgd1na2vs0mg"},{"bike_id":"5c4b5e3c-3848-4dec-a708-48ef35c336f0","system_id":"levelo_inurba_marseille","lat":43.28698,"lon":5.39981,"is_reserved":false,"is_disabled":false,"rental_uris":{"android":"levelo://app?vid=5c4b5e3c-3848-4dec-a708-48ef35c336f0","ios":"levelo://app?vid=5c4b5e3c-3848-4dec-a708-48ef35c336f0"},"vehicle_type_id":"4","last_reported":1751981244,"current_range_meters":16400,"station_id":"ce4bho92rcd13ifvqh3g","pricing_plan_id":"cebpf4jnsgd1na2vs0mg"},{"bike_id":"a0967684-aa48-48c0-a325-5bbf21808b32","system_id":"levelo_inurba_marseille","lat":43.32455,"lon":5.36575,"is_reserved":false,"is_disabled":false,"rental_uris":{"android":"levelo://app?vid=a0967684-aa48-48c0-a325-5bbf21808b32","ios":"levelo://app?vid=a0967684-aa48-48c0-a325-5bbf21808b32"},"vehicle_type_id":"4","last_reported":1751981244,"current_range_meters":16400,"station_id":"ce4bhs12rcd13ifvqhvg","pricing_plan_id":"cebpf4jnsgd1na2vs0mg"},{"bike_id":"ea7df389-5dc0-4c58-88fe-80a5af035925","system_id":"levelo_inurba_marseille","lat":43.298446,"lon":5.364314,"is_reserved":false,"is_disabled":false,"rental_uris":{"android":"levelo://app?vid=ea7df389-5dc0-4c58-88fe-80a5af035925","ios":"levelo://app?vid=ea7df389-5dc0-4c58-88fe-80a5af035925"},"vehicle_type_id":"4","last_reported":1751981244,"current_range_meters":16800,"station_id":"","pricing_plan_id":"cebpf4jnsgd1na2vs0mg"},{"bike_id":"cc1052c0-915b-408c-930f-371f2aceeb5a","system_id":"levelo_inurba_marseille","lat":43.29802,"lon":5.38107,"is_reserved":false,"is_disabled":false,"rental_uris":{"android":"levelo://app?vid=cc1052c0-915b-408c-930f-371f2aceeb5a","ios":"levelo://app?vid=cc1052c0-915b-408c-930f-371f2aceeb5a"},"vehicle_type_id":"4","last_reported":1751981244,"current_range_meters":16800,"station_id":"ce4bgip2rcd13ifvqbb0","pricing_plan_id":"cebpf4jnsgd1na2vs0mg"},{"bike_id":"66540e04-318c-431d-b686-c1943a0ae406","system_id":"levelo_inurba_marseille","lat":43.29913,"lon":5.364999,"is_reserved":false,"is_disabled":false,"rental_uris":{"android":"levelo://app?vid=66540e04-318c-431d-b686-c1943a0ae406","ios":"levelo://app?vid=66540e04-318c-431d-b686-c1943a0ae406"},"vehicle_type_id":"4","last_reported":1751981244,"current_range_meters":16800,"station_id":"ce4bgm92rcd13ifvqbr0","pricing_plan_id":"cebpf4jnsgd1na2vs0mg"},{"bike_id":"59e44b76-cdf3-44bb-89d7-95cb0b3822d3","system_id":"levelo_inurba_marseille","lat":43.28726,"lon":5.37942,"is_reserved":false,"is_disabled":false,"rental_uris":{"android":"levelo://app?vid=59e44b76-cdf3-44bb-89d7-95cb0b3822d3","ios":"levelo://app?vid=59e44b76-cdf3-44bb-89d7-95cb0b3822d3"},"vehicle_type_id":"4","last_reported":1751981244,"current_range_meters":16800,"station_id":"ce4bh9p2rcd13ifvqec0","pricing_plan_id":"cebpf4jnsgd1na2vs0mg"},{"bike_id":"da9e0cc6-b739-410b-895b-cad8f90bf164","system_id":"levelo_inurba_marseille","lat":43.26168,"lon":5.37961,"is_reserved":false,"is_disabled":false,"rental_uris":{"android":"levelo://app?vid=da9e0cc6-b739-410b-895b-cad8f90bf164","ios":"levelo://app?vid=da9e0cc6-b739-410b-895b-cad8f90bf164"},"vehicle_type_id":"4","last_reported":1751981244,"current_range_meters":16800,"station_id":"ce4bhjp2rcd13ifvqg90","pricing_plan_id":"cebpf4jnsgd1na2vs0mg"},{"bike_id":"37ec3e6f-3faa-46d4-9e6e-2f26f1e904cd","system_id":"levelo_inurba_marseille","lat":43.27494,"lon":5.42447,"is_reserved":false,"is_disabled":false,"rental_uris":{"android":"levelo://app?vid=37ec3e6f-3faa-46d4-9e6e-2f26f1e904cd","ios":"levelo://app?vid=37ec3e6f-3faa-46d4-9e6e-2f26f1e904cd"},"vehicle_type_id":"4","last_reported":1751981244,"current_range_meters":16800,"station_id":"ce4bhn92rcd13ifvqgrg","pricing_plan_id":"cebpf4jnsgd1na2vs0mg"},{"bike_id":"2f82a57b-30f3-4db6-8d1b-a11f19eb1349","system_id":"levelo_inurba_marseille","lat":43.27483,"lon":5.42445,"is_reserved":false,"is_disabled":false,"rental_uris":{"android":"levelo://app?vid=2f82a57b-30f3-4db6-8d1b-a11f19eb1349","ios":"levelo://app?vid=2f82a57b-30f3-4db6-8d1b-a11f19eb1349"},"vehicle_type_id":"4","last_reported":1751981244,"current_range_meters":16800,"station_id":"ce4bhn92rcd13ifvqgrg","pricing_plan_id":"cebpf4jnsgd1na2vs0mg"},{"bike_id":"dc6aa8ed-171a-411d-8ce9-8847acb1ad2b","system_id":"levelo_inurba_marseille","lat":43.298454,"lon":5.362579,"is_reserved":false,"is_disabled":false,"rental_uris":{"android":"levelo://app?vid=dc6aa8ed-171a-411d-8ce9-8847acb1ad2b","ios":"levelo://app?vid=dc6aa8ed-171a-411d-8ce9-8847acb1ad2b"},"vehicle_type_id":"4","last_reported":1751981244,"current_range_meters":17200,"station_id":"ce4bgpp2rcd13ifvqc3g","pricing_plan_id":"cebpf4jnsgd1na2vs0mg"},{"bike_id":"9c937ad8-3ba7-4516-9fb9-7cb4af595ffe","system_id":"levelo_inurba_marseille","lat":43.31361,"lon":5.367153,"is_reserved":false,"is_disabled":false,"rental_uris":{"android":"levelo://app?vid=9c937ad8-3ba7-4516-9fb9-7cb4af595ffe","ios":"levelo://app?vid=9c937ad8-3ba7-4516-9fb9-7cb4af595ffe"},"vehicle_type_id":"4","last_reported":1751981244,"current_range_meters":17200,"station_id":"ce4bgr92rcd13ifvqc6g","pricing_plan_id":"cebpf4jnsgd1na2vs0mg"},{"bike_id":"d838120f-9a10-473d-beb1-c271315cae04","system_id":"levelo_inurba_marseille","lat":43.28418,"lon":5.34999,"is_reserved":false,"is_disabled":false,"rental_uris":{"android":"levelo://app?vid=d838120f-9a10-473d-beb1-c271315cae04","ios":"levelo://app?vid=d838120f-9a10-473d-beb1-c271315cae04"},"vehicle_type_id":"4","last_reported":1751981244,"current_range_meters":17200,"station_id":"ce4bhbh2rcd13ifvqepg","pricing_plan_id":"cebpf4jnsgd1na2vs0mg"},{"bike_id":"61b46aba-3e0c-4cfe-b31f-57fbc1f0f643","system_id":"levelo_inurba_marseille","lat":43.24072,"lon":5.37762,"is_reserved":false,"is_disabled":false,"rental_uris":{"android":"levelo://app?vid=61b46aba-3e0c-4cfe-b31f-57fbc1f0f643","ios":"levelo://app?vid=61b46aba-3e0c-4cfe-b31f-57fbc1f0f643"},"vehicle_type_id":"4","last_reported":1751981244,"current_range_meters":17200,"station_id":"ce4bhnp2rcd13ifvqgvg","pricing_plan_id":"cebpf4jnsgd1na2vs0mg"},{"bike_id":"1e112a52-32ff-42af-8077-893c4a6d3611","system_id":"levelo_inurba_marseille","lat":43.28416,"lon":5.35034,"is_reserved":false,"is_disabled":false,"rental_uris":{"android":"levelo://app?vid=1e112a52-32ff-42af-8077-893c4a6d3611","ios":"levelo://app?vid=1e112a52-32ff-42af-8077-893c4a6d3611"},"vehicle_type_id":"4","last_reported":1751981244,"current_range_meters":17600,"station_id":"","pricing_plan_id":"cebpf4jnsgd1na2vs0mg"},{"bike_id":"3c78f3be-0595-4cde-ab3a-21eba194a66a","system_id":"levelo_inurba_marseille","lat":43.21743,"lon":5.34604,"is_reserved":false,"is_disabled":false,"rental_uris":{"android":"levelo://app?vid=3c78f3be-0595-4cde-ab3a-21eba194a66a","ios":"levelo://app?vid=3c78f3be-0595-4cde-ab3a-21eba194a66a"},"vehicle_type_id":"4","last_reported":1751981244,"current_range_meters":17600,"station_id":"","pricing_plan_id":"cebpf4jnsgd1na2vs0mg"},{"bike_id":"1d7fac14-2cca-4632-8110-30634afef477","system_id":"levelo_inurba_marseille","lat":43.30913,"lon":5.36853,"is_reserved":false,"is_disabled":false,"rental_uris":{"android":"levelo://app?vid=1d7fac14-2cca-4632-8110-30634afef477","ios":"levelo://app?vid=1d7fac14-2cca-4632-8110-30634afef477"},"vehicle_type_id":"4","last_reported":1751981244,"current_range_meters":17600,"station_id":"ce4bgn92rcd13ifvqbvg","pricing_plan_id":"cebpf4jnsgd1na2vs0mg"},{"bike_id":"f99ef65c-202c-49b5-8edf-b515f9a1d71a","system_id":"levelo_inurba_marseille","lat":43.29628,"lon":5.37154,"is_reserved":false,"is_disabled":false,"rental_uris":{"android":"levelo://app?vid=f99ef65c-202c-49b5-8edf-b515f9a1d71a","ios":"levelo://app?vid=f99ef65c-202c-49b5-8edf-b515f9a1d71a"},"vehicle_type_id":"4","last_reported":1751981244,"current_range_meters":17600,"station_id":"ce4bgnh2rcd13ifvqc0g","pricing_plan_id":"cebpf4jnsgd1na2vs0mg"},{"bike_id":"f5993312-df83-434b-8105-91efbfa1e2bc","system_id":"levelo_inurba_marseille","lat":43.30568,"lon":5.3654,"is_reserved":false,"is_disabled":false,"rental_uris":{"android":"levelo://app?vid=f5993312-df83-434b-8105-91efbfa1e2bc","ios":"levelo://app?vid=f5993312-df83-434b-8105-91efbfa1e2bc"},"vehicle_type_id":"4","last_reported":1751981244,"current_range_meters":17600,"station_id":"ce4bgs12rcd13ifvqcag","pricing_plan_id":"cebpf4jnsgd1na2vs0mg"},{"bike_id":"6c49a31d-8450-49b8-8062-72d2cd7b9f7a","system_id":"levelo_inurba_marseille","lat":43.29097,"lon":5.381345,"is_reserved":false,"is_disabled":false,"rental_uris":{"android":"levelo://app?vid=6c49a31d-8450-49b8-8062-72d2cd7b9f7a","ios":"levelo://app?vid=6c49a31d-8450-49b8-8062-72d2cd7b9f7a"},"vehicle_type_id":"4","last_reported":1751981244,"current_range_meters":17600,"station_id":"ce4bh512rcd13ifvqe2g","pricing_plan_id":"cebpf4jnsgd1na2vs0mg"},{"bike_id":"9959d7fa-4898-43a5-a1ec-b9fed544cad3","system_id":"levelo_inurba_marseille","lat":43.28417,"lon":5.34998,"is_reserved":false,"is_disabled":false,"rental_uris":{"android":"levelo://app?vid=9959d7fa-4898-43a5-a1ec-b9fed544cad3","ios":"levelo://app?vid=9959d7fa-4898-43a5-a1ec-b9fed544cad3"},"vehicle_type_id":"4","last_reported":1751981244,"current_range_meters":17600,"station_id":"ce4bhbh2rcd13ifvqepg","pricing_plan_id":"cebpf4jnsgd1na2vs0mg"},{"bike_id":"e706b1ef-3be3-4882-bdd6-4549e8294ee9","system_id":"levelo_inurba_marseille","lat":43.26227,"lon":5.37449,"is_reserved":false,"is_disabled":false,"rental_uris":{"android":"levelo://app?vid=e706b1ef-3be3-4882-bdd6-4549e8294ee9","ios":"levelo://app?vid=e706b1ef-3be3-4882-bdd6-4549e8294ee9"},"vehicle_type_id":"4","last_reported":1751981244,"current_range_meters":17600,"station_id":"ce4bhgp2rcd13ifvqfc0","pricing_plan_id":"cebpf4jnsgd1na2vs0mg"},{"bike_id":"c3ece9af-d7ce-4c98-9aff-ce6df04f914a","system_id":"levelo_inurba_marseille","lat":43.24387,"lon":5.37057,"is_reserved":false,"is_disabled":false,"rental_uris":{"android":"levelo://app?vid=c3ece9af-d7ce-4c98-9aff-ce6df04f914a","ios":"levelo://app?vid=c3ece9af-d7ce-4c98-9aff-ce6df04f914a"},"vehicle_type_id":"4","last_reported":1751981244,"current_range_meters":17600,"station_id":"ce4bhhh2rcd13ifvqfk0","pricing_plan_id":"cebpf4jnsgd1na2vs0mg"},{"bike_id":"537ae664-491b-4af7-9081-62566cf8f1c2","system_id":"levelo_inurba_marseille","lat":43.25914,"lon":5.40885,"is_reserved":false,"is_disabled":false,"rental_uris":{"android":"levelo://app?vid=537ae664-491b-4af7-9081-62566cf8f1c2","ios":"levelo://app?vid=537ae664-491b-4af7-9081-62566cf8f1c2"},"vehicle_type_id":"4","last_reported":1751981244,"current_range_meters":17600,"station_id":"ce4bhm92rcd13ifvqglg","pricing_plan_id":"cebpf4jnsgd1na2vs0mg"},{"bike_id":"19188709-e0c6-44db-842f-ba0fa2277a28","system_id":"levelo_inurba_marseille","lat":43.27994,"lon":5.40007,"is_reserved":false,"is_disabled":false,"rental_uris":{"android":"levelo://app?vid=19188709-e0c6-44db-842f-ba0fa2277a28","ios":"levelo://app?vid=19188709-e0c6-44db-842f-ba0fa2277a28"},"vehicle_type_id":"4","last_reported":1751981244,"current_range_meters":17600,"station_id":"ce4bho92rcd13ifvqh4g","pricing_plan_id":"cebpf4jnsgd1na2vs0mg"},{"bike_id":"093c6075-fb95-4ea5-ae3c-9ebd2aedeaa8","system_id":"levelo_inurba_marseille","lat":43.31339,"lon":5.36728,"is_reserved":false,"is_disabled":false,"rental_uris":{"android":"levelo://app?vid=093c6075-fb95-4ea5-ae3c-9ebd2aedeaa8","ios":"levelo://app?vid=093c6075-fb95-4ea5-ae3c-9ebd2aedeaa8"},"vehicle_type_id":"4","last_reported":1751981244,"current_range_meters":18000,"station_id":"ce4bgr92rcd13ifvqc6g","pricing_plan_id":"cebpf4jnsgd1na2vs0mg"},{"bike_id":"87813777-972f-438d-b9d3-c90ab0ceef83","system_id":"levelo_inurba_marseille","lat":43.30729,"lon":5.42433,"is_reserved":false,"is_disabled":false,"rental_uris":{"android":"levelo://app?vid=87813777-972f-438d-b9d3-c90ab0ceef83","ios":"levelo://app?vid=87813777-972f-438d-b9d3-c90ab0ceef83"},"vehicle_type_id":"4","last_reported":1751981244,"current_range_meters":18000,"station_id":"st_cvj6ca6bvosntc0bfgr0","pricing_plan_id":"cebpf4jnsgd1na2vs0mg"},{"bike_id":"1e91cee9-7d4a-458c-9805-68ef6c30eb40","system_id":"levelo_inurba_marseille","lat":43.217419,"lon":5.346022,"is_reserved":false,"is_disabled":false,"rental_uris":{"android":"levelo://app?vid=1e91cee9-7d4a-458c-9805-68ef6c30eb40","ios":"levelo://app?vid=1e91cee9-7d4a-458c-9805-68ef6c30eb40"},"vehicle_type_id":"4","last_reported":1751981244,"current_range_meters":18000,"station_id":"st_cvj6r9ubvosntc0bgbag","pricing_plan_id":"cebpf4jnsgd1na2vs0mg"},{"bike_id":"d0f90c24-dd03-411b-9731-55305f76b7c8","system_id":"levelo_inurba_marseille","lat":43.212,"lon":5.35079,"is_reserved":false,"is_disabled":false,"rental_uris":{"android":"levelo://app?vid=d0f90c24-dd03-411b-9731-55305f76b7c8","ios":"levelo://app?vid=d0f90c24-dd03-411b-9731-55305f76b7c8"},"vehicle_type_id":"4","last_reported":1751981244,"current_range_meters":18000,"station_id":"st_cvj6sg6p6f1abm77japg","pricing_plan_id":"cebpf4jnsgd1na2vs0mg"},{"bike_id":"18cc1aff-754f-4758-a56e-ac01c6bb4fed","system_id":"levelo_inurba_marseille","lat":43.30645,"lon":5.38025,"is_reserved":false,"is_disabled":false,"rental_uris":{"android":"levelo://app?vid=18cc1aff-754f-4758-a56e-ac01c6bb4fed","ios":"levelo://app?vid=18cc1aff-754f-4758-a56e-ac01c6bb4fed"},"vehicle_type_id":"4","last_reported":1751981244,"current_range_meters":18800,"station_id":"","pricing_plan_id":"cebpf4jnsgd1na2vs0mg"},{"bike_id":"5e4b110f-4f34-4a9e-a5f5-7ace7520bbd5","system_id":"levelo_inurba_marseille","lat":43.29676,"lon":5.37424,"is_reserved":false,"is_disabled":false,"rental_uris":{"android":"levelo://app?vid=5e4b110f-4f34-4a9e-a5f5-7ace7520bbd5","ios":"levelo://app?vid=5e4b110f-4f34-4a9e-a5f5-7ace7520bbd5"},"vehicle_type_id":"4","last_reported":1751981244,"current_range_meters":18800,"station_id":"","pricing_plan_id":"cebpf4jnsgd1na2vs0mg"},{"bike_id":"c2b72fe0-bae6-4c7b-ad48-9e771b203dc8","system_id":"levelo_inurba_marseille","lat":43.3135,"lon":5.38479,"is_reserved":false,"is_disabled":false,"rental_uris":{"android":"levelo://app?vid=c2b72fe0-bae6-4c7b-ad48-9e771b203dc8","ios":"levelo://app?vid=c2b72fe0-bae6-4c7b-ad48-9e771b203dc8"},"vehicle_type_id":"4","last_reported":1751981244,"current_range_meters":18800,"station_id":"ce4bgt92rcd13ifvqcf0","pricing_plan_id":"cebpf4jnsgd1na2vs0mg"},{"bike_id":"f06ad9c1-4d2d-477f-9cf5-8a8b31168797","system_id":"levelo_inurba_marseille","lat":43.287048,"lon":5.37398,"is_reserved":false,"is_disabled":false,"rental_uris":{"android":"levelo://app?vid=f06ad9c1-4d2d-477f-9cf5-8a8b31168797","ios":"levelo://app?vid=f06ad9c1-4d2d-477f-9cf5-8a8b31168797"},"vehicle_type_id":"4","last_reported":1751981244,"current_range_meters":18800,"station_id":"ce4bh3p2rcd13ifvqdq0","pricing_plan_id":"cebpf4jnsgd1na2vs0mg"},{"bike_id":"ee2269ef-86f9-4a32-af59-df38e7d1caf1","system_id":"levelo_inurba_marseille","lat":43.29219,"lon":5.36059,"is_reserved":false,"is_disabled":false,"rental_uris":{"android":"levelo://app?vid=ee2269ef-86f9-4a32-af59-df38e7d1caf1","ios":"levelo://app?vid=ee2269ef-86f9-4a32-af59-df38e7d1caf1"},"vehicle_type_id":"4","last_reported":1751981244,"current_range_meters":18800,"station_id":"ce4bhbh2rcd13ifvqeqg","pricing_plan_id":"cebpf4jnsgd1na2vs0mg"},{"bike_id":"0c505ed0-6f21-404c-a3d1-264c9a7d40d5","system_id":"levelo_inurba_marseille","lat":43.28269,"lon":5.35081,"is_reserved":false,"is_disabled":false,"rental_uris":{"android":"levelo://app?vid=0c505ed0-6f21-404c-a3d1-264c9a7d40d5","ios":"levelo://app?vid=0c505ed0-6f21-404c-a3d1-264c9a7d40d5"},"vehicle_type_id":"4","last_reported":1751981244,"current_range_meters":18800,"station_id":"ce4bhbp2rcd13ifvqerg","pricing_plan_id":"cebpf4jnsgd1na2vs0mg"},{"bike_id":"f5c16f07-bc6f-4121-91a7-5ad90eec4f34","system_id":"levelo_inurba_marseille","lat":43.31201,"lon":5.37323,"is_reserved":false,"is_disabled":false,"rental_uris":{"android":"levelo://app?vid=f5c16f07-bc6f-4121-91a7-5ad90eec4f34","ios":"levelo://app?vid=f5c16f07-bc6f-4121-91a7-5ad90eec4f34"},"vehicle_type_id":"4","last_reported":1751981244,"current_range_meters":19200,"station_id":"","pricing_plan_id":"cebpf4jnsgd1na2vs0mg"},{"bike_id":"65a44246-9e8b-48a3-917a-260d97e086c1","system_id":"levelo_inurba_marseille","lat":43.2926,"lon":5.38435,"is_reserved":false,"is_disabled":false,"rental_uris":{"android":"levelo://app?vid=65a44246-9e8b-48a3-917a-260d97e086c1","ios":"levelo://app?vid=65a44246-9e8b-48a3-917a-260d97e086c1"},"vehicle_type_id":"4","last_reported":1751981244,"current_range_meters":19200,"station_id":"ce4bh692rcd13ifvqea0","pricing_plan_id":"cebpf4jnsgd1na2vs0mg"},{"bike_id":"b2c9c8e6-6adb-44b7-bb3f-616e2a948152","system_id":"levelo_inurba_marseille","lat":43.28461,"lon":5.35889,"is_reserved":false,"is_disabled":false,"rental_uris":{"android":"levelo://app?vid=b2c9c8e6-6adb-44b7-bb3f-616e2a948152","ios":"levelo://app?vid=b2c9c8e6-6adb-44b7-bb3f-616e2a948152"},"vehicle_type_id":"4","last_reported":1751981244,"current_range_meters":19200,"station_id":"ce4bhah2rcd13ifvqei0","pricing_plan_id":"cebpf4jnsgd1na2vs0mg"},{"bike_id":"fb4122cd-0277-4297-8cd5-1b777b465e3e","system_id":"levelo_inurba_marseille","lat":43.24082,"lon":5.37763,"is_reserved":false,"is_disabled":false,"rental_uris":{"android":"levelo://app?vid=fb4122cd-0277-4297-8cd5-1b777b465e3e","ios":"levelo://app?vid=fb4122cd-0277-4297-8cd5-1b777b465e3e"},"vehicle_type_id":"4","last_reported":1751981244,"current_range_meters":19200,"station_id":"ce4bhnp2rcd13ifvqgvg","pricing_plan_id":"cebpf4jnsgd1na2vs0mg"},{"bike_id":"56eb3fdf-ea87-4fcf-85df-3680fa66363e","system_id":"levelo_inurba_marseille","lat":43.22509,"lon":5.34758,"is_reserved":false,"is_disabled":false,"rental_uris":{"android":"levelo://app?vid=56eb3fdf-ea87-4fcf-85df-3680fa66363e","ios":"levelo://app?vid=56eb3fdf-ea87-4fcf-85df-3680fa66363e"},"vehicle_type_id":"4","last_reported":1751981244,"current_range_meters":19200,"station_id":"st_cvj5dfep6f1abm77gieg","pricing_plan_id":"cebpf4jnsgd1na2vs0mg"},{"bike_id":"7f0c405c-cebd-402f-b8ba-98e46b99f50b","system_id":"levelo_inurba_marseille","lat":43.2119,"lon":5.35065,"is_reserved":false,"is_disabled":false,"rental_uris":{"android":"levelo://app?vid=7f0c405c-cebd-402f-b8ba-98e46b99f50b","ios":"levelo://app?vid=7f0c405c-cebd-402f-b8ba-98e46b99f50b"},"vehicle_type_id":"4","last_reported":1751981244,"current_range_meters":19200,"station_id":"st_cvj6sg6p6f1abm77japg","pricing_plan_id":"cebpf4jnsgd1na2vs0mg"},{"bike_id":"697d5fc4-b988-4a4e-8323-c1ce5ed61a61","system_id":"levelo_inurba_marseille","lat":43.21221,"lon":5.35055,"is_reserved":false,"is_disabled":false,"rental_uris":{"android":"levelo://app?vid=697d5fc4-b988-4a4e-8323-c1ce5ed61a61","ios":"levelo://app?vid=697d5fc4-b988-4a4e-8323-c1ce5ed61a61"},"vehicle_type_id":"4","last_reported":1751981244,"current_range_meters":19600,"station_id":"","pricing_plan_id":"cebpf4jnsgd1na2vs0mg"},{"bike_id":"b757ffbb-2b71-4330-9f60-5f8a9d46d16e","system_id":"levelo_inurba_marseille","lat":43.29653,"lon":5.37106,"is_reserved":false,"is_disabled":false,"rental_uris":{"android":"levelo://app?vid=b757ffbb-2b71-4330-9f60-5f8a9d46d16e","ios":"levelo://app?vid=b757ffbb-2b71-4330-9f60-5f8a9d46d16e"},"vehicle_type_id":"4","last_reported":1751981244,"current_range_meters":19600,"station_id":"","pricing_plan_id":"cebpf4jnsgd1na2vs0mg"},{"bike_id":"4acaf512-a7d4-403d-9669-da010a61428f","system_id":"levelo_inurba_marseille","lat":43.30548,"lon":5.36523,"is_reserved":false,"is_disabled":false,"rental_uris":{"android":"levelo://app?vid=4acaf512-a7d4-403d-9669-da010a61428f","ios":"levelo://app?vid=4acaf512-a7d4-403d-9669-da010a61428f"},"vehicle_type_id":"4","last_reported":1751981244,"current_range_meters":19600,"station_id":"ce4bgs12rcd13ifvqcag","pricing_plan_id":"cebpf4jnsgd1na2vs0mg"},{"bike_id":"464ce773-d7e7-4090-9f79-10bec786371e","system_id":"levelo_inurba_marseille","lat":43.31271,"lon":5.40168,"is_reserved":false,"is_disabled":false,"rental_uris":{"android":"levelo://app?vid=464ce773-d7e7-4090-9f79-10bec786371e","ios":"levelo://app?vid=464ce773-d7e7-4090-9f79-10bec786371e"},"vehicle_type_id":"4","last_reported":1751981244,"current_range_meters":19600,"station_id":"ce4bh092rcd13ifvqd30","pricing_plan_id":"cebpf4jnsgd1na2vs0mg"},{"bike_id":"0f17f92e-e264-4c54-b3e8-630cd0e6172d","system_id":"levelo_inurba_marseille","lat":43.29518,"lon":5.39406,"is_reserved":false,"is_disabled":false,"rental_uris":{"android":"levelo://app?vid=0f17f92e-e264-4c54-b3e8-630cd0e6172d","ios":"levelo://app?vid=0f17f92e-e264-4c54-b3e8-630cd0e6172d"},"vehicle_type_id":"4","last_reported":1751981244,"current_range_meters":19600,"station_id":"ce4bh292rcd13ifvqdf0","pricing_plan_id":"cebpf4jnsgd1na2vs0mg"},{"bike_id":"5ea940e2-ba19-4a89-9898-ea5dabd1db05","system_id":"levelo_inurba_marseille","lat":43.25936,"lon":5.40905,"is_reserved":false,"is_disabled":false,"rental_uris":{"android":"levelo://app?vid=5ea940e2-ba19-4a89-9898-ea5dabd1db05","ios":"levelo://app?vid=5ea940e2-ba19-4a89-9898-ea5dabd1db05"},"vehicle_type_id":"4","last_reported":1751981244,"current_range_meters":19600,"station_id":"ce4bhm92rcd13ifvqglg","pricing_plan_id":"cebpf4jnsgd1na2vs0mg"},{"bike_id":"99c0373b-1cd6-4314-8d44-4e7c61e6c650","system_id":"levelo_inurba_marseille","lat":43.23185,"lon":5.39978,"is_reserved":false,"is_disabled":false,"rental_uris":{"android":"levelo://app?vid=99c0373b-1cd6-4314-8d44-4e7c61e6c650","ios":"levelo://app?vid=99c0373b-1cd6-4314-8d44-4e7c61e6c650"},"vehicle_type_id":"4","last_reported":1751981244,"current_range_meters":19600,"station_id":"ce4bhn12rcd13ifvqgqg","pricing_plan_id":"cebpf4jnsgd1na2vs0mg"},{"bike_id":"b6d9b946-f66a-4c6f-96e5-5d23e176360c","system_id":"levelo_inurba_marseille","lat":43.31315,"lon":5.38172,"is_reserved":false,"is_disabled":false,"rental_uris":{"android":"levelo://app?vid=b6d9b946-f66a-4c6f-96e5-5d23e176360c","ios":"levelo://app?vid=b6d9b946-f66a-4c6f-96e5-5d23e176360c"},"vehicle_type_id":"4","last_reported":1751981244,"current_range_meters":20000,"station_id":"","pricing_plan_id":"cebpf4jnsgd1na2vs0mg"},{"bike_id":"b2caa530-bb19-4cc6-a6bd-61e3e1d7432e","system_id":"levelo_inurba_marseille","lat":43.33763,"lon":5.37461,"is_reserved":false,"is_disabled":false,"rental_uris":{"android":"levelo://app?vid=b2caa530-bb19-4cc6-a6bd-61e3e1d7432e","ios":"levelo://app?vid=b2caa530-bb19-4cc6-a6bd-61e3e1d7432e"},"vehicle_type_id":"4","last_reported":1751981244,"current_range_meters":20000,"station_id":"","pricing_plan_id":"cebpf4jnsgd1na2vs0mg"},{"bike_id":"91caa7cf-da48-4b77-92af-de77619dbcc7","system_id":"levelo_inurba_marseille","lat":43.30545,"lon":5.36703,"is_reserved":false,"is_disabled":false,"rental_uris":{"android":"levelo://app?vid=91caa7cf-da48-4b77-92af-de77619dbcc7","ios":"levelo://app?vid=91caa7cf-da48-4b77-92af-de77619dbcc7"},"vehicle_type_id":"4","last_reported":1751981244,"current_range_meters":20000,"station_id":"ce4bgrp2rcd13ifvqc9g","pricing_plan_id":"cebpf4jnsgd1na2vs0mg"},{"bike_id":"76dce113-6c24-43e1-a957-36f31e36f6bf","system_id":"levelo_inurba_marseille","lat":43.30926,"lon":5.40147,"is_reserved":false,"is_disabled":false,"rental_uris":{"android":"levelo://app?vid=76dce113-6c24-43e1-a957-36f31e36f6bf","ios":"levelo://app?vid=76dce113-6c24-43e1-a957-36f31e36f6bf"},"vehicle_type_id":"4","last_reported":1751981244,"current_range_meters":20000,"station_id":"ce4bgvp2rcd13ifvqct0","pricing_plan_id":"cebpf4jnsgd1na2vs0mg"},{"bike_id":"ee15b423-2429-4022-bf7d-4d2fb72c74c9","system_id":"levelo_inurba_marseille","lat":43.27967,"lon":5.38759,"is_reserved":false,"is_disabled":false,"rental_uris":{"android":"levelo://app?vid=ee15b423-2429-4022-bf7d-4d2fb72c74c9","ios":"levelo://app?vid=ee15b423-2429-4022-bf7d-4d2fb72c74c9"},"vehicle_type_id":"4","last_reported":1751981244,"current_range_meters":20000,"station_id":"ce4bhg12rcd13ifvqf80","pricing_plan_id":"cebpf4jnsgd1na2vs0mg"},{"bike_id":"acba8ba0-fad8-48e5-925e-4680861847ca","system_id":"levelo_inurba_marseille","lat":43.26229,"lon":5.40462,"is_reserved":false,"is_disabled":false,"rental_uris":{"android":"levelo://app?vid=acba8ba0-fad8-48e5-925e-4680861847ca","ios":"levelo://app?vid=acba8ba0-fad8-48e5-925e-4680861847ca"},"vehicle_type_id":"4","last_reported":1751981244,"current_range_meters":20000,"station_id":"ce4bhmh2rcd13ifvqgmg","pricing_plan_id":"cebpf4jnsgd1na2vs0mg"},{"bike_id":"b28aa0a0-791c-4a08-9a16-c7bf6ea0ed5a","system_id":"levelo_inurba_marseille","lat":43.22491,"lon":5.34784,"is_reserved":false,"is_disabled":false,"rental_uris":{"android":"levelo://app?vid=b28aa0a0-791c-4a08-9a16-c7bf6ea0ed5a","ios":"levelo://app?vid=b28aa0a0-791c-4a08-9a16-c7bf6ea0ed5a"},"vehicle_type_id":"4","last_reported":1751981244,"current_range_meters":20000,"station_id":"st_cvj5dfep6f1abm77gieg","pricing_plan_id":"cebpf4jnsgd1na2vs0mg"},{"bike_id":"15286feb-5dfb-498c-a584-add36819e4ef","system_id":"levelo_inurba_marseille","lat":43.21199,"lon":5.35071,"is_reserved":false,"is_disabled":false,"rental_uris":{"android":"levelo://app?vid=15286feb-5dfb-498c-a584-add36819e4ef","ios":"levelo://app?vid=15286feb-5dfb-498c-a584-add36819e4ef"},"vehicle_type_id":"4","last_reported":1751981244,"current_range_meters":20000,"station_id":"st_cvj6sg6p6f1abm77japg","pricing_plan_id":"cebpf4jnsgd1na2vs0mg"},{"bike_id":"e3600c6c-25e5-4e43-bc38-e9be8586bd82","system_id":"levelo_inurba_marseille","lat":43.30548,"lon":5.38437,"is_reserved":false,"is_disabled":false,"rental_uris":{"android":"levelo://app?vid=e3600c6c-25e5-4e43-bc38-e9be8586bd82","ios":"levelo://app?vid=e3600c6c-25e5-4e43-bc38-e9be8586bd82"},"vehicle_type_id":"4","last_reported":1751981244,"current_range_meters":20400,"station_id":"ce4bgg92rcd13ifvqb30","pricing_plan_id":"cebpf4jnsgd1na2vs0mg"},{"bike_id":"904a8b8b-cb6e-43e2-b99a-e5b8f9078d48","system_id":"levelo_inurba_marseille","lat":43.309312,"lon":5.401422,"is_reserved":false,"is_disabled":false,"rental_uris":{"android":"levelo://app?vid=904a8b8b-cb6e-43e2-b99a-e5b8f9078d48","ios":"levelo://app?vid=904a8b8b-cb6e-43e2-b99a-e5b8f9078d48"},"vehicle_type_id":"4","last_reported":1751981244,"current_range_meters":20400,"station_id":"ce4bgvp2rcd13ifvqct0","pricing_plan_id":"cebpf4jnsgd1na2vs0mg"},{"bike_id":"232d63ba-e220-4ba6-a269-667eb27da609","system_id":"levelo_inurba_marseille","lat":43.24551,"lon":5.39523,"is_reserved":false,"is_disabled":false,"rental_uris":{"android":"levelo://app?vid=232d63ba-e220-4ba6-a269-667eb27da609","ios":"levelo://app?vid=232d63ba-e220-4ba6-a269-667eb27da609"},"vehicle_type_id":"4","last_reported":1751981244,"current_range_meters":20400,"station_id":"ce4bhlp2rcd13ifvqgjg","pricing_plan_id":"cebpf4jnsgd1na2vs0mg"},{"bike_id":"ab04b546-2504-413f-96d8-08d15739aeed","system_id":"levelo_inurba_marseille","lat":43.25929,"lon":5.40909,"is_reserved":false,"is_disabled":false,"rental_uris":{"android":"levelo://app?vid=ab04b546-2504-413f-96d8-08d15739aeed","ios":"levelo://app?vid=ab04b546-2504-413f-96d8-08d15739aeed"},"vehicle_type_id":"4","last_reported":1751981244,"current_range_meters":20400,"station_id":"ce4bhm92rcd13ifvqglg","pricing_plan_id":"cebpf4jnsgd1na2vs0mg"},{"bike_id":"1be39311-cfa5-4cbb-b93d-fb0870d6e611","system_id":"levelo_inurba_marseille","lat":43.21187,"lon":5.35074,"is_reserved":false,"is_disabled":false,"rental_uris":{"android":"levelo://app?vid=1be39311-cfa5-4cbb-b93d-fb0870d6e611","ios":"levelo://app?vid=1be39311-cfa5-4cbb-b93d-fb0870d6e611"},"vehicle_type_id":"4","last_reported":1751981244,"current_range_meters":20400,"station_id":"st_cvj6sg6p6f1abm77japg","pricing_plan_id":"cebpf4jnsgd1na2vs0mg"},{"bike_id":"320f2a33-deaa-4e0a-a3d5-c39ce8ad680a","system_id":"levelo_inurba_marseille","lat":43.31567,"lon":5.37444,"is_reserved":false,"is_disabled":false,"rental_uris":{"android":"levelo://app?vid=320f2a33-deaa-4e0a-a3d5-c39ce8ad680a","ios":"levelo://app?vid=320f2a33-deaa-4e0a-a3d5-c39ce8ad680a"},"vehicle_type_id":"4","last_reported":1751981244,"current_range_meters":20800,"station_id":"","pricing_plan_id":"cebpf4jnsgd1na2vs0mg"},{"bike_id":"5a5872c6-a97c-4e06-96d5-1828b33141df","system_id":"levelo_inurba_marseille","lat":43.31314,"lon":5.36865,"is_reserved":false,"is_disabled":false,"rental_uris":{"android":"levelo://app?vid=5a5872c6-a97c-4e06-96d5-1828b33141df","ios":"levelo://app?vid=5a5872c6-a97c-4e06-96d5-1828b33141df"},"vehicle_type_id":"4","last_reported":1751981244,"current_range_meters":20800,"station_id":"","pricing_plan_id":"cebpf4jnsgd1na2vs0mg"},{"bike_id":"46d3466b-5c02-4369-8fe0-0447959b7d32","system_id":"levelo_inurba_marseille","lat":43.29622,"lon":5.37162,"is_reserved":false,"is_disabled":false,"rental_uris":{"android":"levelo://app?vid=46d3466b-5c02-4369-8fe0-0447959b7d32","ios":"levelo://app?vid=46d3466b-5c02-4369-8fe0-0447959b7d32"},"vehicle_type_id":"4","last_reported":1751981244,"current_range_meters":20800,"station_id":"ce4bgnh2rcd13ifvqc0g","pricing_plan_id":"cebpf4jnsgd1na2vs0mg"},{"bike_id":"d6b5e40a-0bb1-4676-b2b3-6806492e21c7","system_id":"levelo_inurba_marseille","lat":43.2803,"lon":5.36936,"is_reserved":false,"is_disabled":false,"rental_uris":{"android":"levelo://app?vid=d6b5e40a-0bb1-4676-b2b3-6806492e21c7","ios":"levelo://app?vid=d6b5e40a-0bb1-4676-b2b3-6806492e21c7"},"vehicle_type_id":"4","last_reported":1751981244,"current_range_meters":20800,"station_id":"ce4bha12rcd13ifvqef0","pricing_plan_id":"cebpf4jnsgd1na2vs0mg"},{"bike_id":"fd7d08d0-d8e9-446a-9f54-3e0aa7641460","system_id":"levelo_inurba_marseille","lat":43.24392,"lon":5.37064,"is_reserved":false,"is_disabled":false,"rental_uris":{"android":"levelo://app?vid=fd7d08d0-d8e9-446a-9f54-3e0aa7641460","ios":"levelo://app?vid=fd7d08d0-d8e9-446a-9f54-3e0aa7641460"},"vehicle_type_id":"4","last_reported":1751981244,"current_range_meters":20800,"station_id":"ce4bhhh2rcd13ifvqfk0","pricing_plan_id":"cebpf4jnsgd1na2vs0mg"},{"bike_id":"5b8b7ba9-e197-4bb8-98d6-dfd164565c3c","system_id":"levelo_inurba_marseille","lat":43.25089,"lon":5.39524,"is_reserved":false,"is_disabled":false,"rental_uris":{"android":"levelo://app?vid=5b8b7ba9-e197-4bb8-98d6-dfd164565c3c","ios":"levelo://app?vid=5b8b7ba9-e197-4bb8-98d6-dfd164565c3c"},"vehicle_type_id":"4","last_reported":1751981244,"current_range_meters":20800,"station_id":"ce4bhm12rcd13ifvqgkg","pricing_plan_id":"cebpf4jnsgd1na2vs0mg"},{"bike_id":"fd2095ad-cce6-410f-b9a7-c1db2c6b3d52","system_id":"levelo_inurba_marseille","lat":43.27652,"lon":5.36575,"is_reserved":false,"is_disabled":false,"rental_uris":{"android":"levelo://app?vid=fd2095ad-cce6-410f-b9a7-c1db2c6b3d52","ios":"levelo://app?vid=fd2095ad-cce6-410f-b9a7-c1db2c6b3d52"},"vehicle_type_id":"4","last_reported":1751981244,"current_range_meters":21600,"station_id":"","pricing_plan_id":"cebpf4jnsgd1na2vs0mg"},{"bike_id":"2fad8201-d056-48de-a749-7521fcea124e","system_id":"levelo_inurba_marseille","lat":43.2977,"lon":5.37099,"is_reserved":false,"is_disabled":false,"rental_uris":{"android":"levelo://app?vid=2fad8201-d056-48de-a749-7521fcea124e","ios":"levelo://app?vid=2fad8201-d056-48de-a749-7521fcea124e"},"vehicle_type_id":"4","last_reported":1751981244,"current_range_meters":21600,"station_id":"ce4bgop2rcd13ifvqc1g","pricing_plan_id":"cebpf4jnsgd1na2vs0mg"},{"bike_id":"df78beac-258d-4104-ace8-7c118b8e5d15","system_id":"levelo_inurba_marseille","lat":43.31075,"lon":5.38358,"is_reserved":false,"is_disabled":false,"rental_uris":{"android":"levelo://app?vid=df78beac-258d-4104-ace8-7c118b8e5d15","ios":"levelo://app?vid=df78beac-258d-4104-ace8-7c118b8e5d15"},"vehicle_type_id":"4","last_reported":1751981244,"current_range_meters":21600,"station_id":"ce4bgv92rcd13ifvqcr0","pricing_plan_id":"cebpf4jnsgd1na2vs0mg"},{"bike_id":"e36f96d1-a8ac-4d6a-9872-85f20f3f0c4f","system_id":"levelo_inurba_marseille","lat":43.2827,"lon":5.35081,"is_reserved":false,"is_disabled":false,"rental_uris":{"android":"levelo://app?vid=e36f96d1-a8ac-4d6a-9872-85f20f3f0c4f","ios":"levelo://app?vid=e36f96d1-a8ac-4d6a-9872-85f20f3f0c4f"},"vehicle_type_id":"4","last_reported":1751981244,"current_range_meters":21600,"station_id":"ce4bhbp2rcd13ifvqerg","pricing_plan_id":"cebpf4jnsgd1na2vs0mg"},{"bike_id":"19c552da-55bc-46d8-97cb-d1fbabdad01a","system_id":"levelo_inurba_marseille","lat":43.21177,"lon":5.35074,"is_reserved":false,"is_disabled":false,"rental_uris":{"android":"levelo://app?vid=19c552da-55bc-46d8-97cb-d1fbabdad01a","ios":"levelo://app?vid=19c552da-55bc-46d8-97cb-d1fbabdad01a"},"vehicle_type_id":"4","last_reported":1751981244,"current_range_meters":21600,"station_id":"st_cvj6sg6p6f1abm77japg","pricing_plan_id":"cebpf4jnsgd1na2vs0mg"},{"bike_id":"72584d62-bcbd-4a2e-99b6-9262695f5b58","system_id":"levelo_inurba_marseille","lat":43.30887,"lon":5.37201,"is_reserved":false,"is_disabled":false,"rental_uris":{"android":"levelo://app?vid=72584d62-bcbd-4a2e-99b6-9262695f5b58","ios":"levelo://app?vid=72584d62-bcbd-4a2e-99b6-9262695f5b58"},"vehicle_type_id":"4","last_reported":1751981244,"current_range_meters":22000,"station_id":"ce4bguh2rcd13ifvqckg","pricing_plan_id":"cebpf4jnsgd1na2vs0mg"},{"bike_id":"ac99060c-0279-4399-9792-ecbc1364866f","system_id":"levelo_inurba_marseille","lat":43.31167,"lon":5.38723,"is_reserved":false,"is_disabled":false,"rental_uris":{"android":"levelo://app?vid=ac99060c-0279-4399-9792-ecbc1364866f","ios":"levelo://app?vid=ac99060c-0279-4399-9792-ecbc1364866f"},"vehicle_type_id":"4","last_reported":1751981244,"current_range_meters":22000,"station_id":"ce4bgv12rcd13ifvqcp0","pricing_plan_id":"cebpf4jnsgd1na2vs0mg"},{"bike_id":"b9a2d8d5-1c12-4f14-9379-d905fdc3c148","system_id":"levelo_inurba_marseille","lat":43.28581,"lon":5.39506,"is_reserved":false,"is_disabled":false,"rental_uris":{"android":"levelo://app?vid=b9a2d8d5-1c12-4f14-9379-d905fdc3c148","ios":"levelo://app?vid=b9a2d8d5-1c12-4f14-9379-d905fdc3c148"},"vehicle_type_id":"4","last_reported":1751981244,"current_range_meters":22000,"station_id":"ce4bh292rcd13ifvqdg0","pricing_plan_id":"cebpf4jnsgd1na2vs0mg"},{"bike_id":"fe393e70-3017-4f74-9643-ce2ab31a2adc","system_id":"levelo_inurba_marseille","lat":43.28613,"lon":5.35107,"is_reserved":false,"is_disabled":false,"rental_uris":{"android":"levelo://app?vid=fe393e70-3017-4f74-9643-ce2ab31a2adc","ios":"levelo://app?vid=fe393e70-3017-4f74-9643-ce2ab31a2adc"},"vehicle_type_id":"4","last_reported":1751981244,"current_range_meters":22000,"station_id":"ce4bhch2rcd13ifvqeug","pricing_plan_id":"cebpf4jnsgd1na2vs0mg"},{"bike_id":"779e1734-651e-4c56-840c-6d2319b7cadb","system_id":"levelo_inurba_marseille","lat":43.32384,"lon":5.3676,"is_reserved":false,"is_disabled":false,"rental_uris":{"android":"levelo://app?vid=779e1734-651e-4c56-840c-6d2319b7cadb","ios":"levelo://app?vid=779e1734-651e-4c56-840c-6d2319b7cadb"},"vehicle_type_id":"4","last_reported":1751981244,"current_range_meters":22000,"station_id":"ce4bhsh2rcd13ifvqi2g","pricing_plan_id":"cebpf4jnsgd1na2vs0mg"},{"bike_id":"cfe4010c-2112-4442-8740-784a76333861","system_id":"levelo_inurba_marseille","lat":43.21756,"lon":5.34585,"is_reserved":false,"is_disabled":false,"rental_uris":{"android":"levelo://app?vid=cfe4010c-2112-4442-8740-784a76333861","ios":"levelo://app?vid=cfe4010c-2112-4442-8740-784a76333861"},"vehicle_type_id":"4","last_reported":1751981244,"current_range_meters":22000,"station_id":"st_cvj6r9ubvosntc0bgbag","pricing_plan_id":"cebpf4jnsgd1na2vs0mg"},{"bike_id":"999f2a33-af15-4ca0-853a-d2550f2d6574","system_id":"levelo_inurba_marseille","lat":43.23449,"lon":5.35932,"is_reserved":false,"is_disabled":false,"rental_uris":{"android":"levelo://app?vid=999f2a33-af15-4ca0-853a-d2550f2d6574","ios":"levelo://app?vid=999f2a33-af15-4ca0-853a-d2550f2d6574"},"vehicle_type_id":"4","last_reported":1751981244,"current_range_meters":22400,"station_id":"","pricing_plan_id":"cebpf4jnsgd1na2vs0mg"},{"bike_id":"306ce1a6-757b-4897-8796-d879ee9a33eb","system_id":"levelo_inurba_marseille","lat":43.29143,"lon":5.40799,"is_reserved":false,"is_disabled":false,"rental_uris":{"android":"levelo://app?vid=306ce1a6-757b-4897-8796-d879ee9a33eb","ios":"levelo://app?vid=306ce1a6-757b-4897-8796-d879ee9a33eb"},"vehicle_type_id":"4","last_reported":1751981244,"current_range_meters":22400,"station_id":"","pricing_plan_id":"cebpf4jnsgd1na2vs0mg"},{"bike_id":"34136e20-8bc3-4a64-bb34-0cfb08fa9713","system_id":"levelo_inurba_marseille","lat":43.309295,"lon":5.401412,"is_reserved":false,"is_disabled":false,"rental_uris":{"android":"levelo://app?vid=34136e20-8bc3-4a64-bb34-0cfb08fa9713","ios":"levelo://app?vid=34136e20-8bc3-4a64-bb34-0cfb08fa9713"},"vehicle_type_id":"4","last_reported":1751981244,"current_range_meters":22400,"station_id":"ce4bgvp2rcd13ifvqct0","pricing_plan_id":"cebpf4jnsgd1na2vs0mg"},{"bike_id":"ae1c09a4-18ca-4bb2-bade-c4d4c7092cd3","system_id":"levelo_inurba_marseille","lat":43.28019,"lon":5.36949,"is_reserved":false,"is_disabled":false,"rental_uris":{"android":"levelo://app?vid=ae1c09a4-18ca-4bb2-bade-c4d4c7092cd3","ios":"levelo://app?vid=ae1c09a4-18ca-4bb2-bade-c4d4c7092cd3"},"vehicle_type_id":"4","last_reported":1751981244,"current_range_meters":22400,"station_id":"ce4bha12rcd13ifvqef0","pricing_plan_id":"cebpf4jnsgd1na2vs0mg"},{"bike_id":"40fa92fc-f934-431e-b290-17833f63b829","system_id":"levelo_inurba_marseille","lat":43.23219,"lon":5.35557,"is_reserved":false,"is_disabled":false,"rental_uris":{"android":"levelo://app?vid=40fa92fc-f934-431e-b290-17833f63b829","ios":"levelo://app?vid=40fa92fc-f934-431e-b290-17833f63b829"},