{"last_updated":1740499889,"ttl":60,"version":"2.2","data":{"bikes":[{"bike_id":"d910d49f-24dd-4679-b24f-cfe006465996","system_id":"levelo_inurba_marseille","lat":43.26552,"lon":5.39019,"is_reserved":false,"is_disabled":true,"rental_uris":{"android":"levelo://app?vid=d910d49f-24dd-4679-b24f-cfe006465996","ios":"levelo://app?vid=d910d49f-24dd-4679-b24f-cfe006465996"},"vehicle_type_id":"4","last_reported":1740499889,"current_range_meters":2800,"station_id":"ce4bhe12rcd13ifvqf30","pricing_plan_id":"cebpf4jnsgd1na2vs0mg"},{"bike_id":"c4543e23-0970-423f-b980-b75c9d0865e9","system_id":"levelo_inurba_marseille","lat":43.2927,"lon":5.38445,"is_reserved":false,"is_disabled":false,"rental_uris":{"android":"levelo://app?vid=c4543e23-0970-423f-b980-b75c9d0865e9","ios":"levelo://app?vid=c4543e23-0970-423f-b980-b75c9d0865e9"},"vehicle_type_id":"4","last_reported":1740499889,"current_range_meters":2000,"station_id":"ce4bh692rcd13ifvqea0","pricing_plan_id":"cebpf4jnsgd1na2vs0mg"},{"bike_id":"edae214e-44da-4e33-a81c-59bab5997d52","system_id":"levelo_inurba_marseille","lat":43.29569,"lon":5.39983,"is_reserved":false,"is_disabled":false,"rental_uris":{"android":"levelo://app?vid=edae214e-44da-4e33-a81c-59bab5997d52","ios":"levelo://app?vid=edae214e-44da-4e33-a81c-59bab5997d52"},"vehicle_type_id":"4","last_reported":1740499889,"current_range_meters":2800,"station_id":"ce4bh312rcd13ifvqdj0","pricing_plan_id":"cebpf4jnsgd1na2vs0mg"},{"bike_id":"ff849f84-5156-4deb-8a05-52ce70efd302","system_id":"levelo_inurba_marseille","lat":43.289694,"lon":5.378363,"is_reserved":false,"is_disabled":false,"rental_uris":{"android":"levelo://app?vid=ff849f84-5156-4deb-8a05-52ce70efd302","ios":"levelo://app?vid=ff849f84-5156-4deb-8a05-52ce70efd302"},"vehicle_type_id":"4","last_reported":1740499889,"current_range_meters":3200,"station_id":"ce4bhoh2rcd13ifvqh5g","pricing_plan_id":"cebpf4jnsgd1na2vs0mg"},{"bike_id":"2772297b-8107-429b-b0fd-931bd5d8c218","system_id":"levelo_inurba_marseille","lat":43.29262,"lon":5.40909,"is_reserved":false,"is_disabled":false,"rental_uris":{"android":"levelo://app?vid=2772297b-8107-429b-b0fd-931bd5d8c218","ios":"levelo://app?vid=2772297b-8107-429b-b0fd-931bd5d8c218"},"vehicle_type_id":"4","last_reported":1740499889,"current_range_meters":3600,"station_id":"ce4bh192rcd13ifvqdc0","pricing_plan_id":"cebpf4jnsgd1na2vs0mg"},{"bike_id":"22b3203b-7eb5-402f-870d-b9d5e087356f","system_id":"levelo_inurba_marseille","lat":43.28484,"lon":5.3842,"is_reserved":false,"is_disabled":false,"rental_uris":{"android":"levelo://app?vid=22b3203b-7eb5-402f-870d-b9d5e087356f","ios":"levelo://app?vid=22b3203b-7eb5-402f-870d-b9d5e087356f"},"vehicle_type_id":"4","last_reported":1740499889,"current_range_meters":4000,"station_id":"ce4bh512rcd13ifvqe3g","pricing_plan_id":"cebpf4jnsgd1na2vs0mg"},{"bike_id":"26784f1d-016d-42b9-9af0-c70c87c47092","system_id":"levelo_inurba_marseille","lat":43.31529,"lon":5.38042,"is_reserved":false,"is_disabled":false,"rental_uris":{"android":"levelo://app?vid=26784f1d-016d-42b9-9af0-c70c87c47092","ios":"levelo://app?vid=26784f1d-016d-42b9-9af0-c70c87c47092"},"vehicle_type_id":"4","last_reported":1740499889,"current_range_meters":4400,"station_id":"ce4bhsp2rcd13ifvqi50","pricing_plan_id":"cebpf4jnsgd1na2vs0mg"},{"bike_id":"5c992e28-5a32-4652-8c00-4022b21469ab","system_id":"levelo_inurba_marseille","lat":43.29628,"lon":5.40609,"is_reserved":false,"is_disabled":false,"rental_uris":{"android":"levelo://app?vid=5c992e28-5a32-4652-8c00-4022b21469ab","ios":"levelo://app?vid=5c992e28-5a32-4652-8c00-4022b21469ab"},"vehicle_type_id":"4","last_reported":1740499889,"current_range_meters":4000,"station_id":"ce4bh0h2rcd13ifvqd60","pricing_plan_id":"cebpf4jnsgd1na2vs0mg"},{"bike_id":"6d35a14b-7fbb-458c-89f1-1ec35048029d","system_id":"levelo_inurba_marseille","lat":43.31325,"lon":5.39703,"is_reserved":false,"is_disabled":false,"rental_uris":{"android":"levelo://app?vid=6d35a14b-7fbb-458c-89f1-1ec35048029d","ios":"levelo://app?vid=6d35a14b-7fbb-458c-89f1-1ec35048029d"},"vehicle_type_id":"4","last_reported":1740499889,"current_range_meters":2800,"station_id":"ce4bgvp2rcd13ifvqcu0","pricing_plan_id":"cebpf4jnsgd1na2vs0mg"},{"bike_id":"33fef4bf-d3c6-4104-9ae2-d2118f4fd32c","system_id":"levelo_inurba_marseille","lat":43.27916,"lon":5.39577,"is_reserved":false,"is_disabled":false,"rental_uris":{"android":"levelo://app?vid=33fef4bf-d3c6-4104-9ae2-d2118f4fd32c","ios":"levelo://app?vid=33fef4bf-d3c6-4104-9ae2-d2118f4fd32c"},"vehicle_type_id":"4","last_reported":1740499889,"current_range_meters":4400,"station_id":"ce4bhf92rcd13ifvqf40","pricing_plan_id":"cebpf4jnsgd1na2vs0mg"},{"bike_id":"2ad43be7-2f83-4f39-985e-a257a2fcedc2","system_id":"levelo_inurba_marseille","lat":43.290206,"lon":5.381297,"is_reserved":false,"is_disabled":false,"rental_uris":{"android":"levelo://app?vid=2ad43be7-2f83-4f39-985e-a257a2fcedc2","ios":"levelo://app?vid=2ad43be7-2f83-4f39-985e-a257a2fcedc2"},"vehicle_type_id":"4","last_reported":1740499889,"current_range_meters":0,"station_id":"ce4bhgh2rcd13ifvqfb0","pricing_plan_id":"cebpf4jnsgd1na2vs0mg"},{"bike_id":"15d63c41-d467-4e01-ab9d-1a4d98399eb8","system_id":"levelo_inurba_marseille","lat":43.280843,"lon":5.396708,"is_reserved":false,"is_disabled":true,"rental_uris":{"android":"levelo://app?vid=15d63c41-d467-4e01-ab9d-1a4d98399eb8","ios":"levelo://app?vid=15d63c41-d467-4e01-ab9d-1a4d98399eb8"},"vehicle_type_id":"4","last_reported":1740499889,"current_range_meters":4800,"station_id":"ce4bho12rcd13ifvqh2g","pricing_plan_id":"cebpf4jnsgd1na2vs0mg"},{"bike_id":"beee55ec-54c9-4c01-80f4-cb01f1a59aea","system_id":"levelo_inurba_marseille","lat":43.29168,"lon":5.37168,"is_reserved":false,"is_disabled":false,"rental_uris":{"android":"levelo://app?vid=beee55ec-54c9-4c01-80f4-cb01f1a59aea","ios":"levelo://app?vid=beee55ec-54c9-4c01-80f4-cb01f1a59aea"},"vehicle_type_id":"4","last_reported":1740499889,"current_range_meters":5600,"station_id":"ce4bha92rcd13ifvqeh0","pricing_plan_id":"cebpf4jnsgd1na2vs0mg"},{"bike_id":"f3e2d31b-bf16-4d93-8358-e1b5fc69cdb1","system_id":"levelo_inurba_marseille","lat":43.28081,"lon":5.39915,"is_reserved":false,"is_disabled":false,"rental_uris":{"android":"levelo://app?vid=f3e2d31b-bf16-4d93-8358-e1b5fc69cdb1","ios":"levelo://app?vid=f3e2d31b-bf16-4d93-8358-e1b5fc69cdb1"},"vehicle_type_id":"4","last_reported":1740499889,"current_range_meters":5600,"station_id":"","pricing_plan_id":"cebpf4jnsgd1na2vs0mg"},{"bike_id":"e3296aa9-fe16-41e8-b2f6-7eb2660fd4a5","system_id":"levelo_inurba_marseille","lat":43.30926,"lon":5.40158,"is_reserved":false,"is_disabled":false,"rental_uris":{"android":"levelo://app?vid=e3296aa9-fe16-41e8-b2f6-7eb2660fd4a5","ios":"levelo://app?vid=e3296aa9-fe16-41e8-b2f6-7eb2660fd4a5"},"vehicle_type_id":"4","last_reported":1740499889,"current_range_meters":5600,"station_id":"ce4bhpp2rcd13ifvqhgg","pricing_plan_id":"cebpf4jnsgd1na2vs0mg"},{"bike_id":"71f606a5-4879-4b26-9ccd-1543fb1a6ec7","system_id":"levelo_inurba_marseille","lat":43.283693,"lon":5.390353,"is_reserved":false,"is_disabled":false,"rental_uris":{"android":"levelo://app?vid=71f606a5-4879-4b26-9ccd-1543fb1a6ec7","ios":"levelo://app?vid=71f606a5-4879-4b26-9ccd-1543fb1a6ec7"},"vehicle_type_id":"4","last_reported":1740499889,"current_range_meters":6000,"station_id":"","pricing_plan_id":"cebpf4jnsgd1na2vs0mg"},{"bike_id":"407211f5-53a4-45c3-ae84-1f5018600d6e","system_id":"levelo_inurba_marseille","lat":43.28831,"lon":5.35293,"is_reserved":false,"is_disabled":false,"rental_uris":{"android":"levelo://app?vid=407211f5-53a4-45c3-ae84-1f5018600d6e","ios":"levelo://app?vid=407211f5-53a4-45c3-ae84-1f5018600d6e"},"vehicle_type_id":"4","last_reported":1740499889,"current_range_meters":6000,"station_id":"","pricing_plan_id":"cebpf4jnsgd1na2vs0mg"},{"bike_id":"0fe0b1bf-9b0d-4b69-b619-62d720111c13","system_id":"levelo_inurba_marseille","lat":43.2657,"lon":5.39006,"is_reserved":false,"is_disabled":false,"rental_uris":{"android":"levelo://app?vid=0fe0b1bf-9b0d-4b69-b619-62d720111c13","ios":"levelo://app?vid=0fe0b1bf-9b0d-4b69-b619-62d720111c13"},"vehicle_type_id":"4","last_reported":1740499889,"current_range_meters":6400,"station_id":"ce4bhe12rcd13ifvqf30","pricing_plan_id":"cebpf4jnsgd1na2vs0mg"},{"bike_id":"da634367-acad-40de-ac7c-eb1fe9e9f106","system_id":"levelo_inurba_marseille","lat":43.28688,"lon":5.37424,"is_reserved":false,"is_disabled":true,"rental_uris":{"android":"levelo://app?vid=da634367-acad-40de-ac7c-eb1fe9e9f106","ios":"levelo://app?vid=da634367-acad-40de-ac7c-eb1fe9e9f106"},"vehicle_type_id":"4","last_reported":1740499889,"current_range_meters":6800,"station_id":"ce4bh3p2rcd13ifvqdq0","pricing_plan_id":"cebpf4jnsgd1na2vs0mg"},{"bike_id":"927cf4db-147f-48e8-b842-46de9d4ae75e","system_id":"levelo_inurba_marseille","lat":43.29276,"lon":5.40126,"is_reserved":false,"is_disabled":false,"rental_uris":{"android":"levelo://app?vid=927cf4db-147f-48e8-b842-46de9d4ae75e","ios":"levelo://app?vid=927cf4db-147f-48e8-b842-46de9d4ae75e"},"vehicle_type_id":"4","last_reported":1740499889,"current_range_meters":6800,"station_id":"ce4bh312rcd13ifvqdk0","pricing_plan_id":"cebpf4jnsgd1na2vs0mg"},{"bike_id":"7dbdf566-cf9e-4283-a999-d9ea41155c78","system_id":"levelo_inurba_marseille","lat":43.27997,"lon":5.41656,"is_reserved":false,"is_disabled":false,"rental_uris":{"android":"levelo://app?vid=7dbdf566-cf9e-4283-a999-d9ea41155c78","ios":"levelo://app?vid=7dbdf566-cf9e-4283-a999-d9ea41155c78"},"vehicle_type_id":"4","last_reported":1740499889,"current_range_meters":6800,"station_id":"ce4bho12rcd13ifvqh1g","pricing_plan_id":"cebpf4jnsgd1na2vs0mg"},{"bike_id":"85cfbe45-f79b-45cd-b3e7-7379b11928bb","system_id":"levelo_inurba_marseille","lat":43.30006,"lon":5.37196,"is_reserved":false,"is_disabled":false,"rental_uris":{"android":"levelo://app?vid=85cfbe45-f79b-45cd-b3e7-7379b11928bb","ios":"levelo://app?vid=85cfbe45-f79b-45cd-b3e7-7379b11928bb"},"vehicle_type_id":"4","last_reported":1740499889,"current_range_meters":6800,"station_id":"ce4bgr92rcd13ifvqc7g","pricing_plan_id":"cebpf4jnsgd1na2vs0mg"},{"bike_id":"ca619ab3-9272-4af7-a614-eb6fee8f17de","system_id":"levelo_inurba_marseille","lat":43.29578,"lon":5.39977,"is_reserved":false,"is_disabled":false,"rental_uris":{"android":"levelo://app?vid=ca619ab3-9272-4af7-a614-eb6fee8f17de","ios":"levelo://app?vid=ca619ab3-9272-4af7-a614-eb6fee8f17de"},"vehicle_type_id":"4","last_reported":1740499889,"current_range_meters":6800,"station_id":"ce4bh312rcd13ifvqdj0","pricing_plan_id":"cebpf4jnsgd1na2vs0mg"},{"bike_id":"69db591e-117c-4e22-b712-9ea322807f00","system_id":"levelo_inurba_marseille","lat":43.32286,"lon":5.38281,"is_reserved":false,"is_disabled":false,"rental_uris":{"android":"levelo://app?vid=69db591e-117c-4e22-b712-9ea322807f00","ios":"levelo://app?vid=69db591e-117c-4e22-b712-9ea322807f00"},"vehicle_type_id":"4","last_reported":1740499889,"current_range_meters":6800,"station_id":"ce4bhr12rcd13ifvqhqg","pricing_plan_id":"cebpf4jnsgd1na2vs0mg"},{"bike_id":"45621f84-95b8-4a7c-8651-e447dacd9a6c","system_id":"levelo_inurba_marseille","lat":43.295316,"lon":5.385447,"is_reserved":false,"is_disabled":false,"rental_uris":{"android":"levelo://app?vid=45621f84-95b8-4a7c-8651-e447dacd9a6c","ios":"levelo://app?vid=45621f84-95b8-4a7c-8651-e447dacd9a6c"},"vehicle_type_id":"4","last_reported":1740499889,"current_range_meters":7200,"station_id":"ce4bgih2rcd13ifvqba0","pricing_plan_id":"cebpf4jnsgd1na2vs0mg"},{"bike_id":"b0319319-1ae3-4867-bf81-d240c9f190cb","system_id":"levelo_inurba_marseille","lat":43.286207,"lon":5.350903,"is_reserved":false,"is_disabled":false,"rental_uris":{"android":"levelo://app?vid=b0319319-1ae3-4867-bf81-d240c9f190cb","ios":"levelo://app?vid=b0319319-1ae3-4867-bf81-d240c9f190cb"},"vehicle_type_id":"4","last_reported":1740499889,"current_range_meters":7200,"station_id":"ce4bhch2rcd13ifvqeug","pricing_plan_id":"cebpf4jnsgd1na2vs0mg"},{"bike_id":"094fead0-0431-4eed-9906-d63f940d98da","system_id":"levelo_inurba_marseille","lat":43.30168,"lon":5.39609,"is_reserved":false,"is_disabled":false,"rental_uris":{"android":"levelo://app?vid=094fead0-0431-4eed-9906-d63f940d98da","ios":"levelo://app?vid=094fead0-0431-4eed-9906-d63f940d98da"},"vehicle_type_id":"4","last_reported":1740499889,"current_range_meters":8000,"station_id":"ce4bh0h2rcd13ifvqd50","pricing_plan_id":"cebpf4jnsgd1na2vs0mg"},{"bike_id":"35a9592e-34f6-445f-8622-d83168693fec","system_id":"levelo_inurba_marseille","lat":43.29583,"lon":5.36747,"is_reserved":false,"is_disabled":false,"rental_uris":{"android":"levelo://app?vid=35a9592e-34f6-445f-8622-d83168693fec","ios":"levelo://app?vid=35a9592e-34f6-445f-8622-d83168693fec"},"vehicle_type_id":"4","last_reported":1740499889,"current_range_meters":8000,"station_id":"ce4bgph2rcd13ifvqc2g","pricing_plan_id":"cebpf4jnsgd1na2vs0mg"},{"bike_id":"40c8fa98-8528-4ee0-a602-90f17913260d","system_id":"levelo_inurba_marseille","lat":43.26807,"lon":5.40281,"is_reserved":false,"is_disabled":false,"rental_uris":{"android":"levelo://app?vid=40c8fa98-8528-4ee0-a602-90f17913260d","ios":"levelo://app?vid=40c8fa98-8528-4ee0-a602-90f17913260d"},"vehicle_type_id":"4","last_reported":1740499889,"current_range_meters":8000,"station_id":"ce501612rcd8frsf0b60","pricing_plan_id":"cebpf4jnsgd1na2vs0mg"},{"bike_id":"5f142e4f-a097-4ca7-a7f0-964b9a63d153","system_id":"levelo_inurba_marseille","lat":43.32481,"lon":5.36571,"is_reserved":false,"is_disabled":false,"rental_uris":{"android":"levelo://app?vid=5f142e4f-a097-4ca7-a7f0-964b9a63d153","ios":"levelo://app?vid=5f142e4f-a097-4ca7-a7f0-964b9a63d153"},"vehicle_type_id":"4","last_reported":1740499889,"current_range_meters":8000,"station_id":"ce4bhs12rcd13ifvqhvg","pricing_plan_id":"cebpf4jnsgd1na2vs0mg"},{"bike_id":"ec17ff6a-26f9-4514-bd43-4ec7017c0b01","system_id":"levelo_inurba_marseille","lat":43.29338,"lon":5.37662,"is_reserved":false,"is_disabled":false,"rental_uris":{"android":"levelo://app?vid=ec17ff6a-26f9-4514-bd43-4ec7017c0b01","ios":"levelo://app?vid=ec17ff6a-26f9-4514-bd43-4ec7017c0b01"},"vehicle_type_id":"4","last_reported":1740499889,"current_range_meters":8000,"station_id":"","pricing_plan_id":"cebpf4jnsgd1na2vs0mg"},{"bike_id":"146aebc9-098b-47c2-b26e-46c1350561bc","system_id":"levelo_inurba_marseille","lat":43.33764,"lon":5.37486,"is_reserved":false,"is_disabled":false,"rental_uris":{"android":"levelo://app?vid=146aebc9-098b-47c2-b26e-46c1350561bc","ios":"levelo://app?vid=146aebc9-098b-47c2-b26e-46c1350561bc"},"vehicle_type_id":"4","last_reported":1740499889,"current_range_meters":8000,"station_id":"","pricing_plan_id":"cebpf4jnsgd1na2vs0mg"},{"bike_id":"5162c2ce-a731-4d3b-a21a-a1c8cb63150f","system_id":"levelo_inurba_marseille","lat":43.3171,"lon":5.43702,"is_reserved":false,"is_disabled":false,"rental_uris":{"android":"levelo://app?vid=5162c2ce-a731-4d3b-a21a-a1c8cb63150f","ios":"levelo://app?vid=5162c2ce-a731-4d3b-a21a-a1c8cb63150f"},"vehicle_type_id":"4","last_reported":1740499889,"current_range_meters":8000,"station_id":"ce4bhp92rcd13ifvqhcg","pricing_plan_id":"cebpf4jnsgd1na2vs0mg"},{"bike_id":"0a72916f-db65-4d32-976f-b2305f3c3331","system_id":"levelo_inurba_marseille","lat":43.31758,"lon":5.39019,"is_reserved":false,"is_disabled":false,"rental_uris":{"android":"levelo://app?vid=0a72916f-db65-4d32-976f-b2305f3c3331","ios":"levelo://app?vid=0a72916f-db65-4d32-976f-b2305f3c3331"},"vehicle_type_id":"4","last_reported":1740499889,"current_range_meters":8000,"station_id":"ce4bhqp2rcd13ifvqhng","pricing_plan_id":"cebpf4jnsgd1na2vs0mg"},{"bike_id":"48043528-c521-4656-ac42-dd4891924259","system_id":"levelo_inurba_marseille","lat":43.28524,"lon":5.38389,"is_reserved":false,"is_disabled":false,"rental_uris":{"android":"levelo://app?vid=48043528-c521-4656-ac42-dd4891924259","ios":"levelo://app?vid=48043528-c521-4656-ac42-dd4891924259"},"vehicle_type_id":"4","last_reported":1740499889,"current_range_meters":8000,"station_id":"","pricing_plan_id":"cebpf4jnsgd1na2vs0mg"},{"bike_id":"ce08e129-3210-4784-8e00-3661099c392d","system_id":"levelo_inurba_marseille","lat":43.299,"lon":5.43697,"is_reserved":false,"is_disabled":false,"rental_uris":{"android":"levelo://app?vid=ce08e129-3210-4784-8e00-3661099c392d","ios":"levelo://app?vid=ce08e129-3210-4784-8e00-3661099c392d"},"vehicle_type_id":"4","last_reported":1740499889,"current_range_meters":8800,"station_id":"","pricing_plan_id":"cebpf4jnsgd1na2vs0mg"},{"bike_id":"652e010c-c05f-4832-a370-b768a2682f44","system_id":"levelo_inurba_marseille","lat":43.32342,"lon":5.38649,"is_reserved":false,"is_disabled":false,"rental_uris":{"android":"levelo://app?vid=652e010c-c05f-4832-a370-b768a2682f44","ios":"levelo://app?vid=652e010c-c05f-4832-a370-b768a2682f44"},"vehicle_type_id":"4","last_reported":1740499889,"current_range_meters":6400,"station_id":"","pricing_plan_id":"cebpf4jnsgd1na2vs0mg"},{"bike_id":"ceff7498-623c-49c6-b291-d6b8b533e34e","system_id":"levelo_inurba_marseille","lat":43.323648,"lon":5.389012,"is_reserved":false,"is_disabled":false,"rental_uris":{"android":"levelo://app?vid=ceff7498-623c-49c6-b291-d6b8b533e34e","ios":"levelo://app?vid=ceff7498-623c-49c6-b291-d6b8b533e34e"},"vehicle_type_id":"4","last_reported":1740499889,"current_range_meters":8800,"station_id":"ce4bhqp2rcd13ifvqhog","pricing_plan_id":"cebpf4jnsgd1na2vs0mg"},{"bike_id":"a927f728-bbde-4e65-9170-c4dc7452345d","system_id":"levelo_inurba_marseille","lat":43.2903,"lon":5.38644,"is_reserved":false,"is_disabled":false,"rental_uris":{"android":"levelo://app?vid=a927f728-bbde-4e65-9170-c4dc7452345d","ios":"levelo://app?vid=a927f728-bbde-4e65-9170-c4dc7452345d"},"vehicle_type_id":"4","last_reported":1740499889,"current_range_meters":8800,"station_id":"ce4bh4p2rcd13ifvqe0g","pricing_plan_id":"cebpf4jnsgd1na2vs0mg"},{"bike_id":"c268b8f9-4c5e-4aa7-bf2e-ba5b2f848030","system_id":"levelo_inurba_marseille","lat":43.31887,"lon":5.40744,"is_reserved":false,"is_disabled":false,"rental_uris":{"android":"levelo://app?vid=c268b8f9-4c5e-4aa7-bf2e-ba5b2f848030","ios":"levelo://app?vid=c268b8f9-4c5e-4aa7-bf2e-ba5b2f848030"},"vehicle_type_id":"4","last_reported":1740499889,"current_range_meters":4000,"station_id":"ce4bhq12rcd13ifvqhig","pricing_plan_id":"cebpf4jnsgd1na2vs0mg"},{"bike_id":"cdb89ac5-d2c0-48e8-bfe0-fa29941fd11a","system_id":"levelo_inurba_marseille","lat":43.29102,"lon":5.38164,"is_reserved":false,"is_disabled":false,"rental_uris":{"android":"levelo://app?vid=cdb89ac5-d2c0-48e8-bfe0-fa29941fd11a","ios":"levelo://app?vid=cdb89ac5-d2c0-48e8-bfe0-fa29941fd11a"},"vehicle_type_id":"4","last_reported":1740499889,"current_range_meters":8800,"station_id":"ce4bh512rcd13ifvqe2g","pricing_plan_id":"cebpf4jnsgd1na2vs0mg"},{"bike_id":"c95efe5d-4f09-4f24-bb74-c2fec2b2737e","system_id":"levelo_inurba_marseille","lat":43.29034,"lon":5.38655,"is_reserved":false,"is_disabled":false,"rental_uris":{"android":"levelo://app?vid=c95efe5d-4f09-4f24-bb74-c2fec2b2737e","ios":"levelo://app?vid=c95efe5d-4f09-4f24-bb74-c2fec2b2737e"},"vehicle_type_id":"4","last_reported":1740499889,"current_range_meters":9200,"station_id":"ce4bh4p2rcd13ifvqe0g","pricing_plan_id":"cebpf4jnsgd1na2vs0mg"},{"bike_id":"6273872b-2dcb-4a91-b1a9-dccc89e453b7","system_id":"levelo_inurba_marseille","lat":43.30784,"lon":5.37651,"is_reserved":false,"is_disabled":false,"rental_uris":{"android":"levelo://app?vid=6273872b-2dcb-4a91-b1a9-dccc89e453b7","ios":"levelo://app?vid=6273872b-2dcb-4a91-b1a9-dccc89e453b7"},"vehicle_type_id":"4","last_reported":1740499889,"current_range_meters":9200,"station_id":"ce4bgv92rcd13ifvqcq0","pricing_plan_id":"cebpf4jnsgd1na2vs0mg"},{"bike_id":"da4dbf1a-36e3-4a1f-9eea-8f4f3bd1fe9f","system_id":"levelo_inurba_marseille","lat":43.29314,"lon":5.3717,"is_reserved":false,"is_disabled":false,"rental_uris":{"android":"levelo://app?vid=da4dbf1a-36e3-4a1f-9eea-8f4f3bd1fe9f","ios":"levelo://app?vid=da4dbf1a-36e3-4a1f-9eea-8f4f3bd1fe9f"},"vehicle_type_id":"4","last_reported":1740499889,"current_range_meters":9200,"station_id":"ce4bgh92rcd13ifvqb40","pricing_plan_id":"cebpf4jnsgd1na2vs0mg"},{"bike_id":"b3be3741-6ba0-4c85-bada-5d60cd637267","system_id":"levelo_inurba_marseille","lat":43.28142,"lon":5.42649,"is_reserved":false,"is_disabled":false,"rental_uris":{"android":"levelo://app?vid=b3be3741-6ba0-4c85-bada-5d60cd637267","ios":"levelo://app?vid=b3be3741-6ba0-4c85-bada-5d60cd637267"},"vehicle_type_id":"4","last_reported":1740499889,"current_range_meters":9200,"station_id":"ce4bhnh2rcd13ifvqgug","pricing_plan_id":"cebpf4jnsgd1na2vs0mg"},{"bike_id":"735b01c9-2e84-486c-a998-c08274c14426","system_id":"levelo_inurba_marseille","lat":43.305,"lon":5.39113,"is_reserved":false,"is_disabled":false,"rental_uris":{"android":"levelo://app?vid=735b01c9-2e84-486c-a998-c08274c14426","ios":"levelo://app?vid=735b01c9-2e84-486c-a998-c08274c14426"},"vehicle_type_id":"4","last_reported":1740499889,"current_range_meters":9200,"station_id":"ce4bh0p2rcd13ifvqd70","pricing_plan_id":"cebpf4jnsgd1na2vs0mg"},{"bike_id":"59d47920-9b34-4407-888d-f35ca506931d","system_id":"levelo_inurba_marseille","lat":43.28609,"lon":5.37065,"is_reserved":false,"is_disabled":false,"rental_uris":{"android":"levelo://app?vid=59d47920-9b34-4407-888d-f35ca506931d","ios":"levelo://app?vid=59d47920-9b34-4407-888d-f35ca506931d"},"vehicle_type_id":"4","last_reported":1740499889,"current_range_meters":9200,"station_id":"ce4bht12rcd13ifvqi60","pricing_plan_id":"cebpf4jnsgd1na2vs0mg"},{"bike_id":"b5ae58c1-c68c-445a-afd6-8cab97f98a18","system_id":"levelo_inurba_marseille","lat":43.27558,"lon":5.38443,"is_reserved":false,"is_disabled":false,"rental_uris":{"android":"levelo://app?vid=b5ae58c1-c68c-445a-afd6-8cab97f98a18","ios":"levelo://app?vid=b5ae58c1-c68c-445a-afd6-8cab97f98a18"},"vehicle_type_id":"4","last_reported":1740499889,"current_range_meters":8400,"station_id":"ce4bhh92rcd13ifvqfi0","pricing_plan_id":"cebpf4jnsgd1na2vs0mg"},{"bike_id":"e4d253b1-bed8-4007-8de6-68c7c5badcca","system_id":"levelo_inurba_marseille","lat":43.29277,"lon":5.36853,"is_reserved":false,"is_disabled":false,"rental_uris":{"android":"levelo://app?vid=e4d253b1-bed8-4007-8de6-68c7c5badcca","ios":"levelo://app?vid=e4d253b1-bed8-4007-8de6-68c7c5badcca"},"vehicle_type_id":"4","last_reported":1740499889,"current_range_meters":9600,"station_id":"ce4bhbp2rcd13ifvqesg","pricing_plan_id":"cebpf4jnsgd1na2vs0mg"},{"bike_id":"e5c275a2-a964-47d8-9489-ed1126cf4cef","system_id":"levelo_inurba_marseille","lat":43.29621,"lon":5.37915,"is_reserved":false,"is_disabled":false,"rental_uris":{"android":"levelo://app?vid=e5c275a2-a964-47d8-9489-ed1126cf4cef","ios":"levelo://app?vid=e5c275a2-a964-47d8-9489-ed1126cf4cef"},"vehicle_type_id":"4","last_reported":1740499889,"current_range_meters":10000,"station_id":"","pricing_plan_id":"cebpf4jnsgd1na2vs0mg"},{"bike_id":"b86f6d09-16f9-40a7-b718-fbd2f6f5e660","system_id":"levelo_inurba_marseille","lat":43.25586,"lon":5.38244,"is_reserved":false,"is_disabled":false,"rental_uris":{"android":"levelo://app?vid=b86f6d09-16f9-40a7-b718-fbd2f6f5e660","ios":"levelo://app?vid=b86f6d09-16f9-40a7-b718-fbd2f6f5e660"},"vehicle_type_id":"4","last_reported":1740499889,"current_range_meters":9600,"station_id":"ce4bhih2rcd13ifvqfs0","pricing_plan_id":"cebpf4jnsgd1na2vs0mg"},{"bike_id":"ae8a19c6-d644-4dc9-829e-8caf6b1d2af0","system_id":"levelo_inurba_marseille","lat":43.27203,"lon":5.39181,"is_reserved":false,"is_disabled":true,"rental_uris":{"android":"levelo://app?vid=ae8a19c6-d644-4dc9-829e-8caf6b1d2af0","ios":"levelo://app?vid=ae8a19c6-d644-4dc9-829e-8caf6b1d2af0"},"vehicle_type_id":"4","last_reported":1740499889,"current_range_meters":9600,"station_id":"ce4bhhp2rcd13ifvqfm0","pricing_plan_id":"cebpf4jnsgd1na2vs0mg"},{"bike_id":"957f0e7a-47f6-49cd-8bcf-54105b8c8113","system_id":"levelo_inurba_marseille","lat":43.26782,"lon":5.39421,"is_reserved":false,"is_disabled":false,"rental_uris":{"android":"levelo://app?vid=957f0e7a-47f6-49cd-8bcf-54105b8c8113","ios":"levelo://app?vid=957f0e7a-47f6-49cd-8bcf-54105b8c8113"},"vehicle_type_id":"4","last_reported":1740499889,"current_range_meters":10000,"station_id":"ce4bhh12rcd13ifvqfg0","pricing_plan_id":"cebpf4jnsgd1na2vs0mg"},{"bike_id":"f4ab21e3-3e7f-485f-bbc0-640b3e6d8996","system_id":"levelo_inurba_marseille","lat":43.29088,"lon":5.3817,"is_reserved":false,"is_disabled":false,"rental_uris":{"android":"levelo://app?vid=f4ab21e3-3e7f-485f-bbc0-640b3e6d8996","ios":"levelo://app?vid=f4ab21e3-3e7f-485f-bbc0-640b3e6d8996"},"vehicle_type_id":"4","last_reported":1740499889,"current_range_meters":9600,"station_id":"ce4bh512rcd13ifvqe2g","pricing_plan_id":"cebpf4jnsgd1na2vs0mg"},{"bike_id":"4c8d2f14-9b48-4526-a12f-33379a52a255","system_id":"levelo_inurba_marseille","lat":43.33025,"lon":5.39049,"is_reserved":false,"is_disabled":false,"rental_uris":{"android":"levelo://app?vid=4c8d2f14-9b48-4526-a12f-33379a52a255","ios":"levelo://app?vid=4c8d2f14-9b48-4526-a12f-33379a52a255"},"vehicle_type_id":"4","last_reported":1740499889,"current_range_meters":10000,"station_id":"ce4bhr92rcd13ifvqhrg","pricing_plan_id":"cebpf4jnsgd1na2vs0mg"},{"bike_id":"b68c4a8d-14d8-4987-9dce-59319ae96c78","system_id":"levelo_inurba_marseille","lat":43.28973,"lon":5.3784,"is_reserved":false,"is_disabled":false,"rental_uris":{"android":"levelo://app?vid=b68c4a8d-14d8-4987-9dce-59319ae96c78","ios":"levelo://app?vid=b68c4a8d-14d8-4987-9dce-59319ae96c78"},"vehicle_type_id":"4","last_reported":1740499889,"current_range_meters":10000,"station_id":"","pricing_plan_id":"cebpf4jnsgd1na2vs0mg"},{"bike_id":"441425d3-fd4c-488e-b943-8be2afb0906f","system_id":"levelo_inurba_marseille","lat":43.28667,"lon":5.36362,"is_reserved":false,"is_disabled":false,"rental_uris":{"android":"levelo://app?vid=441425d3-fd4c-488e-b943-8be2afb0906f","ios":"levelo://app?vid=441425d3-fd4c-488e-b943-8be2afb0906f"},"vehicle_type_id":"4","last_reported":1740499889,"current_range_meters":10000,"station_id":"ce4bhah2rcd13ifvqej0","pricing_plan_id":"cebpf4jnsgd1na2vs0mg"},{"bike_id":"9bd942d6-9f43-45bc-9bb7-21ece44b98c2","system_id":"levelo_inurba_marseille","lat":43.28968,"lon":5.37839,"is_reserved":false,"is_disabled":false,"rental_uris":{"android":"levelo://app?vid=9bd942d6-9f43-45bc-9bb7-21ece44b98c2","ios":"levelo://app?vid=9bd942d6-9f43-45bc-9bb7-21ece44b98c2"},"vehicle_type_id":"4","last_reported":1740499889,"current_range_meters":10000,"station_id":"ce4bh9p2rcd13ifvqed0","pricing_plan_id":"cebpf4jnsgd1na2vs0mg"},{"bike_id":"b4172fff-879c-46ea-972e-447628c300fb","system_id":"levelo_inurba_marseille","lat":43.28155,"lon":5.42643,"is_reserved":false,"is_disabled":false,"rental_uris":{"android":"levelo://app?vid=b4172fff-879c-46ea-972e-447628c300fb","ios":"levelo://app?vid=b4172fff-879c-46ea-972e-447628c300fb"},"vehicle_type_id":"4","last_reported":1740499889,"current_range_meters":10000,"station_id":"ce4bhnh2rcd13ifvqgug","pricing_plan_id":"cebpf4jnsgd1na2vs0mg"},{"bike_id":"b8ce8132-e8a7-4e14-aa42-3537bd2b6a78","system_id":"levelo_inurba_marseille","lat":43.2466,"lon":5.3817,"is_reserved":false,"is_disabled":false,"rental_uris":{"android":"levelo://app?vid=b8ce8132-e8a7-4e14-aa42-3537bd2b6a78","ios":"levelo://app?vid=b8ce8132-e8a7-4e14-aa42-3537bd2b6a78"},"vehicle_type_id":"4","last_reported":1740499889,"current_range_meters":10000,"station_id":"ce4bhih2rcd13ifvqfr0","pricing_plan_id":"cebpf4jnsgd1na2vs0mg"},{"bike_id":"c503eed2-e48e-4276-87ce-dbe1cd6eaf81","system_id":"levelo_inurba_marseille","lat":43.25087,"lon":5.39525,"is_reserved":false,"is_disabled":false,"rental_uris":{"android":"levelo://app?vid=c503eed2-e48e-4276-87ce-dbe1cd6eaf81","ios":"levelo://app?vid=c503eed2-e48e-4276-87ce-dbe1cd6eaf81"},"vehicle_type_id":"4","last_reported":1740499889,"current_range_meters":8800,"station_id":"ce4bhm12rcd13ifvqgkg","pricing_plan_id":"cebpf4jnsgd1na2vs0mg"},{"bike_id":"7b77c8a6-74b2-4596-b46f-8e9227fdb30d","system_id":"levelo_inurba_marseille","lat":43.29933,"lon":5.36554,"is_reserved":false,"is_disabled":false,"rental_uris":{"android":"levelo://app?vid=7b77c8a6-74b2-4596-b46f-8e9227fdb30d","ios":"levelo://app?vid=7b77c8a6-74b2-4596-b46f-8e9227fdb30d"},"vehicle_type_id":"4","last_reported":1740499889,"current_range_meters":10000,"station_id":"ce4bgm92rcd13ifvqbr0","pricing_plan_id":"cebpf4jnsgd1na2vs0mg"},{"bike_id":"5a1ff1fb-aa63-4592-a464-353df37f14b3","system_id":"levelo_inurba_marseille","lat":43.28157,"lon":5.42649,"is_reserved":false,"is_disabled":false,"rental_uris":{"android":"levelo://app?vid=5a1ff1fb-aa63-4592-a464-353df37f14b3","ios":"levelo://app?vid=5a1ff1fb-aa63-4592-a464-353df37f14b3"},"vehicle_type_id":"4","last_reported":1740499889,"current_range_meters":7200,"station_id":"ce4bhnh2rcd13ifvqgug","pricing_plan_id":"cebpf4jnsgd1na2vs0mg"},{"bike_id":"b8056528-61d4-45d9-b2dd-e6ab8ef50c51","system_id":"levelo_inurba_marseille","lat":43.31284,"lon":5.402,"is_reserved":false,"is_disabled":false,"rental_uris":{"android":"levelo://app?vid=b8056528-61d4-45d9-b2dd-e6ab8ef50c51","ios":"levelo://app?vid=b8056528-61d4-45d9-b2dd-e6ab8ef50c51"},"vehicle_type_id":"4","last_reported":1740499889,"current_range_meters":10800,"station_id":"ce4bh092rcd13ifvqd30","pricing_plan_id":"cebpf4jnsgd1na2vs0mg"},{"bike_id":"e24cf4f6-ce2c-417c-8311-3b3b510b795f","system_id":"levelo_inurba_marseille","lat":43.29417,"lon":5.38626,"is_reserved":false,"is_disabled":false,"rental_uris":{"android":"levelo://app?vid=e24cf4f6-ce2c-417c-8311-3b3b510b795f","ios":"levelo://app?vid=e24cf4f6-ce2c-417c-8311-3b3b510b795f"},"vehicle_type_id":"4","last_reported":1740499889,"current_range_meters":10800,"station_id":"ce4bh2h2rcd13ifvqdh0","pricing_plan_id":"cebpf4jnsgd1na2vs0mg"},{"bike_id":"41c45514-78ef-4437-b6cf-da857a9e58ef","system_id":"levelo_inurba_marseille","lat":43.25832,"lon":5.39434,"is_reserved":false,"is_disabled":false,"rental_uris":{"android":"levelo://app?vid=41c45514-78ef-4437-b6cf-da857a9e58ef","ios":"levelo://app?vid=41c45514-78ef-4437-b6cf-da857a9e58ef"},"vehicle_type_id":"4","last_reported":1740499889,"current_range_meters":10800,"station_id":"ce4bhip2rcd13ifvqft0","pricing_plan_id":"cebpf4jnsgd1na2vs0mg"},{"bike_id":"e560522d-07bf-4796-9a0d-137dd8bf7d73","system_id":"levelo_inurba_marseille","lat":43.25126,"lon":5.4032,"is_reserved":false,"is_disabled":false,"rental_uris":{"android":"levelo://app?vid=e560522d-07bf-4796-9a0d-137dd8bf7d73","ios":"levelo://app?vid=e560522d-07bf-4796-9a0d-137dd8bf7d73"},"vehicle_type_id":"4","last_reported":1740499889,"current_range_meters":10800,"station_id":"ce4bhlh2rcd13ifvqgig","pricing_plan_id":"cebpf4jnsgd1na2vs0mg"},{"bike_id":"c53ed6e7-916e-40f4-9e84-94eccc7a73ea","system_id":"levelo_inurba_marseille","lat":43.23151,"lon":5.43726,"is_reserved":false,"is_disabled":false,"rental_uris":{"android":"levelo://app?vid=c53ed6e7-916e-40f4-9e84-94eccc7a73ea","ios":"levelo://app?vid=c53ed6e7-916e-40f4-9e84-94eccc7a73ea"},"vehicle_type_id":"4","last_reported":1740499889,"current_range_meters":10800,"station_id":"ce4bhmp2rcd13ifvqgog","pricing_plan_id":"cebpf4jnsgd1na2vs0mg"},{"bike_id":"5d096c33-27cf-462e-b3ba-e5b2480d6f74","system_id":"levelo_inurba_marseille","lat":43.30549,"lon":5.36536,"is_reserved":false,"is_disabled":false,"rental_uris":{"android":"levelo://app?vid=5d096c33-27cf-462e-b3ba-e5b2480d6f74","ios":"levelo://app?vid=5d096c33-27cf-462e-b3ba-e5b2480d6f74"},"vehicle_type_id":"4","last_reported":1740499889,"current_range_meters":8400,"station_id":"ce4bgs12rcd13ifvqcag","pricing_plan_id":"cebpf4jnsgd1na2vs0mg"},{"bike_id":"05f51bd6-bf8c-4b6c-ba2f-d7bf7cec3006","system_id":"levelo_inurba_marseille","lat":43.23188,"lon":5.35588,"is_reserved":false,"is_disabled":false,"rental_uris":{"android":"levelo://app?vid=05f51bd6-bf8c-4b6c-ba2f-d7bf7cec3006","ios":"levelo://app?vid=05f51bd6-bf8c-4b6c-ba2f-d7bf7cec3006"},"vehicle_type_id":"4","last_reported":1740499889,"current_range_meters":11200,"station_id":"ce4bhu92rcd13ifvqi70","pricing_plan_id":"cebpf4jnsgd1na2vs0mg"},{"bike_id":"26fcda6c-6319-4ec3-85c3-8c767ab6a0bc","system_id":"levelo_inurba_marseille","lat":43.28981,"lon":5.37838,"is_reserved":false,"is_disabled":false,"rental_uris":{"android":"levelo://app?vid=26fcda6c-6319-4ec3-85c3-8c767ab6a0bc","ios":"levelo://app?vid=26fcda6c-6319-4ec3-85c3-8c767ab6a0bc"},"vehicle_type_id":"4","last_reported":1740499889,"current_range_meters":10800,"station_id":"ce4bh9p2rcd13ifvqed0","pricing_plan_id":"cebpf4jnsgd1na2vs0mg"},{"bike_id":"7c45866a-bd99-4c12-9747-66203f12a96e","system_id":"levelo_inurba_marseille","lat":43.231489,"lon":5.355156,"is_reserved":false,"is_disabled":false,"rental_uris":{"android":"levelo://app?vid=7c45866a-bd99-4c12-9747-66203f12a96e","ios":"levelo://app?vid=7c45866a-bd99-4c12-9747-66203f12a96e"},"vehicle_type_id":"4","last_reported":1740499889,"current_range_meters":11600,"station_id":"","pricing_plan_id":"cebpf4jnsgd1na2vs0mg"},{"bike_id":"7667dfd1-194d-489a-9fb7-28c78fa44489","system_id":"levelo_inurba_marseille","lat":43.29297,"lon":5.37199,"is_reserved":false,"is_disabled":false,"rental_uris":{"android":"levelo://app?vid=7667dfd1-194d-489a-9fb7-28c78fa44489","ios":"levelo://app?vid=7667dfd1-194d-489a-9fb7-28c78fa44489"},"vehicle_type_id":"4","last_reported":1740499889,"current_range_meters":11600,"station_id":"ce4bgh92rcd13ifvqb40","pricing_plan_id":"cebpf4jnsgd1na2vs0mg"},{"bike_id":"31cecc24-a5e3-4b06-b226-209e9963d8fa","system_id":"levelo_inurba_marseille","lat":43.23146,"lon":5.43719,"is_reserved":false,"is_disabled":false,"rental_uris":{"android":"levelo://app?vid=31cecc24-a5e3-4b06-b226-209e9963d8fa","ios":"levelo://app?vid=31cecc24-a5e3-4b06-b226-209e9963d8fa"},"vehicle_type_id":"4","last_reported":1740499889,"current_range_meters":11600,"station_id":"ce4bhmp2rcd13ifvqgog","pricing_plan_id":"cebpf4jnsgd1na2vs0mg"},{"bike_id":"aa461733-5cf8-4735-867e-49f8d4ad6795","system_id":"levelo_inurba_marseille","lat":43.29284,"lon":5.36854,"is_reserved":false,"is_disabled":false,"rental_uris":{"android":"levelo://app?vid=aa461733-5cf8-4735-867e-49f8d4ad6795","ios":"levelo://app?vid=aa461733-5cf8-4735-867e-49f8d4ad6795"},"vehicle_type_id":"4","last_reported":1740499889,"current_range_meters":12000,"station_id":"ce4bhbp2rcd13ifvqesg","pricing_plan_id":"cebpf4jnsgd1na2vs0mg"},{"bike_id":"ba353e72-b588-4062-b8a0-6bc1629aa033","system_id":"levelo_inurba_marseille","lat":43.29273,"lon":5.36845,"is_reserved":false,"is_disabled":false,"rental_uris":{"android":"levelo://app?vid=ba353e72-b588-4062-b8a0-6bc1629aa033","ios":"levelo://app?vid=ba353e72-b588-4062-b8a0-6bc1629aa033"},"vehicle_type_id":"4","last_reported":1740499889,"current_range_meters":12000,"station_id":"ce4bhbp2rcd13ifvqesg","pricing_plan_id":"cebpf4jnsgd1na2vs0mg"},{"bike_id":"ae198338-fa68-40a4-a665-c304aec54117","system_id":"levelo_inurba_marseille","lat":43.30142,"lon":5.38773,"is_reserved":false,"is_disabled":false,"rental_uris":{"android":"levelo://app?vid=ae198338-fa68-40a4-a665-c304aec54117","ios":"levelo://app?vid=ae198338-fa68-40a4-a665-c304aec54117"},"vehicle_type_id":"4","last_reported":1740499889,"current_range_meters":11200,"station_id":"ce4bghh2rcd13ifvqb60","pricing_plan_id":"cebpf4jnsgd1na2vs0mg"},{"bike_id":"1a8945da-1fae-41e6-9d2b-fb49a5676e2f","system_id":"levelo_inurba_marseille","lat":43.23152,"lon":5.43711,"is_reserved":false,"is_disabled":false,"rental_uris":{"android":"levelo://app?vid=1a8945da-1fae-41e6-9d2b-fb49a5676e2f","ios":"levelo://app?vid=1a8945da-1fae-41e6-9d2b-fb49a5676e2f"},"vehicle_type_id":"4","last_reported":1740499889,"current_range_meters":12000,"station_id":"ce4bhmp2rcd13ifvqgog","pricing_plan_id":"cebpf4jnsgd1na2vs0mg"},{"bike_id":"c49e12d6-221a-4f12-bd11-373c559bc0d5","system_id":"levelo_inurba_marseille","lat":43.25129,"lon":5.4031,"is_reserved":false,"is_disabled":false,"rental_uris":{"android":"levelo://app?vid=c49e12d6-221a-4f12-bd11-373c559bc0d5","ios":"levelo://app?vid=c49e12d6-221a-4f12-bd11-373c559bc0d5"},"vehicle_type_id":"4","last_reported":1740499889,"current_range_meters":12400,"station_id":"ce4bhlh2rcd13ifvqgig","pricing_plan_id":"cebpf4jnsgd1na2vs0mg"},{"bike_id":"562ed467-5762-498d-8a7e-537c4203a8f8","system_id":"levelo_inurba_marseille","lat":43.298765,"lon":5.39738,"is_reserved":false,"is_disabled":false,"rental_uris":{"android":"levelo://app?vid=562ed467-5762-498d-8a7e-537c4203a8f8","ios":"levelo://app?vid=562ed467-5762-498d-8a7e-537c4203a8f8"},"vehicle_type_id":"4","last_reported":1740499889,"current_range_meters":12800,"station_id":"ce4bh0h2rcd13ifvqd50","pricing_plan_id":"cebpf4jnsgd1na2vs0mg"},{"bike_id":"c1a6f2b9-0759-4679-b9e3-aa8adf885b07","system_id":"levelo_inurba_marseille","lat":43.29269,"lon":5.38452,"is_reserved":false,"is_disabled":false,"rental_uris":{"android":"levelo://app?vid=c1a6f2b9-0759-4679-b9e3-aa8adf885b07","ios":"levelo://app?vid=c1a6f2b9-0759-4679-b9e3-aa8adf885b07"},"vehicle_type_id":"4","last_reported":1740499889,"current_range_meters":12800,"station_id":"ce4bh692rcd13ifvqea0","pricing_plan_id":"cebpf4jnsgd1na2vs0mg"},{"bike_id":"9062f7b6-9c81-49b8-a1bd-5df58202afcd","system_id":"levelo_inurba_marseille","lat":43.31721,"lon":5.43685,"is_reserved":false,"is_disabled":false,"rental_uris":{"android":"levelo://app?vid=9062f7b6-9c81-49b8-a1bd-5df58202afcd","ios":"levelo://app?vid=9062f7b6-9c81-49b8-a1bd-5df58202afcd"},"vehicle_type_id":"4","last_reported":1740499889,"current_range_meters":12800,"station_id":"ce4bhp92rcd13ifvqhcg","pricing_plan_id":"cebpf4jnsgd1na2vs0mg"},{"bike_id":"078ec0b8-f3ee-40a5-83dd-16c6ac25214b","system_id":"levelo_inurba_marseille","lat":43.25021,"lon":5.38921,"is_reserved":false,"is_disabled":false,"rental_uris":{"android":"levelo://app?vid=078ec0b8-f3ee-40a5-83dd-16c6ac25214b","ios":"levelo://app?vid=078ec0b8-f3ee-40a5-83dd-16c6ac25214b"},"vehicle_type_id":"4","last_reported":1740499889,"current_range_meters":12800,"station_id":"ce4bhgp2rcd13ifvqfd0","pricing_plan_id":"cebpf4jnsgd1na2vs0mg"},{"bike_id":"d0801915-0de0-4f9d-9726-750b42c06614","system_id":"levelo_inurba_marseille","lat":43.32107,"lon":5.36779,"is_reserved":false,"is_disabled":false,"rental_uris":{"android":"levelo://app?vid=d0801915-0de0-4f9d-9726-750b42c06614","ios":"levelo://app?vid=d0801915-0de0-4f9d-9726-750b42c06614"},"vehicle_type_id":"4","last_reported":1740499889,"current_range_meters":13600,"station_id":"ce4bhrh2rcd13ifvqhug","pricing_plan_id":"cebpf4jnsgd1na2vs0mg"},{"bike_id":"f5232ca0-a0ea-4b65-9be9-c58c9ab586fb","system_id":"levelo_inurba_marseille","lat":43.28154,"lon":5.42635,"is_reserved":false,"is_disabled":false,"rental_uris":{"android":"levelo://app?vid=f5232ca0-a0ea-4b65-9be9-c58c9ab586fb","ios":"levelo://app?vid=f5232ca0-a0ea-4b65-9be9-c58c9ab586fb"},"vehicle_type_id":"4","last_reported":1740499889,"current_range_meters":13600,"station_id":"ce4bhnh2rcd13ifvqgug","pricing_plan_id":"cebpf4jnsgd1na2vs0mg"},{"bike_id":"f38ba18e-d341-407e-ae7c-111ba10831c7","system_id":"levelo_inurba_marseille","lat":43.23185,"lon":5.39985,"is_reserved":false,"is_disabled":false,"rental_uris":{"android":"levelo://app?vid=f38ba18e-d341-407e-ae7c-111ba10831c7","ios":"levelo://app?vid=f38ba18e-d341-407e-ae7c-111ba10831c7"},"vehicle_type_id":"4","last_reported":1740499889,"current_range_meters":14400,"station_id":"ce4bhn12rcd13ifvqgqg","pricing_plan_id":"cebpf4jnsgd1na2vs0mg"},{"bike_id":"6f207b35-4400-4fec-a36f-c4c946355a95","system_id":"levelo_inurba_marseille","lat":43.27934,"lon":5.41036,"is_reserved":false,"is_disabled":false,"rental_uris":{"android":"levelo://app?vid=6f207b35-4400-4fec-a36f-c4c946355a95","ios":"levelo://app?vid=6f207b35-4400-4fec-a36f-c4c946355a95"},"vehicle_type_id":"4","last_reported":1740499889,"current_range_meters":13600,"station_id":"ce4bhnp2rcd13ifvqh0g","pricing_plan_id":"cebpf4jnsgd1na2vs0mg"},{"bike_id":"9f410218-3040-4e5d-995c-1587f208b52e","system_id":"levelo_inurba_marseille","lat":43.27812,"lon":5.40718,"is_reserved":false,"is_disabled":false,"rental_uris":{"android":"levelo://app?vid=9f410218-3040-4e5d-995c-1587f208b52e","ios":"levelo://app?vid=9f410218-3040-4e5d-995c-1587f208b52e"},"vehicle_type_id":"4","last_reported":1740499889,"current_range_meters":13600,"station_id":"ce4bhnh2rcd13ifvqgtg","pricing_plan_id":"cebpf4jnsgd1na2vs0mg"},{"bike_id":"b4e721b7-a5f8-4f1a-847b-91ab02940576","system_id":"levelo_inurba_marseille","lat":43.27567,"lon":5.38416,"is_reserved":false,"is_disabled":false,"rental_uris":{"android":"levelo://app?vid=b4e721b7-a5f8-4f1a-847b-91ab02940576","ios":"levelo://app?vid=b4e721b7-a5f8-4f1a-847b-91ab02940576"},"vehicle_type_id":"4","last_reported":1740499889,"current_range_meters":12800,"station_id":"ce4bhh92rcd13ifvqfi0","pricing_plan_id":"cebpf4jnsgd1na2vs0mg"},{"bike_id":"bea517ec-06d8-4315-a101-031d4852ca77","system_id":"levelo_inurba_marseille","lat":43.24165,"lon":5.39697,"is_reserved":false,"is_disabled":false,"rental_uris":{"android":"levelo://app?vid=bea517ec-06d8-4315-a101-031d4852ca77","ios":"levelo://app?vid=bea517ec-06d8-4315-a101-031d4852ca77"},"vehicle_type_id":"4","last_reported":1740499889,"current_range_meters":14000,"station_id":"ce4bhn12rcd13ifvqgpg","pricing_plan_id":"cebpf4jnsgd1na2vs0mg"},{"bike_id":"11440c90-790b-4a14-bcd3-66d85ec36fb7","system_id":"levelo_inurba_marseille","lat":43.2846,"lon":5.34977,"is_reserved":false,"is_disabled":false,"rental_uris":{"android":"levelo://app?vid=11440c90-790b-4a14-bcd3-66d85ec36fb7","ios":"levelo://app?vid=11440c90-790b-4a14-bcd3-66d85ec36fb7"},"vehicle_type_id":"4","last_reported":1740499889,"current_range_meters":16400,"station_id":"ce4bhbp2rcd13ifvqerg","pricing_plan_id":"cebpf4jnsgd1na2vs0mg"},{"bike_id":"c9485fa5-8166-48b1-9f79-dbb2ba9b9219","system_id":"levelo_inurba_marseille","lat":43.29326,"lon":5.38582,"is_reserved":false,"is_disabled":false,"rental_uris":{"android":"levelo://app?vid=c9485fa5-8166-48b1-9f79-dbb2ba9b9219","ios":"levelo://app?vid=c9485fa5-8166-48b1-9f79-dbb2ba9b9219"},"vehicle_type_id":"4","last_reported":1740499889,"current_range_meters":12400,"station_id":"","pricing_plan_id":"cebpf4jnsgd1na2vs0mg"},{"bike_id":"19fc91b8-7ac0-4caa-89c0-b395ae6b9802","system_id":"levelo_inurba_marseille","lat":43.26215,"lon":5.374444,"is_reserved":false,"is_disabled":false,"rental_uris":{"android":"levelo://app?vid=19fc91b8-7ac0-4caa-89c0-b395ae6b9802","ios":"levelo://app?vid=19fc91b8-7ac0-4caa-89c0-b395ae6b9802"},"vehicle_type_id":"4","last_reported":1740499889,"current_range_meters":14400,"station_id":"ce4bhgp2rcd13ifvqfc0","pricing_plan_id":"cebpf4jnsgd1na2vs0mg"},{"bike_id":"44f9e446-3836-44ff-921d-578372029f43","system_id":"levelo_inurba_marseille","lat":43.29074,"lon":5.37179,"is_reserved":false,"is_disabled":false,"rental_uris":{"android":"levelo://app?vid=44f9e446-3836-44ff-921d-578372029f43","ios":"levelo://app?vid=44f9e446-3836-44ff-921d-578372029f43"},"vehicle_type_id":"4","last_reported":1740499889,"current_range_meters":14400,"station_id":"ce4bh5p2rcd13ifvqe4g","pricing_plan_id":"cebpf4jnsgd1na2vs0mg"},{"bike_id":"c91a2c96-0618-4bbe-8fe3-d3deffa2a870","system_id":"levelo_inurba_marseille","lat":43.31493,"lon":5.37311,"is_reserved":false,"is_disabled":false,"rental_uris":{"android":"levelo://app?vid=c91a2c96-0618-4bbe-8fe3-d3deffa2a870","ios":"levelo://app?vid=c91a2c96-0618-4bbe-8fe3-d3deffa2a870"},"vehicle_type_id":"4","last_reported":1740499889,"current_range_meters":13600,"station_id":"ce4bgt12rcd13ifvqcd0","pricing_plan_id":"cebpf4jnsgd1na2vs0mg"},{"bike_id":"2247f182-8f39-4552-9be3-99445213d1eb","system_id":"levelo_inurba_marseille","lat":43.29197,"lon":5.39312,"is_reserved":false,"is_disabled":false,"rental_uris":{"android":"levelo://app?vid=2247f182-8f39-4552-9be3-99445213d1eb","ios":"levelo://app?vid=2247f182-8f39-4552-9be3-99445213d1eb"},"vehicle_type_id":"4","last_reported":1740499889,"current_range_meters":14800,"station_id":"ce4bh192rcd13ifvqdd0","pricing_plan_id":"cebpf4jnsgd1na2vs0mg"},{"bike_id":"ebf18b50-37ba-4ef9-8eca-f595f189e384","system_id":"levelo_inurba_marseille","lat":43.281168,"lon":5.378302,"is_reserved":false,"is_disabled":false,"rental_uris":{"android":"levelo://app?vid=ebf18b50-37ba-4ef9-8eca-f595f189e384","ios":"levelo://app?vid=ebf18b50-37ba-4ef9-8eca-f595f189e384"},"vehicle_type_id":"4","last_reported":1740499889,"current_range_meters":15200,"station_id":"ce4bha12rcd13ifvqee0","pricing_plan_id":"cebpf4jnsgd1na2vs0mg"},{"bike_id":"72aaaea3-783c-49b1-b179-65c272fe341c","system_id":"levelo_inurba_marseille","lat":43.29068,"lon":5.37172,"is_reserved":false,"is_disabled":false,"rental_uris":{"android":"levelo://app?vid=72aaaea3-783c-49b1-b179-65c272fe341c","ios":"levelo://app?vid=72aaaea3-783c-49b1-b179-65c272fe341c"},"vehicle_type_id":"4","last_reported":1740499889,"current_range_meters":11600,"station_id":"ce4bh5p2rcd13ifvqe4g","pricing_plan_id":"cebpf4jnsgd1na2vs0mg"},{"bike_id":"8a9fa7a1-d4b9-4153-beb3-aedf01d97d31","system_id":"levelo_inurba_marseille","lat":43.29981,"lon":5.37156,"is_reserved":false,"is_disabled":false,"rental_uris":{"android":"levelo://app?vid=8a9fa7a1-d4b9-4153-beb3-aedf01d97d31","ios":"levelo://app?vid=8a9fa7a1-d4b9-4153-beb3-aedf01d97d31"},"vehicle_type_id":"4","last_reported":1740499889,"current_range_meters":14800,"station_id":"ce4bgr92rcd13ifvqc7g","pricing_plan_id":"cebpf4jnsgd1na2vs0mg"},{"bike_id":"e2db9213-b94d-4d36-9041-99db8ba27d60","system_id":"levelo_inurba_marseille","lat":43.29747,"lon":5.43409,"is_reserved":false,"is_disabled":false,"rental_uris":{"android":"levelo://app?vid=e2db9213-b94d-4d36-9041-99db8ba27d60","ios":"levelo://app?vid=e2db9213-b94d-4d36-9041-99db8ba27d60"},"vehicle_type_id":"4","last_reported":1740499889,"current_range_meters":15200,"station_id":"","pricing_plan_id":"cebpf4jnsgd1na2vs0mg"},{"bike_id":"1b30197d-e3f9-4db3-bd99-9f1defbb3cd2","system_id":"levelo_inurba_marseille","lat":43.27616,"lon":5.36122,"is_reserved":false,"is_disabled":false,"rental_uris":{"android":"levelo://app?vid=1b30197d-e3f9-4db3-bd99-9f1defbb3cd2","ios":"levelo://app?vid=1b30197d-e3f9-4db3-bd99-9f1defbb3cd2"},"vehicle_type_id":"4","last_reported":1740499889,"current_range_meters":14800,"station_id":"ce4bgj92rcd13ifvqbe0","pricing_plan_id":"cebpf4jnsgd1na2vs0mg"},{"bike_id":"b6a4cfb9-fdd3-4bf6-9402-2e45d150b5a9","system_id":"levelo_inurba_marseille","lat":43.31756,"lon":5.39024,"is_reserved":false,"is_disabled":false,"rental_uris":{"android":"levelo://app?vid=b6a4cfb9-fdd3-4bf6-9402-2e45d150b5a9","ios":"levelo://app?vid=b6a4cfb9-fdd3-4bf6-9402-2e45d150b5a9"},"vehicle_type_id":"4","last_reported":1740499889,"current_range_meters":15200,"station_id":"ce4bhqp2rcd13ifvqhng","pricing_plan_id":"cebpf4jnsgd1na2vs0mg"},{"bike_id":"ee10d2e4-6826-4cb2-b162-8b61c5629029","system_id":"levelo_inurba_marseille","lat":43.31327,"lon":5.39697,"is_reserved":false,"is_disabled":false,"rental_uris":{"android":"levelo://app?vid=ee10d2e4-6826-4cb2-b162-8b61c5629029","ios":"levelo://app?vid=ee10d2e4-6826-4cb2-b162-8b61c5629029"},"vehicle_type_id":"4","last_reported":1740499889,"current_range_meters":14800,"station_id":"ce4bgvp2rcd13ifvqcu0","pricing_plan_id":"cebpf4jnsgd1na2vs0mg"},{"bike_id":"550a927b-2a54-439e-a96c-ba66197f0857","system_id":"levelo_inurba_marseille","lat":43.31582,"lon":5.4201,"is_reserved":false,"is_disabled":false,"rental_uris":{"android":"levelo://app?vid=550a927b-2a54-439e-a96c-ba66197f0857","ios":"levelo://app?vid=550a927b-2a54-439e-a96c-ba66197f0857"},"vehicle_type_id":"4","last_reported":1740499889,"current_range_meters":15200,"station_id":"","pricing_plan_id":"cebpf4jnsgd1na2vs0mg"},{"bike_id":"7750d85b-1fe2-4c07-981c-76163abfa8ef","system_id":"levelo_inurba_marseille","lat":43.28419,"lon":5.34994,"is_reserved":false,"is_disabled":false,"rental_uris":{"android":"levelo://app?vid=7750d85b-1fe2-4c07-981c-76163abfa8ef","ios":"levelo://app?vid=7750d85b-1fe2-4c07-981c-76163abfa8ef"},"vehicle_type_id":"4","last_reported":1740499889,"current_range_meters":15200,"station_id":"ce4bhbh2rcd13ifvqepg","pricing_plan_id":"cebpf4jnsgd1na2vs0mg"},{"bike_id":"c11d8b4f-a28e-41b1-a97f-559c7189c429","system_id":"levelo_inurba_marseille","lat":43.28852,"lon":5.39313,"is_reserved":false,"is_disabled":false,"rental_uris":{"android":"levelo://app?vid=c11d8b4f-a28e-41b1-a97f-559c7189c429","ios":"levelo://app?vid=c11d8b4f-a28e-41b1-a97f-559c7189c429"},"vehicle_type_id":"4","last_reported":1740499889,"current_range_meters":14800,"station_id":"ce4bh2p2rcd13ifvqdi0","pricing_plan_id":"cebpf4jnsgd1na2vs0mg"},{"bike_id":"40bd775e-5ce3-4948-be2f-acfa8e48e7a0","system_id":"levelo_inurba_marseille","lat":43.2862,"lon":5.35104,"is_reserved":false,"is_disabled":false,"rental_uris":{"android":"levelo://app?vid=40bd775e-5ce3-4948-be2f-acfa8e48e7a0","ios":"levelo://app?vid=40bd775e-5ce3-4948-be2f-acfa8e48e7a0"},"vehicle_type_id":"4","last_reported":1740499889,"current_range_meters":15200,"station_id":"ce4bhch2rcd13ifvqeug","pricing_plan_id":"cebpf4jnsgd1na2vs0mg"},{"bike_id":"2fcd3f9a-e5c5-4bd0-b9f0-88d96c218132","system_id":"levelo_inurba_marseille","lat":43.28707,"lon":5.37935,"is_reserved":false,"is_disabled":false,"rental_uris":{"android":"levelo://app?vid=2fcd3f9a-e5c5-4bd0-b9f0-88d96c218132","ios":"levelo://app?vid=2fcd3f9a-e5c5-4bd0-b9f0-88d96c218132"},"vehicle_type_id":"4","last_reported":1740499889,"current_range_meters":16000,"station_id":"ce4bh9p2rcd13ifvqec0","pricing_plan_id":"cebpf4jnsgd1na2vs0mg"},{"bike_id":"67ee95a1-160f-49c1-b11e-b3640680cd0d","system_id":"levelo_inurba_marseille","lat":43.32086,"lon":5.36809,"is_reserved":false,"is_disabled":false,"rental_uris":{"android":"levelo://app?vid=67ee95a1-160f-49c1-b11e-b3640680cd0d","ios":"levelo://app?vid=67ee95a1-160f-49c1-b11e-b3640680cd0d"},"vehicle_type_id":"4","last_reported":1740499889,"current_range_meters":16000,"station_id":"ce4bhrh2rcd13ifvqhug","pricing_plan_id":"cebpf4jnsgd1na2vs0mg"},{"bike_id":"0e2a910a-be97-47dc-9ed1-ff64b0447ad3","system_id":"levelo_inurba_marseille","lat":43.29423,"lon":5.38626,"is_reserved":false,"is_disabled":false,"rental_uris":{"android":"levelo://app?vid=0e2a910a-be97-47dc-9ed1-ff64b0447ad3","ios":"levelo://app?vid=0e2a910a-be97-47dc-9ed1-ff64b0447ad3"},"vehicle_type_id":"4","last_reported":1740499889,"current_range_meters":16000,"station_id":"ce4bh2h2rcd13ifvqdh0","pricing_plan_id":"cebpf4jnsgd1na2vs0mg"},{"bike_id":"5044bf5c-c66c-407c-8220-c6e0118d57f5","system_id":"levelo_inurba_marseille","lat":43.24071,"lon":5.37768,"is_reserved":false,"is_disabled":false,"rental_uris":{"android":"levelo://app?vid=5044bf5c-c66c-407c-8220-c6e0118d57f5","ios":"levelo://app?vid=5044bf5c-c66c-407c-8220-c6e0118d57f5"},"vehicle_type_id":"4","last_reported":1740499889,"current_range_meters":17600,"station_id":"ce4bhnp2rcd13ifvqgvg","pricing_plan_id":"cebpf4jnsgd1na2vs0mg"},{"bike_id":"8e5ce91a-9ada-4a20-9635-13c0f2af6a1a","system_id":"levelo_inurba_marseille","lat":43.24999,"lon":5.38937,"is_reserved":false,"is_disabled":false,"rental_uris":{"android":"levelo://app?vid=8e5ce91a-9ada-4a20-9635-13c0f2af6a1a","ios":"levelo://app?vid=8e5ce91a-9ada-4a20-9635-13c0f2af6a1a"},"vehicle_type_id":"4","last_reported":1740499889,"current_range_meters":16000,"station_id":"ce4bhgp2rcd13ifvqfd0","pricing_plan_id":"cebpf4jnsgd1na2vs0mg"},{"bike_id":"1c706ba0-9a03-4a13-99bf-d8a432e342be","system_id":"levelo_inurba_marseille","lat":43.29245,"lon":5.38452,"is_reserved":false,"is_disabled":false,"rental_uris":{"android":"levelo://app?vid=1c706ba0-9a03-4a13-99bf-d8a432e342be","ios":"levelo://app?vid=1c706ba0-9a03-4a13-99bf-d8a432e342be"},"vehicle_type_id":"4","last_reported":1740499889,"current_range_meters":16400,"station_id":"ce4bh692rcd13ifvqea0","pricing_plan_id":"cebpf4jnsgd1na2vs0mg"},{"bike_id":"abca4497-d346-4338-adf4-5462de65ea9f","system_id":"levelo_inurba_marseille","lat":43.28353,"lon":5.38101,"is_reserved":false,"is_disabled":false,"rental_uris":{"android":"levelo://app?vid=abca4497-d346-4338-adf4-5462de65ea9f","ios":"levelo://app?vid=abca4497-d346-4338-adf4-5462de65ea9f"},"vehicle_type_id":"4","last_reported":1740499889,"current_range_meters":16400,"station_id":"ce4bh412rcd13ifvqdr0","pricing_plan_id":"cebpf4jnsgd1na2vs0mg"},{"bike_id":"57f655d6-190e-4e44-b667-ec1f702c996d","system_id":"levelo_inurba_marseille","lat":43.26781,"lon":5.39421,"is_reserved":false,"is_disabled":false,"rental_uris":{"android":"levelo://app?vid=57f655d6-190e-4e44-b667-ec1f702c996d","ios":"levelo://app?vid=57f655d6-190e-4e44-b667-ec1f702c996d"},"vehicle_type_id":"4","last_reported":1740499889,"current_range_meters":16400,"station_id":"ce4bhh12rcd13ifvqfg0","pricing_plan_id":"cebpf4jnsgd1na2vs0mg"},{"bike_id":"99ecdcac-415f-4765-98a3-24c1718bdda8","system_id":"levelo_inurba_marseille","lat":43.30552,"lon":5.36704,"is_reserved":false,"is_disabled":false,"rental_uris":{"android":"levelo://app?vid=99ecdcac-415f-4765-98a3-24c1718bdda8","ios":"levelo://app?vid=99ecdcac-415f-4765-98a3-24c1718bdda8"},"vehicle_type_id":"4","last_reported":1740499889,"current_range_meters":16800,"station_id":"ce4bgrp2rcd13ifvqc9g","pricing_plan_id":"cebpf4jnsgd1na2vs0mg"},{"bike_id":"5bab9941-c997-48eb-9098-30a30c306e67","system_id":"levelo_inurba_marseille","lat":43.29056,"lon":5.37145,"is_reserved":false,"is_disabled":false,"rental_uris":{"android":"levelo://app?vid=5bab9941-c997-48eb-9098-30a30c306e67","ios":"levelo://app?vid=5bab9941-c997-48eb-9098-30a30c306e67"},"vehicle_type_id":"4","last_reported":1740499889,"current_range_meters":16400,"station_id":"ce4bh5p2rcd13ifvqe4g","pricing_plan_id":"cebpf4jnsgd1na2vs0mg"},{"bike_id":"d4328c88-2156-442e-b457-cebd452d99fe","system_id":"levelo_inurba_marseille","lat":43.29037,"lon":5.37575,"is_reserved":false,"is_disabled":false,"rental_uris":{"android":"levelo://app?vid=d4328c88-2156-442e-b457-cebd452d99fe","ios":"levelo://app?vid=d4328c88-2156-442e-b457-cebd452d99fe"},"vehicle_type_id":"4","last_reported":1740499889,"current_range_meters":16400,"station_id":"ce4bh692rcd13ifvqe90","pricing_plan_id":"cebpf4jnsgd1na2vs0mg"},{"bike_id":"941dd761-2dae-4c60-b2ec-a7cf99e063ac","system_id":"levelo_inurba_marseille","lat":43.30166,"lon":5.37391,"is_reserved":false,"is_disabled":false,"rental_uris":{"android":"levelo://app?vid=941dd761-2dae-4c60-b2ec-a7cf99e063ac","ios":"levelo://app?vid=941dd761-2dae-4c60-b2ec-a7cf99e063ac"},"vehicle_type_id":"4","last_reported":1740499889,"current_range_meters":16800,"station_id":"ce4bgs92rcd13ifvqcc0","pricing_plan_id":"cebpf4jnsgd1na2vs0mg"},{"bike_id":"3fc1531e-d0e8-4bd4-8cd4-4eb1c127618b","system_id":"levelo_inurba_marseille","lat":43.28158,"lon":5.42655,"is_reserved":false,"is_disabled":false,"rental_uris":{"android":"levelo://app?vid=3fc1531e-d0e8-4bd4-8cd4-4eb1c127618b","ios":"levelo://app?vid=3fc1531e-d0e8-4bd4-8cd4-4eb1c127618b"},"vehicle_type_id":"4","last_reported":1740499889,"current_range_meters":16800,"station_id":"ce4bhnh2rcd13ifvqgug","pricing_plan_id":"cebpf4jnsgd1na2vs0mg"},{"bike_id":"56c90c05-21dd-4258-af01-641c62e92e64","system_id":"levelo_inurba_marseille","lat":43.28622,"lon":5.35105,"is_reserved":false,"is_disabled":false,"rental_uris":{"android":"levelo://app?vid=56c90c05-21dd-4258-af01-641c62e92e64","ios":"levelo://app?vid=56c90c05-21dd-4258-af01-641c62e92e64"},"vehicle_type_id":"4","last_reported":1740499889,"current_range_meters":16800,"station_id":"ce4bhch2rcd13ifvqeug","pricing_plan_id":"cebpf4jnsgd1na2vs0mg"},{"bike_id":"c0ed74a2-e2a8-41f0-9b03-a680909f2682","system_id":"levelo_inurba_marseille","lat":43.27937,"lon":5.4105,"is_reserved":false,"is_disabled":false,"rental_uris":{"android":"levelo://app?vid=c0ed74a2-e2a8-41f0-9b03-a680909f2682","ios":"levelo://app?vid=c0ed74a2-e2a8-41f0-9b03-a680909f2682"},"vehicle_type_id":"4","last_reported":1740499889,"current_range_meters":16800,"station_id":"ce4bhnp2rcd13ifvqh0g","pricing_plan_id":"cebpf4jnsgd1na2vs0mg"},{"bike_id":"6b10c0a1-04b3-463f-abf8-de9ca3d437be","system_id":"levelo_inurba_marseille","lat":43.27833,"lon":5.39216,"is_reserved":false,"is_disabled":false,"rental_uris":{"android":"levelo://app?vid=6b10c0a1-04b3-463f-abf8-de9ca3d437be","ios":"levelo://app?vid=6b10c0a1-04b3-463f-abf8-de9ca3d437be"},"vehicle_type_id":"4","last_reported":1740499889,"current_range_meters":16400,"station_id":"ce4bhjp2rcd13ifvqga0","pricing_plan_id":"cebpf4jnsgd1na2vs0mg"},{"bike_id":"6a0b3bd2-fe75-48e1-aa81-e76da83c5ac8","system_id":"levelo_inurba_marseille","lat":43.30641,"lon":5.40126,"is_reserved":false,"is_disabled":false,"rental_uris":{"android":"levelo://app?vid=6a0b3bd2-fe75-48e1-aa81-e76da83c5ac8","ios":"levelo://app?vid=6a0b3bd2-fe75-48e1-aa81-e76da83c5ac8"},"vehicle_type_id":"4","last_reported":1740499889,"current_range_meters":16800,"station_id":"ce4bh112rcd13ifvqda0","pricing_plan_id":"cebpf4jnsgd1na2vs0mg"},{"bike_id":"cbcac2dc-548a-4c35-ab69-dd24ca136453","system_id":"levelo_inurba_marseille","lat":43.28663,"lon":5.36365,"is_reserved":false,"is_disabled":false,"rental_uris":{"android":"levelo://app?vid=cbcac2dc-548a-4c35-ab69-dd24ca136453","ios":"levelo://app?vid=cbcac2dc-548a-4c35-ab69-dd24ca136453"},"vehicle_type_id":"4","last_reported":1740499889,"current_range_meters":17200,"station_id":"ce4bhah2rcd13ifvqej0","pricing_plan_id":"cebpf4jnsgd1na2vs0mg"},{"bike_id":"a8961a16-4d9d-4026-81b4-70f1059f57c6","system_id":"levelo_inurba_marseille","lat":43.24162,"lon":5.36419,"is_reserved":false,"is_disabled":false,"rental_uris":{"android":"levelo://app?vid=a8961a16-4d9d-4026-81b4-70f1059f57c6","ios":"levelo://app?vid=a8961a16-4d9d-4026-81b4-70f1059f57c6"},"vehicle_type_id":"4","last_reported":1740499889,"current_range_meters":17200,"station_id":"cpo36qri1sfpv3e86is0","pricing_plan_id":"cebpf4jnsgd1na2vs0mg"},{"bike_id":"1f97a850-3722-4da7-9c34-57db0ff3b1a0","system_id":"levelo_inurba_marseille","lat":43.28896,"lon":5.35736,"is_reserved":false,"is_disabled":false,"rental_uris":{"android":"levelo://app?vid=1f97a850-3722-4da7-9c34-57db0ff3b1a0","ios":"levelo://app?vid=1f97a850-3722-4da7-9c34-57db0ff3b1a0"},"vehicle_type_id":"4","last_reported":1740499889,"current_range_meters":18000,"station_id":"ce4bhb12rcd13ifvqem0","pricing_plan_id":"cebpf4jnsgd1na2vs0mg"},{"bike_id":"0b2f5009-1e4e-4593-8abd-b74dc1937c26","system_id":"levelo_inurba_marseille","lat":43.23194,"lon":5.39989,"is_reserved":false,"is_disabled":false,"rental_uris":{"android":"levelo://app?vid=0b2f5009-1e4e-4593-8abd-b74dc1937c26","ios":"levelo://app?vid=0b2f5009-1e4e-4593-8abd-b74dc1937c26"},"vehicle_type_id":"4","last_reported":1740499889,"current_range_meters":17200,"station_id":"ce4bhn12rcd13ifvqgqg","pricing_plan_id":"cebpf4jnsgd1na2vs0mg"},{"bike_id":"eac2376a-fd26-4ec8-8634-05a4e683e18c","system_id":"levelo_inurba_marseille","lat":43.2987,"lon":5.39737,"is_reserved":false,"is_disabled":false,"rental_uris":{"android":"levelo://app?vid=eac2376a-fd26-4ec8-8634-05a4e683e18c","ios":"levelo://app?vid=eac2376a-fd26-4ec8-8634-05a4e683e18c"},"vehicle_type_id":"4","last_reported":1740499889,"current_range_meters":17600,"station_id":"ce4bh0h2rcd13ifvqd50","pricing_plan_id":"cebpf4jnsgd1na2vs0mg"},{"bike_id":"dd601ac6-7ad7-4e20-92ba-1ac4a315943a","system_id":"levelo_inurba_marseille","lat":43.2707,"lon":5.42283,"is_reserved":false,"is_disabled":false,"rental_uris":{"android":"levelo://app?vid=dd601ac6-7ad7-4e20-92ba-1ac4a315943a","ios":"levelo://app?vid=dd601ac6-7ad7-4e20-92ba-1ac4a315943a"},"vehicle_type_id":"4","last_reported":1740499889,"current_range_meters":17600,"station_id":"ce4bhk92rcd13ifvqgb0","pricing_plan_id":"cebpf4jnsgd1na2vs0mg"},{"bike_id":"a3777f48-c72d-492c-8650-1c4f33da020c","system_id":"levelo_inurba_marseille","lat":43.29884,"lon":5.3974,"is_reserved":false,"is_disabled":false,"rental_uris":{"android":"levelo://app?vid=a3777f48-c72d-492c-8650-1c4f33da020c","ios":"levelo://app?vid=a3777f48-c72d-492c-8650-1c4f33da020c"},"vehicle_type_id":"4","last_reported":1740499889,"current_range_meters":17600,"station_id":"ce4bh0h2rcd13ifvqd50","pricing_plan_id":"cebpf4jnsgd1na2vs0mg"},{"bike_id":"875fd628-da9c-4f3e-91a5-4fc42bfbb5cf","system_id":"levelo_inurba_marseille","lat":43.26942,"lon":5.40265,"is_reserved":false,"is_disabled":false,"rental_uris":{"android":"levelo://app?vid=875fd628-da9c-4f3e-91a5-4fc42bfbb5cf","ios":"levelo://app?vid=875fd628-da9c-4f3e-91a5-4fc42bfbb5cf"},"vehicle_type_id":"4","last_reported":1740499889,"current_range_meters":17600,"station_id":"cjm6bp8fraef2m0cb0m0","pricing_plan_id":"cebpf4jnsgd1na2vs0mg"},{"bike_id":"b3e6561a-3ba3-4aa3-905a-9caf0823a65d","system_id":"levelo_inurba_marseille","lat":43.29123,"lon":5.36682,"is_reserved":false,"is_disabled":false,"rental_uris":{"android":"levelo://app?vid=b3e6561a-3ba3-4aa3-905a-9caf0823a65d","ios":"levelo://app?vid=b3e6561a-3ba3-4aa3-905a-9caf0823a65d"},"vehicle_type_id":"4","last_reported":1740499889,"current_range_meters":17600,"station_id":"ce4bhc92rcd13ifvqetg","pricing_plan_id":"cebpf4jnsgd1na2vs0mg"},{"bike_id":"6a322d10-e576-4838-b30b-1ffd02f84288","system_id":"levelo_inurba_marseille","lat":43.231506,"lon":5.437195,"is_reserved":false,"is_disabled":false,"rental_uris":{"android":"levelo://app?vid=6a322d10-e576-4838-b30b-1ffd02f84288","ios":"levelo://app?vid=6a322d10-e576-4838-b30b-1ffd02f84288"},"vehicle_type_id":"4","last_reported":1740499889,"current_range_meters":17600,"station_id":"ce4bhmp2rcd13ifvqgog","pricing_plan_id":"cebpf4jnsgd1na2vs0mg"},{"bike_id":"e243d213-ed43-4e21-80e0-52a63e903cce","system_id":"levelo_inurba_marseille","lat":43.29932,"lon":5.36532,"is_reserved":false,"is_disabled":false,"rental_uris":{"android":"levelo://app?vid=e243d213-ed43-4e21-80e0-52a63e903cce","ios":"levelo://app?vid=e243d213-ed43-4e21-80e0-52a63e903cce"},"vehicle_type_id":"4","last_reported":1740499889,"current_range_meters":17600,"station_id":"ce4bgm92rcd13ifvqbr0","pricing_plan_id":"cebpf4jnsgd1na2vs0mg"},{"bike_id":"4dce04d0-42a9-4511-9c8f-e7d79084b978","system_id":"levelo_inurba_marseille","lat":43.30712,"lon":5.36765,"is_reserved":false,"is_disabled":false,"rental_uris":{"android":"levelo://app?vid=4dce04d0-42a9-4511-9c8f-e7d79084b978","ios":"levelo://app?vid=4dce04d0-42a9-4511-9c8f-e7d79084b978"},"vehicle_type_id":"4","last_reported":1740499889,"current_range_meters":18000,"station_id":"","pricing_plan_id":"cebpf4jnsgd1na2vs0mg"},{"bike_id":"0c45db8a-f07f-468d-a6ef-c08290b1a757","system_id":"levelo_inurba_marseille","lat":43.29745,"lon":5.37689,"is_reserved":false,"is_disabled":false,"rental_uris":{"android":"levelo://app?vid=0c45db8a-f07f-468d-a6ef-c08290b1a757","ios":"levelo://app?vid=0c45db8a-f07f-468d-a6ef-c08290b1a757"},"vehicle_type_id":"4","last_reported":1740499889,"current_range_meters":17600,"station_id":"ce4bgkh2rcd13ifvqbl0","pricing_plan_id":"cebpf4jnsgd1na2vs0mg"},{"bike_id":"b426a55b-6079-4410-bdcf-64a0360c349f","system_id":"levelo_inurba_marseille","lat":43.28415,"lon":5.34991,"is_reserved":false,"is_disabled":false,"rental_uris":{"android":"levelo://app?vid=b426a55b-6079-4410-bdcf-64a0360c349f","ios":"levelo://app?vid=b426a55b-6079-4410-bdcf-64a0360c349f"},"vehicle_type_id":"4","last_reported":1740499889,"current_range_meters":17600,"station_id":"ce4bhbh2rcd13ifvqepg","pricing_plan_id":"cebpf4jnsgd1na2vs0mg"},{"bike_id":"331dda62-f24f-4833-81e7-dbff40bd081a","system_id":"levelo_inurba_marseille","lat":43.30551,"lon":5.36707,"is_reserved":false,"is_disabled":false,"rental_uris":{"android":"levelo://app?vid=331dda62-f24f-4833-81e7-dbff40bd081a","ios":"levelo://app?vid=331dda62-f24f-4833-81e7-dbff40bd081a"},"vehicle_type_id":"4","last_reported":1740499889,"current_range_meters":17600,"station_id":"ce4bgrp2rcd13ifvqc9g","pricing_plan_id":"cebpf4jnsgd1na2vs0mg"},{"bike_id":"25c5ad0f-17d5-4992-a2f2-88e61a5c277e","system_id":"levelo_inurba_marseille","lat":43.26192,"lon":5.37466,"is_reserved":false,"is_disabled":false,"rental_uris":{"android":"levelo://app?vid=25c5ad0f-17d5-4992-a2f2-88e61a5c277e","ios":"levelo://app?vid=25c5ad0f-17d5-4992-a2f2-88e61a5c277e"},"vehicle_type_id":"4","last_reported":1740499889,"current_range_meters":18000,"station_id":"ce4bhgp2rcd13ifvqfc0","pricing_plan_id":"cebpf4jnsgd1na2vs0mg"},{"bike_id":"2635a73a-ccaa-45a2-92e4-d3b526aa6616","system_id":"levelo_inurba_marseille","lat":43.30308,"lon":5.39213,"is_reserved":false,"is_disabled":false,"rental_uris":{"android":"levelo://app?vid=2635a73a-ccaa-45a2-92e4-d3b526aa6616","ios":"levelo://app?vid=2635a73a-ccaa-45a2-92e4-d3b526aa6616"},"vehicle_type_id":"4","last_reported":1740499889,"current_range_meters":17600,"station_id":"ce4bgkh2rcd13ifvqbk0","pricing_plan_id":"cebpf4jnsgd1na2vs0mg"},{"bike_id":"68413297-55ea-40fe-b728-2b084a7f87ed","system_id":"levelo_inurba_marseille","lat":43.29006,"lon":5.35611,"is_reserved":false,"is_disabled":false,"rental_uris":{"android":"levelo://app?vid=68413297-55ea-40fe-b728-2b084a7f87ed","ios":"levelo://app?vid=68413297-55ea-40fe-b728-2b084a7f87ed"},"vehicle_type_id":"4","last_reported":1740499889,"current_range_meters":17600,"station_id":"ce4bhb92rcd13ifvqen0","pricing_plan_id":"cebpf4jnsgd1na2vs0mg"},{"bike_id":"c3d0fefa-5db4-49bd-a964-1a22da440d36","system_id":"levelo_inurba_marseille","lat":43.269559,"lon":5.386313,"is_reserved":false,"is_disabled":true,"rental_uris":{"android":"levelo://app?vid=c3d0fefa-5db4-49bd-a964-1a22da440d36","ios":"levelo://app?vid=c3d0fefa-5db4-49bd-a964-1a22da440d36"},"vehicle_type_id":"4","last_reported":1740499889,"current_range_meters":17600,"station_id":"","pricing_plan_id":"cebpf4jnsgd1na2vs0mg"},{"bike_id":"1a856f10-c5bc-4b12-a5aa-06d011bd52a2","system_id":"levelo_inurba_marseille","lat":43.27816,"lon":5.40708,"is_reserved":false,"is_disabled":false,"rental_uris":{"android":"levelo://app?vid=1a856f10-c5bc-4b12-a5aa-06d011bd52a2","ios":"levelo://app?vid=1a856f10-c5bc-4b12-a5aa-06d011bd52a2"},"vehicle_type_id":"4","last_reported":1740499889,"current_range_meters":18000,"station_id":"ce4bhnh2rcd13ifvqgtg","pricing_plan_id":"cebpf4jnsgd1na2vs0mg"},{"bike_id":"cf62722a-f7e5-4424-9c3a-97fef3985718","system_id":"levelo_inurba_marseille","lat":43.25826,"lon":5.39437,"is_reserved":false,"is_disabled":false,"rental_uris":{"android":"levelo://app?vid=cf62722a-f7e5-4424-9c3a-97fef3985718","ios":"levelo://app?vid=cf62722a-f7e5-4424-9c3a-97fef3985718"},"vehicle_type_id":"4","last_reported":1740499889,"current_range_meters":18000,"station_id":"ce4bhip2rcd13ifvqft0","pricing_plan_id":"cebpf4jnsgd1na2vs0mg"},{"bike_id":"883f8347-0a1a-469f-b39f-af3ab784d027","system_id":"levelo_inurba_marseille","lat":43.29274,"lon":5.36857,"is_reserved":false,"is_disabled":false,"rental_uris":{"android":"levelo://app?vid=883f8347-0a1a-469f-b39f-af3ab784d027","ios":"levelo://app?vid=883f8347-0a1a-469f-b39f-af3ab784d027"},"vehicle_type_id":"4","last_reported":1740499889,"current_range_meters":18000,"station_id":"ce4bhbp2rcd13ifvqesg","pricing_plan_id":"cebpf4jnsgd1na2vs0mg"},{"bike_id":"ad9571bc-5194-4f71-90ef-f1cb0835f36e","system_id":"levelo_inurba_marseille","lat":43.25487,"lon":5.37654,"is_reserved":false,"is_disabled":true,"rental_uris":{"android":"levelo://app?vid=ad9571bc-5194-4f71-90ef-f1cb0835f36e","ios":"levelo://app?vid=ad9571bc-5194-4f71-90ef-f1cb0835f36e"},"vehicle_type_id":"4","last_reported":1740499889,"current_range_meters":18000,"station_id":"ce4bhh12rcd13ifvqff0","pricing_plan_id":"cebpf4jnsgd1na2vs0mg"},{"bike_id":"6881e1ec-c741-46c5-b834-879d3a90edcf","system_id":"levelo_inurba_marseille","lat":43.27839,"lon":5.39215,"is_reserved":false,"is_disabled":false,"rental_uris":{"android":"levelo://app?vid=6881e1ec-c741-46c5-b834-879d3a90edcf","ios":"levelo://app?vid=6881e1ec-c741-46c5-b834-879d3a90edcf"},"vehicle_type_id":"4","last_reported":1740499889,"current_range_meters":18000,"station_id":"ce4bhjp2rcd13ifvqga0","pricing_plan_id":"cebpf4jnsgd1na2vs0mg"},{"bike_id":"c333214c-e858-4d83-ae11-52fad9cac016","system_id":"levelo_inurba_marseille","lat":43.31766,"lon":5.39007,"is_reserved":false,"is_disabled":false,"rental_uris":{"android":"levelo://app?vid=c333214c-e858-4d83-ae11-52fad9cac016","ios":"levelo://app?vid=c333214c-e858-4d83-ae11-52fad9cac016"},"vehicle_type_id":"4","last_reported":1740499889,"current_range_meters":18800,"station_id":"ce4bhqp2rcd13ifvqhng","pricing_plan_id":"cebpf4jnsgd1na2vs0mg"},{"bike_id":"25411262-23d1-41bb-a382-a545d4af1ec3","system_id":"levelo_inurba_marseille","lat":43.25112,"lon":5.40319,"is_reserved":false,"is_disabled":false,"rental_uris":{"android":"levelo://app?vid=25411262-23d1-41bb-a382-a545d4af1ec3","ios":"levelo://app?vid=25411262-23d1-41bb-a382-a545d4af1ec3"},"vehicle_type_id":"4","last_reported":1740499889,"current_range_meters":18800,"station_id":"ce4bhlh2rcd13ifvqgig","pricing_plan_id":"cebpf4jnsgd1na2vs0mg"},{"bike_id":"bf2ea906-362b-48e9-9a1e-82a25dc16ee7","system_id":"levelo_inurba_marseille","lat":43.28861,"lon":5.35881,"is_reserved":false,"is_disabled":false,"rental_uris":{"android":"levelo://app?vid=bf2ea906-362b-48e9-9a1e-82a25dc16ee7","ios":"levelo://app?vid=bf2ea906-362b-48e9-9a1e-82a25dc16ee7"},"vehicle_type_id":"4","last_reported":1740499889,"current_range_meters":17600,"station_id":"ce4bhb12rcd13ifvqem0","pricing_plan_id":"cebpf4jnsgd1na2vs0mg"},{"bike_id":"45127abe-699f-4c02-9aab-c9892981149b","system_id":"levelo_inurba_marseille","lat":43.27182,"lon":5.40999,"is_reserved":false,"is_disabled":false,"rental_uris":{"android":"levelo://app?vid=45127abe-699f-4c02-9aab-c9892981149b","ios":"levelo://app?vid=45127abe-699f-4c02-9aab-c9892981149b"},"vehicle_type_id":"4","last_reported":1740499889,"current_range_meters":19200,"station_id":"ce4bhl12rcd13ifvqgf0","pricing_plan_id":"cebpf4jnsgd1na2vs0mg"},{"bike_id":"0ccf1cfe-2758-4765-9fff-2df63cb5c1a7","system_id":"levelo_inurba_marseille","lat":43.29422,"lon":5.38631,"is_reserved":false,"is_disabled":false,"rental_uris":{"android":"levelo://app?vid=0ccf1cfe-2758-4765-9fff-2df63cb5c1a7","ios":"levelo://app?vid=0ccf1cfe-2758-4765-9fff-2df63cb5c1a7"},"vehicle_type_id":"4","last_reported":1740499889,"current_range_meters":18800,"station_id":"ce4bh2h2rcd13ifvqdh0","pricing_plan_id":"cebpf4jnsgd1na2vs0mg"},{"bike_id":"b7d3c0bb-7d03-4d09-a6c9-12107485a8da","system_id":"levelo_inurba_marseille","lat":43.31998,"lon":5.38148,"is_reserved":false,"is_disabled":false,"rental_uris":{"android":"levelo://app?vid=b7d3c0bb-7d03-4d09-a6c9-12107485a8da","ios":"levelo://app?vid=b7d3c0bb-7d03-4d09-a6c9-12107485a8da"},"vehicle_type_id":"4","last_reported":1740499889,"current_range_meters":18800,"station_id":"ce4bhr12rcd13ifvqhpg","pricing_plan_id":"cebpf4jnsgd1na2vs0mg"},{"bike_id":"a9ad6f56-5473-42a0-8b6f-3491a9477f2b","system_id":"levelo_inurba_marseille","lat":43.30302,"lon":5.39212,"is_reserved":false,"is_disabled":false,"rental_uris":{"android":"levelo://app?vid=a9ad6f56-5473-42a0-8b6f-3491a9477f2b","ios":"levelo://app?vid=a9ad6f56-5473-42a0-8b6f-3491a9477f2b"},"vehicle_type_id":"4","last_reported":1740499889,"current_range_meters":18800,"station_id":"ce4bgkh2rcd13ifvqbk0","pricing_plan_id":"cebpf4jnsgd1na2vs0mg"},{"bike_id":"d22dc0c0-1bfe-4bf5-90e1-538c8b2c5e57","system_id":"levelo_inurba_marseille","lat":43.27953,"lon":5.41051,"is_reserved":false,"is_disabled":false,"rental_uris":{"android":"levelo://app?vid=d22dc0c0-1bfe-4bf5-90e1-538c8b2c5e57","ios":"levelo://app?vid=d22dc0c0-1bfe-4bf5-90e1-538c8b2c5e57"},"vehicle_type_id":"4","last_reported":1740499889,"current_range_meters":14800,"station_id":"ce4bhnp2rcd13ifvqh0g","pricing_plan_id":"cebpf4jnsgd1na2vs0mg"},{"bike_id":"7d0b43ea-b27e-47b4-acb5-9da26a272923","system_id":"levelo_inurba_marseille","lat":43.2803,"lon":5.3695,"is_reserved":false,"is_disabled":false,"rental_uris":{"android":"levelo://app?vid=7d0b43ea-b27e-47b4-acb5-9da26a272923","ios":"levelo://app?vid=7d0b43ea-b27e-47b4-acb5-9da26a272923"},"vehicle_type_id":"4","last_reported":1740499889,"current_range_meters":18800,"station_id":"ce4bha12rcd13ifvqef0","pricing_plan_id":"cebpf4jnsgd1na2vs0mg"},{"bike_id":"e4b61e67-5c22-4221-873e-01cee989859c","system_id":"levelo_inurba_marseille","lat":43.29897,"lon":5.43668,"is_reserved":false,"is_disabled":false,"rental_uris":{"android":"levelo://app?vid=e4b61e67-5c22-4221-873e-01cee989859c","ios":"levelo://app?vid=e4b61e67-5c22-4221-873e-01cee989859c"},"vehicle_type_id":"4","last_reported":1740499889,"current_range_meters":18800,"station_id":"ce4bhpp2rcd13ifvqhfg","pricing_plan_id":"cebpf4jnsgd1na2vs0mg"},{"bike_id":"1ca5b1d5-5a53-46dd-b1b2-e83fd71df428","system_id":"levelo_inurba_marseille","lat":43.27935,"lon":5.41047,"is_reserved":false,"is_disabled":false,"rental_uris":{"android":"levelo://app?vid=1ca5b1d5-5a53-46dd-b1b2-e83fd71df428","ios":"levelo://app?vid=1ca5b1d5-5a53-46dd-b1b2-e83fd71df428"},"vehicle_type_id":"4","last_reported":1740499889,"current_range_meters":18800,"station_id":"ce4bhnp2rcd13ifvqh0g","pricing_plan_id":"cebpf4jnsgd1na2vs0mg"},{"bike_id":"1b960435-6e38-4d21-bd79-d987826a9a41","system_id":"levelo_inurba_marseille","lat":43.29019,"lon":5.38119,"is_reserved":false,"is_disabled":false,"rental_uris":{"android":"levelo://app?vid=1b960435-6e38-4d21-bd79-d987826a9a41","ios":"levelo://app?vid=1b960435-6e38-4d21-bd79-d987826a9a41"},"vehicle_type_id":"4","last_reported":1740499889,"current_range_meters":19200,"station_id":"ce4bh4p2rcd13ifvqe1g","pricing_plan_id":"cebpf4jnsgd1na2vs0mg"},{"bike_id":"f26264a1-b6b6-40bd-b549-adcbbf4c4857","system_id":"levelo_inurba_marseille","lat":43.29164,"lon":5.37174,"is_reserved":false,"is_disabled":false,"rental_uris":{"android":"levelo://app?vid=f26264a1-b6b6-40bd-b549-adcbbf4c4857","ios":"levelo://app?vid=f26264a1-b6b6-40bd-b549-adcbbf4c4857"},"vehicle_type_id":"4","last_reported":1740499889,"current_range_meters":12400,"station_id":"ce4bha92rcd13ifvqeh0","pricing_plan_id":"cebpf4jnsgd1na2vs0mg"},{"bike_id":"794dfce0-2950-4f71-855c-d4c27091f442","system_id":"levelo_inurba_marseille","lat":43.28661,"lon":5.3636,"is_reserved":false,"is_disabled":false,"rental_uris":{"android":"levelo://app?vid=794dfce0-2950-4f71-855c-d4c27091f442","ios":"levelo://app?vid=794dfce0-2950-4f71-855c-d4c27091f442"},"vehicle_type_id":"4","last_reported":1740499889,"current_range_meters":19200,"station_id":"ce4bhah2rcd13ifvqej0","pricing_plan_id":"cebpf4jnsgd1na2vs0mg"},{"bike_id":"dac28e23-49be-4ec5-a07f-374aa3dc0960","system_id":"levelo_inurba_marseille","lat":43.29935,"lon":5.3654,"is_reserved":false,"is_disabled":false,"rental_uris":{"android":"levelo://app?vid=dac28e23-49be-4ec5-a07f-374aa3dc0960","ios":"levelo://app?vid=dac28e23-49be-4ec5-a07f-374aa3dc0960"},"vehicle_type_id":"4","last_reported":1740499889,"current_range_meters":19200,"station_id":"ce4bgm92rcd13ifvqbr0","pricing_plan_id":"cebpf4jnsgd1na2vs0mg"},{"bike_id":"625c10ed-7007-4e8e-820a-c011ec2f4d62","system_id":"levelo_inurba_marseille","lat":43.22927,"lon":5.35381,"is_reserved":false,"is_disabled":false,"rental_uris":{"android":"levelo://app?vid=625c10ed-7007-4e8e-820a-c011ec2f4d62","ios":"levelo://app?vid=625c10ed-7007-4e8e-820a-c011ec2f4d62"},"vehicle_type_id":"4","last_reported":1740499889,"current_range_meters":18000,"station_id":"cpo3532slgdg3j2ikp40","pricing_plan_id":"cebpf4jnsgd1na2vs0mg"},{"bike_id":"fd708825-e9af-45f5-ad9e-246283adf6be","system_id":"levelo_inurba_marseille","lat":43.27375,"lon":5.36258,"is_reserved":false,"is_disabled":false,"rental_uris":{"android":"levelo://app?vid=fd708825-e9af-45f5-ad9e-246283adf6be","ios":"levelo://app?vid=fd708825-e9af-45f5-ad9e-246283adf6be"},"vehicle_type_id":"4","last_reported":1740499889,"current_range_meters":19200,"station_id":"ce4bhbh2rcd13ifvqeo0","pricing_plan_id":"cebpf4jnsgd1na2vs0mg"},{"bike_id":"a71f70d3-0e56-4055-b4e0-7c71b85a7551","system_id":"levelo_inurba_marseille","lat":43.2768,"lon":5.38903,"is_reserved":false,"is_disabled":false,"rental_uris":{"android":"levelo://app?vid=a71f70d3-0e56-4055-b4e0-7c71b85a7551","ios":"levelo://app?vid=a71f70d3-0e56-4055-b4e0-7c71b85a7551"},"vehicle_type_id":"4","last_reported":1740499889,"current_range_meters":18800,"station_id":"ce4bhi12rcd13ifvqfo0","pricing_plan_id":"cebpf4jnsgd1na2vs0mg"},{"bike_id":"4f67a0ef-525a-454e-a2ad-9e03aad1523e","system_id":"levelo_inurba_marseille","lat":43.28076,"lon":5.39662,"is_reserved":false,"is_disabled":false,"rental_uris":{"android":"levelo://app?vid=4f67a0ef-525a-454e-a2ad-9e03aad1523e","ios":"levelo://app?vid=4f67a0ef-525a-454e-a2ad-9e03aad1523e"},"vehicle_type_id":"4","last_reported":1740499889,"current_range_meters":19600,"station_id":"ce4bho12rcd13ifvqh2g","pricing_plan_id":"cebpf4jnsgd1na2vs0mg"},{"bike_id":"1df32ffb-b6d0-42f0-8856-8dbb268b7110","system_id":"levelo_inurba_marseille","lat":43.317154,"lon":5.437099,"is_reserved":false,"is_disabled":false,"rental_uris":{"android":"levelo://app?vid=1df32ffb-b6d0-42f0-8856-8dbb268b7110","ios":"levelo://app?vid=1df32ffb-b6d0-42f0-8856-8dbb268b7110"},"vehicle_type_id":"4","last_reported":1740499889,"current_range_meters":19600,"station_id":"ce4bhp92rcd13ifvqhcg","pricing_plan_id":"cebpf4jnsgd1na2vs0mg"},{"bike_id":"b0252508-ecdb-4c3c-8629-1637dce11106","system_id":"levelo_inurba_marseille","lat":43.25581,"lon":5.3826,"is_reserved":false,"is_disabled":false,"rental_uris":{"android":"levelo://app?vid=b0252508-ecdb-4c3c-8629-1637dce11106","ios":"levelo://app?vid=b0252508-ecdb-4c3c-8629-1637dce11106"},"vehicle_type_id":"4","last_reported":1740499889,"current_range_meters":19600,"station_id":"ce4bhih2rcd13ifvqfs0","pricing_plan_id":"cebpf4jnsgd1na2vs0mg"},{"bike_id":"1e560ff4-73ca-4735-83a0-456e8776a6cf","system_id":"levelo_inurba_marseille","lat":43.26194,"lon":5.37453,"is_reserved":false,"is_disabled":false,"rental_uris":{"android":"levelo://app?vid=1e560ff4-73ca-4735-83a0-456e8776a6cf","ios":"levelo://app?vid=1e560ff4-73ca-4735-83a0-456e8776a6cf"},"vehicle_type_id":"4","last_reported":1740499889,"current_range_meters":20000,"station_id":"ce4bhgp2rcd13ifvqfc0","pricing_plan_id":"cebpf4jnsgd1na2vs0mg"},{"bike_id":"3aaca506-5054-4b1b-b29a-24232f7f02a2","system_id":"levelo_inurba_marseille","lat":43.2465,"lon":5.38908,"is_reserved":false,"is_disabled":false,"rental_uris":{"android":"levelo://app?vid=3aaca506-5054-4b1b-b29a-24232f7f02a2","ios":"levelo://app?vid=3aaca506-5054-4b1b-b29a-24232f7f02a2"},"vehicle_type_id":"4","last_reported":1740499889,"current_range_meters":20000,"station_id":"ce4bhg12rcd13ifvqf60","pricing_plan_id":"cebpf4jnsgd1na2vs0mg"},{"bike_id":"1015abbd-7082-4ba1-86ea-5a0ad2804113","system_id":"levelo_inurba_marseille","lat":43.29899,"lon":5.43658,"is_reserved":false,"is_disabled":false,"rental_uris":{"android":"levelo://app?vid=1015abbd-7082-4ba1-86ea-5a0ad2804113","ios":"levelo://app?vid=1015abbd-7082-4ba1-86ea-5a0ad2804113"},"vehicle_type_id":"4","last_reported":1740499889,"current_range_meters":20400,"station_id":"ce4bhpp2rcd13ifvqhfg","pricing_plan_id":"cebpf4jnsgd1na2vs0mg"},{"bike_id":"5ac334a5-82a8-4afc-96ed-687a37ef57ef","system_id":"levelo_inurba_marseille","lat":43.29036,"lon":5.37564,"is_reserved":false,"is_disabled":false,"rental_uris":{"android":"levelo://app?vid=5ac334a5-82a8-4afc-96ed-687a37ef57ef","ios":"levelo://app?vid=5ac334a5-82a8-4afc-96ed-687a37ef57ef"},"vehicle_type_id":"4","last_reported":1740499889,"current_range_meters":20000,"station_id":"ce4bh692rcd13ifvqe90","pricing_plan_id":"cebpf4jnsgd1na2vs0mg"},{"bike_id":"55ba3d22-4751-43c1-b1ff-3a0e31a7b9ae","system_id":"levelo_inurba_marseille","lat":43.29974,"lon":5.37171,"is_reserved":false,"is_disabled":false,"rental_uris":{"android":"levelo://app?vid=55ba3d22-4751-43c1-b1ff-3a0e31a7b9ae","ios":"levelo://app?vid=55ba3d22-4751-43c1-b1ff-3a0e31a7b9ae"},"vehicle_type_id":"4","last_reported":1740499889,"current_range_meters":19600,"station_id":"ce4bgr92rcd13ifvqc7g","pricing_plan_id":"cebpf4jnsgd1na2vs0mg"},{"bike_id":"ce6c3a57-2472-4142-ab26-fc6dee861395","system_id":"levelo_inurba_marseille","lat":43.29836,"lon":5.36283,"is_reserved":false,"is_disabled":false,"rental_uris":{"android":"levelo://app?vid=ce6c3a57-2472-4142-ab26-fc6dee861395","ios":"levelo://app?vid=ce6c3a57-2472-4142-ab26-fc6dee861395"},"vehicle_type_id":"4","last_reported":1740499889,"current_range_meters":20000,"station_id":"ce4bgpp2rcd13ifvqc3g","pricing_plan_id":"cebpf4jnsgd1na2vs0mg"},{"bike_id":"6101ff99-84d3-4a59-9a30-09571d42a0d5","system_id":"levelo_inurba_marseille","lat":43.2619,"lon":5.37454,"is_reserved":false,"is_disabled":false,"rental_uris":{"android":"levelo://app?vid=6101ff99-84d3-4a59-9a30-09571d42a0d5","ios":"levelo://app?vid=6101ff99-84d3-4a59-9a30-09571d42a0d5"},"vehicle_type_id":"4","last_reported":1740499889,"current_range_meters":20000,"station_id":"ce4bhgp2rcd13ifvqfc0","pricing_plan_id":"cebpf4jnsgd1na2vs0mg"},{"bike_id":"11275408-bed4-4cb5-9886-8d99bb38f8c7","system_id":"levelo_inurba_marseille","lat":43.28464,"lon":5.3589,"is_reserved":false,"is_disabled":false,"rental_uris":{"android":"levelo://app?vid=11275408-bed4-4cb5-9886-8d99bb38f8c7","ios":"levelo://app?vid=11275408-bed4-4cb5-9886-8d99bb38f8c7"},"vehicle_type_id":"4","last_reported":1740499889,"current_range_meters":19600,"station_id":"ce4bhah2rcd13ifvqei0","pricing_plan_id":"cebpf4jnsgd1na2vs0mg"},{"bike_id":"6420c2cd-64b4-4ef3-aa63-200ba7b429b2","system_id":"levelo_inurba_marseille","lat":43.29968,"lon":5.38503,"is_reserved":false,"is_disabled":false,"rental_uris":{"android":"levelo://app?vid=6420c2cd-64b4-4ef3-aa63-200ba7b429b2","ios":"levelo://app?vid=6420c2cd-64b4-4ef3-aa63-200ba7b429b2"},"vehicle_type_id":"4","last_reported":1740499889,"current_range_meters":20000,"station_id":"ce4bgj92rcd13ifvqbd0","pricing_plan_id":"cebpf4jnsgd1na2vs0mg"},{"bike_id":"c8801da2-9fc3-4f39-ba69-00fb27a546e1","system_id":"levelo_inurba_marseille","lat":43.30652,"lon":5.40102,"is_reserved":false,"is_disabled":false,"rental_uris":{"android":"levelo://app?vid=c8801da2-9fc3-4f39-ba69-00fb27a546e1","ios":"levelo://app?vid=c8801da2-9fc3-4f39-ba69-00fb27a546e1"},"vehicle_type_id":"4","last_reported":1740499889,"current_range_meters":20000,"station_id":"ce4bh112rcd13ifvqda0","pricing_plan_id":"cebpf4jnsgd1na2vs0mg"},{"bike_id":"658e10dc-9ec8-4c82-a86c-f0d37535b96d","system_id":"levelo_inurba_marseille","lat":43.23188,"lon":5.3999,"is_reserved":false,"is_disabled":false,"rental_uris":{"android":"levelo://app?vid=658e10dc-9ec8-4c82-a86c-f0d37535b96d","ios":"levelo://app?vid=658e10dc-9ec8-4c82-a86c-f0d37535b96d"},"vehicle_type_id":"4","last_reported":1740499889,"current_range_meters":20000,"station_id":"ce4bhn12rcd13ifvqgqg","pricing_plan_id":"cebpf4jnsgd1na2vs0mg"},{"bike_id":"9b37b6ce-d6f9-4e8a-9979-ed3188958b98","system_id":"levelo_inurba_marseille","lat":43.31363,"lon":5.38486,"is_reserved":false,"is_disabled":false,"rental_uris":{"android":"levelo://app?vid=9b37b6ce-d6f9-4e8a-9979-ed3188958b98","ios":"levelo://app?vid=9b37b6ce-d6f9-4e8a-9979-ed3188958b98"},"vehicle_type_id":"4","last_reported":1740499889,"current_range_meters":21600,"station_id":"ce4bgt92rcd13ifvqcf0","pricing_plan_id":"cebpf4jnsgd1na2vs0mg"},{"bike_id":"6f11d26d-0aa0-4b41-aa8c-a4fe173d4c6f","system_id":"levelo_inurba_marseille","lat":43.28714,"lon":5.37929,"is_reserved":false,"is_disabled":false,"rental_uris":{"android":"levelo://app?vid=6f11d26d-0aa0-4b41-aa8c-a4fe173d4c6f","ios":"levelo://app?vid=6f11d26d-0aa0-4b41-aa8c-a4fe173d4c6f"},"vehicle_type_id":"4","last_reported":1740499889,"current_range_meters":20400,"station_id":"ce4bh9p2rcd13ifvqec0","pricing_plan_id":"cebpf4jnsgd1na2vs0mg"},{"bike_id":"04264387-929d-44fb-9b3e-3bfe01d5bccc","system_id":"levelo_inurba_marseille","lat":43.31483,"lon":5.37317,"is_reserved":false,"is_disabled":false,"rental_uris":{"android":"levelo://app?vid=04264387-929d-44fb-9b3e-3bfe01d5bccc","ios":"levelo://app?vid=04264387-929d-44fb-9b3e-3bfe01d5bccc"},"vehicle_type_id":"4","last_reported":1740499889,"current_range_meters":20400,"station_id":"ce4bgt12rcd13ifvqcd0","pricing_plan_id":"cebpf4jnsgd1na2vs0mg"},{"bike_id":"8190115f-5166-4d71-a895-253409a8232a","system_id":"levelo_inurba_marseille","lat":43.310745,"lon":5.38361,"is_reserved":false,"is_disabled":false,"rental_uris":{"android":"levelo://app?vid=8190115f-5166-4d71-a895-253409a8232a","ios":"levelo://app?vid=8190115f-5166-4d71-a895-253409a8232a"},"vehicle_type_id":"4","last_reported":1740499889,"current_range_meters":20400,"station_id":"ce4bgv92rcd13ifvqcr0","pricing_plan_id":"cebpf4jnsgd1na2vs0mg"},{"bike_id":"b7c09535-9389-45fc-8971-cbc7b7282bc9","system_id":"levelo_inurba_marseille","lat":43.25085,"lon":5.39516,"is_reserved":false,"is_disabled":false,"rental_uris":{"android":"levelo://app?vid=b7c09535-9389-45fc-8971-cbc7b7282bc9","ios":"levelo://app?vid=b7c09535-9389-45fc-8971-cbc7b7282bc9"},"vehicle_type_id":"4","last_reported":1740499889,"current_range_meters":20400,"station_id":"ce4bhm12rcd13ifvqgkg","pricing_plan_id":"cebpf4jnsgd1na2vs0mg"},{"bike_id":"cadcd3f7-36da-45a0-afe7-3d3cf34b3425","system_id":"levelo_inurba_marseille","lat":43.29584,"lon":5.37472,"is_reserved":false,"is_disabled":false,"rental_uris":{"android":"levelo://app?vid=cadcd3f7-36da-45a0-afe7-3d3cf34b3425","ios":"levelo://app?vid=cadcd3f7-36da-45a0-afe7-3d3cf34b3425"},"vehicle_type_id":"4","last_reported":1740499889,"current_range_meters":20400,"station_id":"ce4bgh92rcd13ifvqb50","pricing_plan_id":"cebpf4jnsgd1na2vs0mg"},{"bike_id":"2b8a6c43-dfe3-4655-a258-e1c452814750","system_id":"levelo_inurba_marseille","lat":43.28001,"lon":5.40023,"is_reserved":false,"is_disabled":false,"rental_uris":{"android":"levelo://app?vid=2b8a6c43-dfe3-4655-a258-e1c452814750","ios":"levelo://app?vid=2b8a6c43-dfe3-4655-a258-e1c452814750"},"vehicle_type_id":"4","last_reported":1740499889,"current_range_meters":20000,"station_id":"ce4bho92rcd13ifvqh4g","pricing_plan_id":"cebpf4jnsgd1na2vs0mg"},{"bike_id":"196af8e5-7c0f-4082-8147-d00c3673115b","system_id":"levelo_inurba_marseille","lat":43.30136,"lon":5.38769,"is_reserved":false,"is_disabled":false,"rental_uris":{"android":"levelo://app?vid=196af8e5-7c0f-4082-8147-d00c3673115b","ios":"levelo://app?vid=196af8e5-7c0f-4082-8147-d00c3673115b"},"vehicle_type_id":"4","last_reported":1740499889,"current_range_meters":20000,"station_id":"ce4bghh2rcd13ifvqb60","pricing_plan_id":"cebpf4jnsgd1na2vs0mg"},{"bike_id":"4bb8f850-e4ae-4b0f-9d5c-ed362412cb0f","system_id":"levelo_inurba_marseille","lat":43.29268,"lon":5.38434,"is_reserved":false,"is_disabled":false,"rental_uris":{"android":"levelo://app?vid=4bb8f850-e4ae-4b0f-9d5c-ed362412cb0f","ios":"levelo://app?vid=4bb8f850-e4ae-4b0f-9d5c-ed362412cb0f"},"vehicle_type_id":"4","last_reported":1740499889,"current_range_meters":20800,"station_id":"ce4bh692rcd13ifvqea0","pricing_plan_id":"cebpf4jnsgd1na2vs0mg"},{"bike_id":"73ea6473-b79b-47d3-b2b7-153e9d286f14","system_id":"levelo_inurba_marseille","lat":43.29258,"lon":5.40918,"is_reserved":false,"is_disabled":false,"rental_uris":{"android":"levelo://app?vid=73ea6473-b79b-47d3-b2b7-153e9d286f14","ios":"levelo://app?vid=73ea6473-b79b-47d3-b2b7-153e9d286f14"},"vehicle_type_id":"4","last_reported":1740499889,"current_range_meters":20800,"station_id":"ce4bh192rcd13ifvqdc0","pricing_plan_id":"cebpf4jnsgd1na2vs0mg"},{"bike_id":"be21f5b4-d75c-4c54-9095-99d63546a8ee","system_id":"levelo_inurba_marseille","lat":43.29904,"lon":5.38149,"is_reserved":false,"is_disabled":false,"rental_uris":{"android":"levelo://app?vid=be21f5b4-d75c-4c54-9095-99d63546a8ee","ios":"levelo://app?vid=be21f5b4-d75c-4c54-9095-99d63546a8ee"},"vehicle_type_id":"4","last_reported":1740499889,"current_range_meters":21600,"station_id":"ce4bgj12rcd13ifvqbc0","pricing_plan_id":"cebpf4jnsgd1na2vs0mg"},{"bike_id":"b69d2ca7-a48b-4651-a829-0793f0051084","system_id":"levelo_inurba_marseille","lat":43.28674,"lon":5.38664,"is_reserved":false,"is_disabled":false,"rental_uris":{"android":"levelo://app?vid=b69d2ca7-a48b-4651-a829-0793f0051084","ios":"levelo://app?vid=b69d2ca7-a48b-4651-a829-0793f0051084"},"vehicle_type_id":"4","last_reported":1740499889,"current_range_meters":20800,"station_id":"ce4bh492rcd13ifvqdug","pricing_plan_id":"cebpf4jnsgd1na2vs0mg"},{"bike_id":"69db4541-b9a4-4c4c-bb1a-8f793f3c54c3","system_id":"levelo_inurba_marseille","lat":43.27918,"lon":5.3959,"is_reserved":false,"is_disabled":false,"rental_uris":{"android":"levelo://app?vid=69db4541-b9a4-4c4c-bb1a-8f793f3c54c3","ios":"levelo://app?vid=69db4541-b9a4-4c4c-bb1a-8f793f3c54c3"},"vehicle_type_id":"4","last_reported":1740499889,"current_range_meters":19200,"station_id":"ce4bhf92rcd13ifvqf40","pricing_plan_id":"cebpf4jnsgd1na2vs0mg"},{"bike_id":"8d76d8c1-e799-4640-b49c-8f9acc1b2deb","system_id":"levelo_inurba_marseille","lat":43.31459,"lon":5.37281,"is_reserved":false,"is_disabled":false,"rental_uris":{"android":"levelo://app?vid=8d76d8c1-e799-4640-b49c-8f9acc1b2deb","ios":"levelo://app?vid=8d76d8c1-e799-4640-b49c-8f9acc1b2deb"},"vehicle_type_id":"4","last_reported":1740499889,"current_range_meters":20800,"station_id":"ce4bgt12rcd13ifvqcd0","pricing_plan_id":"cebpf4jnsgd1na2vs0mg"},{"bike_id":"b190ccbf-97ce-4c6e-a392-3f22ddc54bac","system_id":"levelo_inurba_marseille","lat":43.31329,"lon":5.39697,"is_reserved":false,"is_disabled":false,"rental_uris":{"android":"levelo://app?vid=b190ccbf-97ce-4c6e-a392-3f22ddc54bac","ios":"levelo://app?vid=b190ccbf-97ce-4c6e-a392-3f22ddc54bac"},"vehicle_type_id":"4","last_reported":1740499889,"current_range_meters":20800,"station_id":"ce4bgvp2rcd13ifvqcu0","pricing_plan_id":"cebpf4jnsgd1na2vs0mg"},{"bike_id":"ee7498ac-afae-4101-a827-ddb2ec43033c","system_id":"levelo_inurba_marseille","lat":43.23192,"lon":5.39996,"is_reserved":false,"is_disabled":false,"rental_uris":{"android":"levelo://app?vid=ee7498ac-afae-4101-a827-ddb2ec43033c","ios":"levelo://app?vid=ee7498ac-afae-4101-a827-ddb2ec43033c"},"vehicle_type_id":"4","last_reported":1740499889,"current_range_meters":22000,"station_id":"ce4bhn12rcd13ifvqgqg","pricing_plan_id":"cebpf4jnsgd1na2vs0mg"},{"bike_id":"0edf3a85-0e12-4f65-a670-900a1988fcf3","system_id":"levelo_inurba_marseille","lat":43.30414,"lon":5.41278,"is_reserved":false,"is_disabled":true,"rental_uris":{"android":"levelo://app?vid=0edf3a85-0e12-4f65-a670-900a1988fcf3","ios":"levelo://app?vid=0edf3a85-0e12-4f65-a670-900a1988fcf3"},"vehicle_type_id":"4","last_reported":1740499889,"current_range_meters":22000,"station_id":"ce4bhop2rcd13ifvqh8g","pricing_plan_id":"cebpf4jnsgd1na2vs0mg"},{"bike_id":"e3c11c48-17c7-48db-9d63-54ad248e8e40","system_id":"levelo_inurba_marseille","lat":43.29879,"lon":5.39738,"is_reserved":false,"is_disabled":false,"rental_uris":{"android":"levelo://app?vid=e3c11c48-17c7-48db-9d63-54ad248e8e40","ios":"levelo://app?vid=e3c11c48-17c7-48db-9d63-54ad248e8e40"},"vehicle_type_id":"4","last_reported":1740499889,"current_range_meters":21600,"station_id":"ce4bh0h2rcd13ifvqd50","pricing_plan_id":"cebpf4jnsgd1na2vs0mg"},{"bike_id":"7ba3aa33-5bbc-4bf7-a2b3-7e517b70afe7","system_id":"levelo_inurba_marseille","lat":43.29252,"lon":5.37621,"is_reserved":false,"is_disabled":false,"rental_uris":{"android":"levelo://app?vid=7ba3aa33-5bbc-4bf7-a2b3-7e517b70afe7","ios":"levelo://app?vid=7ba3aa33-5bbc-4bf7-a2b3-7e517b70afe7"},"vehicle_type_id":"4","last_reported":1740499889,"current_range_meters":21600,"station_id":"ce4bgi12rcd13ifvqb80","pricing_plan_id":"cebpf4jnsgd1na2vs0mg"},{"bike_id":"efbf3a9a-d664-4b35-9694-a88dcfe08770","system_id":"levelo_inurba_marseille","lat":43.24113,"lon":5.39776,"is_reserved":false,"is_disabled":false,"rental_uris":{"android":"levelo://app?vid=efbf3a9a-d664-4b35-9694-a88dcfe08770","ios":"levelo://app?vid=efbf3a9a-d664-4b35-9694-a88dcfe08770"},"vehicle_type_id":"4","last_reported":1740499889,"current_range_meters":22000,"station_id":"ce4bhn12rcd13ifvqgpg","pricing_plan_id":"cebpf4jnsgd1na2vs0mg"},{"bike_id":"ba101acb-8bd4-4137-a8f8-b83921845d44","system_id":"levelo_inurba_marseille","lat":43.29039,"lon":5.37593,"is_reserved":false,"is_disabled":false,"rental_uris":{"android":"levelo://app?vid=ba101acb-8bd4-4137-a8f8-b83921845d44","ios":"levelo://app?vid=ba101acb-8bd4-4137-a8f8-b83921845d44"},"vehicle_type_id":"4","last_reported":1740499889,"current_range_meters":22000,"station_id":"ce4bh692rcd13ifvqe90","pricing_plan_id":"cebpf4jnsgd1na2vs0mg"},{"bike_id":"1720ecc2-ac4d-4511-8f0c-53362d7f903a","system_id":"levelo_inurba_marseille","lat":43.26203,"lon":5.40451,"is_reserved":false,"is_disabled":false,"rental_uris":{"android":"levelo://app?vid=1720ecc2-ac4d-4511-8f0c-53362d7f903a","ios":"levelo://app?vid=1720ecc2-ac4d-4511-8f0c-53362d7f903a"},"vehicle_type_id":"4","last_reported":1740499889,"current_range_meters":22000,"station_id":"ce4bhmh2rcd13ifvqgmg","pricing_plan_id":"cebpf4jnsgd1na2vs0mg"},{"bike_id":"ae3ac71d-3500-4a7c-a6d2-d58b231d7281","system_id":"levelo_inurba_marseille","lat":43.2849,"lon":5.38421,"is_reserved":false,"is_disabled":false,"rental_uris":{"android":"levelo://app?vid=ae3ac71d-3500-4a7c-a6d2-d58b231d7281","ios":"levelo://app?vid=ae3ac71d-3500-4a7c-a6d2-d58b231d7281"},"vehicle_type_id":"4","last_reported":1740499889,"current_range_meters":22000,"station_id":"ce4bh512rcd13ifvqe3g","pricing_plan_id":"cebpf4jnsgd1na2vs0mg"},{"bike_id":"2b87e556-c7ea-41a9-975d-225f352a246f","system_id":"levelo_inurba_marseille","lat":43.2926,"lon":5.37662,"is_reserved":false,"is_disabled":false,"rental_uris":{"android":"levelo://app?vid=2b87e556-c7ea-41a9-975d-225f352a246f","ios":"levelo://app?vid=2b87e556-c7ea-41a9-975d-225f352a246f"},"vehicle_type_id":"4","last_reported":1740499889,"current_range_meters":22000,"station_id":"ce4bgi12rcd13ifvqb80","pricing_plan_id":"cebpf4jnsgd1na2vs0mg"},{"bike_id":"a16a0633-306e-4fb8-8c07-8705838de3f2","system_id":"levelo_inurba_marseille","lat":43.29599,"lon":5.38098,"is_reserved":false,"is_disabled":false,"rental_uris":{"android":"levelo://app?vid=a16a0633-306e-4fb8-8c07-8705838de3f2","ios":"levelo://app?vid=a16a0633-306e-4fb8-8c07-8705838de3f2"},"vehicle_type_id":"4","last_reported":1740499889,"current_range_meters":22000,"station_id":"ce4bgl12rcd13ifvqbo0","pricing_plan_id":"cebpf4jnsgd1na2vs0mg"},{"bike_id":"dd889138-4e54-4adb-85d0-394bd31af506","system_id":"levelo_inurba_marseille","lat":43.24182,"lon":5.39728,"is_reserved":false,"is_disabled":false,"rental_uris":{"android":"levelo://app?vid=dd889138-4e54-4adb-85d0-394bd31af506","ios":"levelo://app?vid=dd889138-4e54-4adb-85d0-394bd31af506"},"vehicle_type_id":"4","last_reported":1740499889,"current_range_meters":22000,"station_id":"ce4bhn12rcd13ifvqgpg","pricing_plan_id":"cebpf4jnsgd1na2vs0mg"},{"bike_id":"a70e0ffb-93a7-4267-b4f5-1c040203179c","system_id":"levelo_inurba_marseille","lat":43.29531,"lon":5.38548,"is_reserved":false,"is_disabled":false,"rental_uris":{"android":"levelo://app?vid=a70e0ffb-93a7-4267-b4f5-1c040203179c","ios":"levelo://app?vid=a70e0ffb-93a7-4267-b4f5-1c040203179c"},"vehicle_type_id":"4","last_reported":1740499889,"current_range_meters":22400,"station_id":"ce4bgih2rcd13ifvqba0","pricing_plan_id":"cebpf4jnsgd1na2vs0mg"},{"bike_id":"4ea509d1-9385-4191-ba4f-426601ab6e3d","system_id":"levelo_inurba_marseille","lat":43.25086,"lon":5.39498,"is_reserved":false,"is_disabled":false,"rental_uris":{"android":"levelo://app?vid=4ea509d1-9385-4191-ba4f-426601ab6e3d","ios":"levelo://app?vid=4ea509d1-9385-4191-ba4f-426601ab6e3d"},"vehicle_type_id":"4","last_reported":1740499889,"current_range_meters":22800,"station_id":"ce4bhm12rcd13ifvqgkg","pricing_plan_id":"cebpf4jnsgd1na2vs0mg"},{"bike_id":"2d5bc436-8f26-4744-86ed-98d321adfd76","system_id":"levelo_inurba_marseille","lat":43.23968,"lon":5.36634,"is_reserved":false,"is_disabled":false,"rental_uris":{"android":"levelo://app?vid=2d5bc436-8f26-4744-86ed-98d321adfd76","ios":"levelo://app?vid=2d5bc436-8f26-4744-86ed-98d321adfd76"},"vehicle_type_id":"4","last_reported":1740499889,"current_range_meters":22400,"station_id":"ce4bhi12rcd13ifvqfp0","pricing_plan_id":"cebpf4jnsgd1na2vs0mg"},{"bike_id":"245c9ee4-a552-4737-8cda-71747db953a0","system_id":"levelo_inurba_marseille","lat":43.25006,"lon":5.38924,"is_reserved":false,"is_disabled":false,"rental_uris":{"android":"levelo://app?vid=245c9ee4-a552-4737-8cda-71747db953a0","ios":"levelo://app?vid=245c9ee4-a552-4737-8cda-71747db953a0"},"vehicle_type_id":"4","last_reported":1740499889,"current_range_meters":22400,"station_id":"ce4bhgp2rcd13ifvqfd0","pricing_plan_id":"cebpf4jnsgd1na2vs0mg"},{"bike_id":"dd453111-08bf-4632-b0ef-810975e60ed4","system_id":"levelo_inurba_marseille","lat":43.33024,"lon":5.39055,"is_reserved":false,"is_disabled":false,"rental_uris":{"android":"levelo://app?vid=dd453111-08bf-4632-b0ef-810975e60ed4","ios":"levelo://app?vid=dd453111-08bf-4632-b0ef-810975e60ed4"},"vehicle_type_id":"4","last_reported":1740499889,"current_range_meters":22400,"station_id":"ce4bhr92rcd13ifvqhrg","pricing_plan_id":"cebpf4jnsgd1na2vs0mg"},{"bike_id":"2d05e645-2e38-42c2-9686-b6e82837f17a","system_id":"levelo_inurba_marseille","lat":43.3002,"lon":5.37202,"is_reserved":false,"is_disabled":false,"rental_uris":{"android":"levelo://app?vid=2d05e645-2e38-42c2-9686-b6e82837f17a","ios":"levelo://app?vid=2d05e645-2e38-42c2-9686-b6e82837f17a"},"vehicle_type_id":"4","last_reported":1740499889,"current_range_meters":22400,"station_id":"","pricing_plan_id":"cebpf4jnsgd1na2vs0mg"},{"bike_id":"3a9a5b46-49bd-4f85-b152-11cb649e19c3","system_id":"levelo_inurba_marseille","lat":43.33023,"lon":5.39043,"is_reserved":false,"is_disabled":false,"rental_uris":{"android":"levelo://app?vid=3a9a5b46-49bd-4f85-b152-11cb649e19c3","ios":"levelo://app?vid=3a9a5b46-49bd-4f85-b152-11cb649e19c3"},"vehicle_type_id":"4","last_reported":1740499889,"current_range_meters":22800,"station_id":"ce4bhr92rcd13ifvqhrg","pricing_plan_id":"cebpf4jnsgd1na2vs0mg"},{"bike_id":"5083812a-5abf-4823-bdd1-696b957e721e","system_id":"levelo_inurba_marseille","lat":43.2842,"lon":5.34988,"is_reserved":false,"is_disabled":false,"rental_uris":{"android":"levelo://app?vid=5083812a-5abf-4823-bdd1-696b957e721e","ios":"levelo://app?vid=5083812a-5abf-4823-bdd1-696b957e721e"},"vehicle_type_id":"4","last_reported":1740499889,"current_range_meters":22800,"station_id":"ce4bhbh2rcd13ifvqepg","pricing_plan_id":"cebpf4jnsgd1na2vs0mg"},{"bike_id":"5e8aa902-416f-4e9f-99c2-0cd50021da51","system_id":"levelo_inurba_marseille","lat":43.28699,"lon":5.38636,"is_reserved":false,"is_disabled":false,"rental_uris":{"android":"levelo://app?vid=5e8aa902-416f-4e9f-99c2-0cd50021da51","ios":"levelo://app?vid=5e8aa902-416f-4e9f-99c2-0cd50021da51"},"vehicle_type_id":"4","last_reported":1740499889,"current_range_meters":22800,"station_id":"ce4bh492rcd13ifvqdug","pricing_plan_id":"cebpf4jnsgd1na2vs0mg"},{"bike_id":"f9960b39-a005-483a-9711-897b2b03b323","system_id":"levelo_inurba_marseille","lat":43.283593,"lon":5.386475,"is_reserved":false,"is_disabled":true,"rental_uris":{"android":"levelo://app?vid=f9960b39-a005-483a-9711-897b2b03b323","ios":"levelo://app?vid=f9960b39-a005-483a-9711-897b2b03b323"},"vehicle_type_id":"4","last_reported":1740499889,"current_range_meters":22800,"station_id":"ce4bh492rcd13ifvqdvg","pricing_plan_id":"cebpf4jnsgd1na2vs0mg"},{"bike_id":"1efd4c17-76e7-45ea-80bb-fcb0b8f3b26e","system_id":"levelo_inurba_marseille","lat":43.29593,"lon":5.37498,"is_reserved":false,"is_disabled":false,"rental_uris":{"android":"levelo://app?vid=1efd4c17-76e7-45ea-80bb-fcb0b8f3b26e","ios":"levelo://app?vid=1efd4c17-76e7-45ea-80bb-fcb0b8f3b26e"},"vehicle_type_id":"4","last_reported":1740499889,"current_range_meters":23200,"station_id":"ce4bgh92rcd13ifvqb50","pricing_plan_id":"cebpf4jnsgd1na2vs0mg"},{"bike_id":"e86dbc9c-48b9-405a-aa4e-5895efad5404","system_id":"levelo_inurba_marseille","lat":43.29906,"lon":5.38162,"is_reserved":false,"is_disabled":false,"rental_uris":{"android":"levelo://app?vid=e86dbc9c-48b9-405a-aa4e-5895efad5404","ios":"levelo://app?vid=e86dbc9c-48b9-405a-aa4e-5895efad5404"},"vehicle_type_id":"4","last_reported":1740499889,"current_range_meters":22800,"station_id":"ce4bgj12rcd13ifvqbc0","pricing_plan_id":"cebpf4jnsgd1na2vs0mg"},{"bike_id":"89047079-1744-4c0c-a314-837ce9a97909","system_id":"levelo_inurba_marseille","lat":43.30556,"lon":5.36717,"is_reserved":false,"is_disabled":false,"rental_uris":{"android":"levelo://app?vid=89047079-1744-4c0c-a314-837ce9a97909","ios":"levelo://app?vid=89047079-1744-4c0c-a314-837ce9a97909"},"vehicle_type_id":"4","last_reported":1740499889,"current_range_meters":22800,"station_id":"ce4bgrp2rcd13ifvqc9g","pricing_plan_id":"cebpf4jnsgd1na2vs0mg"},