{"last_updated":1739941779,"ttl":60,"version":"2.2","data":{"bikes":[{"bike_id":"1242f1ce-bafc-425c-9527-1715639e4a35","system_id":"levelo_inurba_marseille","lat":43.25113,"lon":5.40325,"is_reserved":false,"is_disabled":false,"rental_uris":{"android":"levelo://app?vid=1242f1ce-bafc-425c-9527-1715639e4a35","ios":"levelo://app?vid=1242f1ce-bafc-425c-9527-1715639e4a35"},"vehicle_type_id":"4","last_reported":1739941779,"current_range_meters":2800,"station_id":"ce4bhlh2rcd13ifvqgig","pricing_plan_id":"cebpf4jnsgd1na2vs0mg"},{"bike_id":"828f024f-3fa3-492e-b4f4-7bfb9d5e214d","system_id":"levelo_inurba_marseille","lat":43.27043,"lon":5.42312,"is_reserved":false,"is_disabled":true,"rental_uris":{"android":"levelo://app?vid=828f024f-3fa3-492e-b4f4-7bfb9d5e214d","ios":"levelo://app?vid=828f024f-3fa3-492e-b4f4-7bfb9d5e214d"},"vehicle_type_id":"4","last_reported":1739941779,"current_range_meters":2800,"station_id":"ce4bhk92rcd13ifvqgb0","pricing_plan_id":"cebpf4jnsgd1na2vs0mg"},{"bike_id":"98dafedc-f25b-409d-b3e2-803b47ffb900","system_id":"levelo_inurba_marseille","lat":43.33774,"lon":5.37491,"is_reserved":false,"is_disabled":false,"rental_uris":{"android":"levelo://app?vid=98dafedc-f25b-409d-b3e2-803b47ffb900","ios":"levelo://app?vid=98dafedc-f25b-409d-b3e2-803b47ffb900"},"vehicle_type_id":"4","last_reported":1739941779,"current_range_meters":3200,"station_id":"","pricing_plan_id":"cebpf4jnsgd1na2vs0mg"},{"bike_id":"4a3bd9f1-ad8f-4dde-8411-8f8efd8fbd91","system_id":"levelo_inurba_marseille","lat":43.31325,"lon":5.39715,"is_reserved":false,"is_disabled":false,"rental_uris":{"android":"levelo://app?vid=4a3bd9f1-ad8f-4dde-8411-8f8efd8fbd91","ios":"levelo://app?vid=4a3bd9f1-ad8f-4dde-8411-8f8efd8fbd91"},"vehicle_type_id":"4","last_reported":1739941779,"current_range_meters":3200,"station_id":"ce4bgvp2rcd13ifvqcu0","pricing_plan_id":"cebpf4jnsgd1na2vs0mg"},{"bike_id":"635050f9-a2c9-4910-8267-ff5a32e2982d","system_id":"levelo_inurba_marseille","lat":43.24813,"lon":5.37469,"is_reserved":false,"is_disabled":false,"rental_uris":{"android":"levelo://app?vid=635050f9-a2c9-4910-8267-ff5a32e2982d","ios":"levelo://app?vid=635050f9-a2c9-4910-8267-ff5a32e2982d"},"vehicle_type_id":"4","last_reported":1739941779,"current_range_meters":3200,"station_id":"","pricing_plan_id":"cebpf4jnsgd1na2vs0mg"},{"bike_id":"25dcf690-db42-4694-9c97-37e209bee538","system_id":"levelo_inurba_marseille","lat":43.24651,"lon":5.38899,"is_reserved":false,"is_disabled":false,"rental_uris":{"android":"levelo://app?vid=25dcf690-db42-4694-9c97-37e209bee538","ios":"levelo://app?vid=25dcf690-db42-4694-9c97-37e209bee538"},"vehicle_type_id":"4","last_reported":1739941779,"current_range_meters":4000,"station_id":"ce4bhg12rcd13ifvqf60","pricing_plan_id":"cebpf4jnsgd1na2vs0mg"},{"bike_id":"7b85ab77-b4da-49c0-828e-288db2e9b9ca","system_id":"levelo_inurba_marseille","lat":43.27819,"lon":5.39216,"is_reserved":false,"is_disabled":false,"rental_uris":{"android":"levelo://app?vid=7b85ab77-b4da-49c0-828e-288db2e9b9ca","ios":"levelo://app?vid=7b85ab77-b4da-49c0-828e-288db2e9b9ca"},"vehicle_type_id":"4","last_reported":1739941779,"current_range_meters":4000,"station_id":"ce4bhjp2rcd13ifvqga0","pricing_plan_id":"cebpf4jnsgd1na2vs0mg"},{"bike_id":"c268957d-fcfb-4bec-b8cc-7b01a7d69811","system_id":"levelo_inurba_marseille","lat":43.27051,"lon":5.40277,"is_reserved":false,"is_disabled":true,"rental_uris":{"android":"levelo://app?vid=c268957d-fcfb-4bec-b8cc-7b01a7d69811","ios":"levelo://app?vid=c268957d-fcfb-4bec-b8cc-7b01a7d69811"},"vehicle_type_id":"4","last_reported":1739941779,"current_range_meters":4000,"station_id":"","pricing_plan_id":"cebpf4jnsgd1na2vs0mg"},{"bike_id":"d26850d0-243b-45ca-ad06-7a292cc6551f","system_id":"levelo_inurba_marseille","lat":43.23958,"lon":5.3663,"is_reserved":false,"is_disabled":false,"rental_uris":{"android":"levelo://app?vid=d26850d0-243b-45ca-ad06-7a292cc6551f","ios":"levelo://app?vid=d26850d0-243b-45ca-ad06-7a292cc6551f"},"vehicle_type_id":"4","last_reported":1739941779,"current_range_meters":4400,"station_id":"ce4bhi12rcd13ifvqfp0","pricing_plan_id":"cebpf4jnsgd1na2vs0mg"},{"bike_id":"427b0dee-fa52-4bd3-ac45-08f5b6aa2862","system_id":"levelo_inurba_marseille","lat":43.28455,"lon":5.35882,"is_reserved":false,"is_disabled":false,"rental_uris":{"android":"levelo://app?vid=427b0dee-fa52-4bd3-ac45-08f5b6aa2862","ios":"levelo://app?vid=427b0dee-fa52-4bd3-ac45-08f5b6aa2862"},"vehicle_type_id":"4","last_reported":1739941779,"current_range_meters":4800,"station_id":"ce4bhah2rcd13ifvqei0","pricing_plan_id":"cebpf4jnsgd1na2vs0mg"},{"bike_id":"5df3845c-4ea1-44a3-9174-1142afb018d2","system_id":"levelo_inurba_marseille","lat":43.26553,"lon":5.373,"is_reserved":false,"is_disabled":false,"rental_uris":{"android":"levelo://app?vid=5df3845c-4ea1-44a3-9174-1142afb018d2","ios":"levelo://app?vid=5df3845c-4ea1-44a3-9174-1142afb018d2"},"vehicle_type_id":"4","last_reported":1739941779,"current_range_meters":4800,"station_id":"","pricing_plan_id":"cebpf4jnsgd1na2vs0mg"},{"bike_id":"4c637750-93c7-4e05-9f85-bcb78798ac27","system_id":"levelo_inurba_marseille","lat":43.27945,"lon":5.41063,"is_reserved":false,"is_disabled":false,"rental_uris":{"android":"levelo://app?vid=4c637750-93c7-4e05-9f85-bcb78798ac27","ios":"levelo://app?vid=4c637750-93c7-4e05-9f85-bcb78798ac27"},"vehicle_type_id":"4","last_reported":1739941779,"current_range_meters":4800,"station_id":"ce4bhnp2rcd13ifvqh0g","pricing_plan_id":"cebpf4jnsgd1na2vs0mg"},{"bike_id":"f301f0ca-9a74-4b1b-95f5-7641143983d6","system_id":"levelo_inurba_marseille","lat":43.25083,"lon":5.39517,"is_reserved":false,"is_disabled":false,"rental_uris":{"android":"levelo://app?vid=f301f0ca-9a74-4b1b-95f5-7641143983d6","ios":"levelo://app?vid=f301f0ca-9a74-4b1b-95f5-7641143983d6"},"vehicle_type_id":"4","last_reported":1739941779,"current_range_meters":4800,"station_id":"ce4bhm12rcd13ifvqgkg","pricing_plan_id":"cebpf4jnsgd1na2vs0mg"},{"bike_id":"dc8b97dd-fa8c-4ca9-a2de-f8b3e12e2f7b","system_id":"levelo_inurba_marseille","lat":43.30951,"lon":5.39023,"is_reserved":false,"is_disabled":false,"rental_uris":{"android":"levelo://app?vid=dc8b97dd-fa8c-4ca9-a2de-f8b3e12e2f7b","ios":"levelo://app?vid=dc8b97dd-fa8c-4ca9-a2de-f8b3e12e2f7b"},"vehicle_type_id":"4","last_reported":1739941779,"current_range_meters":5600,"station_id":"ce4bgup2rcd13ifvqco0","pricing_plan_id":"cebpf4jnsgd1na2vs0mg"},{"bike_id":"79cd125d-096e-49ef-87ce-fc49628ea344","system_id":"levelo_inurba_marseille","lat":43.30594,"lon":5.39362,"is_reserved":false,"is_disabled":false,"rental_uris":{"android":"levelo://app?vid=79cd125d-096e-49ef-87ce-fc49628ea344","ios":"levelo://app?vid=79cd125d-096e-49ef-87ce-fc49628ea344"},"vehicle_type_id":"4","last_reported":1739941779,"current_range_meters":5600,"station_id":"ce4bh0p2rcd13ifvqd80","pricing_plan_id":"cebpf4jnsgd1na2vs0mg"},{"bike_id":"020f9db3-6048-4a83-8c59-4acc533112c8","system_id":"levelo_inurba_marseille","lat":43.28169,"lon":5.42644,"is_reserved":false,"is_disabled":false,"rental_uris":{"android":"levelo://app?vid=020f9db3-6048-4a83-8c59-4acc533112c8","ios":"levelo://app?vid=020f9db3-6048-4a83-8c59-4acc533112c8"},"vehicle_type_id":"4","last_reported":1739941779,"current_range_meters":5600,"station_id":"ce4bhnh2rcd13ifvqgug","pricing_plan_id":"cebpf4jnsgd1na2vs0mg"},{"bike_id":"3f8a7573-ed17-44ef-ba58-3ffcbe5d2815","system_id":"levelo_inurba_marseille","lat":43.2879,"lon":5.39144,"is_reserved":false,"is_disabled":true,"rental_uris":{"android":"levelo://app?vid=3f8a7573-ed17-44ef-ba58-3ffcbe5d2815","ios":"levelo://app?vid=3f8a7573-ed17-44ef-ba58-3ffcbe5d2815"},"vehicle_type_id":"4","last_reported":1739941779,"current_range_meters":5600,"station_id":"","pricing_plan_id":"cebpf4jnsgd1na2vs0mg"},{"bike_id":"357fe735-a389-4078-bae8-5922263c3a6a","system_id":"levelo_inurba_marseille","lat":43.2868,"lon":5.36346,"is_reserved":false,"is_disabled":false,"rental_uris":{"android":"levelo://app?vid=357fe735-a389-4078-bae8-5922263c3a6a","ios":"levelo://app?vid=357fe735-a389-4078-bae8-5922263c3a6a"},"vehicle_type_id":"4","last_reported":1739941779,"current_range_meters":6000,"station_id":"ce4bhah2rcd13ifvqej0","pricing_plan_id":"cebpf4jnsgd1na2vs0mg"},{"bike_id":"6619481b-c4dc-4a32-9900-753ecba9765b","system_id":"levelo_inurba_marseille","lat":43.29453,"lon":5.43834,"is_reserved":false,"is_disabled":false,"rental_uris":{"android":"levelo://app?vid=6619481b-c4dc-4a32-9900-753ecba9765b","ios":"levelo://app?vid=6619481b-c4dc-4a32-9900-753ecba9765b"},"vehicle_type_id":"4","last_reported":1739941779,"current_range_meters":6000,"station_id":"","pricing_plan_id":"cebpf4jnsgd1na2vs0mg"},{"bike_id":"80013539-cfab-4c1a-834a-dd957c015eb9","system_id":"levelo_inurba_marseille","lat":43.270526,"lon":5.402647,"is_reserved":false,"is_disabled":false,"rental_uris":{"android":"levelo://app?vid=80013539-cfab-4c1a-834a-dd957c015eb9","ios":"levelo://app?vid=80013539-cfab-4c1a-834a-dd957c015eb9"},"vehicle_type_id":"4","last_reported":1739941779,"current_range_meters":6400,"station_id":"ce4bhk92rcd13ifvqgc0","pricing_plan_id":"cebpf4jnsgd1na2vs0mg"},{"bike_id":"811901b7-6a39-4b98-9209-f363e05c2482","system_id":"levelo_inurba_marseille","lat":43.2815,"lon":5.42642,"is_reserved":false,"is_disabled":false,"rental_uris":{"android":"levelo://app?vid=811901b7-6a39-4b98-9209-f363e05c2482","ios":"levelo://app?vid=811901b7-6a39-4b98-9209-f363e05c2482"},"vehicle_type_id":"4","last_reported":1739941779,"current_range_meters":6400,"station_id":"ce4bhnh2rcd13ifvqgug","pricing_plan_id":"cebpf4jnsgd1na2vs0mg"},{"bike_id":"036e3625-8b27-4c89-ba70-5bc5aab189ac","system_id":"levelo_inurba_marseille","lat":43.27213,"lon":5.39167,"is_reserved":false,"is_disabled":true,"rental_uris":{"android":"levelo://app?vid=036e3625-8b27-4c89-ba70-5bc5aab189ac","ios":"levelo://app?vid=036e3625-8b27-4c89-ba70-5bc5aab189ac"},"vehicle_type_id":"4","last_reported":1739941779,"current_range_meters":6400,"station_id":"ce4bhhp2rcd13ifvqfm0","pricing_plan_id":"cebpf4jnsgd1na2vs0mg"},{"bike_id":"dc2583c0-b500-4494-85fd-da6fc368e56b","system_id":"levelo_inurba_marseille","lat":43.27828,"lon":5.39215,"is_reserved":false,"is_disabled":false,"rental_uris":{"android":"levelo://app?vid=dc2583c0-b500-4494-85fd-da6fc368e56b","ios":"levelo://app?vid=dc2583c0-b500-4494-85fd-da6fc368e56b"},"vehicle_type_id":"4","last_reported":1739941779,"current_range_meters":6800,"station_id":"ce4bhjp2rcd13ifvqga0","pricing_plan_id":"cebpf4jnsgd1na2vs0mg"},{"bike_id":"6528e792-6c2b-41ab-b102-37d30001a0e7","system_id":"levelo_inurba_marseille","lat":43.27205,"lon":5.40098,"is_reserved":false,"is_disabled":false,"rental_uris":{"android":"levelo://app?vid=6528e792-6c2b-41ab-b102-37d30001a0e7","ios":"levelo://app?vid=6528e792-6c2b-41ab-b102-37d30001a0e7"},"vehicle_type_id":"4","last_reported":1739941779,"current_range_meters":6800,"station_id":"","pricing_plan_id":"cebpf4jnsgd1na2vs0mg"},{"bike_id":"79fca65f-7726-4d8c-b178-da207c385007","system_id":"levelo_inurba_marseille","lat":43.27914,"lon":5.39583,"is_reserved":false,"is_disabled":false,"rental_uris":{"android":"levelo://app?vid=79fca65f-7726-4d8c-b178-da207c385007","ios":"levelo://app?vid=79fca65f-7726-4d8c-b178-da207c385007"},"vehicle_type_id":"4","last_reported":1739941779,"current_range_meters":6800,"station_id":"ce4bhf92rcd13ifvqf40","pricing_plan_id":"cebpf4jnsgd1na2vs0mg"},{"bike_id":"a573452d-7d92-454e-9154-9c995ba585ef","system_id":"levelo_inurba_marseille","lat":43.29749,"lon":5.37657,"is_reserved":false,"is_disabled":true,"rental_uris":{"android":"levelo://app?vid=a573452d-7d92-454e-9154-9c995ba585ef","ios":"levelo://app?vid=a573452d-7d92-454e-9154-9c995ba585ef"},"vehicle_type_id":"4","last_reported":1739941779,"current_range_meters":6800,"station_id":"","pricing_plan_id":"cebpf4jnsgd1na2vs0mg"},{"bike_id":"6ff414da-5d5e-4b76-82eb-59e133f84778","system_id":"levelo_inurba_marseille","lat":43.27814,"lon":5.407176,"is_reserved":false,"is_disabled":false,"rental_uris":{"android":"levelo://app?vid=6ff414da-5d5e-4b76-82eb-59e133f84778","ios":"levelo://app?vid=6ff414da-5d5e-4b76-82eb-59e133f84778"},"vehicle_type_id":"4","last_reported":1739941779,"current_range_meters":7200,"station_id":"ce4bhnh2rcd13ifvqgtg","pricing_plan_id":"cebpf4jnsgd1na2vs0mg"},{"bike_id":"0e9ae8c5-7a7e-467d-afe2-bb8df6bfeefc","system_id":"levelo_inurba_marseille","lat":43.23332,"lon":5.40286,"is_reserved":false,"is_disabled":false,"rental_uris":{"android":"levelo://app?vid=0e9ae8c5-7a7e-467d-afe2-bb8df6bfeefc","ios":"levelo://app?vid=0e9ae8c5-7a7e-467d-afe2-bb8df6bfeefc"},"vehicle_type_id":"4","last_reported":1739941779,"current_range_meters":7200,"station_id":"","pricing_plan_id":"cebpf4jnsgd1na2vs0mg"},{"bike_id":"4b2cf509-6732-4c40-b6b7-1727a938fd1a","system_id":"levelo_inurba_marseille","lat":43.284,"lon":5.37529,"is_reserved":false,"is_disabled":false,"rental_uris":{"android":"levelo://app?vid=4b2cf509-6732-4c40-b6b7-1727a938fd1a","ios":"levelo://app?vid=4b2cf509-6732-4c40-b6b7-1727a938fd1a"},"vehicle_type_id":"4","last_reported":1739941779,"current_range_meters":7200,"station_id":"","pricing_plan_id":"cebpf4jnsgd1na2vs0mg"},{"bike_id":"66bdaba1-8ea6-4d2c-ad9c-6d213bc14ad8","system_id":"levelo_inurba_marseille","lat":43.26212,"lon":5.37922,"is_reserved":false,"is_disabled":false,"rental_uris":{"android":"levelo://app?vid=66bdaba1-8ea6-4d2c-ad9c-6d213bc14ad8","ios":"levelo://app?vid=66bdaba1-8ea6-4d2c-ad9c-6d213bc14ad8"},"vehicle_type_id":"4","last_reported":1739941779,"current_range_meters":7200,"station_id":"ce4bhjp2rcd13ifvqg90","pricing_plan_id":"cebpf4jnsgd1na2vs0mg"},{"bike_id":"79419377-2bf9-4b57-bdac-a41ea7913e50","system_id":"levelo_inurba_marseille","lat":43.29868,"lon":5.39732,"is_reserved":false,"is_disabled":false,"rental_uris":{"android":"levelo://app?vid=79419377-2bf9-4b57-bdac-a41ea7913e50","ios":"levelo://app?vid=79419377-2bf9-4b57-bdac-a41ea7913e50"},"vehicle_type_id":"4","last_reported":1739941779,"current_range_meters":7200,"station_id":"","pricing_plan_id":"cebpf4jnsgd1na2vs0mg"},{"bike_id":"687f6eec-a4ba-47ad-90ca-71871f4c643d","system_id":"levelo_inurba_marseille","lat":43.23188,"lon":5.39982,"is_reserved":false,"is_disabled":false,"rental_uris":{"android":"levelo://app?vid=687f6eec-a4ba-47ad-90ca-71871f4c643d","ios":"levelo://app?vid=687f6eec-a4ba-47ad-90ca-71871f4c643d"},"vehicle_type_id":"4","last_reported":1739941779,"current_range_meters":8000,"station_id":"ce4bhn12rcd13ifvqgqg","pricing_plan_id":"cebpf4jnsgd1na2vs0mg"},{"bike_id":"6436a366-7865-49ec-a9a2-d4b8e372d7c3","system_id":"levelo_inurba_marseille","lat":43.276245,"lon":5.361111,"is_reserved":false,"is_disabled":false,"rental_uris":{"android":"levelo://app?vid=6436a366-7865-49ec-a9a2-d4b8e372d7c3","ios":"levelo://app?vid=6436a366-7865-49ec-a9a2-d4b8e372d7c3"},"vehicle_type_id":"4","last_reported":1739941779,"current_range_meters":8000,"station_id":"ce4bha12rcd13ifvqef0","pricing_plan_id":"cebpf4jnsgd1na2vs0mg"},{"bike_id":"12b33330-5dcb-4644-8a5c-3a95dc32ce98","system_id":"levelo_inurba_marseille","lat":43.28156,"lon":5.42645,"is_reserved":false,"is_disabled":false,"rental_uris":{"android":"levelo://app?vid=12b33330-5dcb-4644-8a5c-3a95dc32ce98","ios":"levelo://app?vid=12b33330-5dcb-4644-8a5c-3a95dc32ce98"},"vehicle_type_id":"4","last_reported":1739941779,"current_range_meters":8000,"station_id":"ce4bhnh2rcd13ifvqgug","pricing_plan_id":"cebpf4jnsgd1na2vs0mg"},{"bike_id":"02d35df5-2be8-4d22-81d7-6afd631a6300","system_id":"levelo_inurba_marseille","lat":43.30329,"lon":5.4043,"is_reserved":false,"is_disabled":false,"rental_uris":{"android":"levelo://app?vid=02d35df5-2be8-4d22-81d7-6afd631a6300","ios":"levelo://app?vid=02d35df5-2be8-4d22-81d7-6afd631a6300"},"vehicle_type_id":"4","last_reported":1739941779,"current_range_meters":8000,"station_id":"ce4bh012rcd13ifvqd10","pricing_plan_id":"cebpf4jnsgd1na2vs0mg"},{"bike_id":"a685ec2d-ecdc-461b-9135-09c1967b97ae","system_id":"levelo_inurba_marseille","lat":43.23188,"lon":5.40004,"is_reserved":false,"is_disabled":false,"rental_uris":{"android":"levelo://app?vid=a685ec2d-ecdc-461b-9135-09c1967b97ae","ios":"levelo://app?vid=a685ec2d-ecdc-461b-9135-09c1967b97ae"},"vehicle_type_id":"4","last_reported":1739941779,"current_range_meters":8000,"station_id":"","pricing_plan_id":"cebpf4jnsgd1na2vs0mg"},{"bike_id":"cd189a51-ee99-4048-9ef7-2fc5d8a8f9b2","system_id":"levelo_inurba_marseille","lat":43.321004,"lon":5.367875,"is_reserved":false,"is_disabled":false,"rental_uris":{"android":"levelo://app?vid=cd189a51-ee99-4048-9ef7-2fc5d8a8f9b2","ios":"levelo://app?vid=cd189a51-ee99-4048-9ef7-2fc5d8a8f9b2"},"vehicle_type_id":"4","last_reported":1739941779,"current_range_meters":8000,"station_id":"ce4bhrh2rcd13ifvqhug","pricing_plan_id":"cebpf4jnsgd1na2vs0mg"},{"bike_id":"fe9e9092-a10a-486d-95dc-4e70a3cbff4c","system_id":"levelo_inurba_marseille","lat":43.2816,"lon":5.42786,"is_reserved":false,"is_disabled":false,"rental_uris":{"android":"levelo://app?vid=fe9e9092-a10a-486d-95dc-4e70a3cbff4c","ios":"levelo://app?vid=fe9e9092-a10a-486d-95dc-4e70a3cbff4c"},"vehicle_type_id":"4","last_reported":1739941779,"current_range_meters":8000,"station_id":"","pricing_plan_id":"cebpf4jnsgd1na2vs0mg"},{"bike_id":"fa6d9dca-d4a9-45ea-a6ad-1f6c75d10deb","system_id":"levelo_inurba_marseille","lat":43.30652,"lon":5.40081,"is_reserved":false,"is_disabled":false,"rental_uris":{"android":"levelo://app?vid=fa6d9dca-d4a9-45ea-a6ad-1f6c75d10deb","ios":"levelo://app?vid=fa6d9dca-d4a9-45ea-a6ad-1f6c75d10deb"},"vehicle_type_id":"4","last_reported":1739941779,"current_range_meters":8000,"station_id":"ce4bh112rcd13ifvqda0","pricing_plan_id":"cebpf4jnsgd1na2vs0mg"},{"bike_id":"989a1c05-c74a-4632-af21-81b3f55f7909","system_id":"levelo_inurba_marseille","lat":43.29208,"lon":5.36045,"is_reserved":false,"is_disabled":true,"rental_uris":{"android":"levelo://app?vid=989a1c05-c74a-4632-af21-81b3f55f7909","ios":"levelo://app?vid=989a1c05-c74a-4632-af21-81b3f55f7909"},"vehicle_type_id":"4","last_reported":1739941779,"current_range_meters":8000,"station_id":"","pricing_plan_id":"cebpf4jnsgd1na2vs0mg"},{"bike_id":"e34dc701-144c-4e9a-8f13-ba13983b3a86","system_id":"levelo_inurba_marseille","lat":43.28726,"lon":5.36089,"is_reserved":false,"is_disabled":false,"rental_uris":{"android":"levelo://app?vid=e34dc701-144c-4e9a-8f13-ba13983b3a86","ios":"levelo://app?vid=e34dc701-144c-4e9a-8f13-ba13983b3a86"},"vehicle_type_id":"4","last_reported":1739941779,"current_range_meters":8000,"station_id":"cki0cbj6b192h4jlfktg","pricing_plan_id":"cebpf4jnsgd1na2vs0mg"},{"bike_id":"0b226b66-aea8-4584-bf6e-83648e1d1277","system_id":"levelo_inurba_marseille","lat":43.30129,"lon":5.39855,"is_reserved":false,"is_disabled":false,"rental_uris":{"android":"levelo://app?vid=0b226b66-aea8-4584-bf6e-83648e1d1277","ios":"levelo://app?vid=0b226b66-aea8-4584-bf6e-83648e1d1277"},"vehicle_type_id":"4","last_reported":1739941779,"current_range_meters":8400,"station_id":"ce4bh0h2rcd13ifvqd40","pricing_plan_id":"cebpf4jnsgd1na2vs0mg"},{"bike_id":"8072f034-69d4-48c5-b234-451357393f04","system_id":"levelo_inurba_marseille","lat":43.23966,"lon":5.36627,"is_reserved":false,"is_disabled":false,"rental_uris":{"android":"levelo://app?vid=8072f034-69d4-48c5-b234-451357393f04","ios":"levelo://app?vid=8072f034-69d4-48c5-b234-451357393f04"},"vehicle_type_id":"4","last_reported":1739941779,"current_range_meters":8400,"station_id":"ce4bhi12rcd13ifvqfp0","pricing_plan_id":"cebpf4jnsgd1na2vs0mg"},{"bike_id":"983c9e80-2c62-43c7-9f96-d41b5c51bc8e","system_id":"levelo_inurba_marseille","lat":43.29516,"lon":5.39398,"is_reserved":false,"is_disabled":false,"rental_uris":{"android":"levelo://app?vid=983c9e80-2c62-43c7-9f96-d41b5c51bc8e","ios":"levelo://app?vid=983c9e80-2c62-43c7-9f96-d41b5c51bc8e"},"vehicle_type_id":"4","last_reported":1739941779,"current_range_meters":8400,"station_id":"ce4bh292rcd13ifvqdf0","pricing_plan_id":"cebpf4jnsgd1na2vs0mg"},{"bike_id":"ba585d35-5c02-4e3b-b000-b2f1dcca5b41","system_id":"levelo_inurba_marseille","lat":43.26069,"lon":5.40661,"is_reserved":false,"is_disabled":false,"rental_uris":{"android":"levelo://app?vid=ba585d35-5c02-4e3b-b000-b2f1dcca5b41","ios":"levelo://app?vid=ba585d35-5c02-4e3b-b000-b2f1dcca5b41"},"vehicle_type_id":"4","last_reported":1739941779,"current_range_meters":8400,"station_id":"","pricing_plan_id":"cebpf4jnsgd1na2vs0mg"},{"bike_id":"22f2e777-74ca-4641-a6fd-1463fa61e98e","system_id":"levelo_inurba_marseille","lat":43.28692,"lon":5.39974,"is_reserved":false,"is_disabled":false,"rental_uris":{"android":"levelo://app?vid=22f2e777-74ca-4641-a6fd-1463fa61e98e","ios":"levelo://app?vid=22f2e777-74ca-4641-a6fd-1463fa61e98e"},"vehicle_type_id":"4","last_reported":1739941779,"current_range_meters":8400,"station_id":"ce4bho92rcd13ifvqh3g","pricing_plan_id":"cebpf4jnsgd1na2vs0mg"},{"bike_id":"e605dea0-84a5-4395-b86a-134e39164b56","system_id":"levelo_inurba_marseille","lat":43.28617,"lon":5.35096,"is_reserved":false,"is_disabled":false,"rental_uris":{"android":"levelo://app?vid=e605dea0-84a5-4395-b86a-134e39164b56","ios":"levelo://app?vid=e605dea0-84a5-4395-b86a-134e39164b56"},"vehicle_type_id":"4","last_reported":1739941779,"current_range_meters":8400,"station_id":"ce4bhch2rcd13ifvqeug","pricing_plan_id":"cebpf4jnsgd1na2vs0mg"},{"bike_id":"c9071df5-5664-4a5e-b1b2-1df958a7db03","system_id":"levelo_inurba_marseille","lat":43.2393,"lon":5.36665,"is_reserved":false,"is_disabled":false,"rental_uris":{"android":"levelo://app?vid=c9071df5-5664-4a5e-b1b2-1df958a7db03","ios":"levelo://app?vid=c9071df5-5664-4a5e-b1b2-1df958a7db03"},"vehicle_type_id":"4","last_reported":1739941779,"current_range_meters":8400,"station_id":"ce4bhi12rcd13ifvqfp0","pricing_plan_id":"cebpf4jnsgd1na2vs0mg"},{"bike_id":"53feaf20-a7f6-4631-b805-97555a63e29b","system_id":"levelo_inurba_marseille","lat":43.27424,"lon":5.40934,"is_reserved":false,"is_disabled":false,"rental_uris":{"android":"levelo://app?vid=53feaf20-a7f6-4631-b805-97555a63e29b","ios":"levelo://app?vid=53feaf20-a7f6-4631-b805-97555a63e29b"},"vehicle_type_id":"4","last_reported":1739941779,"current_range_meters":8400,"station_id":"","pricing_plan_id":"cebpf4jnsgd1na2vs0mg"},{"bike_id":"62be18f2-c2fa-44c2-99ab-1a24b18e63e4","system_id":"levelo_inurba_marseille","lat":43.30615,"lon":5.39365,"is_reserved":false,"is_disabled":false,"rental_uris":{"android":"levelo://app?vid=62be18f2-c2fa-44c2-99ab-1a24b18e63e4","ios":"levelo://app?vid=62be18f2-c2fa-44c2-99ab-1a24b18e63e4"},"vehicle_type_id":"4","last_reported":1739941779,"current_range_meters":8400,"station_id":"ce4bh0p2rcd13ifvqd80","pricing_plan_id":"cebpf4jnsgd1na2vs0mg"},{"bike_id":"7d309820-d1db-4b08-8937-4adba6adeb8f","system_id":"levelo_inurba_marseille","lat":43.28106,"lon":5.37837,"is_reserved":false,"is_disabled":false,"rental_uris":{"android":"levelo://app?vid=7d309820-d1db-4b08-8937-4adba6adeb8f","ios":"levelo://app?vid=7d309820-d1db-4b08-8937-4adba6adeb8f"},"vehicle_type_id":"4","last_reported":1739941779,"current_range_meters":8400,"station_id":"ce4bha12rcd13ifvqee0","pricing_plan_id":"cebpf4jnsgd1na2vs0mg"},{"bike_id":"70dee217-670e-40d7-b959-7dcdfca9f445","system_id":"levelo_inurba_marseille","lat":43.24802,"lon":5.37455,"is_reserved":false,"is_disabled":false,"rental_uris":{"android":"levelo://app?vid=70dee217-670e-40d7-b959-7dcdfca9f445","ios":"levelo://app?vid=70dee217-670e-40d7-b959-7dcdfca9f445"},"vehicle_type_id":"4","last_reported":1739941779,"current_range_meters":8400,"station_id":"ce4bhgh2rcd13ifvqfb0","pricing_plan_id":"cebpf4jnsgd1na2vs0mg"},{"bike_id":"603829f6-1bd6-420a-b866-4544fcbffbce","system_id":"levelo_inurba_marseille","lat":43.24798,"lon":5.37447,"is_reserved":false,"is_disabled":false,"rental_uris":{"android":"levelo://app?vid=603829f6-1bd6-420a-b866-4544fcbffbce","ios":"levelo://app?vid=603829f6-1bd6-420a-b866-4544fcbffbce"},"vehicle_type_id":"4","last_reported":1739941779,"current_range_meters":8400,"station_id":"ce4bhgh2rcd13ifvqfb0","pricing_plan_id":"cebpf4jnsgd1na2vs0mg"},{"bike_id":"c21214b8-4e24-4e4f-a69f-672307e7c6ff","system_id":"levelo_inurba_marseille","lat":43.28155,"lon":5.42641,"is_reserved":false,"is_disabled":false,"rental_uris":{"android":"levelo://app?vid=c21214b8-4e24-4e4f-a69f-672307e7c6ff","ios":"levelo://app?vid=c21214b8-4e24-4e4f-a69f-672307e7c6ff"},"vehicle_type_id":"4","last_reported":1739941779,"current_range_meters":8400,"station_id":"ce4bhnh2rcd13ifvqgug","pricing_plan_id":"cebpf4jnsgd1na2vs0mg"},{"bike_id":"5e717aac-58b6-44b6-a302-9fe17a89f32b","system_id":"levelo_inurba_marseille","lat":43.319,"lon":5.40723,"is_reserved":false,"is_disabled":false,"rental_uris":{"android":"levelo://app?vid=5e717aac-58b6-44b6-a302-9fe17a89f32b","ios":"levelo://app?vid=5e717aac-58b6-44b6-a302-9fe17a89f32b"},"vehicle_type_id":"4","last_reported":1739941779,"current_range_meters":8400,"station_id":"ce4bhq12rcd13ifvqhig","pricing_plan_id":"cebpf4jnsgd1na2vs0mg"},{"bike_id":"3b99b838-b820-4eb3-a6d5-8935fc9251a1","system_id":"levelo_inurba_marseille","lat":43.30907,"lon":5.39657,"is_reserved":false,"is_disabled":false,"rental_uris":{"android":"levelo://app?vid=3b99b838-b820-4eb3-a6d5-8935fc9251a1","ios":"levelo://app?vid=3b99b838-b820-4eb3-a6d5-8935fc9251a1"},"vehicle_type_id":"4","last_reported":1739941779,"current_range_meters":8400,"station_id":"ce4bh012rcd13ifvqcv0","pricing_plan_id":"cebpf4jnsgd1na2vs0mg"},{"bike_id":"07460ddc-72b2-47b9-ae7a-e7f9041dd312","system_id":"levelo_inurba_marseille","lat":43.2394,"lon":5.36654,"is_reserved":false,"is_disabled":false,"rental_uris":{"android":"levelo://app?vid=07460ddc-72b2-47b9-ae7a-e7f9041dd312","ios":"levelo://app?vid=07460ddc-72b2-47b9-ae7a-e7f9041dd312"},"vehicle_type_id":"4","last_reported":1739941779,"current_range_meters":8800,"station_id":"","pricing_plan_id":"cebpf4jnsgd1na2vs0mg"},{"bike_id":"e6735b2b-deca-42b8-9f2c-14163ec3f2b8","system_id":"levelo_inurba_marseille","lat":43.30949,"lon":5.39043,"is_reserved":false,"is_disabled":false,"rental_uris":{"android":"levelo://app?vid=e6735b2b-deca-42b8-9f2c-14163ec3f2b8","ios":"levelo://app?vid=e6735b2b-deca-42b8-9f2c-14163ec3f2b8"},"vehicle_type_id":"4","last_reported":1739941779,"current_range_meters":8800,"station_id":"ce4bgup2rcd13ifvqco0","pricing_plan_id":"cebpf4jnsgd1na2vs0mg"},{"bike_id":"0ddd8de4-1fa2-44a4-910e-01dbc6c0ee46","system_id":"levelo_inurba_marseille","lat":43.2963,"lon":5.37701,"is_reserved":false,"is_disabled":true,"rental_uris":{"android":"levelo://app?vid=0ddd8de4-1fa2-44a4-910e-01dbc6c0ee46","ios":"levelo://app?vid=0ddd8de4-1fa2-44a4-910e-01dbc6c0ee46"},"vehicle_type_id":"4","last_reported":1739941779,"current_range_meters":8800,"station_id":"","pricing_plan_id":"cebpf4jnsgd1na2vs0mg"},{"bike_id":"a85165fb-7fdb-4cc1-ae98-ce974cfd16ca","system_id":"levelo_inurba_marseille","lat":43.23185,"lon":5.39979,"is_reserved":false,"is_disabled":false,"rental_uris":{"android":"levelo://app?vid=a85165fb-7fdb-4cc1-ae98-ce974cfd16ca","ios":"levelo://app?vid=a85165fb-7fdb-4cc1-ae98-ce974cfd16ca"},"vehicle_type_id":"4","last_reported":1739941779,"current_range_meters":8800,"station_id":"ce4bhn12rcd13ifvqgqg","pricing_plan_id":"cebpf4jnsgd1na2vs0mg"},{"bike_id":"10f8da56-b982-4af7-a78a-0fa9c8b1a438","system_id":"levelo_inurba_marseille","lat":43.31875,"lon":5.4074,"is_reserved":false,"is_disabled":false,"rental_uris":{"android":"levelo://app?vid=10f8da56-b982-4af7-a78a-0fa9c8b1a438","ios":"levelo://app?vid=10f8da56-b982-4af7-a78a-0fa9c8b1a438"},"vehicle_type_id":"4","last_reported":1739941779,"current_range_meters":8800,"station_id":"ce4bhq12rcd13ifvqhig","pricing_plan_id":"cebpf4jnsgd1na2vs0mg"},{"bike_id":"0563389e-d2fb-4cf7-b867-f187226876ea","system_id":"levelo_inurba_marseille","lat":43.29027,"lon":5.38135,"is_reserved":false,"is_disabled":true,"rental_uris":{"android":"levelo://app?vid=0563389e-d2fb-4cf7-b867-f187226876ea","ios":"levelo://app?vid=0563389e-d2fb-4cf7-b867-f187226876ea"},"vehicle_type_id":"4","last_reported":1739941779,"current_range_meters":8800,"station_id":"ce4bh4p2rcd13ifvqe1g","pricing_plan_id":"cebpf4jnsgd1na2vs0mg"},{"bike_id":"5ae0012d-6179-440f-a02a-a607c9208eb9","system_id":"levelo_inurba_marseille","lat":43.24659,"lon":5.38139,"is_reserved":false,"is_disabled":false,"rental_uris":{"android":"levelo://app?vid=5ae0012d-6179-440f-a02a-a607c9208eb9","ios":"levelo://app?vid=5ae0012d-6179-440f-a02a-a607c9208eb9"},"vehicle_type_id":"4","last_reported":1739941779,"current_range_meters":8800,"station_id":"ce4bhih2rcd13ifvqfr0","pricing_plan_id":"cebpf4jnsgd1na2vs0mg"},{"bike_id":"150d470b-8649-4d00-b7ab-12e70df09d60","system_id":"levelo_inurba_marseille","lat":43.27935,"lon":5.4104,"is_reserved":false,"is_disabled":false,"rental_uris":{"android":"levelo://app?vid=150d470b-8649-4d00-b7ab-12e70df09d60","ios":"levelo://app?vid=150d470b-8649-4d00-b7ab-12e70df09d60"},"vehicle_type_id":"4","last_reported":1739941779,"current_range_meters":8800,"station_id":"ce4bhnp2rcd13ifvqh0g","pricing_plan_id":"cebpf4jnsgd1na2vs0mg"},{"bike_id":"7b07d790-0c63-4163-a57b-29f0df781613","system_id":"levelo_inurba_marseille","lat":43.25121,"lon":5.40316,"is_reserved":false,"is_disabled":false,"rental_uris":{"android":"levelo://app?vid=7b07d790-0c63-4163-a57b-29f0df781613","ios":"levelo://app?vid=7b07d790-0c63-4163-a57b-29f0df781613"},"vehicle_type_id":"4","last_reported":1739941779,"current_range_meters":8800,"station_id":"ce4bhlh2rcd13ifvqgig","pricing_plan_id":"cebpf4jnsgd1na2vs0mg"},{"bike_id":"6c96a73f-ff01-463f-bd8c-14885ee904b6","system_id":"levelo_inurba_marseille","lat":43.29071,"lon":5.35752,"is_reserved":false,"is_disabled":false,"rental_uris":{"android":"levelo://app?vid=6c96a73f-ff01-463f-bd8c-14885ee904b6","ios":"levelo://app?vid=6c96a73f-ff01-463f-bd8c-14885ee904b6"},"vehicle_type_id":"4","last_reported":1739941779,"current_range_meters":8800,"station_id":"ce4bhb92rcd13ifvqen0","pricing_plan_id":"cebpf4jnsgd1na2vs0mg"},{"bike_id":"ec4721f0-4b3b-4dda-9c1c-294a4af452cd","system_id":"levelo_inurba_marseille","lat":43.25118,"lon":5.40291,"is_reserved":false,"is_disabled":false,"rental_uris":{"android":"levelo://app?vid=ec4721f0-4b3b-4dda-9c1c-294a4af452cd","ios":"levelo://app?vid=ec4721f0-4b3b-4dda-9c1c-294a4af452cd"},"vehicle_type_id":"4","last_reported":1739941779,"current_range_meters":8800,"station_id":"ce4bhlh2rcd13ifvqgig","pricing_plan_id":"cebpf4jnsgd1na2vs0mg"},{"bike_id":"394c5a6e-3d6a-43cd-b27a-debd4e18101b","system_id":"levelo_inurba_marseille","lat":43.336103,"lon":5.410311,"is_reserved":false,"is_disabled":false,"rental_uris":{"android":"levelo://app?vid=394c5a6e-3d6a-43cd-b27a-debd4e18101b","ios":"levelo://app?vid=394c5a6e-3d6a-43cd-b27a-debd4e18101b"},"vehicle_type_id":"4","last_reported":1739941779,"current_range_meters":8800,"station_id":"ce4bhqh2rcd13ifvqhmg","pricing_plan_id":"cebpf4jnsgd1na2vs0mg"},{"bike_id":"68190e97-a692-45ca-ac1b-c2b508322dad","system_id":"levelo_inurba_marseille","lat":43.31366,"lon":5.38505,"is_reserved":false,"is_disabled":false,"rental_uris":{"android":"levelo://app?vid=68190e97-a692-45ca-ac1b-c2b508322dad","ios":"levelo://app?vid=68190e97-a692-45ca-ac1b-c2b508322dad"},"vehicle_type_id":"4","last_reported":1739941779,"current_range_meters":9200,"station_id":"","pricing_plan_id":"cebpf4jnsgd1na2vs0mg"},{"bike_id":"27d281e4-ae2c-4d0a-b5af-b1a6c9a261f7","system_id":"levelo_inurba_marseille","lat":43.31606,"lon":5.37685,"is_reserved":false,"is_disabled":true,"rental_uris":{"android":"levelo://app?vid=27d281e4-ae2c-4d0a-b5af-b1a6c9a261f7","ios":"levelo://app?vid=27d281e4-ae2c-4d0a-b5af-b1a6c9a261f7"},"vehicle_type_id":"4","last_reported":1739941779,"current_range_meters":9200,"station_id":"ce4bgth2rcd13ifvqch0","pricing_plan_id":"cebpf4jnsgd1na2vs0mg"},{"bike_id":"0c2cd5f2-9b97-4e60-b8b7-a3385bb64f37","system_id":"levelo_inurba_marseille","lat":43.30655,"lon":5.40092,"is_reserved":false,"is_disabled":false,"rental_uris":{"android":"levelo://app?vid=0c2cd5f2-9b97-4e60-b8b7-a3385bb64f37","ios":"levelo://app?vid=0c2cd5f2-9b97-4e60-b8b7-a3385bb64f37"},"vehicle_type_id":"4","last_reported":1739941779,"current_range_meters":9200,"station_id":"ce4bh112rcd13ifvqda0","pricing_plan_id":"cebpf4jnsgd1na2vs0mg"},{"bike_id":"db04039e-8736-414e-a3e5-1ee7b7e2837d","system_id":"levelo_inurba_marseille","lat":43.29189,"lon":5.3933,"is_reserved":false,"is_disabled":false,"rental_uris":{"android":"levelo://app?vid=db04039e-8736-414e-a3e5-1ee7b7e2837d","ios":"levelo://app?vid=db04039e-8736-414e-a3e5-1ee7b7e2837d"},"vehicle_type_id":"4","last_reported":1739941779,"current_range_meters":9200,"station_id":"ce4bh192rcd13ifvqdd0","pricing_plan_id":"cebpf4jnsgd1na2vs0mg"},{"bike_id":"ebc6e618-f041-497c-aed9-aed1729dfec2","system_id":"levelo_inurba_marseille","lat":43.31318,"lon":5.39711,"is_reserved":false,"is_disabled":false,"rental_uris":{"android":"levelo://app?vid=ebc6e618-f041-497c-aed9-aed1729dfec2","ios":"levelo://app?vid=ebc6e618-f041-497c-aed9-aed1729dfec2"},"vehicle_type_id":"4","last_reported":1739941779,"current_range_meters":9200,"station_id":"","pricing_plan_id":"cebpf4jnsgd1na2vs0mg"},{"bike_id":"5f60bded-880c-4221-8396-831bbe81b7df","system_id":"levelo_inurba_marseille","lat":43.28625,"lon":5.35095,"is_reserved":false,"is_disabled":false,"rental_uris":{"android":"levelo://app?vid=5f60bded-880c-4221-8396-831bbe81b7df","ios":"levelo://app?vid=5f60bded-880c-4221-8396-831bbe81b7df"},"vehicle_type_id":"4","last_reported":1739941779,"current_range_meters":9200,"station_id":"ce4bhch2rcd13ifvqeug","pricing_plan_id":"cebpf4jnsgd1na2vs0mg"},{"bike_id":"f734e773-17df-48e9-9fba-b65495e7d8cf","system_id":"levelo_inurba_marseille","lat":43.28417,"lon":5.3499,"is_reserved":false,"is_disabled":true,"rental_uris":{"android":"levelo://app?vid=f734e773-17df-48e9-9fba-b65495e7d8cf","ios":"levelo://app?vid=f734e773-17df-48e9-9fba-b65495e7d8cf"},"vehicle_type_id":"4","last_reported":1739941779,"current_range_meters":9200,"station_id":"","pricing_plan_id":"cebpf4jnsgd1na2vs0mg"},{"bike_id":"7342bfbd-9082-4169-8159-57866036272e","system_id":"levelo_inurba_marseille","lat":43.28451,"lon":5.35898,"is_reserved":false,"is_disabled":false,"rental_uris":{"android":"levelo://app?vid=7342bfbd-9082-4169-8159-57866036272e","ios":"levelo://app?vid=7342bfbd-9082-4169-8159-57866036272e"},"vehicle_type_id":"4","last_reported":1739941779,"current_range_meters":9200,"station_id":"ce4bhah2rcd13ifvqei0","pricing_plan_id":"cebpf4jnsgd1na2vs0mg"},{"bike_id":"9582ddc0-b6af-49e9-b173-94c0a9b6801a","system_id":"levelo_inurba_marseille","lat":43.28348,"lon":5.38112,"is_reserved":false,"is_disabled":false,"rental_uris":{"android":"levelo://app?vid=9582ddc0-b6af-49e9-b173-94c0a9b6801a","ios":"levelo://app?vid=9582ddc0-b6af-49e9-b173-94c0a9b6801a"},"vehicle_type_id":"4","last_reported":1739941779,"current_range_meters":9200,"station_id":"","pricing_plan_id":"cebpf4jnsgd1na2vs0mg"},{"bike_id":"a6e47676-9a97-4574-b4ab-46943fcdbbe0","system_id":"levelo_inurba_marseille","lat":43.27186,"lon":5.40985,"is_reserved":false,"is_disabled":false,"rental_uris":{"android":"levelo://app?vid=a6e47676-9a97-4574-b4ab-46943fcdbbe0","ios":"levelo://app?vid=a6e47676-9a97-4574-b4ab-46943fcdbbe0"},"vehicle_type_id":"4","last_reported":1739941779,"current_range_meters":9200,"station_id":"ce4bhl12rcd13ifvqgf0","pricing_plan_id":"cebpf4jnsgd1na2vs0mg"},{"bike_id":"3f5c0cbe-76cb-46f9-8009-cb568b808f59","system_id":"levelo_inurba_marseille","lat":43.29127,"lon":5.40764,"is_reserved":false,"is_disabled":false,"rental_uris":{"android":"levelo://app?vid=3f5c0cbe-76cb-46f9-8009-cb568b808f59","ios":"levelo://app?vid=3f5c0cbe-76cb-46f9-8009-cb568b808f59"},"vehicle_type_id":"4","last_reported":1739941779,"current_range_meters":9600,"station_id":"","pricing_plan_id":"cebpf4jnsgd1na2vs0mg"},{"bike_id":"91bf3218-0a05-4226-acc9-b3131b7d5a8d","system_id":"levelo_inurba_marseille","lat":43.23944,"lon":5.36648,"is_reserved":false,"is_disabled":false,"rental_uris":{"android":"levelo://app?vid=91bf3218-0a05-4226-acc9-b3131b7d5a8d","ios":"levelo://app?vid=91bf3218-0a05-4226-acc9-b3131b7d5a8d"},"vehicle_type_id":"4","last_reported":1739941779,"current_range_meters":9600,"station_id":"ce4bhi12rcd13ifvqfp0","pricing_plan_id":"cebpf4jnsgd1na2vs0mg"},{"bike_id":"f6ba40c5-f255-4f0d-8f57-d368a3f1328d","system_id":"levelo_inurba_marseille","lat":43.28103,"lon":5.37838,"is_reserved":false,"is_disabled":false,"rental_uris":{"android":"levelo://app?vid=f6ba40c5-f255-4f0d-8f57-d368a3f1328d","ios":"levelo://app?vid=f6ba40c5-f255-4f0d-8f57-d368a3f1328d"},"vehicle_type_id":"4","last_reported":1739941779,"current_range_meters":9600,"station_id":"ce4bha12rcd13ifvqee0","pricing_plan_id":"cebpf4jnsgd1na2vs0mg"},{"bike_id":"3ac3cf5d-8e3e-4622-93c8-6032841e73c4","system_id":"levelo_inurba_marseille","lat":43.28616,"lon":5.35098,"is_reserved":false,"is_disabled":false,"rental_uris":{"android":"levelo://app?vid=3ac3cf5d-8e3e-4622-93c8-6032841e73c4","ios":"levelo://app?vid=3ac3cf5d-8e3e-4622-93c8-6032841e73c4"},"vehicle_type_id":"4","last_reported":1739941779,"current_range_meters":9600,"station_id":"ce4bhch2rcd13ifvqeug","pricing_plan_id":"cebpf4jnsgd1na2vs0mg"},{"bike_id":"9b03b96d-2041-4d92-a949-290d7b50f943","system_id":"levelo_inurba_marseille","lat":43.27174,"lon":5.40986,"is_reserved":false,"is_disabled":false,"rental_uris":{"android":"levelo://app?vid=9b03b96d-2041-4d92-a949-290d7b50f943","ios":"levelo://app?vid=9b03b96d-2041-4d92-a949-290d7b50f943"},"vehicle_type_id":"4","last_reported":1739941779,"current_range_meters":9600,"station_id":"","pricing_plan_id":"cebpf4jnsgd1na2vs0mg"},{"bike_id":"18368891-0c3a-4202-aa26-0c46fc585663","system_id":"levelo_inurba_marseille","lat":43.23963,"lon":5.3664,"is_reserved":false,"is_disabled":false,"rental_uris":{"android":"levelo://app?vid=18368891-0c3a-4202-aa26-0c46fc585663","ios":"levelo://app?vid=18368891-0c3a-4202-aa26-0c46fc585663"},"vehicle_type_id":"4","last_reported":1739941779,"current_range_meters":9600,"station_id":"ce4bhi12rcd13ifvqfp0","pricing_plan_id":"cebpf4jnsgd1na2vs0mg"},{"bike_id":"46ea923b-1a59-495a-a45f-bcf3c15a4145","system_id":"levelo_inurba_marseille","lat":43.31712,"lon":5.37709,"is_reserved":false,"is_disabled":false,"rental_uris":{"android":"levelo://app?vid=46ea923b-1a59-495a-a45f-bcf3c15a4145","ios":"levelo://app?vid=46ea923b-1a59-495a-a45f-bcf3c15a4145"},"vehicle_type_id":"4","last_reported":1739941779,"current_range_meters":9600,"station_id":"ce4bgth2rcd13ifvqch0","pricing_plan_id":"cebpf4jnsgd1na2vs0mg"},{"bike_id":"4089f1a0-cd12-42d3-a6c3-01d445970a86","system_id":"levelo_inurba_marseille","lat":43.31289,"lon":5.37422,"is_reserved":false,"is_disabled":false,"rental_uris":{"android":"levelo://app?vid=4089f1a0-cd12-42d3-a6c3-01d445970a86","ios":"levelo://app?vid=4089f1a0-cd12-42d3-a6c3-01d445970a86"},"vehicle_type_id":"4","last_reported":1739941779,"current_range_meters":9600,"station_id":"","pricing_plan_id":"cebpf4jnsgd1na2vs0mg"},{"bike_id":"98a35eaa-0306-447b-8dd2-b17593015cfb","system_id":"levelo_inurba_marseille","lat":43.27495,"lon":5.41617,"is_reserved":false,"is_disabled":false,"rental_uris":{"android":"levelo://app?vid=98a35eaa-0306-447b-8dd2-b17593015cfb","ios":"levelo://app?vid=98a35eaa-0306-447b-8dd2-b17593015cfb"},"vehicle_type_id":"4","last_reported":1739941779,"current_range_meters":9600,"station_id":"","pricing_plan_id":"cebpf4jnsgd1na2vs0mg"},{"bike_id":"f2bd0e80-1a1c-4c5e-8abe-44eea6773c13","system_id":"levelo_inurba_marseille","lat":43.31276,"lon":5.40148,"is_reserved":false,"is_disabled":false,"rental_uris":{"android":"levelo://app?vid=f2bd0e80-1a1c-4c5e-8abe-44eea6773c13","ios":"levelo://app?vid=f2bd0e80-1a1c-4c5e-8abe-44eea6773c13"},"vehicle_type_id":"4","last_reported":1739941779,"current_range_meters":9600,"station_id":"ce4bh092rcd13ifvqd30","pricing_plan_id":"cebpf4jnsgd1na2vs0mg"},{"bike_id":"fc9896ce-1f52-403c-86a7-1678079c9523","system_id":"levelo_inurba_marseille","lat":43.28353,"lon":5.4428,"is_reserved":false,"is_disabled":false,"rental_uris":{"android":"levelo://app?vid=fc9896ce-1f52-403c-86a7-1678079c9523","ios":"levelo://app?vid=fc9896ce-1f52-403c-86a7-1678079c9523"},"vehicle_type_id":"4","last_reported":1739941779,"current_range_meters":9600,"station_id":"","pricing_plan_id":"cebpf4jnsgd1na2vs0mg"},{"bike_id":"10c134e7-7862-45ed-8103-0b6221fb4b66","system_id":"levelo_inurba_marseille","lat":43.25008,"lon":5.38914,"is_reserved":false,"is_disabled":false,"rental_uris":{"android":"levelo://app?vid=10c134e7-7862-45ed-8103-0b6221fb4b66","ios":"levelo://app?vid=10c134e7-7862-45ed-8103-0b6221fb4b66"},"vehicle_type_id":"4","last_reported":1739941779,"current_range_meters":10000,"station_id":"ce4bhgp2rcd13ifvqfd0","pricing_plan_id":"cebpf4jnsgd1na2vs0mg"},{"bike_id":"4bf40669-9c35-43f4-8817-8a07f6463fda","system_id":"levelo_inurba_marseille","lat":43.308857,"lon":5.371928,"is_reserved":false,"is_disabled":false,"rental_uris":{"android":"levelo://app?vid=4bf40669-9c35-43f4-8817-8a07f6463fda","ios":"levelo://app?vid=4bf40669-9c35-43f4-8817-8a07f6463fda"},"vehicle_type_id":"4","last_reported":1739941779,"current_range_meters":10000,"station_id":"","pricing_plan_id":"cebpf4jnsgd1na2vs0mg"},{"bike_id":"60d314df-a667-495a-a59f-db49b86bae5a","system_id":"levelo_inurba_marseille","lat":43.30098,"lon":5.39068,"is_reserved":false,"is_disabled":false,"rental_uris":{"android":"levelo://app?vid=60d314df-a667-495a-a59f-db49b86bae5a","ios":"levelo://app?vid=60d314df-a667-495a-a59f-db49b86bae5a"},"vehicle_type_id":"4","last_reported":1739941779,"current_range_meters":10000,"station_id":"ce4bh192rcd13ifvqdb0","pricing_plan_id":"cebpf4jnsgd1na2vs0mg"},{"bike_id":"03746526-254a-4087-980a-633e87b0db20","system_id":"levelo_inurba_marseille","lat":43.31702,"lon":5.37766,"is_reserved":false,"is_disabled":false,"rental_uris":{"android":"levelo://app?vid=03746526-254a-4087-980a-633e87b0db20","ios":"levelo://app?vid=03746526-254a-4087-980a-633e87b0db20"},"vehicle_type_id":"4","last_reported":1739941779,"current_range_meters":10000,"station_id":"ce4bgth2rcd13ifvqch0","pricing_plan_id":"cebpf4jnsgd1na2vs0mg"},{"bike_id":"07996083-2bb1-4f25-82e7-e63d97f95135","system_id":"levelo_inurba_marseille","lat":43.24796,"lon":5.37434,"is_reserved":false,"is_disabled":false,"rental_uris":{"android":"levelo://app?vid=07996083-2bb1-4f25-82e7-e63d97f95135","ios":"levelo://app?vid=07996083-2bb1-4f25-82e7-e63d97f95135"},"vehicle_type_id":"4","last_reported":1739941779,"current_range_meters":10000,"station_id":"ce4bhgh2rcd13ifvqfb0","pricing_plan_id":"cebpf4jnsgd1na2vs0mg"},{"bike_id":"9198c6ef-bd5b-45d9-bd7b-e058d791d44b","system_id":"levelo_inurba_marseille","lat":43.24812,"lon":5.37463,"is_reserved":false,"is_disabled":false,"rental_uris":{"android":"levelo://app?vid=9198c6ef-bd5b-45d9-bd7b-e058d791d44b","ios":"levelo://app?vid=9198c6ef-bd5b-45d9-bd7b-e058d791d44b"},"vehicle_type_id":"4","last_reported":1739941779,"current_range_meters":10000,"station_id":"ce4bhgh2rcd13ifvqfb0","pricing_plan_id":"cebpf4jnsgd1na2vs0mg"},{"bike_id":"61720f3d-1d71-49ef-b9a4-fce581bbdd3c","system_id":"levelo_inurba_marseille","lat":43.24083,"lon":5.37744,"is_reserved":false,"is_disabled":false,"rental_uris":{"android":"levelo://app?vid=61720f3d-1d71-49ef-b9a4-fce581bbdd3c","ios":"levelo://app?vid=61720f3d-1d71-49ef-b9a4-fce581bbdd3c"},"vehicle_type_id":"4","last_reported":1739941779,"current_range_meters":10000,"station_id":"ce4bhnp2rcd13ifvqgvg","pricing_plan_id":"cebpf4jnsgd1na2vs0mg"},{"bike_id":"530e1f32-df4c-4fa6-a604-a93fa1550392","system_id":"levelo_inurba_marseille","lat":43.29692,"lon":5.37951,"is_reserved":false,"is_disabled":false,"rental_uris":{"android":"levelo://app?vid=530e1f32-df4c-4fa6-a604-a93fa1550392","ios":"levelo://app?vid=530e1f32-df4c-4fa6-a604-a93fa1550392"},"vehicle_type_id":"4","last_reported":1739941779,"current_range_meters":10000,"station_id":"","pricing_plan_id":"cebpf4jnsgd1na2vs0mg"},{"bike_id":"442eb9a9-6af9-47d6-ba34-e89e9722b0f2","system_id":"levelo_inurba_marseille","lat":43.27481,"lon":5.42473,"is_reserved":false,"is_disabled":false,"rental_uris":{"android":"levelo://app?vid=442eb9a9-6af9-47d6-ba34-e89e9722b0f2","ios":"levelo://app?vid=442eb9a9-6af9-47d6-ba34-e89e9722b0f2"},"vehicle_type_id":"4","last_reported":1739941779,"current_range_meters":10800,"station_id":"ce4bhmh2rcd13ifvqgmg","pricing_plan_id":"cebpf4jnsgd1na2vs0mg"},{"bike_id":"7beb0637-fdc1-4315-9de7-143b2e5fe258","system_id":"levelo_inurba_marseille","lat":43.28453,"lon":5.359,"is_reserved":false,"is_disabled":false,"rental_uris":{"android":"levelo://app?vid=7beb0637-fdc1-4315-9de7-143b2e5fe258","ios":"levelo://app?vid=7beb0637-fdc1-4315-9de7-143b2e5fe258"},"vehicle_type_id":"4","last_reported":1739941779,"current_range_meters":10800,"station_id":"ce4bhah2rcd13ifvqei0","pricing_plan_id":"cebpf4jnsgd1na2vs0mg"},{"bike_id":"ee5ed675-bb03-4728-ab31-548b0122803c","system_id":"levelo_inurba_marseille","lat":43.28697,"lon":5.37384,"is_reserved":false,"is_disabled":false,"rental_uris":{"android":"levelo://app?vid=ee5ed675-bb03-4728-ab31-548b0122803c","ios":"levelo://app?vid=ee5ed675-bb03-4728-ab31-548b0122803c"},"vehicle_type_id":"4","last_reported":1739941779,"current_range_meters":10800,"station_id":"ce4bh3p2rcd13ifvqdq0","pricing_plan_id":"cebpf4jnsgd1na2vs0mg"},{"bike_id":"0a8363c2-c532-4113-bcba-bc3e4ed3d949","system_id":"levelo_inurba_marseille","lat":43.31175,"lon":5.38723,"is_reserved":false,"is_disabled":false,"rental_uris":{"android":"levelo://app?vid=0a8363c2-c532-4113-bcba-bc3e4ed3d949","ios":"levelo://app?vid=0a8363c2-c532-4113-bcba-bc3e4ed3d949"},"vehicle_type_id":"4","last_reported":1739941779,"current_range_meters":10800,"station_id":"ce4bgv12rcd13ifvqcp0","pricing_plan_id":"cebpf4jnsgd1na2vs0mg"},{"bike_id":"85e87220-f6a3-46be-8172-f6efecf3643e","system_id":"levelo_inurba_marseille","lat":43.28159,"lon":5.42643,"is_reserved":false,"is_disabled":false,"rental_uris":{"android":"levelo://app?vid=85e87220-f6a3-46be-8172-f6efecf3643e","ios":"levelo://app?vid=85e87220-f6a3-46be-8172-f6efecf3643e"},"vehicle_type_id":"4","last_reported":1739941779,"current_range_meters":10800,"station_id":"","pricing_plan_id":"cebpf4jnsgd1na2vs0mg"},{"bike_id":"0e43aaf2-5553-4ce4-8a5f-0e2f15c2357c","system_id":"levelo_inurba_marseille","lat":43.25012,"lon":5.38898,"is_reserved":false,"is_disabled":false,"rental_uris":{"android":"levelo://app?vid=0e43aaf2-5553-4ce4-8a5f-0e2f15c2357c","ios":"levelo://app?vid=0e43aaf2-5553-4ce4-8a5f-0e2f15c2357c"},"vehicle_type_id":"4","last_reported":1739941779,"current_range_meters":10800,"station_id":"ce4bhgp2rcd13ifvqfd0","pricing_plan_id":"cebpf4jnsgd1na2vs0mg"},{"bike_id":"1c7cc57d-72b8-4e06-99e1-774b2b47b295","system_id":"levelo_inurba_marseille","lat":43.28719,"lon":5.36085,"is_reserved":false,"is_disabled":false,"rental_uris":{"android":"levelo://app?vid=1c7cc57d-72b8-4e06-99e1-774b2b47b295","ios":"levelo://app?vid=1c7cc57d-72b8-4e06-99e1-774b2b47b295"},"vehicle_type_id":"4","last_reported":1739941779,"current_range_meters":10800,"station_id":"cki0cbj6b192h4jlfktg","pricing_plan_id":"cebpf4jnsgd1na2vs0mg"},{"bike_id":"264a9f87-e4f2-41a1-86bf-66ff4c1b6aa7","system_id":"levelo_inurba_marseille","lat":43.309336,"lon":5.368689,"is_reserved":false,"is_disabled":false,"rental_uris":{"android":"levelo://app?vid=264a9f87-e4f2-41a1-86bf-66ff4c1b6aa7","ios":"levelo://app?vid=264a9f87-e4f2-41a1-86bf-66ff4c1b6aa7"},"vehicle_type_id":"4","last_reported":1739941779,"current_range_meters":10800,"station_id":"ce4bgl92rcd13ifvqbq0","pricing_plan_id":"cebpf4jnsgd1na2vs0mg"},{"bike_id":"f0f61fdf-e262-479f-a259-1997ef9b3f40","system_id":"levelo_inurba_marseille","lat":43.28142,"lon":5.42663,"is_reserved":false,"is_disabled":false,"rental_uris":{"android":"levelo://app?vid=f0f61fdf-e262-479f-a259-1997ef9b3f40","ios":"levelo://app?vid=f0f61fdf-e262-479f-a259-1997ef9b3f40"},"vehicle_type_id":"4","last_reported":1739941779,"current_range_meters":10800,"station_id":"","pricing_plan_id":"cebpf4jnsgd1na2vs0mg"},{"bike_id":"ebd42a07-3c1a-4797-9229-007447e5f2f5","system_id":"levelo_inurba_marseille","lat":43.28655,"lon":5.36343,"is_reserved":false,"is_disabled":false,"rental_uris":{"android":"levelo://app?vid=ebd42a07-3c1a-4797-9229-007447e5f2f5","ios":"levelo://app?vid=ebd42a07-3c1a-4797-9229-007447e5f2f5"},"vehicle_type_id":"4","last_reported":1739941779,"current_range_meters":10800,"station_id":"ce4bhah2rcd13ifvqej0","pricing_plan_id":"cebpf4jnsgd1na2vs0mg"},{"bike_id":"d1a9ac06-7a3e-4142-9594-6b8ebc8d62a2","system_id":"levelo_inurba_marseille","lat":43.31107,"lon":5.37763,"is_reserved":false,"is_disabled":false,"rental_uris":{"android":"levelo://app?vid=d1a9ac06-7a3e-4142-9594-6b8ebc8d62a2","ios":"levelo://app?vid=d1a9ac06-7a3e-4142-9594-6b8ebc8d62a2"},"vehicle_type_id":"4","last_reported":1739941779,"current_range_meters":10800,"station_id":"ce4bgup2rcd13ifvqcn0","pricing_plan_id":"cebpf4jnsgd1na2vs0mg"},{"bike_id":"bbcf7ebb-68ab-4f36-a552-8969256f25aa","system_id":"levelo_inurba_marseille","lat":43.26565,"lon":5.3905,"is_reserved":false,"is_disabled":false,"rental_uris":{"android":"levelo://app?vid=bbcf7ebb-68ab-4f36-a552-8969256f25aa","ios":"levelo://app?vid=bbcf7ebb-68ab-4f36-a552-8969256f25aa"},"vehicle_type_id":"4","last_reported":1739941779,"current_range_meters":11200,"station_id":"ce4bhe12rcd13ifvqf30","pricing_plan_id":"cebpf4jnsgd1na2vs0mg"},{"bike_id":"cf26339c-5b63-450c-ad04-209feed7638a","system_id":"levelo_inurba_marseille","lat":43.2843,"lon":5.39181,"is_reserved":false,"is_disabled":false,"rental_uris":{"android":"levelo://app?vid=cf26339c-5b63-450c-ad04-209feed7638a","ios":"levelo://app?vid=cf26339c-5b63-450c-ad04-209feed7638a"},"vehicle_type_id":"4","last_reported":1739941779,"current_range_meters":11200,"station_id":"","pricing_plan_id":"cebpf4jnsgd1na2vs0mg"},{"bike_id":"db7f2d58-492d-4297-aa78-ce0ad99a0a74","system_id":"levelo_inurba_marseille","lat":43.27436,"lon":5.41041,"is_reserved":false,"is_disabled":false,"rental_uris":{"android":"levelo://app?vid=db7f2d58-492d-4297-aa78-ce0ad99a0a74","ios":"levelo://app?vid=db7f2d58-492d-4297-aa78-ce0ad99a0a74"},"vehicle_type_id":"4","last_reported":1739941779,"current_range_meters":11200,"station_id":"ce4bhb92rcd13ifvqen0","pricing_plan_id":"cebpf4jnsgd1na2vs0mg"},{"bike_id":"4aafbb8b-68ec-4703-af07-4a7deefd238a","system_id":"levelo_inurba_marseille","lat":43.29929,"lon":5.36528,"is_reserved":false,"is_disabled":false,"rental_uris":{"android":"levelo://app?vid=4aafbb8b-68ec-4703-af07-4a7deefd238a","ios":"levelo://app?vid=4aafbb8b-68ec-4703-af07-4a7deefd238a"},"vehicle_type_id":"4","last_reported":1739941779,"current_range_meters":11200,"station_id":"ce4bgm92rcd13ifvqbr0","pricing_plan_id":"cebpf4jnsgd1na2vs0mg"},{"bike_id":"b47e513e-a6c3-4256-a8aa-b75f37a1c5b3","system_id":"levelo_inurba_marseille","lat":43.26564,"lon":5.39004,"is_reserved":false,"is_disabled":false,"rental_uris":{"android":"levelo://app?vid=b47e513e-a6c3-4256-a8aa-b75f37a1c5b3","ios":"levelo://app?vid=b47e513e-a6c3-4256-a8aa-b75f37a1c5b3"},"vehicle_type_id":"4","last_reported":1739941779,"current_range_meters":11200,"station_id":"ce4bhe12rcd13ifvqf30","pricing_plan_id":"cebpf4jnsgd1na2vs0mg"},{"bike_id":"ea1519e7-b5fe-42ac-aa41-a04f66c121d4","system_id":"levelo_inurba_marseille","lat":43.24083,"lon":5.3774,"is_reserved":false,"is_disabled":false,"rental_uris":{"android":"levelo://app?vid=ea1519e7-b5fe-42ac-aa41-a04f66c121d4","ios":"levelo://app?vid=ea1519e7-b5fe-42ac-aa41-a04f66c121d4"},"vehicle_type_id":"4","last_reported":1739941779,"current_range_meters":11200,"station_id":"ce4bhnp2rcd13ifvqgvg","pricing_plan_id":"cebpf4jnsgd1na2vs0mg"},{"bike_id":"6b61a15f-d255-41a0-8166-7f2b93e7d846","system_id":"levelo_inurba_marseille","lat":43.23972,"lon":5.3663,"is_reserved":false,"is_disabled":false,"rental_uris":{"android":"levelo://app?vid=6b61a15f-d255-41a0-8166-7f2b93e7d846","ios":"levelo://app?vid=6b61a15f-d255-41a0-8166-7f2b93e7d846"},"vehicle_type_id":"4","last_reported":1739941779,"current_range_meters":11200,"station_id":"ce4bhi12rcd13ifvqfp0","pricing_plan_id":"cebpf4jnsgd1na2vs0mg"},{"bike_id":"2dd047c3-b127-473c-9df4-461ec9e68000","system_id":"levelo_inurba_marseille","lat":43.3189,"lon":5.40738,"is_reserved":false,"is_disabled":false,"rental_uris":{"android":"levelo://app?vid=2dd047c3-b127-473c-9df4-461ec9e68000","ios":"levelo://app?vid=2dd047c3-b127-473c-9df4-461ec9e68000"},"vehicle_type_id":"4","last_reported":1739941779,"current_range_meters":11600,"station_id":"ce4bhq12rcd13ifvqhig","pricing_plan_id":"cebpf4jnsgd1na2vs0mg"},{"bike_id":"f027fe38-3f5d-42fa-b16a-68ca60104c09","system_id":"levelo_inurba_marseille","lat":43.24168,"lon":5.36413,"is_reserved":false,"is_disabled":false,"rental_uris":{"android":"levelo://app?vid=f027fe38-3f5d-42fa-b16a-68ca60104c09","ios":"levelo://app?vid=f027fe38-3f5d-42fa-b16a-68ca60104c09"},"vehicle_type_id":"4","last_reported":1739941779,"current_range_meters":12000,"station_id":"","pricing_plan_id":"cebpf4jnsgd1na2vs0mg"},{"bike_id":"c6b4c1d4-7170-42e8-a495-57f7e8da8511","system_id":"levelo_inurba_marseille","lat":43.24622,"lon":5.389,"is_reserved":false,"is_disabled":false,"rental_uris":{"android":"levelo://app?vid=c6b4c1d4-7170-42e8-a495-57f7e8da8511","ios":"levelo://app?vid=c6b4c1d4-7170-42e8-a495-57f7e8da8511"},"vehicle_type_id":"4","last_reported":1739941779,"current_range_meters":12000,"station_id":"ce4bhg12rcd13ifvqf60","pricing_plan_id":"cebpf4jnsgd1na2vs0mg"},{"bike_id":"e62b11a9-e863-4e0b-86fd-5b1e10318f00","system_id":"levelo_inurba_marseille","lat":43.30897,"lon":5.39644,"is_reserved":false,"is_disabled":false,"rental_uris":{"android":"levelo://app?vid=e62b11a9-e863-4e0b-86fd-5b1e10318f00","ios":"levelo://app?vid=e62b11a9-e863-4e0b-86fd-5b1e10318f00"},"vehicle_type_id":"4","last_reported":1739941779,"current_range_meters":12000,"station_id":"ce4bh012rcd13ifvqcv0","pricing_plan_id":"cebpf4jnsgd1na2vs0mg"},{"bike_id":"cb8372d6-bad2-4555-89ad-5b495afb0b59","system_id":"levelo_inurba_marseille","lat":43.24822,"lon":5.37455,"is_reserved":false,"is_disabled":false,"rental_uris":{"android":"levelo://app?vid=cb8372d6-bad2-4555-89ad-5b495afb0b59","ios":"levelo://app?vid=cb8372d6-bad2-4555-89ad-5b495afb0b59"},"vehicle_type_id":"4","last_reported":1739941779,"current_range_meters":12400,"station_id":"ce4bhgh2rcd13ifvqfb0","pricing_plan_id":"cebpf4jnsgd1na2vs0mg"},{"bike_id":"98b1401a-7342-47bc-852f-3b0a705035c6","system_id":"levelo_inurba_marseille","lat":43.23963,"lon":5.36633,"is_reserved":false,"is_disabled":false,"rental_uris":{"android":"levelo://app?vid=98b1401a-7342-47bc-852f-3b0a705035c6","ios":"levelo://app?vid=98b1401a-7342-47bc-852f-3b0a705035c6"},"vehicle_type_id":"4","last_reported":1739941779,"current_range_meters":12400,"station_id":"ce4bhi12rcd13ifvqfp0","pricing_plan_id":"cebpf4jnsgd1na2vs0mg"},{"bike_id":"f1a95f5a-fd76-4879-a2fc-c5cb1ca5ed50","system_id":"levelo_inurba_marseille","lat":43.31061,"lon":5.38338,"is_reserved":false,"is_disabled":false,"rental_uris":{"android":"levelo://app?vid=f1a95f5a-fd76-4879-a2fc-c5cb1ca5ed50","ios":"levelo://app?vid=f1a95f5a-fd76-4879-a2fc-c5cb1ca5ed50"},"vehicle_type_id":"4","last_reported":1739941779,"current_range_meters":12400,"station_id":"","pricing_plan_id":"cebpf4jnsgd1na2vs0mg"},{"bike_id":"89b7354b-223a-4feb-969d-8fbb5a2161f1","system_id":"levelo_inurba_marseille","lat":43.28087,"lon":5.37909,"is_reserved":false,"is_disabled":false,"rental_uris":{"android":"levelo://app?vid=89b7354b-223a-4feb-969d-8fbb5a2161f1","ios":"levelo://app?vid=89b7354b-223a-4feb-969d-8fbb5a2161f1"},"vehicle_type_id":"4","last_reported":1739941779,"current_range_meters":12400,"station_id":"","pricing_plan_id":"cebpf4jnsgd1na2vs0mg"},{"bike_id":"52c0eccd-e88a-487e-930c-93b00f932fec","system_id":"levelo_inurba_marseille","lat":43.24154,"lon":5.39704,"is_reserved":false,"is_disabled":false,"rental_uris":{"android":"levelo://app?vid=52c0eccd-e88a-487e-930c-93b00f932fec","ios":"levelo://app?vid=52c0eccd-e88a-487e-930c-93b00f932fec"},"vehicle_type_id":"4","last_reported":1739941779,"current_range_meters":12800,"station_id":"ce4bhn12rcd13ifvqgpg","pricing_plan_id":"cebpf4jnsgd1na2vs0mg"},{"bike_id":"63c4cf47-dbff-4d5e-a88a-080b99df99de","system_id":"levelo_inurba_marseille","lat":43.29515,"lon":5.38897,"is_reserved":false,"is_disabled":true,"rental_uris":{"android":"levelo://app?vid=63c4cf47-dbff-4d5e-a88a-080b99df99de","ios":"levelo://app?vid=63c4cf47-dbff-4d5e-a88a-080b99df99de"},"vehicle_type_id":"4","last_reported":1739941779,"current_range_meters":12800,"station_id":"","pricing_plan_id":"cebpf4jnsgd1na2vs0mg"},{"bike_id":"535d7fac-12a8-4f6d-a10d-9394da7cb2c3","system_id":"levelo_inurba_marseille","lat":43.27501,"lon":5.41629,"is_reserved":false,"is_disabled":false,"rental_uris":{"android":"levelo://app?vid=535d7fac-12a8-4f6d-a10d-9394da7cb2c3","ios":"levelo://app?vid=535d7fac-12a8-4f6d-a10d-9394da7cb2c3"},"vehicle_type_id":"4","last_reported":1739941779,"current_range_meters":12800,"station_id":"","pricing_plan_id":"cebpf4jnsgd1na2vs0mg"},{"bike_id":"d1dec037-ee4c-4db9-a655-1087d8ee1f4f","system_id":"levelo_inurba_marseille","lat":43.28444,"lon":5.39175,"is_reserved":false,"is_disabled":true,"rental_uris":{"android":"levelo://app?vid=d1dec037-ee4c-4db9-a655-1087d8ee1f4f","ios":"levelo://app?vid=d1dec037-ee4c-4db9-a655-1087d8ee1f4f"},"vehicle_type_id":"4","last_reported":1739941779,"current_range_meters":12800,"station_id":"","pricing_plan_id":"cebpf4jnsgd1na2vs0mg"},{"bike_id":"4b24adb7-9454-4244-8b6a-eba6dbe9d5f9","system_id":"levelo_inurba_marseille","lat":43.30405,"lon":5.41284,"is_reserved":false,"is_disabled":false,"rental_uris":{"android":"levelo://app?vid=4b24adb7-9454-4244-8b6a-eba6dbe9d5f9","ios":"levelo://app?vid=4b24adb7-9454-4244-8b6a-eba6dbe9d5f9"},"vehicle_type_id":"4","last_reported":1739941779,"current_range_meters":12800,"station_id":"ce4bhop2rcd13ifvqh8g","pricing_plan_id":"cebpf4jnsgd1na2vs0mg"},{"bike_id":"2f0159d6-67d6-4164-bb19-cb2ab133b4ae","system_id":"levelo_inurba_marseille","lat":43.23958,"lon":5.36635,"is_reserved":false,"is_disabled":false,"rental_uris":{"android":"levelo://app?vid=2f0159d6-67d6-4164-bb19-cb2ab133b4ae","ios":"levelo://app?vid=2f0159d6-67d6-4164-bb19-cb2ab133b4ae"},"vehicle_type_id":"4","last_reported":1739941779,"current_range_meters":12800,"station_id":"","pricing_plan_id":"cebpf4jnsgd1na2vs0mg"},{"bike_id":"6c335b3b-f93c-450a-8403-36cd529bb099","system_id":"levelo_inurba_marseille","lat":43.29597,"lon":5.38073,"is_reserved":false,"is_disabled":false,"rental_uris":{"android":"levelo://app?vid=6c335b3b-f93c-450a-8403-36cd529bb099","ios":"levelo://app?vid=6c335b3b-f93c-450a-8403-36cd529bb099"},"vehicle_type_id":"4","last_reported":1739941779,"current_range_meters":13600,"station_id":"","pricing_plan_id":"cebpf4jnsgd1na2vs0mg"},{"bike_id":"150693b5-e9e5-40db-94aa-ad3bd62b6aa6","system_id":"levelo_inurba_marseille","lat":43.28698,"lon":5.37378,"is_reserved":false,"is_disabled":false,"rental_uris":{"android":"levelo://app?vid=150693b5-e9e5-40db-94aa-ad3bd62b6aa6","ios":"levelo://app?vid=150693b5-e9e5-40db-94aa-ad3bd62b6aa6"},"vehicle_type_id":"4","last_reported":1739941779,"current_range_meters":13600,"station_id":"ce4bh3p2rcd13ifvqdq0","pricing_plan_id":"cebpf4jnsgd1na2vs0mg"},{"bike_id":"1d63a175-89ef-49ff-9ead-dfe9ed6c22cf","system_id":"levelo_inurba_marseille","lat":43.24693,"lon":5.39437,"is_reserved":false,"is_disabled":false,"rental_uris":{"android":"levelo://app?vid=1d63a175-89ef-49ff-9ead-dfe9ed6c22cf","ios":"levelo://app?vid=1d63a175-89ef-49ff-9ead-dfe9ed6c22cf"},"vehicle_type_id":"4","last_reported":1739941779,"current_range_meters":13600,"station_id":"","pricing_plan_id":"cebpf4jnsgd1na2vs0mg"},{"bike_id":"91b1687b-1d68-4f0a-919a-c8ba715a3f0f","system_id":"levelo_inurba_marseille","lat":43.25127,"lon":5.40309,"is_reserved":false,"is_disabled":false,"rental_uris":{"android":"levelo://app?vid=91b1687b-1d68-4f0a-919a-c8ba715a3f0f","ios":"levelo://app?vid=91b1687b-1d68-4f0a-919a-c8ba715a3f0f"},"vehicle_type_id":"4","last_reported":1739941779,"current_range_meters":13600,"station_id":"ce4bhlh2rcd13ifvqgig","pricing_plan_id":"cebpf4jnsgd1na2vs0mg"},{"bike_id":"f7db23b2-4c03-4c27-a486-c3e2483540b0","system_id":"levelo_inurba_marseille","lat":43.28733,"lon":5.36078,"is_reserved":false,"is_disabled":false,"rental_uris":{"android":"levelo://app?vid=f7db23b2-4c03-4c27-a486-c3e2483540b0","ios":"levelo://app?vid=f7db23b2-4c03-4c27-a486-c3e2483540b0"},"vehicle_type_id":"4","last_reported":1739941779,"current_range_meters":13600,"station_id":"cki0cbj6b192h4jlfktg","pricing_plan_id":"cebpf4jnsgd1na2vs0mg"},{"bike_id":"dc00ef06-7692-4993-916b-780fdec954cf","system_id":"levelo_inurba_marseille","lat":43.3022,"lon":5.39459,"is_reserved":false,"is_disabled":false,"rental_uris":{"android":"levelo://app?vid=dc00ef06-7692-4993-916b-780fdec954cf","ios":"levelo://app?vid=dc00ef06-7692-4993-916b-780fdec954cf"},"vehicle_type_id":"4","last_reported":1739941779,"current_range_meters":14000,"station_id":"ce4bh0p2rcd13ifvqd70","pricing_plan_id":"cebpf4jnsgd1na2vs0mg"},{"bike_id":"fd2d5483-4107-4f1a-b1eb-4debf72583a0","system_id":"levelo_inurba_marseille","lat":43.30453,"lon":5.38855,"is_reserved":false,"is_disabled":false,"rental_uris":{"android":"levelo://app?vid=fd2d5483-4107-4f1a-b1eb-4debf72583a0","ios":"levelo://app?vid=fd2d5483-4107-4f1a-b1eb-4debf72583a0"},"vehicle_type_id":"4","last_reported":1739941779,"current_range_meters":14000,"station_id":"ce4bgk12rcd13ifvqbi0","pricing_plan_id":"cebpf4jnsgd1na2vs0mg"},{"bike_id":"397b80cf-cbf3-4f7e-9d00-ad56509053a2","system_id":"levelo_inurba_marseille","lat":43.29177,"lon":5.39759,"is_reserved":false,"is_disabled":false,"rental_uris":{"android":"levelo://app?vid=397b80cf-cbf3-4f7e-9d00-ad56509053a2","ios":"levelo://app?vid=397b80cf-cbf3-4f7e-9d00-ad56509053a2"},"vehicle_type_id":"4","last_reported":1739941779,"current_range_meters":14000,"station_id":"","pricing_plan_id":"cebpf4jnsgd1na2vs0mg"},{"bike_id":"2dbc425f-3bee-4be2-8fa8-cf09e61f1a7f","system_id":"levelo_inurba_marseille","lat":43.30414,"lon":5.4128,"is_reserved":false,"is_disabled":false,"rental_uris":{"android":"levelo://app?vid=2dbc425f-3bee-4be2-8fa8-cf09e61f1a7f","ios":"levelo://app?vid=2dbc425f-3bee-4be2-8fa8-cf09e61f1a7f"},"vehicle_type_id":"4","last_reported":1739941779,"current_range_meters":14000,"station_id":"ce4bhop2rcd13ifvqh8g","pricing_plan_id":"cebpf4jnsgd1na2vs0mg"},{"bike_id":"d2bbc16b-17e1-4745-a415-b4cd89817190","system_id":"levelo_inurba_marseille","lat":43.24644,"lon":5.38917,"is_reserved":false,"is_disabled":false,"rental_uris":{"android":"levelo://app?vid=d2bbc16b-17e1-4745-a415-b4cd89817190","ios":"levelo://app?vid=d2bbc16b-17e1-4745-a415-b4cd89817190"},"vehicle_type_id":"4","last_reported":1739941779,"current_range_meters":14400,"station_id":"ce4bhg12rcd13ifvqf60","pricing_plan_id":"cebpf4jnsgd1na2vs0mg"},{"bike_id":"c9e76473-9005-44c4-8436-f04e84d6b23c","system_id":"levelo_inurba_marseille","lat":43.30423,"lon":5.388872,"is_reserved":false,"is_disabled":false,"rental_uris":{"android":"levelo://app?vid=c9e76473-9005-44c4-8436-f04e84d6b23c","ios":"levelo://app?vid=c9e76473-9005-44c4-8436-f04e84d6b23c"},"vehicle_type_id":"4","last_reported":1739941779,"current_range_meters":14400,"station_id":"ce4bgk12rcd13ifvqbi0","pricing_plan_id":"cebpf4jnsgd1na2vs0mg"},{"bike_id":"a00fb5cd-e0d2-4f96-befb-5275c0df0c87","system_id":"levelo_inurba_marseille","lat":43.27996,"lon":5.41653,"is_reserved":false,"is_disabled":false,"rental_uris":{"android":"levelo://app?vid=a00fb5cd-e0d2-4f96-befb-5275c0df0c87","ios":"levelo://app?vid=a00fb5cd-e0d2-4f96-befb-5275c0df0c87"},"vehicle_type_id":"4","last_reported":1739941779,"current_range_meters":14400,"station_id":"ce4bho12rcd13ifvqh1g","pricing_plan_id":"cebpf4jnsgd1na2vs0mg"},{"bike_id":"59c06e16-2c1f-4444-a3f6-6a7b6c9c893e","system_id":"levelo_inurba_marseille","lat":43.30315,"lon":5.3921,"is_reserved":false,"is_disabled":true,"rental_uris":{"android":"levelo://app?vid=59c06e16-2c1f-4444-a3f6-6a7b6c9c893e","ios":"levelo://app?vid=59c06e16-2c1f-4444-a3f6-6a7b6c9c893e"},"vehicle_type_id":"4","last_reported":1739941779,"current_range_meters":14400,"station_id":"ce4bgkh2rcd13ifvqbk0","pricing_plan_id":"cebpf4jnsgd1na2vs0mg"},{"bike_id":"baf6d894-ad10-49a9-b91a-24f60ad956f7","system_id":"levelo_inurba_marseille","lat":43.29,"lon":5.42611,"is_reserved":false,"is_disabled":false,"rental_uris":{"android":"levelo://app?vid=baf6d894-ad10-49a9-b91a-24f60ad956f7","ios":"levelo://app?vid=baf6d894-ad10-49a9-b91a-24f60ad956f7"},"vehicle_type_id":"4","last_reported":1739941779,"current_range_meters":14400,"station_id":"","pricing_plan_id":"cebpf4jnsgd1na2vs0mg"},{"bike_id":"a8c89a23-99a6-4794-9ee3-4e5c07f642a3","system_id":"levelo_inurba_marseille","lat":43.30204,"lon":5.3946,"is_reserved":false,"is_disabled":false,"rental_uris":{"android":"levelo://app?vid=a8c89a23-99a6-4794-9ee3-4e5c07f642a3","ios":"levelo://app?vid=a8c89a23-99a6-4794-9ee3-4e5c07f642a3"},"vehicle_type_id":"4","last_reported":1739941779,"current_range_meters":14400,"station_id":"","pricing_plan_id":"cebpf4jnsgd1na2vs0mg"},{"bike_id":"47c92581-3495-49b4-8e5b-3bee30320655","system_id":"levelo_inurba_marseille","lat":43.29254,"lon":5.40133,"is_reserved":false,"is_disabled":false,"rental_uris":{"android":"levelo://app?vid=47c92581-3495-49b4-8e5b-3bee30320655","ios":"levelo://app?vid=47c92581-3495-49b4-8e5b-3bee30320655"},"vehicle_type_id":"4","last_reported":1739941779,"current_range_meters":14400,"station_id":"","pricing_plan_id":"cebpf4jnsgd1na2vs0mg"},{"bike_id":"090d254b-7e06-4322-b664-ffb12aca0039","system_id":"levelo_inurba_marseille","lat":43.28419,"lon":5.3497,"is_reserved":false,"is_disabled":false,"rental_uris":{"android":"levelo://app?vid=090d254b-7e06-4322-b664-ffb12aca0039","ios":"levelo://app?vid=090d254b-7e06-4322-b664-ffb12aca0039"},"vehicle_type_id":"4","last_reported":1739941779,"current_range_meters":14800,"station_id":"ce4bhbh2rcd13ifvqepg","pricing_plan_id":"cebpf4jnsgd1na2vs0mg"},{"bike_id":"53e54bd0-8233-4ff8-b25e-794e3b0dd698","system_id":"levelo_inurba_marseille","lat":43.27824,"lon":5.39205,"is_reserved":false,"is_disabled":false,"rental_uris":{"android":"levelo://app?vid=53e54bd0-8233-4ff8-b25e-794e3b0dd698","ios":"levelo://app?vid=53e54bd0-8233-4ff8-b25e-794e3b0dd698"},"vehicle_type_id":"4","last_reported":1739941779,"current_range_meters":14800,"station_id":"ce4bhjp2rcd13ifvqga0","pricing_plan_id":"cebpf4jnsgd1na2vs0mg"},{"bike_id":"34d14ec0-9a1d-4d07-8158-52ff5d0c0371","system_id":"levelo_inurba_marseille","lat":43.29421,"lon":5.38043,"is_reserved":false,"is_disabled":false,"rental_uris":{"android":"levelo://app?vid=34d14ec0-9a1d-4d07-8158-52ff5d0c0371","ios":"levelo://app?vid=34d14ec0-9a1d-4d07-8158-52ff5d0c0371"},"vehicle_type_id":"4","last_reported":1739941779,"current_range_meters":14800,"station_id":"","pricing_plan_id":"cebpf4jnsgd1na2vs0mg"},{"bike_id":"c67fb496-8441-458a-af2d-8f07c087bdd0","system_id":"levelo_inurba_marseille","lat":43.24172,"lon":5.36413,"is_reserved":false,"is_disabled":true,"rental_uris":{"android":"levelo://app?vid=c67fb496-8441-458a-af2d-8f07c087bdd0","ios":"levelo://app?vid=c67fb496-8441-458a-af2d-8f07c087bdd0"},"vehicle_type_id":"4","last_reported":1739941779,"current_range_meters":14800,"station_id":"","pricing_plan_id":"cebpf4jnsgd1na2vs0mg"},{"bike_id":"24dd12c1-4d8a-40c0-b521-a98d2d462c41","system_id":"levelo_inurba_marseille","lat":43.24169,"lon":5.364,"is_reserved":false,"is_disabled":false,"rental_uris":{"android":"levelo://app?vid=24dd12c1-4d8a-40c0-b521-a98d2d462c41","ios":"levelo://app?vid=24dd12c1-4d8a-40c0-b521-a98d2d462c41"},"vehicle_type_id":"4","last_reported":1739941779,"current_range_meters":14800,"station_id":"","pricing_plan_id":"cebpf4jnsgd1na2vs0mg"},{"bike_id":"5a53eb6b-200f-4ac0-8efb-be28f6b20f01","system_id":"levelo_inurba_marseille","lat":43.23959,"lon":5.3664,"is_reserved":false,"is_disabled":false,"rental_uris":{"android":"levelo://app?vid=5a53eb6b-200f-4ac0-8efb-be28f6b20f01","ios":"levelo://app?vid=5a53eb6b-200f-4ac0-8efb-be28f6b20f01"},"vehicle_type_id":"4","last_reported":1739941779,"current_range_meters":14800,"station_id":"","pricing_plan_id":"cebpf4jnsgd1na2vs0mg"},{"bike_id":"93682908-43c6-4032-8e45-6984dd069700","system_id":"levelo_inurba_marseille","lat":43.2464,"lon":5.38902,"is_reserved":false,"is_disabled":false,"rental_uris":{"android":"levelo://app?vid=93682908-43c6-4032-8e45-6984dd069700","ios":"levelo://app?vid=93682908-43c6-4032-8e45-6984dd069700"},"vehicle_type_id":"4","last_reported":1739941779,"current_range_meters":14800,"station_id":"ce4bhg12rcd13ifvqf60","pricing_plan_id":"cebpf4jnsgd1na2vs0mg"},{"bike_id":"fc971b16-bef3-4b6d-813c-ffc8ffa48842","system_id":"levelo_inurba_marseille","lat":43.2841,"lon":5.34986,"is_reserved":false,"is_disabled":true,"rental_uris":{"android":"levelo://app?vid=fc971b16-bef3-4b6d-813c-ffc8ffa48842","ios":"levelo://app?vid=fc971b16-bef3-4b6d-813c-ffc8ffa48842"},"vehicle_type_id":"4","last_reported":1739941779,"current_range_meters":14800,"station_id":"","pricing_plan_id":"cebpf4jnsgd1na2vs0mg"},{"bike_id":"47f0921d-aa1d-4b4b-a868-e9e97a59a34c","system_id":"levelo_inurba_marseille","lat":43.2959,"lon":5.38091,"is_reserved":false,"is_disabled":true,"rental_uris":{"android":"levelo://app?vid=47f0921d-aa1d-4b4b-a868-e9e97a59a34c","ios":"levelo://app?vid=47f0921d-aa1d-4b4b-a868-e9e97a59a34c"},"vehicle_type_id":"4","last_reported":1739941779,"current_range_meters":14800,"station_id":"ce4bgl12rcd13ifvqbo0","pricing_plan_id":"cebpf4jnsgd1na2vs0mg"},{"bike_id":"1c43eb49-ea1b-41ce-946d-e5fe349433b9","system_id":"levelo_inurba_marseille","lat":43.27943,"lon":5.4104,"is_reserved":false,"is_disabled":false,"rental_uris":{"android":"levelo://app?vid=1c43eb49-ea1b-41ce-946d-e5fe349433b9","ios":"levelo://app?vid=1c43eb49-ea1b-41ce-946d-e5fe349433b9"},"vehicle_type_id":"4","last_reported":1739941779,"current_range_meters":15200,"station_id":"ce4bhnp2rcd13ifvqh0g","pricing_plan_id":"cebpf4jnsgd1na2vs0mg"},{"bike_id":"5bf48597-a71c-452b-987b-7a4d53313741","system_id":"levelo_inurba_marseille","lat":43.28705,"lon":5.39991,"is_reserved":false,"is_disabled":false,"rental_uris":{"android":"levelo://app?vid=5bf48597-a71c-452b-987b-7a4d53313741","ios":"levelo://app?vid=5bf48597-a71c-452b-987b-7a4d53313741"},"vehicle_type_id":"4","last_reported":1739941779,"current_range_meters":15200,"station_id":"ce4bho92rcd13ifvqh3g","pricing_plan_id":"cebpf4jnsgd1na2vs0mg"},{"bike_id":"3b206c53-d161-476c-ada8-c634428579ca","system_id":"levelo_inurba_marseille","lat":43.27494,"lon":5.42447,"is_reserved":false,"is_disabled":false,"rental_uris":{"android":"levelo://app?vid=3b206c53-d161-476c-ada8-c634428579ca","ios":"levelo://app?vid=3b206c53-d161-476c-ada8-c634428579ca"},"vehicle_type_id":"4","last_reported":1739941779,"current_range_meters":15200,"station_id":"ce4bhn92rcd13ifvqgrg","pricing_plan_id":"cebpf4jnsgd1na2vs0mg"},{"bike_id":"e3422978-e3d1-4168-a7a6-5ae7ec99e03f","system_id":"levelo_inurba_marseille","lat":43.271768,"lon":5.409877,"is_reserved":false,"is_disabled":false,"rental_uris":{"android":"levelo://app?vid=e3422978-e3d1-4168-a7a6-5ae7ec99e03f","ios":"levelo://app?vid=e3422978-e3d1-4168-a7a6-5ae7ec99e03f"},"vehicle_type_id":"4","last_reported":1739941779,"current_range_meters":15200,"station_id":"","pricing_plan_id":"cebpf4jnsgd1na2vs0mg"},{"bike_id":"5d5578c2-a2af-4336-8a20-d08d83d12092","system_id":"levelo_inurba_marseille","lat":43.27827,"lon":5.39214,"is_reserved":false,"is_disabled":false,"rental_uris":{"android":"levelo://app?vid=5d5578c2-a2af-4336-8a20-d08d83d12092","ios":"levelo://app?vid=5d5578c2-a2af-4336-8a20-d08d83d12092"},"vehicle_type_id":"4","last_reported":1739941779,"current_range_meters":15200,"station_id":"ce4bhjp2rcd13ifvqga0","pricing_plan_id":"cebpf4jnsgd1na2vs0mg"},{"bike_id":"8b02c9e0-ece7-49cb-a377-20f8942d546e","system_id":"levelo_inurba_marseille","lat":43.28731,"lon":5.36088,"is_reserved":false,"is_disabled":false,"rental_uris":{"android":"levelo://app?vid=8b02c9e0-ece7-49cb-a377-20f8942d546e","ios":"levelo://app?vid=8b02c9e0-ece7-49cb-a377-20f8942d546e"},"vehicle_type_id":"4","last_reported":1739941779,"current_range_meters":15200,"station_id":"cki0cbj6b192h4jlfktg","pricing_plan_id":"cebpf4jnsgd1na2vs0mg"},{"bike_id":"4d49bd84-cc6f-4c6d-8e67-5363928e98d2","system_id":"levelo_inurba_marseille","lat":43.28941,"lon":5.36632,"is_reserved":false,"is_disabled":false,"rental_uris":{"android":"levelo://app?vid=4d49bd84-cc6f-4c6d-8e67-5363928e98d2","ios":"levelo://app?vid=4d49bd84-cc6f-4c6d-8e67-5363928e98d2"},"vehicle_type_id":"4","last_reported":1739941779,"current_range_meters":15200,"station_id":"ce4bhap2rcd13ifvqek0","pricing_plan_id":"cebpf4jnsgd1na2vs0mg"},{"bike_id":"1e5f00f6-5fb6-454d-965d-0f1a57b392dd","system_id":"levelo_inurba_marseille","lat":43.31176,"lon":5.38693,"is_reserved":false,"is_disabled":false,"rental_uris":{"android":"levelo://app?vid=1e5f00f6-5fb6-454d-965d-0f1a57b392dd","ios":"levelo://app?vid=1e5f00f6-5fb6-454d-965d-0f1a57b392dd"},"vehicle_type_id":"4","last_reported":1739941779,"current_range_meters":15200,"station_id":"ce4bgv12rcd13ifvqcp0","pricing_plan_id":"cebpf4jnsgd1na2vs0mg"},{"bike_id":"b64778c2-2434-4409-b125-e965a1fd469a","system_id":"levelo_inurba_marseille","lat":43.30282,"lon":5.3671,"is_reserved":false,"is_disabled":false,"rental_uris":{"android":"levelo://app?vid=b64778c2-2434-4409-b125-e965a1fd469a","ios":"levelo://app?vid=b64778c2-2434-4409-b125-e965a1fd469a"},"vehicle_type_id":"4","last_reported":1739941779,"current_range_meters":15200,"station_id":"ce4bgs12rcd13ifvqcag","pricing_plan_id":"cebpf4jnsgd1na2vs0mg"},{"bike_id":"5180f318-4948-4085-aaf1-5f3160b57dbe","system_id":"levelo_inurba_marseille","lat":43.27618,"lon":5.36106,"is_reserved":false,"is_disabled":true,"rental_uris":{"android":"levelo://app?vid=5180f318-4948-4085-aaf1-5f3160b57dbe","ios":"levelo://app?vid=5180f318-4948-4085-aaf1-5f3160b57dbe"},"vehicle_type_id":"4","last_reported":1739941779,"current_range_meters":15200,"station_id":"ce4bgj92rcd13ifvqbe0","pricing_plan_id":"cebpf4jnsgd1na2vs0mg"},{"bike_id":"fbf9ca1a-508e-40dc-b3a5-3c72272a275f","system_id":"levelo_inurba_marseille","lat":43.28422,"lon":5.37521,"is_reserved":false,"is_disabled":false,"rental_uris":{"android":"levelo://app?vid=fbf9ca1a-508e-40dc-b3a5-3c72272a275f","ios":"levelo://app?vid=fbf9ca1a-508e-40dc-b3a5-3c72272a275f"},"vehicle_type_id":"4","last_reported":1739941779,"current_range_meters":16000,"station_id":"ce4bh412rcd13ifvqds0","pricing_plan_id":"cebpf4jnsgd1na2vs0mg"},{"bike_id":"659813f7-fc3e-49b2-b743-3ceee2ae3dd9","system_id":"levelo_inurba_marseille","lat":43.23181,"lon":5.39984,"is_reserved":false,"is_disabled":false,"rental_uris":{"android":"levelo://app?vid=659813f7-fc3e-49b2-b743-3ceee2ae3dd9","ios":"levelo://app?vid=659813f7-fc3e-49b2-b743-3ceee2ae3dd9"},"vehicle_type_id":"4","last_reported":1739941779,"current_range_meters":16000,"station_id":"ce4bhn12rcd13ifvqgqg","pricing_plan_id":"cebpf4jnsgd1na2vs0mg"},{"bike_id":"712b3527-737c-4555-bbb2-2952f0c5ba44","system_id":"levelo_inurba_marseille","lat":43.28031,"lon":5.36946,"is_reserved":false,"is_disabled":false,"rental_uris":{"android":"levelo://app?vid=712b3527-737c-4555-bbb2-2952f0c5ba44","ios":"levelo://app?vid=712b3527-737c-4555-bbb2-2952f0c5ba44"},"vehicle_type_id":"4","last_reported":1739941779,"current_range_meters":16000,"station_id":"ce4bha12rcd13ifvqef0","pricing_plan_id":"cebpf4jnsgd1na2vs0mg"},{"bike_id":"9a20bf4a-2838-4260-9d28-debd745460c0","system_id":"levelo_inurba_marseille","lat":43.30866,"lon":5.37797,"is_reserved":false,"is_disabled":false,"rental_uris":{"android":"levelo://app?vid=9a20bf4a-2838-4260-9d28-debd745460c0","ios":"levelo://app?vid=9a20bf4a-2838-4260-9d28-debd745460c0"},"vehicle_type_id":"4","last_reported":1739941779,"current_range_meters":16000,"station_id":"ce4bgv92rcd13ifvqcq0","pricing_plan_id":"cebpf4jnsgd1na2vs0mg"},{"bike_id":"bd14d312-2e14-49ec-8eda-7f9faf5d358b","system_id":"levelo_inurba_marseille","lat":43.32138,"lon":5.36765,"is_reserved":false,"is_disabled":false,"rental_uris":{"android":"levelo://app?vid=bd14d312-2e14-49ec-8eda-7f9faf5d358b","ios":"levelo://app?vid=bd14d312-2e14-49ec-8eda-7f9faf5d358b"},"vehicle_type_id":"4","last_reported":1739941779,"current_range_meters":16000,"station_id":"ce4bhrh2rcd13ifvqhug","pricing_plan_id":"cebpf4jnsgd1na2vs0mg"},{"bike_id":"5b80abf9-df02-44a7-b61b-dd0a85631c27","system_id":"levelo_inurba_marseille","lat":43.23962,"lon":5.36657,"is_reserved":false,"is_disabled":false,"rental_uris":{"android":"levelo://app?vid=5b80abf9-df02-44a7-b61b-dd0a85631c27","ios":"levelo://app?vid=5b80abf9-df02-44a7-b61b-dd0a85631c27"},"vehicle_type_id":"4","last_reported":1739941779,"current_range_meters":16000,"station_id":"","pricing_plan_id":"cebpf4jnsgd1na2vs0mg"},{"bike_id":"b55c6a2a-b46f-46ea-a538-ee515a357de6","system_id":"levelo_inurba_marseille","lat":43.3201,"lon":5.41605,"is_reserved":false,"is_disabled":false,"rental_uris":{"android":"levelo://app?vid=b55c6a2a-b46f-46ea-a538-ee515a357de6","ios":"levelo://app?vid=b55c6a2a-b46f-46ea-a538-ee515a357de6"},"vehicle_type_id":"4","last_reported":1739941779,"current_range_meters":16000,"station_id":"","pricing_plan_id":"cebpf4jnsgd1na2vs0mg"},{"bike_id":"38671219-da3d-4427-a2c9-753695bd2b31","system_id":"levelo_inurba_marseille","lat":43.2706,"lon":5.40273,"is_reserved":false,"is_disabled":false,"rental_uris":{"android":"levelo://app?vid=38671219-da3d-4427-a2c9-753695bd2b31","ios":"levelo://app?vid=38671219-da3d-4427-a2c9-753695bd2b31"},"vehicle_type_id":"4","last_reported":1739941779,"current_range_meters":16000,"station_id":"ce4bhk92rcd13ifvqgc0","pricing_plan_id":"cebpf4jnsgd1na2vs0mg"},{"bike_id":"9935677e-0262-4894-974f-fec1281c49ef","system_id":"levelo_inurba_marseille","lat":43.2953,"lon":5.39405,"is_reserved":false,"is_disabled":false,"rental_uris":{"android":"levelo://app?vid=9935677e-0262-4894-974f-fec1281c49ef","ios":"levelo://app?vid=9935677e-0262-4894-974f-fec1281c49ef"},"vehicle_type_id":"4","last_reported":1739941779,"current_range_meters":16000,"station_id":"ce4bh292rcd13ifvqdf0","pricing_plan_id":"cebpf4jnsgd1na2vs0mg"},{"bike_id":"5f9ede52-c720-4107-a864-980fb2608395","system_id":"levelo_inurba_marseille","lat":43.24084,"lon":5.387,"is_reserved":false,"is_disabled":false,"rental_uris":{"android":"levelo://app?vid=5f9ede52-c720-4107-a864-980fb2608395","ios":"levelo://app?vid=5f9ede52-c720-4107-a864-980fb2608395"},"vehicle_type_id":"4","last_reported":1739941779,"current_range_meters":16400,"station_id":"","pricing_plan_id":"cebpf4jnsgd1na2vs0mg"},{"bike_id":"2f4eb569-8280-4016-a779-4d5468eb12e7","system_id":"levelo_inurba_marseille","lat":43.28268,"lon":5.35066,"is_reserved":false,"is_disabled":false,"rental_uris":{"android":"levelo://app?vid=2f4eb569-8280-4016-a779-4d5468eb12e7","ios":"levelo://app?vid=2f4eb569-8280-4016-a779-4d5468eb12e7"},"vehicle_type_id":"4","last_reported":1739941779,"current_range_meters":16400,"station_id":"ce4bhbp2rcd13ifvqerg","pricing_plan_id":"cebpf4jnsgd1na2vs0mg"},{"bike_id":"5089bb88-a0cd-4434-a1a9-f3d5b67361c6","system_id":"levelo_inurba_marseille","lat":43.24369,"lon":5.38745,"is_reserved":false,"is_disabled":false,"rental_uris":{"android":"levelo://app?vid=5089bb88-a0cd-4434-a1a9-f3d5b67361c6","ios":"levelo://app?vid=5089bb88-a0cd-4434-a1a9-f3d5b67361c6"},"vehicle_type_id":"4","last_reported":1739941779,"current_range_meters":16400,"station_id":"","pricing_plan_id":"cebpf4jnsgd1na2vs0mg"},{"bike_id":"15b0174e-ab3a-4cc4-86ef-34755cf70d1a","system_id":"levelo_inurba_marseille","lat":43.30908,"lon":5.40192,"is_reserved":false,"is_disabled":false,"rental_uris":{"android":"levelo://app?vid=15b0174e-ab3a-4cc4-86ef-34755cf70d1a","ios":"levelo://app?vid=15b0174e-ab3a-4cc4-86ef-34755cf70d1a"},"vehicle_type_id":"4","last_reported":1739941779,"current_range_meters":16400,"station_id":"","pricing_plan_id":"cebpf4jnsgd1na2vs0mg"},{"bike_id":"af8da04b-d58f-4e51-9b15-e88ec8d5ef2f","system_id":"levelo_inurba_marseille","lat":43.28455,"lon":5.35878,"is_reserved":false,"is_disabled":false,"rental_uris":{"android":"levelo://app?vid=af8da04b-d58f-4e51-9b15-e88ec8d5ef2f","ios":"levelo://app?vid=af8da04b-d58f-4e51-9b15-e88ec8d5ef2f"},"vehicle_type_id":"4","last_reported":1739941779,"current_range_meters":16400,"station_id":"ce4bhah2rcd13ifvqei0","pricing_plan_id":"cebpf4jnsgd1na2vs0mg"},{"bike_id":"3d56b598-53b3-4c01-a70b-fdb69d9629dd","system_id":"levelo_inurba_marseille","lat":43.31164,"lon":5.38716,"is_reserved":false,"is_disabled":false,"rental_uris":{"android":"levelo://app?vid=3d56b598-53b3-4c01-a70b-fdb69d9629dd","ios":"levelo://app?vid=3d56b598-53b3-4c01-a70b-fdb69d9629dd"},"vehicle_type_id":"4","last_reported":1739941779,"current_range_meters":16400,"station_id":"ce4bgv12rcd13ifvqcp0","pricing_plan_id":"cebpf4jnsgd1na2vs0mg"},{"bike_id":"33604822-0839-49e5-a64a-3e509bb43553","system_id":"levelo_inurba_marseille","lat":43.28154,"lon":5.42641,"is_reserved":false,"is_disabled":false,"rental_uris":{"android":"levelo://app?vid=33604822-0839-49e5-a64a-3e509bb43553","ios":"levelo://app?vid=33604822-0839-49e5-a64a-3e509bb43553"},"vehicle_type_id":"4","last_reported":1739941779,"current_range_meters":16400,"station_id":"ce4bhnh2rcd13ifvqgug","pricing_plan_id":"cebpf4jnsgd1na2vs0mg"},{"bike_id":"5ecd443d-db34-486a-b6f9-c8e67e540a70","system_id":"levelo_inurba_marseille","lat":43.28616,"lon":5.35119,"is_reserved":false,"is_disabled":false,"rental_uris":{"android":"levelo://app?vid=5ecd443d-db34-486a-b6f9-c8e67e540a70","ios":"levelo://app?vid=5ecd443d-db34-486a-b6f9-c8e67e540a70"},"vehicle_type_id":"4","last_reported":1739941779,"current_range_meters":16400,"station_id":"ce4bhch2rcd13ifvqeug","pricing_plan_id":"cebpf4jnsgd1na2vs0mg"},{"bike_id":"05870f88-3b88-4731-867f-b6f8d5bc8150","system_id":"levelo_inurba_marseille","lat":43.29876,"lon":5.39731,"is_reserved":false,"is_disabled":false,"rental_uris":{"android":"levelo://app?vid=05870f88-3b88-4731-867f-b6f8d5bc8150","ios":"levelo://app?vid=05870f88-3b88-4731-867f-b6f8d5bc8150"},"vehicle_type_id":"4","last_reported":1739941779,"current_range_meters":16400,"station_id":"","pricing_plan_id":"cebpf4jnsgd1na2vs0mg"},{"bike_id":"c835c6b7-91aa-4f5c-95c8-b13cffbebdef","system_id":"levelo_inurba_marseille","lat":43.2716,"lon":5.40994,"is_reserved":false,"is_disabled":false,"rental_uris":{"android":"levelo://app?vid=c835c6b7-91aa-4f5c-95c8-b13cffbebdef","ios":"levelo://app?vid=c835c6b7-91aa-4f5c-95c8-b13cffbebdef"},"vehicle_type_id":"4","last_reported":1739941779,"current_range_meters":16400,"station_id":"","pricing_plan_id":"cebpf4jnsgd1na2vs0mg"},{"bike_id":"0b1a3b32-459a-4ff9-a388-d16482304482","system_id":"levelo_inurba_marseille","lat":43.27991,"lon":5.40007,"is_reserved":false,"is_disabled":true,"rental_uris":{"android":"levelo://app?vid=0b1a3b32-459a-4ff9-a388-d16482304482","ios":"levelo://app?vid=0b1a3b32-459a-4ff9-a388-d16482304482"},"vehicle_type_id":"4","last_reported":1739941779,"current_range_meters":16800,"station_id":"","pricing_plan_id":"cebpf4jnsgd1na2vs0mg"},{"bike_id":"a2ddc700-ae55-4a95-a0e4-f6c8b71bbf75","system_id":"levelo_inurba_marseille","lat":43.26052,"lon":5.3939,"is_reserved":false,"is_disabled":false,"rental_uris":{"android":"levelo://app?vid=a2ddc700-ae55-4a95-a0e4-f6c8b71bbf75","ios":"levelo://app?vid=a2ddc700-ae55-4a95-a0e4-f6c8b71bbf75"},"vehicle_type_id":"4","last_reported":1739941779,"current_range_meters":16800,"station_id":"ce4bhh92rcd13ifvqfj0","pricing_plan_id":"cebpf4jnsgd1na2vs0mg"},{"bike_id":"a0af3547-0f5a-4ee7-a39d-23ed992db956","system_id":"levelo_inurba_marseille","lat":43.23418,"lon":5.40452,"is_reserved":false,"is_disabled":false,"rental_uris":{"android":"levelo://app?vid=a0af3547-0f5a-4ee7-a39d-23ed992db956","ios":"levelo://app?vid=a0af3547-0f5a-4ee7-a39d-23ed992db956"},"vehicle_type_id":"4","last_reported":1739941779,"current_range_meters":16800,"station_id":"","pricing_plan_id":"cebpf4jnsgd1na2vs0mg"},{"bike_id":"7e3809a0-01e4-4f37-9275-3c7b0fd64ef4","system_id":"levelo_inurba_marseille","lat":43.27912,"lon":5.3958,"is_reserved":false,"is_disabled":false,"rental_uris":{"android":"levelo://app?vid=7e3809a0-01e4-4f37-9275-3c7b0fd64ef4","ios":"levelo://app?vid=7e3809a0-01e4-4f37-9275-3c7b0fd64ef4"},"vehicle_type_id":"4","last_reported":1739941779,"current_range_meters":16800,"station_id":"ce4bhf92rcd13ifvqf40","pricing_plan_id":"cebpf4jnsgd1na2vs0mg"},{"bike_id":"ffa697b7-285b-4519-acbd-7c152b9e76d0","system_id":"levelo_inurba_marseille","lat":43.2874,"lon":5.36085,"is_reserved":false,"is_disabled":false,"rental_uris":{"android":"levelo://app?vid=ffa697b7-285b-4519-acbd-7c152b9e76d0","ios":"levelo://app?vid=ffa697b7-285b-4519-acbd-7c152b9e76d0"},"vehicle_type_id":"4","last_reported":1739941779,"current_range_meters":16800,"station_id":"cki0cbj6b192h4jlfktg","pricing_plan_id":"cebpf4jnsgd1na2vs0mg"},{"bike_id":"b9733126-3c3f-4c59-bad9-f580c8a42f02","system_id":"levelo_inurba_marseille","lat":43.23185,"lon":5.39964,"is_reserved":false,"is_disabled":false,"rental_uris":{"android":"levelo://app?vid=b9733126-3c3f-4c59-bad9-f580c8a42f02","ios":"levelo://app?vid=b9733126-3c3f-4c59-bad9-f580c8a42f02"},"vehicle_type_id":"4","last_reported":1739941779,"current_range_meters":16800,"station_id":"ce4bhn12rcd13ifvqgqg","pricing_plan_id":"cebpf4jnsgd1na2vs0mg"},{"bike_id":"d32e8a00-2a77-4bd0-84d9-45bbeb2c03ac","system_id":"levelo_inurba_marseille","lat":43.3128,"lon":5.40141,"is_reserved":false,"is_disabled":false,"rental_uris":{"android":"levelo://app?vid=d32e8a00-2a77-4bd0-84d9-45bbeb2c03ac","ios":"levelo://app?vid=d32e8a00-2a77-4bd0-84d9-45bbeb2c03ac"},"vehicle_type_id":"4","last_reported":1739941779,"current_range_meters":16800,"station_id":"ce4bh092rcd13ifvqd30","pricing_plan_id":"cebpf4jnsgd1na2vs0mg"},{"bike_id":"c6421527-6f1a-4b56-978e-0f40efda8c18","system_id":"levelo_inurba_marseille","lat":43.24999,"lon":5.38915,"is_reserved":false,"is_disabled":false,"rental_uris":{"android":"levelo://app?vid=c6421527-6f1a-4b56-978e-0f40efda8c18","ios":"levelo://app?vid=c6421527-6f1a-4b56-978e-0f40efda8c18"},"vehicle_type_id":"4","last_reported":1739941779,"current_range_meters":16800,"station_id":"ce4bhgp2rcd13ifvqfd0","pricing_plan_id":"cebpf4jnsgd1na2vs0mg"},{"bike_id":"ec5814cc-8b7e-4d45-b2f0-e8a2b9b37adc","system_id":"levelo_inurba_marseille","lat":43.281566,"lon":5.426371,"is_reserved":false,"is_disabled":false,"rental_uris":{"android":"levelo://app?vid=ec5814cc-8b7e-4d45-b2f0-e8a2b9b37adc","ios":"levelo://app?vid=ec5814cc-8b7e-4d45-b2f0-e8a2b9b37adc"},"vehicle_type_id":"4","last_reported":1739941779,"current_range_meters":16800,"station_id":"ce4bhnh2rcd13ifvqgug","pricing_plan_id":"cebpf4jnsgd1na2vs0mg"},{"bike_id":"780aed50-8925-4c8b-93f6-f1bec5770765","system_id":"levelo_inurba_marseille","lat":43.28628,"lon":5.351,"is_reserved":false,"is_disabled":false,"rental_uris":{"android":"levelo://app?vid=780aed50-8925-4c8b-93f6-f1bec5770765","ios":"levelo://app?vid=780aed50-8925-4c8b-93f6-f1bec5770765"},"vehicle_type_id":"4","last_reported":1739941779,"current_range_meters":16800,"station_id":"ce4bhch2rcd13ifvqeug","pricing_plan_id":"cebpf4jnsgd1na2vs0mg"},{"bike_id":"21c97aee-504c-480f-84c7-11258b97f58a","system_id":"levelo_inurba_marseille","lat":43.2894,"lon":5.38382,"is_reserved":false,"is_disabled":false,"rental_uris":{"android":"levelo://app?vid=21c97aee-504c-480f-84c7-11258b97f58a","ios":"levelo://app?vid=21c97aee-504c-480f-84c7-11258b97f58a"},"vehicle_type_id":"4","last_reported":1739941779,"current_range_meters":16800,"station_id":"ce4bh612rcd13ifvqe6g","pricing_plan_id":"cebpf4jnsgd1na2vs0mg"},{"bike_id":"e46c179c-969e-4fe6-8b83-52017debaf62","system_id":"levelo_inurba_marseille","lat":43.27912,"lon":5.39585,"is_reserved":false,"is_disabled":false,"rental_uris":{"android":"levelo://app?vid=e46c179c-969e-4fe6-8b83-52017debaf62","ios":"levelo://app?vid=e46c179c-969e-4fe6-8b83-52017debaf62"},"vehicle_type_id":"4","last_reported":1739941779,"current_range_meters":16800,"station_id":"ce4bhf92rcd13ifvqf40","pricing_plan_id":"cebpf4jnsgd1na2vs0mg"},{"bike_id":"b85644ed-f65a-4039-a397-da921e97276e","system_id":"levelo_inurba_marseille","lat":43.23965,"lon":5.36643,"is_reserved":false,"is_disabled":false,"rental_uris":{"android":"levelo://app?vid=b85644ed-f65a-4039-a397-da921e97276e","ios":"levelo://app?vid=b85644ed-f65a-4039-a397-da921e97276e"},"vehicle_type_id":"4","last_reported":1739941779,"current_range_meters":17200,"station_id":"ce4bhi12rcd13ifvqfp0","pricing_plan_id":"cebpf4jnsgd1na2vs0mg"},{"bike_id":"5428c4a6-2268-45c5-aff9-a5f8e308d92b","system_id":"levelo_inurba_marseille","lat":43.30909,"lon":5.37308,"is_reserved":false,"is_disabled":false,"rental_uris":{"android":"levelo://app?vid=5428c4a6-2268-45c5-aff9-a5f8e308d92b","ios":"levelo://app?vid=5428c4a6-2268-45c5-aff9-a5f8e308d92b"},"vehicle_type_id":"4","last_reported":1739941779,"current_range_meters":17200,"station_id":"ce4bguh2rcd13ifvqckg","pricing_plan_id":"cebpf4jnsgd1na2vs0mg"},{"bike_id":"25463790-041d-4228-abe8-4cb0481d16fb","system_id":"levelo_inurba_marseille","lat":43.28703,"lon":5.39997,"is_reserved":false,"is_disabled":false,"rental_uris":{"android":"levelo://app?vid=25463790-041d-4228-abe8-4cb0481d16fb","ios":"levelo://app?vid=25463790-041d-4228-abe8-4cb0481d16fb"},"vehicle_type_id":"4","last_reported":1739941779,"current_range_meters":17200,"station_id":"","pricing_plan_id":"cebpf4jnsgd1na2vs0mg"},{"bike_id":"dfff7277-9dfc-4219-bd64-73e992e4946b","system_id":"levelo_inurba_marseille","lat":43.29031,"lon":5.38645,"is_reserved":false,"is_disabled":false,"rental_uris":{"android":"levelo://app?vid=dfff7277-9dfc-4219-bd64-73e992e4946b","ios":"levelo://app?vid=dfff7277-9dfc-4219-bd64-73e992e4946b"},"vehicle_type_id":"4","last_reported":1739941779,"current_range_meters":17200,"station_id":"","pricing_plan_id":"cebpf4jnsgd1na2vs0mg"},{"bike_id":"8d6c5c5b-aa31-45fa-a189-3968b117ac82","system_id":"levelo_inurba_marseille","lat":43.29053,"lon":5.35892,"is_reserved":false,"is_disabled":false,"rental_uris":{"android":"levelo://app?vid=8d6c5c5b-aa31-45fa-a189-3968b117ac82","ios":"levelo://app?vid=8d6c5c5b-aa31-45fa-a189-3968b117ac82"},"vehicle_type_id":"4","last_reported":1739941779,"current_range_meters":17200,"station_id":"ce4bha92rcd13ifvqeg0","pricing_plan_id":"cebpf4jnsgd1na2vs0mg"},{"bike_id":"c4360e19-f166-43bf-b819-11bc86f8932b","system_id":"levelo_inurba_marseille","lat":43.304116,"lon":5.412799,"is_reserved":false,"is_disabled":false,"rental_uris":{"android":"levelo://app?vid=c4360e19-f166-43bf-b819-11bc86f8932b","ios":"levelo://app?vid=c4360e19-f166-43bf-b819-11bc86f8932b"},"vehicle_type_id":"4","last_reported":1739941779,"current_range_meters":17200,"station_id":"ce4bhop2rcd13ifvqh8g","pricing_plan_id":"cebpf4jnsgd1na2vs0mg"},{"bike_id":"af246186-84c5-47ac-9840-acf8926725e0","system_id":"levelo_inurba_marseille","lat":43.23945,"lon":5.36638,"is_reserved":false,"is_disabled":false,"rental_uris":{"android":"levelo://app?vid=af246186-84c5-47ac-9840-acf8926725e0","ios":"levelo://app?vid=af246186-84c5-47ac-9840-acf8926725e0"},"vehicle_type_id":"4","last_reported":1739941779,"current_range_meters":17200,"station_id":"","pricing_plan_id":"cebpf4jnsgd1na2vs0mg"},{"bike_id":"4df47e88-41bc-4b68-b0d1-97f3b41c726a","system_id":"levelo_inurba_marseille","lat":43.30138,"lon":5.39884,"is_reserved":false,"is_disabled":true,"rental_uris":{"android":"levelo://app?vid=4df47e88-41bc-4b68-b0d1-97f3b41c726a","ios":"levelo://app?vid=4df47e88-41bc-4b68-b0d1-97f3b41c726a"},"vehicle_type_id":"4","last_reported":1739941779,"current_range_meters":17200,"station_id":"ce4bh0h2rcd13ifvqd40","pricing_plan_id":"cebpf4jnsgd1na2vs0mg"},{"bike_id":"2e65bb49-c0f1-41aa-b38f-342e2076ebe3","system_id":"levelo_inurba_marseille","lat":43.28849,"lon":5.35846,"is_reserved":false,"is_disabled":false,"rental_uris":{"android":"levelo://app?vid=2e65bb49-c0f1-41aa-b38f-342e2076ebe3","ios":"levelo://app?vid=2e65bb49-c0f1-41aa-b38f-342e2076ebe3"},"vehicle_type_id":"4","last_reported":1739941779,"current_range_meters":17200,"station_id":"ce4bhb12rcd13ifvqem0","pricing_plan_id":"cebpf4jnsgd1na2vs0mg"},{"bike_id":"53cc3e09-8226-4f83-9e42-b5b81a54d618","system_id":"levelo_inurba_marseille","lat":43.28838,"lon":5.35864,"is_reserved":false,"is_disabled":false,"rental_uris":{"android":"levelo://app?vid=53cc3e09-8226-4f83-9e42-b5b81a54d618","ios":"levelo://app?vid=53cc3e09-8226-4f83-9e42-b5b81a54d618"},"vehicle_type_id":"4","last_reported":1739941779,"current_range_meters":17200,"station_id":"ce4bhdp2rcd13ifvqf20","pricing_plan_id":"cebpf4jnsgd1na2vs0mg"},{"bike_id":"74508a42-9156-4119-9e4b-33f6b6500ac7","system_id":"levelo_inurba_marseille","lat":43.28438,"lon":5.39167,"is_reserved":false,"is_disabled":false,"rental_uris":{"android":"levelo://app?vid=74508a42-9156-4119-9e4b-33f6b6500ac7","ios":"levelo://app?vid=74508a42-9156-4119-9e4b-33f6b6500ac7"},"vehicle_type_id":"4","last_reported":1739941779,"current_range_meters":17200,"station_id":"","pricing_plan_id":"cebpf4jnsgd1na2vs0mg"},{"bike_id":"ee318ccd-c697-43a6-bafd-c758274e6962","system_id":"levelo_inurba_marseille","lat":43.3033,"lon":5.40092,"is_reserved":false,"is_disabled":false,"rental_uris":{"android":"levelo://app?vid=ee318ccd-c697-43a6-bafd-c758274e6962","ios":"levelo://app?vid=ee318ccd-c697-43a6-bafd-c758274e6962"},"vehicle_type_id":"4","last_reported":1739941779,"current_range_meters":17200,"station_id":"","pricing_plan_id":"cebpf4jnsgd1na2vs0mg"},{"bike_id":"ecbd6e29-5b86-41d0-a4bd-3518ee3bab53","system_id":"levelo_inurba_marseille","lat":43.2465,"lon":5.38896,"is_reserved":false,"is_disabled":false,"rental_uris":{"android":"levelo://app?vid=ecbd6e29-5b86-41d0-a4bd-3518ee3bab53","ios":"levelo://app?vid=ecbd6e29-5b86-41d0-a4bd-3518ee3bab53"},"vehicle_type_id":"4","last_reported":1739941779,"current_range_meters":17600,"station_id":"ce4bhg12rcd13ifvqf60","pricing_plan_id":"cebpf4jnsgd1na2vs0mg"},{"bike_id":"ad359680-270a-4809-a6be-cc0bca8cc2fb","system_id":"levelo_inurba_marseille","lat":43.23183,"lon":5.39977,"is_reserved":false,"is_disabled":false,"rental_uris":{"android":"levelo://app?vid=ad359680-270a-4809-a6be-cc0bca8cc2fb","ios":"levelo://app?vid=ad359680-270a-4809-a6be-cc0bca8cc2fb"},"vehicle_type_id":"4","last_reported":1739941779,"current_range_meters":17600,"station_id":"ce4bhn12rcd13ifvqgqg","pricing_plan_id":"cebpf4jnsgd1na2vs0mg"},{"bike_id":"92976659-85fd-47c2-b762-4263c63c96d3","system_id":"levelo_inurba_marseille","lat":43.30093,"lon":5.39078,"is_reserved":false,"is_disabled":false,"rental_uris":{"android":"levelo://app?vid=92976659-85fd-47c2-b762-4263c63c96d3","ios":"levelo://app?vid=92976659-85fd-47c2-b762-4263c63c96d3"},"vehicle_type_id":"4","last_reported":1739941779,"current_range_meters":17600,"station_id":"ce4bh192rcd13ifvqdb0","pricing_plan_id":"cebpf4jnsgd1na2vs0mg"},{"bike_id":"14079f7d-8e23-4c1f-bbfd-c149bacc30d3","system_id":"levelo_inurba_marseille","lat":43.27497,"lon":5.42454,"is_reserved":false,"is_disabled":false,"rental_uris":{"android":"levelo://app?vid=14079f7d-8e23-4c1f-bbfd-c149bacc30d3","ios":"levelo://app?vid=14079f7d-8e23-4c1f-bbfd-c149bacc30d3"},"vehicle_type_id":"4","last_reported":1739941779,"current_range_meters":17600,"station_id":"ce4bhn92rcd13ifvqgrg","pricing_plan_id":"cebpf4jnsgd1na2vs0mg"},{"bike_id":"ca8b528a-7731-4b3c-8fb1-7e3556ed10d0","system_id":"levelo_inurba_marseille","lat":43.25005,"lon":5.38899,"is_reserved":false,"is_disabled":false,"rental_uris":{"android":"levelo://app?vid=ca8b528a-7731-4b3c-8fb1-7e3556ed10d0","ios":"levelo://app?vid=ca8b528a-7731-4b3c-8fb1-7e3556ed10d0"},"vehicle_type_id":"4","last_reported":1739941779,"current_range_meters":17600,"station_id":"ce4bhgp2rcd13ifvqfd0","pricing_plan_id":"cebpf4jnsgd1na2vs0mg"},{"bike_id":"bb3be691-f0be-4096-8eea-552dbe72c2b3","system_id":"levelo_inurba_marseille","lat":43.28665,"lon":5.35152,"is_reserved":false,"is_disabled":false,"rental_uris":{"android":"levelo://app?vid=bb3be691-f0be-4096-8eea-552dbe72c2b3","ios":"levelo://app?vid=bb3be691-f0be-4096-8eea-552dbe72c2b3"},"vehicle_type_id":"4","last_reported":1739941779,"current_range_meters":17600,"station_id":"ce4bhch2rcd13ifvqeug","pricing_plan_id":"cebpf4jnsgd1na2vs0mg"},{"bike_id":"41b1f5b8-75f3-4ec6-8344-959b9791673e","system_id":"levelo_inurba_marseille","lat":43.2318,"lon":5.39991,"is_reserved":false,"is_disabled":false,"rental_uris":{"android":"levelo://app?vid=41b1f5b8-75f3-4ec6-8344-959b9791673e","ios":"levelo://app?vid=41b1f5b8-75f3-4ec6-8344-959b9791673e"},"vehicle_type_id":"4","last_reported":1739941779,"current_range_meters":18000,"station_id":"ce4bhn12rcd13ifvqgqg","pricing_plan_id":"cebpf4jnsgd1na2vs0mg"},{"bike_id":"d5e8e1ef-42ea-44e6-b804-06519d4613ee","system_id":"levelo_inurba_marseille","lat":43.28694,"lon":5.37407,"is_reserved":false,"is_disabled":false,"rental_uris":{"android":"levelo://app?vid=d5e8e1ef-42ea-44e6-b804-06519d4613ee","ios":"levelo://app?vid=d5e8e1ef-42ea-44e6-b804-06519d4613ee"},"vehicle_type_id":"4","last_reported":1739941779,"current_range_meters":18000,"station_id":"ce4bh3p2rcd13ifvqdq0","pricing_plan_id":"cebpf4jnsgd1na2vs0mg"},{"bike_id":"f0876ec4-0d07-434b-9152-ca898eff03d1","system_id":"levelo_inurba_marseille","lat":43.30097,"lon":5.39072,"is_reserved":false,"is_disabled":false,"rental_uris":{"android":"levelo://app?vid=f0876ec4-0d07-434b-9152-ca898eff03d1","ios":"levelo://app?vid=f0876ec4-0d07-434b-9152-ca898eff03d1"},"vehicle_type_id":"4","last_reported":1739941779,"current_range_meters":18000,"station_id":"ce4bh192rcd13ifvqdb0","pricing_plan_id":"cebpf4jnsgd1na2vs0mg"},{"bike_id":"d2ebe9e9-0e91-4596-9593-66367cd0223f","system_id":"levelo_inurba_marseille","lat":43.29598,"lon":5.38107,"is_reserved":false,"is_disabled":false,"rental_uris":{"android":"levelo://app?vid=d2ebe9e9-0e91-4596-9593-66367cd0223f","ios":"levelo://app?vid=d2ebe9e9-0e91-4596-9593-66367cd0223f"},"vehicle_type_id":"4","last_reported":1739941779,"current_range_meters":18000,"station_id":"","pricing_plan_id":"cebpf4jnsgd1na2vs0mg"},{"bike_id":"ba379239-9216-4e46-a96c-a73988d910ff","system_id":"levelo_inurba_marseille","lat":43.26489,"lon":5.37146,"is_reserved":false,"is_disabled":false,"rental_uris":{"android":"levelo://app?vid=ba379239-9216-4e46-a96c-a73988d910ff","ios":"levelo://app?vid=ba379239-9216-4e46-a96c-a73988d910ff"},"vehicle_type_id":"4","last_reported":1739941779,"current_range_meters":18000,"station_id":"","pricing_plan_id":"cebpf4jnsgd1na2vs0mg"},{"bike_id":"b6c48bd6-2b12-44c9-b2cf-db7866bbd8bf","system_id":"levelo_inurba_marseille","lat":43.28448,"lon":5.35891,"is_reserved":false,"is_disabled":false,"rental_uris":{"android":"levelo://app?vid=b6c48bd6-2b12-44c9-b2cf-db7866bbd8bf","ios":"levelo://app?vid=b6c48bd6-2b12-44c9-b2cf-db7866bbd8bf"},"vehicle_type_id":"4","last_reported":1739941779,"current_range_meters":18000,"station_id":"ce4bhah2rcd13ifvqei0","pricing_plan_id":"cebpf4jnsgd1na2vs0mg"},{"bike_id":"96453e9e-2787-4f71-b474-ae409a8765d8","system_id":"levelo_inurba_marseille","lat":43.31361,"lon":5.38518,"is_reserved":false,"is_disabled":false,"rental_uris":{"android":"levelo://app?vid=96453e9e-2787-4f71-b474-ae409a8765d8","ios":"levelo://app?vid=96453e9e-2787-4f71-b474-ae409a8765d8"},"vehicle_type_id":"4","last_reported":1739941779,"current_range_meters":18000,"station_id":"ce4bgt92rcd13ifvqcf0","pricing_plan_id":"cebpf4jnsgd1na2vs0mg"},{"bike_id":"ffe9eab2-d4dc-4453-a33d-12df5bd7df9c","system_id":"levelo_inurba_marseille","lat":43.28134,"lon":5.42642,"is_reserved":false,"is_disabled":false,"rental_uris":{"android":"levelo://app?vid=ffe9eab2-d4dc-4453-a33d-12df5bd7df9c","ios":"levelo://app?vid=ffe9eab2-d4dc-4453-a33d-12df5bd7df9c"},"vehicle_type_id":"4","last_reported":1739941779,"current_range_meters":18000,"station_id":"ce4bhnh2rcd13ifvqgug","pricing_plan_id":"cebpf4jnsgd1na2vs0mg"},{"bike_id":"ba0a4dbe-d370-492e-a789-44c6ef69c02b","system_id":"levelo_inurba_marseille","lat":43.28618,"lon":5.35097,"is_reserved":false,"is_disabled":false,"rental_uris":{"android":"levelo://app?vid=ba0a4dbe-d370-492e-a789-44c6ef69c02b","ios":"levelo://app?vid=ba0a4dbe-d370-492e-a789-44c6ef69c02b"},