{"last_updated":1750335684,"ttl":60,"version":"2.2","data":{"bikes":[{"bike_id":"3da29fb8-fc97-44c6-b9ac-31dd456b2fd4","system_id":"levelo_inurba_marseille","lat":43.33771,"lon":5.37424,"is_reserved":false,"is_disabled":true,"rental_uris":{"android":"levelo://app?vid=3da29fb8-fc97-44c6-b9ac-31dd456b2fd4","ios":"levelo://app?vid=3da29fb8-fc97-44c6-b9ac-31dd456b2fd4"},"vehicle_type_id":"4","last_reported":1750335685,"current_range_meters":0,"station_id":"","pricing_plan_id":"cebpf4jnsgd1na2vs0mg"},{"bike_id":"01861ad8-a8d7-4be6-816e-651927c87584","system_id":"levelo_inurba_marseille","lat":43.33751,"lon":5.37456,"is_reserved":false,"is_disabled":true,"rental_uris":{"android":"levelo://app?vid=01861ad8-a8d7-4be6-816e-651927c87584","ios":"levelo://app?vid=01861ad8-a8d7-4be6-816e-651927c87584"},"vehicle_type_id":"4","last_reported":1750335685,"current_range_meters":0,"station_id":"","pricing_plan_id":"cebpf4jnsgd1na2vs0mg"},{"bike_id":"dbfce7a3-3423-4296-b193-a177dea644ac","system_id":"levelo_inurba_marseille","lat":43.27289,"lon":5.416142,"is_reserved":false,"is_disabled":true,"rental_uris":{"android":"levelo://app?vid=dbfce7a3-3423-4296-b193-a177dea644ac","ios":"levelo://app?vid=dbfce7a3-3423-4296-b193-a177dea644ac"},"vehicle_type_id":"4","last_reported":1750335685,"current_range_meters":0,"station_id":"","pricing_plan_id":"cebpf4jnsgd1na2vs0mg"},{"bike_id":"eff675e9-75ca-47c9-bd95-5090bc060d4f","system_id":"levelo_inurba_marseille","lat":43.34088,"lon":5.36111,"is_reserved":false,"is_disabled":true,"rental_uris":{"android":"levelo://app?vid=eff675e9-75ca-47c9-bd95-5090bc060d4f","ios":"levelo://app?vid=eff675e9-75ca-47c9-bd95-5090bc060d4f"},"vehicle_type_id":"4","last_reported":1750335685,"current_range_meters":0,"station_id":"","pricing_plan_id":"cebpf4jnsgd1na2vs0mg"},{"bike_id":"d2bd57c8-6b64-48db-ad24-5398eb3fd9d6","system_id":"levelo_inurba_marseille","lat":43.337444,"lon":5.374475,"is_reserved":false,"is_disabled":true,"rental_uris":{"android":"levelo://app?vid=d2bd57c8-6b64-48db-ad24-5398eb3fd9d6","ios":"levelo://app?vid=d2bd57c8-6b64-48db-ad24-5398eb3fd9d6"},"vehicle_type_id":"4","last_reported":1750335685,"current_range_meters":0,"station_id":"","pricing_plan_id":"cebpf4jnsgd1na2vs0mg"},{"bike_id":"62a493c7-4534-4419-ad43-0582de34a72a","system_id":"levelo_inurba_marseille","lat":43.21366,"lon":5.355183,"is_reserved":false,"is_disabled":true,"rental_uris":{"android":"levelo://app?vid=62a493c7-4534-4419-ad43-0582de34a72a","ios":"levelo://app?vid=62a493c7-4534-4419-ad43-0582de34a72a"},"vehicle_type_id":"4","last_reported":1750335685,"current_range_meters":0,"station_id":"","pricing_plan_id":"cebpf4jnsgd1na2vs0mg"},{"bike_id":"b9e37238-9abe-4b8b-b932-edaee33a7e59","system_id":"levelo_inurba_marseille","lat":43.27467,"lon":5.39361,"is_reserved":false,"is_disabled":true,"rental_uris":{"android":"levelo://app?vid=b9e37238-9abe-4b8b-b932-edaee33a7e59","ios":"levelo://app?vid=b9e37238-9abe-4b8b-b932-edaee33a7e59"},"vehicle_type_id":"4","last_reported":1750335685,"current_range_meters":0,"station_id":"","pricing_plan_id":"cebpf4jnsgd1na2vs0mg"},{"bike_id":"8ad9234e-001a-4549-8bba-9baf2ef98804","system_id":"levelo_inurba_marseille","lat":43.2689,"lon":5.39883,"is_reserved":false,"is_disabled":true,"rental_uris":{"android":"levelo://app?vid=8ad9234e-001a-4549-8bba-9baf2ef98804","ios":"levelo://app?vid=8ad9234e-001a-4549-8bba-9baf2ef98804"},"vehicle_type_id":"4","last_reported":1750335685,"current_range_meters":0,"station_id":"","pricing_plan_id":"cebpf4jnsgd1na2vs0mg"},{"bike_id":"47196f00-388f-4b3b-a4de-3dba126cd107","system_id":"levelo_inurba_marseille","lat":43.2437,"lon":5.41137,"is_reserved":false,"is_disabled":true,"rental_uris":{"android":"levelo://app?vid=47196f00-388f-4b3b-a4de-3dba126cd107","ios":"levelo://app?vid=47196f00-388f-4b3b-a4de-3dba126cd107"},"vehicle_type_id":"4","last_reported":1750335685,"current_range_meters":0,"station_id":"","pricing_plan_id":"cebpf4jnsgd1na2vs0mg"},{"bike_id":"d6609b4f-333b-43c1-9ebe-8726f5e76e88","system_id":"levelo_inurba_marseille","lat":43.337444,"lon":5.374475,"is_reserved":false,"is_disabled":true,"rental_uris":{"android":"levelo://app?vid=d6609b4f-333b-43c1-9ebe-8726f5e76e88","ios":"levelo://app?vid=d6609b4f-333b-43c1-9ebe-8726f5e76e88"},"vehicle_type_id":"4","last_reported":1750335685,"current_range_meters":0,"station_id":"","pricing_plan_id":"cebpf4jnsgd1na2vs0mg"},{"bike_id":"57c83ce1-960e-466a-b6c5-d93bc130c53a","system_id":"levelo_inurba_marseille","lat":43.24899,"lon":5.38969,"is_reserved":false,"is_disabled":true,"rental_uris":{"android":"levelo://app?vid=57c83ce1-960e-466a-b6c5-d93bc130c53a","ios":"levelo://app?vid=57c83ce1-960e-466a-b6c5-d93bc130c53a"},"vehicle_type_id":"4","last_reported":1750335685,"current_range_meters":0,"station_id":"","pricing_plan_id":"cebpf4jnsgd1na2vs0mg"},{"bike_id":"d600dcc7-8a55-43fa-90a4-da588cbae671","system_id":"levelo_inurba_marseille","lat":43.30403,"lon":5.42507,"is_reserved":false,"is_disabled":true,"rental_uris":{"android":"levelo://app?vid=d600dcc7-8a55-43fa-90a4-da588cbae671","ios":"levelo://app?vid=d600dcc7-8a55-43fa-90a4-da588cbae671"},"vehicle_type_id":"4","last_reported":1750335685,"current_range_meters":0,"station_id":"ce4bghh2rcd13ifvqb60","pricing_plan_id":"cebpf4jnsgd1na2vs0mg"},{"bike_id":"a81bd90d-7d45-48f8-8a69-5b770b5fb24c","system_id":"levelo_inurba_marseille","lat":43.29922,"lon":5.36541,"is_reserved":false,"is_disabled":true,"rental_uris":{"android":"levelo://app?vid=a81bd90d-7d45-48f8-8a69-5b770b5fb24c","ios":"levelo://app?vid=a81bd90d-7d45-48f8-8a69-5b770b5fb24c"},"vehicle_type_id":"4","last_reported":1750335685,"current_range_meters":0,"station_id":"ce4bgm92rcd13ifvqbr0","pricing_plan_id":"cebpf4jnsgd1na2vs0mg"},{"bike_id":"bc8f7c5b-e86f-48f1-bcb1-46d91e144eb0","system_id":"levelo_inurba_marseille","lat":43.28339,"lon":5.381,"is_reserved":false,"is_disabled":true,"rental_uris":{"android":"levelo://app?vid=bc8f7c5b-e86f-48f1-bcb1-46d91e144eb0","ios":"levelo://app?vid=bc8f7c5b-e86f-48f1-bcb1-46d91e144eb0"},"vehicle_type_id":"4","last_reported":1750335685,"current_range_meters":0,"station_id":"ce4bh412rcd13ifvqdr0","pricing_plan_id":"cebpf4jnsgd1na2vs0mg"},{"bike_id":"ad49b03e-a771-4009-8952-cc6ec7cece0e","system_id":"levelo_inurba_marseille","lat":43.28616,"lon":5.35126,"is_reserved":false,"is_disabled":true,"rental_uris":{"android":"levelo://app?vid=ad49b03e-a771-4009-8952-cc6ec7cece0e","ios":"levelo://app?vid=ad49b03e-a771-4009-8952-cc6ec7cece0e"},"vehicle_type_id":"4","last_reported":1750335685,"current_range_meters":0,"station_id":"ce4bhch2rcd13ifvqeug","pricing_plan_id":"cebpf4jnsgd1na2vs0mg"},{"bike_id":"a7d8172b-0aec-49f7-8b22-fc6aea420d81","system_id":"levelo_inurba_marseille","lat":43.26576,"lon":5.37277,"is_reserved":false,"is_disabled":true,"rental_uris":{"android":"levelo://app?vid=a7d8172b-0aec-49f7-8b22-fc6aea420d81","ios":"levelo://app?vid=a7d8172b-0aec-49f7-8b22-fc6aea420d81"},"vehicle_type_id":"4","last_reported":1750335685,"current_range_meters":0,"station_id":"ce4bhg12rcd13ifvqf70","pricing_plan_id":"cebpf4jnsgd1na2vs0mg"},{"bike_id":"ad765ed0-daa7-4a3a-8772-6929effeae1c","system_id":"levelo_inurba_marseille","lat":43.25084,"lon":5.39529,"is_reserved":false,"is_disabled":true,"rental_uris":{"android":"levelo://app?vid=ad765ed0-daa7-4a3a-8772-6929effeae1c","ios":"levelo://app?vid=ad765ed0-daa7-4a3a-8772-6929effeae1c"},"vehicle_type_id":"4","last_reported":1750335685,"current_range_meters":0,"station_id":"ce4bhm12rcd13ifvqgkg","pricing_plan_id":"cebpf4jnsgd1na2vs0mg"},{"bike_id":"737ed6a2-1fd0-4bdd-85da-92db0c44facd","system_id":"levelo_inurba_marseille","lat":43.24172,"lon":5.39709,"is_reserved":false,"is_disabled":true,"rental_uris":{"android":"levelo://app?vid=737ed6a2-1fd0-4bdd-85da-92db0c44facd","ios":"levelo://app?vid=737ed6a2-1fd0-4bdd-85da-92db0c44facd"},"vehicle_type_id":"4","last_reported":1750335685,"current_range_meters":0,"station_id":"ce4bhn12rcd13ifvqgpg","pricing_plan_id":"cebpf4jnsgd1na2vs0mg"},{"bike_id":"0cce7922-10d8-4706-afe6-6caefab386b6","system_id":"levelo_inurba_marseille","lat":43.24089,"lon":5.37745,"is_reserved":false,"is_disabled":true,"rental_uris":{"android":"levelo://app?vid=0cce7922-10d8-4706-afe6-6caefab386b6","ios":"levelo://app?vid=0cce7922-10d8-4706-afe6-6caefab386b6"},"vehicle_type_id":"4","last_reported":1750335685,"current_range_meters":0,"station_id":"ce4bhnp2rcd13ifvqgvg","pricing_plan_id":"cebpf4jnsgd1na2vs0mg"},{"bike_id":"5a3569a2-5d1a-41af-aa67-db12e92a025f","system_id":"levelo_inurba_marseille","lat":43.32106,"lon":5.36771,"is_reserved":false,"is_disabled":true,"rental_uris":{"android":"levelo://app?vid=5a3569a2-5d1a-41af-aa67-db12e92a025f","ios":"levelo://app?vid=5a3569a2-5d1a-41af-aa67-db12e92a025f"},"vehicle_type_id":"4","last_reported":1750335685,"current_range_meters":0,"station_id":"ce4bhrh2rcd13ifvqhug","pricing_plan_id":"cebpf4jnsgd1na2vs0mg"},{"bike_id":"7c7f0bfe-d781-493a-ad5c-aea9270a27f7","system_id":"levelo_inurba_marseille","lat":43.23049,"lon":5.35493,"is_reserved":false,"is_disabled":true,"rental_uris":{"android":"levelo://app?vid=7c7f0bfe-d781-493a-ad5c-aea9270a27f7","ios":"levelo://app?vid=7c7f0bfe-d781-493a-ad5c-aea9270a27f7"},"vehicle_type_id":"4","last_reported":1750335685,"current_range_meters":0,"station_id":"cpo3342slgdg3j2ifvpg","pricing_plan_id":"cebpf4jnsgd1na2vs0mg"},{"bike_id":"5e28a18d-b9da-49e2-b3e5-bfae903e2044","system_id":"levelo_inurba_marseille","lat":43.23061,"lon":5.35502,"is_reserved":false,"is_disabled":true,"rental_uris":{"android":"levelo://app?vid=5e28a18d-b9da-49e2-b3e5-bfae903e2044","ios":"levelo://app?vid=5e28a18d-b9da-49e2-b3e5-bfae903e2044"},"vehicle_type_id":"4","last_reported":1750335685,"current_range_meters":0,"station_id":"cpo3342slgdg3j2ifvpg","pricing_plan_id":"cebpf4jnsgd1na2vs0mg"},{"bike_id":"fe753a6d-0961-441e-b4a4-a4fa5974f5cc","system_id":"levelo_inurba_marseille","lat":43.229377,"lon":5.353817,"is_reserved":false,"is_disabled":true,"rental_uris":{"android":"levelo://app?vid=fe753a6d-0961-441e-b4a4-a4fa5974f5cc","ios":"levelo://app?vid=fe753a6d-0961-441e-b4a4-a4fa5974f5cc"},"vehicle_type_id":"4","last_reported":1750335685,"current_range_meters":0,"station_id":"cpo3532slgdg3j2ikp40","pricing_plan_id":"cebpf4jnsgd1na2vs0mg"},{"bike_id":"b6d27190-b949-4a3d-816f-d496cdfa6600","system_id":"levelo_inurba_marseille","lat":43.21197,"lon":5.35068,"is_reserved":false,"is_disabled":true,"rental_uris":{"android":"levelo://app?vid=b6d27190-b949-4a3d-816f-d496cdfa6600","ios":"levelo://app?vid=b6d27190-b949-4a3d-816f-d496cdfa6600"},"vehicle_type_id":"4","last_reported":1750335685,"current_range_meters":0,"station_id":"st_cvj6sg6p6f1abm77japg","pricing_plan_id":"cebpf4jnsgd1na2vs0mg"},{"bike_id":"7cb7c28f-5521-4602-9267-830773375140","system_id":"levelo_inurba_marseille","lat":43.295784,"lon":5.367402,"is_reserved":false,"is_disabled":true,"rental_uris":{"android":"levelo://app?vid=7cb7c28f-5521-4602-9267-830773375140","ios":"levelo://app?vid=7cb7c28f-5521-4602-9267-830773375140"},"vehicle_type_id":"4","last_reported":1750335685,"current_range_meters":400,"station_id":"","pricing_plan_id":"cebpf4jnsgd1na2vs0mg"},{"bike_id":"3c15902c-45cb-43b0-aa70-8e83d2fec600","system_id":"levelo_inurba_marseille","lat":43.29638,"lon":5.40597,"is_reserved":false,"is_disabled":true,"rental_uris":{"android":"levelo://app?vid=3c15902c-45cb-43b0-aa70-8e83d2fec600","ios":"levelo://app?vid=3c15902c-45cb-43b0-aa70-8e83d2fec600"},"vehicle_type_id":"4","last_reported":1750335685,"current_range_meters":400,"station_id":"ce4bh0h2rcd13ifvqd60","pricing_plan_id":"cebpf4jnsgd1na2vs0mg"},{"bike_id":"ea18531b-1c04-4ede-abee-4e1b084a86ae","system_id":"levelo_inurba_marseille","lat":43.28844,"lon":5.39308,"is_reserved":false,"is_disabled":true,"rental_uris":{"android":"levelo://app?vid=ea18531b-1c04-4ede-abee-4e1b084a86ae","ios":"levelo://app?vid=ea18531b-1c04-4ede-abee-4e1b084a86ae"},"vehicle_type_id":"4","last_reported":1750335685,"current_range_meters":400,"station_id":"ce4bh2p2rcd13ifvqdi0","pricing_plan_id":"cebpf4jnsgd1na2vs0mg"},{"bike_id":"5d16c76f-cdc8-4810-b802-21bc7435d78f","system_id":"levelo_inurba_marseille","lat":43.29314,"lon":5.37419,"is_reserved":false,"is_disabled":true,"rental_uris":{"android":"levelo://app?vid=5d16c76f-cdc8-4810-b802-21bc7435d78f","ios":"levelo://app?vid=5d16c76f-cdc8-4810-b802-21bc7435d78f"},"vehicle_type_id":"4","last_reported":1750335685,"current_range_meters":800,"station_id":"ce4bgi12rcd13ifvqb70","pricing_plan_id":"cebpf4jnsgd1na2vs0mg"},{"bike_id":"a75ee406-732e-4b2f-8e55-4e730ad96747","system_id":"levelo_inurba_marseille","lat":43.26791,"lon":5.3953,"is_reserved":false,"is_disabled":true,"rental_uris":{"android":"levelo://app?vid=a75ee406-732e-4b2f-8e55-4e730ad96747","ios":"levelo://app?vid=a75ee406-732e-4b2f-8e55-4e730ad96747"},"vehicle_type_id":"4","last_reported":1750335685,"current_range_meters":800,"station_id":"ce4bhh12rcd13ifvqfg0","pricing_plan_id":"cebpf4jnsgd1na2vs0mg"},{"bike_id":"c8d278c4-8007-4c30-938c-af76c424d160","system_id":"levelo_inurba_marseille","lat":43.27063,"lon":5.42288,"is_reserved":false,"is_disabled":true,"rental_uris":{"android":"levelo://app?vid=c8d278c4-8007-4c30-938c-af76c424d160","ios":"levelo://app?vid=c8d278c4-8007-4c30-938c-af76c424d160"},"vehicle_type_id":"4","last_reported":1750335685,"current_range_meters":800,"station_id":"ce4bhk92rcd13ifvqgb0","pricing_plan_id":"cebpf4jnsgd1na2vs0mg"},{"bike_id":"ae437201-813f-49ae-8016-386c66fc49f9","system_id":"levelo_inurba_marseille","lat":43.270704,"lon":5.42268,"is_reserved":false,"is_disabled":true,"rental_uris":{"android":"levelo://app?vid=ae437201-813f-49ae-8016-386c66fc49f9","ios":"levelo://app?vid=ae437201-813f-49ae-8016-386c66fc49f9"},"vehicle_type_id":"4","last_reported":1750335685,"current_range_meters":800,"station_id":"ce4bhk92rcd13ifvqgb0","pricing_plan_id":"cebpf4jnsgd1na2vs0mg"},{"bike_id":"32d55e80-ceda-4026-baa1-e3b96cec02cb","system_id":"levelo_inurba_marseille","lat":43.25402,"lon":5.37566,"is_reserved":false,"is_disabled":true,"rental_uris":{"android":"levelo://app?vid=32d55e80-ceda-4026-baa1-e3b96cec02cb","ios":"levelo://app?vid=32d55e80-ceda-4026-baa1-e3b96cec02cb"},"vehicle_type_id":"4","last_reported":1750335685,"current_range_meters":1200,"station_id":"","pricing_plan_id":"cebpf4jnsgd1na2vs0mg"},{"bike_id":"6fa91f6c-6f1f-40c4-aa25-8d9f5a530a39","system_id":"levelo_inurba_marseille","lat":43.27972,"lon":5.38733,"is_reserved":false,"is_disabled":true,"rental_uris":{"android":"levelo://app?vid=6fa91f6c-6f1f-40c4-aa25-8d9f5a530a39","ios":"levelo://app?vid=6fa91f6c-6f1f-40c4-aa25-8d9f5a530a39"},"vehicle_type_id":"4","last_reported":1750335685,"current_range_meters":1200,"station_id":"ce4bhg12rcd13ifvqf80","pricing_plan_id":"cebpf4jnsgd1na2vs0mg"},{"bike_id":"172c0010-e20d-43de-bc4d-6cb016d429ad","system_id":"levelo_inurba_marseille","lat":43.24389,"lon":5.37056,"is_reserved":false,"is_disabled":true,"rental_uris":{"android":"levelo://app?vid=172c0010-e20d-43de-bc4d-6cb016d429ad","ios":"levelo://app?vid=172c0010-e20d-43de-bc4d-6cb016d429ad"},"vehicle_type_id":"4","last_reported":1750335685,"current_range_meters":1200,"station_id":"ce4bhhh2rcd13ifvqfk0","pricing_plan_id":"cebpf4jnsgd1na2vs0mg"},{"bike_id":"64b8b83e-503a-4015-b7c1-3bd9b6c0bb97","system_id":"levelo_inurba_marseille","lat":43.30381,"lon":5.45164,"is_reserved":false,"is_disabled":true,"rental_uris":{"android":"levelo://app?vid=64b8b83e-503a-4015-b7c1-3bd9b6c0bb97","ios":"levelo://app?vid=64b8b83e-503a-4015-b7c1-3bd9b6c0bb97"},"vehicle_type_id":"4","last_reported":1750335685,"current_range_meters":1600,"station_id":"","pricing_plan_id":"cebpf4jnsgd1na2vs0mg"},{"bike_id":"d4b2375e-15c2-4b2f-a628-6d423b46231b","system_id":"levelo_inurba_marseille","lat":43.2426,"lon":5.4114,"is_reserved":false,"is_disabled":true,"rental_uris":{"android":"levelo://app?vid=d4b2375e-15c2-4b2f-a628-6d423b46231b","ios":"levelo://app?vid=d4b2375e-15c2-4b2f-a628-6d423b46231b"},"vehicle_type_id":"4","last_reported":1750335685,"current_range_meters":2000,"station_id":"","pricing_plan_id":"cebpf4jnsgd1na2vs0mg"},{"bike_id":"4fa45ca6-f376-4694-b527-69a47b552011","system_id":"levelo_inurba_marseille","lat":43.28268,"lon":5.40679,"is_reserved":false,"is_disabled":true,"rental_uris":{"android":"levelo://app?vid=4fa45ca6-f376-4694-b527-69a47b552011","ios":"levelo://app?vid=4fa45ca6-f376-4694-b527-69a47b552011"},"vehicle_type_id":"4","last_reported":1750335685,"current_range_meters":2000,"station_id":"","pricing_plan_id":"cebpf4jnsgd1na2vs0mg"},{"bike_id":"fb7f0fca-328c-4590-8315-5fcf92aa068d","system_id":"levelo_inurba_marseille","lat":43.31147,"lon":5.37671,"is_reserved":false,"is_disabled":true,"rental_uris":{"android":"levelo://app?vid=fb7f0fca-328c-4590-8315-5fcf92aa068d","ios":"levelo://app?vid=fb7f0fca-328c-4590-8315-5fcf92aa068d"},"vehicle_type_id":"4","last_reported":1750335685,"current_range_meters":2000,"station_id":"","pricing_plan_id":"cebpf4jnsgd1na2vs0mg"},{"bike_id":"ea3b24f6-b55f-4629-9639-c9e7ae8adc06","system_id":"levelo_inurba_marseille","lat":43.27377,"lon":5.36254,"is_reserved":false,"is_disabled":true,"rental_uris":{"android":"levelo://app?vid=ea3b24f6-b55f-4629-9639-c9e7ae8adc06","ios":"levelo://app?vid=ea3b24f6-b55f-4629-9639-c9e7ae8adc06"},"vehicle_type_id":"4","last_reported":1750335685,"current_range_meters":2000,"station_id":"ce4bhbh2rcd13ifvqeo0","pricing_plan_id":"cebpf4jnsgd1na2vs0mg"},{"bike_id":"85a4d785-eafc-4fa0-94df-a5576a198071","system_id":"levelo_inurba_marseille","lat":43.267839,"lon":5.39416,"is_reserved":false,"is_disabled":true,"rental_uris":{"android":"levelo://app?vid=85a4d785-eafc-4fa0-94df-a5576a198071","ios":"levelo://app?vid=85a4d785-eafc-4fa0-94df-a5576a198071"},"vehicle_type_id":"4","last_reported":1750335685,"current_range_meters":2000,"station_id":"ce4bhh12rcd13ifvqfg0","pricing_plan_id":"cebpf4jnsgd1na2vs0mg"},{"bike_id":"7404b8d6-37a3-4b5f-baaf-842f1df26e4c","system_id":"levelo_inurba_marseille","lat":43.23064,"lon":5.35493,"is_reserved":false,"is_disabled":true,"rental_uris":{"android":"levelo://app?vid=7404b8d6-37a3-4b5f-baaf-842f1df26e4c","ios":"levelo://app?vid=7404b8d6-37a3-4b5f-baaf-842f1df26e4c"},"vehicle_type_id":"4","last_reported":1750335685,"current_range_meters":2000,"station_id":"cpo3342slgdg3j2ifvpg","pricing_plan_id":"cebpf4jnsgd1na2vs0mg"},{"bike_id":"faf60bfe-e22c-4191-934d-a383e53b8277","system_id":"levelo_inurba_marseille","lat":43.28445,"lon":5.39212,"is_reserved":false,"is_disabled":false,"rental_uris":{"android":"levelo://app?vid=faf60bfe-e22c-4191-934d-a383e53b8277","ios":"levelo://app?vid=faf60bfe-e22c-4191-934d-a383e53b8277"},"vehicle_type_id":"4","last_reported":1750335685,"current_range_meters":2800,"station_id":"ce4bhoh2rcd13ifvqh5g","pricing_plan_id":"cebpf4jnsgd1na2vs0mg"},{"bike_id":"d8fcefc3-d5dc-4294-9d7a-3e71bacfd01d","system_id":"levelo_inurba_marseille","lat":43.29855,"lon":5.36285,"is_reserved":false,"is_disabled":false,"rental_uris":{"android":"levelo://app?vid=d8fcefc3-d5dc-4294-9d7a-3e71bacfd01d","ios":"levelo://app?vid=d8fcefc3-d5dc-4294-9d7a-3e71bacfd01d"},"vehicle_type_id":"4","last_reported":1750335685,"current_range_meters":3200,"station_id":"ce4bgpp2rcd13ifvqc3g","pricing_plan_id":"cebpf4jnsgd1na2vs0mg"},{"bike_id":"af6f6b0a-f63e-46ab-a78e-a6fe161d52d0","system_id":"levelo_inurba_marseille","lat":43.29971,"lon":5.37175,"is_reserved":false,"is_disabled":false,"rental_uris":{"android":"levelo://app?vid=af6f6b0a-f63e-46ab-a78e-a6fe161d52d0","ios":"levelo://app?vid=af6f6b0a-f63e-46ab-a78e-a6fe161d52d0"},"vehicle_type_id":"4","last_reported":1750335685,"current_range_meters":3200,"station_id":"ce4bgr92rcd13ifvqc7g","pricing_plan_id":"cebpf4jnsgd1na2vs0mg"},{"bike_id":"ec01be80-b228-49a9-bb2c-57dc2fb1f199","system_id":"levelo_inurba_marseille","lat":43.27275,"lon":5.40965,"is_reserved":false,"is_disabled":false,"rental_uris":{"android":"levelo://app?vid=ec01be80-b228-49a9-bb2c-57dc2fb1f199","ios":"levelo://app?vid=ec01be80-b228-49a9-bb2c-57dc2fb1f199"},"vehicle_type_id":"4","last_reported":1750335685,"current_range_meters":3600,"station_id":"","pricing_plan_id":"cebpf4jnsgd1na2vs0mg"},{"bike_id":"23c514c0-8f50-42b0-9dd0-42f7eae02f8f","system_id":"levelo_inurba_marseille","lat":43.29624,"lon":5.377198,"is_reserved":false,"is_disabled":false,"rental_uris":{"android":"levelo://app?vid=23c514c0-8f50-42b0-9dd0-42f7eae02f8f","ios":"levelo://app?vid=23c514c0-8f50-42b0-9dd0-42f7eae02f8f"},"vehicle_type_id":"4","last_reported":1750335685,"current_range_meters":3600,"station_id":"ce4bgi92rcd13ifvqb90","pricing_plan_id":"cebpf4jnsgd1na2vs0mg"},{"bike_id":"820df921-69fc-426c-b325-82acf4918bb0","system_id":"levelo_inurba_marseille","lat":43.30604,"lon":5.372023,"is_reserved":false,"is_disabled":false,"rental_uris":{"android":"levelo://app?vid=820df921-69fc-426c-b325-82acf4918bb0","ios":"levelo://app?vid=820df921-69fc-426c-b325-82acf4918bb0"},"vehicle_type_id":"4","last_reported":1750335685,"current_range_meters":3600,"station_id":"ce4bgqh2rcd13ifvqc4g","pricing_plan_id":"cebpf4jnsgd1na2vs0mg"},{"bike_id":"c50331f5-7fa7-41a9-9384-d85af1f90f30","system_id":"levelo_inurba_marseille","lat":43.30931,"lon":5.401018,"is_reserved":false,"is_disabled":false,"rental_uris":{"android":"levelo://app?vid=c50331f5-7fa7-41a9-9384-d85af1f90f30","ios":"levelo://app?vid=c50331f5-7fa7-41a9-9384-d85af1f90f30"},"vehicle_type_id":"4","last_reported":1750335685,"current_range_meters":3600,"station_id":"ce4bgvp2rcd13ifvqct0","pricing_plan_id":"cebpf4jnsgd1na2vs0mg"},{"bike_id":"4b6da5d0-5bd4-471d-9ef9-cae1bedfca82","system_id":"levelo_inurba_marseille","lat":43.28709,"lon":5.37941,"is_reserved":false,"is_disabled":false,"rental_uris":{"android":"levelo://app?vid=4b6da5d0-5bd4-471d-9ef9-cae1bedfca82","ios":"levelo://app?vid=4b6da5d0-5bd4-471d-9ef9-cae1bedfca82"},"vehicle_type_id":"4","last_reported":1750335685,"current_range_meters":3600,"station_id":"ce4bh9p2rcd13ifvqec0","pricing_plan_id":"cebpf4jnsgd1na2vs0mg"},{"bike_id":"8649f32c-eb06-49b5-a13c-b5e748007f9e","system_id":"levelo_inurba_marseille","lat":43.28041,"lon":5.36944,"is_reserved":false,"is_disabled":false,"rental_uris":{"android":"levelo://app?vid=8649f32c-eb06-49b5-a13c-b5e748007f9e","ios":"levelo://app?vid=8649f32c-eb06-49b5-a13c-b5e748007f9e"},"vehicle_type_id":"4","last_reported":1750335685,"current_range_meters":3600,"station_id":"ce4bha12rcd13ifvqef0","pricing_plan_id":"cebpf4jnsgd1na2vs0mg"},{"bike_id":"7686f982-1b40-476d-b045-3b0775bc8955","system_id":"levelo_inurba_marseille","lat":43.2656,"lon":5.37273,"is_reserved":false,"is_disabled":false,"rental_uris":{"android":"levelo://app?vid=7686f982-1b40-476d-b045-3b0775bc8955","ios":"levelo://app?vid=7686f982-1b40-476d-b045-3b0775bc8955"},"vehicle_type_id":"4","last_reported":1750335685,"current_range_meters":3600,"station_id":"ce4bhg12rcd13ifvqf70","pricing_plan_id":"cebpf4jnsgd1na2vs0mg"},{"bike_id":"558aef2f-bcc5-4811-a4b3-094a1b9ffa02","system_id":"levelo_inurba_marseille","lat":43.2622,"lon":5.37443,"is_reserved":false,"is_disabled":false,"rental_uris":{"android":"levelo://app?vid=558aef2f-bcc5-4811-a4b3-094a1b9ffa02","ios":"levelo://app?vid=558aef2f-bcc5-4811-a4b3-094a1b9ffa02"},"vehicle_type_id":"4","last_reported":1750335685,"current_range_meters":3600,"station_id":"ce4bhgp2rcd13ifvqfc0","pricing_plan_id":"cebpf4jnsgd1na2vs0mg"},{"bike_id":"b5002037-f4b0-4634-8bc4-796d0c74810e","system_id":"levelo_inurba_marseille","lat":43.24354,"lon":5.41138,"is_reserved":false,"is_disabled":false,"rental_uris":{"android":"levelo://app?vid=b5002037-f4b0-4634-8bc4-796d0c74810e","ios":"levelo://app?vid=b5002037-f4b0-4634-8bc4-796d0c74810e"},"vehicle_type_id":"4","last_reported":1750335685,"current_range_meters":4000,"station_id":"","pricing_plan_id":"cebpf4jnsgd1na2vs0mg"},{"bike_id":"80d06c7e-b8eb-4c40-8025-731ab94def9d","system_id":"levelo_inurba_marseille","lat":43.24808,"lon":5.37451,"is_reserved":false,"is_disabled":false,"rental_uris":{"android":"levelo://app?vid=80d06c7e-b8eb-4c40-8025-731ab94def9d","ios":"levelo://app?vid=80d06c7e-b8eb-4c40-8025-731ab94def9d"},"vehicle_type_id":"4","last_reported":1750335685,"current_range_meters":4000,"station_id":"ce4bhgh2rcd13ifvqfb0","pricing_plan_id":"cebpf4jnsgd1na2vs0mg"},{"bike_id":"ba2357c6-21a1-4f06-a900-0bb2aeaad94d","system_id":"levelo_inurba_marseille","lat":43.29917,"lon":5.37473,"is_reserved":false,"is_disabled":false,"rental_uris":{"android":"levelo://app?vid=ba2357c6-21a1-4f06-a900-0bb2aeaad94d","ios":"levelo://app?vid=ba2357c6-21a1-4f06-a900-0bb2aeaad94d"},"vehicle_type_id":"4","last_reported":1750335685,"current_range_meters":4400,"station_id":"ce4bgjh2rcd13ifvqbg0","pricing_plan_id":"cebpf4jnsgd1na2vs0mg"},{"bike_id":"e245835e-8f00-416d-9e41-0984fbfdc273","system_id":"levelo_inurba_marseille","lat":43.29264,"lon":5.3686,"is_reserved":false,"is_disabled":false,"rental_uris":{"android":"levelo://app?vid=e245835e-8f00-416d-9e41-0984fbfdc273","ios":"levelo://app?vid=e245835e-8f00-416d-9e41-0984fbfdc273"},"vehicle_type_id":"4","last_reported":1750335685,"current_range_meters":4400,"station_id":"ce4bhbp2rcd13ifvqesg","pricing_plan_id":"cebpf4jnsgd1na2vs0mg"},{"bike_id":"24cf35e7-6ce2-40bb-bdba-7e39f913bd07","system_id":"levelo_inurba_marseille","lat":43.28621,"lon":5.3509,"is_reserved":false,"is_disabled":false,"rental_uris":{"android":"levelo://app?vid=24cf35e7-6ce2-40bb-bdba-7e39f913bd07","ios":"levelo://app?vid=24cf35e7-6ce2-40bb-bdba-7e39f913bd07"},"vehicle_type_id":"4","last_reported":1750335685,"current_range_meters":4800,"station_id":"ce4bhch2rcd13ifvqeug","pricing_plan_id":"cebpf4jnsgd1na2vs0mg"},{"bike_id":"b5c0c8c5-c164-4e5e-b6b5-1d9ce83a8b5f","system_id":"levelo_inurba_marseille","lat":43.28483,"lon":5.38419,"is_reserved":false,"is_disabled":false,"rental_uris":{"android":"levelo://app?vid=b5c0c8c5-c164-4e5e-b6b5-1d9ce83a8b5f","ios":"levelo://app?vid=b5c0c8c5-c164-4e5e-b6b5-1d9ce83a8b5f"},"vehicle_type_id":"4","last_reported":1750335685,"current_range_meters":6000,"station_id":"ce4bh512rcd13ifvqe3g","pricing_plan_id":"cebpf4jnsgd1na2vs0mg"},{"bike_id":"ca7fa57f-9755-4c17-a606-9f6a51e32ebf","system_id":"levelo_inurba_marseille","lat":43.30386,"lon":5.38114,"is_reserved":false,"is_disabled":false,"rental_uris":{"android":"levelo://app?vid=ca7fa57f-9755-4c17-a606-9f6a51e32ebf","ios":"levelo://app?vid=ca7fa57f-9755-4c17-a606-9f6a51e32ebf"},"vehicle_type_id":"4","last_reported":1750335685,"current_range_meters":6400,"station_id":"","pricing_plan_id":"cebpf4jnsgd1na2vs0mg"},{"bike_id":"11e4bfb6-427c-4728-a17f-3ad89592b92c","system_id":"levelo_inurba_marseille","lat":43.30539,"lon":5.36719,"is_reserved":false,"is_disabled":false,"rental_uris":{"android":"levelo://app?vid=11e4bfb6-427c-4728-a17f-3ad89592b92c","ios":"levelo://app?vid=11e4bfb6-427c-4728-a17f-3ad89592b92c"},"vehicle_type_id":"4","last_reported":1750335685,"current_range_meters":6400,"station_id":"ce4bgrp2rcd13ifvqc9g","pricing_plan_id":"cebpf4jnsgd1na2vs0mg"},{"bike_id":"1d69c2ca-9971-4797-80cd-3af9330105d6","system_id":"levelo_inurba_marseille","lat":43.27312,"lon":5.39088,"is_reserved":false,"is_disabled":false,"rental_uris":{"android":"levelo://app?vid=1d69c2ca-9971-4797-80cd-3af9330105d6","ios":"levelo://app?vid=1d69c2ca-9971-4797-80cd-3af9330105d6"},"vehicle_type_id":"4","last_reported":1750335685,"current_range_meters":6400,"station_id":"ce4bhgp2rcd13ifvqfe0","pricing_plan_id":"cebpf4jnsgd1na2vs0mg"},{"bike_id":"4bce2d9f-00f2-4e1e-88c5-afeeff028a4e","system_id":"levelo_inurba_marseille","lat":43.28438,"lon":5.39176,"is_reserved":false,"is_disabled":false,"rental_uris":{"android":"levelo://app?vid=4bce2d9f-00f2-4e1e-88c5-afeeff028a4e","ios":"levelo://app?vid=4bce2d9f-00f2-4e1e-88c5-afeeff028a4e"},"vehicle_type_id":"4","last_reported":1750335685,"current_range_meters":6400,"station_id":"ce4bhoh2rcd13ifvqh5g","pricing_plan_id":"cebpf4jnsgd1na2vs0mg"},{"bike_id":"23f3feed-e6a0-4a28-bf48-8571d41ec480","system_id":"levelo_inurba_marseille","lat":43.31538,"lon":5.37495,"is_reserved":false,"is_disabled":false,"rental_uris":{"android":"levelo://app?vid=23f3feed-e6a0-4a28-bf48-8571d41ec480","ios":"levelo://app?vid=23f3feed-e6a0-4a28-bf48-8571d41ec480"},"vehicle_type_id":"4","last_reported":1750335685,"current_range_meters":6800,"station_id":"","pricing_plan_id":"cebpf4jnsgd1na2vs0mg"},{"bike_id":"6640517b-d519-4976-be62-00401593ee25","system_id":"levelo_inurba_marseille","lat":43.331,"lon":5.38138,"is_reserved":false,"is_disabled":false,"rental_uris":{"android":"levelo://app?vid=6640517b-d519-4976-be62-00401593ee25","ios":"levelo://app?vid=6640517b-d519-4976-be62-00401593ee25"},"vehicle_type_id":"4","last_reported":1750335685,"current_range_meters":6800,"station_id":"","pricing_plan_id":"cebpf4jnsgd1na2vs0mg"},{"bike_id":"f5574ec8-9f91-4eb0-8be9-00714049b066","system_id":"levelo_inurba_marseille","lat":43.24999,"lon":5.38934,"is_reserved":false,"is_disabled":false,"rental_uris":{"android":"levelo://app?vid=f5574ec8-9f91-4eb0-8be9-00714049b066","ios":"levelo://app?vid=f5574ec8-9f91-4eb0-8be9-00714049b066"},"vehicle_type_id":"4","last_reported":1750335685,"current_range_meters":6800,"station_id":"ce4bhgp2rcd13ifvqfd0","pricing_plan_id":"cebpf4jnsgd1na2vs0mg"},{"bike_id":"d94e434a-0255-4c09-a4a4-afa7476f5846","system_id":"levelo_inurba_marseille","lat":43.2586,"lon":5.39904,"is_reserved":false,"is_disabled":false,"rental_uris":{"android":"levelo://app?vid=d94e434a-0255-4c09-a4a4-afa7476f5846","ios":"levelo://app?vid=d94e434a-0255-4c09-a4a4-afa7476f5846"},"vehicle_type_id":"4","last_reported":1750335685,"current_range_meters":6800,"station_id":"ce4bhl92rcd13ifvqghg","pricing_plan_id":"cebpf4jnsgd1na2vs0mg"},{"bike_id":"5758f02d-ab77-4076-9ccd-2538e67f35b9","system_id":"levelo_inurba_marseille","lat":43.301363,"lon":5.3798,"is_reserved":false,"is_disabled":false,"rental_uris":{"android":"levelo://app?vid=5758f02d-ab77-4076-9ccd-2538e67f35b9","ios":"levelo://app?vid=5758f02d-ab77-4076-9ccd-2538e67f35b9"},"vehicle_type_id":"4","last_reported":1750335685,"current_range_meters":7200,"station_id":"","pricing_plan_id":"cebpf4jnsgd1na2vs0mg"},{"bike_id":"de0f7c2b-5974-4035-a240-8ed367c0e3f3","system_id":"levelo_inurba_marseille","lat":43.31966,"lon":5.37624,"is_reserved":false,"is_disabled":false,"rental_uris":{"android":"levelo://app?vid=de0f7c2b-5974-4035-a240-8ed367c0e3f3","ios":"levelo://app?vid=de0f7c2b-5974-4035-a240-8ed367c0e3f3"},"vehicle_type_id":"4","last_reported":1750335685,"current_range_meters":7200,"station_id":"","pricing_plan_id":"cebpf4jnsgd1na2vs0mg"},{"bike_id":"99d78f21-46d6-4c6a-b5fb-97c162e4c5e4","system_id":"levelo_inurba_marseille","lat":43.28471,"lon":5.35902,"is_reserved":false,"is_disabled":false,"rental_uris":{"android":"levelo://app?vid=99d78f21-46d6-4c6a-b5fb-97c162e4c5e4","ios":"levelo://app?vid=99d78f21-46d6-4c6a-b5fb-97c162e4c5e4"},"vehicle_type_id":"4","last_reported":1750335685,"current_range_meters":7200,"station_id":"ce4bhah2rcd13ifvqei0","pricing_plan_id":"cebpf4jnsgd1na2vs0mg"},{"bike_id":"b2631a10-f8bd-436d-858c-92a4f155e535","system_id":"levelo_inurba_marseille","lat":43.28414,"lon":5.34982,"is_reserved":false,"is_disabled":false,"rental_uris":{"android":"levelo://app?vid=b2631a10-f8bd-436d-858c-92a4f155e535","ios":"levelo://app?vid=b2631a10-f8bd-436d-858c-92a4f155e535"},"vehicle_type_id":"4","last_reported":1750335685,"current_range_meters":7200,"station_id":"ce4bhbh2rcd13ifvqepg","pricing_plan_id":"cebpf4jnsgd1na2vs0mg"},{"bike_id":"d35c1836-39ef-4329-a863-7fc20f7d9bff","system_id":"levelo_inurba_marseille","lat":43.28625,"lon":5.35103,"is_reserved":false,"is_disabled":false,"rental_uris":{"android":"levelo://app?vid=d35c1836-39ef-4329-a863-7fc20f7d9bff","ios":"levelo://app?vid=d35c1836-39ef-4329-a863-7fc20f7d9bff"},"vehicle_type_id":"4","last_reported":1750335685,"current_range_meters":7200,"station_id":"ce4bhch2rcd13ifvqeug","pricing_plan_id":"cebpf4jnsgd1na2vs0mg"},{"bike_id":"5b7f8f71-a7a9-4171-b3e2-bdc9bbeaa3b5","system_id":"levelo_inurba_marseille","lat":43.28633,"lon":5.35163,"is_reserved":false,"is_disabled":false,"rental_uris":{"android":"levelo://app?vid=5b7f8f71-a7a9-4171-b3e2-bdc9bbeaa3b5","ios":"levelo://app?vid=5b7f8f71-a7a9-4171-b3e2-bdc9bbeaa3b5"},"vehicle_type_id":"4","last_reported":1750335685,"current_range_meters":7200,"station_id":"ce4bhch2rcd13ifvqeug","pricing_plan_id":"cebpf4jnsgd1na2vs0mg"},{"bike_id":"c5739b8c-5134-49d9-aa1f-684011232cbc","system_id":"levelo_inurba_marseille","lat":43.31688,"lon":5.40475,"is_reserved":false,"is_disabled":false,"rental_uris":{"android":"levelo://app?vid=c5739b8c-5134-49d9-aa1f-684011232cbc","ios":"levelo://app?vid=c5739b8c-5134-49d9-aa1f-684011232cbc"},"vehicle_type_id":"4","last_reported":1750335685,"current_range_meters":8000,"station_id":"ce4bh012rcd13ifvqd00","pricing_plan_id":"cebpf4jnsgd1na2vs0mg"},{"bike_id":"8382f313-446c-40d5-929b-059a64febcb7","system_id":"levelo_inurba_marseille","lat":43.27377,"lon":5.36264,"is_reserved":false,"is_disabled":false,"rental_uris":{"android":"levelo://app?vid=8382f313-446c-40d5-929b-059a64febcb7","ios":"levelo://app?vid=8382f313-446c-40d5-929b-059a64febcb7"},"vehicle_type_id":"4","last_reported":1750335685,"current_range_meters":8000,"station_id":"ce4bhbh2rcd13ifvqeo0","pricing_plan_id":"cebpf4jnsgd1na2vs0mg"},{"bike_id":"78289a79-db45-470a-ba5b-c5b6a7b7831f","system_id":"levelo_inurba_marseille","lat":43.2841,"lon":5.34997,"is_reserved":false,"is_disabled":false,"rental_uris":{"android":"levelo://app?vid=78289a79-db45-470a-ba5b-c5b6a7b7831f","ios":"levelo://app?vid=78289a79-db45-470a-ba5b-c5b6a7b7831f"},"vehicle_type_id":"4","last_reported":1750335685,"current_range_meters":8000,"station_id":"ce4bhbh2rcd13ifvqepg","pricing_plan_id":"cebpf4jnsgd1na2vs0mg"},{"bike_id":"dfb5f012-f5b4-4029-a915-6fb664bbe6a4","system_id":"levelo_inurba_marseille","lat":43.252876,"lon":5.394505,"is_reserved":false,"is_disabled":false,"rental_uris":{"android":"levelo://app?vid=dfb5f012-f5b4-4029-a915-6fb664bbe6a4","ios":"levelo://app?vid=dfb5f012-f5b4-4029-a915-6fb664bbe6a4"},"vehicle_type_id":"4","last_reported":1750335685,"current_range_meters":8400,"station_id":"","pricing_plan_id":"cebpf4jnsgd1na2vs0mg"},{"bike_id":"42a11c52-81ca-4ac4-8090-d9226353ae0e","system_id":"levelo_inurba_marseille","lat":43.29577,"lon":5.36763,"is_reserved":false,"is_disabled":false,"rental_uris":{"android":"levelo://app?vid=42a11c52-81ca-4ac4-8090-d9226353ae0e","ios":"levelo://app?vid=42a11c52-81ca-4ac4-8090-d9226353ae0e"},"vehicle_type_id":"4","last_reported":1750335685,"current_range_meters":8400,"station_id":"ce4bgph2rcd13ifvqc2g","pricing_plan_id":"cebpf4jnsgd1na2vs0mg"},{"bike_id":"3edfb1ae-1ef0-4754-bc42-7c4f579bd69b","system_id":"levelo_inurba_marseille","lat":43.29584,"lon":5.3675,"is_reserved":false,"is_disabled":false,"rental_uris":{"android":"levelo://app?vid=3edfb1ae-1ef0-4754-bc42-7c4f579bd69b","ios":"levelo://app?vid=3edfb1ae-1ef0-4754-bc42-7c4f579bd69b"},"vehicle_type_id":"4","last_reported":1750335685,"current_range_meters":8400,"station_id":"ce4bgph2rcd13ifvqc2g","pricing_plan_id":"cebpf4jnsgd1na2vs0mg"},{"bike_id":"af644189-5fbc-4167-8b28-5e301d46a22b","system_id":"levelo_inurba_marseille","lat":43.28979,"lon":5.37825,"is_reserved":false,"is_disabled":false,"rental_uris":{"android":"levelo://app?vid=af644189-5fbc-4167-8b28-5e301d46a22b","ios":"levelo://app?vid=af644189-5fbc-4167-8b28-5e301d46a22b"},"vehicle_type_id":"4","last_reported":1750335685,"current_range_meters":8400,"station_id":"ce4bh9p2rcd13ifvqed0","pricing_plan_id":"cebpf4jnsgd1na2vs0mg"},{"bike_id":"713aed7e-8d2d-40cd-bdbe-3628c5418e8f","system_id":"levelo_inurba_marseille","lat":43.28947,"lon":5.36627,"is_reserved":false,"is_disabled":false,"rental_uris":{"android":"levelo://app?vid=713aed7e-8d2d-40cd-bdbe-3628c5418e8f","ios":"levelo://app?vid=713aed7e-8d2d-40cd-bdbe-3628c5418e8f"},"vehicle_type_id":"4","last_reported":1750335685,"current_range_meters":8400,"station_id":"ce4bhap2rcd13ifvqek0","pricing_plan_id":"cebpf4jnsgd1na2vs0mg"},{"bike_id":"a7c561af-e124-48c5-9ede-a055c2eb4920","system_id":"levelo_inurba_marseille","lat":43.26564,"lon":5.39023,"is_reserved":false,"is_disabled":false,"rental_uris":{"android":"levelo://app?vid=a7c561af-e124-48c5-9ede-a055c2eb4920","ios":"levelo://app?vid=a7c561af-e124-48c5-9ede-a055c2eb4920"},"vehicle_type_id":"4","last_reported":1750335685,"current_range_meters":8400,"station_id":"ce4bhe12rcd13ifvqf30","pricing_plan_id":"cebpf4jnsgd1na2vs0mg"},{"bike_id":"57bc9380-ab4f-430b-b372-14537d2e26e6","system_id":"levelo_inurba_marseille","lat":43.24392,"lon":5.37056,"is_reserved":false,"is_disabled":false,"rental_uris":{"android":"levelo://app?vid=57bc9380-ab4f-430b-b372-14537d2e26e6","ios":"levelo://app?vid=57bc9380-ab4f-430b-b372-14537d2e26e6"},"vehicle_type_id":"4","last_reported":1750335685,"current_range_meters":8400,"station_id":"ce4bhhh2rcd13ifvqfk0","pricing_plan_id":"cebpf4jnsgd1na2vs0mg"},{"bike_id":"c4be660b-68f5-49a6-87b4-bc5116e8021c","system_id":"levelo_inurba_marseille","lat":43.23153,"lon":5.4369,"is_reserved":false,"is_disabled":false,"rental_uris":{"android":"levelo://app?vid=c4be660b-68f5-49a6-87b4-bc5116e8021c","ios":"levelo://app?vid=c4be660b-68f5-49a6-87b4-bc5116e8021c"},"vehicle_type_id":"4","last_reported":1750335685,"current_range_meters":8400,"station_id":"ce4bhmp2rcd13ifvqgog","pricing_plan_id":"cebpf4jnsgd1na2vs0mg"},{"bike_id":"d48e515d-fca6-44e1-b1a1-4e56838cc94c","system_id":"levelo_inurba_marseille","lat":43.303787,"lon":5.424833,"is_reserved":false,"is_disabled":false,"rental_uris":{"android":"levelo://app?vid=d48e515d-fca6-44e1-b1a1-4e56838cc94c","ios":"levelo://app?vid=d48e515d-fca6-44e1-b1a1-4e56838cc94c"},"vehicle_type_id":"4","last_reported":1750335685,"current_range_meters":8400,"station_id":"ce4bhoh2rcd13ifvqh6g","pricing_plan_id":"cebpf4jnsgd1na2vs0mg"},{"bike_id":"415eec5b-ee26-45a0-9a68-c17d2ed59b8a","system_id":"levelo_inurba_marseille","lat":43.33732,"lon":5.39196,"is_reserved":false,"is_disabled":false,"rental_uris":{"android":"levelo://app?vid=415eec5b-ee26-45a0-9a68-c17d2ed59b8a","ios":"levelo://app?vid=415eec5b-ee26-45a0-9a68-c17d2ed59b8a"},"vehicle_type_id":"4","last_reported":1750335685,"current_range_meters":8400,"station_id":"ce4bhr92rcd13ifvqhsg","pricing_plan_id":"cebpf4jnsgd1na2vs0mg"},{"bike_id":"4b8da722-ee9e-48a4-a5e5-3a8a10364708","system_id":"levelo_inurba_marseille","lat":43.31214,"lon":5.37809,"is_reserved":false,"is_disabled":false,"rental_uris":{"android":"levelo://app?vid=4b8da722-ee9e-48a4-a5e5-3a8a10364708","ios":"levelo://app?vid=4b8da722-ee9e-48a4-a5e5-3a8a10364708"},"vehicle_type_id":"4","last_reported":1750335685,"current_range_meters":8800,"station_id":"","pricing_plan_id":"cebpf4jnsgd1na2vs0mg"},{"bike_id":"3518210a-6d90-482f-a11b-11cb7c94acd1","system_id":"levelo_inurba_marseille","lat":43.26431,"lon":5.39223,"is_reserved":false,"is_disabled":false,"rental_uris":{"android":"levelo://app?vid=3518210a-6d90-482f-a11b-11cb7c94acd1","ios":"levelo://app?vid=3518210a-6d90-482f-a11b-11cb7c94acd1"},"vehicle_type_id":"4","last_reported":1750335685,"current_range_meters":8800,"station_id":"","pricing_plan_id":"cebpf4jnsgd1na2vs0mg"},{"bike_id":"da794ecc-7ffc-4aac-aeb6-36fca201d161","system_id":"levelo_inurba_marseille","lat":43.29586,"lon":5.36749,"is_reserved":false,"is_disabled":false,"rental_uris":{"android":"levelo://app?vid=da794ecc-7ffc-4aac-aeb6-36fca201d161","ios":"levelo://app?vid=da794ecc-7ffc-4aac-aeb6-36fca201d161"},"vehicle_type_id":"4","last_reported":1750335685,"current_range_meters":8800,"station_id":"ce4bgph2rcd13ifvqc2g","pricing_plan_id":"cebpf4jnsgd1na2vs0mg"},{"bike_id":"2efe0a10-f93f-4584-92dc-4100ffa6186c","system_id":"levelo_inurba_marseille","lat":43.31713,"lon":5.37738,"is_reserved":false,"is_disabled":false,"rental_uris":{"android":"levelo://app?vid=2efe0a10-f93f-4584-92dc-4100ffa6186c","ios":"levelo://app?vid=2efe0a10-f93f-4584-92dc-4100ffa6186c"},"vehicle_type_id":"4","last_reported":1750335685,"current_range_meters":8800,"station_id":"ce4bgth2rcd13ifvqch0","pricing_plan_id":"cebpf4jnsgd1na2vs0mg"},{"bike_id":"aa1a404c-2407-4c40-9ed3-76d7e57975a6","system_id":"levelo_inurba_marseille","lat":43.29098,"lon":5.38121,"is_reserved":false,"is_disabled":false,"rental_uris":{"android":"levelo://app?vid=aa1a404c-2407-4c40-9ed3-76d7e57975a6","ios":"levelo://app?vid=aa1a404c-2407-4c40-9ed3-76d7e57975a6"},"vehicle_type_id":"4","last_reported":1750335685,"current_range_meters":8800,"station_id":"ce4bh512rcd13ifvqe2g","pricing_plan_id":"cebpf4jnsgd1na2vs0mg"},{"bike_id":"d8d246f7-9e27-47d1-b0b8-a8d584f30774","system_id":"levelo_inurba_marseille","lat":43.24062,"lon":5.37721,"is_reserved":false,"is_disabled":false,"rental_uris":{"android":"levelo://app?vid=d8d246f7-9e27-47d1-b0b8-a8d584f30774","ios":"levelo://app?vid=d8d246f7-9e27-47d1-b0b8-a8d584f30774"},"vehicle_type_id":"4","last_reported":1750335685,"current_range_meters":8800,"station_id":"ce4bhnp2rcd13ifvqgvg","pricing_plan_id":"cebpf4jnsgd1na2vs0mg"},{"bike_id":"44ef975f-ce25-41a1-a5cf-5dc802c453d7","system_id":"levelo_inurba_marseille","lat":43.31237,"lon":5.36877,"is_reserved":false,"is_disabled":false,"rental_uris":{"android":"levelo://app?vid=44ef975f-ce25-41a1-a5cf-5dc802c453d7","ios":"levelo://app?vid=44ef975f-ce25-41a1-a5cf-5dc802c453d7"},"vehicle_type_id":"4","last_reported":1750335685,"current_range_meters":9200,"station_id":"ce4bgl92rcd13ifvqbq0","pricing_plan_id":"cebpf4jnsgd1na2vs0mg"},{"bike_id":"aeb0e8d1-f928-4925-9e40-2f536807bd50","system_id":"levelo_inurba_marseille","lat":43.29857,"lon":5.36283,"is_reserved":false,"is_disabled":false,"rental_uris":{"android":"levelo://app?vid=aeb0e8d1-f928-4925-9e40-2f536807bd50","ios":"levelo://app?vid=aeb0e8d1-f928-4925-9e40-2f536807bd50"},"vehicle_type_id":"4","last_reported":1750335685,"current_range_meters":9200,"station_id":"ce4bgpp2rcd13ifvqc3g","pricing_plan_id":"cebpf4jnsgd1na2vs0mg"},{"bike_id":"d53081ab-20ce-4c9f-9889-070c4cfb6153","system_id":"levelo_inurba_marseille","lat":43.29863,"lon":5.36289,"is_reserved":false,"is_disabled":false,"rental_uris":{"android":"levelo://app?vid=d53081ab-20ce-4c9f-9889-070c4cfb6153","ios":"levelo://app?vid=d53081ab-20ce-4c9f-9889-070c4cfb6153"},"vehicle_type_id":"4","last_reported":1750335685,"current_range_meters":9200,"station_id":"ce4bgpp2rcd13ifvqc3g","pricing_plan_id":"cebpf4jnsgd1na2vs0mg"},{"bike_id":"b4f51bf8-ddd6-421d-8dc7-8bbfdc6c1211","system_id":"levelo_inurba_marseille","lat":43.27365,"lon":5.36236,"is_reserved":false,"is_disabled":false,"rental_uris":{"android":"levelo://app?vid=b4f51bf8-ddd6-421d-8dc7-8bbfdc6c1211","ios":"levelo://app?vid=b4f51bf8-ddd6-421d-8dc7-8bbfdc6c1211"},"vehicle_type_id":"4","last_reported":1750335685,"current_range_meters":9200,"station_id":"ce4bhbh2rcd13ifvqeo0","pricing_plan_id":"cebpf4jnsgd1na2vs0mg"},{"bike_id":"d7ade598-f6ee-4002-a997-ec0973db83fd","system_id":"levelo_inurba_marseille","lat":43.24805,"lon":5.37453,"is_reserved":false,"is_disabled":false,"rental_uris":{"android":"levelo://app?vid=d7ade598-f6ee-4002-a997-ec0973db83fd","ios":"levelo://app?vid=d7ade598-f6ee-4002-a997-ec0973db83fd"},"vehicle_type_id":"4","last_reported":1750335685,"current_range_meters":9200,"station_id":"ce4bhgh2rcd13ifvqfb0","pricing_plan_id":"cebpf4jnsgd1na2vs0mg"},{"bike_id":"eb888bd6-23c4-437d-b179-961e422db1bb","system_id":"levelo_inurba_marseille","lat":43.26498,"lon":5.39545,"is_reserved":false,"is_disabled":false,"rental_uris":{"android":"levelo://app?vid=eb888bd6-23c4-437d-b179-961e422db1bb","ios":"levelo://app?vid=eb888bd6-23c4-437d-b179-961e422db1bb"},"vehicle_type_id":"4","last_reported":1750335685,"current_range_meters":9200,"station_id":"ce4bhi12rcd13ifvqfq0","pricing_plan_id":"cebpf4jnsgd1na2vs0mg"},{"bike_id":"9f098556-208b-45ea-a707-63e94afc17d7","system_id":"levelo_inurba_marseille","lat":43.28161,"lon":5.4263,"is_reserved":false,"is_disabled":false,"rental_uris":{"android":"levelo://app?vid=9f098556-208b-45ea-a707-63e94afc17d7","ios":"levelo://app?vid=9f098556-208b-45ea-a707-63e94afc17d7"},"vehicle_type_id":"4","last_reported":1750335685,"current_range_meters":9200,"station_id":"ce4bhnh2rcd13ifvqgug","pricing_plan_id":"cebpf4jnsgd1na2vs0mg"},{"bike_id":"0dedb6f6-6801-483b-bfb8-9cd4533d158f","system_id":"levelo_inurba_marseille","lat":43.31165,"lon":5.38107,"is_reserved":false,"is_disabled":false,"rental_uris":{"android":"levelo://app?vid=0dedb6f6-6801-483b-bfb8-9cd4533d158f","ios":"levelo://app?vid=0dedb6f6-6801-483b-bfb8-9cd4533d158f"},"vehicle_type_id":"4","last_reported":1750335685,"current_range_meters":9600,"station_id":"","pricing_plan_id":"cebpf4jnsgd1na2vs0mg"},{"bike_id":"7133e2d5-2e6d-4948-ba4a-45aef4edaee0","system_id":"levelo_inurba_marseille","lat":43.3033,"lon":5.40439,"is_reserved":false,"is_disabled":false,"rental_uris":{"android":"levelo://app?vid=7133e2d5-2e6d-4948-ba4a-45aef4edaee0","ios":"levelo://app?vid=7133e2d5-2e6d-4948-ba4a-45aef4edaee0"},"vehicle_type_id":"4","last_reported":1750335685,"current_range_meters":9600,"station_id":"ce4bh012rcd13ifvqd10","pricing_plan_id":"cebpf4jnsgd1na2vs0mg"},{"bike_id":"8157647b-2312-412e-a389-12bdabca6e8c","system_id":"levelo_inurba_marseille","lat":43.281087,"lon":5.378028,"is_reserved":false,"is_disabled":false,"rental_uris":{"android":"levelo://app?vid=8157647b-2312-412e-a389-12bdabca6e8c","ios":"levelo://app?vid=8157647b-2312-412e-a389-12bdabca6e8c"},"vehicle_type_id":"4","last_reported":1750335685,"current_range_meters":9600,"station_id":"ce4bha12rcd13ifvqee0","pricing_plan_id":"cebpf4jnsgd1na2vs0mg"},{"bike_id":"e4e21dfc-b50a-4f28-aaa2-2c5062c70d31","system_id":"levelo_inurba_marseille","lat":43.232019,"lon":5.355479,"is_reserved":false,"is_disabled":false,"rental_uris":{"android":"levelo://app?vid=e4e21dfc-b50a-4f28-aaa2-2c5062c70d31","ios":"levelo://app?vid=e4e21dfc-b50a-4f28-aaa2-2c5062c70d31"},"vehicle_type_id":"4","last_reported":1750335685,"current_range_meters":10000,"station_id":"ce4bhu92rcd13ifvqi70","pricing_plan_id":"cebpf4jnsgd1na2vs0mg"},{"bike_id":"534efeb1-9846-4aee-8130-df4d28e740dd","system_id":"levelo_inurba_marseille","lat":43.29822,"lon":5.41622,"is_reserved":false,"is_disabled":false,"rental_uris":{"android":"levelo://app?vid=534efeb1-9846-4aee-8130-df4d28e740dd","ios":"levelo://app?vid=534efeb1-9846-4aee-8130-df4d28e740dd"},"vehicle_type_id":"4","last_reported":1750335685,"current_range_meters":10800,"station_id":"","pricing_plan_id":"cebpf4jnsgd1na2vs0mg"},{"bike_id":"0c51fc3b-3c3d-444d-ac8d-638501356d80","system_id":"levelo_inurba_marseille","lat":43.30327,"lon":5.36909,"is_reserved":false,"is_disabled":false,"rental_uris":{"android":"levelo://app?vid=0c51fc3b-3c3d-444d-ac8d-638501356d80","ios":"levelo://app?vid=0c51fc3b-3c3d-444d-ac8d-638501356d80"},"vehicle_type_id":"4","last_reported":1750335685,"current_range_meters":10800,"station_id":"ce4bgqh2rcd13ifvqc5g","pricing_plan_id":"cebpf4jnsgd1na2vs0mg"},{"bike_id":"d172666c-19a1-4dca-8677-d2655dbe2450","system_id":"levelo_inurba_marseille","lat":43.28856,"lon":5.35864,"is_reserved":false,"is_disabled":false,"rental_uris":{"android":"levelo://app?vid=d172666c-19a1-4dca-8677-d2655dbe2450","ios":"levelo://app?vid=d172666c-19a1-4dca-8677-d2655dbe2450"},"vehicle_type_id":"4","last_reported":1750335685,"current_range_meters":10800,"station_id":"ce4bhb12rcd13ifvqem0","pricing_plan_id":"cebpf4jnsgd1na2vs0mg"},{"bike_id":"c7d37daa-765c-4dfb-8f57-5cc8f8195a79","system_id":"levelo_inurba_marseille","lat":43.28421,"lon":5.34991,"is_reserved":false,"is_disabled":false,"rental_uris":{"android":"levelo://app?vid=c7d37daa-765c-4dfb-8f57-5cc8f8195a79","ios":"levelo://app?vid=c7d37daa-765c-4dfb-8f57-5cc8f8195a79"},"vehicle_type_id":"4","last_reported":1750335685,"current_range_meters":10800,"station_id":"ce4bhbh2rcd13ifvqepg","pricing_plan_id":"cebpf4jnsgd1na2vs0mg"},{"bike_id":"8dea601a-2ff6-4d1b-83da-2a5a677aa2d6","system_id":"levelo_inurba_marseille","lat":43.27164,"lon":5.40996,"is_reserved":false,"is_disabled":false,"rental_uris":{"android":"levelo://app?vid=8dea601a-2ff6-4d1b-83da-2a5a677aa2d6","ios":"levelo://app?vid=8dea601a-2ff6-4d1b-83da-2a5a677aa2d6"},"vehicle_type_id":"4","last_reported":1750335685,"current_range_meters":10800,"station_id":"ce4bhl12rcd13ifvqgf0","pricing_plan_id":"cebpf4jnsgd1na2vs0mg"},{"bike_id":"65be88d8-1132-4ab5-8053-668d0c8dc5a6","system_id":"levelo_inurba_marseille","lat":43.22919,"lon":5.35388,"is_reserved":false,"is_disabled":false,"rental_uris":{"android":"levelo://app?vid=65be88d8-1132-4ab5-8053-668d0c8dc5a6","ios":"levelo://app?vid=65be88d8-1132-4ab5-8053-668d0c8dc5a6"},"vehicle_type_id":"4","last_reported":1750335685,"current_range_meters":10800,"station_id":"cpo3532slgdg3j2ikp40","pricing_plan_id":"cebpf4jnsgd1na2vs0mg"},{"bike_id":"268aafb4-1331-426c-97bc-a7d6564caeb6","system_id":"levelo_inurba_marseille","lat":43.32933,"lon":5.37919,"is_reserved":false,"is_disabled":false,"rental_uris":{"android":"levelo://app?vid=268aafb4-1331-426c-97bc-a7d6564caeb6","ios":"levelo://app?vid=268aafb4-1331-426c-97bc-a7d6564caeb6"},"vehicle_type_id":"4","last_reported":1750335685,"current_range_meters":11200,"station_id":"","pricing_plan_id":"cebpf4jnsgd1na2vs0mg"},{"bike_id":"ce5bfaf9-abb5-4008-bcaf-8f5be06a7f39","system_id":"levelo_inurba_marseille","lat":43.27552,"lon":5.38434,"is_reserved":false,"is_disabled":false,"rental_uris":{"android":"levelo://app?vid=ce5bfaf9-abb5-4008-bcaf-8f5be06a7f39","ios":"levelo://app?vid=ce5bfaf9-abb5-4008-bcaf-8f5be06a7f39"},"vehicle_type_id":"4","last_reported":1750335685,"current_range_meters":11200,"station_id":"ce4bhh92rcd13ifvqfi0","pricing_plan_id":"cebpf4jnsgd1na2vs0mg"},{"bike_id":"f4d1b54d-a64b-42a6-8bb4-c7c15fb32aee","system_id":"levelo_inurba_marseille","lat":43.31758,"lon":5.39018,"is_reserved":false,"is_disabled":false,"rental_uris":{"android":"levelo://app?vid=f4d1b54d-a64b-42a6-8bb4-c7c15fb32aee","ios":"levelo://app?vid=f4d1b54d-a64b-42a6-8bb4-c7c15fb32aee"},"vehicle_type_id":"4","last_reported":1750335685,"current_range_meters":11200,"station_id":"ce4bhqp2rcd13ifvqhng","pricing_plan_id":"cebpf4jnsgd1na2vs0mg"},{"bike_id":"ec074c15-b334-41d3-bd7e-4617214fe6a1","system_id":"levelo_inurba_marseille","lat":43.33723,"lon":5.39193,"is_reserved":false,"is_disabled":false,"rental_uris":{"android":"levelo://app?vid=ec074c15-b334-41d3-bd7e-4617214fe6a1","ios":"levelo://app?vid=ec074c15-b334-41d3-bd7e-4617214fe6a1"},"vehicle_type_id":"4","last_reported":1750335685,"current_range_meters":11200,"station_id":"ce4bhr92rcd13ifvqhsg","pricing_plan_id":"cebpf4jnsgd1na2vs0mg"},{"bike_id":"eaaa9fcd-34d4-4d0b-8f90-fbf605a0610f","system_id":"levelo_inurba_marseille","lat":43.21211,"lon":5.35051,"is_reserved":false,"is_disabled":false,"rental_uris":{"android":"levelo://app?vid=eaaa9fcd-34d4-4d0b-8f90-fbf605a0610f","ios":"levelo://app?vid=eaaa9fcd-34d4-4d0b-8f90-fbf605a0610f"},"vehicle_type_id":"4","last_reported":1750335685,"current_range_meters":11200,"station_id":"st_cvj6sg6p6f1abm77japg","pricing_plan_id":"cebpf4jnsgd1na2vs0mg"},{"bike_id":"3eb9992a-e24a-4ed3-bd44-5e035e6e973e","system_id":"levelo_inurba_marseille","lat":43.3131,"lon":5.37898,"is_reserved":false,"is_disabled":false,"rental_uris":{"android":"levelo://app?vid=3eb9992a-e24a-4ed3-bd44-5e035e6e973e","ios":"levelo://app?vid=3eb9992a-e24a-4ed3-bd44-5e035e6e973e"},"vehicle_type_id":"4","last_reported":1750335685,"current_range_meters":11600,"station_id":"","pricing_plan_id":"cebpf4jnsgd1na2vs0mg"},{"bike_id":"f025e0b0-8595-426c-b214-cb9b74c5fcfd","system_id":"levelo_inurba_marseille","lat":43.32212,"lon":5.40582,"is_reserved":false,"is_disabled":false,"rental_uris":{"android":"levelo://app?vid=f025e0b0-8595-426c-b214-cb9b74c5fcfd","ios":"levelo://app?vid=f025e0b0-8595-426c-b214-cb9b74c5fcfd"},"vehicle_type_id":"4","last_reported":1750335685,"current_range_meters":11600,"station_id":"","pricing_plan_id":"cebpf4jnsgd1na2vs0mg"},{"bike_id":"56fdfc4e-979c-4ed5-9885-57018d76de79","system_id":"levelo_inurba_marseille","lat":43.29401,"lon":5.42872,"is_reserved":false,"is_disabled":false,"rental_uris":{"android":"levelo://app?vid=56fdfc4e-979c-4ed5-9885-57018d76de79","ios":"levelo://app?vid=56fdfc4e-979c-4ed5-9885-57018d76de79"},"vehicle_type_id":"4","last_reported":1750335685,"current_range_meters":11600,"station_id":"","pricing_plan_id":"cebpf4jnsgd1na2vs0mg"},{"bike_id":"fb50b615-234a-4687-9aac-8cba0acb7e1c","system_id":"levelo_inurba_marseille","lat":43.29736,"lon":5.37693,"is_reserved":false,"is_disabled":false,"rental_uris":{"android":"levelo://app?vid=fb50b615-234a-4687-9aac-8cba0acb7e1c","ios":"levelo://app?vid=fb50b615-234a-4687-9aac-8cba0acb7e1c"},"vehicle_type_id":"4","last_reported":1750335685,"current_range_meters":11600,"station_id":"ce4bgkh2rcd13ifvqbl0","pricing_plan_id":"cebpf4jnsgd1na2vs0mg"},{"bike_id":"fffed376-205f-43a5-acfb-9e0aef224e5c","system_id":"levelo_inurba_marseille","lat":43.29739,"lon":5.37691,"is_reserved":false,"is_disabled":false,"rental_uris":{"android":"levelo://app?vid=fffed376-205f-43a5-acfb-9e0aef224e5c","ios":"levelo://app?vid=fffed376-205f-43a5-acfb-9e0aef224e5c"},"vehicle_type_id":"4","last_reported":1750335685,"current_range_meters":11600,"station_id":"ce4bgkh2rcd13ifvqbl0","pricing_plan_id":"cebpf4jnsgd1na2vs0mg"},{"bike_id":"8863b27a-fba8-436b-a830-f61a5b00ae7d","system_id":"levelo_inurba_marseille","lat":43.24806,"lon":5.37448,"is_reserved":false,"is_disabled":false,"rental_uris":{"android":"levelo://app?vid=8863b27a-fba8-436b-a830-f61a5b00ae7d","ios":"levelo://app?vid=8863b27a-fba8-436b-a830-f61a5b00ae7d"},"vehicle_type_id":"4","last_reported":1750335685,"current_range_meters":11600,"station_id":"ce4bhgh2rcd13ifvqfb0","pricing_plan_id":"cebpf4jnsgd1na2vs0mg"},{"bike_id":"4a9dccbf-5349-49cf-83a8-d2dcade9a12e","system_id":"levelo_inurba_marseille","lat":43.272066,"lon":5.391823,"is_reserved":false,"is_disabled":false,"rental_uris":{"android":"levelo://app?vid=4a9dccbf-5349-49cf-83a8-d2dcade9a12e","ios":"levelo://app?vid=4a9dccbf-5349-49cf-83a8-d2dcade9a12e"},"vehicle_type_id":"4","last_reported":1750335685,"current_range_meters":12000,"station_id":"","pricing_plan_id":"cebpf4jnsgd1na2vs0mg"},{"bike_id":"aa4db5c7-6b03-4094-82f9-b547a97c4be9","system_id":"levelo_inurba_marseille","lat":43.29725,"lon":5.37692,"is_reserved":false,"is_disabled":false,"rental_uris":{"android":"levelo://app?vid=aa4db5c7-6b03-4094-82f9-b547a97c4be9","ios":"levelo://app?vid=aa4db5c7-6b03-4094-82f9-b547a97c4be9"},"vehicle_type_id":"4","last_reported":1750335685,"current_range_meters":12000,"station_id":"ce4bgkh2rcd13ifvqbl0","pricing_plan_id":"cebpf4jnsgd1na2vs0mg"},{"bike_id":"1a603b7e-9c75-4b2b-80b2-90439f3dee3a","system_id":"levelo_inurba_marseille","lat":43.30788,"lon":5.3764,"is_reserved":false,"is_disabled":false,"rental_uris":{"android":"levelo://app?vid=1a603b7e-9c75-4b2b-80b2-90439f3dee3a","ios":"levelo://app?vid=1a603b7e-9c75-4b2b-80b2-90439f3dee3a"},"vehicle_type_id":"4","last_reported":1750335685,"current_range_meters":12000,"station_id":"ce4bgv92rcd13ifvqcq0","pricing_plan_id":"cebpf4jnsgd1na2vs0mg"},{"bike_id":"22b43b45-26b6-447c-9a75-f535ac2268d1","system_id":"levelo_inurba_marseille","lat":43.28405,"lon":5.34994,"is_reserved":false,"is_disabled":false,"rental_uris":{"android":"levelo://app?vid=22b43b45-26b6-447c-9a75-f535ac2268d1","ios":"levelo://app?vid=22b43b45-26b6-447c-9a75-f535ac2268d1"},"vehicle_type_id":"4","last_reported":1750335685,"current_range_meters":12000,"station_id":"ce4bhbh2rcd13ifvqepg","pricing_plan_id":"cebpf4jnsgd1na2vs0mg"},{"bike_id":"f55d922e-4270-4f55-b45a-13281d0413f5","system_id":"levelo_inurba_marseille","lat":43.31526,"lon":5.38035,"is_reserved":false,"is_disabled":false,"rental_uris":{"android":"levelo://app?vid=f55d922e-4270-4f55-b45a-13281d0413f5","ios":"levelo://app?vid=f55d922e-4270-4f55-b45a-13281d0413f5"},"vehicle_type_id":"4","last_reported":1750335685,"current_range_meters":12000,"station_id":"ce4bhsp2rcd13ifvqi50","pricing_plan_id":"cebpf4jnsgd1na2vs0mg"},{"bike_id":"3f740256-c4dd-4c99-9dd7-4545fd16128e","system_id":"levelo_inurba_marseille","lat":43.24168,"lon":5.36392,"is_reserved":false,"is_disabled":false,"rental_uris":{"android":"levelo://app?vid=3f740256-c4dd-4c99-9dd7-4545fd16128e","ios":"levelo://app?vid=3f740256-c4dd-4c99-9dd7-4545fd16128e"},"vehicle_type_id":"4","last_reported":1750335685,"current_range_meters":12000,"station_id":"cpo36qri1sfpv3e86is0","pricing_plan_id":"cebpf4jnsgd1na2vs0mg"},{"bike_id":"fa539cb2-e606-41f7-9ada-7a4ab7445948","system_id":"levelo_inurba_marseille","lat":43.29905,"lon":5.37493,"is_reserved":false,"is_disabled":false,"rental_uris":{"android":"levelo://app?vid=fa539cb2-e606-41f7-9ada-7a4ab7445948","ios":"levelo://app?vid=fa539cb2-e606-41f7-9ada-7a4ab7445948"},"vehicle_type_id":"4","last_reported":1750335685,"current_range_meters":12400,"station_id":"ce4bgjh2rcd13ifvqbg0","pricing_plan_id":"cebpf4jnsgd1na2vs0mg"},{"bike_id":"8af3f8d3-7b90-4cf2-a500-89a9eca80527","system_id":"levelo_inurba_marseille","lat":43.31509,"lon":5.37319,"is_reserved":false,"is_disabled":false,"rental_uris":{"android":"levelo://app?vid=8af3f8d3-7b90-4cf2-a500-89a9eca80527","ios":"levelo://app?vid=8af3f8d3-7b90-4cf2-a500-89a9eca80527"},"vehicle_type_id":"4","last_reported":1750335685,"current_range_meters":12400,"station_id":"ce4bgt12rcd13ifvqcd0","pricing_plan_id":"cebpf4jnsgd1na2vs0mg"},{"bike_id":"72e81e33-3fad-4800-ac15-b66b08b01053","system_id":"levelo_inurba_marseille","lat":43.31328,"lon":5.3969,"is_reserved":false,"is_disabled":false,"rental_uris":{"android":"levelo://app?vid=72e81e33-3fad-4800-ac15-b66b08b01053","ios":"levelo://app?vid=72e81e33-3fad-4800-ac15-b66b08b01053"},"vehicle_type_id":"4","last_reported":1750335685,"current_range_meters":12400,"station_id":"ce4bgvp2rcd13ifvqcu0","pricing_plan_id":"cebpf4jnsgd1na2vs0mg"},{"bike_id":"3f9377d5-553c-4dee-ab5f-2001752322cc","system_id":"levelo_inurba_marseille","lat":43.29008,"lon":5.35611,"is_reserved":false,"is_disabled":false,"rental_uris":{"android":"levelo://app?vid=3f9377d5-553c-4dee-ab5f-2001752322cc","ios":"levelo://app?vid=3f9377d5-553c-4dee-ab5f-2001752322cc"},"vehicle_type_id":"4","last_reported":1750335685,"current_range_meters":12400,"station_id":"ce4bhb92rcd13ifvqen0","pricing_plan_id":"cebpf4jnsgd1na2vs0mg"},{"bike_id":"4b6b2a2b-d3c4-4663-8ea1-de4eff39b7b2","system_id":"levelo_inurba_marseille","lat":43.21197,"lon":5.35075,"is_reserved":false,"is_disabled":false,"rental_uris":{"android":"levelo://app?vid=4b6b2a2b-d3c4-4663-8ea1-de4eff39b7b2","ios":"levelo://app?vid=4b6b2a2b-d3c4-4663-8ea1-de4eff39b7b2"},"vehicle_type_id":"4","last_reported":1750335685,"current_range_meters":12400,"station_id":"st_cvj6sg6p6f1abm77japg","pricing_plan_id":"cebpf4jnsgd1na2vs0mg"},{"bike_id":"5ed6bed3-531e-485b-a898-28852488d185","system_id":"levelo_inurba_marseille","lat":43.23155,"lon":5.43751,"is_reserved":false,"is_disabled":false,"rental_uris":{"android":"levelo://app?vid=5ed6bed3-531e-485b-a898-28852488d185","ios":"levelo://app?vid=5ed6bed3-531e-485b-a898-28852488d185"},"vehicle_type_id":"4","last_reported":1750335685,"current_range_meters":12800,"station_id":"ce4bhmp2rcd13ifvqgog","pricing_plan_id":"cebpf4jnsgd1na2vs0mg"},{"bike_id":"120313ea-a70f-48d0-90eb-072fcb2d4cd7","system_id":"levelo_inurba_marseille","lat":43.33752,"lon":5.39194,"is_reserved":false,"is_disabled":false,"rental_uris":{"android":"levelo://app?vid=120313ea-a70f-48d0-90eb-072fcb2d4cd7","ios":"levelo://app?vid=120313ea-a70f-48d0-90eb-072fcb2d4cd7"},"vehicle_type_id":"4","last_reported":1750335685,"current_range_meters":12800,"station_id":"ce4bhr92rcd13ifvqhsg","pricing_plan_id":"cebpf4jnsgd1na2vs0mg"},{"bike_id":"2c555767-5c9b-4c10-a745-6bbf5ccfa066","system_id":"levelo_inurba_marseille","lat":43.25399,"lon":5.37616,"is_reserved":false,"is_disabled":false,"rental_uris":{"android":"levelo://app?vid=2c555767-5c9b-4c10-a745-6bbf5ccfa066","ios":"levelo://app?vid=2c555767-5c9b-4c10-a745-6bbf5ccfa066"},"vehicle_type_id":"4","last_reported":1750335685,"current_range_meters":13600,"station_id":"","pricing_plan_id":"cebpf4jnsgd1na2vs0mg"},{"bike_id":"f22a4e09-6ce2-4dce-83b5-b13a30ff5f77","system_id":"levelo_inurba_marseille","lat":43.3025,"lon":5.38653,"is_reserved":false,"is_disabled":false,"rental_uris":{"android":"levelo://app?vid=f22a4e09-6ce2-4dce-83b5-b13a30ff5f77","ios":"levelo://app?vid=f22a4e09-6ce2-4dce-83b5-b13a30ff5f77"},"vehicle_type_id":"4","last_reported":1750335685,"current_range_meters":13600,"station_id":"","pricing_plan_id":"cebpf4jnsgd1na2vs0mg"},{"bike_id":"cfd641ec-4d0d-4c53-965b-c3c8d5966662","system_id":"levelo_inurba_marseille","lat":43.29901,"lon":5.38138,"is_reserved":false,"is_disabled":false,"rental_uris":{"android":"levelo://app?vid=cfd641ec-4d0d-4c53-965b-c3c8d5966662","ios":"levelo://app?vid=cfd641ec-4d0d-4c53-965b-c3c8d5966662"},"vehicle_type_id":"4","last_reported":1750335685,"current_range_meters":13600,"station_id":"ce4bgj12rcd13ifvqbc0","pricing_plan_id":"cebpf4jnsgd1na2vs0mg"},{"bike_id":"3f1126b3-c1da-4520-b452-e18f43b1737e","system_id":"levelo_inurba_marseille","lat":43.30145,"lon":5.37419,"is_reserved":false,"is_disabled":false,"rental_uris":{"android":"levelo://app?vid=3f1126b3-c1da-4520-b452-e18f43b1737e","ios":"levelo://app?vid=3f1126b3-c1da-4520-b452-e18f43b1737e"},"vehicle_type_id":"4","last_reported":1750335685,"current_range_meters":13600,"station_id":"ce4bgs92rcd13ifvqcc0","pricing_plan_id":"cebpf4jnsgd1na2vs0mg"},{"bike_id":"e12f99c0-6365-448a-a1fa-15da4ca6b448","system_id":"levelo_inurba_marseille","lat":43.28236,"lon":5.35084,"is_reserved":false,"is_disabled":false,"rental_uris":{"android":"levelo://app?vid=e12f99c0-6365-448a-a1fa-15da4ca6b448","ios":"levelo://app?vid=e12f99c0-6365-448a-a1fa-15da4ca6b448"},"vehicle_type_id":"4","last_reported":1750335685,"current_range_meters":13600,"station_id":"ce4bhbp2rcd13ifvqerg","pricing_plan_id":"cebpf4jnsgd1na2vs0mg"},{"bike_id":"93e8893e-3fc1-4202-b6c5-4e30be86373a","system_id":"levelo_inurba_marseille","lat":43.30391,"lon":5.42473,"is_reserved":false,"is_disabled":false,"rental_uris":{"android":"levelo://app?vid=93e8893e-3fc1-4202-b6c5-4e30be86373a","ios":"levelo://app?vid=93e8893e-3fc1-4202-b6c5-4e30be86373a"},"vehicle_type_id":"4","last_reported":1750335685,"current_range_meters":13600,"station_id":"ce4bhoh2rcd13ifvqh6g","pricing_plan_id":"cebpf4jnsgd1na2vs0mg"},{"bike_id":"0a68ea36-63eb-4e8b-a585-62ac0932352b","system_id":"levelo_inurba_marseille","lat":43.29615,"lon":5.37714,"is_reserved":false,"is_disabled":false,"rental_uris":{"android":"levelo://app?vid=0a68ea36-63eb-4e8b-a585-62ac0932352b","ios":"levelo://app?vid=0a68ea36-63eb-4e8b-a585-62ac0932352b"},"vehicle_type_id":"4","last_reported":1750335685,"current_range_meters":14000,"station_id":"ce4bgi92rcd13ifvqb90","pricing_plan_id":"cebpf4jnsgd1na2vs0mg"},{"bike_id":"8bd143c2-bb08-4a47-8f1c-13bde31e4cee","system_id":"levelo_inurba_marseille","lat":43.29627,"lon":5.38158,"is_reserved":false,"is_disabled":false,"rental_uris":{"android":"levelo://app?vid=8bd143c2-bb08-4a47-8f1c-13bde31e4cee","ios":"levelo://app?vid=8bd143c2-bb08-4a47-8f1c-13bde31e4cee"},"vehicle_type_id":"4","last_reported":1750335685,"current_range_meters":14000,"station_id":"ce4bgl12rcd13ifvqbo0","pricing_plan_id":"cebpf4jnsgd1na2vs0mg"},{"bike_id":"27dbe656-b256-4738-869a-73d9a956f67c","system_id":"levelo_inurba_marseille","lat":43.30139,"lon":5.37406,"is_reserved":false,"is_disabled":false,"rental_uris":{"android":"levelo://app?vid=27dbe656-b256-4738-869a-73d9a956f67c","ios":"levelo://app?vid=27dbe656-b256-4738-869a-73d9a956f67c"},"vehicle_type_id":"4","last_reported":1750335685,"current_range_meters":14000,"station_id":"ce4bgs92rcd13ifvqcc0","pricing_plan_id":"cebpf4jnsgd1na2vs0mg"},{"bike_id":"b108b065-9588-41fd-9d93-3077831c63a9","system_id":"levelo_inurba_marseille","lat":43.31713,"lon":5.3774,"is_reserved":false,"is_disabled":false,"rental_uris":{"android":"levelo://app?vid=b108b065-9588-41fd-9d93-3077831c63a9","ios":"levelo://app?vid=b108b065-9588-41fd-9d93-3077831c63a9"},"vehicle_type_id":"4","last_reported":1750335685,"current_range_meters":14000,"station_id":"ce4bgth2rcd13ifvqch0","pricing_plan_id":"cebpf4jnsgd1na2vs0mg"},{"bike_id":"df77b6d2-6834-4a44-a94b-20f11853c902","system_id":"levelo_inurba_marseille","lat":43.28424,"lon":5.34991,"is_reserved":false,"is_disabled":false,"rental_uris":{"android":"levelo://app?vid=df77b6d2-6834-4a44-a94b-20f11853c902","ios":"levelo://app?vid=df77b6d2-6834-4a44-a94b-20f11853c902"},"vehicle_type_id":"4","last_reported":1750335685,"current_range_meters":14000,"station_id":"ce4bhbh2rcd13ifvqepg","pricing_plan_id":"cebpf4jnsgd1na2vs0mg"},{"bike_id":"4148f1a9-2d7d-4168-9b96-d28a34244182","system_id":"levelo_inurba_marseille","lat":43.29844,"lon":5.36267,"is_reserved":false,"is_disabled":false,"rental_uris":{"android":"levelo://app?vid=4148f1a9-2d7d-4168-9b96-d28a34244182","ios":"levelo://app?vid=4148f1a9-2d7d-4168-9b96-d28a34244182"},"vehicle_type_id":"4","last_reported":1750335685,"current_range_meters":14400,"station_id":"ce4bgpp2rcd13ifvqc3g","pricing_plan_id":"cebpf4jnsgd1na2vs0mg"},{"bike_id":"70083776-afc4-42b4-8ebe-95815720e050","system_id":"levelo_inurba_marseille","lat":43.28416,"lon":5.34984,"is_reserved":false,"is_disabled":false,"rental_uris":{"android":"levelo://app?vid=70083776-afc4-42b4-8ebe-95815720e050","ios":"levelo://app?vid=70083776-afc4-42b4-8ebe-95815720e050"},"vehicle_type_id":"4","last_reported":1750335685,"current_range_meters":14400,"station_id":"ce4bhbh2rcd13ifvqepg","pricing_plan_id":"cebpf4jnsgd1na2vs0mg"},{"bike_id":"30ddb03a-684d-4fc6-8197-7920055ccb94","system_id":"levelo_inurba_marseille","lat":43.265,"lon":5.39538,"is_reserved":false,"is_disabled":false,"rental_uris":{"android":"levelo://app?vid=30ddb03a-684d-4fc6-8197-7920055ccb94","ios":"levelo://app?vid=30ddb03a-684d-4fc6-8197-7920055ccb94"},"vehicle_type_id":"4","last_reported":1750335685,"current_range_meters":14400,"station_id":"ce4bhi12rcd13ifvqfq0","pricing_plan_id":"cebpf4jnsgd1na2vs0mg"},{"bike_id":"6ee4a557-b41a-4f05-bca5-9866e8e4aa03","system_id":"levelo_inurba_marseille","lat":43.3108,"lon":5.42432,"is_reserved":false,"is_disabled":false,"rental_uris":{"android":"levelo://app?vid=6ee4a557-b41a-4f05-bca5-9866e8e4aa03","ios":"levelo://app?vid=6ee4a557-b41a-4f05-bca5-9866e8e4aa03"},"vehicle_type_id":"4","last_reported":1750335685,"current_range_meters":14400,"station_id":"ce4bhp92rcd13ifvqhag","pricing_plan_id":"cebpf4jnsgd1na2vs0mg"},{"bike_id":"4e843060-018f-4f9f-97c4-3e11f372dca1","system_id":"levelo_inurba_marseille","lat":43.24748,"lon":5.4115,"is_reserved":false,"is_disabled":false,"rental_uris":{"android":"levelo://app?vid=4e843060-018f-4f9f-97c4-3e11f372dca1","ios":"levelo://app?vid=4e843060-018f-4f9f-97c4-3e11f372dca1"},"vehicle_type_id":"4","last_reported":1750335685,"current_range_meters":14800,"station_id":"","pricing_plan_id":"cebpf4jnsgd1na2vs0mg"},{"bike_id":"e3dd6cf0-bf91-496d-bb80-735e65182a1c","system_id":"levelo_inurba_marseille","lat":43.29615,"lon":5.37722,"is_reserved":false,"is_disabled":false,"rental_uris":{"android":"levelo://app?vid=e3dd6cf0-bf91-496d-bb80-735e65182a1c","ios":"levelo://app?vid=e3dd6cf0-bf91-496d-bb80-735e65182a1c"},"vehicle_type_id":"4","last_reported":1750335685,"current_range_meters":14800,"station_id":"ce4bgi92rcd13ifvqb90","pricing_plan_id":"cebpf4jnsgd1na2vs0mg"},{"bike_id":"55d26089-8c80-42f6-a766-7985e9d779c2","system_id":"levelo_inurba_marseille","lat":43.30444,"lon":5.3792,"is_reserved":false,"is_disabled":false,"rental_uris":{"android":"levelo://app?vid=55d26089-8c80-42f6-a766-7985e9d779c2","ios":"levelo://app?vid=55d26089-8c80-42f6-a766-7985e9d779c2"},"vehicle_type_id":"4","last_reported":1750335685,"current_range_meters":14800,"station_id":"ce4bgup2rcd13ifvqcn0","pricing_plan_id":"cebpf4jnsgd1na2vs0mg"},{"bike_id":"fc3ce798-ee51-47ae-8704-a4f0e5d6fe54","system_id":"levelo_inurba_marseille","lat":43.30953,"lon":5.3903,"is_reserved":false,"is_disabled":false,"rental_uris":{"android":"levelo://app?vid=fc3ce798-ee51-47ae-8704-a4f0e5d6fe54","ios":"levelo://app?vid=fc3ce798-ee51-47ae-8704-a4f0e5d6fe54"},"vehicle_type_id":"4","last_reported":1750335685,"current_range_meters":14800,"station_id":"ce4bgup2rcd13ifvqco0","pricing_plan_id":"cebpf4jnsgd1na2vs0mg"},{"bike_id":"30b2321c-e308-4668-95a3-ab826fc3400c","system_id":"levelo_inurba_marseille","lat":43.3133,"lon":5.39695,"is_reserved":false,"is_disabled":false,"rental_uris":{"android":"levelo://app?vid=30b2321c-e308-4668-95a3-ab826fc3400c","ios":"levelo://app?vid=30b2321c-e308-4668-95a3-ab826fc3400c"},"vehicle_type_id":"4","last_reported":1750335685,"current_range_meters":14800,"station_id":"ce4bgvp2rcd13ifvqcu0","pricing_plan_id":"cebpf4jnsgd1na2vs0mg"},{"bike_id":"0e632e46-aa33-4e4c-a8f4-183f0946550e","system_id":"levelo_inurba_marseille","lat":43.24813,"lon":5.37462,"is_reserved":false,"is_disabled":false,"rental_uris":{"android":"levelo://app?vid=0e632e46-aa33-4e4c-a8f4-183f0946550e","ios":"levelo://app?vid=0e632e46-aa33-4e4c-a8f4-183f0946550e"},"vehicle_type_id":"4","last_reported":1750335685,"current_range_meters":14800,"station_id":"ce4bhgh2rcd13ifvqfb0","pricing_plan_id":"cebpf4jnsgd1na2vs0mg"},{"bike_id":"872749bb-2d37-4e1c-9cbb-5eedc32afe79","system_id":"levelo_inurba_marseille","lat":43.32295,"lon":5.382729,"is_reserved":false,"is_disabled":false,"rental_uris":{"android":"levelo://app?vid=872749bb-2d37-4e1c-9cbb-5eedc32afe79","ios":"levelo://app?vid=872749bb-2d37-4e1c-9cbb-5eedc32afe79"},"vehicle_type_id":"4","last_reported":1750335685,"current_range_meters":14800,"station_id":"ce4bhr12rcd13ifvqhqg","pricing_plan_id":"cebpf4jnsgd1na2vs0mg"},{"bike_id":"569f4a01-1e45-4745-89d1-48bf63b0bbdc","system_id":"levelo_inurba_marseille","lat":43.27611,"lon":5.36132,"is_reserved":false,"is_disabled":false,"rental_uris":{"android":"levelo://app?vid=569f4a01-1e45-4745-89d1-48bf63b0bbdc","ios":"levelo://app?vid=569f4a01-1e45-4745-89d1-48bf63b0bbdc"},"vehicle_type_id":"4","last_reported":1750335685,"current_range_meters":15200,"station_id":"ce4bgj92rcd13ifvqbe0","pricing_plan_id":"cebpf4jnsgd1na2vs0mg"},{"bike_id":"d7a7c834-d6f7-4fed-bdb9-b0cadc1d3dfd","system_id":"levelo_inurba_marseille","lat":43.25945,"lon":5.40876,"is_reserved":false,"is_disabled":false,"rental_uris":{"android":"levelo://app?vid=d7a7c834-d6f7-4fed-bdb9-b0cadc1d3dfd","ios":"levelo://app?vid=d7a7c834-d6f7-4fed-bdb9-b0cadc1d3dfd"},"vehicle_type_id":"4","last_reported":1750335685,"current_range_meters":15200,"station_id":"ce4bhm92rcd13ifvqglg","pricing_plan_id":"cebpf4jnsgd1na2vs0mg"},{"bike_id":"19184380-8adf-404b-bf91-82307e49c36d","system_id":"levelo_inurba_marseille","lat":43.265,"lon":5.39441,"is_reserved":false,"is_disabled":false,"rental_uris":{"android":"levelo://app?vid=19184380-8adf-404b-bf91-82307e49c36d","ios":"levelo://app?vid=19184380-8adf-404b-bf91-82307e49c36d"},"vehicle_type_id":"4","last_reported":1750335685,"current_range_meters":16000,"station_id":"","pricing_plan_id":"cebpf4jnsgd1na2vs0mg"},{"bike_id":"be18b9b6-f3dc-4faa-b699-f696d9ab7f28","system_id":"levelo_inurba_marseille","lat":43.29795,"lon":5.37106,"is_reserved":false,"is_disabled":false,"rental_uris":{"android":"levelo://app?vid=be18b9b6-f3dc-4faa-b699-f696d9ab7f28","ios":"levelo://app?vid=be18b9b6-f3dc-4faa-b699-f696d9ab7f28"},"vehicle_type_id":"4","last_reported":1750335685,"current_range_meters":16000,"station_id":"ce4bgop2rcd13ifvqc1g","pricing_plan_id":"cebpf4jnsgd1na2vs0mg"},{"bike_id":"678592d5-ec46-4a3b-9572-63b858e0a269","system_id":"levelo_inurba_marseille","lat":43.29584,"lon":5.36745,"is_reserved":false,"is_disabled":false,"rental_uris":{"android":"levelo://app?vid=678592d5-ec46-4a3b-9572-63b858e0a269","ios":"levelo://app?vid=678592d5-ec46-4a3b-9572-63b858e0a269"},"vehicle_type_id":"4","last_reported":1750335685,"current_range_meters":16000,"station_id":"ce4bgph2rcd13ifvqc2g","pricing_plan_id":"cebpf4jnsgd1na2vs0mg"},{"bike_id":"66afe815-7430-44bf-bc04-6dd887763b78","system_id":"levelo_inurba_marseille","lat":43.3056,"lon":5.36683,"is_reserved":false,"is_disabled":false,"rental_uris":{"android":"levelo://app?vid=66afe815-7430-44bf-bc04-6dd887763b78","ios":"levelo://app?vid=66afe815-7430-44bf-bc04-6dd887763b78"},"vehicle_type_id":"4","last_reported":1750335685,"current_range_meters":16000,"station_id":"ce4bgrp2rcd13ifvqc9g","pricing_plan_id":"cebpf4jnsgd1na2vs0mg"},{"bike_id":"93221c99-3ba7-430e-a2ff-dca6d9151327","system_id":"levelo_inurba_marseille","lat":43.282654,"lon":5.350596,"is_reserved":false,"is_disabled":false,"rental_uris":{"android":"levelo://app?vid=93221c99-3ba7-430e-a2ff-dca6d9151327","ios":"levelo://app?vid=93221c99-3ba7-430e-a2ff-dca6d9151327"},"vehicle_type_id":"4","last_reported":1750335685,"current_range_meters":16000,"station_id":"ce4bhbp2rcd13ifvqerg","pricing_plan_id":"cebpf4jnsgd1na2vs0mg"},{"bike_id":"3320a8b8-1678-4bda-bc10-b05f338f3e15","system_id":"levelo_inurba_marseille","lat":43.2319,"lon":5.39982,"is_reserved":false,"is_disabled":false,"rental_uris":{"android":"levelo://app?vid=3320a8b8-1678-4bda-bc10-b05f338f3e15","ios":"levelo://app?vid=3320a8b8-1678-4bda-bc10-b05f338f3e15"},"vehicle_type_id":"4","last_reported":1750335685,"current_range_meters":16000,"station_id":"ce4bhn12rcd13ifvqgqg","pricing_plan_id":"cebpf4jnsgd1na2vs0mg"},{"bike_id":"9906bc19-f41b-455e-b87b-0f1dfc4897da","system_id":"levelo_inurba_marseille","lat":43.28445,"lon":5.39132,"is_reserved":false,"is_disabled":false,"rental_uris":{"android":"levelo://app?vid=9906bc19-f41b-455e-b87b-0f1dfc4897da","ios":"levelo://app?vid=9906bc19-f41b-455e-b87b-0f1dfc4897da"},"vehicle_type_id":"4","last_reported":1750335685,"current_range_meters":16400,"station_id":"","pricing_plan_id":"cebpf4jnsgd1na2vs0mg"},{"bike_id":"e3c9604f-d479-44d3-bd28-1ae6daf7f044","system_id":"levelo_inurba_marseille","lat":43.29726,"lon":5.37732,"is_reserved":false,"is_disabled":false,"rental_uris":{"android":"levelo://app?vid=e3c9604f-d479-44d3-bd28-1ae6daf7f044","ios":"levelo://app?vid=e3c9604f-d479-44d3-bd28-1ae6daf7f044"},"vehicle_type_id":"4","last_reported":1750335685,"current_range_meters":16400,"station_id":"","pricing_plan_id":"cebpf4jnsgd1na2vs0mg"},{"bike_id":"fe9f0b73-9819-4feb-b41d-82be4281b970","system_id":"levelo_inurba_marseille","lat":43.33807,"lon":5.37435,"is_reserved":false,"is_disabled":false,"rental_uris":{"android":"levelo://app?vid=fe9f0b73-9819-4feb-b41d-82be4281b970","ios":"levelo://app?vid=fe9f0b73-9819-4feb-b41d-82be4281b970"},"vehicle_type_id":"4","last_reported":1750335685,"current_range_meters":16400,"station_id":"","pricing_plan_id":"cebpf4jnsgd1na2vs0mg"},{"bike_id":"93d0186f-e2a3-4513-916e-20241a8e11f5","system_id":"levelo_inurba_marseille","lat":43.29796,"lon":5.38095,"is_reserved":false,"is_disabled":false,"rental_uris":{"android":"levelo://app?vid=93d0186f-e2a3-4513-916e-20241a8e11f5","ios":"levelo://app?vid=93d0186f-e2a3-4513-916e-20241a8e11f5"},"vehicle_type_id":"4","last_reported":1750335685,"current_range_meters":16400,"station_id":"ce4bgip2rcd13ifvqbb0","pricing_plan_id":"cebpf4jnsgd1na2vs0mg"},{"bike_id":"31d093aa-8cc1-4648-93a8-2a63e8276d5f","system_id":"levelo_inurba_marseille","lat":43.30463,"lon":5.37912,"is_reserved":false,"is_disabled":false,"rental_uris":{"android":"levelo://app?vid=31d093aa-8cc1-4648-93a8-2a63e8276d5f","ios":"levelo://app?vid=31d093aa-8cc1-4648-93a8-2a63e8276d5f"},"vehicle_type_id":"4","last_reported":1750335685,"current_range_meters":16400,"station_id":"ce4bgup2rcd13ifvqcn0","pricing_plan_id":"cebpf4jnsgd1na2vs0mg"},{"bike_id":"db48c574-d457-4111-8654-7b26a6edcdb5","system_id":"levelo_inurba_marseille","lat":43.2989,"lon":5.39766,"is_reserved":false,"is_disabled":false,"rental_uris":{"android":"levelo://app?vid=db48c574-d457-4111-8654-7b26a6edcdb5","ios":"levelo://app?vid=db48c574-d457-4111-8654-7b26a6edcdb5"},"vehicle_type_id":"4","last_reported":1750335685,"current_range_meters":16400,"station_id":"ce4bh0h2rcd13ifvqd50","pricing_plan_id":"cebpf4jnsgd1na2vs0mg"},{"bike_id":"c5a34e84-2687-4890-8d81-ec7b276d92ca","system_id":"levelo_inurba_marseille","lat":43.286174,"lon":5.351074,"is_reserved":false,"is_disabled":false,"rental_uris":{"android":"levelo://app?vid=c5a34e84-2687-4890-8d81-ec7b276d92ca","ios":"levelo://app?vid=c5a34e84-2687-4890-8d81-ec7b276d92ca"},"vehicle_type_id":"4","last_reported":1750335685,"current_range_meters":16400,"station_id":"ce4bhch2rcd13ifvqeug","pricing_plan_id":"cebpf4jnsgd1na2vs0mg"},{"bike_id":"63f8c833-83b2-483b-a151-7a408eb8e708","system_id":"levelo_inurba_marseille","lat":43.23139,"lon":5.43766,"is_reserved":false,"is_disabled":false,"rental_uris":{"android":"levelo://app?vid=63f8c833-83b2-483b-a151-7a408eb8e708","ios":"levelo://app?vid=63f8c833-83b2-483b-a151-7a408eb8e708"},"vehicle_type_id":"4","last_reported":1750335685,"current_range_meters":16400,"station_id":"ce4bhmp2rcd13ifvqgog","pricing_plan_id":"cebpf4jnsgd1na2vs0mg"},{"bike_id":"5f24f3c5-1da6-4c0f-b87b-75b3002614e0","system_id":"levelo_inurba_marseille","lat":43.274943,"lon":5.424569,"is_reserved":false,"is_disabled":false,"rental_uris":{"android":"levelo://app?vid=5f24f3c5-1da6-4c0f-b87b-75b3002614e0","ios":"levelo://app?vid=5f24f3c5-1da6-4c0f-b87b-75b3002614e0"},"vehicle_type_id":"4","last_reported":1750335685,"current_range_meters":16400,"station_id":"ce4bhn92rcd13ifvqgrg","pricing_plan_id":"cebpf4jnsgd1na2vs0mg"},{"bike_id":"dc39e9df-7330-4303-9cdd-6bb46e47798c","system_id":"levelo_inurba_marseille","lat":43.23063,"lon":5.35519,"is_reserved":false,"is_disabled":false,"rental_uris":{"android":"levelo://app?vid=dc39e9df-7330-4303-9cdd-6bb46e47798c","ios":"levelo://app?vid=dc39e9df-7330-4303-9cdd-6bb46e47798c"},"vehicle_type_id":"4","last_reported":1750335685,"current_range_meters":16400,"station_id":"cpo3342slgdg3j2ifvpg","pricing_plan_id":"cebpf4jnsgd1na2vs0mg"},{"bike_id":"4b0a4731-0126-4393-ae8c-cdb2be8c0dee","system_id":"levelo_inurba_marseille","lat":43.308,"lon":5.38166,"is_reserved":false,"is_disabled":false,"rental_uris":{"android":"levelo://app?vid=4b0a4731-0126-4393-ae8c-cdb2be8c0dee","ios":"levelo://app?vid=4b0a4731-0126-4393-ae8c-cdb2be8c0dee"},"vehicle_type_id":"4","last_reported":1750335685,"current_range_meters":16800,"station_id":"ce4bgt12rcd13ifvqce0","pricing_plan_id":"cebpf4jnsgd1na2vs0mg"},{"bike_id":"203416d1-e5c1-4041-9252-da38422f8991","system_id":"levelo_inurba_marseille","lat":43.27379,"lon":5.36257,"is_reserved":false,"is_disabled":false,"rental_uris":{"android":"levelo://app?vid=203416d1-e5c1-4041-9252-da38422f8991","ios":"levelo://app?vid=203416d1-e5c1-4041-9252-da38422f8991"},"vehicle_type_id":"4","last_reported":1750335685,"current_range_meters":16800,"station_id":"ce4bhbh2rcd13ifvqeo0","pricing_plan_id":"cebpf4jnsgd1na2vs0mg"},{"bike_id":"5c17f474-67ea-463c-abb4-6621c8a461db","system_id":"levelo_inurba_marseille","lat":43.28417,"lon":5.34983,"is_reserved":false,"is_disabled":false,"rental_uris":{"android":"levelo://app?vid=5c17f474-67ea-463c-abb4-6621c8a461db","ios":"levelo://app?vid=5c17f474-67ea-463c-abb4-6621c8a461db"},"vehicle_type_id":"4","last_reported":1750335685,"current_range_meters":16800,"station_id":"ce4bhbh2rcd13ifvqepg","pricing_plan_id":"cebpf4jnsgd1na2vs0mg"},{"bike_id":"54bbaa15-050c-4526-b172-09f06af97620","system_id":"levelo_inurba_marseille","lat":43.28422,"lon":5.34991,"is_reserved":false,"is_disabled":false,"rental_uris":{"android":"levelo://app?vid=54bbaa15-050c-4526-b172-09f06af97620","ios":"levelo://app?vid=54bbaa15-050c-4526-b172-09f06af97620"},"vehicle_type_id":"4","last_reported":1750335685,"current_range_meters":16800,"station_id":"ce4bhbh2rcd13ifvqepg","pricing_plan_id":"cebpf4jnsgd1na2vs0mg"},{"bike_id":"f1148112-0c6a-460b-bf09-9496c0279043","system_id":"levelo_inurba_marseille","lat":43.286223,"lon":5.351026,"is_reserved":false,"is_disabled":false,"rental_uris":{"android":"levelo://app?vid=f1148112-0c6a-460b-bf09-9496c0279043","ios":"levelo://app?vid=f1148112-0c6a-460b-bf09-9496c0279043"},"vehicle_type_id":"4","last_reported":1750335685,"current_range_meters":16800,"station_id":"ce4bhch2rcd13ifvqeug","pricing_plan_id":"cebpf4jnsgd1na2vs0mg"},{"bike_id":"3a0004f4-15c0-4f52-8c3b-29e169ba7bcf","system_id":"levelo_inurba_marseille","lat":43.29906,"lon":5.3815,"is_reserved":false,"is_disabled":false,"rental_uris":{"android":"levelo://app?vid=3a0004f4-15c0-4f52-8c3b-29e169ba7bcf","ios":"levelo://app?vid=3a0004f4-15c0-4f52-8c3b-29e169ba7bcf"},"vehicle_type_id":"4","last_reported":1750335685,"current_range_meters":17200,"station_id":"ce4bgj12rcd13ifvqbc0","pricing_plan_id":"cebpf4jnsgd1na2vs0mg"},{"bike_id":"4a26c4a4-ef36-42a3-8223-cc1c7136b48e","system_id":"levelo_inurba_marseille","lat":43.29916,"lon":5.37477,"is_reserved":false,"is_disabled":false,"rental_uris":{"android":"levelo://app?vid=4a26c4a4-ef36-42a3-8223-cc1c7136b48e","ios":"levelo://app?vid=4a26c4a4-ef36-42a3-8223-cc1c7136b48e"},"vehicle_type_id":"4","last_reported":1750335685,"current_range_meters":17200,"station_id":"ce4bgjh2rcd13ifvqbg0","pricing_plan_id":"cebpf4jnsgd1na2vs0mg"},{"bike_id":"a0d02667-b6f5-4e5b-9154-0bb69c0f8dff","system_id":"levelo_inurba_marseille","lat":43.3054,"lon":5.36725,"is_reserved":false,"is_disabled":false,"rental_uris":{"android":"levelo://app?vid=a0d02667-b6f5-4e5b-9154-0bb69c0f8dff","ios":"levelo://app?vid=a0d02667-b6f5-4e5b-9154-0bb69c0f8dff"},"vehicle_type_id":"4","last_reported":1750335685,"current_range_meters":17200,"station_id":"ce4bgrp2rcd13ifvqc9g","pricing_plan_id":"cebpf4jnsgd1na2vs0mg"},{"bike_id":"13dbbd35-2a41-443a-bb25-daebcef0384c","system_id":"levelo_inurba_marseille","lat":43.26052,"lon":5.39375,"is_reserved":false,"is_disabled":false,"rental_uris":{"android":"levelo://app?vid=13dbbd35-2a41-443a-bb25-daebcef0384c","ios":"levelo://app?vid=13dbbd35-2a41-443a-bb25-daebcef0384c"},"vehicle_type_id":"4","last_reported":1750335685,"current_range_meters":17200,"station_id":"ce4bhh92rcd13ifvqfj0","pricing_plan_id":"cebpf4jnsgd1na2vs0mg"},{"bike_id":"7e65b096-aa08-41c8-9b2a-e94078d8b578","system_id":"levelo_inurba_marseille","lat":43.212,"lon":5.35121,"is_reserved":false,"is_disabled":false,"rental_uris":{"android":"levelo://app?vid=7e65b096-aa08-41c8-9b2a-e94078d8b578","ios":"levelo://app?vid=7e65b096-aa08-41c8-9b2a-e94078d8b578"},"vehicle_type_id":"4","last_reported":1750335685,"current_range_meters":17200,"station_id":"st_cvj6sg6p6f1abm77japg","pricing_plan_id":"cebpf4jnsgd1na2vs0mg"},{"bike_id":"b9c6eeab-051f-43a6-87cb-bd45214fca77","system_id":"levelo_inurba_marseille","lat":43.29711,"lon":5.37686,"is_reserved":false,"is_disabled":false,"rental_uris":{"android":"levelo://app?vid=b9c6eeab-051f-43a6-87cb-bd45214fca77","ios":"levelo://app?vid=b9c6eeab-051f-43a6-87cb-bd45214fca77"},"vehicle_type_id":"4","last_reported":1750335685,"current_range_meters":17600,"station_id":"ce4bgkh2rcd13ifvqbl0","pricing_plan_id":"cebpf4jnsgd1na2vs0mg"},{"bike_id":"e49879e6-0e44-4e8d-aff8-5bc0e21e138b","system_id":"levelo_inurba_marseille","lat":43.312096,"lon":5.368293,"is_reserved":false,"is_disabled":false,"rental_uris":{"android":"levelo://app?vid=e49879e6-0e44-4e8d-aff8-5bc0e21e138b","ios":"levelo://app?vid=e49879e6-0e44-4e8d-aff8-5bc0e21e138b"},"vehicle_type_id":"4","last_reported":1750335685,"current_range_meters":17600,"station_id":"ce4bgl92rcd13ifvqbq0","pricing_plan_id":"cebpf4jnsgd1na2vs0mg"},{"bike_id":"139c2ee6-3ad7-4aa4-9e0e-da46c0e44c2e","system_id":"levelo_inurba_marseille","lat":43.29938,"lon":5.36547,"is_reserved":false,"is_disabled":false,"rental_uris":{"android":"levelo://app?vid=139c2ee6-3ad7-4aa4-9e0e-da46c0e44c2e","ios":"levelo://app?vid=139c2ee6-3ad7-4aa4-9e0e-da46c0e44c2e"},"vehicle_type_id":"4","last_reported":1750335685,"current_range_meters":17600,"station_id":"ce4bgm92rcd13ifvqbr0","pricing_plan_id":"cebpf4jnsgd1na2vs0mg"},{"bike_id":"8ee1c179-a88f-4588-bbfa-d8840e3fd5e2","system_id":"levelo_inurba_marseille","lat":43.30551,"lon":5.36721,"is_reserved":false,"is_disabled":false,"rental_uris":{"android":"levelo://app?vid=8ee1c179-a88f-4588-bbfa-d8840e3fd5e2","ios":"levelo://app?vid=8ee1c179-a88f-4588-bbfa-d8840e3fd5e2"},"vehicle_type_id":"4","last_reported":1750335685,"current_range_meters":17600,"station_id":"ce4bgrp2rcd13ifvqc9g","pricing_plan_id":"cebpf4jnsgd1na2vs0mg"},{"bike_id":"b7f5a4af-458e-428e-862b-fe6bc87dd9d4","system_id":"levelo_inurba_marseille","lat":43.23968,"lon":5.36642,"is_reserved":false,"is_disabled":false,"rental_uris":{"android":"levelo://app?vid=b7f5a4af-458e-428e-862b-fe6bc87dd9d4","ios":"levelo://app?vid=b7f5a4af-458e-428e-862b-fe6bc87dd9d4"},"vehicle_type_id":"4","last_reported":1750335685,"current_range_meters":17600,"station_id":"ce4bhi12rcd13ifvqfp0","pricing_plan_id":"cebpf4jnsgd1na2vs0mg"},{"bike_id":"2a056024-9671-4c97-a958-ddfbf02c87b9","system_id":"levelo_inurba_marseille","lat":43.32366,"lon":5.38898,"is_reserved":false,"is_disabled":false,"rental_uris":{"android":"levelo://app?vid=2a056024-9671-4c97-a958-ddfbf02c87b9","ios":"levelo://app?vid=2a056024-9671-4c97-a958-ddfbf02c87b9"},"vehicle_type_id":"4","last_reported":1750335685,"current_range_meters":17600,"station_id":"ce4bhqp2rcd13ifvqhog","pricing_plan_id":"cebpf4jnsgd1na2vs0mg"},{"bike_id":"4ce5b165-f22d-40cf-abd3-1cb294861955","system_id":"levelo_inurba_marseille","lat":43.211914,"lon":5.350738,"is_reserved":false,"is_disabled":false,"rental_uris":{"android":"levelo://app?vid=4ce5b165-f22d-40cf-abd3-1cb294861955","ios":"levelo://app?vid=4ce5b165-f22d-40cf-abd3-1cb294861955"},"vehicle_type_id":"4","last_reported":1750335685,"current_range_meters":18000,"station_id":"","pricing_plan_id":"cebpf4jnsgd1na2vs0mg"},{"bike_id":"7772d2ca-62b0-4ee1-87bb-dc7de883efef","system_id":"levelo_inurba_marseille","lat":43.29917,"lon":5.38153,"is_reserved":false,"is_disabled":false,"rental_uris":{"android":"levelo://app?vid=7772d2ca-62b0-4ee1-87bb-dc7de883efef","ios":"levelo://app?vid=7772d2ca-62b0-4ee1-87bb-dc7de883efef"},"vehicle_type_id":"4","last_reported":1750335685,"current_range_meters":18000,"station_id":"ce4bgj12rcd13ifvqbc0","pricing_plan_id":"cebpf4jnsgd1na2vs0mg"},{"bike_id":"0eedeb0d-765d-4cf9-a815-0e017961c0fa","system_id":"levelo_inurba_marseille","lat":43.29709,"lon":5.36612,"is_reserved":false,"is_disabled":false,"rental_uris":{"android":"levelo://app?vid=0eedeb0d-765d-4cf9-a815-0e017961c0fa","ios":"levelo://app?vid=0eedeb0d-765d-4cf9-a815-0e017961c0fa"},"vehicle_type_id":"4","last_reported":1750335685,"current_range_meters":18000,"station_id":"ce4bgn12rcd13ifvqbt0","pricing_plan_id":"cebpf4jnsgd1na2vs0mg"},{"bike_id":"89e3a4fc-6c69-4770-846b-072b68938305","system_id":"levelo_inurba_marseille","lat":43.30217,"lon":5.39461,"is_reserved":false,"is_disabled":false,"rental_uris":{"android":"levelo://app?vid=89e3a4fc-6c69-4770-846b-072b68938305","ios":"levelo://app?vid=89e3a4fc-6c69-4770-846b-072b68938305"},"vehicle_type_id":"4","last_reported":1750335685,"current_range_meters":18000,"station_id":"ce4bh0p2rcd13ifvqd70","pricing_plan_id":"cebpf4jnsgd1na2vs0mg"},{"bike_id":"0f62a0eb-8ee2-4e07-9524-12e672210431","system_id":"levelo_inurba_marseille","lat":43.295119,"lon":5.394033,"is_reserved":false,"is_disabled":false,"rental_uris":{"android":"levelo://app?vid=0f62a0eb-8ee2-4e07-9524-12e672210431","ios":"levelo://app?vid=0f62a0eb-8ee2-4e07-9524-12e672210431"},"vehicle_type_id":"4","last_reported":1750335685,"current_range_meters":18000,"station_id":"ce4bh292rcd13ifvqdf0","pricing_plan_id":"cebpf4jnsgd1na2vs0mg"},{"bike_id":"784efc61-b1c0-4015-bd86-20f443ceb29d","system_id":"levelo_inurba_marseille","lat":43.23959,"lon":5.36644,"is_reserved":false,"is_disabled":false,"rental_uris":{"android":"levelo://app?vid=784efc61-b1c0-4015-bd86-20f443ceb29d","ios":"levelo://app?vid=784efc61-b1c0-4015-bd86-20f443ceb29d"},"vehicle_type_id":"4","last_reported":1750335685,"current_range_meters":18000,"station_id":"ce4bhi12rcd13ifvqfp0","pricing_plan_id":"cebpf4jnsgd1na2vs0mg"},{"bike_id":"4859c2e3-bd79-436a-b78e-1ee284a74e3e","system_id":"levelo_inurba_marseille","lat":43.24547,"lon":5.3952,"is_reserved":false,"is_disabled":false,"rental_uris":{"android":"levelo://app?vid=4859c2e3-bd79-436a-b78e-1ee284a74e3e","ios":"levelo://app?vid=4859c2e3-bd79-436a-b78e-1ee284a74e3e"},"vehicle_type_id":"4","last_reported":1750335685,"current_range_meters":18000,"station_id":"ce4bhlp2rcd13ifvqgjg","pricing_plan_id":"cebpf4jnsgd1na2vs0mg"},{"bike_id":"02446148-c9f7-4f78-b18f-149730da9a75","system_id":"levelo_inurba_marseille","lat":43.231991,"lon":5.355463,"is_reserved":false,"is_disabled":false,"rental_uris":{"android":"levelo://app?vid=02446148-c9f7-4f78-b18f-149730da9a75","ios":"levelo://app?vid=02446148-c9f7-4f78-b18f-149730da9a75"},"vehicle_type_id":"4","last_reported":1750335685,"current_range_meters":18000,"station_id":"ce4bhu92rcd13ifvqi70","pricing_plan_id":"cebpf4jnsgd1na2vs0mg"},{"bike_id":"e02c4c44-a519-4c03-bb73-a94e29c6875a","system_id":"levelo_inurba_marseille","lat":43.27617,"lon":5.36114,"is_reserved":false,"is_disabled":false,"rental_uris":{"android":"levelo://app?vid=e02c4c44-a519-4c03-bb73-a94e29c6875a","ios":"levelo://app?vid=e02c4c44-a519-4c03-bb73-a94e29c6875a"},"vehicle_type_id":"4","last_reported":1750335685,"current_range_meters":18800,"station_id":"ce4bgj92rcd13ifvqbe0","pricing_plan_id":"cebpf4jnsgd1na2vs0mg"},{"bike_id":"21be5886-ce85-43ce-8b6c-b385190e9b7c","system_id":"levelo_inurba_marseille","lat":43.31327,"lon":5.3969,"is_reserved":false,"is_disabled":false,"rental_uris":{"android":"levelo://app?vid=21be5886-ce85-43ce-8b6c-b385190e9b7c","ios":"levelo://app?vid=21be5886-ce85-43ce-8b6c-b385190e9b7c"},"vehicle_type_id":"4","last_reported":1750335685,"current_range_meters":18800,"station_id":"ce4bgvp2rcd13ifvqcu0","pricing_plan_id":"cebpf4jnsgd1na2vs0mg"},{"bike_id":"38b383de-47b0-445c-b497-eab4a4e6e3e2","system_id":"levelo_inurba_marseille","lat":43.28348,"lon":5.38092,"is_reserved":false,"is_disabled":false,"rental_uris":{"android":"levelo://app?vid=38b383de-47b0-445c-b497-eab4a4e6e3e2","ios":"levelo://app?vid=38b383de-47b0-445c-b497-eab4a4e6e3e2"},"vehicle_type_id":"4","last_reported":1750335685,"current_range_meters":18800,"station_id":"ce4bh412rcd13ifvqdr0","pricing_plan_id":"cebpf4jnsgd1na2vs0mg"},{"bike_id":"331fb1ed-477e-412e-b7e2-d854a52376ff","system_id":"levelo_inurba_marseille","lat":43.28408,"lon":5.34981,"is_reserved":false,"is_disabled":false,"rental_uris":{"android":"levelo://app?vid=331fb1ed-477e-412e-b7e2-d854a52376ff","ios":"levelo://app?vid=331fb1ed-477e-412e-b7e2-d854a52376ff"},"vehicle_type_id":"4","last_reported":1750335685,"current_range_meters":18800,"station_id":"ce4bhbh2rcd13ifvqepg","pricing_plan_id":"cebpf4jnsgd1na2vs0mg"},{"bike_id":"cc34d586-b82f-4a34-8fa6-12192bd50232","system_id":"levelo_inurba_marseille","lat":43.28418,"lon":5.34991,"is_reserved":false,"is_disabled":false,"rental_uris":{"android":"levelo://app?vid=cc34d586-b82f-4a34-8fa6-12192bd50232","ios":"levelo://app?vid=cc34d586-b82f-4a34-8fa6-12192bd50232"},"vehicle_type_id":"4","last_reported":1750335685,"current_range_meters":18800,"station_id":"ce4bhbh2rcd13ifvqepg","pricing_plan_id":"cebpf4jnsgd1na2vs0mg"},{"bike_id":"54a5e786-0e1c-4479-a29e-f59e48818bbd","system_id":"levelo_inurba_marseille","lat":43.28623,"lon":5.35117,"is_reserved":false,"is_disabled":false,"rental_uris":{"android":"levelo://app?vid=54a5e786-0e1c-4479-a29e-f59e48818bbd","ios":"levelo://app?vid=54a5e786-0e1c-4479-a29e-f59e48818bbd"},"vehicle_type_id":"4","last_reported":1750335685,"current_range_meters":18800,"station_id":"ce4bhch2rcd13ifvqeug","pricing_plan_id":"cebpf4jnsgd1na2vs0mg"},{"bike_id":"e24d92bd-c2c3-4f0f-99a5-f23b2a156bcf","system_id":"levelo_inurba_marseille","lat":43.26689,"lon":5.383,"is_reserved":false,"is_disabled":false,"rental_uris":{"android":"levelo://app?vid=e24d92bd-c2c3-4f0f-99a5-f23b2a156bcf","ios":"levelo://app?vid=e24d92bd-c2c3-4f0f-99a5-f23b2a156bcf"},"vehicle_type_id":"4","last_reported":1750335685,"current_range_meters":18800,"station_id":"ce4bhg92rcd13ifvqf90","pricing_plan_id":"cebpf4jnsgd1na2vs0mg"},{"bike_id":"f941b76c-01d0-413c-8604-ef0581ad5a5c","system_id":"levelo_inurba_marseille","lat":43.24806,"lon":5.37453,"is_reserved":false,"is_disabled":false,"rental_uris":{"android":"levelo://app?vid=f941b76c-01d0-413c-8604-ef0581ad5a5c","ios":"levelo://app?vid=f941b76c-01d0-413c-8604-ef0581ad5a5c"},"vehicle_type_id":"4","last_reported":1750335685,"current_range_meters":18800,"station_id":"ce4bhgh2rcd13ifvqfb0","pricing_plan_id":"cebpf4jnsgd1na2vs0mg"},{"bike_id":"53f86949-cae5-49ad-a73d-e164ce331e00","system_id":"levelo_inurba_marseille","lat":43.24178,"lon":5.39715,"is_reserved":false,"is_disabled":false,"rental_uris":{"android":"levelo://app?vid=53f86949-cae5-49ad-a73d-e164ce331e00","ios":"levelo://app?vid=53f86949-cae5-49ad-a73d-e164ce331e00"},"vehicle_type_id":"4","last_reported":1750335685,"current_range_meters":18800,"station_id":"ce4bhn12rcd13ifvqgpg","pricing_plan_id":"cebpf4jnsgd1na2vs0mg"},{"bike_id":"bd66f788-a7a5-48c5-8ddb-a663c9b309a7","system_id":"levelo_inurba_marseille","lat":43.2407,"lon":5.37763,"is_reserved":false,"is_disabled":false,"rental_uris":{"android":"levelo://app?vid=bd66f788-a7a5-48c5-8ddb-a663c9b309a7","ios":"levelo://app?vid=bd66f788-a7a5-48c5-8ddb-a663c9b309a7"},"vehicle_type_id":"4","last_reported":1750335685,"current_range_meters":18800,"station_id":"ce4bhnp2rcd13ifvqgvg","pricing_plan_id":"cebpf4jnsgd1na2vs0mg"},{"bike_id":"f138f97c-9184-4423-8851-43001f2097b7","system_id":"levelo_inurba_marseille","lat":43.212,"lon":5.35083,"is_reserved":false,"is_disabled":false,"rental_uris":{"android":"levelo://app?vid=f138f97c-9184-4423-8851-43001f2097b7","ios":"levelo://app?vid=f138f97c-9184-4423-8851-43001f2097b7"},"vehicle_type_id":"4","last_reported":1750335685,"current_range_meters":18800,"station_id":"st_cvj6sg6p6f1abm77japg","pricing_plan_id":"cebpf4jnsgd1na2vs0mg"},{"bike_id":"f5035d12-6f6d-499b-8c76-01bbb6677f60","system_id":"levelo_inurba_marseille","lat":43.31324,"lon":5.37559,"is_reserved":false,"is_disabled":false,"rental_uris":{"android":"levelo://app?vid=f5035d12-6f6d-499b-8c76-01bbb6677f60","ios":"levelo://app?vid=f5035d12-6f6d-499b-8c76-01bbb6677f60"},"vehicle_type_id":"4","last_reported":1750335685,"current_range_meters":19200,"station_id":"","pricing_plan_id":"cebpf4jnsgd1na2vs0mg"},{"bike_id":"7fb8f777-502e-4027-8e9f-d463bb7373be","system_id":"levelo_inurba_marseille","lat":43.2966,"lon":5.38047,"is_reserved":false,"is_disabled":false,"rental_uris":{"android":"levelo://app?vid=7fb8f777-502e-4027-8e9f-d463bb7373be","ios":"levelo://app?vid=7fb8f777-502e-4027-8e9f-d463bb7373be"},"vehicle_type_id":"4","last_reported":1750335685,"current_range_meters":19200,"station_id":"","pricing_plan_id":"cebpf4jnsgd1na2vs0mg"},{"bike_id":"b38d9c8a-32e7-40d4-8fc8-74ec701e486e","system_id":"levelo_inurba_marseille","lat":43.30907,"lon":5.3684,"is_reserved":false,"is_disabled":false,"rental_uris":{"android":"levelo://app?vid=b38d9c8a-32e7-40d4-8fc8-74ec701e486e","ios":"levelo://app?vid=b38d9c8a-32e7-40d4-8fc8-74ec701e486e"},"vehicle_type_id":"4","last_reported":1750335685,"current_range_meters":19200,"station_id":"ce4bgn92rcd13ifvqbvg","pricing_plan_id":"cebpf4jnsgd1na2vs0mg"},{"bike_id":"419f1afa-ca28-4768-b33e-78017bc04cdb","system_id":"levelo_inurba_marseille","lat":43.29265,"lon":5.40914,"is_reserved":false,"is_disabled":false,"rental_uris":{"android":"levelo://app?vid=419f1afa-ca28-4768-b33e-78017bc04cdb","ios":"levelo://app?vid=419f1afa-ca28-4768-b33e-78017bc04cdb"},"vehicle_type_id":"4","last_reported":1750335685,"current_range_meters":19200,"station_id":"ce4bh192rcd13ifvqdc0","pricing_plan_id":"cebpf4jnsgd1na2vs0mg"},{"bike_id":"2fb3d0bd-abc1-45a9-9340-bdcbe4f56321","system_id":"levelo_inurba_marseille","lat":43.28108,"lon":5.37841,"is_reserved":false,"is_disabled":false,"rental_uris":{"android":"levelo://app?vid=2fb3d0bd-abc1-45a9-9340-bdcbe4f56321","ios":"levelo://app?vid=2fb3d0bd-abc1-45a9-9340-bdcbe4f56321"},"vehicle_type_id":"4","last_reported":1750335685,"current_range_meters":19200,"station_id":"ce4bha12rcd13ifvqee0","pricing_plan_id":"cebpf4jnsgd1na2vs0mg"},{"bike_id":"650dfdbc-4825-47e6-ad0c-e18215952ca4","system_id":"levelo_inurba_marseille","lat":43.27374,"lon":5.36257,"is_reserved":false,"is_disabled":false,"rental_uris":{"android":"levelo://app?vid=650dfdbc-4825-47e6-ad0c-e18215952ca4","ios":"levelo://app?vid=650dfdbc-4825-47e6-ad0c-e18215952ca4"},"vehicle_type_id":"4","last_reported":1750335685,"current_range_meters":19200,"station_id":"ce4bhbh2rcd13ifvqeo0","pricing_plan_id":"cebpf4jnsgd1na2vs0mg"},{"bike_id":"eb233ba8-6025-4117-9317-32652dc69f5e","system_id":"levelo_inurba_marseille","lat":43.27999,"lon":5.40017,"is_reserved":false,"is_disabled":false,"rental_uris":{"android":"levelo://app?vid=eb233ba8-6025-4117-9317-32652dc69f5e","ios":"levelo://app?vid=eb233ba8-6025-4117-9317-32652dc69f5e"},"vehicle_type_id":"4","last_reported":1750335685,"current_range_meters":19200,"station_id":"ce4bho92rcd13ifvqh4g","pricing_plan_id":"cebpf4jnsgd1na2vs0mg"},{"bike_id":"f20083b0-4f69-4c60-be3a-da6e063bf041","system_id":"levelo_inurba_marseille","lat":43.31885,"lon":5.40734,"is_reserved":false,"is_disabled":false,"rental_uris":{"android":"levelo://app?vid=f20083b0-4f69-4c60-be3a-da6e063bf041","ios":"levelo://app?vid=f20083b0-4f69-4c60-be3a-da6e063bf041"},"vehicle_type_id":"4","last_reported":1750335685,"current_range_meters":19200,"station_id":"ce4bhq12rcd13ifvqhig","pricing_plan_id":"cebpf4jnsgd1na2vs0mg"},{"bike_id":"d675883e-7ed0-4fb3-ac16-69247ce4a955","system_id":"levelo_inurba_marseille","lat":43.27952,"lon":5.38982,"is_reserved":false,"is_disabled":false,"rental_uris":{"android":"levelo://app?vid=d675883e-7ed0-4fb3-ac16-69247ce4a955","ios":"levelo://app?vid=d675883e-7ed0-4fb3-ac16-69247ce4a955"},"vehicle_type_id":"4","last_reported":1750335685,"current_range_meters":19600,"station_id":"","pricing_plan_id":"cebpf4jnsgd1na2vs0mg"},{"bike_id":"31acc0f5-d204-408d-8f0e-6d0a3465a3c0","system_id":"levelo_inurba_marseille","lat":43.30797,"lon":5.38165,"is_reserved":false,"is_disabled":false,"rental_uris":{"android":"levelo://app?vid=31acc0f5-d204-408d-8f0e-6d0a3465a3c0","ios":"levelo://app?vid=31acc0f5-d204-408d-8f0e-6d0a3465a3c0"},"vehicle_type_id":"4","last_reported":1750335685,"current_range_meters":19600,"station_id":"ce4bgt12rcd13ifvqce0","pricing_plan_id":"cebpf4jnsgd1na2vs0mg"},{"bike_id":"449c632b-9419-490b-b413-9ced774517ec","system_id":"levelo_inurba_marseille","lat":43.288253,"lon":5.352904,"is_reserved":false,"is_disabled":false,"rental_uris":{"android":"levelo://app?vid=449c632b-9419-490b-b413-9ced774517ec","ios":"levelo://app?vid=449c632b-9419-490b-b413-9ced774517ec"},"vehicle_type_id":"4","last_reported":1750335685,"current_range_meters":19600,"station_id":"ce4bhbh2rcd13ifvqepg","pricing_plan_id":"cebpf4jnsgd1na2vs0mg"},{"bike_id":"3939df6a-c644-4caf-9fc0-3fbc572e8f68","system_id":"levelo_inurba_marseille","lat":43.28274,"lon":5.35091,"is_reserved":false,"is_disabled":false,"rental_uris":{"android":"levelo://app?vid=3939df6a-c644-4caf-9fc0-3fbc572e8f68","ios":"levelo://app?vid=3939df6a-c644-4caf-9fc0-3fbc572e8f68"},"vehicle_type_id":"4","last_reported":1750335685,"current_range_meters":19600,"station_id":"ce4bhbp2rcd13ifvqerg","pricing_plan_id":"cebpf4jnsgd1na2vs0mg"},{"bike_id":"ab7b34f5-2789-44ee-85fa-8cbf5dab114a","system_id":"levelo_inurba_marseille","lat":43.24389,"lon":5.37054,"is_reserved":false,"is_disabled":false,"rental_uris":{"android":"levelo://app?vid=ab7b34f5-2789-44ee-85fa-8cbf5dab114a","ios":"levelo://app?vid=ab7b34f5-2789-44ee-85fa-8cbf5dab114a"},"vehicle_type_id":"4","last_reported":1750335685,"current_range_meters":19600,"station_id":"ce4bhhh2rcd13ifvqfk0","pricing_plan_id":"cebpf4jnsgd1na2vs0mg"},{"bike_id":"c7e2377f-a68b-4904-9439-974c50915359","system_id":"levelo_inurba_marseille","lat":43.27169,"lon":5.40993,"is_reserved":false,"is_disabled":false,"rental_uris":{"android":"levelo://app?vid=c7e2377f-a68b-4904-9439-974c50915359","ios":"levelo://app?vid=c7e2377f-a68b-4904-9439-974c50915359"},"vehicle_type_id":"4","last_reported":1750335685,"current_range_meters":19600,"station_id":"ce4bhl12rcd13ifvqgf0","pricing_plan_id":"cebpf4jnsgd1na2vs0mg"},