{"last_updated":1726420017,"ttl":30,"version":"2.2","data":{"bikes":[{"bike_id":"3e595e44-5da8-4520-ac08-866423af676c","system_id":"levelo_inurba_marseille","lat":43.262115,"lon":5.374428,"is_reserved":false,"is_disabled":false,"rental_uris":{"android":"levelo://app?vid=3e595e44-5da8-4520-ac08-866423af676c","ios":"levelo://app?vid=3e595e44-5da8-4520-ac08-866423af676c"},"vehicle_type_id":"4","last_reported":1726420017,"current_range_meters":8800,"station_id":"ce4bhap2rcd13ifvqek0","pricing_plan_id":"cebpf4jnsgd1na2vs0mg"},{"bike_id":"d32ad788-bff1-4601-a61f-014ff81f57d0","system_id":"levelo_inurba_marseille","lat":43.28669,"lon":5.36349,"is_reserved":false,"is_disabled":false,"rental_uris":{"android":"levelo://app?vid=d32ad788-bff1-4601-a61f-014ff81f57d0","ios":"levelo://app?vid=d32ad788-bff1-4601-a61f-014ff81f57d0"},"vehicle_type_id":"4","last_reported":1726420017,"current_range_meters":25200,"station_id":"ce4bhah2rcd13ifvqej0","pricing_plan_id":"cebpf4jnsgd1na2vs0mg"},{"bike_id":"0dc28e90-47b1-4dff-8ecc-b0e5570704d1","system_id":"levelo_inurba_marseille","lat":43.243887,"lon":5.370607,"is_reserved":false,"is_disabled":false,"rental_uris":{"android":"levelo://app?vid=0dc28e90-47b1-4dff-8ecc-b0e5570704d1","ios":"levelo://app?vid=0dc28e90-47b1-4dff-8ecc-b0e5570704d1"},"vehicle_type_id":"4","last_reported":1726420017,"current_range_meters":9200,"station_id":"ce4bhhh2rcd13ifvqfk0","pricing_plan_id":"cebpf4jnsgd1na2vs0mg"},{"bike_id":"b8e7ff7c-2a3c-4a84-ab11-b2df62170a1a","system_id":"levelo_inurba_marseille","lat":43.31294,"lon":5.37812,"is_reserved":false,"is_disabled":false,"rental_uris":{"android":"levelo://app?vid=b8e7ff7c-2a3c-4a84-ab11-b2df62170a1a","ios":"levelo://app?vid=b8e7ff7c-2a3c-4a84-ab11-b2df62170a1a"},"vehicle_type_id":"4","last_reported":1726420017,"current_range_meters":33200,"station_id":"","pricing_plan_id":"cebpf4jnsgd1na2vs0mg"},{"bike_id":"9ce9b550-8700-461b-8547-d8805a084398","system_id":"levelo_inurba_marseille","lat":43.255,"lon":5.37652,"is_reserved":false,"is_disabled":false,"rental_uris":{"android":"levelo://app?vid=9ce9b550-8700-461b-8547-d8805a084398","ios":"levelo://app?vid=9ce9b550-8700-461b-8547-d8805a084398"},"vehicle_type_id":"4","last_reported":1726420017,"current_range_meters":34000,"station_id":"ce4bhh12rcd13ifvqff0","pricing_plan_id":"cebpf4jnsgd1na2vs0mg"},{"bike_id":"491f625c-672a-429b-adf2-44db696ce223","system_id":"levelo_inurba_marseille","lat":43.24811,"lon":5.37454,"is_reserved":false,"is_disabled":false,"rental_uris":{"android":"levelo://app?vid=491f625c-672a-429b-adf2-44db696ce223","ios":"levelo://app?vid=491f625c-672a-429b-adf2-44db696ce223"},"vehicle_type_id":"4","last_reported":1726420017,"current_range_meters":9600,"station_id":"ce4bhgh2rcd13ifvqfb0","pricing_plan_id":"cebpf4jnsgd1na2vs0mg"},{"bike_id":"62a5057c-a5eb-4961-924c-8ce921f6570a","system_id":"levelo_inurba_marseille","lat":43.24804,"lon":5.37454,"is_reserved":false,"is_disabled":false,"rental_uris":{"android":"levelo://app?vid=62a5057c-a5eb-4961-924c-8ce921f6570a","ios":"levelo://app?vid=62a5057c-a5eb-4961-924c-8ce921f6570a"},"vehicle_type_id":"4","last_reported":1726420017,"current_range_meters":37600,"station_id":"ce4bhgh2rcd13ifvqfb0","pricing_plan_id":"cebpf4jnsgd1na2vs0mg"},{"bike_id":"7c475990-5c91-40de-8e97-2ed5070be005","system_id":"levelo_inurba_marseille","lat":43.23032,"lon":5.401,"is_reserved":false,"is_disabled":false,"rental_uris":{"android":"levelo://app?vid=7c475990-5c91-40de-8e97-2ed5070be005","ios":"levelo://app?vid=7c475990-5c91-40de-8e97-2ed5070be005"},"vehicle_type_id":"4","last_reported":1726420017,"current_range_meters":38000,"station_id":"","pricing_plan_id":"cebpf4jnsgd1na2vs0mg"},{"bike_id":"13ec4916-f0ea-4897-8afc-596425b42c42","system_id":"levelo_inurba_marseille","lat":43.23191,"lon":5.35553,"is_reserved":false,"is_disabled":false,"rental_uris":{"android":"levelo://app?vid=13ec4916-f0ea-4897-8afc-596425b42c42","ios":"levelo://app?vid=13ec4916-f0ea-4897-8afc-596425b42c42"},"vehicle_type_id":"4","last_reported":1726420017,"current_range_meters":21600,"station_id":"ce4bhu92rcd13ifvqi70","pricing_plan_id":"cebpf4jnsgd1na2vs0mg"},{"bike_id":"e8549387-9deb-4f66-b733-a7cdaa0db866","system_id":"levelo_inurba_marseille","lat":43.3302,"lon":5.39038,"is_reserved":false,"is_disabled":false,"rental_uris":{"android":"levelo://app?vid=e8549387-9deb-4f66-b733-a7cdaa0db866","ios":"levelo://app?vid=e8549387-9deb-4f66-b733-a7cdaa0db866"},"vehicle_type_id":"4","last_reported":1726420017,"current_range_meters":15200,"station_id":"ce4bhr92rcd13ifvqhrg","pricing_plan_id":"cebpf4jnsgd1na2vs0mg"},{"bike_id":"3d64c255-1660-41db-ac56-60cbee1ac9b2","system_id":"levelo_inurba_marseille","lat":43.28497,"lon":5.38558,"is_reserved":false,"is_disabled":false,"rental_uris":{"android":"levelo://app?vid=3d64c255-1660-41db-ac56-60cbee1ac9b2","ios":"levelo://app?vid=3d64c255-1660-41db-ac56-60cbee1ac9b2"},"vehicle_type_id":"4","last_reported":1726420017,"current_range_meters":36800,"station_id":"ce4bh8p2rcd13ifvqeb0","pricing_plan_id":"cebpf4jnsgd1na2vs0mg"},{"bike_id":"3c656a16-9dce-4c91-a5d6-64cff7bda293","system_id":"levelo_inurba_marseille","lat":43.30154,"lon":5.38086,"is_reserved":false,"is_disabled":false,"rental_uris":{"android":"levelo://app?vid=3c656a16-9dce-4c91-a5d6-64cff7bda293","ios":"levelo://app?vid=3c656a16-9dce-4c91-a5d6-64cff7bda293"},"vehicle_type_id":"4","last_reported":1726420017,"current_range_meters":14800,"station_id":"ce4bgjp2rcd13ifvqbh0","pricing_plan_id":"cebpf4jnsgd1na2vs0mg"},{"bike_id":"6ac5c303-a970-4358-89be-2c9b037d5f6a","system_id":"levelo_inurba_marseille","lat":43.30947,"lon":5.39023,"is_reserved":false,"is_disabled":false,"rental_uris":{"android":"levelo://app?vid=6ac5c303-a970-4358-89be-2c9b037d5f6a","ios":"levelo://app?vid=6ac5c303-a970-4358-89be-2c9b037d5f6a"},"vehicle_type_id":"4","last_reported":1726420017,"current_range_meters":4400,"station_id":"ce4bgup2rcd13ifvqco0","pricing_plan_id":"cebpf4jnsgd1na2vs0mg"},{"bike_id":"0e68d50f-a412-4a41-ba6e-62e5d7cbf9bd","system_id":"levelo_inurba_marseille","lat":43.231964,"lon":5.355493,"is_reserved":false,"is_disabled":false,"rental_uris":{"android":"levelo://app?vid=0e68d50f-a412-4a41-ba6e-62e5d7cbf9bd","ios":"levelo://app?vid=0e68d50f-a412-4a41-ba6e-62e5d7cbf9bd"},"vehicle_type_id":"4","last_reported":1726420017,"current_range_meters":12000,"station_id":"ce4bhu92rcd13ifvqi70","pricing_plan_id":"cebpf4jnsgd1na2vs0mg"},{"bike_id":"74c67d55-8a5f-40c9-8066-d68354718f8c","system_id":"levelo_inurba_marseille","lat":43.23194,"lon":5.35544,"is_reserved":false,"is_disabled":false,"rental_uris":{"android":"levelo://app?vid=74c67d55-8a5f-40c9-8066-d68354718f8c","ios":"levelo://app?vid=74c67d55-8a5f-40c9-8066-d68354718f8c"},"vehicle_type_id":"4","last_reported":1726420017,"current_range_meters":18000,"station_id":"ce4bhu92rcd13ifvqi70","pricing_plan_id":"cebpf4jnsgd1na2vs0mg"},{"bike_id":"aca88887-6d2e-4c47-b386-fb240bed60e5","system_id":"levelo_inurba_marseille","lat":43.25115,"lon":5.40323,"is_reserved":false,"is_disabled":false,"rental_uris":{"android":"levelo://app?vid=aca88887-6d2e-4c47-b386-fb240bed60e5","ios":"levelo://app?vid=aca88887-6d2e-4c47-b386-fb240bed60e5"},"vehicle_type_id":"4","last_reported":1726420017,"current_range_meters":30000,"station_id":"ce4bhlh2rcd13ifvqgig","pricing_plan_id":"cebpf4jnsgd1na2vs0mg"},{"bike_id":"2348432a-2e1b-4480-8221-dc0ae33b40e8","system_id":"levelo_inurba_marseille","lat":43.24392,"lon":5.37068,"is_reserved":false,"is_disabled":false,"rental_uris":{"android":"levelo://app?vid=2348432a-2e1b-4480-8221-dc0ae33b40e8","ios":"levelo://app?vid=2348432a-2e1b-4480-8221-dc0ae33b40e8"},"vehicle_type_id":"4","last_reported":1726420017,"current_range_meters":18800,"station_id":"ce4bhhh2rcd13ifvqfk0","pricing_plan_id":"cebpf4jnsgd1na2vs0mg"},{"bike_id":"d0698402-85d8-4942-960d-db4ee8bd1c46","system_id":"levelo_inurba_marseille","lat":43.3249,"lon":5.36561,"is_reserved":false,"is_disabled":false,"rental_uris":{"android":"levelo://app?vid=d0698402-85d8-4942-960d-db4ee8bd1c46","ios":"levelo://app?vid=d0698402-85d8-4942-960d-db4ee8bd1c46"},"vehicle_type_id":"4","last_reported":1726420017,"current_range_meters":3600,"station_id":"ce4bhs12rcd13ifvqhvg","pricing_plan_id":"cebpf4jnsgd1na2vs0mg"},{"bike_id":"e7cd2dd3-5044-4054-887e-8d99b4566ce5","system_id":"levelo_inurba_marseille","lat":43.32376,"lon":5.3835,"is_reserved":false,"is_disabled":false,"rental_uris":{"android":"levelo://app?vid=e7cd2dd3-5044-4054-887e-8d99b4566ce5","ios":"levelo://app?vid=e7cd2dd3-5044-4054-887e-8d99b4566ce5"},"vehicle_type_id":"4","last_reported":1726420017,"current_range_meters":3200,"station_id":"","pricing_plan_id":"cebpf4jnsgd1na2vs0mg"},{"bike_id":"212c501b-a753-4c1a-ba0c-b560582af171","system_id":"levelo_inurba_marseille","lat":43.29564,"lon":5.42281,"is_reserved":false,"is_disabled":false,"rental_uris":{"android":"levelo://app?vid=212c501b-a753-4c1a-ba0c-b560582af171","ios":"levelo://app?vid=212c501b-a753-4c1a-ba0c-b560582af171"},"vehicle_type_id":"4","last_reported":1726420017,"current_range_meters":18000,"station_id":"ce4bhph2rcd13ifvqhdg","pricing_plan_id":"cebpf4jnsgd1na2vs0mg"},{"bike_id":"dfb89513-f211-47bc-95b2-ffac780f14a8","system_id":"levelo_inurba_marseille","lat":43.23192,"lon":5.3556,"is_reserved":false,"is_disabled":false,"rental_uris":{"android":"levelo://app?vid=dfb89513-f211-47bc-95b2-ffac780f14a8","ios":"levelo://app?vid=dfb89513-f211-47bc-95b2-ffac780f14a8"},"vehicle_type_id":"4","last_reported":1726420017,"current_range_meters":8000,"station_id":"ce4bhu92rcd13ifvqi70","pricing_plan_id":"cebpf4jnsgd1na2vs0mg"},{"bike_id":"db7dff8c-347d-4fd4-b1df-efd551ff7476","system_id":"levelo_inurba_marseille","lat":43.31712,"lon":5.37764,"is_reserved":false,"is_disabled":false,"rental_uris":{"android":"levelo://app?vid=db7dff8c-347d-4fd4-b1df-efd551ff7476","ios":"levelo://app?vid=db7dff8c-347d-4fd4-b1df-efd551ff7476"},"vehicle_type_id":"4","last_reported":1726420017,"current_range_meters":36400,"station_id":"ce4bgth2rcd13ifvqch0","pricing_plan_id":"cebpf4jnsgd1na2vs0mg"},{"bike_id":"9df403c3-53c3-47d4-91b9-94e0e8946522","system_id":"levelo_inurba_marseille","lat":43.28105,"lon":5.37835,"is_reserved":false,"is_disabled":false,"rental_uris":{"android":"levelo://app?vid=9df403c3-53c3-47d4-91b9-94e0e8946522","ios":"levelo://app?vid=9df403c3-53c3-47d4-91b9-94e0e8946522"},"vehicle_type_id":"4","last_reported":1726420017,"current_range_meters":8800,"station_id":"ce4bha12rcd13ifvqee0","pricing_plan_id":"cebpf4jnsgd1na2vs0mg"},{"bike_id":"eb1e18e4-bb04-487b-9bac-545ce51aa81c","system_id":"levelo_inurba_marseille","lat":43.25119,"lon":5.40316,"is_reserved":false,"is_disabled":false,"rental_uris":{"android":"levelo://app?vid=eb1e18e4-bb04-487b-9bac-545ce51aa81c","ios":"levelo://app?vid=eb1e18e4-bb04-487b-9bac-545ce51aa81c"},"vehicle_type_id":"4","last_reported":1726420017,"current_range_meters":28800,"station_id":"ce4bhlh2rcd13ifvqgig","pricing_plan_id":"cebpf4jnsgd1na2vs0mg"},{"bike_id":"40869c76-4f82-404f-9cdf-639196b728f9","system_id":"levelo_inurba_marseille","lat":43.28566,"lon":5.395,"is_reserved":false,"is_disabled":false,"rental_uris":{"android":"levelo://app?vid=40869c76-4f82-404f-9cdf-639196b728f9","ios":"levelo://app?vid=40869c76-4f82-404f-9cdf-639196b728f9"},"vehicle_type_id":"4","last_reported":1726420017,"current_range_meters":22800,"station_id":"ce4bh292rcd13ifvqdg0","pricing_plan_id":"cebpf4jnsgd1na2vs0mg"},{"bike_id":"33e3b5af-e6bf-4a19-9a11-ee1b8b29314e","system_id":"levelo_inurba_marseille","lat":43.319565,"lon":5.409008,"is_reserved":false,"is_disabled":false,"rental_uris":{"android":"levelo://app?vid=33e3b5af-e6bf-4a19-9a11-ee1b8b29314e","ios":"levelo://app?vid=33e3b5af-e6bf-4a19-9a11-ee1b8b29314e"},"vehicle_type_id":"4","last_reported":1726420017,"current_range_meters":6800,"station_id":"ce4bhq92rcd13ifvqhjg","pricing_plan_id":"cebpf4jnsgd1na2vs0mg"},{"bike_id":"e56b8830-1193-40a5-85c5-6cfa65ba945a","system_id":"levelo_inurba_marseille","lat":43.28444,"lon":5.39181,"is_reserved":false,"is_disabled":false,"rental_uris":{"android":"levelo://app?vid=e56b8830-1193-40a5-85c5-6cfa65ba945a","ios":"levelo://app?vid=e56b8830-1193-40a5-85c5-6cfa65ba945a"},"vehicle_type_id":"4","last_reported":1726420017,"current_range_meters":4000,"station_id":"ce4bhoh2rcd13ifvqh5g","pricing_plan_id":"cebpf4jnsgd1na2vs0mg"},{"bike_id":"ec9006f1-9246-40db-9584-a79270db200a","system_id":"levelo_inurba_marseille","lat":43.31726,"lon":5.42403,"is_reserved":false,"is_disabled":false,"rental_uris":{"android":"levelo://app?vid=ec9006f1-9246-40db-9584-a79270db200a","ios":"levelo://app?vid=ec9006f1-9246-40db-9584-a79270db200a"},"vehicle_type_id":"4","last_reported":1726420017,"current_range_meters":38800,"station_id":"ce4bhp92rcd13ifvqhbg","pricing_plan_id":"cebpf4jnsgd1na2vs0mg"},{"bike_id":"f9911c3c-9014-4e35-b062-6dba1d962dd8","system_id":"levelo_inurba_marseille","lat":43.31265,"lon":5.40174,"is_reserved":false,"is_disabled":false,"rental_uris":{"android":"levelo://app?vid=f9911c3c-9014-4e35-b062-6dba1d962dd8","ios":"levelo://app?vid=f9911c3c-9014-4e35-b062-6dba1d962dd8"},"vehicle_type_id":"4","last_reported":1726420017,"current_range_meters":22800,"station_id":"ce4bh092rcd13ifvqd30","pricing_plan_id":"cebpf4jnsgd1na2vs0mg"},{"bike_id":"2252954e-1e0c-4bdc-b9a1-609d32f8f188","system_id":"levelo_inurba_marseille","lat":43.33022,"lon":5.39028,"is_reserved":false,"is_disabled":false,"rental_uris":{"android":"levelo://app?vid=2252954e-1e0c-4bdc-b9a1-609d32f8f188","ios":"levelo://app?vid=2252954e-1e0c-4bdc-b9a1-609d32f8f188"},"vehicle_type_id":"4","last_reported":1726420017,"current_range_meters":27600,"station_id":"ce4bhr92rcd13ifvqhrg","pricing_plan_id":"cebpf4jnsgd1na2vs0mg"},{"bike_id":"f79ff168-7c1f-43a6-9a48-819ae1e3b151","system_id":"levelo_inurba_marseille","lat":43.24071,"lon":5.37756,"is_reserved":false,"is_disabled":false,"rental_uris":{"android":"levelo://app?vid=f79ff168-7c1f-43a6-9a48-819ae1e3b151","ios":"levelo://app?vid=f79ff168-7c1f-43a6-9a48-819ae1e3b151"},"vehicle_type_id":"4","last_reported":1726420017,"current_range_meters":11200,"station_id":"ce4bhnp2rcd13ifvqgvg","pricing_plan_id":"cebpf4jnsgd1na2vs0mg"},{"bike_id":"6d5614e0-2e6f-4d24-9d4a-5c6cca74e3e5","system_id":"levelo_inurba_marseille","lat":43.23203,"lon":5.35548,"is_reserved":false,"is_disabled":false,"rental_uris":{"android":"levelo://app?vid=6d5614e0-2e6f-4d24-9d4a-5c6cca74e3e5","ios":"levelo://app?vid=6d5614e0-2e6f-4d24-9d4a-5c6cca74e3e5"},"vehicle_type_id":"4","last_reported":1726420017,"current_range_meters":10000,"station_id":"ce4bhu92rcd13ifvqi70","pricing_plan_id":"cebpf4jnsgd1na2vs0mg"},{"bike_id":"501ca056-e23e-49c9-8ea3-4d7eadee8fa7","system_id":"levelo_inurba_marseille","lat":43.26804,"lon":5.40274,"is_reserved":false,"is_disabled":false,"rental_uris":{"android":"levelo://app?vid=501ca056-e23e-49c9-8ea3-4d7eadee8fa7","ios":"levelo://app?vid=501ca056-e23e-49c9-8ea3-4d7eadee8fa7"},"vehicle_type_id":"4","last_reported":1726420017,"current_range_meters":20000,"station_id":"ce501612rcd8frsf0b60","pricing_plan_id":"cebpf4jnsgd1na2vs0mg"},{"bike_id":"e3729bfc-2d00-4eb1-b410-c2caebea59d9","system_id":"levelo_inurba_marseille","lat":43.30936,"lon":5.40142,"is_reserved":false,"is_disabled":false,"rental_uris":{"android":"levelo://app?vid=e3729bfc-2d00-4eb1-b410-c2caebea59d9","ios":"levelo://app?vid=e3729bfc-2d00-4eb1-b410-c2caebea59d9"},"vehicle_type_id":"4","last_reported":1726420017,"current_range_meters":16400,"station_id":"ce4bgvp2rcd13ifvqct0","pricing_plan_id":"cebpf4jnsgd1na2vs0mg"},{"bike_id":"d69f20de-16b8-4df3-8ca2-1795392a2feb","system_id":"levelo_inurba_marseille","lat":43.30592,"lon":5.39363,"is_reserved":false,"is_disabled":false,"rental_uris":{"android":"levelo://app?vid=d69f20de-16b8-4df3-8ca2-1795392a2feb","ios":"levelo://app?vid=d69f20de-16b8-4df3-8ca2-1795392a2feb"},"vehicle_type_id":"4","last_reported":1726420017,"current_range_meters":38000,"station_id":"ce4bh0p2rcd13ifvqd80","pricing_plan_id":"cebpf4jnsgd1na2vs0mg"},{"bike_id":"5cc2350a-3072-404c-8551-e2da8aa8fd2c","system_id":"levelo_inurba_marseille","lat":43.27668,"lon":5.38887,"is_reserved":false,"is_disabled":false,"rental_uris":{"android":"levelo://app?vid=5cc2350a-3072-404c-8551-e2da8aa8fd2c","ios":"levelo://app?vid=5cc2350a-3072-404c-8551-e2da8aa8fd2c"},"vehicle_type_id":"4","last_reported":1726420017,"current_range_meters":17200,"station_id":"ce4bhi12rcd13ifvqfo0","pricing_plan_id":"cebpf4jnsgd1na2vs0mg"},{"bike_id":"ecab2b07-b455-4c0a-a787-affa632df0b6","system_id":"levelo_inurba_marseille","lat":43.29555,"lon":5.42285,"is_reserved":false,"is_disabled":false,"rental_uris":{"android":"levelo://app?vid=ecab2b07-b455-4c0a-a787-affa632df0b6","ios":"levelo://app?vid=ecab2b07-b455-4c0a-a787-affa632df0b6"},"vehicle_type_id":"4","last_reported":1726420017,"current_range_meters":20800,"station_id":"ce4bhph2rcd13ifvqhdg","pricing_plan_id":"cebpf4jnsgd1na2vs0mg"},{"bike_id":"ddc45355-09ab-429a-992a-2830e2c6068a","system_id":"levelo_inurba_marseille","lat":43.29009,"lon":5.35609,"is_reserved":false,"is_disabled":false,"rental_uris":{"android":"levelo://app?vid=ddc45355-09ab-429a-992a-2830e2c6068a","ios":"levelo://app?vid=ddc45355-09ab-429a-992a-2830e2c6068a"},"vehicle_type_id":"4","last_reported":1726420017,"current_range_meters":7200,"station_id":"ce4bhb92rcd13ifvqen0","pricing_plan_id":"cebpf4jnsgd1na2vs0mg"},{"bike_id":"26db0265-0a91-4c66-8aa8-67a94f7eef0d","system_id":"levelo_inurba_marseille","lat":43.26946,"lon":5.40065,"is_reserved":false,"is_disabled":false,"rental_uris":{"android":"levelo://app?vid=26db0265-0a91-4c66-8aa8-67a94f7eef0d","ios":"levelo://app?vid=26db0265-0a91-4c66-8aa8-67a94f7eef0d"},"vehicle_type_id":"4","last_reported":1726420017,"current_range_meters":9200,"station_id":"","pricing_plan_id":"cebpf4jnsgd1na2vs0mg"},{"bike_id":"bf3eb5b2-ac1a-42aa-9b2a-d2711842b311","system_id":"levelo_inurba_marseille","lat":43.29025,"lon":5.38637,"is_reserved":false,"is_disabled":false,"rental_uris":{"android":"levelo://app?vid=bf3eb5b2-ac1a-42aa-9b2a-d2711842b311","ios":"levelo://app?vid=bf3eb5b2-ac1a-42aa-9b2a-d2711842b311"},"vehicle_type_id":"4","last_reported":1726420017,"current_range_meters":24400,"station_id":"ce4bh4p2rcd13ifvqe0g","pricing_plan_id":"cebpf4jnsgd1na2vs0mg"},{"bike_id":"791e9a90-158d-4777-b790-e170f57ddfca","system_id":"levelo_inurba_marseille","lat":43.301256,"lon":5.387791,"is_reserved":false,"is_disabled":false,"rental_uris":{"android":"levelo://app?vid=791e9a90-158d-4777-b790-e170f57ddfca","ios":"levelo://app?vid=791e9a90-158d-4777-b790-e170f57ddfca"},"vehicle_type_id":"4","last_reported":1726420017,"current_range_meters":21600,"station_id":"ce4bghh2rcd13ifvqb60","pricing_plan_id":"cebpf4jnsgd1na2vs0mg"},{"bike_id":"7cb86f02-015f-4218-848c-60a0be8facd1","system_id":"levelo_inurba_marseille","lat":43.25731,"lon":5.41106,"is_reserved":false,"is_disabled":false,"rental_uris":{"android":"levelo://app?vid=7cb86f02-015f-4218-848c-60a0be8facd1","ios":"levelo://app?vid=7cb86f02-015f-4218-848c-60a0be8facd1"},"vehicle_type_id":"4","last_reported":1726420017,"current_range_meters":14400,"station_id":"ce4bhkp2rcd13ifvqgd0","pricing_plan_id":"cebpf4jnsgd1na2vs0mg"},{"bike_id":"3894ffbb-0cae-48cd-93d4-d75a5454f97e","system_id":"levelo_inurba_marseille","lat":43.29911,"lon":5.38129,"is_reserved":false,"is_disabled":false,"rental_uris":{"android":"levelo://app?vid=3894ffbb-0cae-48cd-93d4-d75a5454f97e","ios":"levelo://app?vid=3894ffbb-0cae-48cd-93d4-d75a5454f97e"},"vehicle_type_id":"4","last_reported":1726420017,"current_range_meters":38800,"station_id":"ce4bgj12rcd13ifvqbc0","pricing_plan_id":"cebpf4jnsgd1na2vs0mg"},{"bike_id":"fa0bba81-ae28-438c-aaa0-a2a0c9d69ac5","system_id":"levelo_inurba_marseille","lat":43.29557,"lon":5.42283,"is_reserved":false,"is_disabled":false,"rental_uris":{"android":"levelo://app?vid=fa0bba81-ae28-438c-aaa0-a2a0c9d69ac5","ios":"levelo://app?vid=fa0bba81-ae28-438c-aaa0-a2a0c9d69ac5"},"vehicle_type_id":"4","last_reported":1726420017,"current_range_meters":32800,"station_id":"ce4bhph2rcd13ifvqhdg","pricing_plan_id":"cebpf4jnsgd1na2vs0mg"},{"bike_id":"0481d72a-5889-451c-9d87-ae2f2a50ca6a","system_id":"levelo_inurba_marseille","lat":43.28153,"lon":5.42636,"is_reserved":false,"is_disabled":false,"rental_uris":{"android":"levelo://app?vid=0481d72a-5889-451c-9d87-ae2f2a50ca6a","ios":"levelo://app?vid=0481d72a-5889-451c-9d87-ae2f2a50ca6a"},"vehicle_type_id":"4","last_reported":1726420017,"current_range_meters":3600,"station_id":"ce4bhnh2rcd13ifvqgug","pricing_plan_id":"cebpf4jnsgd1na2vs0mg"},{"bike_id":"415b13fd-de58-480c-861b-9f42d1eebf31","system_id":"levelo_inurba_marseille","lat":43.304209,"lon":5.412806,"is_reserved":false,"is_disabled":false,"rental_uris":{"android":"levelo://app?vid=415b13fd-de58-480c-861b-9f42d1eebf31","ios":"levelo://app?vid=415b13fd-de58-480c-861b-9f42d1eebf31"},"vehicle_type_id":"4","last_reported":1726420017,"current_range_meters":32000,"station_id":"ce4bhop2rcd13ifvqh8g","pricing_plan_id":"cebpf4jnsgd1na2vs0mg"},{"bike_id":"1a0fae94-2806-4c9d-aaf8-c9bcd302b24f","system_id":"levelo_inurba_marseille","lat":43.24176,"lon":5.36393,"is_reserved":false,"is_disabled":false,"rental_uris":{"android":"levelo://app?vid=1a0fae94-2806-4c9d-aaf8-c9bcd302b24f","ios":"levelo://app?vid=1a0fae94-2806-4c9d-aaf8-c9bcd302b24f"},"vehicle_type_id":"4","last_reported":1726420017,"current_range_meters":38400,"station_id":"cpo36qri1sfpv3e86is0","pricing_plan_id":"cebpf4jnsgd1na2vs0mg"},{"bike_id":"f1bea7c0-7bee-41a5-8dc1-b413bd0acfd1","system_id":"levelo_inurba_marseille","lat":43.30948,"lon":5.3903,"is_reserved":false,"is_disabled":false,"rental_uris":{"android":"levelo://app?vid=f1bea7c0-7bee-41a5-8dc1-b413bd0acfd1","ios":"levelo://app?vid=f1bea7c0-7bee-41a5-8dc1-b413bd0acfd1"},"vehicle_type_id":"4","last_reported":1726420017,"current_range_meters":38400,"station_id":"ce4bgup2rcd13ifvqco0","pricing_plan_id":"cebpf4jnsgd1na2vs0mg"},{"bike_id":"f5bfd5eb-1ec8-4a71-96c0-17e49a3cb497","system_id":"levelo_inurba_marseille","lat":43.31705,"lon":5.40469,"is_reserved":false,"is_disabled":false,"rental_uris":{"android":"levelo://app?vid=f5bfd5eb-1ec8-4a71-96c0-17e49a3cb497","ios":"levelo://app?vid=f5bfd5eb-1ec8-4a71-96c0-17e49a3cb497"},"vehicle_type_id":"4","last_reported":1726420017,"current_range_meters":38800,"station_id":"ce4bh012rcd13ifvqd00","pricing_plan_id":"cebpf4jnsgd1na2vs0mg"},{"bike_id":"340654bb-8203-44e9-8bbd-23c632b14773","system_id":"levelo_inurba_marseille","lat":43.30271,"lon":5.37705,"is_reserved":false,"is_disabled":false,"rental_uris":{"android":"levelo://app?vid=340654bb-8203-44e9-8bbd-23c632b14773","ios":"levelo://app?vid=340654bb-8203-44e9-8bbd-23c632b14773"},"vehicle_type_id":"4","last_reported":1726420017,"current_range_meters":28000,"station_id":"ce4bguh2rcd13ifvqcj0","pricing_plan_id":"cebpf4jnsgd1na2vs0mg"},{"bike_id":"b1db6496-7d7b-4acc-a88c-e5406d38e100","system_id":"levelo_inurba_marseille","lat":43.23194,"lon":5.35557,"is_reserved":false,"is_disabled":false,"rental_uris":{"android":"levelo://app?vid=b1db6496-7d7b-4acc-a88c-e5406d38e100","ios":"levelo://app?vid=b1db6496-7d7b-4acc-a88c-e5406d38e100"},"vehicle_type_id":"4","last_reported":1726420017,"current_range_meters":36400,"station_id":"ce4bhu92rcd13ifvqi70","pricing_plan_id":"cebpf4jnsgd1na2vs0mg"},{"bike_id":"ee721f16-71d0-49c8-9da4-858f78b55bcb","system_id":"levelo_inurba_marseille","lat":43.25938,"lon":5.40902,"is_reserved":false,"is_disabled":false,"rental_uris":{"android":"levelo://app?vid=ee721f16-71d0-49c8-9da4-858f78b55bcb","ios":"levelo://app?vid=ee721f16-71d0-49c8-9da4-858f78b55bcb"},"vehicle_type_id":"4","last_reported":1726420017,"current_range_meters":24800,"station_id":"ce4bhm92rcd13ifvqglg","pricing_plan_id":"cebpf4jnsgd1na2vs0mg"},{"bike_id":"826f4136-a005-4203-8c5f-7808e18dcf00","system_id":"levelo_inurba_marseille","lat":43.29557,"lon":5.42285,"is_reserved":false,"is_disabled":false,"rental_uris":{"android":"levelo://app?vid=826f4136-a005-4203-8c5f-7808e18dcf00","ios":"levelo://app?vid=826f4136-a005-4203-8c5f-7808e18dcf00"},"vehicle_type_id":"4","last_reported":1726420017,"current_range_meters":8000,"station_id":"ce4bhph2rcd13ifvqhdg","pricing_plan_id":"cebpf4jnsgd1na2vs0mg"},{"bike_id":"841935fb-5c77-4750-880f-1e3828e5d20c","system_id":"levelo_inurba_marseille","lat":43.29287,"lon":5.40125,"is_reserved":false,"is_disabled":false,"rental_uris":{"android":"levelo://app?vid=841935fb-5c77-4750-880f-1e3828e5d20c","ios":"levelo://app?vid=841935fb-5c77-4750-880f-1e3828e5d20c"},"vehicle_type_id":"4","last_reported":1726420017,"current_range_meters":3600,"station_id":"ce4bh312rcd13ifvqdk0","pricing_plan_id":"cebpf4jnsgd1na2vs0mg"},{"bike_id":"7675855f-e8a7-41c1-80e0-aefdd544fcca","system_id":"levelo_inurba_marseille","lat":43.2511,"lon":5.4032,"is_reserved":false,"is_disabled":false,"rental_uris":{"android":"levelo://app?vid=7675855f-e8a7-41c1-80e0-aefdd544fcca","ios":"levelo://app?vid=7675855f-e8a7-41c1-80e0-aefdd544fcca"},"vehicle_type_id":"4","last_reported":1726420017,"current_range_meters":23200,"station_id":"ce4bhlh2rcd13ifvqgig","pricing_plan_id":"cebpf4jnsgd1na2vs0mg"},{"bike_id":"5cf4c2f1-f092-4550-b8cf-369099ebc3bc","system_id":"levelo_inurba_marseille","lat":43.24568,"lon":5.41551,"is_reserved":false,"is_disabled":false,"rental_uris":{"android":"levelo://app?vid=5cf4c2f1-f092-4550-b8cf-369099ebc3bc","ios":"levelo://app?vid=5cf4c2f1-f092-4550-b8cf-369099ebc3bc"},"vehicle_type_id":"4","last_reported":1726420017,"current_range_meters":13600,"station_id":"ce4bhlh2rcd13ifvqgig","pricing_plan_id":"cebpf4jnsgd1na2vs0mg"},{"bike_id":"4721e0a5-8c0a-4c61-91fb-10c3ba183135","system_id":"levelo_inurba_marseille","lat":43.24074,"lon":5.37764,"is_reserved":false,"is_disabled":false,"rental_uris":{"android":"levelo://app?vid=4721e0a5-8c0a-4c61-91fb-10c3ba183135","ios":"levelo://app?vid=4721e0a5-8c0a-4c61-91fb-10c3ba183135"},"vehicle_type_id":"4","last_reported":1726420017,"current_range_meters":13600,"station_id":"ce4bhnp2rcd13ifvqgvg","pricing_plan_id":"cebpf4jnsgd1na2vs0mg"},{"bike_id":"bd902de6-2e5c-4cd5-816b-d6012574fba1","system_id":"levelo_inurba_marseille","lat":43.30606,"lon":5.37234,"is_reserved":false,"is_disabled":false,"rental_uris":{"android":"levelo://app?vid=bd902de6-2e5c-4cd5-816b-d6012574fba1","ios":"levelo://app?vid=bd902de6-2e5c-4cd5-816b-d6012574fba1"},"vehicle_type_id":"4","last_reported":1726420017,"current_range_meters":28400,"station_id":"ce4bgqh2rcd13ifvqc4g","pricing_plan_id":"cebpf4jnsgd1na2vs0mg"},{"bike_id":"47726121-730a-4713-980b-96ac51cac664","system_id":"levelo_inurba_marseille","lat":43.300169,"lon":5.365776,"is_reserved":false,"is_disabled":false,"rental_uris":{"android":"levelo://app?vid=47726121-730a-4713-980b-96ac51cac664","ios":"levelo://app?vid=47726121-730a-4713-980b-96ac51cac664"},"vehicle_type_id":"4","last_reported":1726420017,"current_range_meters":33200,"station_id":"ce4bgm92rcd13ifvqbr0","pricing_plan_id":"cebpf4jnsgd1na2vs0mg"},{"bike_id":"b3296071-3ee4-4cd4-a9c0-ea1b11b66293","system_id":"levelo_inurba_marseille","lat":43.32335,"lon":5.38499,"is_reserved":false,"is_disabled":false,"rental_uris":{"android":"levelo://app?vid=b3296071-3ee4-4cd4-a9c0-ea1b11b66293","ios":"levelo://app?vid=b3296071-3ee4-4cd4-a9c0-ea1b11b66293"},"vehicle_type_id":"4","last_reported":1726420017,"current_range_meters":9200,"station_id":"","pricing_plan_id":"cebpf4jnsgd1na2vs0mg"},{"bike_id":"b645ac77-0d58-4fa9-8ad3-947af8bdb1d9","system_id":"levelo_inurba_marseille","lat":43.299,"lon":5.43665,"is_reserved":false,"is_disabled":false,"rental_uris":{"android":"levelo://app?vid=b645ac77-0d58-4fa9-8ad3-947af8bdb1d9","ios":"levelo://app?vid=b645ac77-0d58-4fa9-8ad3-947af8bdb1d9"},"vehicle_type_id":"4","last_reported":1726420017,"current_range_meters":33200,"station_id":"ce4bhpp2rcd13ifvqhfg","pricing_plan_id":"cebpf4jnsgd1na2vs0mg"},{"bike_id":"03515e55-0de8-4f6d-953a-abbf71a9cce4","system_id":"levelo_inurba_marseille","lat":43.24071,"lon":5.37759,"is_reserved":false,"is_disabled":false,"rental_uris":{"android":"levelo://app?vid=03515e55-0de8-4f6d-953a-abbf71a9cce4","ios":"levelo://app?vid=03515e55-0de8-4f6d-953a-abbf71a9cce4"},"vehicle_type_id":"4","last_reported":1726420017,"current_range_meters":16400,"station_id":"ce4bhnp2rcd13ifvqgvg","pricing_plan_id":"cebpf4jnsgd1na2vs0mg"},{"bike_id":"b36ab794-41bb-44fc-afba-2ccad3af8cc0","system_id":"levelo_inurba_marseille","lat":43.2988,"lon":5.38914,"is_reserved":false,"is_disabled":false,"rental_uris":{"android":"levelo://app?vid=b36ab794-41bb-44fc-afba-2ccad3af8cc0","ios":"levelo://app?vid=b36ab794-41bb-44fc-afba-2ccad3af8cc0"},"vehicle_type_id":"4","last_reported":1726420017,"current_range_meters":8800,"station_id":"ce4bh392rcd13ifvqdl0","pricing_plan_id":"cebpf4jnsgd1na2vs0mg"},{"bike_id":"91d155a1-0e95-42f4-9cf2-24e586735a13","system_id":"levelo_inurba_marseille","lat":43.3372,"lon":5.39177,"is_reserved":false,"is_disabled":false,"rental_uris":{"android":"levelo://app?vid=91d155a1-0e95-42f4-9cf2-24e586735a13","ios":"levelo://app?vid=91d155a1-0e95-42f4-9cf2-24e586735a13"},"vehicle_type_id":"4","last_reported":1726420017,"current_range_meters":38800,"station_id":"ce4bhr92rcd13ifvqhsg","pricing_plan_id":"cebpf4jnsgd1na2vs0mg"},{"bike_id":"d568b713-f744-4233-a4ad-556e81435125","system_id":"levelo_inurba_marseille","lat":43.30948,"lon":5.39022,"is_reserved":false,"is_disabled":false,"rental_uris":{"android":"levelo://app?vid=d568b713-f744-4233-a4ad-556e81435125","ios":"levelo://app?vid=d568b713-f744-4233-a4ad-556e81435125"},"vehicle_type_id":"4","last_reported":1726420017,"current_range_meters":14400,"station_id":"ce4bgup2rcd13ifvqco0","pricing_plan_id":"cebpf4jnsgd1na2vs0mg"},{"bike_id":"6ec13ce0-5fd1-482f-9f1f-90b5169fdaef","system_id":"levelo_inurba_marseille","lat":43.30957,"lon":5.39039,"is_reserved":false,"is_disabled":false,"rental_uris":{"android":"levelo://app?vid=6ec13ce0-5fd1-482f-9f1f-90b5169fdaef","ios":"levelo://app?vid=6ec13ce0-5fd1-482f-9f1f-90b5169fdaef"},"vehicle_type_id":"4","last_reported":1726420017,"current_range_meters":8400,"station_id":"ce4bgup2rcd13ifvqco0","pricing_plan_id":"cebpf4jnsgd1na2vs0mg"},{"bike_id":"7abc2a25-404a-4f70-a7c0-c89315b5c4bc","system_id":"levelo_inurba_marseille","lat":43.29071,"lon":5.40551,"is_reserved":false,"is_disabled":false,"rental_uris":{"android":"levelo://app?vid=7abc2a25-404a-4f70-a7c0-c89315b5c4bc","ios":"levelo://app?vid=7abc2a25-404a-4f70-a7c0-c89315b5c4bc"},"vehicle_type_id":"4","last_reported":1726420017,"current_range_meters":28000,"station_id":"","pricing_plan_id":"cebpf4jnsgd1na2vs0mg"},{"bike_id":"79e8bd8b-89e5-4636-b27a-4ff782c91096","system_id":"levelo_inurba_marseille","lat":43.31757,"lon":5.39013,"is_reserved":false,"is_disabled":false,"rental_uris":{"android":"levelo://app?vid=79e8bd8b-89e5-4636-b27a-4ff782c91096","ios":"levelo://app?vid=79e8bd8b-89e5-4636-b27a-4ff782c91096"},"vehicle_type_id":"4","last_reported":1726420017,"current_range_meters":36800,"station_id":"ce4bhqp2rcd13ifvqhng","pricing_plan_id":"cebpf4jnsgd1na2vs0mg"},{"bike_id":"677498c9-746b-4650-9a8e-2c7479635944","system_id":"levelo_inurba_marseille","lat":43.33023,"lon":5.39044,"is_reserved":false,"is_disabled":false,"rental_uris":{"android":"levelo://app?vid=677498c9-746b-4650-9a8e-2c7479635944","ios":"levelo://app?vid=677498c9-746b-4650-9a8e-2c7479635944"},"vehicle_type_id":"4","last_reported":1726420017,"current_range_meters":31200,"station_id":"ce4bhr92rcd13ifvqhrg","pricing_plan_id":"cebpf4jnsgd1na2vs0mg"},{"bike_id":"c0042362-d76e-412e-8000-c06d63ef023d","system_id":"levelo_inurba_marseille","lat":43.29057,"lon":5.35913,"is_reserved":false,"is_disabled":false,"rental_uris":{"android":"levelo://app?vid=c0042362-d76e-412e-8000-c06d63ef023d","ios":"levelo://app?vid=c0042362-d76e-412e-8000-c06d63ef023d"},"vehicle_type_id":"4","last_reported":1726420017,"current_range_meters":38000,"station_id":"ce4bha92rcd13ifvqeg0","pricing_plan_id":"cebpf4jnsgd1na2vs0mg"},{"bike_id":"928158a2-d443-444a-8487-72b54d8f1d0a","system_id":"levelo_inurba_marseille","lat":43.30944,"lon":5.39033,"is_reserved":false,"is_disabled":false,"rental_uris":{"android":"levelo://app?vid=928158a2-d443-444a-8487-72b54d8f1d0a","ios":"levelo://app?vid=928158a2-d443-444a-8487-72b54d8f1d0a"},"vehicle_type_id":"4","last_reported":1726420017,"current_range_meters":36000,"station_id":"ce4bgup2rcd13ifvqco0","pricing_plan_id":"cebpf4jnsgd1na2vs0mg"},{"bike_id":"35054d10-ecb6-4df4-bab5-5db7414a3601","system_id":"levelo_inurba_marseille","lat":43.24665,"lon":5.38163,"is_reserved":false,"is_disabled":false,"rental_uris":{"android":"levelo://app?vid=35054d10-ecb6-4df4-bab5-5db7414a3601","ios":"levelo://app?vid=35054d10-ecb6-4df4-bab5-5db7414a3601"},"vehicle_type_id":"4","last_reported":1726420017,"current_range_meters":38800,"station_id":"ce4bhih2rcd13ifvqfr0","pricing_plan_id":"cebpf4jnsgd1na2vs0mg"},{"bike_id":"53a2d874-293d-47cc-bdbd-a03b3468623b","system_id":"levelo_inurba_marseille","lat":43.29901,"lon":5.43675,"is_reserved":false,"is_disabled":false,"rental_uris":{"android":"levelo://app?vid=53a2d874-293d-47cc-bdbd-a03b3468623b","ios":"levelo://app?vid=53a2d874-293d-47cc-bdbd-a03b3468623b"},"vehicle_type_id":"4","last_reported":1726420017,"current_range_meters":3200,"station_id":"ce4bhpp2rcd13ifvqhfg","pricing_plan_id":"cebpf4jnsgd1na2vs0mg"},{"bike_id":"4c1ecf41-3292-4a63-a103-401c0bb6cad5","system_id":"levelo_inurba_marseille","lat":43.23962,"lon":5.36622,"is_reserved":false,"is_disabled":false,"rental_uris":{"android":"levelo://app?vid=4c1ecf41-3292-4a63-a103-401c0bb6cad5","ios":"levelo://app?vid=4c1ecf41-3292-4a63-a103-401c0bb6cad5"},"vehicle_type_id":"4","last_reported":1726420017,"current_range_meters":22800,"station_id":"ce4bhi12rcd13ifvqfp0","pricing_plan_id":"cebpf4jnsgd1na2vs0mg"},{"bike_id":"b38c0a2e-3320-4ce1-8838-bce686fbc23d","system_id":"levelo_inurba_marseille","lat":43.290171,"lon":5.373835,"is_reserved":false,"is_disabled":false,"rental_uris":{"android":"levelo://app?vid=b38c0a2e-3320-4ce1-8838-bce686fbc23d","ios":"levelo://app?vid=b38c0a2e-3320-4ce1-8838-bce686fbc23d"},"vehicle_type_id":"4","last_reported":1726420017,"current_range_meters":22000,"station_id":"ce4bhc92rcd13ifvqetg","pricing_plan_id":"cebpf4jnsgd1na2vs0mg"},{"bike_id":"32d0c597-1844-4063-8b8b-02724571adbc","system_id":"levelo_inurba_marseille","lat":43.3172,"lon":5.42402,"is_reserved":false,"is_disabled":false,"rental_uris":{"android":"levelo://app?vid=32d0c597-1844-4063-8b8b-02724571adbc","ios":"levelo://app?vid=32d0c597-1844-4063-8b8b-02724571adbc"},"vehicle_type_id":"4","last_reported":1726420017,"current_range_meters":38800,"station_id":"ce4bhp92rcd13ifvqhbg","pricing_plan_id":"cebpf4jnsgd1na2vs0mg"},{"bike_id":"177d10e3-4949-40c4-a327-42d1a4df997b","system_id":"levelo_inurba_marseille","lat":43.31494,"lon":5.37306,"is_reserved":false,"is_disabled":false,"rental_uris":{"android":"levelo://app?vid=177d10e3-4949-40c4-a327-42d1a4df997b","ios":"levelo://app?vid=177d10e3-4949-40c4-a327-42d1a4df997b"},"vehicle_type_id":"4","last_reported":1726420017,"current_range_meters":37600,"station_id":"ce4bgt12rcd13ifvqcd0","pricing_plan_id":"cebpf4jnsgd1na2vs0mg"},{"bike_id":"37776167-08cf-4620-b3d3-e3f67752e124","system_id":"levelo_inurba_marseille","lat":43.2707,"lon":5.42281,"is_reserved":false,"is_disabled":false,"rental_uris":{"android":"levelo://app?vid=37776167-08cf-4620-b3d3-e3f67752e124","ios":"levelo://app?vid=37776167-08cf-4620-b3d3-e3f67752e124"},"vehicle_type_id":"4","last_reported":1726420017,"current_range_meters":9600,"station_id":"ce4bhk92rcd13ifvqgb0","pricing_plan_id":"cebpf4jnsgd1na2vs0mg"},{"bike_id":"38f1097d-95c5-4581-b701-f48bbf4ec10b","system_id":"levelo_inurba_marseille","lat":43.28102,"lon":5.37848,"is_reserved":false,"is_disabled":false,"rental_uris":{"android":"levelo://app?vid=38f1097d-95c5-4581-b701-f48bbf4ec10b","ios":"levelo://app?vid=38f1097d-95c5-4581-b701-f48bbf4ec10b"},"vehicle_type_id":"4","last_reported":1726420017,"current_range_meters":6800,"station_id":"ce4bha12rcd13ifvqee0","pricing_plan_id":"cebpf4jnsgd1na2vs0mg"},{"bike_id":"2d1cd3e7-c99d-408b-a443-ea49ea298ce1","system_id":"levelo_inurba_marseille","lat":43.30418,"lon":5.39745,"is_reserved":false,"is_disabled":false,"rental_uris":{"android":"levelo://app?vid=2d1cd3e7-c99d-408b-a443-ea49ea298ce1","ios":"levelo://app?vid=2d1cd3e7-c99d-408b-a443-ea49ea298ce1"},"vehicle_type_id":"4","last_reported":1726420017,"current_range_meters":38800,"station_id":"ce4bh092rcd13ifvqd20","pricing_plan_id":"cebpf4jnsgd1na2vs0mg"},{"bike_id":"226d5225-fbe0-4413-8831-63645e9bf730","system_id":"levelo_inurba_marseille","lat":43.30934,"lon":5.3901,"is_reserved":false,"is_disabled":false,"rental_uris":{"android":"levelo://app?vid=226d5225-fbe0-4413-8831-63645e9bf730","ios":"levelo://app?vid=226d5225-fbe0-4413-8831-63645e9bf730"},"vehicle_type_id":"4","last_reported":1726420017,"current_range_meters":14400,"station_id":"ce4bgup2rcd13ifvqco0","pricing_plan_id":"cebpf4jnsgd1na2vs0mg"},{"bike_id":"3dff43ab-30f6-4bf6-bcb6-d9a1a1970f6e","system_id":"levelo_inurba_marseille","lat":43.297819,"lon":5.393395,"is_reserved":false,"is_disabled":false,"rental_uris":{"android":"levelo://app?vid=3dff43ab-30f6-4bf6-bcb6-d9a1a1970f6e","ios":"levelo://app?vid=3dff43ab-30f6-4bf6-bcb6-d9a1a1970f6e"},"vehicle_type_id":"4","last_reported":1726420017,"current_range_meters":28400,"station_id":"ce4bgj92rcd13ifvqbd0","pricing_plan_id":"cebpf4jnsgd1na2vs0mg"},{"bike_id":"c6648a09-c20f-487f-a10f-6c6493e40312","system_id":"levelo_inurba_marseille","lat":43.28873,"lon":5.35861,"is_reserved":false,"is_disabled":false,"rental_uris":{"android":"levelo://app?vid=c6648a09-c20f-487f-a10f-6c6493e40312","ios":"levelo://app?vid=c6648a09-c20f-487f-a10f-6c6493e40312"},"vehicle_type_id":"4","last_reported":1726420017,"current_range_meters":8400,"station_id":"ce4bhb12rcd13ifvqem0","pricing_plan_id":"cebpf4jnsgd1na2vs0mg"},{"bike_id":"4586af8e-7266-4c09-b84e-4a8ac85d4038","system_id":"levelo_inurba_marseille","lat":43.25504,"lon":5.37647,"is_reserved":false,"is_disabled":false,"rental_uris":{"android":"levelo://app?vid=4586af8e-7266-4c09-b84e-4a8ac85d4038","ios":"levelo://app?vid=4586af8e-7266-4c09-b84e-4a8ac85d4038"},"vehicle_type_id":"4","last_reported":1726420017,"current_range_meters":37600,"station_id":"ce4bhh12rcd13ifvqff0","pricing_plan_id":"cebpf4jnsgd1na2vs0mg"},{"bike_id":"5dc74b83-1599-47eb-a735-c57071fed31b","system_id":"levelo_inurba_marseille","lat":43.28938,"lon":5.3664,"is_reserved":false,"is_disabled":false,"rental_uris":{"android":"levelo://app?vid=5dc74b83-1599-47eb-a735-c57071fed31b","ios":"levelo://app?vid=5dc74b83-1599-47eb-a735-c57071fed31b"},"vehicle_type_id":"4","last_reported":1726420017,"current_range_meters":3200,"station_id":"ce4bhap2rcd13ifvqek0","pricing_plan_id":"cebpf4jnsgd1na2vs0mg"},{"bike_id":"ccc81115-c769-40cb-a420-a414e3f0cc3b","system_id":"levelo_inurba_marseille","lat":43.24389,"lon":5.37061,"is_reserved":false,"is_disabled":false,"rental_uris":{"android":"levelo://app?vid=ccc81115-c769-40cb-a420-a414e3f0cc3b","ios":"levelo://app?vid=ccc81115-c769-40cb-a420-a414e3f0cc3b"},"vehicle_type_id":"4","last_reported":1726420017,"current_range_meters":36800,"station_id":"ce4bhhh2rcd13ifvqfk0","pricing_plan_id":"cebpf4jnsgd1na2vs0mg"},{"bike_id":"6ad2fe94-195b-4d58-9ac6-d3a9675a4c80","system_id":"levelo_inurba_marseille","lat":43.23066,"lon":5.35492,"is_reserved":false,"is_disabled":false,"rental_uris":{"android":"levelo://app?vid=6ad2fe94-195b-4d58-9ac6-d3a9675a4c80","ios":"levelo://app?vid=6ad2fe94-195b-4d58-9ac6-d3a9675a4c80"},"vehicle_type_id":"4","last_reported":1726420017,"current_range_meters":21600,"station_id":"cpo3342slgdg3j2ifvpg","pricing_plan_id":"cebpf4jnsgd1na2vs0mg"},{"bike_id":"77f64da4-cffa-4eda-80d1-539b03c32197","system_id":"levelo_inurba_marseille","lat":43.287,"lon":5.39983,"is_reserved":false,"is_disabled":false,"rental_uris":{"android":"levelo://app?vid=77f64da4-cffa-4eda-80d1-539b03c32197","ios":"levelo://app?vid=77f64da4-cffa-4eda-80d1-539b03c32197"},"vehicle_type_id":"4","last_reported":1726420017,"current_range_meters":3200,"station_id":"ce4bho92rcd13ifvqh3g","pricing_plan_id":"cebpf4jnsgd1na2vs0mg"},{"bike_id":"e1af2acb-f4a1-4184-8b63-fe802041d923","system_id":"levelo_inurba_marseille","lat":43.28353,"lon":5.38643,"is_reserved":false,"is_disabled":false,"rental_uris":{"android":"levelo://app?vid=e1af2acb-f4a1-4184-8b63-fe802041d923","ios":"levelo://app?vid=e1af2acb-f4a1-4184-8b63-fe802041d923"},"vehicle_type_id":"4","last_reported":1726420017,"current_range_meters":3600,"station_id":"ce4bh492rcd13ifvqdvg","pricing_plan_id":"cebpf4jnsgd1na2vs0mg"},{"bike_id":"7c028ed2-f8f4-4dd4-a35b-9499469f84c9","system_id":"levelo_inurba_marseille","lat":43.294192,"lon":5.386184,"is_reserved":false,"is_disabled":false,"rental_uris":{"android":"levelo://app?vid=7c028ed2-f8f4-4dd4-a35b-9499469f84c9","ios":"levelo://app?vid=7c028ed2-f8f4-4dd4-a35b-9499469f84c9"},"vehicle_type_id":"4","last_reported":1726420017,"current_range_meters":6000,"station_id":"ce4bhh92rcd13ifvqfi0","pricing_plan_id":"cebpf4jnsgd1na2vs0mg"},{"bike_id":"2a29b635-860d-4fcf-b9ef-7b9429843b40","system_id":"levelo_inurba_marseille","lat":43.31726,"lon":5.42406,"is_reserved":false,"is_disabled":false,"rental_uris":{"android":"levelo://app?vid=2a29b635-860d-4fcf-b9ef-7b9429843b40","ios":"levelo://app?vid=2a29b635-860d-4fcf-b9ef-7b9429843b40"},"vehicle_type_id":"4","last_reported":1726420017,"current_range_meters":36800,"station_id":"ce4bhp92rcd13ifvqhbg","pricing_plan_id":"cebpf4jnsgd1na2vs0mg"},{"bike_id":"5fb80b9c-4c90-47a0-bb0f-a0abc69b22ef","system_id":"levelo_inurba_marseille","lat":43.28931,"lon":5.36649,"is_reserved":false,"is_disabled":false,"rental_uris":{"android":"levelo://app?vid=5fb80b9c-4c90-47a0-bb0f-a0abc69b22ef","ios":"levelo://app?vid=5fb80b9c-4c90-47a0-bb0f-a0abc69b22ef"},"vehicle_type_id":"4","last_reported":1726420017,"current_range_meters":6000,"station_id":"ce4bhap2rcd13ifvqek0","pricing_plan_id":"cebpf4jnsgd1na2vs0mg"},{"bike_id":"c5a05763-317e-49ed-bc1b-dce0e05392e8","system_id":"levelo_inurba_marseille","lat":43.31888,"lon":5.40733,"is_reserved":false,"is_disabled":false,"rental_uris":{"android":"levelo://app?vid=c5a05763-317e-49ed-bc1b-dce0e05392e8","ios":"levelo://app?vid=c5a05763-317e-49ed-bc1b-dce0e05392e8"},"vehicle_type_id":"4","last_reported":1726420017,"current_range_meters":28400,"station_id":"ce4bhq12rcd13ifvqhig","pricing_plan_id":"cebpf4jnsgd1na2vs0mg"},{"bike_id":"bef51d73-7c05-475b-bad1-93ff3e874bec","system_id":"levelo_inurba_marseille","lat":43.289978,"lon":5.387037,"is_reserved":false,"is_disabled":false,"rental_uris":{"android":"levelo://app?vid=bef51d73-7c05-475b-bad1-93ff3e874bec","ios":"levelo://app?vid=bef51d73-7c05-475b-bad1-93ff3e874bec"},"vehicle_type_id":"4","last_reported":1726420017,"current_range_meters":12800,"station_id":"","pricing_plan_id":"cebpf4jnsgd1na2vs0mg"},{"bike_id":"789fa5b0-53ec-4dd3-9e4c-1ee8a6e55930","system_id":"levelo_inurba_marseille","lat":43.24814,"lon":5.37458,"is_reserved":false,"is_disabled":false,"rental_uris":{"android":"levelo://app?vid=789fa5b0-53ec-4dd3-9e4c-1ee8a6e55930","ios":"levelo://app?vid=789fa5b0-53ec-4dd3-9e4c-1ee8a6e55930"},"vehicle_type_id":"4","last_reported":1726420017,"current_range_meters":7200,"station_id":"ce4bhgh2rcd13ifvqfb0","pricing_plan_id":"cebpf4jnsgd1na2vs0mg"},{"bike_id":"d1f38fcd-be46-4877-a9ac-34b365272c30","system_id":"levelo_inurba_marseille","lat":43.27102,"lon":5.43322,"is_reserved":false,"is_disabled":false,"rental_uris":{"android":"levelo://app?vid=d1f38fcd-be46-4877-a9ac-34b365272c30","ios":"levelo://app?vid=d1f38fcd-be46-4877-a9ac-34b365272c30"},"vehicle_type_id":"4","last_reported":1726420017,"current_range_meters":14000,"station_id":"","pricing_plan_id":"cebpf4jnsgd1na2vs0mg"},{"bike_id":"5dd812c1-471e-4696-8ab0-e50e2dc97a3e","system_id":"levelo_inurba_marseille","lat":43.32344,"lon":5.40614,"is_reserved":false,"is_disabled":false,"rental_uris":{"android":"levelo://app?vid=5dd812c1-471e-4696-8ab0-e50e2dc97a3e","ios":"levelo://app?vid=5dd812c1-471e-4696-8ab0-e50e2dc97a3e"},"vehicle_type_id":"4","last_reported":1726420017,"current_range_meters":3600,"station_id":"ce4bhq92rcd13ifvqhjg","pricing_plan_id":"cebpf4jnsgd1na2vs0mg"},{"bike_id":"2c36f173-7fe7-45a3-b0b4-69fddd6ecd2c","system_id":"levelo_inurba_marseille","lat":43.27611,"lon":5.36107,"is_reserved":false,"is_disabled":false,"rental_uris":{"android":"levelo://app?vid=2c36f173-7fe7-45a3-b0b4-69fddd6ecd2c","ios":"levelo://app?vid=2c36f173-7fe7-45a3-b0b4-69fddd6ecd2c"},"vehicle_type_id":"4","last_reported":1726420017,"current_range_meters":17600,"station_id":"ce4bgj92rcd13ifvqbe0","pricing_plan_id":"cebpf4jnsgd1na2vs0mg"},{"bike_id":"ef40d1ba-afc9-40ab-bd70-9fb6d00afbfc","system_id":"levelo_inurba_marseille","lat":43.29612,"lon":5.37713,"is_reserved":false,"is_disabled":false,"rental_uris":{"android":"levelo://app?vid=ef40d1ba-afc9-40ab-bd70-9fb6d00afbfc","ios":"levelo://app?vid=ef40d1ba-afc9-40ab-bd70-9fb6d00afbfc"},"vehicle_type_id":"4","last_reported":1726420017,"current_range_meters":31200,"station_id":"ce4bgi92rcd13ifvqb90","pricing_plan_id":"cebpf4jnsgd1na2vs0mg"},{"bike_id":"91f7e9e5-076e-4e3a-8acf-289dc20e3d9f","system_id":"levelo_inurba_marseille","lat":43.31724,"lon":5.42399,"is_reserved":false,"is_disabled":false,"rental_uris":{"android":"levelo://app?vid=91f7e9e5-076e-4e3a-8acf-289dc20e3d9f","ios":"levelo://app?vid=91f7e9e5-076e-4e3a-8acf-289dc20e3d9f"},"vehicle_type_id":"4","last_reported":1726420017,"current_range_meters":36800,"station_id":"ce4bhp92rcd13ifvqhbg","pricing_plan_id":"cebpf4jnsgd1na2vs0mg"},{"bike_id":"62f6cbee-2704-4cb7-ad0f-c03a4a4ad232","system_id":"levelo_inurba_marseille","lat":43.25492,"lon":5.37644,"is_reserved":false,"is_disabled":false,"rental_uris":{"android":"levelo://app?vid=62f6cbee-2704-4cb7-ad0f-c03a4a4ad232","ios":"levelo://app?vid=62f6cbee-2704-4cb7-ad0f-c03a4a4ad232"},"vehicle_type_id":"4","last_reported":1726420017,"current_range_meters":35600,"station_id":"ce4bhh12rcd13ifvqff0","pricing_plan_id":"cebpf4jnsgd1na2vs0mg"},{"bike_id":"d4dcec5a-b0b6-4319-8584-aaf3103d153c","system_id":"levelo_inurba_marseille","lat":43.29562,"lon":5.42276,"is_reserved":false,"is_disabled":false,"rental_uris":{"android":"levelo://app?vid=d4dcec5a-b0b6-4319-8584-aaf3103d153c","ios":"levelo://app?vid=d4dcec5a-b0b6-4319-8584-aaf3103d153c"},"vehicle_type_id":"4","last_reported":1726420017,"current_range_meters":35200,"station_id":"ce4bhph2rcd13ifvqhdg","pricing_plan_id":"cebpf4jnsgd1na2vs0mg"},{"bike_id":"5263c75a-b0ca-4e1c-9976-2df708ba914c","system_id":"levelo_inurba_marseille","lat":43.29561,"lon":5.42287,"is_reserved":false,"is_disabled":false,"rental_uris":{"android":"levelo://app?vid=5263c75a-b0ca-4e1c-9976-2df708ba914c","ios":"levelo://app?vid=5263c75a-b0ca-4e1c-9976-2df708ba914c"},"vehicle_type_id":"4","last_reported":1726420017,"current_range_meters":10000,"station_id":"ce4bhph2rcd13ifvqhdg","pricing_plan_id":"cebpf4jnsgd1na2vs0mg"},{"bike_id":"7ced4b8f-88a8-45d9-9162-c824ae4b9ca9","system_id":"levelo_inurba_marseille","lat":43.29006,"lon":5.35617,"is_reserved":false,"is_disabled":false,"rental_uris":{"android":"levelo://app?vid=7ced4b8f-88a8-45d9-9162-c824ae4b9ca9","ios":"levelo://app?vid=7ced4b8f-88a8-45d9-9162-c824ae4b9ca9"},"vehicle_type_id":"4","last_reported":1726420017,"current_range_meters":25200,"station_id":"ce4bhb92rcd13ifvqen0","pricing_plan_id":"cebpf4jnsgd1na2vs0mg"},{"bike_id":"01728a3f-3ded-40bb-96ff-84408c133881","system_id":"levelo_inurba_marseille","lat":43.28044,"lon":5.36947,"is_reserved":false,"is_disabled":false,"rental_uris":{"android":"levelo://app?vid=01728a3f-3ded-40bb-96ff-84408c133881","ios":"levelo://app?vid=01728a3f-3ded-40bb-96ff-84408c133881"},"vehicle_type_id":"4","last_reported":1726420017,"current_range_meters":37600,"station_id":"ce4bha12rcd13ifvqef0","pricing_plan_id":"cebpf4jnsgd1na2vs0mg"},{"bike_id":"1c04d834-f1cb-4208-8170-6ea9696f84cb","system_id":"levelo_inurba_marseille","lat":43.266799,"lon":5.38282,"is_reserved":false,"is_disabled":false,"rental_uris":{"android":"levelo://app?vid=1c04d834-f1cb-4208-8170-6ea9696f84cb","ios":"levelo://app?vid=1c04d834-f1cb-4208-8170-6ea9696f84cb"},"vehicle_type_id":"4","last_reported":1726420017,"current_range_meters":6400,"station_id":"ce4bhg92rcd13ifvqf90","pricing_plan_id":"cebpf4jnsgd1na2vs0mg"},{"bike_id":"103368f7-6cf9-4f61-a9f7-0e638a4ed99a","system_id":"levelo_inurba_marseille","lat":43.24082,"lon":5.37756,"is_reserved":false,"is_disabled":false,"rental_uris":{"android":"levelo://app?vid=103368f7-6cf9-4f61-a9f7-0e638a4ed99a","ios":"levelo://app?vid=103368f7-6cf9-4f61-a9f7-0e638a4ed99a"},"vehicle_type_id":"4","last_reported":1726420017,"current_range_meters":11200,"station_id":"ce4bhnp2rcd13ifvqgvg","pricing_plan_id":"cebpf4jnsgd1na2vs0mg"},{"bike_id":"7d6f2c34-47f6-4ddf-a09e-77559573e6f7","system_id":"levelo_inurba_marseille","lat":43.28037,"lon":5.36944,"is_reserved":false,"is_disabled":false,"rental_uris":{"android":"levelo://app?vid=7d6f2c34-47f6-4ddf-a09e-77559573e6f7","ios":"levelo://app?vid=7d6f2c34-47f6-4ddf-a09e-77559573e6f7"},"vehicle_type_id":"4","last_reported":1726420017,"current_range_meters":24800,"station_id":"ce4bha12rcd13ifvqef0","pricing_plan_id":"cebpf4jnsgd1na2vs0mg"},{"bike_id":"145283b0-dffe-4880-9e17-84c7685b5190","system_id":"levelo_inurba_marseille","lat":43.298859,"lon":5.365142,"is_reserved":false,"is_disabled":false,"rental_uris":{"android":"levelo://app?vid=145283b0-dffe-4880-9e17-84c7685b5190","ios":"levelo://app?vid=145283b0-dffe-4880-9e17-84c7685b5190"},"vehicle_type_id":"4","last_reported":1726420017,"current_range_meters":4000,"station_id":"","pricing_plan_id":"cebpf4jnsgd1na2vs0mg"},{"bike_id":"69ad5b8b-1ac5-4ba1-bc74-5a2355179ffb","system_id":"levelo_inurba_marseille","lat":43.30804,"lon":5.43525,"is_reserved":false,"is_disabled":false,"rental_uris":{"android":"levelo://app?vid=69ad5b8b-1ac5-4ba1-bc74-5a2355179ffb","ios":"levelo://app?vid=69ad5b8b-1ac5-4ba1-bc74-5a2355179ffb"},"vehicle_type_id":"4","last_reported":1726420017,"current_range_meters":20000,"station_id":"ce4bhph2rcd13ifvqheg","pricing_plan_id":"cebpf4jnsgd1na2vs0mg"},{"bike_id":"17dc01dc-d305-4a4e-b001-9ca878897fac","system_id":"levelo_inurba_marseille","lat":43.2847,"lon":5.38421,"is_reserved":false,"is_disabled":false,"rental_uris":{"android":"levelo://app?vid=17dc01dc-d305-4a4e-b001-9ca878897fac","ios":"levelo://app?vid=17dc01dc-d305-4a4e-b001-9ca878897fac"},"vehicle_type_id":"4","last_reported":1726420017,"current_range_meters":25200,"station_id":"ce4bh512rcd13ifvqe3g","pricing_plan_id":"cebpf4jnsgd1na2vs0mg"},{"bike_id":"c840fd26-2b17-45a9-aac9-92d3f1ce47b3","system_id":"levelo_inurba_marseille","lat":43.2319,"lon":5.35553,"is_reserved":false,"is_disabled":false,"rental_uris":{"android":"levelo://app?vid=c840fd26-2b17-45a9-aac9-92d3f1ce47b3","ios":"levelo://app?vid=c840fd26-2b17-45a9-aac9-92d3f1ce47b3"},"vehicle_type_id":"4","last_reported":1726420017,"current_range_meters":22000,"station_id":"ce4bhu92rcd13ifvqi70","pricing_plan_id":"cebpf4jnsgd1na2vs0mg"},{"bike_id":"4db921f2-bc23-49f4-8a24-f619c1eace61","system_id":"levelo_inurba_marseille","lat":43.23196,"lon":5.35543,"is_reserved":false,"is_disabled":false,"rental_uris":{"android":"levelo://app?vid=4db921f2-bc23-49f4-8a24-f619c1eace61","ios":"levelo://app?vid=4db921f2-bc23-49f4-8a24-f619c1eace61"},"vehicle_type_id":"4","last_reported":1726420017,"current_range_meters":22000,"station_id":"ce4bhu92rcd13ifvqi70","pricing_plan_id":"cebpf4jnsgd1na2vs0mg"},{"bike_id":"f11d1b86-b95d-4bd6-b4ed-1a12633d4389","system_id":"levelo_inurba_marseille","lat":43.29559,"lon":5.42284,"is_reserved":false,"is_disabled":false,"rental_uris":{"android":"levelo://app?vid=f11d1b86-b95d-4bd6-b4ed-1a12633d4389","ios":"levelo://app?vid=f11d1b86-b95d-4bd6-b4ed-1a12633d4389"},"vehicle_type_id":"4","last_reported":1726420017,"current_range_meters":2000,"station_id":"ce4bhph2rcd13ifvqhdg","pricing_plan_id":"cebpf4jnsgd1na2vs0mg"},{"bike_id":"328d45f9-980e-4811-97c0-47d761861509","system_id":"levelo_inurba_marseille","lat":43.29847,"lon":5.37836,"is_reserved":false,"is_disabled":false,"rental_uris":{"android":"levelo://app?vid=328d45f9-980e-4811-97c0-47d761861509","ios":"levelo://app?vid=328d45f9-980e-4811-97c0-47d761861509"},"vehicle_type_id":"4","last_reported":1726420017,"current_range_meters":27200,"station_id":"ce4bgkh2rcd13ifvqbl0","pricing_plan_id":"cebpf4jnsgd1na2vs0mg"},{"bike_id":"3b51f764-c75e-47b9-9ce2-0fdae7022f59","system_id":"levelo_inurba_marseille","lat":43.24824,"lon":5.39216,"is_reserved":false,"is_disabled":false,"rental_uris":{"android":"levelo://app?vid=3b51f764-c75e-47b9-9ce2-0fdae7022f59","ios":"levelo://app?vid=3b51f764-c75e-47b9-9ce2-0fdae7022f59"},"vehicle_type_id":"4","last_reported":1726420017,"current_range_meters":2800,"station_id":"","pricing_plan_id":"cebpf4jnsgd1na2vs0mg"},{"bike_id":"ed894eb8-418b-420e-8b0a-60c234bd212d","system_id":"levelo_inurba_marseille","lat":43.25089,"lon":5.39517,"is_reserved":false,"is_disabled":false,"rental_uris":{"android":"levelo://app?vid=ed894eb8-418b-420e-8b0a-60c234bd212d","ios":"levelo://app?vid=ed894eb8-418b-420e-8b0a-60c234bd212d"},"vehicle_type_id":"4","last_reported":1726420017,"current_range_meters":8000,"station_id":"ce4bhm12rcd13ifvqgkg","pricing_plan_id":"cebpf4jnsgd1na2vs0mg"},{"bike_id":"faf816e6-4e87-4e93-88d4-5861eae33b5c","system_id":"levelo_inurba_marseille","lat":43.24078,"lon":5.3775,"is_reserved":false,"is_disabled":false,"rental_uris":{"android":"levelo://app?vid=faf816e6-4e87-4e93-88d4-5861eae33b5c","ios":"levelo://app?vid=faf816e6-4e87-4e93-88d4-5861eae33b5c"},"vehicle_type_id":"4","last_reported":1726420017,"current_range_meters":25200,"station_id":"ce4bhnp2rcd13ifvqgvg","pricing_plan_id":"cebpf4jnsgd1na2vs0mg"},{"bike_id":"c264ec44-e2d7-4307-8c45-7a567c428ef9","system_id":"levelo_inurba_marseille","lat":43.24648,"lon":5.3889,"is_reserved":false,"is_disabled":false,"rental_uris":{"android":"levelo://app?vid=c264ec44-e2d7-4307-8c45-7a567c428ef9","ios":"levelo://app?vid=c264ec44-e2d7-4307-8c45-7a567c428ef9"},"vehicle_type_id":"4","last_reported":1726420017,"current_range_meters":36800,"station_id":"ce4bhg12rcd13ifvqf60","pricing_plan_id":"cebpf4jnsgd1na2vs0mg"},{"bike_id":"ece240a6-57ed-4ab0-9fc1-7ec70e1c4642","system_id":"levelo_inurba_marseille","lat":43.30948,"lon":5.39037,"is_reserved":false,"is_disabled":false,"rental_uris":{"android":"levelo://app?vid=ece240a6-57ed-4ab0-9fc1-7ec70e1c4642","ios":"levelo://app?vid=ece240a6-57ed-4ab0-9fc1-7ec70e1c4642"},"vehicle_type_id":"4","last_reported":1726420017,"current_range_meters":11200,"station_id":"ce4bgup2rcd13ifvqco0","pricing_plan_id":"cebpf4jnsgd1na2vs0mg"},{"bike_id":"8b608b96-fedf-4511-8d4b-09bad2606e1a","system_id":"levelo_inurba_marseille","lat":43.27731,"lon":5.41135,"is_reserved":false,"is_disabled":false,"rental_uris":{"android":"levelo://app?vid=8b608b96-fedf-4511-8d4b-09bad2606e1a","ios":"levelo://app?vid=8b608b96-fedf-4511-8d4b-09bad2606e1a"},"vehicle_type_id":"4","last_reported":1726420017,"current_range_meters":20000,"station_id":"","pricing_plan_id":"cebpf4jnsgd1na2vs0mg"},{"bike_id":"c3c08714-fb2d-48ed-87f9-c9c5994174c9","system_id":"levelo_inurba_marseille","lat":43.26804,"lon":5.40268,"is_reserved":false,"is_disabled":false,"rental_uris":{"android":"levelo://app?vid=c3c08714-fb2d-48ed-87f9-c9c5994174c9","ios":"levelo://app?vid=c3c08714-fb2d-48ed-87f9-c9c5994174c9"},"vehicle_type_id":"4","last_reported":1726420017,"current_range_meters":14400,"station_id":"ce501612rcd8frsf0b60","pricing_plan_id":"cebpf4jnsgd1na2vs0mg"},{"bike_id":"d6149948-cc69-48c8-b75f-51b423ee5546","system_id":"levelo_inurba_marseille","lat":43.31169,"lon":5.39345,"is_reserved":false,"is_disabled":false,"rental_uris":{"android":"levelo://app?vid=d6149948-cc69-48c8-b75f-51b423ee5546","ios":"levelo://app?vid=d6149948-cc69-48c8-b75f-51b423ee5546"},"vehicle_type_id":"4","last_reported":1726420017,"current_range_meters":26800,"station_id":"","pricing_plan_id":"cebpf4jnsgd1na2vs0mg"},{"bike_id":"6f4f7321-2be7-4c36-bb04-a516f10e06a9","system_id":"levelo_inurba_marseille","lat":43.23184,"lon":5.39993,"is_reserved":false,"is_disabled":false,"rental_uris":{"android":"levelo://app?vid=6f4f7321-2be7-4c36-bb04-a516f10e06a9","ios":"levelo://app?vid=6f4f7321-2be7-4c36-bb04-a516f10e06a9"},"vehicle_type_id":"4","last_reported":1726420017,"current_range_meters":30400,"station_id":"ce4bhn12rcd13ifvqgqg","pricing_plan_id":"cebpf4jnsgd1na2vs0mg"},{"bike_id":"fa2b0a9f-66ad-4cd1-b7bb-93b9cffdc904","system_id":"levelo_inurba_marseille","lat":43.25931,"lon":5.40906,"is_reserved":false,"is_disabled":false,"rental_uris":{"android":"levelo://app?vid=fa2b0a9f-66ad-4cd1-b7bb-93b9cffdc904","ios":"levelo://app?vid=fa2b0a9f-66ad-4cd1-b7bb-93b9cffdc904"},"vehicle_type_id":"4","last_reported":1726420017,"current_range_meters":31200,"station_id":"ce4bhm92rcd13ifvqglg","pricing_plan_id":"cebpf4jnsgd1na2vs0mg"},{"bike_id":"176d5298-f8e5-4d21-823b-d7223edc733a","system_id":"levelo_inurba_marseille","lat":43.29057,"lon":5.37689,"is_reserved":false,"is_disabled":false,"rental_uris":{"android":"levelo://app?vid=176d5298-f8e5-4d21-823b-d7223edc733a","ios":"levelo://app?vid=176d5298-f8e5-4d21-823b-d7223edc733a"},"vehicle_type_id":"4","last_reported":1726420017,"current_range_meters":11200,"station_id":"ce4bhc92rcd13ifvqetg","pricing_plan_id":"cebpf4jnsgd1na2vs0mg"},{"bike_id":"714909f1-d15f-482b-b430-c0e3c5479824","system_id":"levelo_inurba_marseille","lat":43.2594,"lon":5.409,"is_reserved":false,"is_disabled":false,"rental_uris":{"android":"levelo://app?vid=714909f1-d15f-482b-b430-c0e3c5479824","ios":"levelo://app?vid=714909f1-d15f-482b-b430-c0e3c5479824"},"vehicle_type_id":"4","last_reported":1726420017,"current_range_meters":28000,"station_id":"ce4bhm92rcd13ifvqglg","pricing_plan_id":"cebpf4jnsgd1na2vs0mg"},{"bike_id":"d2ca61ed-07b0-4f91-990e-b98a38e76d1b","system_id":"levelo_inurba_marseille","lat":43.24077,"lon":5.37752,"is_reserved":false,"is_disabled":false,"rental_uris":{"android":"levelo://app?vid=d2ca61ed-07b0-4f91-990e-b98a38e76d1b","ios":"levelo://app?vid=d2ca61ed-07b0-4f91-990e-b98a38e76d1b"},"vehicle_type_id":"4","last_reported":1726420017,"current_range_meters":11200,"station_id":"ce4bhnp2rcd13ifvqgvg","pricing_plan_id":"cebpf4jnsgd1na2vs0mg"},{"bike_id":"be3580cc-5597-48ff-bbfe-6a25fd4800e2","system_id":"levelo_inurba_marseille","lat":43.31729,"lon":5.42402,"is_reserved":false,"is_disabled":false,"rental_uris":{"android":"levelo://app?vid=be3580cc-5597-48ff-bbfe-6a25fd4800e2","ios":"levelo://app?vid=be3580cc-5597-48ff-bbfe-6a25fd4800e2"},"vehicle_type_id":"4","last_reported":1726420017,"current_range_meters":38800,"station_id":"ce4bhp92rcd13ifvqhbg","pricing_plan_id":"cebpf4jnsgd1na2vs0mg"},{"bike_id":"1c956d28-b66e-427b-9681-b110484fbd57","system_id":"levelo_inurba_marseille","lat":43.27998,"lon":5.41665,"is_reserved":false,"is_disabled":false,"rental_uris":{"android":"levelo://app?vid=1c956d28-b66e-427b-9681-b110484fbd57","ios":"levelo://app?vid=1c956d28-b66e-427b-9681-b110484fbd57"},"vehicle_type_id":"4","last_reported":1726420017,"current_range_meters":38800,"station_id":"ce4bho12rcd13ifvqh1g","pricing_plan_id":"cebpf4jnsgd1na2vs0mg"},{"bike_id":"f1e8ceee-9573-4b77-ab79-482d0d3b70cc","system_id":"levelo_inurba_marseille","lat":43.24174,"lon":5.36391,"is_reserved":false,"is_disabled":false,"rental_uris":{"android":"levelo://app?vid=f1e8ceee-9573-4b77-ab79-482d0d3b70cc","ios":"levelo://app?vid=f1e8ceee-9573-4b77-ab79-482d0d3b70cc"},"vehicle_type_id":"4","last_reported":1726420017,"current_range_meters":35200,"station_id":"cpo36qri1sfpv3e86is0","pricing_plan_id":"cebpf4jnsgd1na2vs0mg"},{"bike_id":"33d9b36f-a8f1-4010-9220-27421f865670","system_id":"levelo_inurba_marseille","lat":43.279785,"lon":5.38751,"is_reserved":false,"is_disabled":false,"rental_uris":{"android":"levelo://app?vid=33d9b36f-a8f1-4010-9220-27421f865670","ios":"levelo://app?vid=33d9b36f-a8f1-4010-9220-27421f865670"},"vehicle_type_id":"4","last_reported":1726420017,"current_range_meters":5600,"station_id":"ce4bhg12rcd13ifvqf80","pricing_plan_id":"cebpf4jnsgd1na2vs0mg"},{"bike_id":"0f647097-c17c-4062-a9e5-1deba499f0d0","system_id":"levelo_inurba_marseille","lat":43.24816,"lon":5.37457,"is_reserved":false,"is_disabled":false,"rental_uris":{"android":"levelo://app?vid=0f647097-c17c-4062-a9e5-1deba499f0d0","ios":"levelo://app?vid=0f647097-c17c-4062-a9e5-1deba499f0d0"},"vehicle_type_id":"4","last_reported":1726420017,"current_range_meters":37600,"station_id":"ce4bhgh2rcd13ifvqfb0","pricing_plan_id":"cebpf4jnsgd1na2vs0mg"},{"bike_id":"737c5042-01d0-463a-a2dc-883f78ff3ab9","system_id":"levelo_inurba_marseille","lat":43.30951,"lon":5.3903,"is_reserved":false,"is_disabled":false,"rental_uris":{"android":"levelo://app?vid=737c5042-01d0-463a-a2dc-883f78ff3ab9","ios":"levelo://app?vid=737c5042-01d0-463a-a2dc-883f78ff3ab9"},"vehicle_type_id":"4","last_reported":1726420017,"current_range_meters":16800,"station_id":"ce4bgup2rcd13ifvqco0","pricing_plan_id":"cebpf4jnsgd1na2vs0mg"},{"bike_id":"0e5a3bf8-e7be-4e70-aca4-d97d6e03c7dd","system_id":"levelo_inurba_marseille","lat":43.33023,"lon":5.39046,"is_reserved":false,"is_disabled":false,"rental_uris":{"android":"levelo://app?vid=0e5a3bf8-e7be-4e70-aca4-d97d6e03c7dd","ios":"levelo://app?vid=0e5a3bf8-e7be-4e70-aca4-d97d6e03c7dd"},"vehicle_type_id":"4","last_reported":1726420017,"current_range_meters":22400,"station_id":"ce4bhr92rcd13ifvqhrg","pricing_plan_id":"cebpf4jnsgd1na2vs0mg"},{"bike_id":"149cf0d3-a165-4b7c-b2c6-9c84d5e59305","system_id":"levelo_inurba_marseille","lat":43.292908,"lon":5.368522,"is_reserved":false,"is_disabled":false,"rental_uris":{"android":"levelo://app?vid=149cf0d3-a165-4b7c-b2c6-9c84d5e59305","ios":"levelo://app?vid=149cf0d3-a165-4b7c-b2c6-9c84d5e59305"},"vehicle_type_id":"4","last_reported":1726420017,"current_range_meters":8400,"station_id":"ce4bhbp2rcd13ifvqesg","pricing_plan_id":"cebpf4jnsgd1na2vs0mg"},{"bike_id":"90aab75d-ad31-40cf-a604-7f2ebff874bb","system_id":"levelo_inurba_marseille","lat":43.29531,"lon":5.39404,"is_reserved":false,"is_disabled":false,"rental_uris":{"android":"levelo://app?vid=90aab75d-ad31-40cf-a604-7f2ebff874bb","ios":"levelo://app?vid=90aab75d-ad31-40cf-a604-7f2ebff874bb"},"vehicle_type_id":"4","last_reported":1726420017,"current_range_meters":30400,"station_id":"ce4bh292rcd13ifvqdf0","pricing_plan_id":"cebpf4jnsgd1na2vs0mg"},{"bike_id":"012525c8-d863-400b-a802-0ef1a483fc5c","system_id":"levelo_inurba_marseille","lat":43.29557,"lon":5.42283,"is_reserved":false,"is_disabled":false,"rental_uris":{"android":"levelo://app?vid=012525c8-d863-400b-a802-0ef1a483fc5c","ios":"levelo://app?vid=012525c8-d863-400b-a802-0ef1a483fc5c"},"vehicle_type_id":"4","last_reported":1726420017,"current_range_meters":11200,"station_id":"ce4bhph2rcd13ifvqhdg","pricing_plan_id":"cebpf4jnsgd1na2vs0mg"},{"bike_id":"6f387a41-1a28-4619-ac86-26875678b81b","system_id":"levelo_inurba_marseille","lat":43.299,"lon":5.43669,"is_reserved":false,"is_disabled":false,"rental_uris":{"android":"levelo://app?vid=6f387a41-1a28-4619-ac86-26875678b81b","ios":"levelo://app?vid=6f387a41-1a28-4619-ac86-26875678b81b"},"vehicle_type_id":"4","last_reported":1726420017,"current_range_meters":30400,"station_id":"ce4bhpp2rcd13ifvqhfg","pricing_plan_id":"cebpf4jnsgd1na2vs0mg"},{"bike_id":"a95b580c-a13a-4d94-9cd1-66aec4bdab11","system_id":"levelo_inurba_marseille","lat":43.30882,"lon":5.39647,"is_reserved":false,"is_disabled":false,"rental_uris":{"android":"levelo://app?vid=a95b580c-a13a-4d94-9cd1-66aec4bdab11","ios":"levelo://app?vid=a95b580c-a13a-4d94-9cd1-66aec4bdab11"},"vehicle_type_id":"4","last_reported":1726420017,"current_range_meters":30000,"station_id":"ce4bh012rcd13ifvqcv0","pricing_plan_id":"cebpf4jnsgd1na2vs0mg"},{"bike_id":"7960c7fe-c28c-4602-b4be-97d26ae78567","system_id":"levelo_inurba_marseille","lat":43.309298,"lon":5.401278,"is_reserved":false,"is_disabled":false,"rental_uris":{"android":"levelo://app?vid=7960c7fe-c28c-4602-b4be-97d26ae78567","ios":"levelo://app?vid=7960c7fe-c28c-4602-b4be-97d26ae78567"},"vehicle_type_id":"4","last_reported":1726420017,"current_range_meters":7200,"station_id":"ce4bgvp2rcd13ifvqct0","pricing_plan_id":"cebpf4jnsgd1na2vs0mg"},{"bike_id":"eb1c60a1-0d67-4050-81a6-239f0b6c7e29","system_id":"levelo_inurba_marseille","lat":43.302979,"lon":5.392085,"is_reserved":false,"is_disabled":false,"rental_uris":{"android":"levelo://app?vid=eb1c60a1-0d67-4050-81a6-239f0b6c7e29","ios":"levelo://app?vid=eb1c60a1-0d67-4050-81a6-239f0b6c7e29"},"vehicle_type_id":"4","last_reported":1726420017,"current_range_meters":12800,"station_id":"ce4bh0h2rcd13ifvqd60","pricing_plan_id":"cebpf4jnsgd1na2vs0mg"},{"bike_id":"aa95c661-1107-4bd0-b9af-c8a4ebe70138","system_id":"levelo_inurba_marseille","lat":43.32958,"lon":5.39035,"is_reserved":false,"is_disabled":false,"rental_uris":{"android":"levelo://app?vid=aa95c661-1107-4bd0-b9af-c8a4ebe70138","ios":"levelo://app?vid=aa95c661-1107-4bd0-b9af-c8a4ebe70138"},"vehicle_type_id":"4","last_reported":1726420017,"current_range_meters":36000,"station_id":"","pricing_plan_id":"cebpf4jnsgd1na2vs0mg"},{"bike_id":"8654c6f2-ebfe-421b-a8e8-3e7a7805166c","system_id":"levelo_inurba_marseille","lat":43.292941,"lon":5.374651,"is_reserved":false,"is_disabled":false,"rental_uris":{"android":"levelo://app?vid=8654c6f2-ebfe-421b-a8e8-3e7a7805166c","ios":"levelo://app?vid=8654c6f2-ebfe-421b-a8e8-3e7a7805166c"},"vehicle_type_id":"4","last_reported":1726420017,"current_range_meters":11200,"station_id":"ce4bgi12rcd13ifvqb70","pricing_plan_id":"cebpf4jnsgd1na2vs0mg"},{"bike_id":"349d9ac4-642a-438f-a490-46173d58584f","system_id":"levelo_inurba_marseille","lat":43.23973,"lon":5.3663,"is_reserved":false,"is_disabled":false,"rental_uris":{"android":"levelo://app?vid=349d9ac4-642a-438f-a490-46173d58584f","ios":"levelo://app?vid=349d9ac4-642a-438f-a490-46173d58584f"},"vehicle_type_id":"4","last_reported":1726420017,"current_range_meters":38800,"station_id":"ce4bhi12rcd13ifvqfp0","pricing_plan_id":"cebpf4jnsgd1na2vs0mg"},{"bike_id":"677b7538-5ce4-44d9-97c7-4a2eab8524e2","system_id":"levelo_inurba_marseille","lat":43.309381,"lon":5.401634,"is_reserved":false,"is_disabled":false,"rental_uris":{"android":"levelo://app?vid=677b7538-5ce4-44d9-97c7-4a2eab8524e2","ios":"levelo://app?vid=677b7538-5ce4-44d9-97c7-4a2eab8524e2"},"vehicle_type_id":"4","last_reported":1726420017,"current_range_meters":8400,"station_id":"ce4bgvp2rcd13ifvqct0","pricing_plan_id":"cebpf4jnsgd1na2vs0mg"},{"bike_id":"751f33e9-b988-400b-9b84-b13ebfa7c556","system_id":"levelo_inurba_marseille","lat":43.27323,"lon":5.39088,"is_reserved":false,"is_disabled":false,"rental_uris":{"android":"levelo://app?vid=751f33e9-b988-400b-9b84-b13ebfa7c556","ios":"levelo://app?vid=751f33e9-b988-400b-9b84-b13ebfa7c556"},"vehicle_type_id":"4","last_reported":1726420017,"current_range_meters":37600,"station_id":"ce4bhgp2rcd13ifvqfe0","pricing_plan_id":"cebpf4jnsgd1na2vs0mg"},{"bike_id":"0315f4f4-5d3b-4dbf-ba81-59fec433e07d","system_id":"levelo_inurba_marseille","lat":43.30948,"lon":5.39031,"is_reserved":false,"is_disabled":false,"rental_uris":{"android":"levelo://app?vid=0315f4f4-5d3b-4dbf-ba81-59fec433e07d","ios":"levelo://app?vid=0315f4f4-5d3b-4dbf-ba81-59fec433e07d"},"vehicle_type_id":"4","last_reported":1726420017,"current_range_meters":36400,"station_id":"ce4bgup2rcd13ifvqco0","pricing_plan_id":"cebpf4jnsgd1na2vs0mg"},{"bike_id":"c59178dd-d77c-42bd-ba16-4e6f4db0709c","system_id":"levelo_inurba_marseille","lat":43.24818,"lon":5.37459,"is_reserved":false,"is_disabled":false,"rental_uris":{"android":"levelo://app?vid=c59178dd-d77c-42bd-ba16-4e6f4db0709c","ios":"levelo://app?vid=c59178dd-d77c-42bd-ba16-4e6f4db0709c"},"vehicle_type_id":"4","last_reported":1726420017,"current_range_meters":27600,"station_id":"ce4bhgh2rcd13ifvqfb0","pricing_plan_id":"cebpf4jnsgd1na2vs0mg"},{"bike_id":"db865793-aa7c-4f02-a065-6a457f5ad6dc","system_id":"levelo_inurba_marseille","lat":43.29659,"lon":5.37949,"is_reserved":false,"is_disabled":false,"rental_uris":{"android":"levelo://app?vid=db865793-aa7c-4f02-a065-6a457f5ad6dc","ios":"levelo://app?vid=db865793-aa7c-4f02-a065-6a457f5ad6dc"},"vehicle_type_id":"4","last_reported":1726420017,"current_range_meters":6400,"station_id":"","pricing_plan_id":"cebpf4jnsgd1na2vs0mg"},{"bike_id":"f6618cc4-1a29-4ea0-9b00-9d0b55b6f169","system_id":"levelo_inurba_marseille","lat":43.314941,"lon":5.37308,"is_reserved":false,"is_disabled":false,"rental_uris":{"android":"levelo://app?vid=f6618cc4-1a29-4ea0-9b00-9d0b55b6f169","ios":"levelo://app?vid=f6618cc4-1a29-4ea0-9b00-9d0b55b6f169"},"vehicle_type_id":"4","last_reported":1726420017,"current_range_meters":9600,"station_id":"ce4bhqp2rcd13ifvqhng","pricing_plan_id":"cebpf4jnsgd1na2vs0mg"},{"bike_id":"7f0e2e6e-b7df-4f4f-a0b2-1478021fe226","system_id":"levelo_inurba_marseille","lat":43.29555,"lon":5.4229,"is_reserved":false,"is_disabled":false,"rental_uris":{"android":"levelo://app?vid=7f0e2e6e-b7df-4f4f-a0b2-1478021fe226","ios":"levelo://app?vid=7f0e2e6e-b7df-4f4f-a0b2-1478021fe226"},"vehicle_type_id":"4","last_reported":1726420017,"current_range_meters":24800,"station_id":"ce4bhph2rcd13ifvqhdg","pricing_plan_id":"cebpf4jnsgd1na2vs0mg"},{"bike_id":"71565bcc-7ce6-4f14-86ff-e0c935de4229","system_id":"levelo_inurba_marseille","lat":43.29311,"lon":5.37447,"is_reserved":false,"is_disabled":false,"rental_uris":{"android":"levelo://app?vid=71565bcc-7ce6-4f14-86ff-e0c935de4229","ios":"levelo://app?vid=71565bcc-7ce6-4f14-86ff-e0c935de4229"},"vehicle_type_id":"4","last_reported":1726420017,"current_range_meters":16400,"station_id":"ce4bgi12rcd13ifvqb70","pricing_plan_id":"cebpf4jnsgd1na2vs0mg"},{"bike_id":"c4c635df-2228-4bb6-a3b7-7016af8f1f47","system_id":"levelo_inurba_marseille","lat":43.31757,"lon":5.39014,"is_reserved":false,"is_disabled":false,"rental_uris":{"android":"levelo://app?vid=c4c635df-2228-4bb6-a3b7-7016af8f1f47","ios":"levelo://app?vid=c4c635df-2228-4bb6-a3b7-7016af8f1f47"},"vehicle_type_id":"4","last_reported":1726420017,"current_range_meters":32800,"station_id":"ce4bhqp2rcd13ifvqhng","pricing_plan_id":"cebpf4jnsgd1na2vs0mg"},{"bike_id":"b5976d29-4e9d-4138-af37-b813ab1fb183","system_id":"levelo_inurba_marseille","lat":43.24392,"lon":5.37068,"is_reserved":false,"is_disabled":false,"rental_uris":{"android":"levelo://app?vid=b5976d29-4e9d-4138-af37-b813ab1fb183","ios":"levelo://app?vid=b5976d29-4e9d-4138-af37-b813ab1fb183"},"vehicle_type_id":"4","last_reported":1726420017,"current_range_meters":25600,"station_id":"ce4bhhh2rcd13ifvqfk0","pricing_plan_id":"cebpf4jnsgd1na2vs0mg"},{"bike_id":"a1185d55-67ae-4e0f-b97b-53f9db431ea1","system_id":"levelo_inurba_marseille","lat":43.304282,"lon":5.388915,"is_reserved":false,"is_disabled":false,"rental_uris":{"android":"levelo://app?vid=a1185d55-67ae-4e0f-b97b-53f9db431ea1","ios":"levelo://app?vid=a1185d55-67ae-4e0f-b97b-53f9db431ea1"},"vehicle_type_id":"4","last_reported":1726420017,"current_range_meters":17600,"station_id":"ce4bh0p2rcd13ifvqd80","pricing_plan_id":"cebpf4jnsgd1na2vs0mg"},{"bike_id":"6c590a52-551e-4114-96f8-4eac201dca94","system_id":"levelo_inurba_marseille","lat":43.25496,"lon":5.37651,"is_reserved":false,"is_disabled":false,"rental_uris":{"android":"levelo://app?vid=6c590a52-551e-4114-96f8-4eac201dca94","ios":"levelo://app?vid=6c590a52-551e-4114-96f8-4eac201dca94"},"vehicle_type_id":"4","last_reported":1726420017,"current_range_meters":38000,"station_id":"ce4bhh12rcd13ifvqff0","pricing_plan_id":"cebpf4jnsgd1na2vs0mg"},{"bike_id":"77e6534a-680c-4380-9419-2468ef731254","system_id":"levelo_inurba_marseille","lat":43.312225,"lon":5.396192,"is_reserved":false,"is_disabled":false,"rental_uris":{"android":"levelo://app?vid=77e6534a-680c-4380-9419-2468ef731254","ios":"levelo://app?vid=77e6534a-680c-4380-9419-2468ef731254"},"vehicle_type_id":"4","last_reported":1726420017,"current_range_meters":18000,"station_id":"ce4bgvp2rcd13ifvqcu0","pricing_plan_id":"cebpf4jnsgd1na2vs0mg"},{"bike_id":"b97a7743-2e7e-4c69-a003-9cc01c170b29","system_id":"levelo_inurba_marseille","lat":43.26511,"lon":5.40876,"is_reserved":false,"is_disabled":false,"rental_uris":{"android":"levelo://app?vid=b97a7743-2e7e-4c69-a003-9cc01c170b29","ios":"levelo://app?vid=b97a7743-2e7e-4c69-a003-9cc01c170b29"},"vehicle_type_id":"4","last_reported":1726420017,"current_range_meters":8400,"station_id":"","pricing_plan_id":"cebpf4jnsgd1na2vs0mg"},{"bike_id":"b743a9c7-bff2-4e35-9357-5b891b452147","system_id":"levelo_inurba_marseille","lat":43.29899,"lon":5.43666,"is_reserved":false,"is_disabled":false,"rental_uris":{"android":"levelo://app?vid=b743a9c7-bff2-4e35-9357-5b891b452147","ios":"levelo://app?vid=b743a9c7-bff2-4e35-9357-5b891b452147"},"vehicle_type_id":"4","last_reported":1726420017,"current_range_meters":19200,"station_id":"ce4bhpp2rcd13ifvqhfg","pricing_plan_id":"cebpf4jnsgd1na2vs0mg"},{"bike_id":"e7559019-46be-46af-94a8-96650ae211c6","system_id":"levelo_inurba_marseille","lat":43.29783,"lon":5.37106,"is_reserved":false,"is_disabled":false,"rental_uris":{"android":"levelo://app?vid=e7559019-46be-46af-94a8-96650ae211c6","ios":"levelo://app?vid=e7559019-46be-46af-94a8-96650ae211c6"},"vehicle_type_id":"4","last_reported":1726420017,"current_range_meters":8400,"station_id":"ce4bh0h2rcd13ifvqd60","pricing_plan_id":"cebpf4jnsgd1na2vs0mg"},{"bike_id":"86141fec-5eef-44a7-af74-c77a6a78bfc6","system_id":"levelo_inurba_marseille","lat":43.232,"lon":5.35549,"is_reserved":false,"is_disabled":false,"rental_uris":{"android":"levelo://app?vid=86141fec-5eef-44a7-af74-c77a6a78bfc6","ios":"levelo://app?vid=86141fec-5eef-44a7-af74-c77a6a78bfc6"},"vehicle_type_id":"4","last_reported":1726420017,"current_range_meters":38800,"station_id":"ce4bhu92rcd13ifvqi70","pricing_plan_id":"cebpf4jnsgd1na2vs0mg"},{"bike_id":"8d0d6ceb-d20c-4c82-86b9-f62a7ce678df","system_id":"levelo_inurba_marseille","lat":43.30452,"lon":5.36518,"is_reserved":false,"is_disabled":false,"rental_uris":{"android":"levelo://app?vid=8d0d6ceb-d20c-4c82-86b9-f62a7ce678df","ios":"levelo://app?vid=8d0d6ceb-d20c-4c82-86b9-f62a7ce678df"},"vehicle_type_id":"4","last_reported":1726420017,"current_range_meters":7200,"station_id":"","pricing_plan_id":"cebpf4jnsgd1na2vs0mg"},{"bike_id":"9487b1a3-9051-4f78-8b1f-ba2dc3662dde","system_id":"levelo_inurba_marseille","lat":43.31684,"lon":5.40473,"is_reserved":false,"is_disabled":false,"rental_uris":{"android":"levelo://app?vid=9487b1a3-9051-4f78-8b1f-ba2dc3662dde","ios":"levelo://app?vid=9487b1a3-9051-4f78-8b1f-ba2dc3662dde"},"vehicle_type_id":"4","last_reported":1726420017,"current_range_meters":6800,"station_id":"","pricing_plan_id":"cebpf4jnsgd1na2vs0mg"},{"bike_id":"13a6d4d1-5544-4344-99af-fb7eec27cf18","system_id":"levelo_inurba_marseille","lat":43.27498,"lon":5.42452,"is_reserved":false,"is_disabled":false,"rental_uris":{"android":"levelo://app?vid=13a6d4d1-5544-4344-99af-fb7eec27cf18","ios":"levelo://app?vid=13a6d4d1-5544-4344-99af-fb7eec27cf18"},"vehicle_type_id":"4","last_reported":1726420017,"current_range_meters":37600,"station_id":"ce4bhn92rcd13ifvqgrg","pricing_plan_id":"cebpf4jnsgd1na2vs0mg"},{"bike_id":"581788f3-75cf-4bb7-868a-64bde562274e","system_id":"levelo_inurba_marseille","lat":43.25932,"lon":5.40906,"is_reserved":false,"is_disabled":false,"rental_uris":{"android":"levelo://app?vid=581788f3-75cf-4bb7-868a-64bde562274e","ios":"levelo://app?vid=581788f3-75cf-4bb7-868a-64bde562274e"},"vehicle_type_id":"4","last_reported":1726420017,"current_range_meters":7200,"station_id":"ce4bhm92rcd13ifvqglg","pricing_plan_id":"cebpf4jnsgd1na2vs0mg"},{"bike_id":"05d90f45-a18b-4ff5-96c2-09a4a266bb57","system_id":"levelo_inurba_marseille","lat":43.31177,"lon":5.38717,"is_reserved":false,"is_disabled":false,"rental_uris":{"android":"levelo://app?vid=05d90f45-a18b-4ff5-96c2-09a4a266bb57","ios":"levelo://app?vid=05d90f45-a18b-4ff5-96c2-09a4a266bb57"},"vehicle_type_id":"4","last_reported":1726420017,"current_range_meters":3600,"station_id":"ce4bgv12rcd13ifvqcp0","pricing_plan_id":"cebpf4jnsgd1na2vs0mg"},{"bike_id":"a84aba34-4400-4eaa-910c-cdc70af0590b","system_id":"levelo_inurba_marseille","lat":43.2956,"lon":5.4228,"is_reserved":false,"is_disabled":false,"rental_uris":{"android":"levelo://app?vid=a84aba34-4400-4eaa-910c-cdc70af0590b","ios":"levelo://app?vid=a84aba34-4400-4eaa-910c-cdc70af0590b"},"vehicle_type_id":"4","last_reported":1726420017,"current_range_meters":25200,"station_id":"ce4bhph2rcd13ifvqhdg","pricing_plan_id":"cebpf4jnsgd1na2vs0mg"},{"bike_id":"dab2f2f0-5e2e-4935-98e9-0971ad0ab4e1","system_id":"levelo_inurba_marseille","lat":43.34091,"lon":5.39106,"is_reserved":false,"is_disabled":false,"rental_uris":{"android":"levelo://app?vid=dab2f2f0-5e2e-4935-98e9-0971ad0ab4e1","ios":"levelo://app?vid=dab2f2f0-5e2e-4935-98e9-0971ad0ab4e1"},"vehicle_type_id":"4","last_reported":1726420017,"current_range_meters":26800,"station_id":"","pricing_plan_id":"cebpf4jnsgd1na2vs0mg"},{"bike_id":"9bc96628-9221-4172-8ce5-d60b777ec282","system_id":"levelo_inurba_marseille","lat":43.29267,"lon":5.38442,"is_reserved":false,"is_disabled":false,"rental_uris":{"android":"levelo://app?vid=9bc96628-9221-4172-8ce5-d60b777ec282","ios":"levelo://app?vid=9bc96628-9221-4172-8ce5-d60b777ec282"},"vehicle_type_id":"4","last_reported":1726420017,"current_range_meters":20400,"station_id":"ce4bh692rcd13ifvqea0","pricing_plan_id":"cebpf4jnsgd1na2vs0mg"},{"bike_id":"553b7902-41c4-4e8f-9bd5-1122256aa194","system_id":"levelo_inurba_marseille","lat":43.27812,"lon":5.40708,"is_reserved":false,"is_disabled":false,"rental_uris":{"android":"levelo://app?vid=553b7902-41c4-4e8f-9bd5-1122256aa194","ios":"levelo://app?vid=553b7902-41c4-4e8f-9bd5-1122256aa194"},"vehicle_type_id":"4","last_reported":1726420017,"current_range_meters":28000,"station_id":"ce4bhnh2rcd13ifvqgtg","pricing_plan_id":"cebpf4jnsgd1na2vs0mg"},{"bike_id":"f7ef6fcd-b36a-4e39-ab29-615bf7f08d5f","system_id":"levelo_inurba_marseille","lat":43.23186,"lon":5.35557,"is_reserved":false,"is_disabled":false,"rental_uris":{"android":"levelo://app?vid=f7ef6fcd-b36a-4e39-ab29-615bf7f08d5f","ios":"levelo://app?vid=f7ef6fcd-b36a-4e39-ab29-615bf7f08d5f"},"vehicle_type_id":"4","last_reported":1726420017,"current_range_meters":23200,"station_id":"ce4bhu92rcd13ifvqi70","pricing_plan_id":"cebpf4jnsgd1na2vs0mg"},{"bike_id":"44c59089-e342-4527-9c1b-b12595d7b30e","system_id":"levelo_inurba_marseille","lat":43.25497,"lon":5.37647,"is_reserved":false,"is_disabled":false,"rental_uris":{"android":"levelo://app?vid=44c59089-e342-4527-9c1b-b12595d7b30e","ios":"levelo://app?vid=44c59089-e342-4527-9c1b-b12595d7b30e"},"vehicle_type_id":"4","last_reported":1726420017,"current_range_meters":20400,"station_id":"ce4bhh12rcd13ifvqff0","pricing_plan_id":"cebpf4jnsgd1na2vs0mg"},{"bike_id":"8cff73e9-2846-4f9e-aab7-fdb477f2dff8","system_id":"levelo_inurba_marseille","lat":43.24076,"lon":5.37752,"is_reserved":false,"is_disabled":false,"rental_uris":{"android":"levelo://app?vid=8cff73e9-2846-4f9e-aab7-fdb477f2dff8","ios":"levelo://app?vid=8cff73e9-2846-4f9e-aab7-fdb477f2dff8"},"vehicle_type_id":"4","last_reported":1726420017,"current_range_meters":38800,"station_id":"ce4bhnp2rcd13ifvqgvg","pricing_plan_id":"cebpf4jnsgd1na2vs0mg"},{"bike_id":"80cf5d11-8e51-44a4-965a-40043b9cd2c2","system_id":"levelo_inurba_marseille","lat":43.30087,"lon":5.39075,"is_reserved":false,"is_disabled":false,"rental_uris":{"android":"levelo://app?vid=80cf5d11-8e51-44a4-965a-40043b9cd2c2","ios":"levelo://app?vid=80cf5d11-8e51-44a4-965a-40043b9cd2c2"},"vehicle_type_id":"4","last_reported":1726420017,"current_range_meters":34800,"station_id":"ce4bh192rcd13ifvqdb0","pricing_plan_id":"cebpf4jnsgd1na2vs0mg"},{"bike_id":"9baec385-3266-4c55-b9cf-25f8839a48a7","system_id":"levelo_inurba_marseille","lat":43.3193,"lon":5.37309,"is_reserved":false,"is_disabled":false,"rental_uris":{"android":"levelo://app?vid=9baec385-3266-4c55-b9cf-25f8839a48a7","ios":"levelo://app?vid=9baec385-3266-4c55-b9cf-25f8839a48a7"},"vehicle_type_id":"4","last_reported":1726420017,"current_range_meters":15200,"station_id":"","pricing_plan_id":"cebpf4jnsgd1na2vs0mg"},{"bike_id":"15407014-5935-4eaf-a2c0-6cc151bba910","system_id":"levelo_inurba_marseille","lat":43.284,"lon":5.38497,"is_reserved":false,"is_disabled":false,"rental_uris":{"android":"levelo://app?vid=15407014-5935-4eaf-a2c0-6cc151bba910","ios":"levelo://app?vid=15407014-5935-4eaf-a2c0-6cc151bba910"},"vehicle_type_id":"4","last_reported":1726420017,"current_range_meters":38800,"station_id":"","pricing_plan_id":"cebpf4jnsgd1na2vs0mg"},{"bike_id":"12df9891-f323-4939-993e-4034b85be1a2","system_id":"levelo_inurba_marseille","lat":43.30192,"lon":5.36614,"is_reserved":false,"is_disabled":false,"rental_uris":{"android":"levelo://app?vid=12df9891-f323-4939-993e-4034b85be1a2","ios":"levelo://app?vid=12df9891-f323-4939-993e-4034b85be1a2"},"vehicle_type_id":"4","last_reported":1726420017,"current_range_meters":38800,"station_id":"ce4bgrh2rcd13ifvqc8g","pricing_plan_id":"cebpf4jnsgd1na2vs0mg"},{"bike_id":"6778361a-3d9b-4444-8112-1c9b565b4d0e","system_id":"levelo_inurba_marseille","lat":43.29873,"lon":5.375,"is_reserved":false,"is_disabled":false,"rental_uris":{"android":"levelo://app?vid=6778361a-3d9b-4444-8112-1c9b565b4d0e","ios":"levelo://app?vid=6778361a-3d9b-4444-8112-1c9b565b4d0e"},"vehicle_type_id":"4","last_reported":1726420017,"current_range_meters":10000,"station_id":"","pricing_plan_id":"cebpf4jnsgd1na2vs0mg"},{"bike_id":"217b7c8d-bc4b-4605-9aba-a095201d5c87","system_id":"levelo_inurba_marseille","lat":43.23192,"lon":5.35541,"is_reserved":false,"is_disabled":false,"rental_uris":{"android":"levelo://app?vid=217b7c8d-bc4b-4605-9aba-a095201d5c87","ios":"levelo://app?vid=217b7c8d-bc4b-4605-9aba-a095201d5c87"},"vehicle_type_id":"4","last_reported":1726420017,"current_range_meters":17600,"station_id":"ce4bhu92rcd13ifvqi70","pricing_plan_id":"cebpf4jnsgd1na2vs0mg"},{"bike_id":"68d10e86-a6ab-4a17-aea0-928a663b6e89","system_id":"levelo_inurba_marseille","lat":43.34032,"lon":5.34874,"is_reserved":false,"is_disabled":false,"rental_uris":{"android":"levelo://app?vid=68d10e86-a6ab-4a17-aea0-928a663b6e89","ios":"levelo://app?vid=68d10e86-a6ab-4a17-aea0-928a663b6e89"},"vehicle_type_id":"4","last_reported":1726420017,"current_range_meters":8000,"station_id":"","pricing_plan_id":"cebpf4jnsgd1na2vs0mg"},{"bike_id":"038ea4dd-8d7e-493b-8127-45ba80741a4d","system_id":"levelo_inurba_marseille","lat":43.32336,"lon":5.38613,"is_reserved":false,"is_disabled":false,"rental_uris":{"android":"levelo://app?vid=038ea4dd-8d7e-493b-8127-45ba80741a4d","ios":"levelo://app?vid=038ea4dd-8d7e-493b-8127-45ba80741a4d"},"vehicle_type_id":"4","last_reported":1726420017,"current_range_meters":6800,"station_id":"","pricing_plan_id":"cebpf4jnsgd1na2vs0mg"},{"bike_id":"b62fa09f-5ec2-43b7-94e5-3ed4aec1a717","system_id":"levelo_inurba_marseille","lat":43.31164,"lon":5.38723,"is_reserved":false,"is_disabled":false,"rental_uris":{"android":"levelo://app?vid=b62fa09f-5ec2-43b7-94e5-3ed4aec1a717","ios":"levelo://app?vid=b62fa09f-5ec2-43b7-94e5-3ed4aec1a717"},"vehicle_type_id":"4","last_reported":1726420017,"current_range_meters":6800,"station_id":"ce4bgv12rcd13ifvqcp0","pricing_plan_id":"cebpf4jnsgd1na2vs0mg"},{"bike_id":"07e86c83-ee08-4297-8c6e-c04115fdc2a2","system_id":"levelo_inurba_marseille","lat":43.2808,"lon":5.39663,"is_reserved":false,"is_disabled":false,"rental_uris":{"android":"levelo://app?vid=07e86c83-ee08-4297-8c6e-c04115fdc2a2","ios":"levelo://app?vid=07e86c83-ee08-4297-8c6e-c04115fdc2a2"},"vehicle_type_id":"4","last_reported":1726420017,"current_range_meters":37600,"station_id":"ce4bho12rcd13ifvqh2g","pricing_plan_id":"cebpf4jnsgd1na2vs0mg"},{"bike_id":"a7a35f71-891b-4451-bf00-3fdb31abe55a","system_id":"levelo_inurba_marseille","lat":43.29539,"lon":5.39032,"is_reserved":false,"is_disabled":false,"rental_uris":{"android":"levelo://app?vid=a7a35f71-891b-4451-bf00-3fdb31abe55a","ios":"levelo://app?vid=a7a35f71-891b-4451-bf00-3fdb31abe55a"},"vehicle_type_id":"4","last_reported":1726420017,"current_range_meters":39200,"station_id":"ce4bh3p2rcd13ifvqdp0","pricing_plan_id":"cebpf4jnsgd1na2vs0mg"},{"bike_id":"8e10a9ac-c572-4e78-a33e-f93355b014b8","system_id":"levelo_inurba_marseille","lat":43.3095,"lon":5.39032,"is_reserved":false,"is_disabled":false,"rental_uris":{"android":"levelo://app?vid=8e10a9ac-c572-4e78-a33e-f93355b014b8","ios":"levelo://app?vid=8e10a9ac-c572-4e78-a33e-f93355b014b8"},"vehicle_type_id":"4","last_reported":1726420017,"current_range_meters":8000,"station_id":"ce4bgup2rcd13ifvqco0","pricing_plan_id":"cebpf4jnsgd1na2vs0mg"},{"bike_id":"faccef6f-7478-41d0-8be2-f4a380fde85e","system_id":"levelo_inurba_marseille","lat":43.30143,"lon":5.37406,"is_reserved":false,"is_disabled":false,"rental_uris":{"android":"levelo://app?vid=faccef6f-7478-41d0-8be2-f4a380fde85e","ios":"levelo://app?vid=faccef6f-7478-41d0-8be2-f4a380fde85e"},"vehicle_type_id":"4","last_reported":1726420017,"current_range_meters":37600,"station_id":"ce4bgs92rcd13ifvqcc0","pricing_plan_id":"cebpf4jnsgd1na2vs0mg"},{"bike_id":"36ac99db-ecbc-4ee8-b239-ef64ac120ce1","system_id":"levelo_inurba_marseille","lat":43.29903,"lon":5.43669,"is_reserved":false,"is_disabled":false,"rental_uris":{"android":"levelo://app?vid=36ac99db-ecbc-4ee8-b239-ef64ac120ce1","ios":"levelo://app?vid=36ac99db-ecbc-4ee8-b239-ef64ac120ce1"},"vehicle_type_id":"4","last_reported":1726420017,"current_range_meters":13600,"station_id":"ce4bhpp2rcd13ifvqhfg","pricing_plan_id":"cebpf4jnsgd1na2vs0mg"},{"bike_id":"60d8d49c-2656-43b3-8594-f58823fc864f","system_id":"levelo_inurba_marseille","lat":43.278687,"lon":5.380515,"is_reserved":false,"is_disabled":false,"rental_uris":{"android":"levelo://app?vid=60d8d49c-2656-43b3-8594-f58823fc864f","ios":"levelo://app?vid=60d8d49c-2656-43b3-8594-f58823fc864f"},"vehicle_type_id":"4","last_reported":1726420017,"current_range_meters":5600,"station_id":"ce4bhf92rcd13ifvqf50","pricing_plan_id":"cebpf4jnsgd1na2vs0mg"},{"bike_id":"289660f7-515f-42ac-b51c-a3ae3cc8dba1","system_id":"levelo_inurba_marseille","lat":43.31754,"lon":5.39015,"is_reserved":false,"is_disabled":false,"rental_uris":{"android":"levelo://app?vid=289660f7-515f-42ac-b51c-a3ae3cc8dba1","ios":"levelo://app?vid=289660f7-515f-42ac-b51c-a3ae3cc8dba1"},"vehicle_type_id":"4","last_reported":1726420017,"current_range_meters":14800,"station_id":"ce4bhqp2rcd13ifvqhng","pricing_plan_id":"cebpf4jnsgd1na2vs0mg"},{"bike_id":"8f7478cc-6c8d-4f06-9985-90c723c2c538","system_id":"levelo_inurba_marseille","lat":43.2621,"lon":5.37443,"is_reserved":false,"is_disabled":false,"rental_uris":{"android":"levelo://app?vid=8f7478cc-6c8d-4f06-9985-90c723c2c538","ios":"levelo://app?vid=8f7478cc-6c8d-4f06-9985-90c723c2c538"},"vehicle_type_id":"4","last_reported":1726420017,"current_range_meters":14000,"station_id":"ce4bhgp2rcd13ifvqfc0","pricing_plan_id":"cebpf4jnsgd1na2vs0mg"},{"bike_id":"3df977b0-f092-40b8-9b0d-c1332662a90c","system_id":"levelo_inurba_marseille","lat":43.292919,"lon":5.368773,"is_reserved":false,"is_disabled":false,"rental_uris":{"android":"levelo://app?vid=3df977b0-f092-40b8-9b0d-c1332662a90c","ios":"levelo://app?vid=3df977b0-f092-40b8-9b0d-c1332662a90c"},"vehicle_type_id":"4","last_reported":1726420017,"current_range_meters":5600,"station_id":"ce4bhbp2rcd13ifvqesg","pricing_plan_id":"cebpf4jnsgd1na2vs0mg"},{"bike_id":"67007fbf-a4b6-4ce9-a6e4-f283a692e99b","system_id":"levelo_inurba_marseille","lat":43.30464,"lon":5.39323,"is_reserved":false,"is_disabled":false,"rental_uris":{"android":"levelo://app?vid=67007fbf-a4b6-4ce9-a6e4-f283a692e99b","ios":"levelo://app?vid=67007fbf-a4b6-4ce9-a6e4-f283a692e99b"},"vehicle_type_id":"4","last_reported":1726420017,"current_range_meters":2800,"station_id":"ce4bgup2rcd13ifvqco0","pricing_plan_id":"cebpf4jnsgd1na2vs0mg"},{"bike_id":"173b81fb-b952-4985-a30a-e9eff633608d","system_id":"levelo_inurba_marseille","lat":43.30954,"lon":5.39037,"is_reserved":false,"is_disabled":false,"rental_uris":{"android":"levelo://app?vid=173b81fb-b952-4985-a30a-e9eff633608d","ios":"levelo://app?vid=173b81fb-b952-4985-a30a-e9eff633608d"},"vehicle_type_id":"4","last_reported":1726420017,"current_range_meters":8000,"station_id":"ce4bgup2rcd13ifvqco0","pricing_plan_id":"cebpf4jnsgd1na2vs0mg"},{"bike_id":"0df06088-362e-49d9-8f54-f66df627f855","system_id":"levelo_inurba_marseille","lat":43.32332,"lon":5.38542,"is_reserved":false,"is_disabled":false,"rental_uris":{"android":"levelo://app?vid=0df06088-362e-49d9-8f54-f66df627f855","ios":"levelo://app?vid=0df06088-362e-49d9-8f54-f66df627f855"},"vehicle_type_id":"4","last_reported":1726420017,"current_range_meters":36800,"station_id":"","pricing_plan_id":"cebpf4jnsgd1na2vs0mg"},{"bike_id":"4bd706a5-65c1-4a7a-9a3f-bc4e3e11f8fb","system_id":"levelo_inurba_marseille","lat":43.23201,"lon":5.35557,"is_reserved":false,"is_disabled":false,"rental_uris":{"android":"levelo://app?vid=4bd706a5-65c1-4a7a-9a3f-bc4e3e11f8fb","ios":"levelo://app?vid=4bd706a5-65c1-4a7a-9a3f-bc4e3e11f8fb"},"vehicle_type_id":"4","last_reported":1726420017,"current_range_meters":8800,"station_id":"ce4bhu92rcd13ifvqi70","pricing_plan_id":"cebpf4jnsgd1na2vs0mg"},{"bike_id":"e5055c0e-d3fe-4487-9c8b-fb5c7bb20d00","system_id":"levelo_inurba_marseille","lat":43.23192,"lon":5.35553,"is_reserved":false,"is_disabled":false,"rental_uris":{"android":"levelo://app?vid=e5055c0e-d3fe-4487-9c8b-fb5c7bb20d00","ios":"levelo://app?vid=e5055c0e-d3fe-4487-9c8b-fb5c7bb20d00"},"vehicle_type_id":"4","last_reported":1726420017,"current_range_meters":4800,"station_id":"ce4bhu92rcd13ifvqi70","pricing_plan_id":"cebpf4jnsgd1na2vs0mg"},{"bike_id":"4b554066-3c41-4307-9760-ebe53f0f6e85","system_id":"levelo_inurba_marseille","lat":43.3013,"lon":5.38783,"is_reserved":false,"is_disabled":false,"rental_uris":{"android":"levelo://app?vid=4b554066-3c41-4307-9760-ebe53f0f6e85","ios":"levelo://app?vid=4b554066-3c41-4307-9760-ebe53f0f6e85"},"vehicle_type_id":"4","last_reported":1726420017,"current_range_meters":32000,"station_id":"ce4bghh2rcd13ifvqb60","pricing_plan_id":"cebpf4jnsgd1na2vs0mg"},{"bike_id":"c2181711-c8c2-4ac4-abc7-bbd02c21e2de","system_id":"levelo_inurba_marseille","lat":43.24667,"lon":5.38159,"is_reserved":false,"is_disabled":false,"rental_uris":{"android":"levelo://app?vid=c2181711-c8c2-4ac4-abc7-bbd02c21e2de","ios":"levelo://app?vid=c2181711-c8c2-4ac4-abc7-bbd02c21e2de"},"vehicle_type_id":"4","last_reported":1726420017,"current_range_meters":38800,"station_id":"ce4bhih2rcd13ifvqfr0","pricing_plan_id":"cebpf4jnsgd1na2vs0mg"},{"bike_id":"a0d63372-3f26-45ed-98c8-b7c31059f61d","system_id":"levelo_inurba_marseille","lat":43.29284,"lon":5.36839,"is_reserved":false,"is_disabled":false,"rental_uris":{"android":"levelo://app?vid=a0d63372-3f26-45ed-98c8-b7c31059f61d","ios":"levelo://app?vid=a0d63372-3f26-45ed-98c8-b7c31059f61d"},"vehicle_type_id":"4","last_reported":1726420017,"current_range_meters":27600,"station_id":"ce4bhbp2rcd13ifvqesg","pricing_plan_id":"cebpf4jnsgd1na2vs0mg"},{"bike_id":"c50a3668-3e2c-42fe-9c39-28c3d30f6826","system_id":"levelo_inurba_marseille","lat":43.2408,"lon":5.37751,"is_reserved":false,"is_disabled":false,"rental_uris":{"android":"levelo://app?vid=c50a3668-3e2c-42fe-9c39-28c3d30f6826","ios":"levelo://app?vid=c50a3668-3e2c-42fe-9c39-28c3d30f6826"},"vehicle_type_id":"4","last_reported":1726420017,"current_range_meters":37600,"station_id":"ce4bhnp2rcd13ifvqgvg","pricing_plan_id":"cebpf4jnsgd1na2vs0mg"},{"bike_id":"1b22942f-c247-4201-b103-17c0bebe2ed7","system_id":"levelo_inurba_marseille","lat":43.28669,"lon":5.3635,"is_reserved":false,"is_disabled":false,"rental_uris":{"android":"levelo://app?vid=1b22942f-c247-4201-b103-17c0bebe2ed7","ios":"levelo://app?vid=1b22942f-c247-4201-b103-17c0bebe2ed7"},"vehicle_type_id":"4","last_reported":1726420017,"current_range_meters":14800,"station_id":"ce4bhah2rcd13ifvqej0","pricing_plan_id":"cebpf4jnsgd1na2vs0mg"},{"bike_id":"d9309455-84ff-4d6a-8525-eb3e03a379d0","system_id":"levelo_inurba_marseille","lat":43.254944,"lon":5.376488,"is_reserved":false,"is_disabled":false,"rental_uris":{"android":"levelo://app?vid=d9309455-84ff-4d6a-8525-eb3e03a379d0","ios":"levelo://app?vid=d9309455-84ff-4d6a-8525-eb3e03a379d0"},"vehicle_type_id":"4","last_reported":1726420017,"current_range_meters":24000,"station_id":"ce4bgqh2rcd13ifvqc5g","pricing_plan_id":"cebpf4jnsgd1na2vs0mg"},{"bike_id":"6f996385-5c0f-47be-9563-2d0d14ad8e9e","system_id":"levelo_inurba_marseille","lat":43.29539,"lon":5.38554,"is_reserved":false,"is_disabled":false,"rental_uris":{"android":"levelo://app?vid=6f996385-5c0f-47be-9563-2d0d14ad8e9e","ios":"levelo://app?vid=6f996385-5c0f-47be-9563-2d0d14ad8e9e"},"vehicle_type_id":"4","last_reported":1726420017,"current_range_meters":8800,"station_id":"ce4bgih2rcd13ifvqba0","pricing_plan_id":"cebpf4jnsgd1na2vs0mg"},{"bike_id":"37a3405a-9642-4796-96b6-eff10413f26d","system_id":"levelo_inurba_marseille","lat":43.24081,"lon":5.37736,"is_reserved":false,"is_disabled":false,"rental_uris":{"android":"levelo://app?vid=37a3405a-9642-4796-96b6-eff10413f26d","ios":"levelo://app?vid=37a3405a-9642-4796-96b6-eff10413f26d"},"vehicle_type_id":"4","last_reported":1726420017,"current_range_meters":35600,"station_id":"ce4bhnp2rcd13ifvqgvg","pricing_plan_id":"cebpf4jnsgd1na2vs0mg"},{"bike_id":"7df901da-52e9-4218-8285-a0079bc53e37","system_id":"levelo_inurba_marseille","lat":43.23153,"lon":5.43715,"is_reserved":false,"is_disabled":false,"rental_uris":{"android":"levelo://app?vid=7df901da-52e9-4218-8285-a0079bc53e37","ios":"levelo://app?vid=7df901da-52e9-4218-8285-a0079bc53e37"},"vehicle_type_id":"4","last_reported":1726420017,"current_range_meters":38000,"station_id":"ce4bhmp2rcd13ifvqgog","pricing_plan_id":"cebpf4jnsgd1na2vs0mg"},{"bike_id":"b8e407a4-6490-499f-baf5-3ea7db27e15d","system_id":"levelo_inurba_marseille","lat":43.281273,"lon":5.378124,"is_reserved":false,"is_disabled":false,"rental_uris":{"android":"levelo://app?vid=b8e407a4-6490-499f-baf5-3ea7db27e15d","ios":"levelo://app?vid=b8e407a4-6490-499f-baf5-3ea7db27e15d"},"vehicle_type_id":"4","last_reported":1726420017,"current_range_meters":8000,"station_id":"ce4bha12rcd13ifvqee0","pricing_plan_id":"cebpf4jnsgd1na2vs0mg"},{"bike_id":"dd951d87-bc08-4b18-959c-51274d04f906","system_id":"levelo_inurba_marseille","lat":43.24174,"lon":5.36395,"is_reserved":false,"is_disabled":false,"rental_uris":{"android":"levelo://app?vid=dd951d87-bc08-4b18-959c-51274d04f906","ios":"levelo://app?vid=dd951d87-bc08-4b18-959c-51274d04f906"},"vehicle_type_id":"4","last_reported":1726420017,"current_range_meters":38800,"station_id":"cpo36qri1sfpv3e86is0","pricing_plan_id":"cebpf4jnsgd1na2vs0mg"},{"bike_id":"f401534e-9125-4925-8e16-ad33d00d8e3d","system_id":"levelo_inurba_marseille","lat":43.26565,"lon":5.39011,"is_reserved":false,"is_disabled":false,"rental_uris":{"android":"levelo://app?vid=f401534e-9125-4925-8e16-ad33d00d8e3d","ios":"levelo://app?vid=f401534e-9125-4925-8e16-ad33d00d8e3d"},"vehicle_type_id":"4","last_reported":1726420017,"current_range_meters":18000,"station_id":"ce4bhe12rcd13ifvqf30","pricing_plan_id":"cebpf4jnsgd1na2vs0mg"},{"bike_id":"79215901-6df4-44bb-9317-39e19c7ba071","system_id":"levelo_inurba_marseille","lat":43.2978,"lon":5.39339,"is_reserved":false,"is_disabled":false,"rental_uris":{"android":"levelo://app?vid=79215901-6df4-44bb-9317-39e19c7ba071","ios":"levelo://app?vid=79215901-6df4-44bb-9317-39e19c7ba071"},"vehicle_type_id":"4","last_reported":1726420017,"current_range_meters":6800,"station_id":"chh1huq6cuj3fo74tm60","pricing_plan_id":"cebpf4jnsgd1na2vs0mg"},{"bike_id":"d3d7df3d-1aba-4014-8c62-cf284615c1e0","system_id":"levelo_inurba_marseille","lat":43.32348,"lon":5.40619,"is_reserved":false,"is_disabled":false,"rental_uris":{"android":"levelo://app?vid=d3d7df3d-1aba-4014-8c62-cf284615c1e0","ios":"levelo://app?vid=d3d7df3d-1aba-4014-8c62-cf284615c1e0"},"vehicle_type_id":"4","last_reported":1726420017,"current_range_meters":7200,"station_id":"ce4bhq92rcd13ifvqhjg","pricing_plan_id":"cebpf4jnsgd1na2vs0mg"},{"bike_id":"745be3a4-4038-48ac-acbd-3e9001ba77a9","system_id":"levelo_inurba_marseille","lat":43.27175,"lon":5.40992,"is_reserved":false,"is_disabled":false,"rental_uris":{"android":"levelo://app?vid=745be3a4-4038-48ac-acbd-3e9001ba77a9","ios":"levelo://app?vid=745be3a4-4038-48ac-acbd-3e9001ba77a9"},"vehicle_type_id":"4","last_reported":1726420017,"current_range_meters":30400,"station_id":"ce4bhl12rcd13ifvqgf0","pricing_plan_id":"cebpf4jnsgd1na2vs0mg"},{"bike_id":"895bd172-c28e-458b-af0b-f6f8468fcb27","system_id":"levelo_inurba_marseille","lat":43.30643,"lon":5.40072,"is_reserved":false,"is_disabled":false,"rental_uris":{"android":"levelo://app?vid=895bd172-c28e-458b-af0b-f6f8468fcb27","ios":"levelo://app?vid=895bd172-c28e-458b-af0b-f6f8468fcb27"},"vehicle_type_id":"4","last_reported":1726420017,"current_range_meters":8800,"station_id":"ce4bh112rcd13ifvqda0","pricing_plan_id":"cebpf4jnsgd1na2vs0mg"},{"bike_id":"0e74a57e-125a-4011-84c3-893979322aca","system_id":"levelo_inurba_marseille","lat":43.3372,"lon":5.39181,"is_reserved":false,"is_disabled":false,"rental_uris":{"android":"levelo://app?vid=0e74a57e-125a-4011-84c3-893979322aca","ios":"levelo://app?vid=0e74a57e-125a-4011-84c3-893979322aca"},"vehicle_type_id":"4","last_reported":1726420017,"current_range_meters":10000,"station_id":"ce4bhr92rcd13ifvqhsg","pricing_plan_id":"cebpf4jnsgd1na2vs0mg"},{"bike_id":"c07cdcb1-ad18-45bf-af5e-6d8fb4e718cc","system_id":"levelo_inurba_marseille","lat":43.23197,"lon":5.35547,"is_reserved":false,"is_disabled":false,"rental_uris":{"android":"levelo://app?vid=c07cdcb1-ad18-45bf-af5e-6d8fb4e718cc","ios":"levelo://app?vid=c07cdcb1-ad18-45bf-af5e-6d8fb4e718cc"},"vehicle_type_id":"4","last_reported":1726420017,"current_range_meters":10000,"station_id":"ce4bhu92rcd13ifvqi70","pricing_plan_id":"cebpf4jnsgd1na2vs0mg"},{"bike_id":"6223f49c-48a8-454e-8700-74bdb4fcfbae","system_id":"levelo_inurba_marseille","lat":43.28104,"lon":5.37835,"is_reserved":false,"is_disabled":false,"rental_uris":{"android":"levelo://app?vid=6223f49c-48a8-454e-8700-74bdb4fcfbae","ios":"levelo://app?vid=6223f49c-48a8-454e-8700-74bdb4fcfbae"},"vehicle_type_id":"4","last_reported":1726420017,"current_range_meters":18000,"station_id":"ce4bha12rcd13ifvqee0","pricing_plan_id":"cebpf4jnsgd1na2vs0mg"},{"bike_id":"8a8c34cc-f94b-467a-b86e-e86c05afee7f","system_id":"levelo_inurba_marseille","lat":43.23196,"lon":5.35551,"is_reserved":false,"is_disabled":false,"rental_uris":{"android":"levelo://app?vid=8a8c34cc-f94b-467a-b86e-e86c05afee7f","ios":"levelo://app?vid=8a8c34cc-f94b-467a-b86e-e86c05afee7f"},"vehicle_type_id":"4","last_reported":1726420017,"current_range_meters":20800,"station_id":"ce4bhu92rcd13ifvqi70","pricing_plan_id":"cebpf4jnsgd1na2vs0mg"},{"bike_id":"d18c56b6-7118-4278-af99-4d2bd343eeac","system_id":"levelo_inurba_marseille","lat":43.24078,"lon":5.37756,"is_reserved":false,"is_disabled":false,"rental_uris":{"android":"levelo://app?vid=d18c56b6-7118-4278-af99-4d2bd343eeac","ios":"levelo://app?vid=d18c56b6-7118-4278-af99-4d2bd343eeac"},"vehicle_type_id":"4","last_reported":1726420017,"current_range_meters":17600,"station_id":"ce4bhnp2rcd13ifvqgvg","pricing_plan_id":"cebpf4jnsgd1na2vs0mg"},{"bike_id":"783f4f5e-dec2-4ba4-a421-7666edda7939","system_id":"levelo_inurba_marseille","lat":43.26491,"lon":5.39545,"is_reserved":false,"is_disabled":false,"rental_uris":{"android":"levelo://app?vid=783f4f5e-dec2-4ba4-a421-7666edda7939","ios":"levelo://app?vid=783f4f5e-dec2-4ba4-a421-7666edda7939"},"vehicle_type_id":"4","last_reported":1726420017,"current_range_meters":22800,"station_id":"","pricing_plan_id":"cebpf4jnsgd1na2vs0mg"},{"bike_id":"1c621da7-fc1e-427b-b061-f6ef1b550476","system_id":"levelo_inurba_marseille","lat":43.25496,"lon":5.37647,"is_reserved":false,"is_disabled":false,"rental_uris":{"android":"levelo://app?vid=1c621da7-fc1e-427b-b061-f6ef1b550476","ios":"levelo://app?vid=1c621da7-fc1e-427b-b061-f6ef1b550476"},