{"last_updated":1745435280,"ttl":60,"version":"2.2","data":{"bikes":[{"bike_id":"80be803a-ad11-4761-9b41-b733378d4062","system_id":"levelo_inurba_marseille","lat":43.28352,"lon":5.38116,"is_reserved":false,"is_disabled":false,"rental_uris":{"android":"levelo://app?vid=80be803a-ad11-4761-9b41-b733378d4062","ios":"levelo://app?vid=80be803a-ad11-4761-9b41-b733378d4062"},"vehicle_type_id":"4","last_reported":1745435280,"current_range_meters":2800,"station_id":"ce4bh412rcd13ifvqdr0","pricing_plan_id":"cebpf4jnsgd1na2vs0mg"},{"bike_id":"fd329d73-d91a-41c7-89cf-ed671cee0a8f","system_id":"levelo_inurba_marseille","lat":43.25576,"lon":5.38248,"is_reserved":false,"is_disabled":true,"rental_uris":{"android":"levelo://app?vid=fd329d73-d91a-41c7-89cf-ed671cee0a8f","ios":"levelo://app?vid=fd329d73-d91a-41c7-89cf-ed671cee0a8f"},"vehicle_type_id":"4","last_reported":1745435280,"current_range_meters":2800,"station_id":"ce4bhih2rcd13ifvqfs0","pricing_plan_id":"cebpf4jnsgd1na2vs0mg"},{"bike_id":"d684d189-f792-49a5-acc4-d682aeeb9c6d","system_id":"levelo_inurba_marseille","lat":43.29494,"lon":5.39001,"is_reserved":false,"is_disabled":false,"rental_uris":{"android":"levelo://app?vid=d684d189-f792-49a5-acc4-d682aeeb9c6d","ios":"levelo://app?vid=d684d189-f792-49a5-acc4-d682aeeb9c6d"},"vehicle_type_id":"4","last_reported":1745435280,"current_range_meters":2800,"station_id":"ce4bh3p2rcd13ifvqdp0","pricing_plan_id":"cebpf4jnsgd1na2vs0mg"},{"bike_id":"7bd00d87-2782-420d-a15c-1eadd7ee7e4f","system_id":"levelo_inurba_marseille","lat":43.24937,"lon":5.39086,"is_reserved":false,"is_disabled":false,"rental_uris":{"android":"levelo://app?vid=7bd00d87-2782-420d-a15c-1eadd7ee7e4f","ios":"levelo://app?vid=7bd00d87-2782-420d-a15c-1eadd7ee7e4f"},"vehicle_type_id":"4","last_reported":1745435280,"current_range_meters":2800,"station_id":"","pricing_plan_id":"cebpf4jnsgd1na2vs0mg"},{"bike_id":"49da0442-dd22-4926-abe1-7e1749fd900b","system_id":"levelo_inurba_marseille","lat":43.2937,"lon":5.37849,"is_reserved":false,"is_disabled":false,"rental_uris":{"android":"levelo://app?vid=49da0442-dd22-4926-abe1-7e1749fd900b","ios":"levelo://app?vid=49da0442-dd22-4926-abe1-7e1749fd900b"},"vehicle_type_id":"4","last_reported":1745435280,"current_range_meters":0,"station_id":"ce4bgjh2rcd13ifvqbf0","pricing_plan_id":"cebpf4jnsgd1na2vs0mg"},{"bike_id":"1a51ffb1-9a79-4bec-9ba5-e3a8a916919c","system_id":"levelo_inurba_marseille","lat":43.283478,"lon":5.381011,"is_reserved":false,"is_disabled":true,"rental_uris":{"android":"levelo://app?vid=1a51ffb1-9a79-4bec-9ba5-e3a8a916919c","ios":"levelo://app?vid=1a51ffb1-9a79-4bec-9ba5-e3a8a916919c"},"vehicle_type_id":"4","last_reported":1745435280,"current_range_meters":3200,"station_id":"ce4bh512rcd13ifvqe3g","pricing_plan_id":"cebpf4jnsgd1na2vs0mg"},{"bike_id":"3748a045-4ad9-4814-b4ff-e3f7907f1938","system_id":"levelo_inurba_marseille","lat":43.29969,"lon":5.37169,"is_reserved":false,"is_disabled":false,"rental_uris":{"android":"levelo://app?vid=3748a045-4ad9-4814-b4ff-e3f7907f1938","ios":"levelo://app?vid=3748a045-4ad9-4814-b4ff-e3f7907f1938"},"vehicle_type_id":"4","last_reported":1745435280,"current_range_meters":3200,"station_id":"ce4bgr92rcd13ifvqc7g","pricing_plan_id":"cebpf4jnsgd1na2vs0mg"},{"bike_id":"103c360e-1fdf-4168-8154-fe970d772cae","system_id":"levelo_inurba_marseille","lat":43.231854,"lon":5.399999,"is_reserved":false,"is_disabled":false,"rental_uris":{"android":"levelo://app?vid=103c360e-1fdf-4168-8154-fe970d772cae","ios":"levelo://app?vid=103c360e-1fdf-4168-8154-fe970d772cae"},"vehicle_type_id":"4","last_reported":1745435280,"current_range_meters":3200,"station_id":"ce4bhn12rcd13ifvqgqg","pricing_plan_id":"cebpf4jnsgd1na2vs0mg"},{"bike_id":"ae6dd9ab-2e30-4181-993e-6d14ad986f48","system_id":"levelo_inurba_marseille","lat":43.28431,"lon":5.35,"is_reserved":false,"is_disabled":true,"rental_uris":{"android":"levelo://app?vid=ae6dd9ab-2e30-4181-993e-6d14ad986f48","ios":"levelo://app?vid=ae6dd9ab-2e30-4181-993e-6d14ad986f48"},"vehicle_type_id":"4","last_reported":1745435280,"current_range_meters":3200,"station_id":"ce4bhbh2rcd13ifvqepg","pricing_plan_id":"cebpf4jnsgd1na2vs0mg"},{"bike_id":"a8313e07-fc7d-46da-a852-e2be5019fefd","system_id":"levelo_inurba_marseille","lat":43.289343,"lon":5.38387,"is_reserved":false,"is_disabled":true,"rental_uris":{"android":"levelo://app?vid=a8313e07-fc7d-46da-a852-e2be5019fefd","ios":"levelo://app?vid=a8313e07-fc7d-46da-a852-e2be5019fefd"},"vehicle_type_id":"4","last_reported":1745435280,"current_range_meters":3600,"station_id":"ce4bh612rcd13ifvqe6g","pricing_plan_id":"cebpf4jnsgd1na2vs0mg"},{"bike_id":"a538e75e-ada1-4951-875f-69919feb24a6","system_id":"levelo_inurba_marseille","lat":43.28449,"lon":5.39184,"is_reserved":false,"is_disabled":false,"rental_uris":{"android":"levelo://app?vid=a538e75e-ada1-4951-875f-69919feb24a6","ios":"levelo://app?vid=a538e75e-ada1-4951-875f-69919feb24a6"},"vehicle_type_id":"4","last_reported":1745435280,"current_range_meters":3600,"station_id":"ce4bhoh2rcd13ifvqh5g","pricing_plan_id":"cebpf4jnsgd1na2vs0mg"},{"bike_id":"e5d8cf2a-9551-4f01-b365-35558d069dad","system_id":"levelo_inurba_marseille","lat":43.273723,"lon":5.362633,"is_reserved":false,"is_disabled":true,"rental_uris":{"android":"levelo://app?vid=e5d8cf2a-9551-4f01-b365-35558d069dad","ios":"levelo://app?vid=e5d8cf2a-9551-4f01-b365-35558d069dad"},"vehicle_type_id":"4","last_reported":1745435280,"current_range_meters":3600,"station_id":"ce4bhbh2rcd13ifvqeo0","pricing_plan_id":"cebpf4jnsgd1na2vs0mg"},{"bike_id":"3798ef7a-14dc-4c36-b287-33e93ba3f27e","system_id":"levelo_inurba_marseille","lat":43.29404,"lon":5.3861,"is_reserved":false,"is_disabled":true,"rental_uris":{"android":"levelo://app?vid=3798ef7a-14dc-4c36-b287-33e93ba3f27e","ios":"levelo://app?vid=3798ef7a-14dc-4c36-b287-33e93ba3f27e"},"vehicle_type_id":"4","last_reported":1745435280,"current_range_meters":3600,"station_id":"ce4bh2h2rcd13ifvqdh0","pricing_plan_id":"cebpf4jnsgd1na2vs0mg"},{"bike_id":"87d4aa2c-08e3-4d01-9312-7fd4b1c5725a","system_id":"levelo_inurba_marseille","lat":43.30658,"lon":5.4007,"is_reserved":false,"is_disabled":false,"rental_uris":{"android":"levelo://app?vid=87d4aa2c-08e3-4d01-9312-7fd4b1c5725a","ios":"levelo://app?vid=87d4aa2c-08e3-4d01-9312-7fd4b1c5725a"},"vehicle_type_id":"4","last_reported":1745435280,"current_range_meters":3600,"station_id":"ce4bh112rcd13ifvqda0","pricing_plan_id":"cebpf4jnsgd1na2vs0mg"},{"bike_id":"023dc62e-0acd-4e96-932b-01918b80e05f","system_id":"levelo_inurba_marseille","lat":43.30027,"lon":5.38298,"is_reserved":false,"is_disabled":false,"rental_uris":{"android":"levelo://app?vid=023dc62e-0acd-4e96-932b-01918b80e05f","ios":"levelo://app?vid=023dc62e-0acd-4e96-932b-01918b80e05f"},"vehicle_type_id":"4","last_reported":1745435280,"current_range_meters":4000,"station_id":"","pricing_plan_id":"cebpf4jnsgd1na2vs0mg"},{"bike_id":"7ac3157a-aa67-4eba-af81-a0050151a95d","system_id":"levelo_inurba_marseille","lat":43.305384,"lon":5.367071,"is_reserved":false,"is_disabled":false,"rental_uris":{"android":"levelo://app?vid=7ac3157a-aa67-4eba-af81-a0050151a95d","ios":"levelo://app?vid=7ac3157a-aa67-4eba-af81-a0050151a95d"},"vehicle_type_id":"4","last_reported":1745435280,"current_range_meters":2800,"station_id":"ce4bgjp2rcd13ifvqbh0","pricing_plan_id":"cebpf4jnsgd1na2vs0mg"},{"bike_id":"a2db1564-94c1-42aa-9a73-39e7a6ce6d33","system_id":"levelo_inurba_marseille","lat":43.28846,"lon":5.39296,"is_reserved":false,"is_disabled":false,"rental_uris":{"android":"levelo://app?vid=a2db1564-94c1-42aa-9a73-39e7a6ce6d33","ios":"levelo://app?vid=a2db1564-94c1-42aa-9a73-39e7a6ce6d33"},"vehicle_type_id":"4","last_reported":1745435280,"current_range_meters":2000,"station_id":"ce4bh2p2rcd13ifvqdi0","pricing_plan_id":"cebpf4jnsgd1na2vs0mg"},{"bike_id":"20568986-d6cd-49a4-8a50-0e986716f0ae","system_id":"levelo_inurba_marseille","lat":43.30896,"lon":5.3965,"is_reserved":false,"is_disabled":false,"rental_uris":{"android":"levelo://app?vid=20568986-d6cd-49a4-8a50-0e986716f0ae","ios":"levelo://app?vid=20568986-d6cd-49a4-8a50-0e986716f0ae"},"vehicle_type_id":"4","last_reported":1745435280,"current_range_meters":4400,"station_id":"ce4bh012rcd13ifvqcv0","pricing_plan_id":"cebpf4jnsgd1na2vs0mg"},{"bike_id":"6bebac6f-5186-4a82-b33c-4d18166ed8a7","system_id":"levelo_inurba_marseille","lat":43.28672,"lon":5.38676,"is_reserved":false,"is_disabled":false,"rental_uris":{"android":"levelo://app?vid=6bebac6f-5186-4a82-b33c-4d18166ed8a7","ios":"levelo://app?vid=6bebac6f-5186-4a82-b33c-4d18166ed8a7"},"vehicle_type_id":"4","last_reported":1745435280,"current_range_meters":4400,"station_id":"ce4bh492rcd13ifvqdug","pricing_plan_id":"cebpf4jnsgd1na2vs0mg"},{"bike_id":"a823d96d-c419-43e7-94bb-e6d0eb596486","system_id":"levelo_inurba_marseille","lat":43.28719,"lon":5.37937,"is_reserved":false,"is_disabled":false,"rental_uris":{"android":"levelo://app?vid=a823d96d-c419-43e7-94bb-e6d0eb596486","ios":"levelo://app?vid=a823d96d-c419-43e7-94bb-e6d0eb596486"},"vehicle_type_id":"4","last_reported":1745435280,"current_range_meters":4400,"station_id":"ce4bh9p2rcd13ifvqec0","pricing_plan_id":"cebpf4jnsgd1na2vs0mg"},{"bike_id":"18ca96d6-6181-414d-a886-e147d28597e0","system_id":"levelo_inurba_marseille","lat":43.29592,"lon":5.38103,"is_reserved":false,"is_disabled":false,"rental_uris":{"android":"levelo://app?vid=18ca96d6-6181-414d-a886-e147d28597e0","ios":"levelo://app?vid=18ca96d6-6181-414d-a886-e147d28597e0"},"vehicle_type_id":"4","last_reported":1745435280,"current_range_meters":4400,"station_id":"ce4bgl12rcd13ifvqbo0","pricing_plan_id":"cebpf4jnsgd1na2vs0mg"},{"bike_id":"228c925b-3a30-4cce-a16b-e8cf61ee5157","system_id":"levelo_inurba_marseille","lat":43.297214,"lon":5.380112,"is_reserved":false,"is_disabled":false,"rental_uris":{"android":"levelo://app?vid=228c925b-3a30-4cce-a16b-e8cf61ee5157","ios":"levelo://app?vid=228c925b-3a30-4cce-a16b-e8cf61ee5157"},"vehicle_type_id":"4","last_reported":1745435280,"current_range_meters":9200,"station_id":"ce4bgl12rcd13ifvqbo0","pricing_plan_id":"cebpf4jnsgd1na2vs0mg"},{"bike_id":"74eed804-be2a-4bc3-b637-dc96f72b004c","system_id":"levelo_inurba_marseille","lat":43.28352,"lon":5.38111,"is_reserved":false,"is_disabled":false,"rental_uris":{"android":"levelo://app?vid=74eed804-be2a-4bc3-b637-dc96f72b004c","ios":"levelo://app?vid=74eed804-be2a-4bc3-b637-dc96f72b004c"},"vehicle_type_id":"4","last_reported":1745435280,"current_range_meters":7200,"station_id":"ce4bh412rcd13ifvqdr0","pricing_plan_id":"cebpf4jnsgd1na2vs0mg"},{"bike_id":"40033d31-bdae-40f3-abe7-bdc61305f303","system_id":"levelo_inurba_marseille","lat":43.30644,"lon":5.40092,"is_reserved":false,"is_disabled":false,"rental_uris":{"android":"levelo://app?vid=40033d31-bdae-40f3-abe7-bdc61305f303","ios":"levelo://app?vid=40033d31-bdae-40f3-abe7-bdc61305f303"},"vehicle_type_id":"4","last_reported":1745435280,"current_range_meters":4800,"station_id":"ce4bh112rcd13ifvqda0","pricing_plan_id":"cebpf4jnsgd1na2vs0mg"},{"bike_id":"14f181cd-85cb-4c18-a48b-deb9f320480b","system_id":"levelo_inurba_marseille","lat":43.29884,"lon":5.38905,"is_reserved":false,"is_disabled":false,"rental_uris":{"android":"levelo://app?vid=14f181cd-85cb-4c18-a48b-deb9f320480b","ios":"levelo://app?vid=14f181cd-85cb-4c18-a48b-deb9f320480b"},"vehicle_type_id":"4","last_reported":1745435280,"current_range_meters":5600,"station_id":"ce4bh392rcd13ifvqdl0","pricing_plan_id":"cebpf4jnsgd1na2vs0mg"},{"bike_id":"7486d6a4-7306-4847-ab30-a6ceda000d2e","system_id":"levelo_inurba_marseille","lat":43.303741,"lon":5.418877,"is_reserved":false,"is_disabled":false,"rental_uris":{"android":"levelo://app?vid=7486d6a4-7306-4847-ab30-a6ceda000d2e","ios":"levelo://app?vid=7486d6a4-7306-4847-ab30-a6ceda000d2e"},"vehicle_type_id":"4","last_reported":1745435280,"current_range_meters":5600,"station_id":"ce4bhop2rcd13ifvqh7g","pricing_plan_id":"cebpf4jnsgd1na2vs0mg"},{"bike_id":"53e76e69-542e-498c-be3c-54ee74e28889","system_id":"levelo_inurba_marseille","lat":43.29689,"lon":5.36625,"is_reserved":false,"is_disabled":true,"rental_uris":{"android":"levelo://app?vid=53e76e69-542e-498c-be3c-54ee74e28889","ios":"levelo://app?vid=53e76e69-542e-498c-be3c-54ee74e28889"},"vehicle_type_id":"4","last_reported":1745435280,"current_range_meters":5600,"station_id":"ce4bgn12rcd13ifvqbt0","pricing_plan_id":"cebpf4jnsgd1na2vs0mg"},{"bike_id":"8d2789be-d356-436f-bee5-111c80e6604e","system_id":"levelo_inurba_marseille","lat":43.24171,"lon":5.3639,"is_reserved":false,"is_disabled":false,"rental_uris":{"android":"levelo://app?vid=8d2789be-d356-436f-bee5-111c80e6604e","ios":"levelo://app?vid=8d2789be-d356-436f-bee5-111c80e6604e"},"vehicle_type_id":"4","last_reported":1745435280,"current_range_meters":6000,"station_id":"cpo36qri1sfpv3e86is0","pricing_plan_id":"cebpf4jnsgd1na2vs0mg"},{"bike_id":"6f7364bf-5e72-4538-af67-06aa1648c525","system_id":"levelo_inurba_marseille","lat":43.3021,"lon":5.39472,"is_reserved":false,"is_disabled":false,"rental_uris":{"android":"levelo://app?vid=6f7364bf-5e72-4538-af67-06aa1648c525","ios":"levelo://app?vid=6f7364bf-5e72-4538-af67-06aa1648c525"},"vehicle_type_id":"4","last_reported":1745435280,"current_range_meters":6000,"station_id":"ce4bh0p2rcd13ifvqd70","pricing_plan_id":"cebpf4jnsgd1na2vs0mg"},{"bike_id":"b49140b4-8b59-404c-a543-2df8b47d28b5","system_id":"levelo_inurba_marseille","lat":43.29005,"lon":5.35613,"is_reserved":false,"is_disabled":false,"rental_uris":{"android":"levelo://app?vid=b49140b4-8b59-404c-a543-2df8b47d28b5","ios":"levelo://app?vid=b49140b4-8b59-404c-a543-2df8b47d28b5"},"vehicle_type_id":"4","last_reported":1745435280,"current_range_meters":6000,"station_id":"ce4bhb12rcd13ifvqem0","pricing_plan_id":"cebpf4jnsgd1na2vs0mg"},{"bike_id":"62603431-7ffe-4763-a417-ccc1e93f51e0","system_id":"levelo_inurba_marseille","lat":43.26561,"lon":5.3905,"is_reserved":false,"is_disabled":false,"rental_uris":{"android":"levelo://app?vid=62603431-7ffe-4763-a417-ccc1e93f51e0","ios":"levelo://app?vid=62603431-7ffe-4763-a417-ccc1e93f51e0"},"vehicle_type_id":"4","last_reported":1745435280,"current_range_meters":6400,"station_id":"ce4bhe12rcd13ifvqf30","pricing_plan_id":"cebpf4jnsgd1na2vs0mg"},{"bike_id":"e529ad22-06a9-4c1d-a1f7-6b02a8e4c967","system_id":"levelo_inurba_marseille","lat":43.28844,"lon":5.39318,"is_reserved":false,"is_disabled":false,"rental_uris":{"android":"levelo://app?vid=e529ad22-06a9-4c1d-a1f7-6b02a8e4c967","ios":"levelo://app?vid=e529ad22-06a9-4c1d-a1f7-6b02a8e4c967"},"vehicle_type_id":"4","last_reported":1745435280,"current_range_meters":12000,"station_id":"ce4bh2p2rcd13ifvqdi0","pricing_plan_id":"cebpf4jnsgd1na2vs0mg"},{"bike_id":"ec460e76-2f79-44d0-821e-3d27c414a1ea","system_id":"levelo_inurba_marseille","lat":43.3091,"lon":5.36849,"is_reserved":false,"is_disabled":false,"rental_uris":{"android":"levelo://app?vid=ec460e76-2f79-44d0-821e-3d27c414a1ea","ios":"levelo://app?vid=ec460e76-2f79-44d0-821e-3d27c414a1ea"},"vehicle_type_id":"4","last_reported":1745435280,"current_range_meters":6400,"station_id":"ce4bgn92rcd13ifvqbvg","pricing_plan_id":"cebpf4jnsgd1na2vs0mg"},{"bike_id":"da3e63c2-d64b-4208-b3e1-2bfa56557c40","system_id":"levelo_inurba_marseille","lat":43.28698,"lon":5.37387,"is_reserved":false,"is_disabled":false,"rental_uris":{"android":"levelo://app?vid=da3e63c2-d64b-4208-b3e1-2bfa56557c40","ios":"levelo://app?vid=da3e63c2-d64b-4208-b3e1-2bfa56557c40"},"vehicle_type_id":"4","last_reported":1745435280,"current_range_meters":6400,"station_id":"ce4bh3p2rcd13ifvqdq0","pricing_plan_id":"cebpf4jnsgd1na2vs0mg"},{"bike_id":"6b7c067c-e4ae-46d3-8703-213f5b8b7cee","system_id":"levelo_inurba_marseille","lat":43.29711,"lon":5.36594,"is_reserved":false,"is_disabled":false,"rental_uris":{"android":"levelo://app?vid=6b7c067c-e4ae-46d3-8703-213f5b8b7cee","ios":"levelo://app?vid=6b7c067c-e4ae-46d3-8703-213f5b8b7cee"},"vehicle_type_id":"4","last_reported":1745435280,"current_range_meters":6800,"station_id":"ce4bgn12rcd13ifvqbt0","pricing_plan_id":"cebpf4jnsgd1na2vs0mg"},{"bike_id":"ad06291b-96df-490d-a294-681224507d33","system_id":"levelo_inurba_marseille","lat":43.28266,"lon":5.35065,"is_reserved":false,"is_disabled":false,"rental_uris":{"android":"levelo://app?vid=ad06291b-96df-490d-a294-681224507d33","ios":"levelo://app?vid=ad06291b-96df-490d-a294-681224507d33"},"vehicle_type_id":"4","last_reported":1745435280,"current_range_meters":6800,"station_id":"ce4bhbp2rcd13ifvqerg","pricing_plan_id":"cebpf4jnsgd1na2vs0mg"},{"bike_id":"67e80e12-0df0-47a3-a76c-955808049931","system_id":"levelo_inurba_marseille","lat":43.23184,"lon":5.39985,"is_reserved":false,"is_disabled":false,"rental_uris":{"android":"levelo://app?vid=67e80e12-0df0-47a3-a76c-955808049931","ios":"levelo://app?vid=67e80e12-0df0-47a3-a76c-955808049931"},"vehicle_type_id":"4","last_reported":1745435280,"current_range_meters":6800,"station_id":"ce4bhn12rcd13ifvqgqg","pricing_plan_id":"cebpf4jnsgd1na2vs0mg"},{"bike_id":"c94e26c1-7575-4802-86ec-0bd6f82482cc","system_id":"levelo_inurba_marseille","lat":43.28619,"lon":5.37058,"is_reserved":false,"is_disabled":false,"rental_uris":{"android":"levelo://app?vid=c94e26c1-7575-4802-86ec-0bd6f82482cc","ios":"levelo://app?vid=c94e26c1-7575-4802-86ec-0bd6f82482cc"},"vehicle_type_id":"4","last_reported":1745435280,"current_range_meters":6800,"station_id":"ce4bht12rcd13ifvqi60","pricing_plan_id":"cebpf4jnsgd1na2vs0mg"},{"bike_id":"e88ac0aa-172e-418f-9134-2e3c247b5863","system_id":"levelo_inurba_marseille","lat":43.23963,"lon":5.36631,"is_reserved":false,"is_disabled":false,"rental_uris":{"android":"levelo://app?vid=e88ac0aa-172e-418f-9134-2e3c247b5863","ios":"levelo://app?vid=e88ac0aa-172e-418f-9134-2e3c247b5863"},"vehicle_type_id":"4","last_reported":1745435280,"current_range_meters":6800,"station_id":"ce4bhi12rcd13ifvqfp0","pricing_plan_id":"cebpf4jnsgd1na2vs0mg"},{"bike_id":"678921e1-83fb-4d9f-891e-b43b30b4c79a","system_id":"levelo_inurba_marseille","lat":43.28936,"lon":5.36623,"is_reserved":false,"is_disabled":false,"rental_uris":{"android":"levelo://app?vid=678921e1-83fb-4d9f-891e-b43b30b4c79a","ios":"levelo://app?vid=678921e1-83fb-4d9f-891e-b43b30b4c79a"},"vehicle_type_id":"4","last_reported":1745435280,"current_range_meters":6800,"station_id":"ce4bhap2rcd13ifvqek0","pricing_plan_id":"cebpf4jnsgd1na2vs0mg"},{"bike_id":"6ac611be-fa2e-4c81-a0a1-f825b8d54730","system_id":"levelo_inurba_marseille","lat":43.23076,"lon":5.35497,"is_reserved":false,"is_disabled":false,"rental_uris":{"android":"levelo://app?vid=6ac611be-fa2e-4c81-a0a1-f825b8d54730","ios":"levelo://app?vid=6ac611be-fa2e-4c81-a0a1-f825b8d54730"},"vehicle_type_id":"4","last_reported":1745435280,"current_range_meters":6800,"station_id":"cpo3342slgdg3j2ifvpg","pricing_plan_id":"cebpf4jnsgd1na2vs0mg"},{"bike_id":"5615c68b-dc1f-4c4b-8c1f-f66c6be47099","system_id":"levelo_inurba_marseille","lat":43.29526,"lon":5.38541,"is_reserved":false,"is_disabled":false,"rental_uris":{"android":"levelo://app?vid=5615c68b-dc1f-4c4b-8c1f-f66c6be47099","ios":"levelo://app?vid=5615c68b-dc1f-4c4b-8c1f-f66c6be47099"},"vehicle_type_id":"4","last_reported":1745435280,"current_range_meters":6800,"station_id":"ce4bgih2rcd13ifvqba0","pricing_plan_id":"cebpf4jnsgd1na2vs0mg"},{"bike_id":"76a2d1fc-92f8-43c8-9711-df98ce3080d6","system_id":"levelo_inurba_marseille","lat":43.28705,"lon":5.37394,"is_reserved":false,"is_disabled":false,"rental_uris":{"android":"levelo://app?vid=76a2d1fc-92f8-43c8-9711-df98ce3080d6","ios":"levelo://app?vid=76a2d1fc-92f8-43c8-9711-df98ce3080d6"},"vehicle_type_id":"4","last_reported":1745435280,"current_range_meters":7200,"station_id":"ce4bh3p2rcd13ifvqdq0","pricing_plan_id":"cebpf4jnsgd1na2vs0mg"},{"bike_id":"9c066450-3459-4af3-a1b4-2869534cff77","system_id":"levelo_inurba_marseille","lat":43.29527,"lon":5.38539,"is_reserved":false,"is_disabled":false,"rental_uris":{"android":"levelo://app?vid=9c066450-3459-4af3-a1b4-2869534cff77","ios":"levelo://app?vid=9c066450-3459-4af3-a1b4-2869534cff77"},"vehicle_type_id":"4","last_reported":1745435280,"current_range_meters":7200,"station_id":"ce4bgih2rcd13ifvqba0","pricing_plan_id":"cebpf4jnsgd1na2vs0mg"},{"bike_id":"f7889748-d9da-4a0d-a4b5-6ffb90fef077","system_id":"levelo_inurba_marseille","lat":43.31755,"lon":5.39027,"is_reserved":false,"is_disabled":false,"rental_uris":{"android":"levelo://app?vid=f7889748-d9da-4a0d-a4b5-6ffb90fef077","ios":"levelo://app?vid=f7889748-d9da-4a0d-a4b5-6ffb90fef077"},"vehicle_type_id":"4","last_reported":1745435280,"current_range_meters":7200,"station_id":"ce4bhqp2rcd13ifvqhng","pricing_plan_id":"cebpf4jnsgd1na2vs0mg"},{"bike_id":"e37792a6-f349-4512-8625-113ccd6f5c99","system_id":"levelo_inurba_marseille","lat":43.2799,"lon":5.4,"is_reserved":false,"is_disabled":true,"rental_uris":{"android":"levelo://app?vid=e37792a6-f349-4512-8625-113ccd6f5c99","ios":"levelo://app?vid=e37792a6-f349-4512-8625-113ccd6f5c99"},"vehicle_type_id":"4","last_reported":1745435280,"current_range_meters":7200,"station_id":"ce4bho92rcd13ifvqh4g","pricing_plan_id":"cebpf4jnsgd1na2vs0mg"},{"bike_id":"e756ad74-13c1-4868-86b9-2b957c5d0fe6","system_id":"levelo_inurba_marseille","lat":43.30906,"lon":5.36851,"is_reserved":false,"is_disabled":false,"rental_uris":{"android":"levelo://app?vid=e756ad74-13c1-4868-86b9-2b957c5d0fe6","ios":"levelo://app?vid=e756ad74-13c1-4868-86b9-2b957c5d0fe6"},"vehicle_type_id":"4","last_reported":1745435280,"current_range_meters":7200,"station_id":"ce4bgn92rcd13ifvqbvg","pricing_plan_id":"cebpf4jnsgd1na2vs0mg"},{"bike_id":"7f2b181c-e6eb-42fa-b150-b5303548a43d","system_id":"levelo_inurba_marseille","lat":43.30889,"lon":5.39624,"is_reserved":false,"is_disabled":false,"rental_uris":{"android":"levelo://app?vid=7f2b181c-e6eb-42fa-b150-b5303548a43d","ios":"levelo://app?vid=7f2b181c-e6eb-42fa-b150-b5303548a43d"},"vehicle_type_id":"4","last_reported":1745435280,"current_range_meters":7200,"station_id":"ce4bh012rcd13ifvqcv0","pricing_plan_id":"cebpf4jnsgd1na2vs0mg"},{"bike_id":"6cdf78e5-d312-42f7-a4ef-e64d6f3149ee","system_id":"levelo_inurba_marseille","lat":43.3235,"lon":5.40606,"is_reserved":false,"is_disabled":false,"rental_uris":{"android":"levelo://app?vid=6cdf78e5-d312-42f7-a4ef-e64d6f3149ee","ios":"levelo://app?vid=6cdf78e5-d312-42f7-a4ef-e64d6f3149ee"},"vehicle_type_id":"4","last_reported":1745435280,"current_range_meters":7200,"station_id":"ce4bhq92rcd13ifvqhjg","pricing_plan_id":"cebpf4jnsgd1na2vs0mg"},{"bike_id":"568abea4-b119-408f-8dc0-73f08cc0f496","system_id":"levelo_inurba_marseille","lat":43.295521,"lon":5.422932,"is_reserved":false,"is_disabled":false,"rental_uris":{"android":"levelo://app?vid=568abea4-b119-408f-8dc0-73f08cc0f496","ios":"levelo://app?vid=568abea4-b119-408f-8dc0-73f08cc0f496"},"vehicle_type_id":"4","last_reported":1745435280,"current_range_meters":7200,"station_id":"ce4bhph2rcd13ifvqhdg","pricing_plan_id":"cebpf4jnsgd1na2vs0mg"},{"bike_id":"cc2384ec-18ce-4d35-8f1c-f524e807ea21","system_id":"levelo_inurba_marseille","lat":43.291677,"lon":5.37161,"is_reserved":false,"is_disabled":false,"rental_uris":{"android":"levelo://app?vid=cc2384ec-18ce-4d35-8f1c-f524e807ea21","ios":"levelo://app?vid=cc2384ec-18ce-4d35-8f1c-f524e807ea21"},"vehicle_type_id":"4","last_reported":1745435280,"current_range_meters":8000,"station_id":"ce4bha92rcd13ifvqeh0","pricing_plan_id":"cebpf4jnsgd1na2vs0mg"},{"bike_id":"7cdbe10d-d66e-44d7-bf44-c0f211f78e71","system_id":"levelo_inurba_marseille","lat":43.30951,"lon":5.39029,"is_reserved":false,"is_disabled":false,"rental_uris":{"android":"levelo://app?vid=7cdbe10d-d66e-44d7-bf44-c0f211f78e71","ios":"levelo://app?vid=7cdbe10d-d66e-44d7-bf44-c0f211f78e71"},"vehicle_type_id":"4","last_reported":1745435280,"current_range_meters":8000,"station_id":"ce4bgup2rcd13ifvqco0","pricing_plan_id":"cebpf4jnsgd1na2vs0mg"},{"bike_id":"2897d95b-a23f-4106-8129-2d08a90a05b0","system_id":"levelo_inurba_marseille","lat":43.30151,"lon":5.38754,"is_reserved":false,"is_disabled":false,"rental_uris":{"android":"levelo://app?vid=2897d95b-a23f-4106-8129-2d08a90a05b0","ios":"levelo://app?vid=2897d95b-a23f-4106-8129-2d08a90a05b0"},"vehicle_type_id":"4","last_reported":1745435280,"current_range_meters":8000,"station_id":"ce4bghh2rcd13ifvqb60","pricing_plan_id":"cebpf4jnsgd1na2vs0mg"},{"bike_id":"fca73693-d273-4d6d-8183-a102bf6389e4","system_id":"levelo_inurba_marseille","lat":43.27941,"lon":5.41061,"is_reserved":false,"is_disabled":false,"rental_uris":{"android":"levelo://app?vid=fca73693-d273-4d6d-8183-a102bf6389e4","ios":"levelo://app?vid=fca73693-d273-4d6d-8183-a102bf6389e4"},"vehicle_type_id":"4","last_reported":1745435280,"current_range_meters":8000,"station_id":"ce4bhnp2rcd13ifvqh0g","pricing_plan_id":"cebpf4jnsgd1na2vs0mg"},{"bike_id":"54cb9ec8-06b4-4386-ad59-6b814c26bb70","system_id":"levelo_inurba_marseille","lat":43.29166,"lon":5.37155,"is_reserved":false,"is_disabled":false,"rental_uris":{"android":"levelo://app?vid=54cb9ec8-06b4-4386-ad59-6b814c26bb70","ios":"levelo://app?vid=54cb9ec8-06b4-4386-ad59-6b814c26bb70"},"vehicle_type_id":"4","last_reported":1745435280,"current_range_meters":8000,"station_id":"ce4bha92rcd13ifvqeh0","pricing_plan_id":"cebpf4jnsgd1na2vs0mg"},{"bike_id":"0f36c06d-b34a-4b6a-9c76-b87640418fc7","system_id":"levelo_inurba_marseille","lat":43.23064,"lon":5.3549,"is_reserved":false,"is_disabled":false,"rental_uris":{"android":"levelo://app?vid=0f36c06d-b34a-4b6a-9c76-b87640418fc7","ios":"levelo://app?vid=0f36c06d-b34a-4b6a-9c76-b87640418fc7"},"vehicle_type_id":"4","last_reported":1745435280,"current_range_meters":8000,"station_id":"cpo3342slgdg3j2ifvpg","pricing_plan_id":"cebpf4jnsgd1na2vs0mg"},{"bike_id":"5d9a6786-8dba-4d66-9994-0df952dbe60e","system_id":"levelo_inurba_marseille","lat":43.28713,"lon":5.37943,"is_reserved":false,"is_disabled":false,"rental_uris":{"android":"levelo://app?vid=5d9a6786-8dba-4d66-9994-0df952dbe60e","ios":"levelo://app?vid=5d9a6786-8dba-4d66-9994-0df952dbe60e"},"vehicle_type_id":"4","last_reported":1745435280,"current_range_meters":8000,"station_id":"ce4bh9p2rcd13ifvqec0","pricing_plan_id":"cebpf4jnsgd1na2vs0mg"},{"bike_id":"3dd50929-80e8-4861-abf3-0cc06f516279","system_id":"levelo_inurba_marseille","lat":43.24066,"lon":5.37759,"is_reserved":false,"is_disabled":false,"rental_uris":{"android":"levelo://app?vid=3dd50929-80e8-4861-abf3-0cc06f516279","ios":"levelo://app?vid=3dd50929-80e8-4861-abf3-0cc06f516279"},"vehicle_type_id":"4","last_reported":1745435280,"current_range_meters":8000,"station_id":"ce4bhnp2rcd13ifvqgvg","pricing_plan_id":"cebpf4jnsgd1na2vs0mg"},{"bike_id":"0b4b39d3-35ed-4a76-8d00-389223881110","system_id":"levelo_inurba_marseille","lat":43.31894,"lon":5.40732,"is_reserved":false,"is_disabled":false,"rental_uris":{"android":"levelo://app?vid=0b4b39d3-35ed-4a76-8d00-389223881110","ios":"levelo://app?vid=0b4b39d3-35ed-4a76-8d00-389223881110"},"vehicle_type_id":"4","last_reported":1745435280,"current_range_meters":8400,"station_id":"ce4bhq12rcd13ifvqhig","pricing_plan_id":"cebpf4jnsgd1na2vs0mg"},{"bike_id":"1559534a-da05-4bb5-96a9-e043803bd24f","system_id":"levelo_inurba_marseille","lat":43.30735,"lon":5.42431,"is_reserved":false,"is_disabled":false,"rental_uris":{"android":"levelo://app?vid=1559534a-da05-4bb5-96a9-e043803bd24f","ios":"levelo://app?vid=1559534a-da05-4bb5-96a9-e043803bd24f"},"vehicle_type_id":"4","last_reported":1745435280,"current_range_meters":8400,"station_id":"st_cvj6ca6bvosntc0bfgr0","pricing_plan_id":"cebpf4jnsgd1na2vs0mg"},{"bike_id":"4097e7f9-f416-4c0d-bbb3-28486db56493","system_id":"levelo_inurba_marseille","lat":43.28919,"lon":5.36627,"is_reserved":false,"is_disabled":false,"rental_uris":{"android":"levelo://app?vid=4097e7f9-f416-4c0d-bbb3-28486db56493","ios":"levelo://app?vid=4097e7f9-f416-4c0d-bbb3-28486db56493"},"vehicle_type_id":"4","last_reported":1745435280,"current_range_meters":8400,"station_id":"ce4bhap2rcd13ifvqek0","pricing_plan_id":"cebpf4jnsgd1na2vs0mg"},{"bike_id":"dcd59662-58be-48b0-8e26-26e5e727191a","system_id":"levelo_inurba_marseille","lat":43.30272,"lon":5.37709,"is_reserved":false,"is_disabled":false,"rental_uris":{"android":"levelo://app?vid=dcd59662-58be-48b0-8e26-26e5e727191a","ios":"levelo://app?vid=dcd59662-58be-48b0-8e26-26e5e727191a"},"vehicle_type_id":"4","last_reported":1745435280,"current_range_meters":8400,"station_id":"ce4bguh2rcd13ifvqcj0","pricing_plan_id":"cebpf4jnsgd1na2vs0mg"},{"bike_id":"1cc5f432-19f3-4591-b56b-323a5e522289","system_id":"levelo_inurba_marseille","lat":43.29554,"lon":5.42288,"is_reserved":false,"is_disabled":false,"rental_uris":{"android":"levelo://app?vid=1cc5f432-19f3-4591-b56b-323a5e522289","ios":"levelo://app?vid=1cc5f432-19f3-4591-b56b-323a5e522289"},"vehicle_type_id":"4","last_reported":1745435280,"current_range_meters":8400,"station_id":"ce4bhph2rcd13ifvqhdg","pricing_plan_id":"cebpf4jnsgd1na2vs0mg"},{"bike_id":"22d01123-49c8-4009-8009-ebb5bbc995be","system_id":"levelo_inurba_marseille","lat":43.325867,"lon":5.403538,"is_reserved":false,"is_disabled":false,"rental_uris":{"android":"levelo://app?vid=22d01123-49c8-4009-8009-ebb5bbc995be","ios":"levelo://app?vid=22d01123-49c8-4009-8009-ebb5bbc995be"},"vehicle_type_id":"4","last_reported":1745435280,"current_range_meters":8400,"station_id":"","pricing_plan_id":"cebpf4jnsgd1na2vs0mg"},{"bike_id":"93235d3d-790a-473b-8cab-8698f7ed7407","system_id":"levelo_inurba_marseille","lat":43.273734,"lon":5.362659,"is_reserved":false,"is_disabled":true,"rental_uris":{"android":"levelo://app?vid=93235d3d-790a-473b-8cab-8698f7ed7407","ios":"levelo://app?vid=93235d3d-790a-473b-8cab-8698f7ed7407"},"vehicle_type_id":"4","last_reported":1745435280,"current_range_meters":8400,"station_id":"ce4bhbh2rcd13ifvqeo0","pricing_plan_id":"cebpf4jnsgd1na2vs0mg"},{"bike_id":"001be0b9-cdf3-450d-9359-9771e014728d","system_id":"levelo_inurba_marseille","lat":43.29874,"lon":5.38919,"is_reserved":false,"is_disabled":false,"rental_uris":{"android":"levelo://app?vid=001be0b9-cdf3-450d-9359-9771e014728d","ios":"levelo://app?vid=001be0b9-cdf3-450d-9359-9771e014728d"},"vehicle_type_id":"4","last_reported":1745435280,"current_range_meters":8400,"station_id":"ce4bh392rcd13ifvqdl0","pricing_plan_id":"cebpf4jnsgd1na2vs0mg"},{"bike_id":"1ce84dc7-458b-4f31-b721-f47513c15013","system_id":"levelo_inurba_marseille","lat":43.29877,"lon":5.39736,"is_reserved":false,"is_disabled":false,"rental_uris":{"android":"levelo://app?vid=1ce84dc7-458b-4f31-b721-f47513c15013","ios":"levelo://app?vid=1ce84dc7-458b-4f31-b721-f47513c15013"},"vehicle_type_id":"4","last_reported":1745435280,"current_range_meters":8400,"station_id":"ce4bh0h2rcd13ifvqd50","pricing_plan_id":"cebpf4jnsgd1na2vs0mg"},{"bike_id":"e3488537-5f76-4eeb-ba7a-e4edb5cc3c7e","system_id":"levelo_inurba_marseille","lat":43.27169,"lon":5.40993,"is_reserved":false,"is_disabled":false,"rental_uris":{"android":"levelo://app?vid=e3488537-5f76-4eeb-ba7a-e4edb5cc3c7e","ios":"levelo://app?vid=e3488537-5f76-4eeb-ba7a-e4edb5cc3c7e"},"vehicle_type_id":"4","last_reported":1745435280,"current_range_meters":8000,"station_id":"ce4bhl12rcd13ifvqgf0","pricing_plan_id":"cebpf4jnsgd1na2vs0mg"},{"bike_id":"ccc14468-9ce7-4b0b-b1e7-7ea10476a55e","system_id":"levelo_inurba_marseille","lat":43.31116,"lon":5.37766,"is_reserved":false,"is_disabled":false,"rental_uris":{"android":"levelo://app?vid=ccc14468-9ce7-4b0b-b1e7-7ea10476a55e","ios":"levelo://app?vid=ccc14468-9ce7-4b0b-b1e7-7ea10476a55e"},"vehicle_type_id":"4","last_reported":1745435280,"current_range_meters":8400,"station_id":"ce4bgt92rcd13ifvqcg0","pricing_plan_id":"cebpf4jnsgd1na2vs0mg"},{"bike_id":"6342f17e-bfc4-4add-9883-f8307126526d","system_id":"levelo_inurba_marseille","lat":43.279444,"lon":5.410434,"is_reserved":false,"is_disabled":false,"rental_uris":{"android":"levelo://app?vid=6342f17e-bfc4-4add-9883-f8307126526d","ios":"levelo://app?vid=6342f17e-bfc4-4add-9883-f8307126526d"},"vehicle_type_id":"4","last_reported":1745435280,"current_range_meters":8400,"station_id":"ce4bhnp2rcd13ifvqh0g","pricing_plan_id":"cebpf4jnsgd1na2vs0mg"},{"bike_id":"49c0f902-eac7-4a79-adf0-d142aff51e11","system_id":"levelo_inurba_marseille","lat":43.24189,"lon":5.36419,"is_reserved":false,"is_disabled":false,"rental_uris":{"android":"levelo://app?vid=49c0f902-eac7-4a79-adf0-d142aff51e11","ios":"levelo://app?vid=49c0f902-eac7-4a79-adf0-d142aff51e11"},"vehicle_type_id":"4","last_reported":1745435280,"current_range_meters":8400,"station_id":"cpo36qri1sfpv3e86is0","pricing_plan_id":"cebpf4jnsgd1na2vs0mg"},{"bike_id":"b725497f-4c5e-4bae-bf41-1bc7018505fc","system_id":"levelo_inurba_marseille","lat":43.298796,"lon":5.39741,"is_reserved":false,"is_disabled":false,"rental_uris":{"android":"levelo://app?vid=b725497f-4c5e-4bae-bf41-1bc7018505fc","ios":"levelo://app?vid=b725497f-4c5e-4bae-bf41-1bc7018505fc"},"vehicle_type_id":"4","last_reported":1745435280,"current_range_meters":8800,"station_id":"ce4bh0h2rcd13ifvqd50","pricing_plan_id":"cebpf4jnsgd1na2vs0mg"},{"bike_id":"9c515721-f5f2-4646-9bfd-591c58991abb","system_id":"levelo_inurba_marseille","lat":43.29254,"lon":5.3843,"is_reserved":false,"is_disabled":false,"rental_uris":{"android":"levelo://app?vid=9c515721-f5f2-4646-9bfd-591c58991abb","ios":"levelo://app?vid=9c515721-f5f2-4646-9bfd-591c58991abb"},"vehicle_type_id":"4","last_reported":1745435280,"current_range_meters":8800,"station_id":"ce4bh692rcd13ifvqea0","pricing_plan_id":"cebpf4jnsgd1na2vs0mg"},{"bike_id":"93dcb0c2-3d8d-42dd-8355-d01251b8dd6b","system_id":"levelo_inurba_marseille","lat":43.26538,"lon":5.39062,"is_reserved":false,"is_disabled":false,"rental_uris":{"android":"levelo://app?vid=93dcb0c2-3d8d-42dd-8355-d01251b8dd6b","ios":"levelo://app?vid=93dcb0c2-3d8d-42dd-8355-d01251b8dd6b"},"vehicle_type_id":"4","last_reported":1745435280,"current_range_meters":8800,"station_id":"ce4bhe12rcd13ifvqf30","pricing_plan_id":"cebpf4jnsgd1na2vs0mg"},{"bike_id":"f09da611-08c7-48a0-a6c5-0ee52ee544f9","system_id":"levelo_inurba_marseille","lat":43.28609,"lon":5.35105,"is_reserved":false,"is_disabled":false,"rental_uris":{"android":"levelo://app?vid=f09da611-08c7-48a0-a6c5-0ee52ee544f9","ios":"levelo://app?vid=f09da611-08c7-48a0-a6c5-0ee52ee544f9"},"vehicle_type_id":"4","last_reported":1745435280,"current_range_meters":8800,"station_id":"ce4bhch2rcd13ifvqeug","pricing_plan_id":"cebpf4jnsgd1na2vs0mg"},{"bike_id":"a6e1ed00-763f-49cd-b46e-89149f63a8bc","system_id":"levelo_inurba_marseille","lat":43.289408,"lon":5.381864,"is_reserved":false,"is_disabled":false,"rental_uris":{"android":"levelo://app?vid=a6e1ed00-763f-49cd-b46e-89149f63a8bc","ios":"levelo://app?vid=a6e1ed00-763f-49cd-b46e-89149f63a8bc"},"vehicle_type_id":"4","last_reported":1745435280,"current_range_meters":8800,"station_id":"ce4bh512rcd13ifvqe2g","pricing_plan_id":"cebpf4jnsgd1na2vs0mg"},{"bike_id":"77957c4b-5a18-45b8-a627-8bb7deef59d6","system_id":"levelo_inurba_marseille","lat":43.3128,"lon":5.4015,"is_reserved":false,"is_disabled":false,"rental_uris":{"android":"levelo://app?vid=77957c4b-5a18-45b8-a627-8bb7deef59d6","ios":"levelo://app?vid=77957c4b-5a18-45b8-a627-8bb7deef59d6"},"vehicle_type_id":"4","last_reported":1745435280,"current_range_meters":8800,"station_id":"ce4bh092rcd13ifvqd30","pricing_plan_id":"cebpf4jnsgd1na2vs0mg"},{"bike_id":"61034bff-863b-4f17-b306-04653b14a109","system_id":"levelo_inurba_marseille","lat":43.30929,"lon":5.40132,"is_reserved":false,"is_disabled":true,"rental_uris":{"android":"levelo://app?vid=61034bff-863b-4f17-b306-04653b14a109","ios":"levelo://app?vid=61034bff-863b-4f17-b306-04653b14a109"},"vehicle_type_id":"4","last_reported":1745435280,"current_range_meters":8800,"station_id":"ce4bgvp2rcd13ifvqct0","pricing_plan_id":"cebpf4jnsgd1na2vs0mg"},{"bike_id":"9e413059-7cf1-4bcb-94d0-d441a1bc78ba","system_id":"levelo_inurba_marseille","lat":43.2871,"lon":5.37378,"is_reserved":false,"is_disabled":false,"rental_uris":{"android":"levelo://app?vid=9e413059-7cf1-4bcb-94d0-d441a1bc78ba","ios":"levelo://app?vid=9e413059-7cf1-4bcb-94d0-d441a1bc78ba"},"vehicle_type_id":"4","last_reported":1745435280,"current_range_meters":8800,"station_id":"ce4bh3p2rcd13ifvqdq0","pricing_plan_id":"cebpf4jnsgd1na2vs0mg"},{"bike_id":"896ba6df-ef46-410a-b9bd-c8259e6843b5","system_id":"levelo_inurba_marseille","lat":43.295536,"lon":5.4229,"is_reserved":false,"is_disabled":false,"rental_uris":{"android":"levelo://app?vid=896ba6df-ef46-410a-b9bd-c8259e6843b5","ios":"levelo://app?vid=896ba6df-ef46-410a-b9bd-c8259e6843b5"},"vehicle_type_id":"4","last_reported":1745435280,"current_range_meters":8800,"station_id":"ce4bhph2rcd13ifvqhdg","pricing_plan_id":"cebpf4jnsgd1na2vs0mg"},{"bike_id":"5cec985c-475e-4a47-afd7-2118745a458f","system_id":"levelo_inurba_marseille","lat":43.22931,"lon":5.35381,"is_reserved":false,"is_disabled":false,"rental_uris":{"android":"levelo://app?vid=5cec985c-475e-4a47-afd7-2118745a458f","ios":"levelo://app?vid=5cec985c-475e-4a47-afd7-2118745a458f"},"vehicle_type_id":"4","last_reported":1745435280,"current_range_meters":8800,"station_id":"cpo3532slgdg3j2ikp40","pricing_plan_id":"cebpf4jnsgd1na2vs0mg"},{"bike_id":"fc029430-34ee-434b-b20b-a3fbb74bc013","system_id":"levelo_inurba_marseille","lat":43.29978,"lon":5.37175,"is_reserved":false,"is_disabled":false,"rental_uris":{"android":"levelo://app?vid=fc029430-34ee-434b-b20b-a3fbb74bc013","ios":"levelo://app?vid=fc029430-34ee-434b-b20b-a3fbb74bc013"},"vehicle_type_id":"4","last_reported":1745435280,"current_range_meters":9200,"station_id":"ce4bgr92rcd13ifvqc7g","pricing_plan_id":"cebpf4jnsgd1na2vs0mg"},{"bike_id":"a2160c97-457f-4fc0-9d23-54e10646deb1","system_id":"levelo_inurba_marseille","lat":43.29193,"lon":5.39326,"is_reserved":false,"is_disabled":false,"rental_uris":{"android":"levelo://app?vid=a2160c97-457f-4fc0-9d23-54e10646deb1","ios":"levelo://app?vid=a2160c97-457f-4fc0-9d23-54e10646deb1"},"vehicle_type_id":"4","last_reported":1745435280,"current_range_meters":9200,"station_id":"ce4bh192rcd13ifvqdd0","pricing_plan_id":"cebpf4jnsgd1na2vs0mg"},{"bike_id":"2444db48-73b9-4f67-9dc6-6e8bcceff093","system_id":"levelo_inurba_marseille","lat":43.297779,"lon":5.381106,"is_reserved":false,"is_disabled":true,"rental_uris":{"android":"levelo://app?vid=2444db48-73b9-4f67-9dc6-6e8bcceff093","ios":"levelo://app?vid=2444db48-73b9-4f67-9dc6-6e8bcceff093"},"vehicle_type_id":"4","last_reported":1745435280,"current_range_meters":9200,"station_id":"ce4bgip2rcd13ifvqbb0","pricing_plan_id":"cebpf4jnsgd1na2vs0mg"},{"bike_id":"7affd995-e96b-402e-86ac-a786554a4a0f","system_id":"levelo_inurba_marseille","lat":43.30791,"lon":5.37655,"is_reserved":false,"is_disabled":false,"rental_uris":{"android":"levelo://app?vid=7affd995-e96b-402e-86ac-a786554a4a0f","ios":"levelo://app?vid=7affd995-e96b-402e-86ac-a786554a4a0f"},"vehicle_type_id":"4","last_reported":1745435280,"current_range_meters":9200,"station_id":"ce4bgv92rcd13ifvqcq0","pricing_plan_id":"cebpf4jnsgd1na2vs0mg"},{"bike_id":"1e575470-83c3-4701-b161-8b436650dc96","system_id":"levelo_inurba_marseille","lat":43.30351,"lon":5.41881,"is_reserved":false,"is_disabled":false,"rental_uris":{"android":"levelo://app?vid=1e575470-83c3-4701-b161-8b436650dc96","ios":"levelo://app?vid=1e575470-83c3-4701-b161-8b436650dc96"},"vehicle_type_id":"4","last_reported":1745435280,"current_range_meters":9200,"station_id":"ce4bhop2rcd13ifvqh7g","pricing_plan_id":"cebpf4jnsgd1na2vs0mg"},{"bike_id":"c11b8e6c-53f6-4b89-8bb3-db13714c5b10","system_id":"levelo_inurba_marseille","lat":43.28927,"lon":5.36633,"is_reserved":false,"is_disabled":false,"rental_uris":{"android":"levelo://app?vid=c11b8e6c-53f6-4b89-8bb3-db13714c5b10","ios":"levelo://app?vid=c11b8e6c-53f6-4b89-8bb3-db13714c5b10"},"vehicle_type_id":"4","last_reported":1745435280,"current_range_meters":9200,"station_id":"ce4bhap2rcd13ifvqek0","pricing_plan_id":"cebpf4jnsgd1na2vs0mg"},{"bike_id":"fa5ca83c-1826-4818-98f1-ef2c2d4b37e0","system_id":"levelo_inurba_marseille","lat":43.29519,"lon":5.39038,"is_reserved":false,"is_disabled":false,"rental_uris":{"android":"levelo://app?vid=fa5ca83c-1826-4818-98f1-ef2c2d4b37e0","ios":"levelo://app?vid=fa5ca83c-1826-4818-98f1-ef2c2d4b37e0"},"vehicle_type_id":"4","last_reported":1745435280,"current_range_meters":8800,"station_id":"ce4bh3p2rcd13ifvqdp0","pricing_plan_id":"cebpf4jnsgd1na2vs0mg"},{"bike_id":"34b8a630-6332-4a7f-8547-0034c7e4c3d7","system_id":"levelo_inurba_marseille","lat":43.29023,"lon":5.38133,"is_reserved":false,"is_disabled":false,"rental_uris":{"android":"levelo://app?vid=34b8a630-6332-4a7f-8547-0034c7e4c3d7","ios":"levelo://app?vid=34b8a630-6332-4a7f-8547-0034c7e4c3d7"},"vehicle_type_id":"4","last_reported":1745435280,"current_range_meters":9200,"station_id":"ce4bh4p2rcd13ifvqe1g","pricing_plan_id":"cebpf4jnsgd1na2vs0mg"},{"bike_id":"5bfd0e48-878f-4418-8cfc-1cdb33e22723","system_id":"levelo_inurba_marseille","lat":43.28932,"lon":5.36634,"is_reserved":false,"is_disabled":false,"rental_uris":{"android":"levelo://app?vid=5bfd0e48-878f-4418-8cfc-1cdb33e22723","ios":"levelo://app?vid=5bfd0e48-878f-4418-8cfc-1cdb33e22723"},"vehicle_type_id":"4","last_reported":1745435280,"current_range_meters":9200,"station_id":"ce4bhap2rcd13ifvqek0","pricing_plan_id":"cebpf4jnsgd1na2vs0mg"},{"bike_id":"fbb6be43-75ac-4697-af84-df6581464ee0","system_id":"levelo_inurba_marseille","lat":43.23962,"lon":5.36635,"is_reserved":false,"is_disabled":false,"rental_uris":{"android":"levelo://app?vid=fbb6be43-75ac-4697-af84-df6581464ee0","ios":"levelo://app?vid=fbb6be43-75ac-4697-af84-df6581464ee0"},"vehicle_type_id":"4","last_reported":1745435280,"current_range_meters":9200,"station_id":"ce4bhi12rcd13ifvqfp0","pricing_plan_id":"cebpf4jnsgd1na2vs0mg"},{"bike_id":"1780b1fd-113e-4b95-a483-e0cb2074c4c6","system_id":"levelo_inurba_marseille","lat":43.29835,"lon":5.36273,"is_reserved":false,"is_disabled":false,"rental_uris":{"android":"levelo://app?vid=1780b1fd-113e-4b95-a483-e0cb2074c4c6","ios":"levelo://app?vid=1780b1fd-113e-4b95-a483-e0cb2074c4c6"},"vehicle_type_id":"4","last_reported":1745435280,"current_range_meters":9200,"station_id":"ce4bgpp2rcd13ifvqc3g","pricing_plan_id":"cebpf4jnsgd1na2vs0mg"},{"bike_id":"c52f77ae-077c-414b-9907-e819fbb6cccb","system_id":"levelo_inurba_marseille","lat":43.28925,"lon":5.3663,"is_reserved":false,"is_disabled":false,"rental_uris":{"android":"levelo://app?vid=c52f77ae-077c-414b-9907-e819fbb6cccb","ios":"levelo://app?vid=c52f77ae-077c-414b-9907-e819fbb6cccb"},"vehicle_type_id":"4","last_reported":1745435280,"current_range_meters":9600,"station_id":"ce4bhap2rcd13ifvqek0","pricing_plan_id":"cebpf4jnsgd1na2vs0mg"},{"bike_id":"235f2bae-0a04-4484-8459-9c3ece0a1b2c","system_id":"levelo_inurba_marseille","lat":43.30739,"lon":5.4245,"is_reserved":false,"is_disabled":false,"rental_uris":{"android":"levelo://app?vid=235f2bae-0a04-4484-8459-9c3ece0a1b2c","ios":"levelo://app?vid=235f2bae-0a04-4484-8459-9c3ece0a1b2c"},"vehicle_type_id":"4","last_reported":1745435280,"current_range_meters":9600,"station_id":"st_cvj6ca6bvosntc0bfgr0","pricing_plan_id":"cebpf4jnsgd1na2vs0mg"},{"bike_id":"784e2345-920e-4780-951e-dd56fd705417","system_id":"levelo_inurba_marseille","lat":43.30915,"lon":5.36853,"is_reserved":false,"is_disabled":false,"rental_uris":{"android":"levelo://app?vid=784e2345-920e-4780-951e-dd56fd705417","ios":"levelo://app?vid=784e2345-920e-4780-951e-dd56fd705417"},"vehicle_type_id":"4","last_reported":1745435280,"current_range_meters":9600,"station_id":"ce4bgn92rcd13ifvqbvg","pricing_plan_id":"cebpf4jnsgd1na2vs0mg"},{"bike_id":"4b5ad419-2a9e-4292-b343-3486796c2a93","system_id":"levelo_inurba_marseille","lat":43.28715,"lon":5.37386,"is_reserved":false,"is_disabled":false,"rental_uris":{"android":"levelo://app?vid=4b5ad419-2a9e-4292-b343-3486796c2a93","ios":"levelo://app?vid=4b5ad419-2a9e-4292-b343-3486796c2a93"},"vehicle_type_id":"4","last_reported":1745435280,"current_range_meters":9600,"station_id":"ce4bh3p2rcd13ifvqdq0","pricing_plan_id":"cebpf4jnsgd1na2vs0mg"},{"bike_id":"baf16995-e7d6-40d5-afca-58467ccd3dd8","system_id":"levelo_inurba_marseille","lat":43.28,"lon":5.40007,"is_reserved":false,"is_disabled":false,"rental_uris":{"android":"levelo://app?vid=baf16995-e7d6-40d5-afca-58467ccd3dd8","ios":"levelo://app?vid=baf16995-e7d6-40d5-afca-58467ccd3dd8"},"vehicle_type_id":"4","last_reported":1745435280,"current_range_meters":9600,"station_id":"ce4bho92rcd13ifvqh4g","pricing_plan_id":"cebpf4jnsgd1na2vs0mg"},{"bike_id":"e87d72c6-2239-4b1d-bd51-f684c600ed8e","system_id":"levelo_inurba_marseille","lat":43.28714,"lon":5.37946,"is_reserved":false,"is_disabled":false,"rental_uris":{"android":"levelo://app?vid=e87d72c6-2239-4b1d-bd51-f684c600ed8e","ios":"levelo://app?vid=e87d72c6-2239-4b1d-bd51-f684c600ed8e"},"vehicle_type_id":"4","last_reported":1745435280,"current_range_meters":9600,"station_id":"ce4bh9p2rcd13ifvqec0","pricing_plan_id":"cebpf4jnsgd1na2vs0mg"},{"bike_id":"7c6eb383-9965-4442-91bd-c7b12edd43c5","system_id":"levelo_inurba_marseille","lat":43.295319,"lon":5.38543,"is_reserved":false,"is_disabled":false,"rental_uris":{"android":"levelo://app?vid=7c6eb383-9965-4442-91bd-c7b12edd43c5","ios":"levelo://app?vid=7c6eb383-9965-4442-91bd-c7b12edd43c5"},"vehicle_type_id":"4","last_reported":1745435280,"current_range_meters":9600,"station_id":"ce4bgih2rcd13ifvqba0","pricing_plan_id":"cebpf4jnsgd1na2vs0mg"},{"bike_id":"4f5ac7c4-fae3-469d-a49f-999fe327ce77","system_id":"levelo_inurba_marseille","lat":43.319963,"lon":5.381617,"is_reserved":false,"is_disabled":false,"rental_uris":{"android":"levelo://app?vid=4f5ac7c4-fae3-469d-a49f-999fe327ce77","ios":"levelo://app?vid=4f5ac7c4-fae3-469d-a49f-999fe327ce77"},"vehicle_type_id":"4","last_reported":1745435280,"current_range_meters":6800,"station_id":"ce4bhr12rcd13ifvqhpg","pricing_plan_id":"cebpf4jnsgd1na2vs0mg"},{"bike_id":"3f656645-9c8d-484c-b6d0-6ed198560632","system_id":"levelo_inurba_marseille","lat":43.27803,"lon":5.407223,"is_reserved":false,"is_disabled":false,"rental_uris":{"android":"levelo://app?vid=3f656645-9c8d-484c-b6d0-6ed198560632","ios":"levelo://app?vid=3f656645-9c8d-484c-b6d0-6ed198560632"},"vehicle_type_id":"4","last_reported":1745435280,"current_range_meters":9600,"station_id":"ce4bhnh2rcd13ifvqgtg","pricing_plan_id":"cebpf4jnsgd1na2vs0mg"},{"bike_id":"ec350b30-9b32-4c5f-aa22-3a10fc683fe2","system_id":"levelo_inurba_marseille","lat":43.293218,"lon":5.434575,"is_reserved":false,"is_disabled":false,"rental_uris":{"android":"levelo://app?vid=ec350b30-9b32-4c5f-aa22-3a10fc683fe2","ios":"levelo://app?vid=ec350b30-9b32-4c5f-aa22-3a10fc683fe2"},"vehicle_type_id":"4","last_reported":1745435280,"current_range_meters":9600,"station_id":"","pricing_plan_id":"cebpf4jnsgd1na2vs0mg"},{"bike_id":"ee6fe346-129a-4352-b7c7-aefa1e451c7a","system_id":"levelo_inurba_marseille","lat":43.30658,"lon":5.40083,"is_reserved":false,"is_disabled":true,"rental_uris":{"android":"levelo://app?vid=ee6fe346-129a-4352-b7c7-aefa1e451c7a","ios":"levelo://app?vid=ee6fe346-129a-4352-b7c7-aefa1e451c7a"},"vehicle_type_id":"4","last_reported":1745435280,"current_range_meters":10000,"station_id":"ce4bh112rcd13ifvqda0","pricing_plan_id":"cebpf4jnsgd1na2vs0mg"},{"bike_id":"92c3b340-d069-4f1c-b55b-44c52f19597b","system_id":"levelo_inurba_marseille","lat":43.28253,"lon":5.37793,"is_reserved":false,"is_disabled":false,"rental_uris":{"android":"levelo://app?vid=92c3b340-d069-4f1c-b55b-44c52f19597b","ios":"levelo://app?vid=92c3b340-d069-4f1c-b55b-44c52f19597b"},"vehicle_type_id":"4","last_reported":1745435280,"current_range_meters":10000,"station_id":"","pricing_plan_id":"cebpf4jnsgd1na2vs0mg"},{"bike_id":"4618d483-cfc9-4a9d-8716-878894478a16","system_id":"levelo_inurba_marseille","lat":43.29979,"lon":5.3849,"is_reserved":false,"is_disabled":false,"rental_uris":{"android":"levelo://app?vid=4618d483-cfc9-4a9d-8716-878894478a16","ios":"levelo://app?vid=4618d483-cfc9-4a9d-8716-878894478a16"},"vehicle_type_id":"4","last_reported":1745435280,"current_range_meters":10000,"station_id":"ce4bgj92rcd13ifvqbd0","pricing_plan_id":"cebpf4jnsgd1na2vs0mg"},{"bike_id":"f204b045-69f9-4ea7-98cd-767d84885ccf","system_id":"levelo_inurba_marseille","lat":43.31111,"lon":5.37771,"is_reserved":false,"is_disabled":false,"rental_uris":{"android":"levelo://app?vid=f204b045-69f9-4ea7-98cd-767d84885ccf","ios":"levelo://app?vid=f204b045-69f9-4ea7-98cd-767d84885ccf"},"vehicle_type_id":"4","last_reported":1745435280,"current_range_meters":10000,"station_id":"ce4bgt92rcd13ifvqcg0","pricing_plan_id":"cebpf4jnsgd1na2vs0mg"},{"bike_id":"f8df5ae0-f6f2-403a-8a85-9976fa6552fe","system_id":"levelo_inurba_marseille","lat":43.292,"lon":5.3933,"is_reserved":false,"is_disabled":false,"rental_uris":{"android":"levelo://app?vid=f8df5ae0-f6f2-403a-8a85-9976fa6552fe","ios":"levelo://app?vid=f8df5ae0-f6f2-403a-8a85-9976fa6552fe"},"vehicle_type_id":"4","last_reported":1745435280,"current_range_meters":10000,"station_id":"ce4bh192rcd13ifvqdd0","pricing_plan_id":"cebpf4jnsgd1na2vs0mg"},{"bike_id":"7e9d26b8-b748-4e10-b3e2-977d9fd05087","system_id":"levelo_inurba_marseille","lat":43.32345,"lon":5.36738,"is_reserved":false,"is_disabled":false,"rental_uris":{"android":"levelo://app?vid=7e9d26b8-b748-4e10-b3e2-977d9fd05087","ios":"levelo://app?vid=7e9d26b8-b748-4e10-b3e2-977d9fd05087"},"vehicle_type_id":"4","last_reported":1745435280,"current_range_meters":10000,"station_id":"ce4bhsh2rcd13ifvqi2g","pricing_plan_id":"cebpf4jnsgd1na2vs0mg"},{"bike_id":"9c325fd4-f154-4a48-857e-569f4cc367f9","system_id":"levelo_inurba_marseille","lat":43.22921,"lon":5.3539,"is_reserved":false,"is_disabled":false,"rental_uris":{"android":"levelo://app?vid=9c325fd4-f154-4a48-857e-569f4cc367f9","ios":"levelo://app?vid=9c325fd4-f154-4a48-857e-569f4cc367f9"},"vehicle_type_id":"4","last_reported":1745435280,"current_range_meters":10000,"station_id":"cpo3532slgdg3j2ikp40","pricing_plan_id":"cebpf4jnsgd1na2vs0mg"},{"bike_id":"9d0400e9-9409-4439-89b5-9968c72ce88f","system_id":"levelo_inurba_marseille","lat":43.29035,"lon":5.3757,"is_reserved":false,"is_disabled":false,"rental_uris":{"android":"levelo://app?vid=9d0400e9-9409-4439-89b5-9968c72ce88f","ios":"levelo://app?vid=9d0400e9-9409-4439-89b5-9968c72ce88f"},"vehicle_type_id":"4","last_reported":1745435280,"current_range_meters":8400,"station_id":"ce4bh692rcd13ifvqe90","pricing_plan_id":"cebpf4jnsgd1na2vs0mg"},{"bike_id":"ff3c923d-f028-469a-b8cc-3d9110e756b6","system_id":"levelo_inurba_marseille","lat":43.27943,"lon":5.41035,"is_reserved":false,"is_disabled":false,"rental_uris":{"android":"levelo://app?vid=ff3c923d-f028-469a-b8cc-3d9110e756b6","ios":"levelo://app?vid=ff3c923d-f028-469a-b8cc-3d9110e756b6"},"vehicle_type_id":"4","last_reported":1745435280,"current_range_meters":10000,"station_id":"ce4bhnp2rcd13ifvqh0g","pricing_plan_id":"cebpf4jnsgd1na2vs0mg"},{"bike_id":"820eb236-6393-4ec0-8e9e-320db2f22fca","system_id":"levelo_inurba_marseille","lat":43.24793,"lon":5.37454,"is_reserved":false,"is_disabled":false,"rental_uris":{"android":"levelo://app?vid=820eb236-6393-4ec0-8e9e-320db2f22fca","ios":"levelo://app?vid=820eb236-6393-4ec0-8e9e-320db2f22fca"},"vehicle_type_id":"4","last_reported":1745435280,"current_range_meters":10000,"station_id":"ce4bhgh2rcd13ifvqfb0","pricing_plan_id":"cebpf4jnsgd1na2vs0mg"},{"bike_id":"debc5294-ee26-46fa-9c76-244220f3e4b3","system_id":"levelo_inurba_marseille","lat":43.26803,"lon":5.40274,"is_reserved":false,"is_disabled":false,"rental_uris":{"android":"levelo://app?vid=debc5294-ee26-46fa-9c76-244220f3e4b3","ios":"levelo://app?vid=debc5294-ee26-46fa-9c76-244220f3e4b3"},"vehicle_type_id":"4","last_reported":1745435280,"current_range_meters":10000,"station_id":"ce501612rcd8frsf0b60","pricing_plan_id":"cebpf4jnsgd1na2vs0mg"},{"bike_id":"8c7cba96-a3d5-439a-9e64-c18b09dd7aa5","system_id":"levelo_inurba_marseille","lat":43.29546,"lon":5.42294,"is_reserved":false,"is_disabled":false,"rental_uris":{"android":"levelo://app?vid=8c7cba96-a3d5-439a-9e64-c18b09dd7aa5","ios":"levelo://app?vid=8c7cba96-a3d5-439a-9e64-c18b09dd7aa5"},"vehicle_type_id":"4","last_reported":1745435280,"current_range_meters":10000,"station_id":"ce4bhph2rcd13ifvqhdg","pricing_plan_id":"cebpf4jnsgd1na2vs0mg"},{"bike_id":"c716bd25-553c-43e7-9bc0-fc435956e93b","system_id":"levelo_inurba_marseille","lat":43.28625,"lon":5.35097,"is_reserved":false,"is_disabled":false,"rental_uris":{"android":"levelo://app?vid=c716bd25-553c-43e7-9bc0-fc435956e93b","ios":"levelo://app?vid=c716bd25-553c-43e7-9bc0-fc435956e93b"},"vehicle_type_id":"4","last_reported":1745435280,"current_range_meters":10800,"station_id":"ce4bhch2rcd13ifvqeug","pricing_plan_id":"cebpf4jnsgd1na2vs0mg"},{"bike_id":"b96d48d5-fc65-423b-9a30-5d2c864e8939","system_id":"levelo_inurba_marseille","lat":43.22506,"lon":5.34785,"is_reserved":false,"is_disabled":false,"rental_uris":{"android":"levelo://app?vid=b96d48d5-fc65-423b-9a30-5d2c864e8939","ios":"levelo://app?vid=b96d48d5-fc65-423b-9a30-5d2c864e8939"},"vehicle_type_id":"4","last_reported":1745435280,"current_range_meters":10800,"station_id":"st_cvj5dfep6f1abm77gieg","pricing_plan_id":"cebpf4jnsgd1na2vs0mg"},{"bike_id":"db056252-8124-434f-9af5-0f1f48aad5e4","system_id":"levelo_inurba_marseille","lat":43.29178,"lon":5.37151,"is_reserved":false,"is_disabled":false,"rental_uris":{"android":"levelo://app?vid=db056252-8124-434f-9af5-0f1f48aad5e4","ios":"levelo://app?vid=db056252-8124-434f-9af5-0f1f48aad5e4"},"vehicle_type_id":"4","last_reported":1745435280,"current_range_meters":10800,"station_id":"ce4bha92rcd13ifvqeh0","pricing_plan_id":"cebpf4jnsgd1na2vs0mg"},{"bike_id":"abc0b4f6-6aaa-4af0-849f-9628fbaeeb23","system_id":"levelo_inurba_marseille","lat":43.29188,"lon":5.37154,"is_reserved":false,"is_disabled":false,"rental_uris":{"android":"levelo://app?vid=abc0b4f6-6aaa-4af0-849f-9628fbaeeb23","ios":"levelo://app?vid=abc0b4f6-6aaa-4af0-849f-9628fbaeeb23"},"vehicle_type_id":"4","last_reported":1745435280,"current_range_meters":10800,"station_id":"ce4bha92rcd13ifvqeh0","pricing_plan_id":"cebpf4jnsgd1na2vs0mg"},{"bike_id":"8ba0eb37-1f71-4f19-b786-a1b487c8eacf","system_id":"levelo_inurba_marseille","lat":43.31175,"lon":5.38719,"is_reserved":false,"is_disabled":false,"rental_uris":{"android":"levelo://app?vid=8ba0eb37-1f71-4f19-b786-a1b487c8eacf","ios":"levelo://app?vid=8ba0eb37-1f71-4f19-b786-a1b487c8eacf"},"vehicle_type_id":"4","last_reported":1745435280,"current_range_meters":10800,"station_id":"ce4bgv12rcd13ifvqcp0","pricing_plan_id":"cebpf4jnsgd1na2vs0mg"},{"bike_id":"808eb545-25fc-4232-a0f9-7af7d04bc02a","system_id":"levelo_inurba_marseille","lat":43.290278,"lon":5.386497,"is_reserved":false,"is_disabled":false,"rental_uris":{"android":"levelo://app?vid=808eb545-25fc-4232-a0f9-7af7d04bc02a","ios":"levelo://app?vid=808eb545-25fc-4232-a0f9-7af7d04bc02a"},"vehicle_type_id":"4","last_reported":1745435280,"current_range_meters":11200,"station_id":"ce4bgt92rcd13ifvqcf0","pricing_plan_id":"cebpf4jnsgd1na2vs0mg"},{"bike_id":"50c19231-9c17-460f-867e-22d53deaa998","system_id":"levelo_inurba_marseille","lat":43.29976,"lon":5.37174,"is_reserved":false,"is_disabled":false,"rental_uris":{"android":"levelo://app?vid=50c19231-9c17-460f-867e-22d53deaa998","ios":"levelo://app?vid=50c19231-9c17-460f-867e-22d53deaa998"},"vehicle_type_id":"4","last_reported":1745435280,"current_range_meters":11200,"station_id":"ce4bgr92rcd13ifvqc7g","pricing_plan_id":"cebpf4jnsgd1na2vs0mg"},{"bike_id":"a4b0f6e2-bbbc-412d-a87d-5843d18bf2e7","system_id":"levelo_inurba_marseille","lat":43.28671,"lon":5.36355,"is_reserved":false,"is_disabled":false,"rental_uris":{"android":"levelo://app?vid=a4b0f6e2-bbbc-412d-a87d-5843d18bf2e7","ios":"levelo://app?vid=a4b0f6e2-bbbc-412d-a87d-5843d18bf2e7"},"vehicle_type_id":"4","last_reported":1745435280,"current_range_meters":11200,"station_id":"ce4bhah2rcd13ifvqej0","pricing_plan_id":"cebpf4jnsgd1na2vs0mg"},{"bike_id":"420db772-d16c-4135-bd19-abf9c8a32f78","system_id":"levelo_inurba_marseille","lat":43.295327,"lon":5.3855,"is_reserved":false,"is_disabled":false,"rental_uris":{"android":"levelo://app?vid=420db772-d16c-4135-bd19-abf9c8a32f78","ios":"levelo://app?vid=420db772-d16c-4135-bd19-abf9c8a32f78"},"vehicle_type_id":"4","last_reported":1745435280,"current_range_meters":11200,"station_id":"ce4bgih2rcd13ifvqba0","pricing_plan_id":"cebpf4jnsgd1na2vs0mg"},{"bike_id":"b26552cd-1f34-4edb-b768-69e5679622c0","system_id":"levelo_inurba_marseille","lat":43.31172,"lon":5.38726,"is_reserved":false,"is_disabled":false,"rental_uris":{"android":"levelo://app?vid=b26552cd-1f34-4edb-b768-69e5679622c0","ios":"levelo://app?vid=b26552cd-1f34-4edb-b768-69e5679622c0"},"vehicle_type_id":"4","last_reported":1745435280,"current_range_meters":11200,"station_id":"ce4bgv12rcd13ifvqcp0","pricing_plan_id":"cebpf4jnsgd1na2vs0mg"},{"bike_id":"03bbc5db-7780-4675-a80f-8f0f510ae625","system_id":"levelo_inurba_marseille","lat":43.28011,"lon":5.39997,"is_reserved":false,"is_disabled":false,"rental_uris":{"android":"levelo://app?vid=03bbc5db-7780-4675-a80f-8f0f510ae625","ios":"levelo://app?vid=03bbc5db-7780-4675-a80f-8f0f510ae625"},"vehicle_type_id":"4","last_reported":1745435280,"current_range_meters":11200,"station_id":"ce4bho92rcd13ifvqh4g","pricing_plan_id":"cebpf4jnsgd1na2vs0mg"},{"bike_id":"d6a00241-8f25-44db-ac6d-8e84872db2a8","system_id":"levelo_inurba_marseille","lat":43.33731,"lon":5.39175,"is_reserved":false,"is_disabled":false,"rental_uris":{"android":"levelo://app?vid=d6a00241-8f25-44db-ac6d-8e84872db2a8","ios":"levelo://app?vid=d6a00241-8f25-44db-ac6d-8e84872db2a8"},"vehicle_type_id":"4","last_reported":1745435280,"current_range_meters":11200,"station_id":"ce4bhr92rcd13ifvqhsg","pricing_plan_id":"cebpf4jnsgd1na2vs0mg"},{"bike_id":"abd226a8-d003-4133-b9d2-b7c952b7ead1","system_id":"levelo_inurba_marseille","lat":43.23086,"lon":5.35453,"is_reserved":false,"is_disabled":false,"rental_uris":{"android":"levelo://app?vid=abd226a8-d003-4133-b9d2-b7c952b7ead1","ios":"levelo://app?vid=abd226a8-d003-4133-b9d2-b7c952b7ead1"},"vehicle_type_id":"4","last_reported":1745435280,"current_range_meters":11200,"station_id":"cpo3342slgdg3j2ifvpg","pricing_plan_id":"cebpf4jnsgd1na2vs0mg"},{"bike_id":"479b77c2-d807-4d72-8fea-301ec17f90f0","system_id":"levelo_inurba_marseille","lat":43.31357,"lon":5.38495,"is_reserved":false,"is_disabled":false,"rental_uris":{"android":"levelo://app?vid=479b77c2-d807-4d72-8fea-301ec17f90f0","ios":"levelo://app?vid=479b77c2-d807-4d72-8fea-301ec17f90f0"},"vehicle_type_id":"4","last_reported":1745435280,"current_range_meters":11200,"station_id":"ce4bgt92rcd13ifvqcf0","pricing_plan_id":"cebpf4jnsgd1na2vs0mg"},{"bike_id":"8fb44261-49c3-4680-b8bd-36f293c27199","system_id":"levelo_inurba_marseille","lat":43.24067,"lon":5.37762,"is_reserved":false,"is_disabled":false,"rental_uris":{"android":"levelo://app?vid=8fb44261-49c3-4680-b8bd-36f293c27199","ios":"levelo://app?vid=8fb44261-49c3-4680-b8bd-36f293c27199"},"vehicle_type_id":"4","last_reported":1745435280,"current_range_meters":11600,"station_id":"ce4bhnp2rcd13ifvqgvg","pricing_plan_id":"cebpf4jnsgd1na2vs0mg"},{"bike_id":"3a28fee2-7c74-475c-be02-e62a486fb0b9","system_id":"levelo_inurba_marseille","lat":43.29529,"lon":5.37504,"is_reserved":false,"is_disabled":false,"rental_uris":{"android":"levelo://app?vid=3a28fee2-7c74-475c-be02-e62a486fb0b9","ios":"levelo://app?vid=3a28fee2-7c74-475c-be02-e62a486fb0b9"},"vehicle_type_id":"4","last_reported":1745435280,"current_range_meters":11600,"station_id":"ce4bgkp2rcd13ifvqbmg","pricing_plan_id":"cebpf4jnsgd1na2vs0mg"},{"bike_id":"f412b40d-a034-4260-bc36-008b0b97fb8c","system_id":"levelo_inurba_marseille","lat":43.29526,"lon":5.38537,"is_reserved":false,"is_disabled":false,"rental_uris":{"android":"levelo://app?vid=f412b40d-a034-4260-bc36-008b0b97fb8c","ios":"levelo://app?vid=f412b40d-a034-4260-bc36-008b0b97fb8c"},"vehicle_type_id":"4","last_reported":1745435280,"current_range_meters":11600,"station_id":"ce4bgih2rcd13ifvqba0","pricing_plan_id":"cebpf4jnsgd1na2vs0mg"},{"bike_id":"1b8b7145-49a7-4fe1-96a2-72a1d6e84a54","system_id":"levelo_inurba_marseille","lat":43.2306,"lon":5.35491,"is_reserved":false,"is_disabled":false,"rental_uris":{"android":"levelo://app?vid=1b8b7145-49a7-4fe1-96a2-72a1d6e84a54","ios":"levelo://app?vid=1b8b7145-49a7-4fe1-96a2-72a1d6e84a54"},"vehicle_type_id":"4","last_reported":1745435280,"current_range_meters":11600,"station_id":"cpo3342slgdg3j2ifvpg","pricing_plan_id":"cebpf4jnsgd1na2vs0mg"},{"bike_id":"7e168725-4d64-4302-a96b-dfc8d5097467","system_id":"levelo_inurba_marseille","lat":43.31172,"lon":5.38723,"is_reserved":false,"is_disabled":false,"rental_uris":{"android":"levelo://app?vid=7e168725-4d64-4302-a96b-dfc8d5097467","ios":"levelo://app?vid=7e168725-4d64-4302-a96b-dfc8d5097467"},"vehicle_type_id":"4","last_reported":1745435280,"current_range_meters":11600,"station_id":"ce4bgv12rcd13ifvqcp0","pricing_plan_id":"cebpf4jnsgd1na2vs0mg"},{"bike_id":"730c7476-95c4-4e18-a1b3-3a935e74be04","system_id":"levelo_inurba_marseille","lat":43.29045,"lon":5.37543,"is_reserved":false,"is_disabled":true,"rental_uris":{"android":"levelo://app?vid=730c7476-95c4-4e18-a1b3-3a935e74be04","ios":"levelo://app?vid=730c7476-95c4-4e18-a1b3-3a935e74be04"},"vehicle_type_id":"4","last_reported":1745435280,"current_range_meters":12000,"station_id":"ce4bh692rcd13ifvqe90","pricing_plan_id":"cebpf4jnsgd1na2vs0mg"},{"bike_id":"716b8428-36de-4a4e-bede-3f01e8feff4d","system_id":"levelo_inurba_marseille","lat":43.28005,"lon":5.40007,"is_reserved":false,"is_disabled":false,"rental_uris":{"android":"levelo://app?vid=716b8428-36de-4a4e-bede-3f01e8feff4d","ios":"levelo://app?vid=716b8428-36de-4a4e-bede-3f01e8feff4d"},"vehicle_type_id":"4","last_reported":1745435280,"current_range_meters":12000,"station_id":"ce4bho92rcd13ifvqh4g","pricing_plan_id":"cebpf4jnsgd1na2vs0mg"},{"bike_id":"395e5fa2-6413-4d1d-9a3e-bf7daba12776","system_id":"levelo_inurba_marseille","lat":43.29876,"lon":5.3891,"is_reserved":false,"is_disabled":false,"rental_uris":{"android":"levelo://app?vid=395e5fa2-6413-4d1d-9a3e-bf7daba12776","ios":"levelo://app?vid=395e5fa2-6413-4d1d-9a3e-bf7daba12776"},"vehicle_type_id":"4","last_reported":1745435280,"current_range_meters":12000,"station_id":"ce4bh392rcd13ifvqdl0","pricing_plan_id":"cebpf4jnsgd1na2vs0mg"},{"bike_id":"998fdaa1-f379-4c27-9368-3d89928c8abf","system_id":"levelo_inurba_marseille","lat":43.28077,"lon":5.39657,"is_reserved":false,"is_disabled":false,"rental_uris":{"android":"levelo://app?vid=998fdaa1-f379-4c27-9368-3d89928c8abf","ios":"levelo://app?vid=998fdaa1-f379-4c27-9368-3d89928c8abf"},"vehicle_type_id":"4","last_reported":1745435280,"current_range_meters":12000,"station_id":"ce4bho12rcd13ifvqh2g","pricing_plan_id":"cebpf4jnsgd1na2vs0mg"},{"bike_id":"66d3f2a2-5910-443a-9c4a-b4c3a7c14e40","system_id":"levelo_inurba_marseille","lat":43.3003,"lon":5.40947,"is_reserved":false,"is_disabled":false,"rental_uris":{"android":"levelo://app?vid=66d3f2a2-5910-443a-9c4a-b4c3a7c14e40","ios":"levelo://app?vid=66d3f2a2-5910-443a-9c4a-b4c3a7c14e40"},"vehicle_type_id":"4","last_reported":1745435280,"current_range_meters":12000,"station_id":"","pricing_plan_id":"cebpf4jnsgd1na2vs0mg"},{"bike_id":"c4ebf0cc-d031-429d-8593-52f8bcea1832","system_id":"levelo_inurba_marseille","lat":43.255,"lon":5.37649,"is_reserved":false,"is_disabled":false,"rental_uris":{"android":"levelo://app?vid=c4ebf0cc-d031-429d-8593-52f8bcea1832","ios":"levelo://app?vid=c4ebf0cc-d031-429d-8593-52f8bcea1832"},"vehicle_type_id":"4","last_reported":1745435280,"current_range_meters":12400,"station_id":"ce4bhh12rcd13ifvqff0","pricing_plan_id":"cebpf4jnsgd1na2vs0mg"},{"bike_id":"39b2c162-40db-4714-a229-015a16e87ce8","system_id":"levelo_inurba_marseille","lat":43.29949,"lon":5.36511,"is_reserved":false,"is_disabled":false,"rental_uris":{"android":"levelo://app?vid=39b2c162-40db-4714-a229-015a16e87ce8","ios":"levelo://app?vid=39b2c162-40db-4714-a229-015a16e87ce8"},"vehicle_type_id":"4","last_reported":1745435280,"current_range_meters":12400,"station_id":"ce4bgm92rcd13ifvqbr0","pricing_plan_id":"cebpf4jnsgd1na2vs0mg"},{"bike_id":"527ab9af-1602-4e3b-a3d5-77f5acec1ebf","system_id":"levelo_inurba_marseille","lat":43.26221,"lon":5.37441,"is_reserved":false,"is_disabled":true,"rental_uris":{"android":"levelo://app?vid=527ab9af-1602-4e3b-a3d5-77f5acec1ebf","ios":"levelo://app?vid=527ab9af-1602-4e3b-a3d5-77f5acec1ebf"},"vehicle_type_id":"4","last_reported":1745435280,"current_range_meters":12400,"station_id":"ce4bhgp2rcd13ifvqfc0","pricing_plan_id":"cebpf4jnsgd1na2vs0mg"},{"bike_id":"25970a8d-2362-441e-acd9-9e86ac0b9dfd","system_id":"levelo_inurba_marseille","lat":43.270703,"lon":5.422773,"is_reserved":false,"is_disabled":false,"rental_uris":{"android":"levelo://app?vid=25970a8d-2362-441e-acd9-9e86ac0b9dfd","ios":"levelo://app?vid=25970a8d-2362-441e-acd9-9e86ac0b9dfd"},"vehicle_type_id":"4","last_reported":1745435280,"current_range_meters":12800,"station_id":"ce4bhk92rcd13ifvqgb0","pricing_plan_id":"cebpf4jnsgd1na2vs0mg"},{"bike_id":"452dd2ad-06aa-48d3-a4a0-0126a9e765e8","system_id":"levelo_inurba_marseille","lat":43.23964,"lon":5.36617,"is_reserved":false,"is_disabled":false,"rental_uris":{"android":"levelo://app?vid=452dd2ad-06aa-48d3-a4a0-0126a9e765e8","ios":"levelo://app?vid=452dd2ad-06aa-48d3-a4a0-0126a9e765e8"},"vehicle_type_id":"4","last_reported":1745435280,"current_range_meters":12800,"station_id":"ce4bhi12rcd13ifvqfp0","pricing_plan_id":"cebpf4jnsgd1na2vs0mg"},{"bike_id":"e12cd487-d26d-4e94-8daf-223b807f16cd","system_id":"levelo_inurba_marseille","lat":43.29929,"lon":5.36565,"is_reserved":false,"is_disabled":false,"rental_uris":{"android":"levelo://app?vid=e12cd487-d26d-4e94-8daf-223b807f16cd","ios":"levelo://app?vid=e12cd487-d26d-4e94-8daf-223b807f16cd"},"vehicle_type_id":"4","last_reported":1745435280,"current_range_meters":12800,"station_id":"ce4bgm92rcd13ifvqbr0","pricing_plan_id":"cebpf4jnsgd1na2vs0mg"},{"bike_id":"469d074b-8234-4326-be23-2db90492d9d2","system_id":"levelo_inurba_marseille","lat":43.28623,"lon":5.35102,"is_reserved":false,"is_disabled":false,"rental_uris":{"android":"levelo://app?vid=469d074b-8234-4326-be23-2db90492d9d2","ios":"levelo://app?vid=469d074b-8234-4326-be23-2db90492d9d2"},"vehicle_type_id":"4","last_reported":1745435280,"current_range_meters":13600,"station_id":"ce4bhch2rcd13ifvqeug","pricing_plan_id":"cebpf4jnsgd1na2vs0mg"},{"bike_id":"e8279fb8-cfdc-4505-ad15-c57f838cd70d","system_id":"levelo_inurba_marseille","lat":43.26805,"lon":5.40267,"is_reserved":false,"is_disabled":false,"rental_uris":{"android":"levelo://app?vid=e8279fb8-cfdc-4505-ad15-c57f838cd70d","ios":"levelo://app?vid=e8279fb8-cfdc-4505-ad15-c57f838cd70d"},"vehicle_type_id":"4","last_reported":1745435280,"current_range_meters":13600,"station_id":"ce501612rcd8frsf0b60","pricing_plan_id":"cebpf4jnsgd1na2vs0mg"},{"bike_id":"97615783-719f-47b5-a321-7323b6f44d71","system_id":"levelo_inurba_marseille","lat":43.29014,"lon":5.38645,"is_reserved":false,"is_disabled":false,"rental_uris":{"android":"levelo://app?vid=97615783-719f-47b5-a321-7323b6f44d71","ios":"levelo://app?vid=97615783-719f-47b5-a321-7323b6f44d71"},"vehicle_type_id":"4","last_reported":1745435280,"current_range_meters":14000,"station_id":"ce4bh4p2rcd13ifvqe0g","pricing_plan_id":"cebpf4jnsgd1na2vs0mg"},{"bike_id":"3d7b0980-80bf-4a05-840b-00a033d77836","system_id":"levelo_inurba_marseille","lat":43.30149,"lon":5.38092,"is_reserved":false,"is_disabled":false,"rental_uris":{"android":"levelo://app?vid=3d7b0980-80bf-4a05-840b-00a033d77836","ios":"levelo://app?vid=3d7b0980-80bf-4a05-840b-00a033d77836"},"vehicle_type_id":"4","last_reported":1745435280,"current_range_meters":14000,"station_id":"ce4bgjp2rcd13ifvqbh0","pricing_plan_id":"cebpf4jnsgd1na2vs0mg"},{"bike_id":"a92e41fe-6c3a-4791-9ade-679105edaf4a","system_id":"levelo_inurba_marseille","lat":43.31075,"lon":5.38341,"is_reserved":false,"is_disabled":false,"rental_uris":{"android":"levelo://app?vid=a92e41fe-6c3a-4791-9ade-679105edaf4a","ios":"levelo://app?vid=a92e41fe-6c3a-4791-9ade-679105edaf4a"},"vehicle_type_id":"4","last_reported":1745435280,"current_range_meters":14000,"station_id":"ce4bgv92rcd13ifvqcr0","pricing_plan_id":"cebpf4jnsgd1na2vs0mg"},{"bike_id":"4f3bdbf0-438c-4aff-990e-29c7aed66363","system_id":"levelo_inurba_marseille","lat":43.29848,"lon":5.36278,"is_reserved":false,"is_disabled":false,"rental_uris":{"android":"levelo://app?vid=4f3bdbf0-438c-4aff-990e-29c7aed66363","ios":"levelo://app?vid=4f3bdbf0-438c-4aff-990e-29c7aed66363"},"vehicle_type_id":"4","last_reported":1745435280,"current_range_meters":14400,"station_id":"ce4bgpp2rcd13ifvqc3g","pricing_plan_id":"cebpf4jnsgd1na2vs0mg"},{"bike_id":"4dd84dcf-3d35-49ba-9d29-031080006303","system_id":"levelo_inurba_marseille","lat":43.29321,"lon":5.37154,"is_reserved":false,"is_disabled":false,"rental_uris":{"android":"levelo://app?vid=4dd84dcf-3d35-49ba-9d29-031080006303","ios":"levelo://app?vid=4dd84dcf-3d35-49ba-9d29-031080006303"},"vehicle_type_id":"4","last_reported":1745435280,"current_range_meters":14400,"station_id":"ce4bgh92rcd13ifvqb40","pricing_plan_id":"cebpf4jnsgd1na2vs0mg"},{"bike_id":"d189aa01-f401-4b2c-9cd5-f08fb0c17d10","system_id":"levelo_inurba_marseille","lat":43.29847,"lon":5.36279,"is_reserved":false,"is_disabled":false,"rental_uris":{"android":"levelo://app?vid=d189aa01-f401-4b2c-9cd5-f08fb0c17d10","ios":"levelo://app?vid=d189aa01-f401-4b2c-9cd5-f08fb0c17d10"},"vehicle_type_id":"4","last_reported":1745435280,"current_range_meters":14400,"station_id":"ce4bgpp2rcd13ifvqc3g","pricing_plan_id":"cebpf4jnsgd1na2vs0mg"},{"bike_id":"f71ccc66-6dce-4932-b9a4-333f415516de","system_id":"levelo_inurba_marseille","lat":43.29883,"lon":5.38903,"is_reserved":false,"is_disabled":false,"rental_uris":{"android":"levelo://app?vid=f71ccc66-6dce-4932-b9a4-333f415516de","ios":"levelo://app?vid=f71ccc66-6dce-4932-b9a4-333f415516de"},"vehicle_type_id":"4","last_reported":1745435280,"current_range_meters":14400,"station_id":"ce4bh392rcd13ifvqdl0","pricing_plan_id":"cebpf4jnsgd1na2vs0mg"},{"bike_id":"83b082c7-4ede-48fb-9b5c-4c8127240ed0","system_id":"levelo_inurba_marseille","lat":43.29868,"lon":5.39736,"is_reserved":false,"is_disabled":false,"rental_uris":{"android":"levelo://app?vid=83b082c7-4ede-48fb-9b5c-4c8127240ed0","ios":"levelo://app?vid=83b082c7-4ede-48fb-9b5c-4c8127240ed0"},"vehicle_type_id":"4","last_reported":1745435280,"current_range_meters":14400,"station_id":"ce4bh0h2rcd13ifvqd50","pricing_plan_id":"cebpf4jnsgd1na2vs0mg"},{"bike_id":"842b41ef-e28c-4a7b-8229-69a6fc4c130c","system_id":"levelo_inurba_marseille","lat":43.28726,"lon":5.36079,"is_reserved":false,"is_disabled":false,"rental_uris":{"android":"levelo://app?vid=842b41ef-e28c-4a7b-8229-69a6fc4c130c","ios":"levelo://app?vid=842b41ef-e28c-4a7b-8229-69a6fc4c130c"},"vehicle_type_id":"4","last_reported":1745435280,"current_range_meters":14400,"station_id":"cki0cbj6b192h4jlfktg","pricing_plan_id":"cebpf4jnsgd1na2vs0mg"},{"bike_id":"0b987b23-757e-4eeb-9d8c-5cd455b1d7ad","system_id":"levelo_inurba_marseille","lat":43.29979,"lon":5.37161,"is_reserved":false,"is_disabled":false,"rental_uris":{"android":"levelo://app?vid=0b987b23-757e-4eeb-9d8c-5cd455b1d7ad","ios":"levelo://app?vid=0b987b23-757e-4eeb-9d8c-5cd455b1d7ad"},"vehicle_type_id":"4","last_reported":1745435280,"current_range_meters":14400,"station_id":"ce4bgr92rcd13ifvqc7g","pricing_plan_id":"cebpf4jnsgd1na2vs0mg"},{"bike_id":"3beee0d8-c977-47dd-a610-1f4708dd1782","system_id":"levelo_inurba_marseille","lat":43.31123,"lon":5.37771,"is_reserved":false,"is_disabled":false,"rental_uris":{"android":"levelo://app?vid=3beee0d8-c977-47dd-a610-1f4708dd1782","ios":"levelo://app?vid=3beee0d8-c977-47dd-a610-1f4708dd1782"},"vehicle_type_id":"4","last_reported":1745435280,"current_range_meters":14400,"station_id":"ce4bgt92rcd13ifvqcg0","pricing_plan_id":"cebpf4jnsgd1na2vs0mg"},{"bike_id":"32381c22-dc9c-452f-9bb0-9f6dfd3c0a18","system_id":"levelo_inurba_marseille","lat":43.2718,"lon":5.40987,"is_reserved":false,"is_disabled":false,"rental_uris":{"android":"levelo://app?vid=32381c22-dc9c-452f-9bb0-9f6dfd3c0a18","ios":"levelo://app?vid=32381c22-dc9c-452f-9bb0-9f6dfd3c0a18"},"vehicle_type_id":"4","last_reported":1745435280,"current_range_meters":14400,"station_id":"ce4bhl12rcd13ifvqgf0","pricing_plan_id":"cebpf4jnsgd1na2vs0mg"},{"bike_id":"d18bd5bc-b421-4d7b-aae6-4552a9cefd7b","system_id":"levelo_inurba_marseille","lat":43.21753,"lon":5.34602,"is_reserved":false,"is_disabled":false,"rental_uris":{"android":"levelo://app?vid=d18bd5bc-b421-4d7b-aae6-4552a9cefd7b","ios":"levelo://app?vid=d18bd5bc-b421-4d7b-aae6-4552a9cefd7b"},"vehicle_type_id":"4","last_reported":1745435280,"current_range_meters":14800,"station_id":"ce4bh8p2rcd13ifvqeb0","pricing_plan_id":"cebpf4jnsgd1na2vs0mg"},{"bike_id":"46374c49-3adc-4c5a-8966-e00f056c0d57","system_id":"levelo_inurba_marseille","lat":43.27846,"lon":5.35442,"is_reserved":false,"is_disabled":false,"rental_uris":{"android":"levelo://app?vid=46374c49-3adc-4c5a-8966-e00f056c0d57","ios":"levelo://app?vid=46374c49-3adc-4c5a-8966-e00f056c0d57"},"vehicle_type_id":"4","last_reported":1745435280,"current_range_meters":14800,"station_id":"","pricing_plan_id":"cebpf4jnsgd1na2vs0mg"},{"bike_id":"11ce02ec-5de1-4d28-b35b-b9d2498a4135","system_id":"levelo_inurba_marseille","lat":43.23085,"lon":5.35491,"is_reserved":false,"is_disabled":false,"rental_uris":{"android":"levelo://app?vid=11ce02ec-5de1-4d28-b35b-b9d2498a4135","ios":"levelo://app?vid=11ce02ec-5de1-4d28-b35b-b9d2498a4135"},"vehicle_type_id":"4","last_reported":1745435280,"current_range_meters":14800,"station_id":"cpo3342slgdg3j2ifvpg","pricing_plan_id":"cebpf4jnsgd1na2vs0mg"},{"bike_id":"30e08c8c-a2b6-45d6-9704-9460af4f4d07","system_id":"levelo_inurba_marseille","lat":43.310808,"lon":5.424302,"is_reserved":false,"is_disabled":false,"rental_uris":{"android":"levelo://app?vid=30e08c8c-a2b6-45d6-9704-9460af4f4d07","ios":"levelo://app?vid=30e08c8c-a2b6-45d6-9704-9460af4f4d07"},"vehicle_type_id":"4","last_reported":1745435280,"current_range_meters":14800,"station_id":"ce4bhp92rcd13ifvqhag","pricing_plan_id":"cebpf4jnsgd1na2vs0mg"},{"bike_id":"d22ea4f2-8f98-44d3-90ff-4f9c723e6d2a","system_id":"levelo_inurba_marseille","lat":43.23957,"lon":5.36632,"is_reserved":false,"is_disabled":false,"rental_uris":{"android":"levelo://app?vid=d22ea4f2-8f98-44d3-90ff-4f9c723e6d2a","ios":"levelo://app?vid=d22ea4f2-8f98-44d3-90ff-4f9c723e6d2a"},"vehicle_type_id":"4","last_reported":1745435280,"current_range_meters":14800,"station_id":"ce4bhi12rcd13ifvqfp0","pricing_plan_id":"cebpf4jnsgd1na2vs0mg"},{"bike_id":"f31bee90-1c13-4189-9679-0326782d9854","system_id":"levelo_inurba_marseille","lat":43.3176,"lon":5.39011,"is_reserved":false,"is_disabled":false,"rental_uris":{"android":"levelo://app?vid=f31bee90-1c13-4189-9679-0326782d9854","ios":"levelo://app?vid=f31bee90-1c13-4189-9679-0326782d9854"},"vehicle_type_id":"4","last_reported":1745435280,"current_range_meters":15200,"station_id":"ce4bhqp2rcd13ifvqhng","pricing_plan_id":"cebpf4jnsgd1na2vs0mg"},{"bike_id":"162104c9-c9c3-41e8-9022-0f16a6a968c6","system_id":"levelo_inurba_marseille","lat":43.330298,"lon":5.390541,"is_reserved":false,"is_disabled":false,"rental_uris":{"android":"levelo://app?vid=162104c9-c9c3-41e8-9022-0f16a6a968c6","ios":"levelo://app?vid=162104c9-c9c3-41e8-9022-0f16a6a968c6"},"vehicle_type_id":"4","last_reported":1745435280,"current_range_meters":15200,"station_id":"ce4bhr92rcd13ifvqhrg","pricing_plan_id":"cebpf4jnsgd1na2vs0mg"},{"bike_id":"26c14258-29b9-4911-abf7-e671a4679b77","system_id":"levelo_inurba_marseille","lat":43.29844,"lon":5.36279,"is_reserved":false,"is_disabled":false,"rental_uris":{"android":"levelo://app?vid=26c14258-29b9-4911-abf7-e671a4679b77","ios":"levelo://app?vid=26c14258-29b9-4911-abf7-e671a4679b77"},"vehicle_type_id":"4","last_reported":1745435280,"current_range_meters":15200,"station_id":"ce4bgpp2rcd13ifvqc3g","pricing_plan_id":"cebpf4jnsgd1na2vs0mg"},{"bike_id":"8a68e572-b500-4fd3-a177-770466ef2a82","system_id":"levelo_inurba_marseille","lat":43.31473,"lon":5.38593,"is_reserved":false,"is_disabled":false,"rental_uris":{"android":"levelo://app?vid=8a68e572-b500-4fd3-a177-770466ef2a82","ios":"levelo://app?vid=8a68e572-b500-4fd3-a177-770466ef2a82"},"vehicle_type_id":"4","last_reported":1745435280,"current_range_meters":15200,"station_id":"","pricing_plan_id":"cebpf4jnsgd1na2vs0mg"},{"bike_id":"da85fc05-eeec-403e-8907-2eeed2266e1a","system_id":"levelo_inurba_marseille","lat":43.297916,"lon":5.39338,"is_reserved":false,"is_disabled":false,"rental_uris":{"android":"levelo://app?vid=da85fc05-eeec-403e-8907-2eeed2266e1a","ios":"levelo://app?vid=da85fc05-eeec-403e-8907-2eeed2266e1a"},"vehicle_type_id":"4","last_reported":1745435280,"current_range_meters":15200,"station_id":"chh1huq6cuj3fo74tm60","pricing_plan_id":"cebpf4jnsgd1na2vs0mg"},{"bike_id":"6b11b64e-78f5-4f05-8c63-c592e726ebe8","system_id":"levelo_inurba_marseille","lat":43.25111,"lon":5.40321,"is_reserved":false,"is_disabled":false,"rental_uris":{"android":"levelo://app?vid=6b11b64e-78f5-4f05-8c63-c592e726ebe8","ios":"levelo://app?vid=6b11b64e-78f5-4f05-8c63-c592e726ebe8"},"vehicle_type_id":"4","last_reported":1745435280,"current_range_meters":15200,"station_id":"ce4bhlh2rcd13ifvqgig","pricing_plan_id":"cebpf4jnsgd1na2vs0mg"},{"bike_id":"5db32486-e394-4195-9085-6e33ec11949e","system_id":"levelo_inurba_marseille","lat":43.29602,"lon":5.3809,"is_reserved":false,"is_disabled":false,"rental_uris":{"android":"levelo://app?vid=5db32486-e394-4195-9085-6e33ec11949e","ios":"levelo://app?vid=5db32486-e394-4195-9085-6e33ec11949e"},"vehicle_type_id":"4","last_reported":1745435280,"current_range_meters":16000,"station_id":"ce4bgl12rcd13ifvqbo0","pricing_plan_id":"cebpf4jnsgd1na2vs0mg"},{"bike_id":"fb31e0dc-90f8-46bd-90fa-299fce5a725d","system_id":"levelo_inurba_marseille","lat":43.289397,"lon":5.36642,"is_reserved":false,"is_disabled":false,"rental_uris":{"android":"levelo://app?vid=fb31e0dc-90f8-46bd-90fa-299fce5a725d","ios":"levelo://app?vid=fb31e0dc-90f8-46bd-90fa-299fce5a725d"},"vehicle_type_id":"4","last_reported":1745435280,"current_range_meters":16000,"station_id":"ce4bhap2rcd13ifvqek0","pricing_plan_id":"cebpf4jnsgd1na2vs0mg"},{"bike_id":"d49a60ca-f4bd-43da-8acf-648c6e841978","system_id":"levelo_inurba_marseille","lat":43.29571,"lon":5.39969,"is_reserved":false,"is_disabled":false,"rental_uris":{"android":"levelo://app?vid=d49a60ca-f4bd-43da-8acf-648c6e841978","ios":"levelo://app?vid=d49a60ca-f4bd-43da-8acf-648c6e841978"},"vehicle_type_id":"4","last_reported":1745435280,"current_range_meters":16000,"station_id":"ce4bh312rcd13ifvqdj0","pricing_plan_id":"cebpf4jnsgd1na2vs0mg"},{"bike_id":"5d93145b-3803-43da-9ad2-3eb6ff8db475","system_id":"levelo_inurba_marseille","lat":43.2808,"lon":5.39663,"is_reserved":false,"is_disabled":false,"rental_uris":{"android":"levelo://app?vid=5d93145b-3803-43da-9ad2-3eb6ff8db475","ios":"levelo://app?vid=5d93145b-3803-43da-9ad2-3eb6ff8db475"},"vehicle_type_id":"4","last_reported":1745435280,"current_range_meters":16000,"station_id":"ce4bho12rcd13ifvqh2g","pricing_plan_id":"cebpf4jnsgd1na2vs0mg"},{"bike_id":"eaedb804-0e7c-4c63-a1b3-fcbc9ec36df3","system_id":"levelo_inurba_marseille","lat":43.28786,"lon":5.37362,"is_reserved":false,"is_disabled":false,"rental_uris":{"android":"levelo://app?vid=eaedb804-0e7c-4c63-a1b3-fcbc9ec36df3","ios":"levelo://app?vid=eaedb804-0e7c-4c63-a1b3-fcbc9ec36df3"},"vehicle_type_id":"4","last_reported":1745435280,"current_range_meters":16000,"station_id":"","pricing_plan_id":"cebpf4jnsgd1na2vs0mg"},{"bike_id":"f74134c9-fbd7-4c33-bcd9-20ec07469f58","system_id":"levelo_inurba_marseille","lat":43.29539,"lon":5.42286,"is_reserved":false,"is_disabled":false,"rental_uris":{"android":"levelo://app?vid=f74134c9-fbd7-4c33-bcd9-20ec07469f58","ios":"levelo://app?vid=f74134c9-fbd7-4c33-bcd9-20ec07469f58"},"vehicle_type_id":"4","last_reported":1745435280,"current_range_meters":16000,"station_id":"ce4bhph2rcd13ifvqhdg","pricing_plan_id":"cebpf4jnsgd1na2vs0mg"},{"bike_id":"b5fff644-6f59-4909-b20d-32ae671f179d","system_id":"levelo_inurba_marseille","lat":43.287304,"lon":5.362707,"is_reserved":false,"is_disabled":false,"rental_uris":{"android":"levelo://app?vid=b5fff644-6f59-4909-b20d-32ae671f179d","ios":"levelo://app?vid=b5fff644-6f59-4909-b20d-32ae671f179d"},"vehicle_type_id":"4","last_reported":1745435280,"current_range_meters":16400,"station_id":"ce4bhah2rcd13ifvqei0","pricing_plan_id":"cebpf4jnsgd1na2vs0mg"},{"bike_id":"29c27f6c-b172-4d99-add3-c74bdfc6be20","system_id":"levelo_inurba_marseille","lat":43.330297,"lon":5.390593,"is_reserved":false,"is_disabled":false,"rental_uris":{"android":"levelo://app?vid=29c27f6c-b172-4d99-add3-c74bdfc6be20","ios":"levelo://app?vid=29c27f6c-b172-4d99-add3-c74bdfc6be20"},"vehicle_type_id":"4","last_reported":1745435280,"current_range_meters":16400,"station_id":"ce4bhr92rcd13ifvqhrg","pricing_plan_id":"cebpf4jnsgd1na2vs0mg"},{"bike_id":"305a8662-bc62-4326-b66d-c6d8c543cba5","system_id":"levelo_inurba_marseille","lat":43.31172,"lon":5.38724,"is_reserved":false,"is_disabled":false,"rental_uris":{"android":"levelo://app?vid=305a8662-bc62-4326-b66d-c6d8c543cba5","ios":"levelo://app?vid=305a8662-bc62-4326-b66d-c6d8c543cba5"},"vehicle_type_id":"4","last_reported":1745435280,"current_range_meters":16400,"station_id":"ce4bgv12rcd13ifvqcp0","pricing_plan_id":"cebpf4jnsgd1na2vs0mg"},{"bike_id":"fc71bd1c-3854-48a5-8a4d-932d604b8ad6","system_id":"levelo_inurba_marseille","lat":43.28935,"lon":5.36635,"is_reserved":false,"is_disabled":false,"rental_uris":{"android":"levelo://app?vid=fc71bd1c-3854-48a5-8a4d-932d604b8ad6","ios":"levelo://app?vid=fc71bd1c-3854-48a5-8a4d-932d604b8ad6"},"vehicle_type_id":"4","last_reported":1745435280,"current_range_meters":16400,"station_id":"ce4bhap2rcd13ifvqek0","pricing_plan_id":"cebpf4jnsgd1na2vs0mg"},{"bike_id":"7d2633a5-2cb0-46eb-8c00-357bd5fadfef","system_id":"levelo_inurba_marseille","lat":43.25478,"lon":5.37656,"is_reserved":false,"is_disabled":true,"rental_uris":{"android":"levelo://app?vid=7d2633a5-2cb0-46eb-8c00-357bd5fadfef","ios":"levelo://app?vid=7d2633a5-2cb0-46eb-8c00-357bd5fadfef"},"vehicle_type_id":"4","last_reported":1745435280,"current_range_meters":16400,"station_id":"ce4bhh12rcd13ifvqff0","pricing_plan_id":"cebpf4jnsgd1na2vs0mg"},{"bike_id":"ceb619db-d826-411a-848d-1f2f7e1689f9","system_id":"levelo_inurba_marseille","lat":43.29558,"lon":5.42292,"is_reserved":false,"is_disabled":false,"rental_uris":{"android":"levelo://app?vid=ceb619db-d826-411a-848d-1f2f7e1689f9","ios":"levelo://app?vid=ceb619db-d826-411a-848d-1f2f7e1689f9"},"vehicle_type_id":"4","last_reported":1745435280,"current_range_meters":16400,"station_id":"ce4bhph2rcd13ifvqhdg","pricing_plan_id":"cebpf4jnsgd1na2vs0mg"},{"bike_id":"d18de859-a158-4bc7-84b6-11bf46da43f1","system_id":"levelo_inurba_marseille","lat":43.23194,"lon":5.35553,"is_reserved":false,"is_disabled":false,"rental_uris":{"android":"levelo://app?vid=d18de859-a158-4bc7-84b6-11bf46da43f1","ios":"levelo://app?vid=d18de859-a158-4bc7-84b6-11bf46da43f1"},"vehicle_type_id":"4","last_reported":1745435280,"current_range_meters":16400,"station_id":"ce4bhu92rcd13ifvqi70","pricing_plan_id":"cebpf4jnsgd1na2vs0mg"},{"bike_id":"755abc1a-f797-479c-8e88-5f59f436c9d9","system_id":"levelo_inurba_marseille","lat":43.23959,"lon":5.36631,"is_reserved":false,"is_disabled":true,"rental_uris":{"android":"levelo://app?vid=755abc1a-f797-479c-8e88-5f59f436c9d9","ios":"levelo://app?vid=755abc1a-f797-479c-8e88-5f59f436c9d9"},"vehicle_type_id":"4","last_reported":1745435280,"current_range_meters":16400,"station_id":"ce4bhi12rcd13ifvqfp0","pricing_plan_id":"cebpf4jnsgd1na2vs0mg"},{"bike_id":"f58bec3c-8e24-4d01-9fe2-c7cff1b4e967","system_id":"levelo_inurba_marseille","lat":43.29531,"lon":5.38552,"is_reserved":false,"is_disabled":false,"rental_uris":{"android":"levelo://app?vid=f58bec3c-8e24-4d01-9fe2-c7cff1b4e967","ios":"levelo://app?vid=f58bec3c-8e24-4d01-9fe2-c7cff1b4e967"},"vehicle_type_id":"4","last_reported":1745435280,"current_range_meters":16400,"station_id":"ce4bgih2rcd13ifvqba0","pricing_plan_id":"cebpf4jnsgd1na2vs0mg"},{"bike_id":"0cc64a17-6499-4c13-9af4-3f227b287cec","system_id":"levelo_inurba_marseille","lat":43.3112,"lon":5.37746,"is_reserved":false,"is_disabled":false,"rental_uris":{"android":"levelo://app?vid=0cc64a17-6499-4c13-9af4-3f227b287cec","ios":"levelo://app?vid=0cc64a17-6499-4c13-9af4-3f227b287cec"},"vehicle_type_id":"4","last_reported":1745435280,"current_range_meters":16400,"station_id":"ce4bgt92rcd13ifvqcg0","pricing_plan_id":"cebpf4jnsgd1na2vs0mg"},{"bike_id":"e23ce5dc-c78b-4d55-a148-56d8ca6291e4","system_id":"levelo_inurba_marseille","lat":43.28935,"lon":5.36406,"is_reserved":false,"is_disabled":false,"rental_uris":{"android":"levelo://app?vid=e23ce5dc-c78b-4d55-a148-56d8ca6291e4","ios":"levelo://app?vid=e23ce5dc-c78b-4d55-a148-56d8ca6291e4"},"vehicle_type_id":"4","last_reported":1745435280,"current_range_meters":16800,"station_id":"ce4bhc92rcd13ifvqetg","pricing_plan_id":"cebpf4jnsgd1na2vs0mg"},{"bike_id":"dfd69b24-961c-414b-a74c-3d3f365a3276","system_id":"levelo_inurba_marseille","lat":43.25809,"lon":5.39429,"is_reserved":false,"is_disabled":false,"rental_uris":{"android":"levelo://app?vid=dfd69b24-961c-414b-a74c-3d3f365a3276","ios":"levelo://app?vid=dfd69b24-961c-414b-a74c-3d3f365a3276"},"vehicle_type_id":"4","last_reported":1745435280,"current_range_meters":16800,"station_id":"ce4bhip2rcd13ifvqft0","pricing_plan_id":"cebpf4jnsgd1na2vs0mg"},{"bike_id":"7a13f9a5-7b24-4ce3-9ab0-cd7b201b5b6a","system_id":"levelo_inurba_marseille","lat":43.29096,"lon":5.3811,"is_reserved":false,"is_disabled":false,"rental_uris":{"android":"levelo://app?vid=7a13f9a5-7b24-4ce3-9ab0-cd7b201b5b6a","ios":"levelo://app?vid=7a13f9a5-7b24-4ce3-9ab0-cd7b201b5b6a"},"vehicle_type_id":"4","last_reported":1745435280,"current_range_meters":16800,"station_id":"ce4bh512rcd13ifvqe2g","pricing_plan_id":"cebpf4jnsgd1na2vs0mg"},{"bike_id":"415b2609-c0ae-472a-aa20-d8c246fb2a5e","system_id":"levelo_inurba_marseille","lat":43.31701,"lon":5.37791,"is_reserved":false,"is_disabled":false,"rental_uris":{"android":"levelo://app?vid=415b2609-c0ae-472a-aa20-d8c246fb2a5e","ios":"levelo://app?vid=415b2609-c0ae-472a-aa20-d8c246fb2a5e"},"vehicle_type_id":"4","last_reported":1745435280,"current_range_meters":16800,"station_id":"ce4bgth2rcd13ifvqch0","pricing_plan_id":"cebpf4jnsgd1na2vs0mg"},{"bike_id":"ee354981-1331-4223-a45e-4b1b7261b1e3","system_id":"levelo_inurba_marseille","lat":43.33417,"lon":5.4009,"is_reserved":false,"is_disabled":false,"rental_uris":{"android":"levelo://app?vid=ee354981-1331-4223-a45e-4b1b7261b1e3","ios":"levelo://app?vid=ee354981-1331-4223-a45e-4b1b7261b1e3"},"vehicle_type_id":"4","last_reported":1745435280,"current_range_meters":16800,"station_id":"","pricing_plan_id":"cebpf4jnsgd1na2vs0mg"},{"bike_id":"744b497d-90f8-4674-be6c-d52d0d2640c2","system_id":"levelo_inurba_marseille","lat":43.29507,"lon":5.37513,"is_reserved":false,"is_disabled":false,"rental_uris":{"android":"levelo://app?vid=744b497d-90f8-4674-be6c-d52d0d2640c2","ios":"levelo://app?vid=744b497d-90f8-4674-be6c-d52d0d2640c2"},"vehicle_type_id":"4","last_reported":1745435280,"current_range_meters":16800,"station_id":"ce4bgkp2rcd13ifvqbmg","pricing_plan_id":"cebpf4jnsgd1na2vs0mg"},{"bike_id":"d823259f-1a70-4fe2-92f2-054153f77224","system_id":"levelo_inurba_marseille","lat":43.30642,"lon":5.40098,"is_reserved":false,"is_disabled":false,"rental_uris":{"android":"levelo://app?vid=d823259f-1a70-4fe2-92f2-054153f77224","ios":"levelo://app?vid=d823259f-1a70-4fe2-92f2-054153f77224"},"vehicle_type_id":"4","last_reported":1745435280,"current_range_meters":16800,"station_id":"ce4bh112rcd13ifvqda0","pricing_plan_id":"cebpf4jnsgd1na2vs0mg"},{"bike_id":"59cfdfec-e344-4c7d-9435-b11ee44ab980","system_id":"levelo_inurba_marseille","lat":43.28667,"lon":5.36353,"is_reserved":false,"is_disabled":false,"rental_uris":{"android":"levelo://app?vid=59cfdfec-e344-4c7d-9435-b11ee44ab980","ios":"levelo://app?vid=59cfdfec-e344-4c7d-9435-b11ee44ab980"},"vehicle_type_id":"4","last_reported":1745435280,"current_range_meters":16800,"station_id":"ce4bhah2rcd13ifvqej0","pricing_plan_id":"cebpf4jnsgd1na2vs0mg"},{"bike_id":"8dff3327-c704-4870-8401-73b9c1029785","system_id":"levelo_inurba_marseille","lat":43.25851,"lon":5.39921,"is_reserved":false,"is_disabled":true,"rental_uris":{"android":"levelo://app?vid=8dff3327-c704-4870-8401-73b9c1029785","ios":"levelo://app?vid=8dff3327-c704-4870-8401-73b9c1029785"},"vehicle_type_id":"4","last_reported":1745435280,"current_range_meters":17200,"station_id":"ce4bhl92rcd13ifvqghg","pricing_plan_id":"cebpf4jnsgd1na2vs0mg"},{"bike_id":"d14bbe39-3680-4a1c-a115-359332b42826","system_id":"levelo_inurba_marseille","lat":43.29029,"lon":5.38646,"is_reserved":false,"is_disabled":false,"rental_uris":{"android":"levelo://app?vid=d14bbe39-3680-4a1c-a115-359332b42826","ios":"levelo://app?vid=d14bbe39-3680-4a1c-a115-359332b42826"},"vehicle_type_id":"4","last_reported":1745435280,"current_range_meters":17200,"station_id":"ce4bh4p2rcd13ifvqe0g","pricing_plan_id":"cebpf4jnsgd1na2vs0mg"},{"bike_id":"094e7cad-3c45-4db5-84d9-10a74c782100","system_id":"levelo_inurba_marseille","lat":43.32366,"lon":5.37621,"is_reserved":false,"is_disabled":false,"rental_uris":{"android":"levelo://app?vid=094e7cad-3c45-4db5-84d9-10a74c782100","ios":"levelo://app?vid=094e7cad-3c45-4db5-84d9-10a74c782100"},"vehicle_type_id":"4","last_reported":1745435280,"current_range_meters":17200,"station_id":"","pricing_plan_id":"cebpf4jnsgd1na2vs0mg"},{"bike_id":"092ee2ca-4fab-4d42-874e-e85c0cafb544","system_id":"levelo_inurba_marseille","lat":43.29527,"lon":5.38533,"is_reserved":false,"is_disabled":false,"rental_uris":{"android":"levelo://app?vid=092ee2ca-4fab-4d42-874e-e85c0cafb544","ios":"levelo://app?vid=092ee2ca-4fab-4d42-874e-e85c0cafb544"},"vehicle_type_id":"4","last_reported":1745435280,"current_range_meters":17200,"station_id":"ce4bgih2rcd13ifvqba0","pricing_plan_id":"cebpf4jnsgd1na2vs0mg"},{"bike_id":"e63cd002-6ad1-4d6f-8d27-da2296ed4abf","system_id":"levelo_inurba_marseille","lat":43.29028,"lon":5.38647,"is_reserved":false,"is_disabled":false,"rental_uris":{"android":"levelo://app?vid=e63cd002-6ad1-4d6f-8d27-da2296ed4abf","ios":"levelo://app?vid=e63cd002-6ad1-4d6f-8d27-da2296ed4abf"},"vehicle_type_id":"4","last_reported":1745435280,"current_range_meters":17200,"station_id":"ce4bh4p2rcd13ifvqe0g","pricing_plan_id":"cebpf4jnsgd1na2vs0mg"},{"bike_id":"8ab2ed8d-364c-4252-a36f-2dad9a4f2a15","system_id":"levelo_inurba_marseille","lat":43.23979,"lon":5.36617,"is_reserved":false,"is_disabled":false,"rental_uris":{"android":"levelo://app?vid=8ab2ed8d-364c-4252-a36f-2dad9a4f2a15","ios":"levelo://app?vid=8ab2ed8d-364c-4252-a36f-2dad9a4f2a15"},"vehicle_type_id":"4","last_reported":1745435280,"current_range_meters":17200,"station_id":"ce4bhi12rcd13ifvqfp0","pricing_plan_id":"cebpf4jnsgd1na2vs0mg"},{"bike_id":"cc8cd6c1-fc86-43c6-b9fa-88ecc643a862","system_id":"levelo_inurba_marseille","lat":43.27942,"lon":5.41039,"is_reserved":false,"is_disabled":false,"rental_uris":{"android":"levelo://app?vid=cc8cd6c1-fc86-43c6-b9fa-88ecc643a862","ios":"levelo://app?vid=cc8cd6c1-fc86-43c6-b9fa-88ecc643a862"},"vehicle_type_id":"4","last_reported":1745435280,"current_range_meters":17200,"station_id":"ce4bhnp2rcd13ifvqh0g","pricing_plan_id":"cebpf4jnsgd1na2vs0mg"},{"bike_id":"d2f9ab38-d77b-417d-8e17-1403be698e41","system_id":"levelo_inurba_marseille","lat":43.24074,"lon":5.37756,"is_reserved":false,"is_disabled":false,"rental_uris":{"android":"levelo://app?vid=d2f9ab38-d77b-417d-8e17-1403be698e41","ios":"levelo://app?vid=d2f9ab38-d77b-417d-8e17-1403be698e41"},"vehicle_type_id":"4","last_reported":1745435280,"current_range_meters":17200,"station_id":"ce4bhnp2rcd13ifvqgvg","pricing_plan_id":"cebpf4jnsgd1na2vs0mg"},{"bike_id":"fa8a552a-d2d3-4e8d-8d8e-02bdba037836","system_id":"levelo_inurba_marseille","lat":43.23063,"lon":5.35495,"is_reserved":false,"is_disabled":false,"rental_uris":{"android":"levelo://app?vid=fa8a552a-d2d3-4e8d-8d8e-02bdba037836","ios":"levelo://app?vid=fa8a552a-d2d3-4e8d-8d8e-02bdba037836"},"vehicle_type_id":"4","last_reported":1745435280,"current_range_meters":17200,"station_id":"cpo3342slgdg3j2ifvpg","pricing_plan_id":"cebpf4jnsgd1na2vs0mg"},{"bike_id":"8f6644e0-2b2b-4dd8-bfe9-b1a9b5eaaed5","system_id":"levelo_inurba_marseille","lat":43.286113,"lon":5.37065,"is_reserved":false,"is_disabled":false,"rental_uris":{"android":"levelo://app?vid=8f6644e0-2b2b-4dd8-bfe9-b1a9b5eaaed5","ios":"levelo://app?vid=8f6644e0-2b2b-4dd8-bfe9-b1a9b5eaaed5"},"vehicle_type_id":"4","last_reported":1745435280,"current_range_meters":17200,"station_id":"ce4bht12rcd13ifvqi60","pricing_plan_id":"cebpf4jnsgd1na2vs0mg"},{"bike_id":"8efdabe6-24b0-4d55-be96-fac80e212272","system_id":"levelo_inurba_marseille","lat":43.27547,"lon":5.38448,"is_reserved":false,"is_disabled":false,"rental_uris":{"android":"levelo://app?vid=8efdabe6-24b0-4d55-be96-fac80e212272","ios":"levelo://app?vid=8efdabe6-24b0-4d55-be96-fac80e212272"},"vehicle_type_id":"4","last_reported":1745435280,"current_range_meters":17200,"station_id":"ce4bhh92rcd13ifvqfi0","pricing_plan_id":"cebpf4jnsgd1na2vs0mg"},{"bike_id":"2dd324ee-1643-4c54-9683-5423f9a63a94","system_id":"levelo_inurba_marseille","lat":43.27376,"lon":5.36246,"is_reserved":false,"is_disabled":false,"rental_uris":{"android":"levelo://app?vid=2dd324ee-1643-4c54-9683-5423f9a63a94","ios":"levelo://app?vid=2dd324ee-1643-4c54-9683-5423f9a63a94"},"vehicle_type_id":"4","last_reported":1745435280,"current_range_meters":17600,"station_id":"ce4bhbh2rcd13ifvqeo0","pricing_plan_id":"cebpf4jnsgd1na2vs0mg"},{"bike_id":"3450836b-f744-49d5-8239-48bf963cb60f","system_id":"levelo_inurba_marseille","lat":43.27571,"lon":5.3846,"is_reserved":false,"is_disabled":false,"rental_uris":{"android":"levelo://app?vid=3450836b-f744-49d5-8239-48bf963cb60f","ios":"levelo://app?vid=3450836b-f744-49d5-8239-48bf963cb60f"},"vehicle_type_id":"4","last_reported":1745435280,"current_range_meters":17600,"station_id":"ce4bhh92rcd13ifvqfi0","pricing_plan_id":"cebpf4jnsgd1na2vs0mg"},{"bike_id":"77374b59-f4e9-4395-a4c3-96c9dc70fb21","system_id":"levelo_inurba_marseille","lat":43.29536,"lon":5.3744,"is_reserved":false,"is_disabled":false,"rental_uris":{"android":"levelo://app?vid=77374b59-f4e9-4395-a4c3-96c9dc70fb21","ios":"levelo://app?vid=77374b59-f4e9-4395-a4c3-96c9dc70fb21"},"vehicle_type_id":"4","last_reported":1745435280,"current_range_meters":17600,"station_id":"ce4bgkp2rcd13ifvqbmg","pricing_plan_id":"cebpf4jnsgd1na2vs0mg"},{"bike_id":"87873093-27f5-49a2-8c34-ddd2205add84","system_id":"levelo_inurba_marseille","lat":43.28477,"lon":5.38438,"is_reserved":false,"is_disabled":true,"rental_uris":{"android":"levelo://app?vid=87873093-27f5-49a2-8c34-ddd2205add84","ios":"levelo://app?vid=87873093-27f5-49a2-8c34-ddd2205add84"},"vehicle_type_id":"4","last_reported":1745435280,"current_range_meters":17600,"station_id":"ce4bh512rcd13ifvqe3g","pricing_plan_id":"cebpf4jnsgd1na2vs0mg"},{"bike_id":"4c9bea1a-7a4e-4789-8cc8-b84fa5a07858","system_id":"levelo_inurba_marseille","lat":43.3136,"lon":5.38487,"is_reserved":false,"is_disabled":false,"rental_uris":{"android":"levelo://app?vid=4c9bea1a-7a4e-4789-8cc8-b84fa5a07858","ios":"levelo://app?vid=4c9bea1a-7a4e-4789-8cc8-b84fa5a07858"},"vehicle_type_id":"4","last_reported":1745435280,"current_range_meters":17600,"station_id":"ce4bgt92rcd13ifvqcf0","pricing_plan_id":"cebpf4jnsgd1na2vs0mg"},{"bike_id":"f37a8733-d200-458a-93af-5fadf3832090","system_id":"levelo_inurba_marseille","lat":43.29573,"lon":5.3999,"is_reserved":false,"is_disabled":false,"rental_uris":{"android":"levelo://app?vid=f37a8733-d200-458a-93af-5fadf3832090","ios":"levelo://app?vid=f37a8733-d200-458a-93af-5fadf3832090"},"vehicle_type_id":"4","last_reported":1745435280,"current_range_meters":17600,"station_id":"ce4bh312rcd13ifvqdj0","pricing_plan_id":"cebpf4jnsgd1na2vs0mg"},{"bike_id":"b217c7a4-92b6-4872-91fa-f2c2827250cc","system_id":"levelo_inurba_marseille","lat":43.28817,"lon":5.39221,"is_reserved":false,"is_disabled":false,"rental_uris":{"android":"levelo://app?vid=b217c7a4-92b6-4872-91fa-f2c2827250cc","ios":"levelo://app?vid=b217c7a4-92b6-4872-91fa-f2c2827250cc"},"vehicle_type_id":"4","last_reported":1745435280,"current_range_meters":17600,"station_id":"","pricing_plan_id":"cebpf4jnsgd1na2vs0mg"},{"bike_id":"8ab36c17-4486-45e2-9f87-57273d82be37","system_id":"levelo_inurba_marseille","lat":43.28937,"lon":5.36638,"is_reserved":false,"is_disabled":false,"rental_uris":{"android":"levelo://app?vid=8ab36c17-4486-45e2-9f87-57273d82be37","ios":"levelo://app?vid=8ab36c17-4486-45e2-9f87-57273d82be37"},"vehicle_type_id":"4","last_reported":1745435280,"current_range_meters":17600,"station_id":"","pricing_plan_id":"cebpf4jnsgd1na2vs0mg"},{"bike_id":"df5d5ce9-c0be-424c-b910-f356aac703ad","system_id":"levelo_inurba_marseille","lat":43.28573,"lon":5.39499,"is_reserved":false,"is_disabled":false,"rental_uris":{"android":"levelo://app?vid=df5d5ce9-c0be-424c-b910-f356aac703ad","ios":"levelo://app?vid=df5d5ce9-c0be-424c-b910-f356aac703ad"},"vehicle_type_id":"4","last_reported":1745435280,"current_range_meters":17600,"station_id":"ce4bh292rcd13ifvqdg0","pricing_plan_id":"cebpf4jnsgd1na2vs0mg"},{"bike_id":"5546f93c-c7eb-4a36-b1e9-022b7fc99074","system_id":"levelo_inurba_marseille","lat":43.23179,"lon":5.35612,"is_reserved":false,"is_disabled":false,"rental_uris":{"android":"levelo://app?vid=5546f93c-c7eb-4a36-b1e9-022b7fc99074","ios":"levelo://app?vid=5546f93c-c7eb-4a36-b1e9-022b7fc99074"},"vehicle_type_id":"4","last_reported":1745435280,"current_range_meters":18000,"station_id":"ce4bhu92rcd13ifvqi70","pricing_plan_id":"cebpf4jnsgd1na2vs0mg"},{"bike_id":"14b9729e-1690-4ebf-9169-85cf44d06a68","system_id":"levelo_inurba_marseille","lat":43.29365,"lon":5.37852,"is_reserved":false,"is_disabled":false,"rental_uris":{"android":"levelo://app?vid=14b9729e-1690-4ebf-9169-85cf44d06a68","ios":"levelo://app?vid=14b9729e-1690-4ebf-9169-85cf44d06a68"},"vehicle_type_id":"4","last_reported":1745435280,"current_range_meters":18000,"station_id":"ce4bgjh2rcd13ifvqbf0","pricing_plan_id":"cebpf4jnsgd1na2vs0mg"},{"bike_id":"6a1b385f-4c37-4399-89d8-2a1bce2af65b","system_id":"levelo_inurba_marseille","lat":43.33724,"lon":5.3918,"is_reserved":false,"is_disabled":false,"rental_uris":{"android":"levelo://app?vid=6a1b385f-4c37-4399-89d8-2a1bce2af65b","ios":"levelo://app?vid=6a1b385f-4c37-4399-89d8-2a1bce2af65b"},"vehicle_type_id":"4","last_reported":1745435280,"current_range_meters":18000,"station_id":"ce4bhr92rcd13ifvqhsg","pricing_plan_id":"cebpf4jnsgd1na2vs0mg"},{"bike_id":"02abeefe-a9d2-46dc-bb91-4bbf72551264","system_id":"levelo_inurba_marseille","lat":43.29254,"lon":5.38437,"is_reserved":false,"is_disabled":false,"rental_uris":{"android":"levelo://app?vid=02abeefe-a9d2-46dc-bb91-4bbf72551264","ios":"levelo://app?vid=02abeefe-a9d2-46dc-bb91-4bbf72551264"},"vehicle_type_id":"4","last_reported":1745435280,"current_range_meters":18000,"station_id":"ce4bh692rcd13ifvqea0","pricing_plan_id":"cebpf4jnsgd1na2vs0mg"},{"bike_id":"2ce4b7f3-b9d9-4b98-a654-e6d1021c8a35","system_id":"levelo_inurba_marseille","lat":43.29876,"lon":5.39741,"is_reserved":false,"is_disabled":false,"rental_uris":{"android":"levelo://app?vid=2ce4b7f3-b9d9-4b98-a654-e6d1021c8a35","ios":"levelo://app?vid=2ce4b7f3-b9d9-4b98-a654-e6d1021c8a35"},"vehicle_type_id":"4","last_reported":1745435280,"current_range_meters":18000,"station_id":"ce4bh0h2rcd13ifvqd50","pricing_plan_id":"cebpf4jnsgd1na2vs0mg"},{"bike_id":"bd14c086-b21e-4360-b45c-7cb79e1d9f0e","system_id":"levelo_inurba_marseille","lat":43.31077,"lon":5.38344,"is_reserved":false,"is_disabled":false,"rental_uris":{"android":"levelo://app?vid=bd14c086-b21e-4360-b45c-7cb79e1d9f0e","ios":"levelo://app?vid=bd14c086-b21e-4360-b45c-7cb79e1d9f0e"},"vehicle_type_id":"4","last_reported":1745435280,"current_range_meters":18000,"station_id":"ce4bgv92rcd13ifvqcr0","pricing_plan_id":"cebpf4jnsgd1na2vs0mg"},