{"last_updated":1770193705,"ttl":60,"version":"2.2","data":{"bikes":[{"bike_id":"16bc2640-1859-4abb-989e-0873647c263f","system_id":"levelo_inurba_marseille","lat":43.29274,"lon":5.36844,"is_reserved":false,"is_disabled":true,"rental_uris":{"android":"levelo://app?vid=16bc2640-1859-4abb-989e-0873647c263f","ios":"levelo://app?vid=16bc2640-1859-4abb-989e-0873647c263f"},"vehicle_type_id":"4","last_reported":1770193706,"current_range_meters":2800,"station_id":"ce4bhbp2rcd13ifvqesg","pricing_plan_id":"cebpf4jnsgd1na2vs0mg"},{"bike_id":"eb1b2124-84d2-467d-b1f5-56516dcfd958","system_id":"levelo_inurba_marseille","lat":43.21186,"lon":5.35074,"is_reserved":false,"is_disabled":false,"rental_uris":{"android":"levelo://app?vid=eb1b2124-84d2-467d-b1f5-56516dcfd958","ios":"levelo://app?vid=eb1b2124-84d2-467d-b1f5-56516dcfd958"},"vehicle_type_id":"4","last_reported":1770193706,"current_range_meters":2800,"station_id":"st_cvj6sg6p6f1abm77japg","pricing_plan_id":"cebpf4jnsgd1na2vs0mg"},{"bike_id":"03cfe8ff-bad7-4324-a169-164f68b4c260","system_id":"levelo_inurba_marseille","lat":43.337444,"lon":5.374475,"is_reserved":false,"is_disabled":false,"rental_uris":{"android":"levelo://app?vid=03cfe8ff-bad7-4324-a169-164f68b4c260","ios":"levelo://app?vid=03cfe8ff-bad7-4324-a169-164f68b4c260"},"vehicle_type_id":"4","last_reported":1770193706,"current_range_meters":2800,"station_id":"","pricing_plan_id":"cebpf4jnsgd1na2vs0mg"},{"bike_id":"77ee2386-41ea-476e-b76b-f435873f6247","system_id":"levelo_inurba_marseille","lat":43.243876,"lon":5.370565,"is_reserved":false,"is_disabled":false,"rental_uris":{"android":"levelo://app?vid=77ee2386-41ea-476e-b76b-f435873f6247","ios":"levelo://app?vid=77ee2386-41ea-476e-b76b-f435873f6247"},"vehicle_type_id":"4","last_reported":1770193706,"current_range_meters":2800,"station_id":"ce4bhhh2rcd13ifvqfk0","pricing_plan_id":"cebpf4jnsgd1na2vs0mg"},{"bike_id":"c2f086f8-a124-4bb8-a577-1c2b811b6996","system_id":"levelo_inurba_marseille","lat":43.2408,"lon":5.37761,"is_reserved":false,"is_disabled":false,"rental_uris":{"android":"levelo://app?vid=c2f086f8-a124-4bb8-a577-1c2b811b6996","ios":"levelo://app?vid=c2f086f8-a124-4bb8-a577-1c2b811b6996"},"vehicle_type_id":"4","last_reported":1770193706,"current_range_meters":2800,"station_id":"ce4bhnp2rcd13ifvqgvg","pricing_plan_id":"cebpf4jnsgd1na2vs0mg"},{"bike_id":"d83e2e78-629e-4bb7-b3ce-804ae08bc5b9","system_id":"levelo_inurba_marseille","lat":43.29618,"lon":5.37165,"is_reserved":false,"is_disabled":false,"rental_uris":{"android":"levelo://app?vid=d83e2e78-629e-4bb7-b3ce-804ae08bc5b9","ios":"levelo://app?vid=d83e2e78-629e-4bb7-b3ce-804ae08bc5b9"},"vehicle_type_id":"4","last_reported":1770193706,"current_range_meters":2800,"station_id":"ce4bgnh2rcd13ifvqc0g","pricing_plan_id":"cebpf4jnsgd1na2vs0mg"},{"bike_id":"13d599ad-fb19-44ae-a335-5e469840b283","system_id":"levelo_inurba_marseille","lat":43.26681,"lon":5.38274,"is_reserved":false,"is_disabled":false,"rental_uris":{"android":"levelo://app?vid=13d599ad-fb19-44ae-a335-5e469840b283","ios":"levelo://app?vid=13d599ad-fb19-44ae-a335-5e469840b283"},"vehicle_type_id":"4","last_reported":1770193706,"current_range_meters":2800,"station_id":"ce4bhg92rcd13ifvqf90","pricing_plan_id":"cebpf4jnsgd1na2vs0mg"},{"bike_id":"4315b2a1-28d2-4c1b-9de8-d05dc2abcf97","system_id":"levelo_inurba_marseille","lat":43.2894,"lon":5.39659,"is_reserved":false,"is_disabled":false,"rental_uris":{"android":"levelo://app?vid=4315b2a1-28d2-4c1b-9de8-d05dc2abcf97","ios":"levelo://app?vid=4315b2a1-28d2-4c1b-9de8-d05dc2abcf97"},"vehicle_type_id":"4","last_reported":1770193706,"current_range_meters":2800,"station_id":"ce4bh3h2rcd13ifvqdn0","pricing_plan_id":"cebpf4jnsgd1na2vs0mg"},{"bike_id":"2d6fc7ca-67e5-48da-a551-1439ebb502b5","system_id":"levelo_inurba_marseille","lat":43.26948,"lon":5.38648,"is_reserved":false,"is_disabled":false,"rental_uris":{"android":"levelo://app?vid=2d6fc7ca-67e5-48da-a551-1439ebb502b5","ios":"levelo://app?vid=2d6fc7ca-67e5-48da-a551-1439ebb502b5"},"vehicle_type_id":"4","last_reported":1770193706,"current_range_meters":2800,"station_id":"ce4bhh92rcd13ifvqfh0","pricing_plan_id":"cebpf4jnsgd1na2vs0mg"},{"bike_id":"a65e804d-b438-4a7a-bf4b-6565130f6ac8","system_id":"levelo_inurba_marseille","lat":43.29774,"lon":5.38124,"is_reserved":false,"is_disabled":false,"rental_uris":{"android":"levelo://app?vid=a65e804d-b438-4a7a-bf4b-6565130f6ac8","ios":"levelo://app?vid=a65e804d-b438-4a7a-bf4b-6565130f6ac8"},"vehicle_type_id":"4","last_reported":1770193706,"current_range_meters":2800,"station_id":"ce4bgip2rcd13ifvqbb0","pricing_plan_id":"cebpf4jnsgd1na2vs0mg"},{"bike_id":"489979bb-0272-4799-8123-485142c2bb11","system_id":"levelo_inurba_marseille","lat":43.28438,"lon":5.39191,"is_reserved":false,"is_disabled":false,"rental_uris":{"android":"levelo://app?vid=489979bb-0272-4799-8123-485142c2bb11","ios":"levelo://app?vid=489979bb-0272-4799-8123-485142c2bb11"},"vehicle_type_id":"4","last_reported":1770193706,"current_range_meters":2800,"station_id":"ce4bhoh2rcd13ifvqh5g","pricing_plan_id":"cebpf4jnsgd1na2vs0mg"},{"bike_id":"013e5603-45e0-47f5-858d-a3999a37e1e1","system_id":"levelo_inurba_marseille","lat":43.29785,"lon":5.38107,"is_reserved":false,"is_disabled":false,"rental_uris":{"android":"levelo://app?vid=013e5603-45e0-47f5-858d-a3999a37e1e1","ios":"levelo://app?vid=013e5603-45e0-47f5-858d-a3999a37e1e1"},"vehicle_type_id":"4","last_reported":1770193706,"current_range_meters":3200,"station_id":"ce4bgip2rcd13ifvqbb0","pricing_plan_id":"cebpf4jnsgd1na2vs0mg"},{"bike_id":"fd4003f9-ae57-43d9-af54-09e855d38b22","system_id":"levelo_inurba_marseille","lat":43.28537,"lon":5.44096,"is_reserved":false,"is_disabled":false,"rental_uris":{"android":"levelo://app?vid=fd4003f9-ae57-43d9-af54-09e855d38b22","ios":"levelo://app?vid=fd4003f9-ae57-43d9-af54-09e855d38b22"},"vehicle_type_id":"4","last_reported":1770193706,"current_range_meters":3200,"station_id":"st_d3j3df2ikq2c7380ej80","pricing_plan_id":"cebpf4jnsgd1na2vs0mg"},{"bike_id":"e5e09432-51e2-4e4c-90db-5548743d89de","system_id":"levelo_inurba_marseille","lat":43.29053,"lon":5.37544,"is_reserved":false,"is_disabled":false,"rental_uris":{"android":"levelo://app?vid=e5e09432-51e2-4e4c-90db-5548743d89de","ios":"levelo://app?vid=e5e09432-51e2-4e4c-90db-5548743d89de"},"vehicle_type_id":"4","last_reported":1770193706,"current_range_meters":3200,"station_id":"ce4bh692rcd13ifvqe90","pricing_plan_id":"cebpf4jnsgd1na2vs0mg"},{"bike_id":"7de714e1-e1e3-4cef-a665-bf94e4caea8c","system_id":"levelo_inurba_marseille","lat":43.225668,"lon":5.416313,"is_reserved":false,"is_disabled":false,"rental_uris":{"android":"levelo://app?vid=7de714e1-e1e3-4cef-a665-bf94e4caea8c","ios":"levelo://app?vid=7de714e1-e1e3-4cef-a665-bf94e4caea8c"},"vehicle_type_id":"4","last_reported":1770193706,"current_range_meters":3200,"station_id":"st_d2o4gvlbi1j2169b742g","pricing_plan_id":"cebpf4jnsgd1na2vs0mg"},{"bike_id":"d46ff533-0eee-4665-b81c-0e20854ee49c","system_id":"levelo_inurba_marseille","lat":43.299386,"lon":5.365166,"is_reserved":false,"is_disabled":false,"rental_uris":{"android":"levelo://app?vid=d46ff533-0eee-4665-b81c-0e20854ee49c","ios":"levelo://app?vid=d46ff533-0eee-4665-b81c-0e20854ee49c"},"vehicle_type_id":"4","last_reported":1770193706,"current_range_meters":3200,"station_id":"ce4bgm92rcd13ifvqbr0","pricing_plan_id":"cebpf4jnsgd1na2vs0mg"},{"bike_id":"2530920e-06fb-4819-a23d-232978eb5862","system_id":"levelo_inurba_marseille","lat":43.26785,"lon":5.39416,"is_reserved":false,"is_disabled":false,"rental_uris":{"android":"levelo://app?vid=2530920e-06fb-4819-a23d-232978eb5862","ios":"levelo://app?vid=2530920e-06fb-4819-a23d-232978eb5862"},"vehicle_type_id":"4","last_reported":1770193706,"current_range_meters":3200,"station_id":"ce4bhh12rcd13ifvqfg0","pricing_plan_id":"cebpf4jnsgd1na2vs0mg"},{"bike_id":"ce24aee7-35fa-4a11-bc8f-4e8ab67f92b4","system_id":"levelo_inurba_marseille","lat":43.31495,"lon":5.37299,"is_reserved":false,"is_disabled":false,"rental_uris":{"android":"levelo://app?vid=ce24aee7-35fa-4a11-bc8f-4e8ab67f92b4","ios":"levelo://app?vid=ce24aee7-35fa-4a11-bc8f-4e8ab67f92b4"},"vehicle_type_id":"4","last_reported":1770193706,"current_range_meters":3200,"station_id":"ce4bgt12rcd13ifvqcd0","pricing_plan_id":"cebpf4jnsgd1na2vs0mg"},{"bike_id":"549d637b-91c5-48ec-83fa-865a463b6a4b","system_id":"levelo_inurba_marseille","lat":43.23184,"lon":5.35562,"is_reserved":false,"is_disabled":false,"rental_uris":{"android":"levelo://app?vid=549d637b-91c5-48ec-83fa-865a463b6a4b","ios":"levelo://app?vid=549d637b-91c5-48ec-83fa-865a463b6a4b"},"vehicle_type_id":"4","last_reported":1770193706,"current_range_meters":3200,"station_id":"ce4bhu92rcd13ifvqi70","pricing_plan_id":"cebpf4jnsgd1na2vs0mg"},{"bike_id":"edcb87a3-89fd-4c81-b16f-a9efdb1bc6b7","system_id":"levelo_inurba_marseille","lat":43.272546,"lon":5.382763,"is_reserved":false,"is_disabled":true,"rental_uris":{"android":"levelo://app?vid=edcb87a3-89fd-4c81-b16f-a9efdb1bc6b7","ios":"levelo://app?vid=edcb87a3-89fd-4c81-b16f-a9efdb1bc6b7"},"vehicle_type_id":"4","last_reported":1770193706,"current_range_meters":3200,"station_id":"","pricing_plan_id":"cebpf4jnsgd1na2vs0mg"},{"bike_id":"811dab78-1623-4fb0-b2a5-b9e02c438a16","system_id":"levelo_inurba_marseille","lat":43.29005,"lon":5.37558,"is_reserved":false,"is_disabled":false,"rental_uris":{"android":"levelo://app?vid=811dab78-1623-4fb0-b2a5-b9e02c438a16","ios":"levelo://app?vid=811dab78-1623-4fb0-b2a5-b9e02c438a16"},"vehicle_type_id":"4","last_reported":1770193706,"current_range_meters":3200,"station_id":"ce4bh692rcd13ifvqe90","pricing_plan_id":"cebpf4jnsgd1na2vs0mg"},{"bike_id":"046cbdeb-0034-4bf7-a8f7-6f44c90a617b","system_id":"levelo_inurba_marseille","lat":43.29246,"lon":5.3843,"is_reserved":false,"is_disabled":false,"rental_uris":{"android":"levelo://app?vid=046cbdeb-0034-4bf7-a8f7-6f44c90a617b","ios":"levelo://app?vid=046cbdeb-0034-4bf7-a8f7-6f44c90a617b"},"vehicle_type_id":"4","last_reported":1770193706,"current_range_meters":3200,"station_id":"ce4bh692rcd13ifvqea0","pricing_plan_id":"cebpf4jnsgd1na2vs0mg"},{"bike_id":"5d7dbaeb-bed4-4023-bbf4-68684f8fa159","system_id":"levelo_inurba_marseille","lat":43.26942,"lon":5.40242,"is_reserved":false,"is_disabled":false,"rental_uris":{"android":"levelo://app?vid=5d7dbaeb-bed4-4023-bbf4-68684f8fa159","ios":"levelo://app?vid=5d7dbaeb-bed4-4023-bbf4-68684f8fa159"},"vehicle_type_id":"4","last_reported":1770193706,"current_range_meters":3200,"station_id":"cjm6bp8fraef2m0cb0m0","pricing_plan_id":"cebpf4jnsgd1na2vs0mg"},{"bike_id":"e513829a-0732-4a77-b195-b7b59df315ce","system_id":"levelo_inurba_marseille","lat":43.290033,"lon":5.356126,"is_reserved":false,"is_disabled":false,"rental_uris":{"android":"levelo://app?vid=e513829a-0732-4a77-b195-b7b59df315ce","ios":"levelo://app?vid=e513829a-0732-4a77-b195-b7b59df315ce"},"vehicle_type_id":"4","last_reported":1770193706,"current_range_meters":3200,"station_id":"ce4bhb92rcd13ifvqen0","pricing_plan_id":"cebpf4jnsgd1na2vs0mg"},{"bike_id":"c3ba0fed-3d29-4191-b8a3-c899b1e9e5ad","system_id":"levelo_inurba_marseille","lat":43.2557,"lon":5.38232,"is_reserved":false,"is_disabled":false,"rental_uris":{"android":"levelo://app?vid=c3ba0fed-3d29-4191-b8a3-c899b1e9e5ad","ios":"levelo://app?vid=c3ba0fed-3d29-4191-b8a3-c899b1e9e5ad"},"vehicle_type_id":"4","last_reported":1770193706,"current_range_meters":3600,"station_id":"ce4bhih2rcd13ifvqfs0","pricing_plan_id":"cebpf4jnsgd1na2vs0mg"},{"bike_id":"afaec708-9928-47f6-a985-ddad527f53b1","system_id":"levelo_inurba_marseille","lat":43.28722,"lon":5.36093,"is_reserved":false,"is_disabled":false,"rental_uris":{"android":"levelo://app?vid=afaec708-9928-47f6-a985-ddad527f53b1","ios":"levelo://app?vid=afaec708-9928-47f6-a985-ddad527f53b1"},"vehicle_type_id":"4","last_reported":1770193706,"current_range_meters":3600,"station_id":"cki0cbj6b192h4jlfktg","pricing_plan_id":"cebpf4jnsgd1na2vs0mg"},{"bike_id":"29aeb3e1-2414-48e6-a3ce-eaa97bddb66c","system_id":"levelo_inurba_marseille","lat":43.303103,"lon":5.3688,"is_reserved":false,"is_disabled":false,"rental_uris":{"android":"levelo://app?vid=29aeb3e1-2414-48e6-a3ce-eaa97bddb66c","ios":"levelo://app?vid=29aeb3e1-2414-48e6-a3ce-eaa97bddb66c"},"vehicle_type_id":"4","last_reported":1770193706,"current_range_meters":3600,"station_id":"ce4bgqh2rcd13ifvqc5g","pricing_plan_id":"cebpf4jnsgd1na2vs0mg"},{"bike_id":"64d7e2aa-7b5f-444b-8d1d-cef2874b6903","system_id":"levelo_inurba_marseille","lat":43.293128,"lon":5.371759,"is_reserved":false,"is_disabled":false,"rental_uris":{"android":"levelo://app?vid=64d7e2aa-7b5f-444b-8d1d-cef2874b6903","ios":"levelo://app?vid=64d7e2aa-7b5f-444b-8d1d-cef2874b6903"},"vehicle_type_id":"4","last_reported":1770193706,"current_range_meters":3600,"station_id":"ce4bgh92rcd13ifvqb40","pricing_plan_id":"cebpf4jnsgd1na2vs0mg"},{"bike_id":"deb9e4eb-a481-4dbd-9838-7e21c4114a77","system_id":"levelo_inurba_marseille","lat":43.2463,"lon":5.38882,"is_reserved":false,"is_disabled":false,"rental_uris":{"android":"levelo://app?vid=deb9e4eb-a481-4dbd-9838-7e21c4114a77","ios":"levelo://app?vid=deb9e4eb-a481-4dbd-9838-7e21c4114a77"},"vehicle_type_id":"4","last_reported":1770193706,"current_range_meters":3600,"station_id":"ce4bhg12rcd13ifvqf60","pricing_plan_id":"cebpf4jnsgd1na2vs0mg"},{"bike_id":"7ece4d61-fa1c-4b2c-b076-08315766cdb4","system_id":"levelo_inurba_marseille","lat":43.3132,"lon":5.39731,"is_reserved":false,"is_disabled":false,"rental_uris":{"android":"levelo://app?vid=7ece4d61-fa1c-4b2c-b076-08315766cdb4","ios":"levelo://app?vid=7ece4d61-fa1c-4b2c-b076-08315766cdb4"},"vehicle_type_id":"4","last_reported":1770193706,"current_range_meters":3600,"station_id":"ce4bgvp2rcd13ifvqcu0","pricing_plan_id":"cebpf4jnsgd1na2vs0mg"},{"bike_id":"9205b891-ee66-4882-bfec-3785668d7c2d","system_id":"levelo_inurba_marseille","lat":43.26022,"lon":5.37559,"is_reserved":false,"is_disabled":false,"rental_uris":{"android":"levelo://app?vid=9205b891-ee66-4882-bfec-3785668d7c2d","ios":"levelo://app?vid=9205b891-ee66-4882-bfec-3785668d7c2d"},"vehicle_type_id":"4","last_reported":1770193706,"current_range_meters":3600,"station_id":"ce4bhgh2rcd13ifvqfa0","pricing_plan_id":"cebpf4jnsgd1na2vs0mg"},{"bike_id":"9dc9dc2a-0cd3-449f-86e9-34a680805a38","system_id":"levelo_inurba_marseille","lat":43.27194,"lon":5.3917,"is_reserved":false,"is_disabled":false,"rental_uris":{"android":"levelo://app?vid=9dc9dc2a-0cd3-449f-86e9-34a680805a38","ios":"levelo://app?vid=9dc9dc2a-0cd3-449f-86e9-34a680805a38"},"vehicle_type_id":"4","last_reported":1770193706,"current_range_meters":3600,"station_id":"ce4bhhp2rcd13ifvqfm0","pricing_plan_id":"cebpf4jnsgd1na2vs0mg"},{"bike_id":"87958bdf-86fb-400f-83fe-8b4a7894a635","system_id":"levelo_inurba_marseille","lat":43.30957,"lon":5.39045,"is_reserved":false,"is_disabled":false,"rental_uris":{"android":"levelo://app?vid=87958bdf-86fb-400f-83fe-8b4a7894a635","ios":"levelo://app?vid=87958bdf-86fb-400f-83fe-8b4a7894a635"},"vehicle_type_id":"4","last_reported":1770193706,"current_range_meters":3600,"station_id":"ce4bgup2rcd13ifvqco0","pricing_plan_id":"cebpf4jnsgd1na2vs0mg"},{"bike_id":"8dd71d54-857e-4e01-8d80-7c51eb2e90e4","system_id":"levelo_inurba_marseille","lat":43.28357,"lon":5.38633,"is_reserved":false,"is_disabled":false,"rental_uris":{"android":"levelo://app?vid=8dd71d54-857e-4e01-8d80-7c51eb2e90e4","ios":"levelo://app?vid=8dd71d54-857e-4e01-8d80-7c51eb2e90e4"},"vehicle_type_id":"4","last_reported":1770193706,"current_range_meters":3600,"station_id":"ce4bh492rcd13ifvqdvg","pricing_plan_id":"cebpf4jnsgd1na2vs0mg"},{"bike_id":"f8e7e4d9-f87a-42a2-9144-b6886b943f25","system_id":"levelo_inurba_marseille","lat":43.24993,"lon":5.38947,"is_reserved":false,"is_disabled":false,"rental_uris":{"android":"levelo://app?vid=f8e7e4d9-f87a-42a2-9144-b6886b943f25","ios":"levelo://app?vid=f8e7e4d9-f87a-42a2-9144-b6886b943f25"},"vehicle_type_id":"4","last_reported":1770193706,"current_range_meters":4000,"station_id":"ce4bhgp2rcd13ifvqfd0","pricing_plan_id":"cebpf4jnsgd1na2vs0mg"},{"bike_id":"0a062f22-e29e-4ddd-be74-2b51add7e23c","system_id":"levelo_inurba_marseille","lat":43.29589,"lon":5.38114,"is_reserved":false,"is_disabled":false,"rental_uris":{"android":"levelo://app?vid=0a062f22-e29e-4ddd-be74-2b51add7e23c","ios":"levelo://app?vid=0a062f22-e29e-4ddd-be74-2b51add7e23c"},"vehicle_type_id":"4","last_reported":1770193706,"current_range_meters":4000,"station_id":"ce4bgl12rcd13ifvqbo0","pricing_plan_id":"cebpf4jnsgd1na2vs0mg"},{"bike_id":"151047fe-b117-41cf-9416-4f91d0d3c1a9","system_id":"levelo_inurba_marseille","lat":43.31856,"lon":5.36908,"is_reserved":false,"is_disabled":false,"rental_uris":{"android":"levelo://app?vid=151047fe-b117-41cf-9416-4f91d0d3c1a9","ios":"levelo://app?vid=151047fe-b117-41cf-9416-4f91d0d3c1a9"},"vehicle_type_id":"4","last_reported":1770193706,"current_range_meters":4000,"station_id":"","pricing_plan_id":"cebpf4jnsgd1na2vs0mg"},{"bike_id":"dcaa4a8f-eeeb-4a65-b90b-db85565e00da","system_id":"levelo_inurba_marseille","lat":43.24163,"lon":5.364,"is_reserved":false,"is_disabled":false,"rental_uris":{"android":"levelo://app?vid=dcaa4a8f-eeeb-4a65-b90b-db85565e00da","ios":"levelo://app?vid=dcaa4a8f-eeeb-4a65-b90b-db85565e00da"},"vehicle_type_id":"4","last_reported":1770193706,"current_range_meters":4000,"station_id":"cpo36qri1sfpv3e86is0","pricing_plan_id":"cebpf4jnsgd1na2vs0mg"},{"bike_id":"31c05e77-389f-418d-b64d-8127fcc124e7","system_id":"levelo_inurba_marseille","lat":43.29111,"lon":5.38122,"is_reserved":false,"is_disabled":false,"rental_uris":{"android":"levelo://app?vid=31c05e77-389f-418d-b64d-8127fcc124e7","ios":"levelo://app?vid=31c05e77-389f-418d-b64d-8127fcc124e7"},"vehicle_type_id":"4","last_reported":1770193706,"current_range_meters":4000,"station_id":"ce4bh512rcd13ifvqe2g","pricing_plan_id":"cebpf4jnsgd1na2vs0mg"},{"bike_id":"8094b498-d987-426c-9fbb-fd85d0665cb8","system_id":"levelo_inurba_marseille","lat":43.30957,"lon":5.3905,"is_reserved":false,"is_disabled":false,"rental_uris":{"android":"levelo://app?vid=8094b498-d987-426c-9fbb-fd85d0665cb8","ios":"levelo://app?vid=8094b498-d987-426c-9fbb-fd85d0665cb8"},"vehicle_type_id":"4","last_reported":1770193706,"current_range_meters":4000,"station_id":"ce4bgup2rcd13ifvqco0","pricing_plan_id":"cebpf4jnsgd1na2vs0mg"},{"bike_id":"3496e3d5-ade9-4ef3-89c7-6224a9796381","system_id":"levelo_inurba_marseille","lat":43.23202,"lon":5.35536,"is_reserved":false,"is_disabled":false,"rental_uris":{"android":"levelo://app?vid=3496e3d5-ade9-4ef3-89c7-6224a9796381","ios":"levelo://app?vid=3496e3d5-ade9-4ef3-89c7-6224a9796381"},"vehicle_type_id":"4","last_reported":1770193706,"current_range_meters":4000,"station_id":"ce4bhu92rcd13ifvqi70","pricing_plan_id":"cebpf4jnsgd1na2vs0mg"},{"bike_id":"32082ba1-0cf8-45e5-b7d3-4e7f21189841","system_id":"levelo_inurba_marseille","lat":43.30595,"lon":5.39356,"is_reserved":false,"is_disabled":false,"rental_uris":{"android":"levelo://app?vid=32082ba1-0cf8-45e5-b7d3-4e7f21189841","ios":"levelo://app?vid=32082ba1-0cf8-45e5-b7d3-4e7f21189841"},"vehicle_type_id":"4","last_reported":1770193706,"current_range_meters":4000,"station_id":"ce4bh0p2rcd13ifvqd80","pricing_plan_id":"cebpf4jnsgd1na2vs0mg"},{"bike_id":"60435312-43df-4044-b83b-10f6139b297f","system_id":"levelo_inurba_marseille","lat":43.30872,"lon":5.39659,"is_reserved":false,"is_disabled":false,"rental_uris":{"android":"levelo://app?vid=60435312-43df-4044-b83b-10f6139b297f","ios":"levelo://app?vid=60435312-43df-4044-b83b-10f6139b297f"},"vehicle_type_id":"4","last_reported":1770193706,"current_range_meters":4000,"station_id":"ce4bh012rcd13ifvqcv0","pricing_plan_id":"cebpf4jnsgd1na2vs0mg"},{"bike_id":"1f84e4c7-977a-46c5-9542-8c8f0444c252","system_id":"levelo_inurba_marseille","lat":43.28934,"lon":5.36637,"is_reserved":false,"is_disabled":false,"rental_uris":{"android":"levelo://app?vid=1f84e4c7-977a-46c5-9542-8c8f0444c252","ios":"levelo://app?vid=1f84e4c7-977a-46c5-9542-8c8f0444c252"},"vehicle_type_id":"4","last_reported":1770193706,"current_range_meters":4000,"station_id":"ce4bhap2rcd13ifvqek0","pricing_plan_id":"cebpf4jnsgd1na2vs0mg"},{"bike_id":"a15a010c-2a2f-4edd-b570-c190cdf32db7","system_id":"levelo_inurba_marseille","lat":43.30881,"lon":5.39653,"is_reserved":false,"is_disabled":false,"rental_uris":{"android":"levelo://app?vid=a15a010c-2a2f-4edd-b570-c190cdf32db7","ios":"levelo://app?vid=a15a010c-2a2f-4edd-b570-c190cdf32db7"},"vehicle_type_id":"4","last_reported":1770193706,"current_range_meters":4000,"station_id":"ce4bh012rcd13ifvqcv0","pricing_plan_id":"cebpf4jnsgd1na2vs0mg"},{"bike_id":"0132a3cf-69fe-4c36-a3f5-853ddb5ead41","system_id":"levelo_inurba_marseille","lat":43.24791,"lon":5.37464,"is_reserved":false,"is_disabled":false,"rental_uris":{"android":"levelo://app?vid=0132a3cf-69fe-4c36-a3f5-853ddb5ead41","ios":"levelo://app?vid=0132a3cf-69fe-4c36-a3f5-853ddb5ead41"},"vehicle_type_id":"4","last_reported":1770193706,"current_range_meters":4000,"station_id":"ce4bhgh2rcd13ifvqfb0","pricing_plan_id":"cebpf4jnsgd1na2vs0mg"},{"bike_id":"ef30bb24-f45f-400c-9967-a2a3b2da1488","system_id":"levelo_inurba_marseille","lat":43.28298,"lon":5.3944,"is_reserved":false,"is_disabled":false,"rental_uris":{"android":"levelo://app?vid=ef30bb24-f45f-400c-9967-a2a3b2da1488","ios":"levelo://app?vid=ef30bb24-f45f-400c-9967-a2a3b2da1488"},"vehicle_type_id":"4","last_reported":1770193706,"current_range_meters":4000,"station_id":"","pricing_plan_id":"cebpf4jnsgd1na2vs0mg"},{"bike_id":"828b2594-07e7-471c-8811-000783f75dfb","system_id":"levelo_inurba_marseille","lat":43.33595,"lon":5.41025,"is_reserved":false,"is_disabled":false,"rental_uris":{"android":"levelo://app?vid=828b2594-07e7-471c-8811-000783f75dfb","ios":"levelo://app?vid=828b2594-07e7-471c-8811-000783f75dfb"},"vehicle_type_id":"4","last_reported":1770193706,"current_range_meters":4000,"station_id":"ce4bhqh2rcd13ifvqhmg","pricing_plan_id":"cebpf4jnsgd1na2vs0mg"},{"bike_id":"283eb736-7b27-4235-8c4a-e1cfa41beb47","system_id":"levelo_inurba_marseille","lat":43.30912,"lon":5.36853,"is_reserved":false,"is_disabled":false,"rental_uris":{"android":"levelo://app?vid=283eb736-7b27-4235-8c4a-e1cfa41beb47","ios":"levelo://app?vid=283eb736-7b27-4235-8c4a-e1cfa41beb47"},"vehicle_type_id":"4","last_reported":1770193706,"current_range_meters":4400,"station_id":"ce4bgn92rcd13ifvqbvg","pricing_plan_id":"cebpf4jnsgd1na2vs0mg"},{"bike_id":"2bf19671-0061-46e9-83e3-55d71bb70148","system_id":"levelo_inurba_marseille","lat":43.22931,"lon":5.35388,"is_reserved":false,"is_disabled":false,"rental_uris":{"android":"levelo://app?vid=2bf19671-0061-46e9-83e3-55d71bb70148","ios":"levelo://app?vid=2bf19671-0061-46e9-83e3-55d71bb70148"},"vehicle_type_id":"4","last_reported":1770193706,"current_range_meters":4400,"station_id":"cpo3532slgdg3j2ikp40","pricing_plan_id":"cebpf4jnsgd1na2vs0mg"},{"bike_id":"ae35402d-7b73-4ff2-905b-605e9c1e7cfb","system_id":"levelo_inurba_marseille","lat":43.27952,"lon":5.38766,"is_reserved":false,"is_disabled":false,"rental_uris":{"android":"levelo://app?vid=ae35402d-7b73-4ff2-905b-605e9c1e7cfb","ios":"levelo://app?vid=ae35402d-7b73-4ff2-905b-605e9c1e7cfb"},"vehicle_type_id":"4","last_reported":1770193706,"current_range_meters":4400,"station_id":"ce4bhg12rcd13ifvqf80","pricing_plan_id":"cebpf4jnsgd1na2vs0mg"},{"bike_id":"6911c53c-b00c-45fb-be18-12fed0f35fcb","system_id":"levelo_inurba_marseille","lat":43.29035,"lon":5.39981,"is_reserved":false,"is_disabled":false,"rental_uris":{"android":"levelo://app?vid=6911c53c-b00c-45fb-be18-12fed0f35fcb","ios":"levelo://app?vid=6911c53c-b00c-45fb-be18-12fed0f35fcb"},"vehicle_type_id":"4","last_reported":1770193706,"current_range_meters":4400,"station_id":"ce4bh392rcd13ifvqdm0","pricing_plan_id":"cebpf4jnsgd1na2vs0mg"},{"bike_id":"9e057795-08d0-428c-a4d6-14e223435515","system_id":"levelo_inurba_marseille","lat":43.24591,"lon":5.37362,"is_reserved":false,"is_disabled":false,"rental_uris":{"android":"levelo://app?vid=9e057795-08d0-428c-a4d6-14e223435515","ios":"levelo://app?vid=9e057795-08d0-428c-a4d6-14e223435515"},"vehicle_type_id":"4","last_reported":1770193706,"current_range_meters":4400,"station_id":"","pricing_plan_id":"cebpf4jnsgd1na2vs0mg"},{"bike_id":"40954e61-dd73-4b29-8cc4-cc138532c8aa","system_id":"levelo_inurba_marseille","lat":43.29228,"lon":5.42519,"is_reserved":false,"is_disabled":false,"rental_uris":{"android":"levelo://app?vid=40954e61-dd73-4b29-8cc4-cc138532c8aa","ios":"levelo://app?vid=40954e61-dd73-4b29-8cc4-cc138532c8aa"},"vehicle_type_id":"4","last_reported":1770193706,"current_range_meters":4400,"station_id":"","pricing_plan_id":"cebpf4jnsgd1na2vs0mg"},{"bike_id":"09dac929-9f41-465e-a067-c7854d903423","system_id":"levelo_inurba_marseille","lat":43.30112,"lon":5.37441,"is_reserved":false,"is_disabled":false,"rental_uris":{"android":"levelo://app?vid=09dac929-9f41-465e-a067-c7854d903423","ios":"levelo://app?vid=09dac929-9f41-465e-a067-c7854d903423"},"vehicle_type_id":"4","last_reported":1770193706,"current_range_meters":4400,"station_id":"ce4bgs92rcd13ifvqcc0","pricing_plan_id":"cebpf4jnsgd1na2vs0mg"},{"bike_id":"5396fda1-c3a0-4d51-8ba0-cfe497a166d7","system_id":"levelo_inurba_marseille","lat":43.26557,"lon":5.38986,"is_reserved":false,"is_disabled":false,"rental_uris":{"android":"levelo://app?vid=5396fda1-c3a0-4d51-8ba0-cfe497a166d7","ios":"levelo://app?vid=5396fda1-c3a0-4d51-8ba0-cfe497a166d7"},"vehicle_type_id":"4","last_reported":1770193706,"current_range_meters":4400,"station_id":"ce4bhe12rcd13ifvqf30","pricing_plan_id":"cebpf4jnsgd1na2vs0mg"},{"bike_id":"a3187843-b85c-41a1-aa14-9274fed66704","system_id":"levelo_inurba_marseille","lat":43.29022,"lon":5.37558,"is_reserved":false,"is_disabled":true,"rental_uris":{"android":"levelo://app?vid=a3187843-b85c-41a1-aa14-9274fed66704","ios":"levelo://app?vid=a3187843-b85c-41a1-aa14-9274fed66704"},"vehicle_type_id":"4","last_reported":1770193706,"current_range_meters":4400,"station_id":"ce4bh692rcd13ifvqe90","pricing_plan_id":"cebpf4jnsgd1na2vs0mg"},{"bike_id":"31d6b64e-48b2-4cc2-af49-c56a6b394847","system_id":"levelo_inurba_marseille","lat":43.27873,"lon":5.38037,"is_reserved":false,"is_disabled":true,"rental_uris":{"android":"levelo://app?vid=31d6b64e-48b2-4cc2-af49-c56a6b394847","ios":"levelo://app?vid=31d6b64e-48b2-4cc2-af49-c56a6b394847"},"vehicle_type_id":"4","last_reported":1770193706,"current_range_meters":4800,"station_id":"ce4bhf92rcd13ifvqf50","pricing_plan_id":"cebpf4jnsgd1na2vs0mg"},{"bike_id":"e1b3cad6-dccc-4f80-892b-59b83fe43b75","system_id":"levelo_inurba_marseille","lat":43.29572,"lon":5.36721,"is_reserved":false,"is_disabled":false,"rental_uris":{"android":"levelo://app?vid=e1b3cad6-dccc-4f80-892b-59b83fe43b75","ios":"levelo://app?vid=e1b3cad6-dccc-4f80-892b-59b83fe43b75"},"vehicle_type_id":"4","last_reported":1770193706,"current_range_meters":4800,"station_id":"ce4bgph2rcd13ifvqc2g","pricing_plan_id":"cebpf4jnsgd1na2vs0mg"},{"bike_id":"7f77f6a6-911c-44cf-97f5-71224b3633e0","system_id":"levelo_inurba_marseille","lat":43.25222,"lon":5.38033,"is_reserved":false,"is_disabled":false,"rental_uris":{"android":"levelo://app?vid=7f77f6a6-911c-44cf-97f5-71224b3633e0","ios":"levelo://app?vid=7f77f6a6-911c-44cf-97f5-71224b3633e0"},"vehicle_type_id":"4","last_reported":1770193706,"current_range_meters":4800,"station_id":"","pricing_plan_id":"cebpf4jnsgd1na2vs0mg"},{"bike_id":"3492d7e4-2dea-4cd5-b457-298b87f5c159","system_id":"levelo_inurba_marseille","lat":43.24449,"lon":5.42531,"is_reserved":false,"is_disabled":false,"rental_uris":{"android":"levelo://app?vid=3492d7e4-2dea-4cd5-b457-298b87f5c159","ios":"levelo://app?vid=3492d7e4-2dea-4cd5-b457-298b87f5c159"},"vehicle_type_id":"4","last_reported":1770193706,"current_range_meters":4800,"station_id":"st_d4a3vfp97mjs738cd8kg","pricing_plan_id":"cebpf4jnsgd1na2vs0mg"},{"bike_id":"e8390270-da92-407f-ad1d-dce312c17953","system_id":"levelo_inurba_marseille","lat":43.29285,"lon":5.3683,"is_reserved":false,"is_disabled":false,"rental_uris":{"android":"levelo://app?vid=e8390270-da92-407f-ad1d-dce312c17953","ios":"levelo://app?vid=e8390270-da92-407f-ad1d-dce312c17953"},"vehicle_type_id":"4","last_reported":1770193706,"current_range_meters":4800,"station_id":"ce4bhbp2rcd13ifvqesg","pricing_plan_id":"cebpf4jnsgd1na2vs0mg"},{"bike_id":"bcbaa8a6-886f-4091-ae26-8ec7b68ef274","system_id":"levelo_inurba_marseille","lat":43.23783,"lon":5.36639,"is_reserved":false,"is_disabled":false,"rental_uris":{"android":"levelo://app?vid=bcbaa8a6-886f-4091-ae26-8ec7b68ef274","ios":"levelo://app?vid=bcbaa8a6-886f-4091-ae26-8ec7b68ef274"},"vehicle_type_id":"4","last_reported":1770193706,"current_range_meters":4800,"station_id":"st_d3nk18o9ro0c73en2l3g","pricing_plan_id":"cebpf4jnsgd1na2vs0mg"},{"bike_id":"c6e323e3-4052-4940-8ba6-87e1847b0dcf","system_id":"levelo_inurba_marseille","lat":43.25941,"lon":5.4089,"is_reserved":false,"is_disabled":false,"rental_uris":{"android":"levelo://app?vid=c6e323e3-4052-4940-8ba6-87e1847b0dcf","ios":"levelo://app?vid=c6e323e3-4052-4940-8ba6-87e1847b0dcf"},"vehicle_type_id":"4","last_reported":1770193706,"current_range_meters":4800,"station_id":"ce4bhm92rcd13ifvqglg","pricing_plan_id":"cebpf4jnsgd1na2vs0mg"},{"bike_id":"5b3811ef-5681-4c18-aac4-a62920f9a85c","system_id":"levelo_inurba_marseille","lat":43.28475,"lon":5.515,"is_reserved":false,"is_disabled":false,"rental_uris":{"android":"levelo://app?vid=5b3811ef-5681-4c18-aac4-a62920f9a85c","ios":"levelo://app?vid=5b3811ef-5681-4c18-aac4-a62920f9a85c"},"vehicle_type_id":"4","last_reported":1770193706,"current_range_meters":4800,"station_id":"","pricing_plan_id":"cebpf4jnsgd1na2vs0mg"},{"bike_id":"d6fcfbb6-741a-47e6-b08d-f5036f90a3ce","system_id":"levelo_inurba_marseille","lat":43.24484,"lon":5.42548,"is_reserved":false,"is_disabled":false,"rental_uris":{"android":"levelo://app?vid=d6fcfbb6-741a-47e6-b08d-f5036f90a3ce","ios":"levelo://app?vid=d6fcfbb6-741a-47e6-b08d-f5036f90a3ce"},"vehicle_type_id":"4","last_reported":1770193706,"current_range_meters":4800,"station_id":"st_d4a3vfp97mjs738cd8kg","pricing_plan_id":"cebpf4jnsgd1na2vs0mg"},{"bike_id":"88b224d2-edc5-49b3-91a3-3a72f6dd79ef","system_id":"levelo_inurba_marseille","lat":43.3042,"lon":5.39754,"is_reserved":false,"is_disabled":false,"rental_uris":{"android":"levelo://app?vid=88b224d2-edc5-49b3-91a3-3a72f6dd79ef","ios":"levelo://app?vid=88b224d2-edc5-49b3-91a3-3a72f6dd79ef"},"vehicle_type_id":"4","last_reported":1770193706,"current_range_meters":4800,"station_id":"ce4bh092rcd13ifvqd20","pricing_plan_id":"cebpf4jnsgd1na2vs0mg"},{"bike_id":"a3c884d6-ca06-4e21-8494-0863fcdb6b67","system_id":"levelo_inurba_marseille","lat":43.3104,"lon":5.3717,"is_reserved":false,"is_disabled":false,"rental_uris":{"android":"levelo://app?vid=a3c884d6-ca06-4e21-8494-0863fcdb6b67","ios":"levelo://app?vid=a3c884d6-ca06-4e21-8494-0863fcdb6b67"},"vehicle_type_id":"4","last_reported":1770193706,"current_range_meters":4800,"station_id":"st_d4kl2rp97mjs73e7tdfg","pricing_plan_id":"cebpf4jnsgd1na2vs0mg"},{"bike_id":"0248d4df-bd59-4650-89d7-3fd7ca51a2eb","system_id":"levelo_inurba_marseille","lat":43.30913,"lon":5.36846,"is_reserved":false,"is_disabled":false,"rental_uris":{"android":"levelo://app?vid=0248d4df-bd59-4650-89d7-3fd7ca51a2eb","ios":"levelo://app?vid=0248d4df-bd59-4650-89d7-3fd7ca51a2eb"},"vehicle_type_id":"4","last_reported":1770193706,"current_range_meters":5600,"station_id":"ce4bgn92rcd13ifvqbvg","pricing_plan_id":"cebpf4jnsgd1na2vs0mg"},{"bike_id":"ec12566a-9d48-438d-80ed-97edb63a2c03","system_id":"levelo_inurba_marseille","lat":43.244677,"lon":5.425378,"is_reserved":false,"is_disabled":false,"rental_uris":{"android":"levelo://app?vid=ec12566a-9d48-438d-80ed-97edb63a2c03","ios":"levelo://app?vid=ec12566a-9d48-438d-80ed-97edb63a2c03"},"vehicle_type_id":"4","last_reported":1770193706,"current_range_meters":5600,"station_id":"st_d4a3vfp97mjs738cd8kg","pricing_plan_id":"cebpf4jnsgd1na2vs0mg"},{"bike_id":"5268a57b-c5c9-446a-87ff-ede823dc6bfa","system_id":"levelo_inurba_marseille","lat":43.28565,"lon":5.39492,"is_reserved":false,"is_disabled":false,"rental_uris":{"android":"levelo://app?vid=5268a57b-c5c9-446a-87ff-ede823dc6bfa","ios":"levelo://app?vid=5268a57b-c5c9-446a-87ff-ede823dc6bfa"},"vehicle_type_id":"4","last_reported":1770193706,"current_range_meters":5600,"station_id":"ce4bh292rcd13ifvqdg0","pricing_plan_id":"cebpf4jnsgd1na2vs0mg"},{"bike_id":"10407226-4ba5-4f07-ab26-b7ecd3044040","system_id":"levelo_inurba_marseille","lat":43.29323,"lon":5.37383,"is_reserved":false,"is_disabled":false,"rental_uris":{"android":"levelo://app?vid=10407226-4ba5-4f07-ab26-b7ecd3044040","ios":"levelo://app?vid=10407226-4ba5-4f07-ab26-b7ecd3044040"},"vehicle_type_id":"4","last_reported":1770193706,"current_range_meters":5600,"station_id":"","pricing_plan_id":"cebpf4jnsgd1na2vs0mg"},{"bike_id":"30b0a66c-3c65-486d-80e4-7dd9acfc4ef3","system_id":"levelo_inurba_marseille","lat":43.2656,"lon":5.3732,"is_reserved":false,"is_disabled":false,"rental_uris":{"android":"levelo://app?vid=30b0a66c-3c65-486d-80e4-7dd9acfc4ef3","ios":"levelo://app?vid=30b0a66c-3c65-486d-80e4-7dd9acfc4ef3"},"vehicle_type_id":"4","last_reported":1770193706,"current_range_meters":5600,"station_id":"ce4bhg12rcd13ifvqf70","pricing_plan_id":"cebpf4jnsgd1na2vs0mg"},{"bike_id":"fb9831b1-2115-4efa-aab5-d8711b935c09","system_id":"levelo_inurba_marseille","lat":43.27481,"lon":5.42464,"is_reserved":false,"is_disabled":false,"rental_uris":{"android":"levelo://app?vid=fb9831b1-2115-4efa-aab5-d8711b935c09","ios":"levelo://app?vid=fb9831b1-2115-4efa-aab5-d8711b935c09"},"vehicle_type_id":"4","last_reported":1770193706,"current_range_meters":5600,"station_id":"ce4bhn92rcd13ifvqgrg","pricing_plan_id":"cebpf4jnsgd1na2vs0mg"},{"bike_id":"f27f1901-a7c7-4198-8fdf-a9f0eda93ba3","system_id":"levelo_inurba_marseille","lat":43.30506,"lon":5.36768,"is_reserved":false,"is_disabled":false,"rental_uris":{"android":"levelo://app?vid=f27f1901-a7c7-4198-8fdf-a9f0eda93ba3","ios":"levelo://app?vid=f27f1901-a7c7-4198-8fdf-a9f0eda93ba3"},"vehicle_type_id":"4","last_reported":1770193706,"current_range_meters":6000,"station_id":"ce4bgrp2rcd13ifvqc9g","pricing_plan_id":"cebpf4jnsgd1na2vs0mg"},{"bike_id":"2ac609ee-0449-449f-a5ec-493d35e659ec","system_id":"levelo_inurba_marseille","lat":43.30184,"lon":5.37404,"is_reserved":false,"is_disabled":false,"rental_uris":{"android":"levelo://app?vid=2ac609ee-0449-449f-a5ec-493d35e659ec","ios":"levelo://app?vid=2ac609ee-0449-449f-a5ec-493d35e659ec"},"vehicle_type_id":"4","last_reported":1770193706,"current_range_meters":6000,"station_id":"ce4bgpp2rcd13ifvqc3g","pricing_plan_id":"cebpf4jnsgd1na2vs0mg"},{"bike_id":"e18c1d3c-9c51-474b-ab46-f7380830a68d","system_id":"levelo_inurba_marseille","lat":43.30904,"lon":5.36851,"is_reserved":false,"is_disabled":false,"rental_uris":{"android":"levelo://app?vid=e18c1d3c-9c51-474b-ab46-f7380830a68d","ios":"levelo://app?vid=e18c1d3c-9c51-474b-ab46-f7380830a68d"},"vehicle_type_id":"4","last_reported":1770193706,"current_range_meters":6000,"station_id":"ce4bgn92rcd13ifvqbvg","pricing_plan_id":"cebpf4jnsgd1na2vs0mg"},{"bike_id":"73d7fb99-d853-42ce-a7a8-f1ef6eca6976","system_id":"levelo_inurba_marseille","lat":43.30896,"lon":5.39618,"is_reserved":false,"is_disabled":false,"rental_uris":{"android":"levelo://app?vid=73d7fb99-d853-42ce-a7a8-f1ef6eca6976","ios":"levelo://app?vid=73d7fb99-d853-42ce-a7a8-f1ef6eca6976"},"vehicle_type_id":"4","last_reported":1770193706,"current_range_meters":6000,"station_id":"ce4bh012rcd13ifvqcv0","pricing_plan_id":"cebpf4jnsgd1na2vs0mg"},{"bike_id":"ff657589-8f0a-4e78-9e52-2ef3d0d63892","system_id":"levelo_inurba_marseille","lat":43.29564,"lon":5.37513,"is_reserved":false,"is_disabled":false,"rental_uris":{"android":"levelo://app?vid=ff657589-8f0a-4e78-9e52-2ef3d0d63892","ios":"levelo://app?vid=ff657589-8f0a-4e78-9e52-2ef3d0d63892"},"vehicle_type_id":"4","last_reported":1770193706,"current_range_meters":6000,"station_id":"ce4bgh92rcd13ifvqb50","pricing_plan_id":"cebpf4jnsgd1na2vs0mg"},{"bike_id":"659b2fe8-8a06-4a27-93de-c9d7bd01e359","system_id":"levelo_inurba_marseille","lat":43.29619,"lon":5.37756,"is_reserved":false,"is_disabled":false,"rental_uris":{"android":"levelo://app?vid=659b2fe8-8a06-4a27-93de-c9d7bd01e359","ios":"levelo://app?vid=659b2fe8-8a06-4a27-93de-c9d7bd01e359"},"vehicle_type_id":"4","last_reported":1770193706,"current_range_meters":6000,"station_id":"ce4bgi92rcd13ifvqb90","pricing_plan_id":"cebpf4jnsgd1na2vs0mg"},{"bike_id":"191a99ed-49ff-4737-8f82-7264bf56cc6c","system_id":"levelo_inurba_marseille","lat":43.25,"lon":5.38937,"is_reserved":false,"is_disabled":false,"rental_uris":{"android":"levelo://app?vid=191a99ed-49ff-4737-8f82-7264bf56cc6c","ios":"levelo://app?vid=191a99ed-49ff-4737-8f82-7264bf56cc6c"},"vehicle_type_id":"4","last_reported":1770193706,"current_range_meters":6000,"station_id":"ce4bhgp2rcd13ifvqfd0","pricing_plan_id":"cebpf4jnsgd1na2vs0mg"},{"bike_id":"c273c80b-fa9b-4c6d-83d0-cfbb91e8db15","system_id":"levelo_inurba_marseille","lat":43.29163,"lon":5.37163,"is_reserved":false,"is_disabled":false,"rental_uris":{"android":"levelo://app?vid=c273c80b-fa9b-4c6d-83d0-cfbb91e8db15","ios":"levelo://app?vid=c273c80b-fa9b-4c6d-83d0-cfbb91e8db15"},"vehicle_type_id":"4","last_reported":1770193706,"current_range_meters":6000,"station_id":"ce4bha92rcd13ifvqeh0","pricing_plan_id":"cebpf4jnsgd1na2vs0mg"},{"bike_id":"5de5e604-6504-4a1a-966a-dc6c49a789b3","system_id":"levelo_inurba_marseille","lat":43.29588,"lon":5.36752,"is_reserved":false,"is_disabled":false,"rental_uris":{"android":"levelo://app?vid=5de5e604-6504-4a1a-966a-dc6c49a789b3","ios":"levelo://app?vid=5de5e604-6504-4a1a-966a-dc6c49a789b3"},"vehicle_type_id":"4","last_reported":1770193706,"current_range_meters":6000,"station_id":"ce4bgph2rcd13ifvqc2g","pricing_plan_id":"cebpf4jnsgd1na2vs0mg"},{"bike_id":"4f17a483-36fe-499f-8941-095013509c22","system_id":"levelo_inurba_marseille","lat":43.24657,"lon":5.38163,"is_reserved":false,"is_disabled":false,"rental_uris":{"android":"levelo://app?vid=4f17a483-36fe-499f-8941-095013509c22","ios":"levelo://app?vid=4f17a483-36fe-499f-8941-095013509c22"},"vehicle_type_id":"4","last_reported":1770193706,"current_range_meters":6000,"station_id":"ce4bhih2rcd13ifvqfr0","pricing_plan_id":"cebpf4jnsgd1na2vs0mg"},{"bike_id":"1b5a9ce0-a712-4e6e-83a1-5b3d08083ec7","system_id":"levelo_inurba_marseille","lat":43.23201,"lon":5.35545,"is_reserved":false,"is_disabled":false,"rental_uris":{"android":"levelo://app?vid=1b5a9ce0-a712-4e6e-83a1-5b3d08083ec7","ios":"levelo://app?vid=1b5a9ce0-a712-4e6e-83a1-5b3d08083ec7"},"vehicle_type_id":"4","last_reported":1770193706,"current_range_meters":6000,"station_id":"ce4bhu92rcd13ifvqi70","pricing_plan_id":"cebpf4jnsgd1na2vs0mg"},{"bike_id":"2e5ecc25-77a5-480b-9b59-990ada3aef80","system_id":"levelo_inurba_marseille","lat":43.3133,"lon":5.3671,"is_reserved":false,"is_disabled":false,"rental_uris":{"android":"levelo://app?vid=2e5ecc25-77a5-480b-9b59-990ada3aef80","ios":"levelo://app?vid=2e5ecc25-77a5-480b-9b59-990ada3aef80"},"vehicle_type_id":"4","last_reported":1770193706,"current_range_meters":6400,"station_id":"ce4bgr92rcd13ifvqc6g","pricing_plan_id":"cebpf4jnsgd1na2vs0mg"},{"bike_id":"5db40262-c973-4b13-b2a9-ee1639ccf6b3","system_id":"levelo_inurba_marseille","lat":43.24803,"lon":5.37463,"is_reserved":false,"is_disabled":false,"rental_uris":{"android":"levelo://app?vid=5db40262-c973-4b13-b2a9-ee1639ccf6b3","ios":"levelo://app?vid=5db40262-c973-4b13-b2a9-ee1639ccf6b3"},"vehicle_type_id":"4","last_reported":1770193706,"current_range_meters":6400,"station_id":"ce4bhgh2rcd13ifvqfb0","pricing_plan_id":"cebpf4jnsgd1na2vs0mg"},{"bike_id":"8e312380-e745-433d-90b9-ff07a309073d","system_id":"levelo_inurba_marseille","lat":43.24823,"lon":5.37476,"is_reserved":false,"is_disabled":false,"rental_uris":{"android":"levelo://app?vid=8e312380-e745-433d-90b9-ff07a309073d","ios":"levelo://app?vid=8e312380-e745-433d-90b9-ff07a309073d"},"vehicle_type_id":"4","last_reported":1770193706,"current_range_meters":6400,"station_id":"ce4bhgh2rcd13ifvqfb0","pricing_plan_id":"cebpf4jnsgd1na2vs0mg"},{"bike_id":"c056efdd-bfd4-4d90-a2c4-30f136ba140c","system_id":"levelo_inurba_marseille","lat":43.335083,"lon":5.374713,"is_reserved":false,"is_disabled":false,"rental_uris":{"android":"levelo://app?vid=c056efdd-bfd4-4d90-a2c4-30f136ba140c","ios":"levelo://app?vid=c056efdd-bfd4-4d90-a2c4-30f136ba140c"},"vehicle_type_id":"4","last_reported":1770193706,"current_range_meters":6400,"station_id":"","pricing_plan_id":"cebpf4jnsgd1na2vs0mg"},{"bike_id":"915fd5fa-5fe3-4cad-a6e1-25b318b68b82","system_id":"levelo_inurba_marseille","lat":43.30942,"lon":5.39041,"is_reserved":false,"is_disabled":false,"rental_uris":{"android":"levelo://app?vid=915fd5fa-5fe3-4cad-a6e1-25b318b68b82","ios":"levelo://app?vid=915fd5fa-5fe3-4cad-a6e1-25b318b68b82"},"vehicle_type_id":"4","last_reported":1770193706,"current_range_meters":6400,"station_id":"ce4bgup2rcd13ifvqco0","pricing_plan_id":"cebpf4jnsgd1na2vs0mg"},{"bike_id":"6cf7980d-7c13-449e-aff8-28269c169164","system_id":"levelo_inurba_marseille","lat":43.24152,"lon":5.3973,"is_reserved":false,"is_disabled":false,"rental_uris":{"android":"levelo://app?vid=6cf7980d-7c13-449e-aff8-28269c169164","ios":"levelo://app?vid=6cf7980d-7c13-449e-aff8-28269c169164"},"vehicle_type_id":"4","last_reported":1770193706,"current_range_meters":6400,"station_id":"ce4bhn12rcd13ifvqgpg","pricing_plan_id":"cebpf4jnsgd1na2vs0mg"},{"bike_id":"242256f5-f0bd-4204-9565-2087ceacdda5","system_id":"levelo_inurba_marseille","lat":43.2256,"lon":5.41625,"is_reserved":false,"is_disabled":false,"rental_uris":{"android":"levelo://app?vid=242256f5-f0bd-4204-9565-2087ceacdda5","ios":"levelo://app?vid=242256f5-f0bd-4204-9565-2087ceacdda5"},"vehicle_type_id":"4","last_reported":1770193706,"current_range_meters":6400,"station_id":"st_d2o4gvlbi1j2169b742g","pricing_plan_id":"cebpf4jnsgd1na2vs0mg"},{"bike_id":"ba3390f5-14ed-4160-abcf-8bea19885613","system_id":"levelo_inurba_marseille","lat":43.28468,"lon":5.48426,"is_reserved":false,"is_disabled":false,"rental_uris":{"android":"levelo://app?vid=ba3390f5-14ed-4160-abcf-8bea19885613","ios":"levelo://app?vid=ba3390f5-14ed-4160-abcf-8bea19885613"},"vehicle_type_id":"4","last_reported":1770193706,"current_range_meters":6400,"station_id":"st_d3svhcjqgbts73a3dn0g","pricing_plan_id":"cebpf4jnsgd1na2vs0mg"},{"bike_id":"8a572f97-bd4f-41ad-aafc-4182500530a4","system_id":"levelo_inurba_marseille","lat":43.29961,"lon":5.37728,"is_reserved":false,"is_disabled":false,"rental_uris":{"android":"levelo://app?vid=8a572f97-bd4f-41ad-aafc-4182500530a4","ios":"levelo://app?vid=8a572f97-bd4f-41ad-aafc-4182500530a4"},"vehicle_type_id":"4","last_reported":1770193706,"current_range_meters":6400,"station_id":"","pricing_plan_id":"cebpf4jnsgd1na2vs0mg"},{"bike_id":"852a0598-2717-496d-a13e-313bd41e7f62","system_id":"levelo_inurba_marseille","lat":43.28168,"lon":5.42633,"is_reserved":false,"is_disabled":false,"rental_uris":{"android":"levelo://app?vid=852a0598-2717-496d-a13e-313bd41e7f62","ios":"levelo://app?vid=852a0598-2717-496d-a13e-313bd41e7f62"},"vehicle_type_id":"4","last_reported":1770193706,"current_range_meters":6400,"station_id":"ce4bhnh2rcd13ifvqgug","pricing_plan_id":"cebpf4jnsgd1na2vs0mg"},{"bike_id":"30ca31b5-ccff-4679-8760-7ca90f0da37f","system_id":"levelo_inurba_marseille","lat":43.27187,"lon":5.39188,"is_reserved":false,"is_disabled":false,"rental_uris":{"android":"levelo://app?vid=30ca31b5-ccff-4679-8760-7ca90f0da37f","ios":"levelo://app?vid=30ca31b5-ccff-4679-8760-7ca90f0da37f"},"vehicle_type_id":"4","last_reported":1770193706,"current_range_meters":6400,"station_id":"ce4bhhp2rcd13ifvqfm0","pricing_plan_id":"cebpf4jnsgd1na2vs0mg"},{"bike_id":"a239aec5-b1d0-4fa0-baf3-82bbdaaacd0d","system_id":"levelo_inurba_marseille","lat":43.28477,"lon":5.38436,"is_reserved":false,"is_disabled":false,"rental_uris":{"android":"levelo://app?vid=a239aec5-b1d0-4fa0-baf3-82bbdaaacd0d","ios":"levelo://app?vid=a239aec5-b1d0-4fa0-baf3-82bbdaaacd0d"},"vehicle_type_id":"4","last_reported":1770193706,"current_range_meters":6400,"station_id":"ce4bh512rcd13ifvqe3g","pricing_plan_id":"cebpf4jnsgd1na2vs0mg"},{"bike_id":"215f9ed1-feb7-42e4-86fc-1e0b8283e1ac","system_id":"levelo_inurba_marseille","lat":43.28455,"lon":5.38457,"is_reserved":false,"is_disabled":false,"rental_uris":{"android":"levelo://app?vid=215f9ed1-feb7-42e4-86fc-1e0b8283e1ac","ios":"levelo://app?vid=215f9ed1-feb7-42e4-86fc-1e0b8283e1ac"},"vehicle_type_id":"4","last_reported":1770193706,"current_range_meters":6400,"station_id":"ce4bh512rcd13ifvqe3g","pricing_plan_id":"cebpf4jnsgd1na2vs0mg"},{"bike_id":"fdc74734-8708-4513-9519-5478f60a2254","system_id":"levelo_inurba_marseille","lat":43.248054,"lon":5.374846,"is_reserved":false,"is_disabled":false,"rental_uris":{"android":"levelo://app?vid=fdc74734-8708-4513-9519-5478f60a2254","ios":"levelo://app?vid=fdc74734-8708-4513-9519-5478f60a2254"},"vehicle_type_id":"4","last_reported":1770193706,"current_range_meters":6400,"station_id":"ce4bhgh2rcd13ifvqfb0","pricing_plan_id":"cebpf4jnsgd1na2vs0mg"},{"bike_id":"068098b6-2917-46c3-bbcd-2f4568f90c7b","system_id":"levelo_inurba_marseille","lat":43.28607,"lon":5.35138,"is_reserved":false,"is_disabled":false,"rental_uris":{"android":"levelo://app?vid=068098b6-2917-46c3-bbcd-2f4568f90c7b","ios":"levelo://app?vid=068098b6-2917-46c3-bbcd-2f4568f90c7b"},"vehicle_type_id":"4","last_reported":1770193706,"current_range_meters":6400,"station_id":"","pricing_plan_id":"cebpf4jnsgd1na2vs0mg"},{"bike_id":"03957cd6-ee2d-47d1-948d-c3da3284d226","system_id":"levelo_inurba_marseille","lat":43.28913,"lon":5.36358,"is_reserved":false,"is_disabled":false,"rental_uris":{"android":"levelo://app?vid=03957cd6-ee2d-47d1-948d-c3da3284d226","ios":"levelo://app?vid=03957cd6-ee2d-47d1-948d-c3da3284d226"},"vehicle_type_id":"4","last_reported":1770193706,"current_range_meters":6400,"station_id":"ce4bhc92rcd13ifvqetg","pricing_plan_id":"cebpf4jnsgd1na2vs0mg"},{"bike_id":"a1d40264-31fa-4368-a92c-3f50c8a64b96","system_id":"levelo_inurba_marseille","lat":43.23149,"lon":5.43724,"is_reserved":false,"is_disabled":false,"rental_uris":{"android":"levelo://app?vid=a1d40264-31fa-4368-a92c-3f50c8a64b96","ios":"levelo://app?vid=a1d40264-31fa-4368-a92c-3f50c8a64b96"},"vehicle_type_id":"4","last_reported":1770193706,"current_range_meters":6400,"station_id":"ce4bhmp2rcd13ifvqgog","pricing_plan_id":"cebpf4jnsgd1na2vs0mg"},{"bike_id":"a9386bbe-0740-4fa0-9c8f-b04369123796","system_id":"levelo_inurba_marseille","lat":43.2904,"lon":5.39973,"is_reserved":false,"is_disabled":false,"rental_uris":{"android":"levelo://app?vid=a9386bbe-0740-4fa0-9c8f-b04369123796","ios":"levelo://app?vid=a9386bbe-0740-4fa0-9c8f-b04369123796"},"vehicle_type_id":"4","last_reported":1770193706,"current_range_meters":6400,"station_id":"ce4bh392rcd13ifvqdm0","pricing_plan_id":"cebpf4jnsgd1na2vs0mg"},{"bike_id":"d863964b-1765-40d1-8b0c-d4f383cfb831","system_id":"levelo_inurba_marseille","lat":43.29936,"lon":5.3657,"is_reserved":false,"is_disabled":false,"rental_uris":{"android":"levelo://app?vid=d863964b-1765-40d1-8b0c-d4f383cfb831","ios":"levelo://app?vid=d863964b-1765-40d1-8b0c-d4f383cfb831"},"vehicle_type_id":"4","last_reported":1770193706,"current_range_meters":6400,"station_id":"ce4bgm92rcd13ifvqbr0","pricing_plan_id":"cebpf4jnsgd1na2vs0mg"},{"bike_id":"ccad5bb8-727e-4e27-b0cc-7b2f496ea109","system_id":"levelo_inurba_marseille","lat":43.29548,"lon":5.42283,"is_reserved":false,"is_disabled":false,"rental_uris":{"android":"levelo://app?vid=ccad5bb8-727e-4e27-b0cc-7b2f496ea109","ios":"levelo://app?vid=ccad5bb8-727e-4e27-b0cc-7b2f496ea109"},"vehicle_type_id":"4","last_reported":1770193706,"current_range_meters":6400,"station_id":"ce4bhph2rcd13ifvqhdg","pricing_plan_id":"cebpf4jnsgd1na2vs0mg"},{"bike_id":"93f4d712-ad08-479a-b0bf-bd98e32fd86e","system_id":"levelo_inurba_marseille","lat":43.30259,"lon":5.37181,"is_reserved":false,"is_disabled":false,"rental_uris":{"android":"levelo://app?vid=93f4d712-ad08-479a-b0bf-bd98e32fd86e","ios":"levelo://app?vid=93f4d712-ad08-479a-b0bf-bd98e32fd86e"},"vehicle_type_id":"4","last_reported":1770193706,"current_range_meters":6800,"station_id":"ce4bgs12rcd13ifvqcag","pricing_plan_id":"cebpf4jnsgd1na2vs0mg"},{"bike_id":"a8958dc7-b390-4d2c-8f23-2c2a741bf8a8","system_id":"levelo_inurba_marseille","lat":43.30911,"lon":5.36856,"is_reserved":false,"is_disabled":false,"rental_uris":{"android":"levelo://app?vid=a8958dc7-b390-4d2c-8f23-2c2a741bf8a8","ios":"levelo://app?vid=a8958dc7-b390-4d2c-8f23-2c2a741bf8a8"},"vehicle_type_id":"4","last_reported":1770193706,"current_range_meters":6800,"station_id":"ce4bgn92rcd13ifvqbvg","pricing_plan_id":"cebpf4jnsgd1na2vs0mg"},{"bike_id":"20844608-b7c6-42fb-b339-e7ad95983205","system_id":"levelo_inurba_marseille","lat":43.32479,"lon":5.36563,"is_reserved":false,"is_disabled":false,"rental_uris":{"android":"levelo://app?vid=20844608-b7c6-42fb-b339-e7ad95983205","ios":"levelo://app?vid=20844608-b7c6-42fb-b339-e7ad95983205"},"vehicle_type_id":"4","last_reported":1770193706,"current_range_meters":6800,"station_id":"ce4bhs12rcd13ifvqhvg","pricing_plan_id":"cebpf4jnsgd1na2vs0mg"},{"bike_id":"25ed47fc-271f-4de7-a2a6-6e589391bb92","system_id":"levelo_inurba_marseille","lat":43.2841,"lon":5.34991,"is_reserved":false,"is_disabled":false,"rental_uris":{"android":"levelo://app?vid=25ed47fc-271f-4de7-a2a6-6e589391bb92","ios":"levelo://app?vid=25ed47fc-271f-4de7-a2a6-6e589391bb92"},"vehicle_type_id":"4","last_reported":1770193706,"current_range_meters":6800,"station_id":"ce4bhbh2rcd13ifvqepg","pricing_plan_id":"cebpf4jnsgd1na2vs0mg"},{"bike_id":"80c5c1e5-0deb-4e52-96ef-e06efff7a970","system_id":"levelo_inurba_marseille","lat":43.28355,"lon":5.38639,"is_reserved":false,"is_disabled":false,"rental_uris":{"android":"levelo://app?vid=80c5c1e5-0deb-4e52-96ef-e06efff7a970","ios":"levelo://app?vid=80c5c1e5-0deb-4e52-96ef-e06efff7a970"},"vehicle_type_id":"4","last_reported":1770193706,"current_range_meters":6800,"station_id":"ce4bh492rcd13ifvqdvg","pricing_plan_id":"cebpf4jnsgd1na2vs0mg"},{"bike_id":"9d79ec10-3ed1-4035-8609-ff591e4f54d3","system_id":"levelo_inurba_marseille","lat":43.25565,"lon":5.38235,"is_reserved":false,"is_disabled":false,"rental_uris":{"android":"levelo://app?vid=9d79ec10-3ed1-4035-8609-ff591e4f54d3","ios":"levelo://app?vid=9d79ec10-3ed1-4035-8609-ff591e4f54d3"},"vehicle_type_id":"4","last_reported":1770193706,"current_range_meters":6800,"station_id":"ce4bhih2rcd13ifvqfs0","pricing_plan_id":"cebpf4jnsgd1na2vs0mg"},{"bike_id":"34dbfd91-7625-4bc5-9a5c-870b71f42353","system_id":"levelo_inurba_marseille","lat":43.26659,"lon":5.38302,"is_reserved":false,"is_disabled":false,"rental_uris":{"android":"levelo://app?vid=34dbfd91-7625-4bc5-9a5c-870b71f42353","ios":"levelo://app?vid=34dbfd91-7625-4bc5-9a5c-870b71f42353"},"vehicle_type_id":"4","last_reported":1770193706,"current_range_meters":6800,"station_id":"ce4bhg92rcd13ifvqf90","pricing_plan_id":"cebpf4jnsgd1na2vs0mg"},{"bike_id":"30018880-defb-4e1d-b4b9-524f673acfb8","system_id":"levelo_inurba_marseille","lat":43.29725,"lon":5.42799,"is_reserved":false,"is_disabled":false,"rental_uris":{"android":"levelo://app?vid=30018880-defb-4e1d-b4b9-524f673acfb8","ios":"levelo://app?vid=30018880-defb-4e1d-b4b9-524f673acfb8"},"vehicle_type_id":"4","last_reported":1770193706,"current_range_meters":6800,"station_id":"st_d3md5207bmas73dh9klg","pricing_plan_id":"cebpf4jnsgd1na2vs0mg"},{"bike_id":"c214f81c-e58b-4475-ad7c-a9d63d7d79c5","system_id":"levelo_inurba_marseille","lat":43.295476,"lon":5.422894,"is_reserved":false,"is_disabled":false,"rental_uris":{"android":"levelo://app?vid=c214f81c-e58b-4475-ad7c-a9d63d7d79c5","ios":"levelo://app?vid=c214f81c-e58b-4475-ad7c-a9d63d7d79c5"},"vehicle_type_id":"4","last_reported":1770193706,"current_range_meters":6800,"station_id":"ce4bhph2rcd13ifvqhdg","pricing_plan_id":"cebpf4jnsgd1na2vs0mg"},{"bike_id":"8a7ed808-2d92-4b49-96ff-a9c10adf7ea6","system_id":"levelo_inurba_marseille","lat":43.28961,"lon":5.37835,"is_reserved":false,"is_disabled":false,"rental_uris":{"android":"levelo://app?vid=8a7ed808-2d92-4b49-96ff-a9c10adf7ea6","ios":"levelo://app?vid=8a7ed808-2d92-4b49-96ff-a9c10adf7ea6"},"vehicle_type_id":"4","last_reported":1770193706,"current_range_meters":6800,"station_id":"ce4bh9p2rcd13ifvqed0","pricing_plan_id":"cebpf4jnsgd1na2vs0mg"},{"bike_id":"98562cff-03b7-41eb-95b5-2cddc20592ab","system_id":"levelo_inurba_marseille","lat":43.27309,"lon":5.39071,"is_reserved":false,"is_disabled":false,"rental_uris":{"android":"levelo://app?vid=98562cff-03b7-41eb-95b5-2cddc20592ab","ios":"levelo://app?vid=98562cff-03b7-41eb-95b5-2cddc20592ab"},"vehicle_type_id":"4","last_reported":1770193706,"current_range_meters":6800,"station_id":"ce4bhgp2rcd13ifvqfe0","pricing_plan_id":"cebpf4jnsgd1na2vs0mg"},{"bike_id":"a8c22487-8662-4b4c-ad3e-edccba99e631","system_id":"levelo_inurba_marseille","lat":43.31353,"lon":5.385,"is_reserved":false,"is_disabled":false,"rental_uris":{"android":"levelo://app?vid=a8c22487-8662-4b4c-ad3e-edccba99e631","ios":"levelo://app?vid=a8c22487-8662-4b4c-ad3e-edccba99e631"},"vehicle_type_id":"4","last_reported":1770193706,"current_range_meters":6800,"station_id":"ce4bgt92rcd13ifvqcf0","pricing_plan_id":"cebpf4jnsgd1na2vs0mg"},{"bike_id":"6af9c093-c8f8-4e82-9b76-84ead01f4f13","system_id":"levelo_inurba_marseille","lat":43.26556,"lon":5.40329,"is_reserved":false,"is_disabled":false,"rental_uris":{"android":"levelo://app?vid=6af9c093-c8f8-4e82-9b76-84ead01f4f13","ios":"levelo://app?vid=6af9c093-c8f8-4e82-9b76-84ead01f4f13"},"vehicle_type_id":"4","last_reported":1770193706,"current_range_meters":6800,"station_id":"ce4bhmp2rcd13ifvqgng","pricing_plan_id":"cebpf4jnsgd1na2vs0mg"},{"bike_id":"efea85db-b1c8-46f7-b3e0-9fa246910aa6","system_id":"levelo_inurba_marseille","lat":43.23191,"lon":5.39991,"is_reserved":false,"is_disabled":false,"rental_uris":{"android":"levelo://app?vid=efea85db-b1c8-46f7-b3e0-9fa246910aa6","ios":"levelo://app?vid=efea85db-b1c8-46f7-b3e0-9fa246910aa6"},"vehicle_type_id":"4","last_reported":1770193706,"current_range_meters":6800,"station_id":"ce4bhn12rcd13ifvqgqg","pricing_plan_id":"cebpf4jnsgd1na2vs0mg"},{"bike_id":"ad450168-32bc-48e5-981d-10198d96911f","system_id":"levelo_inurba_marseille","lat":43.24157,"lon":5.36415,"is_reserved":false,"is_disabled":false,"rental_uris":{"android":"levelo://app?vid=ad450168-32bc-48e5-981d-10198d96911f","ios":"levelo://app?vid=ad450168-32bc-48e5-981d-10198d96911f"},"vehicle_type_id":"4","last_reported":1770193706,"current_range_meters":6800,"station_id":"cpo36qri1sfpv3e86is0","pricing_plan_id":"cebpf4jnsgd1na2vs0mg"},{"bike_id":"56b3435b-d516-4689-87c0-17b5ceea7f25","system_id":"levelo_inurba_marseille","lat":43.26681,"lon":5.38275,"is_reserved":false,"is_disabled":false,"rental_uris":{"android":"levelo://app?vid=56b3435b-d516-4689-87c0-17b5ceea7f25","ios":"levelo://app?vid=56b3435b-d516-4689-87c0-17b5ceea7f25"},"vehicle_type_id":"4","last_reported":1770193706,"current_range_meters":6800,"station_id":"ce4bhg92rcd13ifvqf90","pricing_plan_id":"cebpf4jnsgd1na2vs0mg"},{"bike_id":"d5d98457-3377-411c-bbd5-111f6add1380","system_id":"levelo_inurba_marseille","lat":43.25891,"lon":5.39427,"is_reserved":false,"is_disabled":false,"rental_uris":{"android":"levelo://app?vid=d5d98457-3377-411c-bbd5-111f6add1380","ios":"levelo://app?vid=d5d98457-3377-411c-bbd5-111f6add1380"},"vehicle_type_id":"4","last_reported":1770193706,"current_range_meters":6800,"station_id":"","pricing_plan_id":"cebpf4jnsgd1na2vs0mg"},{"bike_id":"ad642eab-78f1-44aa-bee3-f407850c08dc","system_id":"levelo_inurba_marseille","lat":43.24945,"lon":5.40505,"is_reserved":false,"is_disabled":true,"rental_uris":{"android":"levelo://app?vid=ad642eab-78f1-44aa-bee3-f407850c08dc","ios":"levelo://app?vid=ad642eab-78f1-44aa-bee3-f407850c08dc"},"vehicle_type_id":"4","last_reported":1770193706,"current_range_meters":6800,"station_id":"st_d2ngiaodas8pm72gd1h0","pricing_plan_id":"cebpf4jnsgd1na2vs0mg"},{"bike_id":"c269eff6-7414-4fb8-b35a-8132e5c63b79","system_id":"levelo_inurba_marseille","lat":43.25005,"lon":5.38941,"is_reserved":false,"is_disabled":false,"rental_uris":{"android":"levelo://app?vid=c269eff6-7414-4fb8-b35a-8132e5c63b79","ios":"levelo://app?vid=c269eff6-7414-4fb8-b35a-8132e5c63b79"},"vehicle_type_id":"4","last_reported":1770193706,"current_range_meters":6800,"station_id":"ce4bhgp2rcd13ifvqfd0","pricing_plan_id":"cebpf4jnsgd1na2vs0mg"},{"bike_id":"988afa8e-d306-4003-baf9-728102144f56","system_id":"levelo_inurba_marseille","lat":43.2676,"lon":5.38304,"is_reserved":false,"is_disabled":false,"rental_uris":{"android":"levelo://app?vid=988afa8e-d306-4003-baf9-728102144f56","ios":"levelo://app?vid=988afa8e-d306-4003-baf9-728102144f56"},"vehicle_type_id":"4","last_reported":1770193706,"current_range_meters":7200,"station_id":"","pricing_plan_id":"cebpf4jnsgd1na2vs0mg"},{"bike_id":"e306f84e-f4a5-4da5-b221-959aa771268b","system_id":"levelo_inurba_marseille","lat":43.24071,"lon":5.37773,"is_reserved":false,"is_disabled":false,"rental_uris":{"android":"levelo://app?vid=e306f84e-f4a5-4da5-b221-959aa771268b","ios":"levelo://app?vid=e306f84e-f4a5-4da5-b221-959aa771268b"},"vehicle_type_id":"4","last_reported":1770193706,"current_range_meters":7200,"station_id":"ce4bhnp2rcd13ifvqgvg","pricing_plan_id":"cebpf4jnsgd1na2vs0mg"},{"bike_id":"1a0c4790-88aa-43f7-ad73-1d79fcd05302","system_id":"levelo_inurba_marseille","lat":43.26413,"lon":5.39051,"is_reserved":false,"is_disabled":false,"rental_uris":{"android":"levelo://app?vid=1a0c4790-88aa-43f7-ad73-1d79fcd05302","ios":"levelo://app?vid=1a0c4790-88aa-43f7-ad73-1d79fcd05302"},"vehicle_type_id":"4","last_reported":1770193706,"current_range_meters":7200,"station_id":"","pricing_plan_id":"cebpf4jnsgd1na2vs0mg"},{"bike_id":"30a564fc-cc84-4416-a8a0-217a2d812352","system_id":"levelo_inurba_marseille","lat":43.31694,"lon":5.40478,"is_reserved":false,"is_disabled":false,"rental_uris":{"android":"levelo://app?vid=30a564fc-cc84-4416-a8a0-217a2d812352","ios":"levelo://app?vid=30a564fc-cc84-4416-a8a0-217a2d812352"},"vehicle_type_id":"4","last_reported":1770193706,"current_range_meters":7200,"station_id":"ce4bh012rcd13ifvqd00","pricing_plan_id":"cebpf4jnsgd1na2vs0mg"},{"bike_id":"27564bb8-8c67-4d18-99b7-c66ee6be23fd","system_id":"levelo_inurba_marseille","lat":43.28414,"lon":5.3498,"is_reserved":false,"is_disabled":false,"rental_uris":{"android":"levelo://app?vid=27564bb8-8c67-4d18-99b7-c66ee6be23fd","ios":"levelo://app?vid=27564bb8-8c67-4d18-99b7-c66ee6be23fd"},"vehicle_type_id":"4","last_reported":1770193706,"current_range_meters":7200,"station_id":"ce4bhbh2rcd13ifvqepg","pricing_plan_id":"cebpf4jnsgd1na2vs0mg"},{"bike_id":"e504a10e-dfbb-434c-bf80-2f2a7f20847e","system_id":"levelo_inurba_marseille","lat":43.30141,"lon":5.37422,"is_reserved":false,"is_disabled":false,"rental_uris":{"android":"levelo://app?vid=e504a10e-dfbb-434c-bf80-2f2a7f20847e","ios":"levelo://app?vid=e504a10e-dfbb-434c-bf80-2f2a7f20847e"},"vehicle_type_id":"4","last_reported":1770193706,"current_range_meters":7200,"station_id":"ce4bgs92rcd13ifvqcc0","pricing_plan_id":"cebpf4jnsgd1na2vs0mg"},{"bike_id":"9a41c992-8ec6-4c5f-9787-da9fbb815a48","system_id":"levelo_inurba_marseille","lat":43.25564,"lon":5.38243,"is_reserved":false,"is_disabled":false,"rental_uris":{"android":"levelo://app?vid=9a41c992-8ec6-4c5f-9787-da9fbb815a48","ios":"levelo://app?vid=9a41c992-8ec6-4c5f-9787-da9fbb815a48"},"vehicle_type_id":"4","last_reported":1770193706,"current_range_meters":7200,"station_id":"ce4bhih2rcd13ifvqfs0","pricing_plan_id":"cebpf4jnsgd1na2vs0mg"},{"bike_id":"9b56e182-4134-4f9f-b48f-caf7dd28724d","system_id":"levelo_inurba_marseille","lat":43.28533,"lon":5.44098,"is_reserved":false,"is_disabled":false,"rental_uris":{"android":"levelo://app?vid=9b56e182-4134-4f9f-b48f-caf7dd28724d","ios":"levelo://app?vid=9b56e182-4134-4f9f-b48f-caf7dd28724d"},"vehicle_type_id":"4","last_reported":1770193706,"current_range_meters":7200,"station_id":"st_d3j3df2ikq2c7380ej80","pricing_plan_id":"cebpf4jnsgd1na2vs0mg"},{"bike_id":"7b2df10f-d97d-4068-9983-8f53d0a78517","system_id":"levelo_inurba_marseille","lat":43.28864,"lon":5.425336,"is_reserved":false,"is_disabled":false,"rental_uris":{"android":"levelo://app?vid=7b2df10f-d97d-4068-9983-8f53d0a78517","ios":"levelo://app?vid=7b2df10f-d97d-4068-9983-8f53d0a78517"},"vehicle_type_id":"4","last_reported":1770193706,"current_range_meters":7200,"station_id":"st_d3b462108ojc7389ooeg","pricing_plan_id":"cebpf4jnsgd1na2vs0mg"},{"bike_id":"b4959117-dde4-4349-ae80-78726090a6a9","system_id":"levelo_inurba_marseille","lat":43.28839,"lon":5.35846,"is_reserved":false,"is_disabled":false,"rental_uris":{"android":"levelo://app?vid=b4959117-dde4-4349-ae80-78726090a6a9","ios":"levelo://app?vid=b4959117-dde4-4349-ae80-78726090a6a9"},"vehicle_type_id":"4","last_reported":1770193706,"current_range_meters":7200,"station_id":"ce4bhb12rcd13ifvqem0","pricing_plan_id":"cebpf4jnsgd1na2vs0mg"},{"bike_id":"500ab673-271e-4489-a524-41be470207f8","system_id":"levelo_inurba_marseille","lat":43.28151,"lon":5.42648,"is_reserved":false,"is_disabled":false,"rental_uris":{"android":"levelo://app?vid=500ab673-271e-4489-a524-41be470207f8","ios":"levelo://app?vid=500ab673-271e-4489-a524-41be470207f8"},"vehicle_type_id":"4","last_reported":1770193706,"current_range_meters":7200,"station_id":"ce4bhnh2rcd13ifvqgug","pricing_plan_id":"cebpf4jnsgd1na2vs0mg"},{"bike_id":"8fb4838b-c5bd-4cb2-8c92-fceeea48a889","system_id":"levelo_inurba_marseille","lat":43.29544,"lon":5.42269,"is_reserved":false,"is_disabled":false,"rental_uris":{"android":"levelo://app?vid=8fb4838b-c5bd-4cb2-8c92-fceeea48a889","ios":"levelo://app?vid=8fb4838b-c5bd-4cb2-8c92-fceeea48a889"},"vehicle_type_id":"4","last_reported":1770193706,"current_range_meters":7200,"station_id":"ce4bhph2rcd13ifvqhdg","pricing_plan_id":"cebpf4jnsgd1na2vs0mg"},{"bike_id":"39245ff5-4674-4696-b5c8-fec0bb786416","system_id":"levelo_inurba_marseille","lat":43.301392,"lon":5.387761,"is_reserved":false,"is_disabled":false,"rental_uris":{"android":"levelo://app?vid=39245ff5-4674-4696-b5c8-fec0bb786416","ios":"levelo://app?vid=39245ff5-4674-4696-b5c8-fec0bb786416"},"vehicle_type_id":"4","last_reported":1770193706,"current_range_meters":7200,"station_id":"ce4bghh2rcd13ifvqb60","pricing_plan_id":"cebpf4jnsgd1na2vs0mg"},{"bike_id":"04ab4868-a773-4da8-b9a9-f5fedd6e47ae","system_id":"levelo_inurba_marseille","lat":43.25713,"lon":5.41098,"is_reserved":false,"is_disabled":false,"rental_uris":{"android":"levelo://app?vid=04ab4868-a773-4da8-b9a9-f5fedd6e47ae","ios":"levelo://app?vid=04ab4868-a773-4da8-b9a9-f5fedd6e47ae"},"vehicle_type_id":"4","last_reported":1770193706,"current_range_meters":7200,"station_id":"ce4bhkp2rcd13ifvqgd0","pricing_plan_id":"cebpf4jnsgd1na2vs0mg"},{"bike_id":"ef4aafd7-31d8-4f9b-97f1-b8af2e53c15d","system_id":"levelo_inurba_marseille","lat":43.29895,"lon":5.43659,"is_reserved":false,"is_disabled":false,"rental_uris":{"android":"levelo://app?vid=ef4aafd7-31d8-4f9b-97f1-b8af2e53c15d","ios":"levelo://app?vid=ef4aafd7-31d8-4f9b-97f1-b8af2e53c15d"},"vehicle_type_id":"4","last_reported":1770193706,"current_range_meters":7200,"station_id":"ce4bhpp2rcd13ifvqhfg","pricing_plan_id":"cebpf4jnsgd1na2vs0mg"},{"bike_id":"9fee1825-5d1d-48ff-9e11-f29a25ff0bb3","system_id":"levelo_inurba_marseille","lat":43.24382,"lon":5.37065,"is_reserved":false,"is_disabled":false,"rental_uris":{"android":"levelo://app?vid=9fee1825-5d1d-48ff-9e11-f29a25ff0bb3","ios":"levelo://app?vid=9fee1825-5d1d-48ff-9e11-f29a25ff0bb3"},"vehicle_type_id":"4","last_reported":1770193706,"current_range_meters":7200,"station_id":"ce4bhhh2rcd13ifvqfk0","pricing_plan_id":"cebpf4jnsgd1na2vs0mg"},{"bike_id":"f57600aa-3553-4c5b-8eb9-2131032f6811","system_id":"levelo_inurba_marseille","lat":43.28215,"lon":5.39054,"is_reserved":false,"is_disabled":true,"rental_uris":{"android":"levelo://app?vid=f57600aa-3553-4c5b-8eb9-2131032f6811","ios":"levelo://app?vid=f57600aa-3553-4c5b-8eb9-2131032f6811"},"vehicle_type_id":"4","last_reported":1770193706,"current_range_meters":7200,"station_id":"ce4bhn92rcd13ifvqgsg","pricing_plan_id":"cebpf4jnsgd1na2vs0mg"},{"bike_id":"73b6626a-125d-4b63-8d66-3e6a9851d390","system_id":"levelo_inurba_marseille","lat":43.22563,"lon":5.41631,"is_reserved":false,"is_disabled":false,"rental_uris":{"android":"levelo://app?vid=73b6626a-125d-4b63-8d66-3e6a9851d390","ios":"levelo://app?vid=73b6626a-125d-4b63-8d66-3e6a9851d390"},"vehicle_type_id":"4","last_reported":1770193706,"current_range_meters":8000,"station_id":"st_d2o4gvlbi1j2169b742g","pricing_plan_id":"cebpf4jnsgd1na2vs0mg"},{"bike_id":"3c99789b-6c82-4ce6-99da-375aef3d9931","system_id":"levelo_inurba_marseille","lat":43.326493,"lon":5.409861,"is_reserved":false,"is_disabled":false,"rental_uris":{"android":"levelo://app?vid=3c99789b-6c82-4ce6-99da-375aef3d9931","ios":"levelo://app?vid=3c99789b-6c82-4ce6-99da-375aef3d9931"},"vehicle_type_id":"4","last_reported":1770193706,"current_range_meters":8000,"station_id":"ce4bhpp2rcd13ifvqhgg","pricing_plan_id":"cebpf4jnsgd1na2vs0mg"},{"bike_id":"70b3dc86-1275-4cdc-95c3-259fe5013283","system_id":"levelo_inurba_marseille","lat":43.2928,"lon":5.37998,"is_reserved":false,"is_disabled":false,"rental_uris":{"android":"levelo://app?vid=70b3dc86-1275-4cdc-95c3-259fe5013283","ios":"levelo://app?vid=70b3dc86-1275-4cdc-95c3-259fe5013283"},"vehicle_type_id":"4","last_reported":1770193706,"current_range_meters":8000,"station_id":"","pricing_plan_id":"cebpf4jnsgd1na2vs0mg"},{"bike_id":"1b876b25-6b22-4962-82d4-862e433d9f63","system_id":"levelo_inurba_marseille","lat":43.2868,"lon":5.38668,"is_reserved":false,"is_disabled":true,"rental_uris":{"android":"levelo://app?vid=1b876b25-6b22-4962-82d4-862e433d9f63","ios":"levelo://app?vid=1b876b25-6b22-4962-82d4-862e433d9f63"},"vehicle_type_id":"4","last_reported":1770193706,"current_range_meters":8000,"station_id":"ce4bh492rcd13ifvqdug","pricing_plan_id":"cebpf4jnsgd1na2vs0mg"},{"bike_id":"28f91888-5dde-48c4-9aa1-857f2a55c71e","system_id":"levelo_inurba_marseille","lat":43.311495,"lon":5.387339,"is_reserved":false,"is_disabled":false,"rental_uris":{"android":"levelo://app?vid=28f91888-5dde-48c4-9aa1-857f2a55c71e","ios":"levelo://app?vid=28f91888-5dde-48c4-9aa1-857f2a55c71e"},"vehicle_type_id":"4","last_reported":1770193706,"current_range_meters":8000,"station_id":"ce4bgv12rcd13ifvqcp0","pricing_plan_id":"cebpf4jnsgd1na2vs0mg"},{"bike_id":"37ba77f1-409b-4871-8aef-ef236c9cb603","system_id":"levelo_inurba_marseille","lat":43.32083,"lon":5.36791,"is_reserved":false,"is_disabled":false,"rental_uris":{"android":"levelo://app?vid=37ba77f1-409b-4871-8aef-ef236c9cb603","ios":"levelo://app?vid=37ba77f1-409b-4871-8aef-ef236c9cb603"},"vehicle_type_id":"4","last_reported":1770193706,"current_range_meters":8000,"station_id":"ce4bhrh2rcd13ifvqhug","pricing_plan_id":"cebpf4jnsgd1na2vs0mg"},{"bike_id":"ceccb5f8-d8b6-4fa1-af3d-94eb1cee5d93","system_id":"levelo_inurba_marseille","lat":43.246592,"lon":5.381653,"is_reserved":false,"is_disabled":false,"rental_uris":{"android":"levelo://app?vid=ceccb5f8-d8b6-4fa1-af3d-94eb1cee5d93","ios":"levelo://app?vid=ceccb5f8-d8b6-4fa1-af3d-94eb1cee5d93"},"vehicle_type_id":"4","last_reported":1770193706,"current_range_meters":8000,"station_id":"ce4bhih2rcd13ifvqfr0","pricing_plan_id":"cebpf4jnsgd1na2vs0mg"},{"bike_id":"dbeef5c7-4028-4d99-a76c-21cebff9483e","system_id":"levelo_inurba_marseille","lat":43.33551,"lon":5.37474,"is_reserved":false,"is_disabled":false,"rental_uris":{"android":"levelo://app?vid=dbeef5c7-4028-4d99-a76c-21cebff9483e","ios":"levelo://app?vid=dbeef5c7-4028-4d99-a76c-21cebff9483e"},"vehicle_type_id":"4","last_reported":1770193706,"current_range_meters":8000,"station_id":"st_d46tts09ee8s73dlu43g","pricing_plan_id":"cebpf4jnsgd1na2vs0mg"},{"bike_id":"b420895b-0efa-4e27-b05b-8564aace2dfd","system_id":"levelo_inurba_marseille","lat":43.28606,"lon":5.35113,"is_reserved":false,"is_disabled":false,"rental_uris":{"android":"levelo://app?vid=b420895b-0efa-4e27-b05b-8564aace2dfd","ios":"levelo://app?vid=b420895b-0efa-4e27-b05b-8564aace2dfd"},"vehicle_type_id":"4","last_reported":1770193706,"current_range_meters":8000,"station_id":"ce4bhch2rcd13ifvqeug","pricing_plan_id":"cebpf4jnsgd1na2vs0mg"},{"bike_id":"97259061-f08f-497c-ad93-5a24dc67386d","system_id":"levelo_inurba_marseille","lat":43.29932,"lon":5.36559,"is_reserved":false,"is_disabled":false,"rental_uris":{"android":"levelo://app?vid=97259061-f08f-497c-ad93-5a24dc67386d","ios":"levelo://app?vid=97259061-f08f-497c-ad93-5a24dc67386d"},"vehicle_type_id":"4","last_reported":1770193706,"current_range_meters":8000,"station_id":"ce4bgm92rcd13ifvqbr0","pricing_plan_id":"cebpf4jnsgd1na2vs0mg"},{"bike_id":"b4cfbf57-a93e-425f-a941-524ddb09395b","system_id":"levelo_inurba_marseille","lat":43.240752,"lon":5.377545,"is_reserved":false,"is_disabled":false,"rental_uris":{"android":"levelo://app?vid=b4cfbf57-a93e-425f-a941-524ddb09395b","ios":"levelo://app?vid=b4cfbf57-a93e-425f-a941-524ddb09395b"},"vehicle_type_id":"4","last_reported":1770193706,"current_range_meters":8000,"station_id":"ce4bhnp2rcd13ifvqgvg","pricing_plan_id":"cebpf4jnsgd1na2vs0mg"},{"bike_id":"896abb6d-730f-4936-89dd-69c91d64aca6","system_id":"levelo_inurba_marseille","lat":43.29541,"lon":5.37525,"is_reserved":false,"is_disabled":false,"rental_uris":{"android":"levelo://app?vid=896abb6d-730f-4936-89dd-69c91d64aca6","ios":"levelo://app?vid=896abb6d-730f-4936-89dd-69c91d64aca6"},"vehicle_type_id":"4","last_reported":1770193706,"current_range_meters":8000,"station_id":"ce4bgkp2rcd13ifvqbmg","pricing_plan_id":"cebpf4jnsgd1na2vs0mg"},{"bike_id":"1ddd8646-25ce-4a23-bebd-ffa64b7ebd8c","system_id":"levelo_inurba_marseille","lat":43.2893,"lon":5.39618,"is_reserved":false,"is_disabled":false,"rental_uris":{"android":"levelo://app?vid=1ddd8646-25ce-4a23-bebd-ffa64b7ebd8c","ios":"levelo://app?vid=1ddd8646-25ce-4a23-bebd-ffa64b7ebd8c"},"vehicle_type_id":"4","last_reported":1770193706,"current_range_meters":8000,"station_id":"ce4bh3h2rcd13ifvqdn0","pricing_plan_id":"cebpf4jnsgd1na2vs0mg"},{"bike_id":"3e5887c0-fa1d-4fbc-90fe-a5d260d18a33","system_id":"levelo_inurba_marseille","lat":43.23398,"lon":5.41277,"is_reserved":false,"is_disabled":false,"rental_uris":{"android":"levelo://app?vid=3e5887c0-fa1d-4fbc-90fe-a5d260d18a33","ios":"levelo://app?vid=3e5887c0-fa1d-4fbc-90fe-a5d260d18a33"},"vehicle_type_id":"4","last_reported":1770193706,"current_range_meters":8000,"station_id":"","pricing_plan_id":"cebpf4jnsgd1na2vs0mg"},{"bike_id":"5ffc162c-3876-4a49-af02-3661f44effbb","system_id":"levelo_inurba_marseille","lat":43.28468,"lon":5.48423,"is_reserved":false,"is_disabled":false,"rental_uris":{"android":"levelo://app?vid=5ffc162c-3876-4a49-af02-3661f44effbb","ios":"levelo://app?vid=5ffc162c-3876-4a49-af02-3661f44effbb"},"vehicle_type_id":"4","last_reported":1770193706,"current_range_meters":8000,"station_id":"st_d3svhcjqgbts73a3dn0g","pricing_plan_id":"cebpf4jnsgd1na2vs0mg"},{"bike_id":"f890db43-c1be-4833-88b0-aced3b1ddb1a","system_id":"levelo_inurba_marseille","lat":43.30451,"lon":5.37925,"is_reserved":false,"is_disabled":false,"rental_uris":{"android":"levelo://app?vid=f890db43-c1be-4833-88b0-aced3b1ddb1a","ios":"levelo://app?vid=f890db43-c1be-4833-88b0-aced3b1ddb1a"},"vehicle_type_id":"4","last_reported":1770193706,"current_range_meters":8000,"station_id":"ce4bgup2rcd13ifvqcn0","pricing_plan_id":"cebpf4jnsgd1na2vs0mg"},{"bike_id":"6be43c1f-db2c-43c9-a648-234cc72c5193","system_id":"levelo_inurba_marseille","lat":43.31498,"lon":5.40675,"is_reserved":false,"is_disabled":false,"rental_uris":{"android":"levelo://app?vid=6be43c1f-db2c-43c9-a648-234cc72c5193","ios":"levelo://app?vid=6be43c1f-db2c-43c9-a648-234cc72c5193"},"vehicle_type_id":"4","last_reported":1770193706,"current_range_meters":8000,"station_id":"","pricing_plan_id":"cebpf4jnsgd1na2vs0mg"},{"bike_id":"626974d3-ace9-41dd-9dbe-f4621ca953aa","system_id":"levelo_inurba_marseille","lat":43.29459,"lon":5.40977,"is_reserved":false,"is_disabled":false,"rental_uris":{"android":"levelo://app?vid=626974d3-ace9-41dd-9dbe-f4621ca953aa","ios":"levelo://app?vid=626974d3-ace9-41dd-9dbe-f4621ca953aa"},"vehicle_type_id":"4","last_reported":1770193706,"current_range_meters":8400,"station_id":"","pricing_plan_id":"cebpf4jnsgd1na2vs0mg"},{"bike_id":"0d453047-e9c2-4dec-af07-bcc32409ede2","system_id":"levelo_inurba_marseille","lat":43.30952,"lon":5.39037,"is_reserved":false,"is_disabled":false,"rental_uris":{"android":"levelo://app?vid=0d453047-e9c2-4dec-af07-bcc32409ede2","ios":"levelo://app?vid=0d453047-e9c2-4dec-af07-bcc32409ede2"},"vehicle_type_id":"4","last_reported":1770193706,"current_range_meters":8400,"station_id":"ce4bgup2rcd13ifvqco0","pricing_plan_id":"cebpf4jnsgd1na2vs0mg"},{"bike_id":"91c21601-5efe-4644-9a24-675b91c6816e","system_id":"levelo_inurba_marseille","lat":43.24624,"lon":5.38928,"is_reserved":false,"is_disabled":false,"rental_uris":{"android":"levelo://app?vid=91c21601-5efe-4644-9a24-675b91c6816e","ios":"levelo://app?vid=91c21601-5efe-4644-9a24-675b91c6816e"},"vehicle_type_id":"4","last_reported":1770193706,"current_range_meters":8400,"station_id":"ce4bhg12rcd13ifvqf60","pricing_plan_id":"cebpf4jnsgd1na2vs0mg"},{"bike_id":"7ab80b7e-a203-442c-b352-62055b06df4d","system_id":"levelo_inurba_marseille","lat":43.31032,"lon":5.37182,"is_reserved":false,"is_disabled":false,"rental_uris":{"android":"levelo://app?vid=7ab80b7e-a203-442c-b352-62055b06df4d","ios":"levelo://app?vid=7ab80b7e-a203-442c-b352-62055b06df4d"},"vehicle_type_id":"4","last_reported":1770193706,"current_range_meters":8400,"station_id":"st_d4kl2rp97mjs73e7tdfg","pricing_plan_id":"cebpf4jnsgd1na2vs0mg"},{"bike_id":"61c4cbe2-eed4-41e6-a6ff-be907a5d72ed","system_id":"levelo_inurba_marseille","lat":43.24996,"lon":5.38945,"is_reserved":false,"is_disabled":false,"rental_uris":{"android":"levelo://app?vid=61c4cbe2-eed4-41e6-a6ff-be907a5d72ed","ios":"levelo://app?vid=61c4cbe2-eed4-41e6-a6ff-be907a5d72ed"},"vehicle_type_id":"4","last_reported":1770193706,"current_range_meters":8400,"station_id":"ce4bhgp2rcd13ifvqfd0","pricing_plan_id":"cebpf4jnsgd1na2vs0mg"},{"bike_id":"d72c8d0b-6864-4eb2-b074-4484e5b3c2c1","system_id":"levelo_inurba_marseille","lat":43.284698,"lon":5.484018,"is_reserved":false,"is_disabled":false,"rental_uris":{"android":"levelo://app?vid=d72c8d0b-6864-4eb2-b074-4484e5b3c2c1","ios":"levelo://app?vid=d72c8d0b-6864-4eb2-b074-4484e5b3c2c1"},"vehicle_type_id":"4","last_reported":1770193706,"current_range_meters":8400,"station_id":"st_d3svhcjqgbts73a3dn0g","pricing_plan_id":"cebpf4jnsgd1na2vs0mg"},{"bike_id":"f33f4c4d-abc5-448a-b712-14c3307b8770","system_id":"levelo_inurba_marseille","lat":43.31242,"lon":5.36842,"is_reserved":false,"is_disabled":true,"rental_uris":{"android":"levelo://app?vid=f33f4c4d-abc5-448a-b712-14c3307b8770","ios":"levelo://app?vid=f33f4c4d-abc5-448a-b712-14c3307b8770"},"vehicle_type_id":"4","last_reported":1770193706,"current_range_meters":8400,"station_id":"ce4bgl92rcd13ifvqbq0","pricing_plan_id":"cebpf4jnsgd1na2vs0mg"},{"bike_id":"708d8107-a502-4715-8ee8-97e259938ef7","system_id":"levelo_inurba_marseille","lat":43.24165,"lon":5.36388,"is_reserved":false,"is_disabled":false,"rental_uris":{"android":"levelo://app?vid=708d8107-a502-4715-8ee8-97e259938ef7","ios":"levelo://app?vid=708d8107-a502-4715-8ee8-97e259938ef7"},"vehicle_type_id":"4","last_reported":1770193706,"current_range_meters":8400,"station_id":"cpo36qri1sfpv3e86is0","pricing_plan_id":"cebpf4jnsgd1na2vs0mg"},{"bike_id":"5addcc29-5435-4f9f-8ead-83b0c4b9434c","system_id":"levelo_inurba_marseille","lat":43.246594,"lon":5.381618,"is_reserved":false,"is_disabled":false,"rental_uris":{"android":"levelo://app?vid=5addcc29-5435-4f9f-8ead-83b0c4b9434c","ios":"levelo://app?vid=5addcc29-5435-4f9f-8ead-83b0c4b9434c"},"vehicle_type_id":"4","last_reported":1770193706,"current_range_meters":8400,"station_id":"ce4bhih2rcd13ifvqfr0","pricing_plan_id":"cebpf4jnsgd1na2vs0mg"},{"bike_id":"7999c078-c419-4cc8-a8dd-39d1ef479de7","system_id":"levelo_inurba_marseille","lat":43.26941,"lon":5.38665,"is_reserved":false,"is_disabled":false,"rental_uris":{"android":"levelo://app?vid=7999c078-c419-4cc8-a8dd-39d1ef479de7","ios":"levelo://app?vid=7999c078-c419-4cc8-a8dd-39d1ef479de7"},"vehicle_type_id":"4","last_reported":1770193706,"current_range_meters":8400,"station_id":"ce4bhh92rcd13ifvqfh0","pricing_plan_id":"cebpf4jnsgd1na2vs0mg"},{"bike_id":"7c65d8a4-3bb8-4534-9506-49fc01052868","system_id":"levelo_inurba_marseille","lat":43.29632,"lon":5.3801,"is_reserved":false,"is_disabled":false,"rental_uris":{"android":"levelo://app?vid=7c65d8a4-3bb8-4534-9506-49fc01052868","ios":"levelo://app?vid=7c65d8a4-3bb8-4534-9506-49fc01052868"},"vehicle_type_id":"4","last_reported":1770193706,"current_range_meters":8400,"station_id":"ce4bgl12rcd13ifvqbo0","pricing_plan_id":"cebpf4jnsgd1na2vs0mg"},{"bike_id":"605a645e-761d-4a85-acd6-fe955761eefa","system_id":"levelo_inurba_marseille","lat":43.296069,"lon":5.383286,"is_reserved":false,"is_disabled":false,"rental_uris":{"android":"levelo://app?vid=605a645e-761d-4a85-acd6-fe955761eefa","ios":"levelo://app?vid=605a645e-761d-4a85-acd6-fe955761eefa"},"vehicle_type_id":"4","last_reported":1770193706,"current_range_meters":8400,"station_id":"","pricing_plan_id":"cebpf4jnsgd1na2vs0mg"},{"bike_id":"d7f59e65-059d-4ae7-a2d3-32dad2ce7f9a","system_id":"levelo_inurba_marseille","lat":43.25721,"lon":5.41113,"is_reserved":false,"is_disabled":false,"rental_uris":{"android":"levelo://app?vid=d7f59e65-059d-4ae7-a2d3-32dad2ce7f9a","ios":"levelo://app?vid=d7f59e65-059d-4ae7-a2d3-32dad2ce7f9a"},"vehicle_type_id":"4","last_reported":1770193706,"current_range_meters":8400,"station_id":"ce4bhkp2rcd13ifvqgd0","pricing_plan_id":"cebpf4jnsgd1na2vs0mg"},{"bike_id":"8cb37011-4e79-462c-a43d-eb5cd3254b5f","system_id":"levelo_inurba_marseille","lat":43.30527,"lon":5.36735,"is_reserved":false,"is_disabled":false,"rental_uris":{"android":"levelo://app?vid=8cb37011-4e79-462c-a43d-eb5cd3254b5f","ios":"levelo://app?vid=8cb37011-4e79-462c-a43d-eb5cd3254b5f"},"vehicle_type_id":"4","last_reported":1770193706,"current_range_meters":8400,"station_id":"ce4bgrp2rcd13ifvqc9g","pricing_plan_id":"cebpf4jnsgd1na2vs0mg"},{"bike_id":"da4d19a5-63fa-471e-bc87-bb23db14643b","system_id":"levelo_inurba_marseille","lat":43.29546,"lon":5.42494,"is_reserved":false,"is_disabled":false,"rental_uris":{"android":"levelo://app?vid=da4d19a5-63fa-471e-bc87-bb23db14643b","ios":"levelo://app?vid=da4d19a5-63fa-471e-bc87-bb23db14643b"},"vehicle_type_id":"4","last_reported":1770193706,"current_range_meters":8400,"station_id":"","pricing_plan_id":"cebpf4jnsgd1na2vs0mg"},{"bike_id":"32bc48f8-f760-4292-bb8d-4f85e34a95d7","system_id":"levelo_inurba_marseille","lat":43.31347,"lon":5.36723,"is_reserved":false,"is_disabled":false,"rental_uris":{"android":"levelo://app?vid=32bc48f8-f760-4292-bb8d-4f85e34a95d7","ios":"levelo://app?vid=32bc48f8-f760-4292-bb8d-4f85e34a95d7"},"vehicle_type_id":"4","last_reported":1770193706,"current_range_meters":8400,"station_id":"ce4bgr92rcd13ifvqc6g","pricing_plan_id":"cebpf4jnsgd1na2vs0mg"},{"bike_id":"809dfd22-afa1-4754-8327-1cac66519aa2","system_id":"levelo_inurba_marseille","lat":43.2826,"lon":5.35083,"is_reserved":false,"is_disabled":true,"rental_uris":{"android":"levelo://app?vid=809dfd22-afa1-4754-8327-1cac66519aa2","ios":"levelo://app?vid=809dfd22-afa1-4754-8327-1cac66519aa2"},"vehicle_type_id":"4","last_reported":1770193706,"current_range_meters":8400,"station_id":"ce4bhbp2rcd13ifvqerg","pricing_plan_id":"cebpf4jnsgd1na2vs0mg"},{"bike_id":"a5c1703c-0b2d-4e6b-b820-25e716f1e211","system_id":"levelo_inurba_marseille","lat":43.28477,"lon":5.48399,"is_reserved":false,"is_disabled":false,"rental_uris":{"android":"levelo://app?vid=a5c1703c-0b2d-4e6b-b820-25e716f1e211","ios":"levelo://app?vid=a5c1703c-0b2d-4e6b-b820-25e716f1e211"},"vehicle_type_id":"4","last_reported":1770193706,"current_range_meters":8400,"station_id":"st_d3svhcjqgbts73a3dn0g","pricing_plan_id":"cebpf4jnsgd1na2vs0mg"},{"bike_id":"ef64cb18-c8a8-4251-87f8-703e259c4330","system_id":"levelo_inurba_marseille","lat":43.47654,"lon":5.48969,"is_reserved":false,"is_disabled":false,"rental_uris":{"android":"levelo://app?vid=ef64cb18-c8a8-4251-87f8-703e259c4330","ios":"levelo://app?vid=ef64cb18-c8a8-4251-87f8-703e259c4330"},"vehicle_type_id":"4","last_reported":1770193706,"current_range_meters":8400,"station_id":"","pricing_plan_id":"cebpf4jnsgd1na2vs0mg"},{"bike_id":"a2d20eba-b11c-4a10-8201-1f672b69f4a3","system_id":"levelo_inurba_marseille","lat":43.3108,"lon":5.38339,"is_reserved":false,"is_disabled":false,"rental_uris":{"android":"levelo://app?vid=a2d20eba-b11c-4a10-8201-1f672b69f4a3","ios":"levelo://app?vid=a2d20eba-b11c-4a10-8201-1f672b69f4a3"},"vehicle_type_id":"4","last_reported":1770193706,"current_range_meters":8800,"station_id":"ce4bgv92rcd13ifvqcr0","pricing_plan_id":"cebpf4jnsgd1na2vs0mg"},{"bike_id":"85f809a7-4937-473c-b5d3-364e2bce9de9","system_id":"levelo_inurba_marseille","lat":43.29901,"lon":5.4366,"is_reserved":false,"is_disabled":false,"rental_uris":{"android":"levelo://app?vid=85f809a7-4937-473c-b5d3-364e2bce9de9","ios":"levelo://app?vid=85f809a7-4937-473c-b5d3-364e2bce9de9"},"vehicle_type_id":"4","last_reported":1770193706,"current_range_meters":8800,"station_id":"ce4bhpp2rcd13ifvqhfg","pricing_plan_id":"cebpf4jnsgd1na2vs0mg"},{"bike_id":"8e443969-89bd-46f6-a10f-2e1233840320","system_id":"levelo_inurba_marseille","lat":43.24666,"lon":5.38172,"is_reserved":false,"is_disabled":false,"rental_uris":{"android":"levelo://app?vid=8e443969-89bd-46f6-a10f-2e1233840320","ios":"levelo://app?vid=8e443969-89bd-46f6-a10f-2e1233840320"},"vehicle_type_id":"4","last_reported":1770193706,"current_range_meters":8800,"station_id":"ce4bhih2rcd13ifvqfr0","pricing_plan_id":"cebpf4jnsgd1na2vs0mg"},{"bike_id":"8e7f7dcc-7fc1-4fa3-8f7a-9b4596de5459","system_id":"levelo_inurba_marseille","lat":43.28465,"lon":5.35901,"is_reserved":false,"is_disabled":true,"rental_uris":{"android":"levelo://app?vid=8e7f7dcc-7fc1-4fa3-8f7a-9b4596de5459","ios":"levelo://app?vid=8e7f7dcc-7fc1-4fa3-8f7a-9b4596de5459"},"vehicle_type_id":"4","last_reported":1770193706,"current_range_meters":8800,"station_id":"ce4bhah2rcd13ifvqei0","pricing_plan_id":"cebpf4jnsgd1na2vs0mg"},{"bike_id":"38b03880-e66b-4b95-b637-939655c58052","system_id":"levelo_inurba_marseille","lat":43.255373,"lon":5.416848,"is_reserved":false,"is_disabled":false,"rental_uris":{"android":"levelo://app?vid=38b03880-e66b-4b95-b637-939655c58052","ios":"levelo://app?vid=38b03880-e66b-4b95-b637-939655c58052"},"vehicle_type_id":"4","last_reported":1770193706,"current_range_meters":8800,"station_id":"","pricing_plan_id":"cebpf4jnsgd1na2vs0mg"},{"bike_id":"ed71bd12-2ade-4c84-a9fa-e568c0349b96","system_id":"levelo_inurba_marseille","lat":43.26038,"lon":5.37547,"is_reserved":false,"is_disabled":false,"rental_uris":{"android":"levelo://app?vid=ed71bd12-2ade-4c84-a9fa-e568c0349b96","ios":"levelo://app?vid=ed71bd12-2ade-4c84-a9fa-e568c0349b96"},"vehicle_type_id":"4","last_reported":1770193706,"current_range_meters":8800,"station_id":"ce4bhgh2rcd13ifvqfa0","pricing_plan_id":"cebpf4jnsgd1na2vs0mg"},{"bike_id":"9df72779-080e-440f-a5f5-74667115769a","system_id":"levelo_inurba_marseille","lat":43.31337,"lon":5.36715,"is_reserved":false,"is_disabled":false,"rental_uris":{"android":"levelo://app?vid=9df72779-080e-440f-a5f5-74667115769a","ios":"levelo://app?vid=9df72779-080e-440f-a5f5-74667115769a"},"vehicle_type_id":"4","last_reported":1770193706,"current_range_meters":8800,"station_id":"ce4bgr92rcd13ifvqc6g","pricing_plan_id":"cebpf4jnsgd1na2vs0mg"},{"bike_id":"2dd8cab3-19da-46fd-8cda-b2a3e690cfba","system_id":"levelo_inurba_marseille","lat":43.22928,"lon":5.35396,"is_reserved":false,"is_disabled":false,"rental_uris":{"android":"levelo://app?vid=2dd8cab3-19da-46fd-8cda-b2a3e690cfba","ios":"levelo://app?vid=2dd8cab3-19da-46fd-8cda-b2a3e690cfba"},"vehicle_type_id":"4","last_reported":1770193706,"current_range_meters":8800,"station_id":"cpo3532slgdg3j2ikp40","pricing_plan_id":"cebpf4jnsgd1na2vs0mg"},{"bike_id":"a24bbedc-c212-49e6-b58c-01dc21a33894","system_id":"levelo_inurba_marseille","lat":43.293053,"lon":5.371433,"is_reserved":false,"is_disabled":false,"rental_uris":{"android":"levelo://app?vid=a24bbedc-c212-49e6-b58c-01dc21a33894","ios":"levelo://app?vid=a24bbedc-c212-49e6-b58c-01dc21a33894"},"vehicle_type_id":"4","last_reported":1770193706,"current_range_meters":8800,"station_id":"ce4bgh92rcd13ifvqb40","pricing_plan_id":"cebpf4jnsgd1na2vs0mg"},{"bike_id":"ae31df1c-c3f6-4879-abd7-99d899c9ca05","system_id":"levelo_inurba_marseille","lat":43.31109,"lon":5.38491,"is_reserved":false,"is_disabled":false,"rental_uris":{"android":"levelo://app?vid=ae31df1c-c3f6-4879-abd7-99d899c9ca05","ios":"levelo://app?vid=ae31df1c-c3f6-4879-abd7-99d899c9ca05"},"vehicle_type_id":"4","last_reported":1770193706,"current_range_meters":8800,"station_id":"","pricing_plan_id":"cebpf4jnsgd1na2vs0mg"},{"bike_id":"e55375b7-3afd-47f8-a340-f83f485617be","system_id":"levelo_inurba_marseille","lat":43.29938,"lon":5.3656,"is_reserved":false,"is_disabled":false,"rental_uris":{"android":"levelo://app?vid=e55375b7-3afd-47f8-a340-f83f485617be","ios":"levelo://app?vid=e55375b7-3afd-47f8-a340-f83f485617be"},"vehicle_type_id":"4","last_reported":1770193706,"current_range_meters":8800,"station_id":"ce4bgm92rcd13ifvqbr0","pricing_plan_id":"cebpf4jnsgd1na2vs0mg"},{"bike_id":"6b2f8803-9c28-4df8-a226-517617e199e5","system_id":"levelo_inurba_marseille","lat":43.2799,"lon":5.41672,"is_reserved":false,"is_disabled":false,"rental_uris":{"android":"levelo://app?vid=6b2f8803-9c28-4df8-a226-517617e199e5","ios":"levelo://app?vid=6b2f8803-9c28-4df8-a226-517617e199e5"},"vehicle_type_id":"4","last_reported":1770193706,"current_range_meters":9200,"station_id":"ce4bho12rcd13ifvqh1g","pricing_plan_id":"cebpf4jnsgd1na2vs0mg"},{"bike_id":"1794fc4b-f1e9-4439-acd6-7a3c137a2b38","system_id":"levelo_inurba_marseille","lat":43.23764,"lon":5.36664,"is_reserved":false,"is_disabled":false,"rental_uris":{"android":"levelo://app?vid=1794fc4b-f1e9-4439-acd6-7a3c137a2b38","ios":"levelo://app?vid=1794fc4b-f1e9-4439-acd6-7a3c137a2b38"},"vehicle_type_id":"4","last_reported":1770193706,"current_range_meters":9200,"station_id":"st_d3nk18o9ro0c73en2l3g","pricing_plan_id":"cebpf4jnsgd1na2vs0mg"},{"bike_id":"d151c092-ccb6-400d-b7d5-4ab9d3996133","system_id":"levelo_inurba_marseille","lat":43.27317,"lon":5.39081,"is_reserved":false,"is_disabled":false,"rental_uris":{"android":"levelo://app?vid=d151c092-ccb6-400d-b7d5-4ab9d3996133","ios":"levelo://app?vid=d151c092-ccb6-400d-b7d5-4ab9d3996133"},"vehicle_type_id":"4","last_reported":1770193706,"current_range_meters":9200,"station_id":"ce4bhgp2rcd13ifvqfe0","pricing_plan_id":"cebpf4jnsgd1na2vs0mg"},{"bike_id":"941d0b03-9ae1-4106-9296-775ca1406222","system_id":"levelo_inurba_marseille","lat":43.28296,"lon":5.42434,"is_reserved":false,"is_disabled":false,"rental_uris":{"android":"levelo://app?vid=941d0b03-9ae1-4106-9296-775ca1406222","ios":"levelo://app?vid=941d0b03-9ae1-4106-9296-775ca1406222"},"vehicle_type_id":"4","last_reported":1770193706,"current_range_meters":9200,"station_id":"","pricing_plan_id":"cebpf4jnsgd1na2vs0mg"},{"bike_id":"8565b715-b328-42ac-a521-214aed9a02f1","system_id":"levelo_inurba_marseille","lat":43.24063,"lon":5.3774,"is_reserved":false,"is_disabled":false,"rental_uris":{"android":"levelo://app?vid=8565b715-b328-42ac-a521-214aed9a02f1","ios":"levelo://app?vid=8565b715-b328-42ac-a521-214aed9a02f1"},"vehicle_type_id":"4","last_reported":1770193706,"current_range_meters":9200,"station_id":"ce4bhnp2rcd13ifvqgvg","pricing_plan_id":"cebpf4jnsgd1na2vs0mg"},{"bike_id":"533eee8d-7219-4863-8cfe-bc74464e258d","system_id":"levelo_inurba_marseille","lat":43.30264,"lon":5.37719,"is_reserved":false,"is_disabled":false,"rental_uris":{"android":"levelo://app?vid=533eee8d-7219-4863-8cfe-bc74464e258d","ios":"levelo://app?vid=533eee8d-7219-4863-8cfe-bc74464e258d"},"vehicle_type_id":"4","last_reported":1770193706,"current_range_meters":9200,"station_id":"ce4bguh2rcd13ifvqcj0","pricing_plan_id":"cebpf4jnsgd1na2vs0mg"},{"bike_id":"c9cf1bda-a378-4513-8aed-b2dba30c86f7","system_id":"levelo_inurba_marseille","lat":43.29546,"lon":5.4229,"is_reserved":false,"is_disabled":false,"rental_uris":{"android":"levelo://app?vid=c9cf1bda-a378-4513-8aed-b2dba30c86f7","ios":"levelo://app?vid=c9cf1bda-a378-4513-8aed-b2dba30c86f7"},"vehicle_type_id":"4","last_reported":1770193706,"current_range_meters":9200,"station_id":"ce4bhph2rcd13ifvqhdg","pricing_plan_id":"cebpf4jnsgd1na2vs0mg"},{"bike_id":"3cc1aabc-a9cc-4581-8270-941be9d523ef","system_id":"levelo_inurba_marseille","lat":43.28651,"lon":5.38688,"is_reserved":false,"is_disabled":false,"rental_uris":{"android":"levelo://app?vid=3cc1aabc-a9cc-4581-8270-941be9d523ef","ios":"levelo://app?vid=3cc1aabc-a9cc-4581-8270-941be9d523ef"},"vehicle_type_id":"4","last_reported":1770193706,"current_range_meters":9200,"station_id":"ce4bh492rcd13ifvqdug","pricing_plan_id":"cebpf4jnsgd1na2vs0mg"},{"bike_id":"c8d284e7-9027-4039-8a8f-ec00af1ca7b7","system_id":"levelo_inurba_marseille","lat":43.26949,"lon":5.38634,"is_reserved":false,"is_disabled":false,"rental_uris":{"android":"levelo://app?vid=c8d284e7-9027-4039-8a8f-ec00af1ca7b7","ios":"levelo://app?vid=c8d284e7-9027-4039-8a8f-ec00af1ca7b7"},"vehicle_type_id":"4","last_reported":1770193706,"current_range_meters":9200,"station_id":"ce4bhh92rcd13ifvqfh0","pricing_plan_id":"cebpf4jnsgd1na2vs0mg"},{"bike_id":"b43f880a-9701-4b51-9be5-fc98ff85321b","system_id":"levelo_inurba_marseille","lat":43.25106,"lon":5.40376,"is_reserved":false,"is_disabled":false,"rental_uris":{"android":"levelo://app?vid=b43f880a-9701-4b51-9be5-fc98ff85321b","ios":"levelo://app?vid=b43f880a-9701-4b51-9be5-fc98ff85321b"},"vehicle_type_id":"4","last_reported":1770193706,"current_range_meters":9200,"station_id":"ce4bhlh2rcd13ifvqgig","pricing_plan_id":"cebpf4jnsgd1na2vs0mg"},{"bike_id":"52e23528-353b-4382-a015-edaf2bcd511f","system_id":"levelo_inurba_marseille","lat":43.29368,"lon":5.37826,"is_reserved":false,"is_disabled":false,"rental_uris":{"android":"levelo://app?vid=52e23528-353b-4382-a015-edaf2bcd511f","ios":"levelo://app?vid=52e23528-353b-4382-a015-edaf2bcd511f"},"vehicle_type_id":"4","last_reported":1770193706,"current_range_meters":9200,"station_id":"ce4bgjh2rcd13ifvqbf0","pricing_plan_id":"cebpf4jnsgd1na2vs0mg"},{"bike_id":"b345239a-a582-4f1b-9c78-faf62467a464","system_id":"levelo_inurba_marseille","lat":43.29675,"lon":5.36614,"is_reserved":false,"is_disabled":true,"rental_uris":{"android":"levelo://app?vid=b345239a-a582-4f1b-9c78-faf62467a464","ios":"levelo://app?vid=b345239a-a582-4f1b-9c78-faf62467a464"},"vehicle_type_id":"4","last_reported":1770193706,"current_range_meters":9200,"station_id":"ce4bgn12rcd13ifvqbt0","pricing_plan_id":"cebpf4jnsgd1na2vs0mg"},{"bike_id":"c1e71f14-e91f-49b0-9bb2-6c712963da21","system_id":"levelo_inurba_marseille","lat":43.29895,"lon":5.43654,"is_reserved":false,"is_disabled":false,"rental_uris":{"android":"levelo://app?vid=c1e71f14-e91f-49b0-9bb2-6c712963da21","ios":"levelo://app?vid=c1e71f14-e91f-49b0-9bb2-6c712963da21"},"vehicle_type_id":"4","last_reported":1770193706,"current_range_meters":9200,"station_id":"ce4bhpp2rcd13ifvqhfg","pricing_plan_id":"cebpf4jnsgd1na2vs0mg"},{"bike_id":"9c97ed08-c8de-49a9-b037-9c50c2f5044c","system_id":"levelo_inurba_marseille","lat":43.29428,"lon":5.41324,"is_reserved":false,"is_disabled":false,"rental_uris":{"android":"levelo://app?vid=9c97ed08-c8de-49a9-b037-9c50c2f5044c","ios":"levelo://app?vid=9c97ed08-c8de-49a9-b037-9c50c2f5044c"},"vehicle_type_id":"4","last_reported":1770193706,"current_range_meters":9200,"station_id":"","pricing_plan_id":"cebpf4jnsgd1na2vs0mg"},{"bike_id":"36e2da96-dc76-439c-aeb6-166c624171c7","system_id":"levelo_inurba_marseille","lat":43.25327,"lon":5.42178,"is_reserved":false,"is_disabled":false,"rental_uris":{"android":"levelo://app?vid=36e2da96-dc76-439c-aeb6-166c624171c7","ios":"levelo://app?vid=36e2da96-dc76-439c-aeb6-166c624171c7"},"vehicle_type_id":"4","last_reported":1770193706,"current_range_meters":9200,"station_id":"st_d2m65c5bi1j21697t3ng","pricing_plan_id":"cebpf4jnsgd1na2vs0mg"},{"bike_id":"0d59add4-4b56-4ced-b456-94533a67403b","system_id":"levelo_inurba_marseille","lat":43.23196,"lon":5.35562,"is_reserved":false,"is_disabled":false,"rental_uris":{"android":"levelo://app?vid=0d59add4-4b56-4ced-b456-94533a67403b","ios":"levelo://app?vid=0d59add4-4b56-4ced-b456-94533a67403b"},"vehicle_type_id":"4","last_reported":1770193706,"current_range_meters":9600,"station_id":"ce4bhu92rcd13ifvqi70","pricing_plan_id":"cebpf4jnsgd1na2vs0mg"},{"bike_id":"35b85e13-b656-4d5f-8d99-0eb657e1727a","system_id":"levelo_inurba_marseille","lat":43.24538,"lon":5.39552,"is_reserved":false,"is_disabled":false,"rental_uris":{"android":"levelo://app?vid=35b85e13-b656-4d5f-8d99-0eb657e1727a","ios":"levelo://app?vid=35b85e13-b656-4d5f-8d99-0eb657e1727a"},"vehicle_type_id":"4","last_reported":1770193706,"current_range_meters":9600,"station_id":"ce4bhlp2rcd13ifvqgjg","pricing_plan_id":"cebpf4jnsgd1na2vs0mg"},{"bike_id":"b0b49840-25bc-4e3e-b3e7-28b0e711fb9b","system_id":"levelo_inurba_marseille","lat":43.28612,"lon":5.35117,"is_reserved":false,"is_disabled":false,"rental_uris":{"android":"levelo://app?vid=b0b49840-25bc-4e3e-b3e7-28b0e711fb9b","ios":"levelo://app?vid=b0b49840-25bc-4e3e-b3e7-28b0e711fb9b"},"vehicle_type_id":"4","last_reported":1770193706,"current_range_meters":9600,"station_id":"ce4bhch2rcd13ifvqeug","pricing_plan_id":"cebpf4jnsgd1na2vs0mg"},{"bike_id":"38ce4780-4113-49b6-a374-22d0ee30bb98","system_id":"levelo_inurba_marseille","lat":43.24062,"lon":5.37736,"is_reserved":false,"is_disabled":false,"rental_uris":{"android":"levelo://app?vid=38ce4780-4113-49b6-a374-22d0ee30bb98","ios":"levelo://app?vid=38ce4780-4113-49b6-a374-22d0ee30bb98"},"vehicle_type_id":"4","last_reported":1770193706,"current_range_meters":9600,"station_id":"ce4bhnp2rcd13ifvqgvg","pricing_plan_id":"cebpf4jnsgd1na2vs0mg"},{"bike_id":"2dbd75cf-8d6a-4b1e-8a51-8d38e5843da1","system_id":"levelo_inurba_marseille","lat":43.31057,"lon":5.371829,"is_reserved":false,"is_disabled":true,"rental_uris":{"android":"levelo://app?vid=2dbd75cf-8d6a-4b1e-8a51-8d38e5843da1","ios":"levelo://app?vid=2dbd75cf-8d6a-4b1e-8a51-8d38e5843da1"},"vehicle_type_id":"4","last_reported":1770193706,"current_range_meters":9600,"station_id":"st_d4kl2rp97mjs73e7tdfg","pricing_plan_id":"cebpf4jnsgd1na2vs0mg"},{"bike_id":"06fb4933-1daf-40d9-9496-d925952f5bef","system_id":"levelo_inurba_marseille","lat":43.302176,"lon":5.386863,"is_reserved":false,"is_disabled":false,"rental_uris":{"android":"levelo://app?vid=06fb4933-1daf-40d9-9496-d925952f5bef","ios":"levelo://app?vid=06fb4933-1daf-40d9-9496-d925952f5bef"},"vehicle_type_id":"4","last_reported":1770193706,"current_range_meters":9600,"station_id":"","pricing_plan_id":"cebpf4jnsgd1na2vs0mg"},{"bike_id":"6f70bf52-f179-4ee1-b086-7aa66211de7e","system_id":"levelo_inurba_marseille","lat":43.30539,"lon":5.36562,"is_reserved":false,"is_disabled":false,"rental_uris":{"android":"levelo://app?vid=6f70bf52-f179-4ee1-b086-7aa66211de7e","ios":"levelo://app?vid=6f70bf52-f179-4ee1-b086-7aa66211de7e"},"vehicle_type_id":"4","last_reported":1770193706,"current_range_meters":9600,"station_id":"ce4bgs12rcd13ifvqcag","pricing_plan_id":"cebpf4jnsgd1na2vs0mg"},{"bike_id":"eb47f48d-6c09-41c8-ae6e-8a7103314f13","system_id":"levelo_inurba_marseille","lat":43.29903,"lon":5.42868,"is_reserved":false,"is_disabled":false,"rental_uris":{"android":"levelo://app?vid=eb47f48d-6c09-41c8-ae6e-8a7103314f13","ios":"levelo://app?vid=eb47f48d-6c09-41c8-ae6e-8a7103314f13"},"vehicle_type_id":"4","last_reported":1770193706,"current_range_meters":9600,"station_id":"","pricing_plan_id":"cebpf4jnsgd1na2vs0mg"},{"bike_id":"3a4b7fad-d353-4ccb-8488-6ee8991487ab","system_id":"levelo_inurba_marseille","lat":43.231882,"lon":5.35561,"is_reserved":false,"is_disabled":false,"rental_uris":{"android":"levelo://app?vid=3a4b7fad-d353-4ccb-8488-6ee8991487ab","ios":"levelo://app?vid=3a4b7fad-d353-4ccb-8488-6ee8991487ab"},"vehicle_type_id":"4","last_reported":1770193706,"current_range_meters":9600,"station_id":"ce4bhu92rcd13ifvqi70","pricing_plan_id":"cebpf4jnsgd1na2vs0mg"},{"bike_id":"38712b4b-754b-41b9-9f4d-8f2f4069c5f1","system_id":"levelo_inurba_marseille","lat":43.29929,"lon":5.37457,"is_reserved":false,"is_disabled":false,"rental_uris":{"android":"levelo://app?vid=38712b4b-754b-41b9-9f4d-8f2f4069c5f1","ios":"levelo://app?vid=38712b4b-754b-41b9-9f4d-8f2f4069c5f1"},"vehicle_type_id":"4","last_reported":1770193706,"current_range_meters":9600,"station_id":"ce4bgjh2rcd13ifvqbg0","pricing_plan_id":"cebpf4jnsgd1na2vs0mg"},{"bike_id":"82026f6c-9d07-4663-9912-25f5d62833ed","system_id":"levelo_inurba_marseille","lat":43.26191,"lon":5.37515,"is_reserved":false,"is_disabled":false,"rental_uris":{"android":"levelo://app?vid=82026f6c-9d07-4663-9912-25f5d62833ed","ios":"levelo://app?vid=82026f6c-9d07-4663-9912-25f5d62833ed"},"vehicle_type_id":"4","last_reported":1770193706,"current_range_meters":9600,"station_id":"ce4bhgp2rcd13ifvqfc0","pricing_plan_id":"cebpf4jnsgd1na2vs0mg"},{"bike_id":"ed291ead-dc5e-4f55-8111-29198b60f5cf","system_id":"levelo_inurba_marseille","lat":43.23192,"lon":5.39954,"is_reserved":false,"is_disabled":false,"rental_uris":{"android":"levelo://app?vid=ed291ead-dc5e-4f55-8111-29198b60f5cf","ios":"levelo://app?vid=ed291ead-dc5e-4f55-8111-29198b60f5cf"},"vehicle_type_id":"4","last_reported":1770193706,"current_range_meters":9600,"station_id":"ce4bhn12rcd13ifvqgqg","pricing_plan_id":"cebpf4jnsgd1na2vs0mg"},{"bike_id":"5161d449-7be3-43a5-9b1a-278ec962ecdc","system_id":"levelo_inurba_marseille","lat":43.24693,"lon":5.38148,"is_reserved":false,"is_disabled":false,"rental_uris":{"android":"levelo://app?vid=5161d449-7be3-43a5-9b1a-278ec962ecdc","ios":"levelo://app?vid=5161d449-7be3-43a5-9b1a-278ec962ecdc"},"vehicle_type_id":"4","last_reported":1770193706,"current_range_meters":9600,"station_id":"ce4bhih2rcd13ifvqfr0","pricing_plan_id":"cebpf4jnsgd1na2vs0mg"},{"bike_id":"52c5e029-0e2a-4e71-8973-674c07954cbb","system_id":"levelo_inurba_marseille","lat":43.29043,"lon":5.36979,"is_reserved":false,"is_disabled":false,"rental_uris":{"android":"levelo://app?vid=52c5e029-0e2a-4e71-8973-674c07954cbb","ios":"levelo://app?vid=52c5e029-0e2a-4e71-8973-674c07954cbb"},"vehicle_type_id":"4","last_reported":1770193706,"current_range_meters":9600,"station_id":"","pricing_plan_id":"cebpf4jnsgd1na2vs0mg"},{"bike_id":"c4da72fb-9d53-4418-828d-f3e1b91d4e60","system_id":"levelo_inurba_marseille","lat":43.281504,"lon":5.426571,"is_reserved":false,"is_disabled":false,"rental_uris":{"android":"levelo://app?vid=c4da72fb-9d53-4418-828d-f3e1b91d4e60","ios":"levelo://app?vid=c4da72fb-9d53-4418-828d-f3e1b91d4e60"},"vehicle_type_id":"4","last_reported":1770193706,"current_range_meters":9600,"station_id":"ce4bhnh2rcd13ifvqgug","pricing_plan_id":"cebpf4jnsgd1na2vs0mg"},{"bike_id":"22055b39-4426-4c35-b498-52b1cdb90a00","system_id":"levelo_inurba_marseille","lat":43.23183,"lon":5.40001,"is_reserved":false,"is_disabled":false,"rental_uris":{"android":"levelo://app?vid=22055b39-4426-4c35-b498-52b1cdb90a00","ios":"levelo://app?vid=22055b39-4426-4c35-b498-52b1cdb90a00"},"vehicle_type_id":"4","last_reported":1770193706,"current_range_meters":9600,"station_id":"ce4bhn12rcd13ifvqgqg","pricing_plan_id":"cebpf4jnsgd1na2vs0mg"},{"bike_id":"f167336d-1a40-4dbf-8b23-fad915cb024e","system_id":"levelo_inurba_marseille","lat":43.28714,"lon":5.37942,"is_reserved":false,"is_disabled":false,"rental_uris":{"android":"levelo://app?vid=f167336d-1a40-4dbf-8b23-fad915cb024e","ios":"levelo://app?vid=f167336d-1a40-4dbf-8b23-fad915cb024e"},"vehicle_type_id":"4","last_reported":1770193706,"current_range_meters":9600,"station_id":"ce4bh9p2rcd13ifvqec0","pricing_plan_id":"cebpf4jnsgd1na2vs0mg"},