{"last_updated":1726579011,"ttl":30,"version":"2.2","data":{"bikes":[{"bike_id":"92f0ae7a-f94e-4606-9c60-77a82c00205d","system_id":"levelo_inurba_marseille","lat":43.27503,"lon":5.42445,"is_reserved":false,"is_disabled":false,"rental_uris":{"android":"levelo://app?vid=92f0ae7a-f94e-4606-9c60-77a82c00205d","ios":"levelo://app?vid=92f0ae7a-f94e-4606-9c60-77a82c00205d"},"vehicle_type_id":"4","last_reported":1726579012,"current_range_meters":4000,"station_id":"ce4bhn92rcd13ifvqgrg","pricing_plan_id":"cebpf4jnsgd1na2vs0mg"},{"bike_id":"9cb4b340-4d9f-4316-9ec2-b18a3be9faeb","system_id":"levelo_inurba_marseille","lat":43.269405,"lon":5.402551,"is_reserved":false,"is_disabled":false,"rental_uris":{"android":"levelo://app?vid=9cb4b340-4d9f-4316-9ec2-b18a3be9faeb","ios":"levelo://app?vid=9cb4b340-4d9f-4316-9ec2-b18a3be9faeb"},"vehicle_type_id":"4","last_reported":1726579012,"current_range_meters":22400,"station_id":"cjm6bp8fraef2m0cb0m0","pricing_plan_id":"cebpf4jnsgd1na2vs0mg"},{"bike_id":"d2b0166e-677a-4cab-94c5-2d6095272568","system_id":"levelo_inurba_marseille","lat":43.31073,"lon":5.38359,"is_reserved":false,"is_disabled":false,"rental_uris":{"android":"levelo://app?vid=d2b0166e-677a-4cab-94c5-2d6095272568","ios":"levelo://app?vid=d2b0166e-677a-4cab-94c5-2d6095272568"},"vehicle_type_id":"4","last_reported":1726579012,"current_range_meters":22400,"station_id":"ce4bgv92rcd13ifvqcr0","pricing_plan_id":"cebpf4jnsgd1na2vs0mg"},{"bike_id":"6a65f8fe-3344-4739-abbc-e979df8bfd7b","system_id":"levelo_inurba_marseille","lat":43.30132,"lon":5.39851,"is_reserved":false,"is_disabled":false,"rental_uris":{"android":"levelo://app?vid=6a65f8fe-3344-4739-abbc-e979df8bfd7b","ios":"levelo://app?vid=6a65f8fe-3344-4739-abbc-e979df8bfd7b"},"vehicle_type_id":"4","last_reported":1726579012,"current_range_meters":38000,"station_id":"ce4bh0h2rcd13ifvqd40","pricing_plan_id":"cebpf4jnsgd1na2vs0mg"},{"bike_id":"67e823b3-c87a-4b56-96e5-0746c253f329","system_id":"levelo_inurba_marseille","lat":43.31714,"lon":5.43706,"is_reserved":false,"is_disabled":false,"rental_uris":{"android":"levelo://app?vid=67e823b3-c87a-4b56-96e5-0746c253f329","ios":"levelo://app?vid=67e823b3-c87a-4b56-96e5-0746c253f329"},"vehicle_type_id":"4","last_reported":1726579012,"current_range_meters":19600,"station_id":"ce4bhp92rcd13ifvqhcg","pricing_plan_id":"cebpf4jnsgd1na2vs0mg"},{"bike_id":"43176770-eaee-4996-86c7-d408161e4ce6","system_id":"levelo_inurba_marseille","lat":43.29899,"lon":5.4366,"is_reserved":false,"is_disabled":false,"rental_uris":{"android":"levelo://app?vid=43176770-eaee-4996-86c7-d408161e4ce6","ios":"levelo://app?vid=43176770-eaee-4996-86c7-d408161e4ce6"},"vehicle_type_id":"4","last_reported":1726579012,"current_range_meters":6000,"station_id":"ce4bhpp2rcd13ifvqhfg","pricing_plan_id":"cebpf4jnsgd1na2vs0mg"},{"bike_id":"44424f09-133d-4ff3-8c34-8bb853d2401b","system_id":"levelo_inurba_marseille","lat":43.29862,"lon":5.36274,"is_reserved":false,"is_disabled":false,"rental_uris":{"android":"levelo://app?vid=44424f09-133d-4ff3-8c34-8bb853d2401b","ios":"levelo://app?vid=44424f09-133d-4ff3-8c34-8bb853d2401b"},"vehicle_type_id":"4","last_reported":1726579012,"current_range_meters":11600,"station_id":"ce4bgpp2rcd13ifvqc3g","pricing_plan_id":"cebpf4jnsgd1na2vs0mg"},{"bike_id":"17bbbcf3-10a8-441f-8428-0419b3232299","system_id":"levelo_inurba_marseille","lat":43.26196,"lon":5.37447,"is_reserved":false,"is_disabled":false,"rental_uris":{"android":"levelo://app?vid=17bbbcf3-10a8-441f-8428-0419b3232299","ios":"levelo://app?vid=17bbbcf3-10a8-441f-8428-0419b3232299"},"vehicle_type_id":"4","last_reported":1726579012,"current_range_meters":15200,"station_id":"ce4bhgp2rcd13ifvqfc0","pricing_plan_id":"cebpf4jnsgd1na2vs0mg"},{"bike_id":"8ee5198f-f2e6-42b0-9222-7b0c644ae14e","system_id":"levelo_inurba_marseille","lat":43.31085,"lon":5.42433,"is_reserved":false,"is_disabled":false,"rental_uris":{"android":"levelo://app?vid=8ee5198f-f2e6-42b0-9222-7b0c644ae14e","ios":"levelo://app?vid=8ee5198f-f2e6-42b0-9222-7b0c644ae14e"},"vehicle_type_id":"4","last_reported":1726579012,"current_range_meters":39200,"station_id":"ce4bhp92rcd13ifvqhag","pricing_plan_id":"cebpf4jnsgd1na2vs0mg"},{"bike_id":"5a567a26-d9cf-4db5-9a45-0cc60399f6f1","system_id":"levelo_inurba_marseille","lat":43.30304,"lon":5.368932,"is_reserved":false,"is_disabled":false,"rental_uris":{"android":"levelo://app?vid=5a567a26-d9cf-4db5-9a45-0cc60399f6f1","ios":"levelo://app?vid=5a567a26-d9cf-4db5-9a45-0cc60399f6f1"},"vehicle_type_id":"4","last_reported":1726579012,"current_range_meters":30800,"station_id":"ce4bgqh2rcd13ifvqc5g","pricing_plan_id":"cebpf4jnsgd1na2vs0mg"},{"bike_id":"13ec4916-f0ea-4897-8afc-596425b42c42","system_id":"levelo_inurba_marseille","lat":43.23192,"lon":5.35555,"is_reserved":false,"is_disabled":false,"rental_uris":{"android":"levelo://app?vid=13ec4916-f0ea-4897-8afc-596425b42c42","ios":"levelo://app?vid=13ec4916-f0ea-4897-8afc-596425b42c42"},"vehicle_type_id":"4","last_reported":1726579012,"current_range_meters":9600,"station_id":"ce4bhu92rcd13ifvqi70","pricing_plan_id":"cebpf4jnsgd1na2vs0mg"},{"bike_id":"62038f15-8b52-4737-84db-7e03fbc11d5d","system_id":"levelo_inurba_marseille","lat":43.23157,"lon":5.43701,"is_reserved":false,"is_disabled":false,"rental_uris":{"android":"levelo://app?vid=62038f15-8b52-4737-84db-7e03fbc11d5d","ios":"levelo://app?vid=62038f15-8b52-4737-84db-7e03fbc11d5d"},"vehicle_type_id":"4","last_reported":1726579012,"current_range_meters":22800,"station_id":"ce4bhmp2rcd13ifvqgog","pricing_plan_id":"cebpf4jnsgd1na2vs0mg"},{"bike_id":"9d243943-f186-4f8f-b775-710d28fca1e0","system_id":"levelo_inurba_marseille","lat":43.32544,"lon":5.41427,"is_reserved":false,"is_disabled":false,"rental_uris":{"android":"levelo://app?vid=9d243943-f186-4f8f-b775-710d28fca1e0","ios":"levelo://app?vid=9d243943-f186-4f8f-b775-710d28fca1e0"},"vehicle_type_id":"4","last_reported":1726579012,"current_range_meters":32800,"station_id":"ce4bhq12rcd13ifvqhhg","pricing_plan_id":"cebpf4jnsgd1na2vs0mg"},{"bike_id":"bb2e8da6-4d6a-4933-b324-753c0f37e491","system_id":"levelo_inurba_marseille","lat":43.30548,"lon":5.36531,"is_reserved":false,"is_disabled":false,"rental_uris":{"android":"levelo://app?vid=bb2e8da6-4d6a-4933-b324-753c0f37e491","ios":"levelo://app?vid=bb2e8da6-4d6a-4933-b324-753c0f37e491"},"vehicle_type_id":"4","last_reported":1726579012,"current_range_meters":25200,"station_id":"ce4bgs12rcd13ifvqcag","pricing_plan_id":"cebpf4jnsgd1na2vs0mg"},{"bike_id":"bf8cb7f4-7acb-496c-9a23-20c68c54c9b4","system_id":"levelo_inurba_marseille","lat":43.25117,"lon":5.40318,"is_reserved":false,"is_disabled":false,"rental_uris":{"android":"levelo://app?vid=bf8cb7f4-7acb-496c-9a23-20c68c54c9b4","ios":"levelo://app?vid=bf8cb7f4-7acb-496c-9a23-20c68c54c9b4"},"vehicle_type_id":"4","last_reported":1726579012,"current_range_meters":32000,"station_id":"ce4bhlh2rcd13ifvqgig","pricing_plan_id":"cebpf4jnsgd1na2vs0mg"},{"bike_id":"88f23be9-09b8-4460-93f5-49e98dd270fb","system_id":"levelo_inurba_marseille","lat":43.28036,"lon":5.36936,"is_reserved":false,"is_disabled":false,"rental_uris":{"android":"levelo://app?vid=88f23be9-09b8-4460-93f5-49e98dd270fb","ios":"levelo://app?vid=88f23be9-09b8-4460-93f5-49e98dd270fb"},"vehicle_type_id":"4","last_reported":1726579012,"current_range_meters":22000,"station_id":"ce4bha12rcd13ifvqef0","pricing_plan_id":"cebpf4jnsgd1na2vs0mg"},{"bike_id":"ebbcefaf-20d5-462a-9932-6512ad59f94f","system_id":"levelo_inurba_marseille","lat":43.29846,"lon":5.36272,"is_reserved":false,"is_disabled":false,"rental_uris":{"android":"levelo://app?vid=ebbcefaf-20d5-462a-9932-6512ad59f94f","ios":"levelo://app?vid=ebbcefaf-20d5-462a-9932-6512ad59f94f"},"vehicle_type_id":"4","last_reported":1726579012,"current_range_meters":19200,"station_id":"ce4bgpp2rcd13ifvqc3g","pricing_plan_id":"cebpf4jnsgd1na2vs0mg"},{"bike_id":"add46327-23bc-4055-bbe1-314cfc8e3709","system_id":"levelo_inurba_marseille","lat":43.23197,"lon":5.35555,"is_reserved":false,"is_disabled":false,"rental_uris":{"android":"levelo://app?vid=add46327-23bc-4055-bbe1-314cfc8e3709","ios":"levelo://app?vid=add46327-23bc-4055-bbe1-314cfc8e3709"},"vehicle_type_id":"4","last_reported":1726579012,"current_range_meters":6000,"station_id":"ce4bhu92rcd13ifvqi70","pricing_plan_id":"cebpf4jnsgd1na2vs0mg"},{"bike_id":"36587967-1e79-47c3-ba21-dd6bfe64ec87","system_id":"levelo_inurba_marseille","lat":43.32365,"lon":5.38861,"is_reserved":false,"is_disabled":false,"rental_uris":{"android":"levelo://app?vid=36587967-1e79-47c3-ba21-dd6bfe64ec87","ios":"levelo://app?vid=36587967-1e79-47c3-ba21-dd6bfe64ec87"},"vehicle_type_id":"4","last_reported":1726579012,"current_range_meters":16400,"station_id":"ce4bhqp2rcd13ifvqhog","pricing_plan_id":"cebpf4jnsgd1na2vs0mg"},{"bike_id":"dbd298e0-a382-4414-92ca-00d7d938bcff","system_id":"levelo_inurba_marseille","lat":43.23198,"lon":5.35549,"is_reserved":false,"is_disabled":false,"rental_uris":{"android":"levelo://app?vid=dbd298e0-a382-4414-92ca-00d7d938bcff","ios":"levelo://app?vid=dbd298e0-a382-4414-92ca-00d7d938bcff"},"vehicle_type_id":"4","last_reported":1726579012,"current_range_meters":36800,"station_id":"ce4bhu92rcd13ifvqi70","pricing_plan_id":"cebpf4jnsgd1na2vs0mg"},{"bike_id":"50e6c921-2b59-423f-98dd-2166e2a0b07f","system_id":"levelo_inurba_marseille","lat":43.29636,"lon":5.37713,"is_reserved":false,"is_disabled":false,"rental_uris":{"android":"levelo://app?vid=50e6c921-2b59-423f-98dd-2166e2a0b07f","ios":"levelo://app?vid=50e6c921-2b59-423f-98dd-2166e2a0b07f"},"vehicle_type_id":"4","last_reported":1726579012,"current_range_meters":27600,"station_id":"ce4bgi92rcd13ifvqb90","pricing_plan_id":"cebpf4jnsgd1na2vs0mg"},{"bike_id":"2050c9b2-57bb-4db1-ac5e-79c988433192","system_id":"levelo_inurba_marseille","lat":43.30932,"lon":5.40133,"is_reserved":false,"is_disabled":false,"rental_uris":{"android":"levelo://app?vid=2050c9b2-57bb-4db1-ac5e-79c988433192","ios":"levelo://app?vid=2050c9b2-57bb-4db1-ac5e-79c988433192"},"vehicle_type_id":"4","last_reported":1726579012,"current_range_meters":28000,"station_id":"ce4bgvp2rcd13ifvqct0","pricing_plan_id":"cebpf4jnsgd1na2vs0mg"},{"bike_id":"c9051fb2-e268-45de-b959-b85aef8f7644","system_id":"levelo_inurba_marseille","lat":43.284729,"lon":5.38417,"is_reserved":false,"is_disabled":false,"rental_uris":{"android":"levelo://app?vid=c9051fb2-e268-45de-b959-b85aef8f7644","ios":"levelo://app?vid=c9051fb2-e268-45de-b959-b85aef8f7644"},"vehicle_type_id":"4","last_reported":1726579012,"current_range_meters":25200,"station_id":"ce4bh512rcd13ifvqe3g","pricing_plan_id":"cebpf4jnsgd1na2vs0mg"},{"bike_id":"1929c344-1874-47c2-8a0c-9c82d344ce5a","system_id":"levelo_inurba_marseille","lat":43.28857,"lon":5.35844,"is_reserved":false,"is_disabled":false,"rental_uris":{"android":"levelo://app?vid=1929c344-1874-47c2-8a0c-9c82d344ce5a","ios":"levelo://app?vid=1929c344-1874-47c2-8a0c-9c82d344ce5a"},"vehicle_type_id":"4","last_reported":1726579012,"current_range_meters":38000,"station_id":"ce4bhb12rcd13ifvqem0","pricing_plan_id":"cebpf4jnsgd1na2vs0mg"},{"bike_id":"2a5808e5-1612-4dc1-a62b-b9c71459256c","system_id":"levelo_inurba_marseille","lat":43.34088,"lon":5.39104,"is_reserved":false,"is_disabled":false,"rental_uris":{"android":"levelo://app?vid=2a5808e5-1612-4dc1-a62b-b9c71459256c","ios":"levelo://app?vid=2a5808e5-1612-4dc1-a62b-b9c71459256c"},"vehicle_type_id":"4","last_reported":1726579012,"current_range_meters":11200,"station_id":"","pricing_plan_id":"cebpf4jnsgd1na2vs0mg"},{"bike_id":"9def4d63-7cec-4ef3-bac5-883bf42519e2","system_id":"levelo_inurba_marseille","lat":43.284607,"lon":5.358999,"is_reserved":false,"is_disabled":false,"rental_uris":{"android":"levelo://app?vid=9def4d63-7cec-4ef3-bac5-883bf42519e2","ios":"levelo://app?vid=9def4d63-7cec-4ef3-bac5-883bf42519e2"},"vehicle_type_id":"4","last_reported":1726579012,"current_range_meters":20400,"station_id":"ce4bhah2rcd13ifvqei0","pricing_plan_id":"cebpf4jnsgd1na2vs0mg"},{"bike_id":"43e2219b-dd8c-4128-b213-7038aa9554c3","system_id":"levelo_inurba_marseille","lat":43.26216,"lon":5.37441,"is_reserved":false,"is_disabled":false,"rental_uris":{"android":"levelo://app?vid=43e2219b-dd8c-4128-b213-7038aa9554c3","ios":"levelo://app?vid=43e2219b-dd8c-4128-b213-7038aa9554c3"},"vehicle_type_id":"4","last_reported":1726579012,"current_range_meters":17600,"station_id":"ce4bhgp2rcd13ifvqfc0","pricing_plan_id":"cebpf4jnsgd1na2vs0mg"},{"bike_id":"cb5555c2-3393-4f0d-a76f-022643f82ce7","system_id":"levelo_inurba_marseille","lat":43.31176,"lon":5.3871,"is_reserved":false,"is_disabled":false,"rental_uris":{"android":"levelo://app?vid=cb5555c2-3393-4f0d-a76f-022643f82ce7","ios":"levelo://app?vid=cb5555c2-3393-4f0d-a76f-022643f82ce7"},"vehicle_type_id":"4","last_reported":1726579012,"current_range_meters":34800,"station_id":"ce4bgv12rcd13ifvqcp0","pricing_plan_id":"cebpf4jnsgd1na2vs0mg"},{"bike_id":"37849667-f4af-4407-8d8c-65364367fe8a","system_id":"levelo_inurba_marseille","lat":43.26491,"lon":5.39547,"is_reserved":false,"is_disabled":false,"rental_uris":{"android":"levelo://app?vid=37849667-f4af-4407-8d8c-65364367fe8a","ios":"levelo://app?vid=37849667-f4af-4407-8d8c-65364367fe8a"},"vehicle_type_id":"4","last_reported":1726579012,"current_range_meters":17600,"station_id":"ce4bhi12rcd13ifvqfq0","pricing_plan_id":"cebpf4jnsgd1na2vs0mg"},{"bike_id":"c52e4848-dd66-46b8-a132-9836b7620028","system_id":"levelo_inurba_marseille","lat":43.25933,"lon":5.40911,"is_reserved":false,"is_disabled":false,"rental_uris":{"android":"levelo://app?vid=c52e4848-dd66-46b8-a132-9836b7620028","ios":"levelo://app?vid=c52e4848-dd66-46b8-a132-9836b7620028"},"vehicle_type_id":"4","last_reported":1726579012,"current_range_meters":18000,"station_id":"ce4bhm92rcd13ifvqglg","pricing_plan_id":"cebpf4jnsgd1na2vs0mg"},{"bike_id":"26ba68ce-9abf-45c1-9160-ad0d48c72a28","system_id":"levelo_inurba_marseille","lat":43.3055,"lon":5.36528,"is_reserved":false,"is_disabled":false,"rental_uris":{"android":"levelo://app?vid=26ba68ce-9abf-45c1-9160-ad0d48c72a28","ios":"levelo://app?vid=26ba68ce-9abf-45c1-9160-ad0d48c72a28"},"vehicle_type_id":"4","last_reported":1726579012,"current_range_meters":34000,"station_id":"ce4bgs12rcd13ifvqcag","pricing_plan_id":"cebpf4jnsgd1na2vs0mg"},{"bike_id":"6c3b465f-08c2-4171-978e-02e7d0439687","system_id":"levelo_inurba_marseille","lat":43.31997,"lon":5.38149,"is_reserved":false,"is_disabled":false,"rental_uris":{"android":"levelo://app?vid=6c3b465f-08c2-4171-978e-02e7d0439687","ios":"levelo://app?vid=6c3b465f-08c2-4171-978e-02e7d0439687"},"vehicle_type_id":"4","last_reported":1726579012,"current_range_meters":28000,"station_id":"ce4bhr12rcd13ifvqhpg","pricing_plan_id":"cebpf4jnsgd1na2vs0mg"},{"bike_id":"bad9e710-7ce0-48c4-b66d-1c47c52b95d4","system_id":"levelo_inurba_marseille","lat":43.23972,"lon":5.36619,"is_reserved":false,"is_disabled":false,"rental_uris":{"android":"levelo://app?vid=bad9e710-7ce0-48c4-b66d-1c47c52b95d4","ios":"levelo://app?vid=bad9e710-7ce0-48c4-b66d-1c47c52b95d4"},"vehicle_type_id":"4","last_reported":1726579012,"current_range_meters":32000,"station_id":"ce4bhi12rcd13ifvqfp0","pricing_plan_id":"cebpf4jnsgd1na2vs0mg"},{"bike_id":"8ed03d4f-f681-4f9a-b0c7-e1c5f7fb06d9","system_id":"levelo_inurba_marseille","lat":43.24084,"lon":5.37749,"is_reserved":false,"is_disabled":false,"rental_uris":{"android":"levelo://app?vid=8ed03d4f-f681-4f9a-b0c7-e1c5f7fb06d9","ios":"levelo://app?vid=8ed03d4f-f681-4f9a-b0c7-e1c5f7fb06d9"},"vehicle_type_id":"4","last_reported":1726579012,"current_range_meters":27200,"station_id":"ce4bhnp2rcd13ifvqgvg","pricing_plan_id":"cebpf4jnsgd1na2vs0mg"},{"bike_id":"42085980-51f6-48da-962d-1c1968ba6c68","system_id":"levelo_inurba_marseille","lat":43.24073,"lon":5.37763,"is_reserved":false,"is_disabled":false,"rental_uris":{"android":"levelo://app?vid=42085980-51f6-48da-962d-1c1968ba6c68","ios":"levelo://app?vid=42085980-51f6-48da-962d-1c1968ba6c68"},"vehicle_type_id":"4","last_reported":1726579012,"current_range_meters":33600,"station_id":"ce4bhnp2rcd13ifvqgvg","pricing_plan_id":"cebpf4jnsgd1na2vs0mg"},{"bike_id":"f3b2f3d8-a027-4506-aac0-4bbfcd0b3fa4","system_id":"levelo_inurba_marseille","lat":43.23056,"lon":5.35492,"is_reserved":false,"is_disabled":false,"rental_uris":{"android":"levelo://app?vid=f3b2f3d8-a027-4506-aac0-4bbfcd0b3fa4","ios":"levelo://app?vid=f3b2f3d8-a027-4506-aac0-4bbfcd0b3fa4"},"vehicle_type_id":"4","last_reported":1726579012,"current_range_meters":8800,"station_id":"cpo3342slgdg3j2ifvpg","pricing_plan_id":"cebpf4jnsgd1na2vs0mg"},{"bike_id":"882e327a-d92c-4bd6-b42d-19c69c8b050c","system_id":"levelo_inurba_marseille","lat":43.30536,"lon":5.36698,"is_reserved":false,"is_disabled":false,"rental_uris":{"android":"levelo://app?vid=882e327a-d92c-4bd6-b42d-19c69c8b050c","ios":"levelo://app?vid=882e327a-d92c-4bd6-b42d-19c69c8b050c"},"vehicle_type_id":"4","last_reported":1726579012,"current_range_meters":36800,"station_id":"ce4bgrp2rcd13ifvqc9g","pricing_plan_id":"cebpf4jnsgd1na2vs0mg"},{"bike_id":"6686a262-b20a-4d62-8105-3e491ef36b46","system_id":"levelo_inurba_marseille","lat":43.24068,"lon":5.37755,"is_reserved":false,"is_disabled":false,"rental_uris":{"android":"levelo://app?vid=6686a262-b20a-4d62-8105-3e491ef36b46","ios":"levelo://app?vid=6686a262-b20a-4d62-8105-3e491ef36b46"},"vehicle_type_id":"4","last_reported":1726579012,"current_range_meters":30000,"station_id":"ce4bhnp2rcd13ifvqgvg","pricing_plan_id":"cebpf4jnsgd1na2vs0mg"},{"bike_id":"a46ec2ea-3c8f-446e-8c8c-44920c12c752","system_id":"levelo_inurba_marseille","lat":43.3054,"lon":5.36531,"is_reserved":false,"is_disabled":false,"rental_uris":{"android":"levelo://app?vid=a46ec2ea-3c8f-446e-8c8c-44920c12c752","ios":"levelo://app?vid=a46ec2ea-3c8f-446e-8c8c-44920c12c752"},"vehicle_type_id":"4","last_reported":1726579012,"current_range_meters":31200,"station_id":"ce4bgs12rcd13ifvqcag","pricing_plan_id":"cebpf4jnsgd1na2vs0mg"},{"bike_id":"408ef893-96f2-4fd4-a0a3-828f2515d5d5","system_id":"levelo_inurba_marseille","lat":43.28036,"lon":5.35363,"is_reserved":false,"is_disabled":false,"rental_uris":{"android":"levelo://app?vid=408ef893-96f2-4fd4-a0a3-828f2515d5d5","ios":"levelo://app?vid=408ef893-96f2-4fd4-a0a3-828f2515d5d5"},"vehicle_type_id":"4","last_reported":1726579012,"current_range_meters":16800,"station_id":"","pricing_plan_id":"cebpf4jnsgd1na2vs0mg"},{"bike_id":"f409a27c-3291-4d9b-ac57-9e74e75d80d1","system_id":"levelo_inurba_marseille","lat":43.32367,"lon":5.3887,"is_reserved":false,"is_disabled":false,"rental_uris":{"android":"levelo://app?vid=f409a27c-3291-4d9b-ac57-9e74e75d80d1","ios":"levelo://app?vid=f409a27c-3291-4d9b-ac57-9e74e75d80d1"},"vehicle_type_id":"4","last_reported":1726579012,"current_range_meters":14400,"station_id":"ce4bhqp2rcd13ifvqhog","pricing_plan_id":"cebpf4jnsgd1na2vs0mg"},{"bike_id":"a698c625-52e8-47ee-a700-f99c97ad5008","system_id":"levelo_inurba_marseille","lat":43.2903,"lon":5.38633,"is_reserved":false,"is_disabled":false,"rental_uris":{"android":"levelo://app?vid=a698c625-52e8-47ee-a700-f99c97ad5008","ios":"levelo://app?vid=a698c625-52e8-47ee-a700-f99c97ad5008"},"vehicle_type_id":"4","last_reported":1726579012,"current_range_meters":16000,"station_id":"ce4bh4p2rcd13ifvqe0g","pricing_plan_id":"cebpf4jnsgd1na2vs0mg"},{"bike_id":"b49672c8-10d8-4a5b-98b6-06e99d47cba4","system_id":"levelo_inurba_marseille","lat":43.30065,"lon":5.38669,"is_reserved":false,"is_disabled":false,"rental_uris":{"android":"levelo://app?vid=b49672c8-10d8-4a5b-98b6-06e99d47cba4","ios":"levelo://app?vid=b49672c8-10d8-4a5b-98b6-06e99d47cba4"},"vehicle_type_id":"4","last_reported":1726579012,"current_range_meters":36400,"station_id":"","pricing_plan_id":"cebpf4jnsgd1na2vs0mg"},{"bike_id":"c7cc55d8-4eb2-4579-8434-921b0c6ed4f4","system_id":"levelo_inurba_marseille","lat":43.29799,"lon":5.38098,"is_reserved":false,"is_disabled":false,"rental_uris":{"android":"levelo://app?vid=c7cc55d8-4eb2-4579-8434-921b0c6ed4f4","ios":"levelo://app?vid=c7cc55d8-4eb2-4579-8434-921b0c6ed4f4"},"vehicle_type_id":"4","last_reported":1726579012,"current_range_meters":28000,"station_id":"ce4bgip2rcd13ifvqbb0","pricing_plan_id":"cebpf4jnsgd1na2vs0mg"},{"bike_id":"e632dfdb-78f4-47fa-8abe-3b4836f94471","system_id":"levelo_inurba_marseille","lat":43.27496,"lon":5.42454,"is_reserved":false,"is_disabled":false,"rental_uris":{"android":"levelo://app?vid=e632dfdb-78f4-47fa-8abe-3b4836f94471","ios":"levelo://app?vid=e632dfdb-78f4-47fa-8abe-3b4836f94471"},"vehicle_type_id":"4","last_reported":1726579012,"current_range_meters":27200,"station_id":"ce4bhn92rcd13ifvqgrg","pricing_plan_id":"cebpf4jnsgd1na2vs0mg"},{"bike_id":"a3ed4153-0b3a-4aac-858f-ecf51cc3173c","system_id":"levelo_inurba_marseille","lat":43.30143,"lon":5.37417,"is_reserved":false,"is_disabled":false,"rental_uris":{"android":"levelo://app?vid=a3ed4153-0b3a-4aac-858f-ecf51cc3173c","ios":"levelo://app?vid=a3ed4153-0b3a-4aac-858f-ecf51cc3173c"},"vehicle_type_id":"4","last_reported":1726579012,"current_range_meters":37600,"station_id":"ce4bgs92rcd13ifvqcc0","pricing_plan_id":"cebpf4jnsgd1na2vs0mg"},{"bike_id":"30ce5f9d-e14d-4ee7-b9f8-22f7215e3c5f","system_id":"levelo_inurba_marseille","lat":43.23152,"lon":5.43723,"is_reserved":false,"is_disabled":false,"rental_uris":{"android":"levelo://app?vid=30ce5f9d-e14d-4ee7-b9f8-22f7215e3c5f","ios":"levelo://app?vid=30ce5f9d-e14d-4ee7-b9f8-22f7215e3c5f"},"vehicle_type_id":"4","last_reported":1726579012,"current_range_meters":22800,"station_id":"ce4bhmp2rcd13ifvqgog","pricing_plan_id":"cebpf4jnsgd1na2vs0mg"},{"bike_id":"d8c4c12b-846d-4a23-9c59-55365613ede0","system_id":"levelo_inurba_marseille","lat":43.29968,"lon":5.38497,"is_reserved":false,"is_disabled":false,"rental_uris":{"android":"levelo://app?vid=d8c4c12b-846d-4a23-9c59-55365613ede0","ios":"levelo://app?vid=d8c4c12b-846d-4a23-9c59-55365613ede0"},"vehicle_type_id":"4","last_reported":1726579012,"current_range_meters":26000,"station_id":"ce4bgj92rcd13ifvqbd0","pricing_plan_id":"cebpf4jnsgd1na2vs0mg"},{"bike_id":"cd1d4c55-2cbb-4b85-a1be-a7235ca53de6","system_id":"levelo_inurba_marseille","lat":43.32484,"lon":5.36557,"is_reserved":false,"is_disabled":false,"rental_uris":{"android":"levelo://app?vid=cd1d4c55-2cbb-4b85-a1be-a7235ca53de6","ios":"levelo://app?vid=cd1d4c55-2cbb-4b85-a1be-a7235ca53de6"},"vehicle_type_id":"4","last_reported":1726579012,"current_range_meters":24400,"station_id":"ce4bhs12rcd13ifvqhvg","pricing_plan_id":"cebpf4jnsgd1na2vs0mg"},{"bike_id":"40626133-6241-4d72-8ef2-ce049df45fd7","system_id":"levelo_inurba_marseille","lat":43.29804,"lon":5.38092,"is_reserved":false,"is_disabled":false,"rental_uris":{"android":"levelo://app?vid=40626133-6241-4d72-8ef2-ce049df45fd7","ios":"levelo://app?vid=40626133-6241-4d72-8ef2-ce049df45fd7"},"vehicle_type_id":"4","last_reported":1726579012,"current_range_meters":38800,"station_id":"ce4bgip2rcd13ifvqbb0","pricing_plan_id":"cebpf4jnsgd1na2vs0mg"},{"bike_id":"c7f93bf2-2b30-4c5c-aa72-447b3f4a28ea","system_id":"levelo_inurba_marseille","lat":43.29896,"lon":5.43664,"is_reserved":false,"is_disabled":false,"rental_uris":{"android":"levelo://app?vid=c7f93bf2-2b30-4c5c-aa72-447b3f4a28ea","ios":"levelo://app?vid=c7f93bf2-2b30-4c5c-aa72-447b3f4a28ea"},"vehicle_type_id":"4","last_reported":1726579012,"current_range_meters":9200,"station_id":"ce4bhpp2rcd13ifvqhfg","pricing_plan_id":"cebpf4jnsgd1na2vs0mg"},{"bike_id":"ae34db82-9e87-446a-81b3-3b06f119198a","system_id":"levelo_inurba_marseille","lat":43.32549,"lon":5.4143,"is_reserved":false,"is_disabled":false,"rental_uris":{"android":"levelo://app?vid=ae34db82-9e87-446a-81b3-3b06f119198a","ios":"levelo://app?vid=ae34db82-9e87-446a-81b3-3b06f119198a"},"vehicle_type_id":"4","last_reported":1726579012,"current_range_meters":10000,"station_id":"ce4bhq12rcd13ifvqhhg","pricing_plan_id":"cebpf4jnsgd1na2vs0mg"},{"bike_id":"58ce924a-882e-43b6-9991-ea8db65c1e2c","system_id":"levelo_inurba_marseille","lat":43.23199,"lon":5.35557,"is_reserved":false,"is_disabled":false,"rental_uris":{"android":"levelo://app?vid=58ce924a-882e-43b6-9991-ea8db65c1e2c","ios":"levelo://app?vid=58ce924a-882e-43b6-9991-ea8db65c1e2c"},"vehicle_type_id":"4","last_reported":1726579012,"current_range_meters":22000,"station_id":"ce4bhu92rcd13ifvqi70","pricing_plan_id":"cebpf4jnsgd1na2vs0mg"},{"bike_id":"22a588b1-cfec-4a63-9499-3cf933091fed","system_id":"levelo_inurba_marseille","lat":43.30544,"lon":5.36703,"is_reserved":false,"is_disabled":false,"rental_uris":{"android":"levelo://app?vid=22a588b1-cfec-4a63-9499-3cf933091fed","ios":"levelo://app?vid=22a588b1-cfec-4a63-9499-3cf933091fed"},"vehicle_type_id":"4","last_reported":1726579012,"current_range_meters":38800,"station_id":"ce4bgrp2rcd13ifvqc9g","pricing_plan_id":"cebpf4jnsgd1na2vs0mg"},{"bike_id":"ce517f6b-e46e-493a-9a5a-6f79898138b6","system_id":"levelo_inurba_marseille","lat":43.2761,"lon":5.36113,"is_reserved":false,"is_disabled":false,"rental_uris":{"android":"levelo://app?vid=ce517f6b-e46e-493a-9a5a-6f79898138b6","ios":"levelo://app?vid=ce517f6b-e46e-493a-9a5a-6f79898138b6"},"vehicle_type_id":"4","last_reported":1726579012,"current_range_meters":22400,"station_id":"ce4bgj92rcd13ifvqbe0","pricing_plan_id":"cebpf4jnsgd1na2vs0mg"},{"bike_id":"dc22dd2b-b6ed-4ede-bd36-1356c285cfa9","system_id":"levelo_inurba_marseille","lat":43.29631,"lon":5.40593,"is_reserved":false,"is_disabled":false,"rental_uris":{"android":"levelo://app?vid=dc22dd2b-b6ed-4ede-bd36-1356c285cfa9","ios":"levelo://app?vid=dc22dd2b-b6ed-4ede-bd36-1356c285cfa9"},"vehicle_type_id":"4","last_reported":1726579012,"current_range_meters":11200,"station_id":"ce4bh0h2rcd13ifvqd60","pricing_plan_id":"cebpf4jnsgd1na2vs0mg"},{"bike_id":"721ee7b7-1ca0-4961-b1f6-a6f71d52fe4a","system_id":"levelo_inurba_marseille","lat":43.25501,"lon":5.3765,"is_reserved":false,"is_disabled":false,"rental_uris":{"android":"levelo://app?vid=721ee7b7-1ca0-4961-b1f6-a6f71d52fe4a","ios":"levelo://app?vid=721ee7b7-1ca0-4961-b1f6-a6f71d52fe4a"},"vehicle_type_id":"4","last_reported":1726579012,"current_range_meters":8000,"station_id":"ce4bhh12rcd13ifvqff0","pricing_plan_id":"cebpf4jnsgd1na2vs0mg"},{"bike_id":"54d27f26-f2ca-40f9-9a5a-6647c45caba7","system_id":"levelo_inurba_marseille","lat":43.28714,"lon":5.379344,"is_reserved":false,"is_disabled":false,"rental_uris":{"android":"levelo://app?vid=54d27f26-f2ca-40f9-9a5a-6647c45caba7","ios":"levelo://app?vid=54d27f26-f2ca-40f9-9a5a-6647c45caba7"},"vehicle_type_id":"4","last_reported":1726579012,"current_range_meters":27600,"station_id":"ce4bh9p2rcd13ifvqec0","pricing_plan_id":"cebpf4jnsgd1na2vs0mg"},{"bike_id":"34d1d709-4cef-47c7-a4d4-ad8fa3126f48","system_id":"levelo_inurba_marseille","lat":43.29029,"lon":5.38627,"is_reserved":false,"is_disabled":false,"rental_uris":{"android":"levelo://app?vid=34d1d709-4cef-47c7-a4d4-ad8fa3126f48","ios":"levelo://app?vid=34d1d709-4cef-47c7-a4d4-ad8fa3126f48"},"vehicle_type_id":"4","last_reported":1726579012,"current_range_meters":14400,"station_id":"ce4bh4p2rcd13ifvqe0g","pricing_plan_id":"cebpf4jnsgd1na2vs0mg"},{"bike_id":"8493a5c9-23da-44d6-a382-ed1ca6f4aaba","system_id":"levelo_inurba_marseille","lat":43.29592,"lon":5.38096,"is_reserved":false,"is_disabled":false,"rental_uris":{"android":"levelo://app?vid=8493a5c9-23da-44d6-a382-ed1ca6f4aaba","ios":"levelo://app?vid=8493a5c9-23da-44d6-a382-ed1ca6f4aaba"},"vehicle_type_id":"4","last_reported":1726579012,"current_range_meters":18000,"station_id":"ce4bgl12rcd13ifvqbo0","pricing_plan_id":"cebpf4jnsgd1na2vs0mg"},{"bike_id":"a2c50649-157e-444d-8d69-10e3a5314911","system_id":"levelo_inurba_marseille","lat":43.29807,"lon":5.40403,"is_reserved":false,"is_disabled":false,"rental_uris":{"android":"levelo://app?vid=a2c50649-157e-444d-8d69-10e3a5314911","ios":"levelo://app?vid=a2c50649-157e-444d-8d69-10e3a5314911"},"vehicle_type_id":"4","last_reported":1726579012,"current_range_meters":16800,"station_id":"ce4bh112rcd13ifvqd90","pricing_plan_id":"cebpf4jnsgd1na2vs0mg"},{"bike_id":"fdc29643-4932-48e1-b450-66847ee12129","system_id":"levelo_inurba_marseille","lat":43.26939,"lon":5.38925,"is_reserved":false,"is_disabled":false,"rental_uris":{"android":"levelo://app?vid=fdc29643-4932-48e1-b450-66847ee12129","ios":"levelo://app?vid=fdc29643-4932-48e1-b450-66847ee12129"},"vehicle_type_id":"4","last_reported":1726579012,"current_range_meters":37600,"station_id":"ce4bhhh2rcd13ifvqfl0","pricing_plan_id":"cebpf4jnsgd1na2vs0mg"},{"bike_id":"219d775b-e3d5-4c31-9579-99f4bbf71813","system_id":"levelo_inurba_marseille","lat":43.29961,"lon":5.41317,"is_reserved":false,"is_disabled":false,"rental_uris":{"android":"levelo://app?vid=219d775b-e3d5-4c31-9579-99f4bbf71813","ios":"levelo://app?vid=219d775b-e3d5-4c31-9579-99f4bbf71813"},"vehicle_type_id":"4","last_reported":1726579012,"current_range_meters":38400,"station_id":"ce4bhp12rcd13ifvqh9g","pricing_plan_id":"cebpf4jnsgd1na2vs0mg"},{"bike_id":"103760d1-8d1c-4f5b-8d16-0965a699dcd4","system_id":"levelo_inurba_marseille","lat":43.275002,"lon":5.424695,"is_reserved":false,"is_disabled":false,"rental_uris":{"android":"levelo://app?vid=103760d1-8d1c-4f5b-8d16-0965a699dcd4","ios":"levelo://app?vid=103760d1-8d1c-4f5b-8d16-0965a699dcd4"},"vehicle_type_id":"4","last_reported":1726579012,"current_range_meters":8000,"station_id":"ce4bhn92rcd13ifvqgrg","pricing_plan_id":"cebpf4jnsgd1na2vs0mg"},{"bike_id":"6f20f2ea-f368-4437-a331-7547cb3a1b61","system_id":"levelo_inurba_marseille","lat":43.30854,"lon":5.36792,"is_reserved":false,"is_disabled":false,"rental_uris":{"android":"levelo://app?vid=6f20f2ea-f368-4437-a331-7547cb3a1b61","ios":"levelo://app?vid=6f20f2ea-f368-4437-a331-7547cb3a1b61"},"vehicle_type_id":"4","last_reported":1726579012,"current_range_meters":20000,"station_id":"ce4bgn92rcd13ifvqbvg","pricing_plan_id":"cebpf4jnsgd1na2vs0mg"},{"bike_id":"8cb592d9-f82f-4171-894f-8d7ffa6525e5","system_id":"levelo_inurba_marseille","lat":43.23194,"lon":5.35545,"is_reserved":false,"is_disabled":false,"rental_uris":{"android":"levelo://app?vid=8cb592d9-f82f-4171-894f-8d7ffa6525e5","ios":"levelo://app?vid=8cb592d9-f82f-4171-894f-8d7ffa6525e5"},"vehicle_type_id":"4","last_reported":1726579012,"current_range_meters":19200,"station_id":"ce4bhu92rcd13ifvqi70","pricing_plan_id":"cebpf4jnsgd1na2vs0mg"},{"bike_id":"9290568d-62be-42a6-b3eb-9c3c29c5fd96","system_id":"levelo_inurba_marseille","lat":43.28421,"lon":5.34987,"is_reserved":false,"is_disabled":false,"rental_uris":{"android":"levelo://app?vid=9290568d-62be-42a6-b3eb-9c3c29c5fd96","ios":"levelo://app?vid=9290568d-62be-42a6-b3eb-9c3c29c5fd96"},"vehicle_type_id":"4","last_reported":1726579012,"current_range_meters":8800,"station_id":"ce4bhbh2rcd13ifvqepg","pricing_plan_id":"cebpf4jnsgd1na2vs0mg"},{"bike_id":"5d75f6aa-86df-493f-8d69-fe45e17e7161","system_id":"levelo_inurba_marseille","lat":43.27372,"lon":5.36244,"is_reserved":false,"is_disabled":false,"rental_uris":{"android":"levelo://app?vid=5d75f6aa-86df-493f-8d69-fe45e17e7161","ios":"levelo://app?vid=5d75f6aa-86df-493f-8d69-fe45e17e7161"},"vehicle_type_id":"4","last_reported":1726579012,"current_range_meters":37600,"station_id":"ce4bhbh2rcd13ifvqeo0","pricing_plan_id":"cebpf4jnsgd1na2vs0mg"},{"bike_id":"285e7841-204a-4b8e-8658-4da9bd95684e","system_id":"levelo_inurba_marseille","lat":43.32483,"lon":5.36569,"is_reserved":false,"is_disabled":false,"rental_uris":{"android":"levelo://app?vid=285e7841-204a-4b8e-8658-4da9bd95684e","ios":"levelo://app?vid=285e7841-204a-4b8e-8658-4da9bd95684e"},"vehicle_type_id":"4","last_reported":1726579012,"current_range_meters":26800,"station_id":"ce4bhs12rcd13ifvqhvg","pricing_plan_id":"cebpf4jnsgd1na2vs0mg"},{"bike_id":"277c735b-d5d8-4974-98c1-11d4365e331e","system_id":"levelo_inurba_marseille","lat":43.32543,"lon":5.41439,"is_reserved":false,"is_disabled":false,"rental_uris":{"android":"levelo://app?vid=277c735b-d5d8-4974-98c1-11d4365e331e","ios":"levelo://app?vid=277c735b-d5d8-4974-98c1-11d4365e331e"},"vehicle_type_id":"4","last_reported":1726579012,"current_range_meters":2800,"station_id":"ce4bhq12rcd13ifvqhhg","pricing_plan_id":"cebpf4jnsgd1na2vs0mg"},{"bike_id":"20a4a91d-8541-4958-9b2e-4e75165c8a2a","system_id":"levelo_inurba_marseille","lat":43.30799,"lon":5.43518,"is_reserved":false,"is_disabled":false,"rental_uris":{"android":"levelo://app?vid=20a4a91d-8541-4958-9b2e-4e75165c8a2a","ios":"levelo://app?vid=20a4a91d-8541-4958-9b2e-4e75165c8a2a"},"vehicle_type_id":"4","last_reported":1726579012,"current_range_meters":14400,"station_id":"ce4bhph2rcd13ifvqheg","pricing_plan_id":"cebpf4jnsgd1na2vs0mg"},{"bike_id":"48e533b9-3430-4347-97c0-c2dea8a02f04","system_id":"levelo_inurba_marseille","lat":43.3054,"lon":5.38424,"is_reserved":false,"is_disabled":false,"rental_uris":{"android":"levelo://app?vid=48e533b9-3430-4347-97c0-c2dea8a02f04","ios":"levelo://app?vid=48e533b9-3430-4347-97c0-c2dea8a02f04"},"vehicle_type_id":"4","last_reported":1726579012,"current_range_meters":22000,"station_id":"ce4bgg92rcd13ifvqb30","pricing_plan_id":"cebpf4jnsgd1na2vs0mg"},{"bike_id":"ae5c01f2-0daa-4777-9612-95f5ef400946","system_id":"levelo_inurba_marseille","lat":43.296222,"lon":5.386819,"is_reserved":false,"is_disabled":false,"rental_uris":{"android":"levelo://app?vid=ae5c01f2-0daa-4777-9612-95f5ef400946","ios":"levelo://app?vid=ae5c01f2-0daa-4777-9612-95f5ef400946"},"vehicle_type_id":"4","last_reported":1726579012,"current_range_meters":32400,"station_id":"","pricing_plan_id":"cebpf4jnsgd1na2vs0mg"},{"bike_id":"c3bcca86-6294-4639-9d07-9722d40f464e","system_id":"levelo_inurba_marseille","lat":43.29904,"lon":5.43666,"is_reserved":false,"is_disabled":false,"rental_uris":{"android":"levelo://app?vid=c3bcca86-6294-4639-9d07-9722d40f464e","ios":"levelo://app?vid=c3bcca86-6294-4639-9d07-9722d40f464e"},"vehicle_type_id":"4","last_reported":1726579012,"current_range_meters":34800,"station_id":"ce4bhpp2rcd13ifvqhfg","pricing_plan_id":"cebpf4jnsgd1na2vs0mg"},{"bike_id":"b8575011-8302-48a4-8af4-a59ce79d4a2f","system_id":"levelo_inurba_marseille","lat":43.3108,"lon":5.42436,"is_reserved":false,"is_disabled":false,"rental_uris":{"android":"levelo://app?vid=b8575011-8302-48a4-8af4-a59ce79d4a2f","ios":"levelo://app?vid=b8575011-8302-48a4-8af4-a59ce79d4a2f"},"vehicle_type_id":"4","last_reported":1726579012,"current_range_meters":31200,"station_id":"ce4bhp92rcd13ifvqhag","pricing_plan_id":"cebpf4jnsgd1na2vs0mg"},{"bike_id":"846701c9-7062-4e6c-8f54-36edd13d79a4","system_id":"levelo_inurba_marseille","lat":43.33609,"lon":5.4103,"is_reserved":false,"is_disabled":false,"rental_uris":{"android":"levelo://app?vid=846701c9-7062-4e6c-8f54-36edd13d79a4","ios":"levelo://app?vid=846701c9-7062-4e6c-8f54-36edd13d79a4"},"vehicle_type_id":"4","last_reported":1726579012,"current_range_meters":29600,"station_id":"ce4bhqh2rcd13ifvqhmg","pricing_plan_id":"cebpf4jnsgd1na2vs0mg"},{"bike_id":"8d4fa9ce-4f53-4bbd-8ebe-9fa61a6486de","system_id":"levelo_inurba_marseille","lat":43.27617,"lon":5.36112,"is_reserved":false,"is_disabled":false,"rental_uris":{"android":"levelo://app?vid=8d4fa9ce-4f53-4bbd-8ebe-9fa61a6486de","ios":"levelo://app?vid=8d4fa9ce-4f53-4bbd-8ebe-9fa61a6486de"},"vehicle_type_id":"4","last_reported":1726579012,"current_range_meters":17200,"station_id":"ce4bgj92rcd13ifvqbe0","pricing_plan_id":"cebpf4jnsgd1na2vs0mg"},{"bike_id":"5074b95a-d399-4ca5-8a6e-f86892dd35d4","system_id":"levelo_inurba_marseille","lat":43.29879,"lon":5.39742,"is_reserved":false,"is_disabled":false,"rental_uris":{"android":"levelo://app?vid=5074b95a-d399-4ca5-8a6e-f86892dd35d4","ios":"levelo://app?vid=5074b95a-d399-4ca5-8a6e-f86892dd35d4"},"vehicle_type_id":"4","last_reported":1726579012,"current_range_meters":34800,"station_id":"ce4bh0h2rcd13ifvqd50","pricing_plan_id":"cebpf4jnsgd1na2vs0mg"},{"bike_id":"8e3c84db-879d-4669-8d43-f74eed3d4c1b","system_id":"levelo_inurba_marseille","lat":43.27376,"lon":5.36262,"is_reserved":false,"is_disabled":false,"rental_uris":{"android":"levelo://app?vid=8e3c84db-879d-4669-8d43-f74eed3d4c1b","ios":"levelo://app?vid=8e3c84db-879d-4669-8d43-f74eed3d4c1b"},"vehicle_type_id":"4","last_reported":1726579012,"current_range_meters":37600,"station_id":"ce4bhbh2rcd13ifvqeo0","pricing_plan_id":"cebpf4jnsgd1na2vs0mg"},{"bike_id":"53cc3fbb-27b1-4122-a457-b30da4a2ead2","system_id":"levelo_inurba_marseille","lat":43.22933,"lon":5.35375,"is_reserved":false,"is_disabled":false,"rental_uris":{"android":"levelo://app?vid=53cc3fbb-27b1-4122-a457-b30da4a2ead2","ios":"levelo://app?vid=53cc3fbb-27b1-4122-a457-b30da4a2ead2"},"vehicle_type_id":"4","last_reported":1726579012,"current_range_meters":8000,"station_id":"cpo3532slgdg3j2ikp40","pricing_plan_id":"cebpf4jnsgd1na2vs0mg"},{"bike_id":"c713e689-e011-4b39-8d6e-01f0f479716a","system_id":"levelo_inurba_marseille","lat":43.32056,"lon":5.41545,"is_reserved":false,"is_disabled":false,"rental_uris":{"android":"levelo://app?vid=c713e689-e011-4b39-8d6e-01f0f479716a","ios":"levelo://app?vid=c713e689-e011-4b39-8d6e-01f0f479716a"},"vehicle_type_id":"4","last_reported":1726579012,"current_range_meters":36400,"station_id":"ce4bhq92rcd13ifvqhkg","pricing_plan_id":"cebpf4jnsgd1na2vs0mg"},{"bike_id":"d2b559fc-871f-4257-a3d4-5430f5b90305","system_id":"levelo_inurba_marseille","lat":43.29261,"lon":5.4091,"is_reserved":false,"is_disabled":false,"rental_uris":{"android":"levelo://app?vid=d2b559fc-871f-4257-a3d4-5430f5b90305","ios":"levelo://app?vid=d2b559fc-871f-4257-a3d4-5430f5b90305"},"vehicle_type_id":"4","last_reported":1726579012,"current_range_meters":20400,"station_id":"ce4bh192rcd13ifvqdc0","pricing_plan_id":"cebpf4jnsgd1na2vs0mg"},{"bike_id":"b1db6496-7d7b-4acc-a88c-e5406d38e100","system_id":"levelo_inurba_marseille","lat":43.23191,"lon":5.35546,"is_reserved":false,"is_disabled":false,"rental_uris":{"android":"levelo://app?vid=b1db6496-7d7b-4acc-a88c-e5406d38e100","ios":"levelo://app?vid=b1db6496-7d7b-4acc-a88c-e5406d38e100"},"vehicle_type_id":"4","last_reported":1726579012,"current_range_meters":27200,"station_id":"ce4bhu92rcd13ifvqi70","pricing_plan_id":"cebpf4jnsgd1na2vs0mg"},{"bike_id":"2716ff05-5413-408f-9aee-b90ed0b4829f","system_id":"levelo_inurba_marseille","lat":43.27493,"lon":5.42455,"is_reserved":false,"is_disabled":false,"rental_uris":{"android":"levelo://app?vid=2716ff05-5413-408f-9aee-b90ed0b4829f","ios":"levelo://app?vid=2716ff05-5413-408f-9aee-b90ed0b4829f"},"vehicle_type_id":"4","last_reported":1726579012,"current_range_meters":24400,"station_id":"ce4bhn92rcd13ifvqgrg","pricing_plan_id":"cebpf4jnsgd1na2vs0mg"},{"bike_id":"733e4865-3357-4a1f-819b-4a724885d4e3","system_id":"levelo_inurba_marseille","lat":43.26923,"lon":5.38635,"is_reserved":false,"is_disabled":false,"rental_uris":{"android":"levelo://app?vid=733e4865-3357-4a1f-819b-4a724885d4e3","ios":"levelo://app?vid=733e4865-3357-4a1f-819b-4a724885d4e3"},"vehicle_type_id":"4","last_reported":1726579012,"current_range_meters":32400,"station_id":"ce4bhh92rcd13ifvqfh0","pricing_plan_id":"cebpf4jnsgd1na2vs0mg"},{"bike_id":"6baa22f0-81f1-4bc6-a0e3-cdd62170b76c","system_id":"levelo_inurba_marseille","lat":43.27503,"lon":5.42441,"is_reserved":false,"is_disabled":false,"rental_uris":{"android":"levelo://app?vid=6baa22f0-81f1-4bc6-a0e3-cdd62170b76c","ios":"levelo://app?vid=6baa22f0-81f1-4bc6-a0e3-cdd62170b76c"},"vehicle_type_id":"4","last_reported":1726579012,"current_range_meters":2800,"station_id":"ce4bhn92rcd13ifvqgrg","pricing_plan_id":"cebpf4jnsgd1na2vs0mg"},{"bike_id":"1a3c1d3f-7175-4bb7-8d99-c0b8fcfe1785","system_id":"levelo_inurba_marseille","lat":43.29727,"lon":5.37687,"is_reserved":false,"is_disabled":false,"rental_uris":{"android":"levelo://app?vid=1a3c1d3f-7175-4bb7-8d99-c0b8fcfe1785","ios":"levelo://app?vid=1a3c1d3f-7175-4bb7-8d99-c0b8fcfe1785"},"vehicle_type_id":"4","last_reported":1726579012,"current_range_meters":21600,"station_id":"ce4bgkh2rcd13ifvqbl0","pricing_plan_id":"cebpf4jnsgd1na2vs0mg"},{"bike_id":"cc3b8af5-922b-47a4-9520-14c9cfb481c6","system_id":"levelo_inurba_marseille","lat":43.27494,"lon":5.42444,"is_reserved":false,"is_disabled":false,"rental_uris":{"android":"levelo://app?vid=cc3b8af5-922b-47a4-9520-14c9cfb481c6","ios":"levelo://app?vid=cc3b8af5-922b-47a4-9520-14c9cfb481c6"},"vehicle_type_id":"4","last_reported":1726579012,"current_range_meters":8400,"station_id":"ce4bhn92rcd13ifvqgrg","pricing_plan_id":"cebpf4jnsgd1na2vs0mg"},{"bike_id":"bf3a63d7-6291-4430-9419-2370e91eea7c","system_id":"levelo_inurba_marseille","lat":43.29605,"lon":5.38096,"is_reserved":false,"is_disabled":false,"rental_uris":{"android":"levelo://app?vid=bf3a63d7-6291-4430-9419-2370e91eea7c","ios":"levelo://app?vid=bf3a63d7-6291-4430-9419-2370e91eea7c"},"vehicle_type_id":"4","last_reported":1726579012,"current_range_meters":11600,"station_id":"ce4bgl12rcd13ifvqbo0","pricing_plan_id":"cebpf4jnsgd1na2vs0mg"},{"bike_id":"35e036ee-a5d3-4fc7-b4b6-bb8d3e2d94a6","system_id":"levelo_inurba_marseille","lat":43.30252,"lon":5.4009,"is_reserved":false,"is_disabled":false,"rental_uris":{"android":"levelo://app?vid=35e036ee-a5d3-4fc7-b4b6-bb8d3e2d94a6","ios":"levelo://app?vid=35e036ee-a5d3-4fc7-b4b6-bb8d3e2d94a6"},"vehicle_type_id":"4","last_reported":1726579012,"current_range_meters":16800,"station_id":"ce4bgvh2rcd13ifvqcs0","pricing_plan_id":"cebpf4jnsgd1na2vs0mg"},{"bike_id":"93cf9da1-99ce-43f2-a5ca-37ae84dfcaff","system_id":"levelo_inurba_marseille","lat":43.298715,"lon":5.397331,"is_reserved":false,"is_disabled":false,"rental_uris":{"android":"levelo://app?vid=93cf9da1-99ce-43f2-a5ca-37ae84dfcaff","ios":"levelo://app?vid=93cf9da1-99ce-43f2-a5ca-37ae84dfcaff"},"vehicle_type_id":"4","last_reported":1726579012,"current_range_meters":22000,"station_id":"ce4bh0h2rcd13ifvqd50","pricing_plan_id":"cebpf4jnsgd1na2vs0mg"},{"bike_id":"b645ac77-0d58-4fa9-8ad3-947af8bdb1d9","system_id":"levelo_inurba_marseille","lat":43.29897,"lon":5.43669,"is_reserved":false,"is_disabled":false,"rental_uris":{"android":"levelo://app?vid=b645ac77-0d58-4fa9-8ad3-947af8bdb1d9","ios":"levelo://app?vid=b645ac77-0d58-4fa9-8ad3-947af8bdb1d9"},"vehicle_type_id":"4","last_reported":1726579012,"current_range_meters":24800,"station_id":"ce4bhpp2rcd13ifvqhfg","pricing_plan_id":"cebpf4jnsgd1na2vs0mg"},{"bike_id":"75f7f11e-9f0a-4136-85bf-0b0ce04e45cd","system_id":"levelo_inurba_marseille","lat":43.27175,"lon":5.40991,"is_reserved":false,"is_disabled":false,"rental_uris":{"android":"levelo://app?vid=75f7f11e-9f0a-4136-85bf-0b0ce04e45cd","ios":"levelo://app?vid=75f7f11e-9f0a-4136-85bf-0b0ce04e45cd"},"vehicle_type_id":"4","last_reported":1726579012,"current_range_meters":38800,"station_id":"ce4bhl12rcd13ifvqgf0","pricing_plan_id":"cebpf4jnsgd1na2vs0mg"},{"bike_id":"dfd2b010-d2fb-4362-b034-681d537287af","system_id":"levelo_inurba_marseille","lat":43.25003,"lon":5.38933,"is_reserved":false,"is_disabled":false,"rental_uris":{"android":"levelo://app?vid=dfd2b010-d2fb-4362-b034-681d537287af","ios":"levelo://app?vid=dfd2b010-d2fb-4362-b034-681d537287af"},"vehicle_type_id":"4","last_reported":1726579012,"current_range_meters":36000,"station_id":"ce4bhgp2rcd13ifvqfd0","pricing_plan_id":"cebpf4jnsgd1na2vs0mg"},{"bike_id":"1eace2af-a35b-4262-9ec4-cbb516922977","system_id":"levelo_inurba_marseille","lat":43.26801,"lon":5.39419,"is_reserved":false,"is_disabled":false,"rental_uris":{"android":"levelo://app?vid=1eace2af-a35b-4262-9ec4-cbb516922977","ios":"levelo://app?vid=1eace2af-a35b-4262-9ec4-cbb516922977"},"vehicle_type_id":"4","last_reported":1726579012,"current_range_meters":29600,"station_id":"ce4bhh12rcd13ifvqfg0","pricing_plan_id":"cebpf4jnsgd1na2vs0mg"},{"bike_id":"a6484cba-fb5d-4c58-bda6-1991acb43b0d","system_id":"levelo_inurba_marseille","lat":43.32546,"lon":5.41435,"is_reserved":false,"is_disabled":false,"rental_uris":{"android":"levelo://app?vid=a6484cba-fb5d-4c58-bda6-1991acb43b0d","ios":"levelo://app?vid=a6484cba-fb5d-4c58-bda6-1991acb43b0d"},"vehicle_type_id":"4","last_reported":1726579012,"current_range_meters":13600,"station_id":"ce4bhq12rcd13ifvqhhg","pricing_plan_id":"cebpf4jnsgd1na2vs0mg"},{"bike_id":"d07510fb-c4f4-4c85-81e3-a462d20e3255","system_id":"levelo_inurba_marseille","lat":43.23152,"lon":5.43712,"is_reserved":false,"is_disabled":false,"rental_uris":{"android":"levelo://app?vid=d07510fb-c4f4-4c85-81e3-a462d20e3255","ios":"levelo://app?vid=d07510fb-c4f4-4c85-81e3-a462d20e3255"},"vehicle_type_id":"4","last_reported":1726579012,"current_range_meters":28800,"station_id":"ce4bhmp2rcd13ifvqgog","pricing_plan_id":"cebpf4jnsgd1na2vs0mg"},{"bike_id":"408c5749-702c-43ea-9058-5bebe1ea2111","system_id":"levelo_inurba_marseille","lat":43.27494,"lon":5.42461,"is_reserved":false,"is_disabled":false,"rental_uris":{"android":"levelo://app?vid=408c5749-702c-43ea-9058-5bebe1ea2111","ios":"levelo://app?vid=408c5749-702c-43ea-9058-5bebe1ea2111"},"vehicle_type_id":"4","last_reported":1726579012,"current_range_meters":15200,"station_id":"ce4bhn92rcd13ifvqgrg","pricing_plan_id":"cebpf4jnsgd1na2vs0mg"},{"bike_id":"677498c9-746b-4650-9a8e-2c7479635944","system_id":"levelo_inurba_marseille","lat":43.33026,"lon":5.39046,"is_reserved":false,"is_disabled":false,"rental_uris":{"android":"levelo://app?vid=677498c9-746b-4650-9a8e-2c7479635944","ios":"levelo://app?vid=677498c9-746b-4650-9a8e-2c7479635944"},"vehicle_type_id":"4","last_reported":1726579012,"current_range_meters":22400,"station_id":"ce4bhr92rcd13ifvqhrg","pricing_plan_id":"cebpf4jnsgd1na2vs0mg"},{"bike_id":"a8f001cc-011c-492d-845a-c4644d2a1f1e","system_id":"levelo_inurba_marseille","lat":43.32543,"lon":5.41428,"is_reserved":false,"is_disabled":false,"rental_uris":{"android":"levelo://app?vid=a8f001cc-011c-492d-845a-c4644d2a1f1e","ios":"levelo://app?vid=a8f001cc-011c-492d-845a-c4644d2a1f1e"},"vehicle_type_id":"4","last_reported":1726579012,"current_range_meters":14400,"station_id":"ce4bhq12rcd13ifvqhhg","pricing_plan_id":"cebpf4jnsgd1na2vs0mg"},{"bike_id":"fa812ed1-9c97-44c1-9e9e-93ca7b953e71","system_id":"levelo_inurba_marseille","lat":43.27181,"lon":5.40997,"is_reserved":false,"is_disabled":false,"rental_uris":{"android":"levelo://app?vid=fa812ed1-9c97-44c1-9e9e-93ca7b953e71","ios":"levelo://app?vid=fa812ed1-9c97-44c1-9e9e-93ca7b953e71"},"vehicle_type_id":"4","last_reported":1726579012,"current_range_meters":2000,"station_id":"ce4bhl12rcd13ifvqgf0","pricing_plan_id":"cebpf4jnsgd1na2vs0mg"},{"bike_id":"9da83816-97c7-476e-a188-32d911a44065","system_id":"levelo_inurba_marseille","lat":43.25495,"lon":5.37647,"is_reserved":false,"is_disabled":false,"rental_uris":{"android":"levelo://app?vid=9da83816-97c7-476e-a188-32d911a44065","ios":"levelo://app?vid=9da83816-97c7-476e-a188-32d911a44065"},"vehicle_type_id":"4","last_reported":1726579012,"current_range_meters":3200,"station_id":"ce4bhh12rcd13ifvqff0","pricing_plan_id":"cebpf4jnsgd1na2vs0mg"},{"bike_id":"dc2f6e1a-92a7-4e40-af0f-839fbdb42036","system_id":"levelo_inurba_marseille","lat":43.29881,"lon":5.39739,"is_reserved":false,"is_disabled":false,"rental_uris":{"android":"levelo://app?vid=dc2f6e1a-92a7-4e40-af0f-839fbdb42036","ios":"levelo://app?vid=dc2f6e1a-92a7-4e40-af0f-839fbdb42036"},"vehicle_type_id":"4","last_reported":1726579012,"current_range_meters":24000,"station_id":"ce4bh0h2rcd13ifvqd50","pricing_plan_id":"cebpf4jnsgd1na2vs0mg"},{"bike_id":"38b6ba0d-33c2-41ec-a02a-d6ab28191916","system_id":"levelo_inurba_marseille","lat":43.28731,"lon":5.36076,"is_reserved":false,"is_disabled":false,"rental_uris":{"android":"levelo://app?vid=38b6ba0d-33c2-41ec-a02a-d6ab28191916","ios":"levelo://app?vid=38b6ba0d-33c2-41ec-a02a-d6ab28191916"},"vehicle_type_id":"4","last_reported":1726579012,"current_range_meters":37600,"station_id":"cki0cbj6b192h4jlfktg","pricing_plan_id":"cebpf4jnsgd1na2vs0mg"},{"bike_id":"05d8f5ca-3641-4331-bd9e-16e14944b5fb","system_id":"levelo_inurba_marseille","lat":43.29994,"lon":5.3717,"is_reserved":false,"is_disabled":false,"rental_uris":{"android":"levelo://app?vid=05d8f5ca-3641-4331-bd9e-16e14944b5fb","ios":"levelo://app?vid=05d8f5ca-3641-4331-bd9e-16e14944b5fb"},"vehicle_type_id":"4","last_reported":1726579012,"current_range_meters":38800,"station_id":"ce4bgr92rcd13ifvqc7g","pricing_plan_id":"cebpf4jnsgd1na2vs0mg"},{"bike_id":"7ba5a0d3-87f5-4dbc-8dc8-0d67d795da41","system_id":"levelo_inurba_marseille","lat":43.30912,"lon":5.36847,"is_reserved":false,"is_disabled":false,"rental_uris":{"android":"levelo://app?vid=7ba5a0d3-87f5-4dbc-8dc8-0d67d795da41","ios":"levelo://app?vid=7ba5a0d3-87f5-4dbc-8dc8-0d67d795da41"},"vehicle_type_id":"4","last_reported":1726579012,"current_range_meters":38800,"station_id":"ce4bgn92rcd13ifvqbvg","pricing_plan_id":"cebpf4jnsgd1na2vs0mg"},{"bike_id":"81ef296d-5cd1-4d8c-8609-bc535a0c6c7e","system_id":"levelo_inurba_marseille","lat":43.24073,"lon":5.37752,"is_reserved":false,"is_disabled":false,"rental_uris":{"android":"levelo://app?vid=81ef296d-5cd1-4d8c-8609-bc535a0c6c7e","ios":"levelo://app?vid=81ef296d-5cd1-4d8c-8609-bc535a0c6c7e"},"vehicle_type_id":"4","last_reported":1726579012,"current_range_meters":4000,"station_id":"ce4bhnp2rcd13ifvqgvg","pricing_plan_id":"cebpf4jnsgd1na2vs0mg"},{"bike_id":"e322896a-9301-4e00-8a2b-00ac0afcf56a","system_id":"levelo_inurba_marseille","lat":43.2972,"lon":5.36616,"is_reserved":false,"is_disabled":false,"rental_uris":{"android":"levelo://app?vid=e322896a-9301-4e00-8a2b-00ac0afcf56a","ios":"levelo://app?vid=e322896a-9301-4e00-8a2b-00ac0afcf56a"},"vehicle_type_id":"4","last_reported":1726579012,"current_range_meters":8800,"station_id":"ce4bgn12rcd13ifvqbt0","pricing_plan_id":"cebpf4jnsgd1na2vs0mg"},{"bike_id":"bdab53d1-6c0d-4e22-ae92-62ac99d9be2f","system_id":"levelo_inurba_marseille","lat":43.31244,"lon":5.36855,"is_reserved":false,"is_disabled":false,"rental_uris":{"android":"levelo://app?vid=bdab53d1-6c0d-4e22-ae92-62ac99d9be2f","ios":"levelo://app?vid=bdab53d1-6c0d-4e22-ae92-62ac99d9be2f"},"vehicle_type_id":"4","last_reported":1726579012,"current_range_meters":30400,"station_id":"ce4bgl92rcd13ifvqbq0","pricing_plan_id":"cebpf4jnsgd1na2vs0mg"},{"bike_id":"7b15c19f-6cf8-4ecd-98bb-7fc529ccfbb9","system_id":"levelo_inurba_marseille","lat":43.313317,"lon":5.396867,"is_reserved":false,"is_disabled":false,"rental_uris":{"android":"levelo://app?vid=7b15c19f-6cf8-4ecd-98bb-7fc529ccfbb9","ios":"levelo://app?vid=7b15c19f-6cf8-4ecd-98bb-7fc529ccfbb9"},"vehicle_type_id":"4","last_reported":1726579012,"current_range_meters":27200,"station_id":"ce4bgvp2rcd13ifvqcu0","pricing_plan_id":"cebpf4jnsgd1na2vs0mg"},{"bike_id":"182d1093-90b1-4c7b-b983-e0d1fe141873","system_id":"levelo_inurba_marseille","lat":43.2512,"lon":5.40319,"is_reserved":false,"is_disabled":false,"rental_uris":{"android":"levelo://app?vid=182d1093-90b1-4c7b-b983-e0d1fe141873","ios":"levelo://app?vid=182d1093-90b1-4c7b-b983-e0d1fe141873"},"vehicle_type_id":"4","last_reported":1726579012,"current_range_meters":38400,"station_id":"ce4bhlh2rcd13ifvqgig","pricing_plan_id":"cebpf4jnsgd1na2vs0mg"},{"bike_id":"18ddb6b9-e7c7-4b21-b3b6-bf25b18be3ff","system_id":"levelo_inurba_marseille","lat":43.27917,"lon":5.39578,"is_reserved":false,"is_disabled":false,"rental_uris":{"android":"levelo://app?vid=18ddb6b9-e7c7-4b21-b3b6-bf25b18be3ff","ios":"levelo://app?vid=18ddb6b9-e7c7-4b21-b3b6-bf25b18be3ff"},"vehicle_type_id":"4","last_reported":1726579012,"current_range_meters":28400,"station_id":"ce4bhf92rcd13ifvqf40","pricing_plan_id":"cebpf4jnsgd1na2vs0mg"},{"bike_id":"69fc45f7-dd19-4407-a454-e92646802611","system_id":"levelo_inurba_marseille","lat":43.25006,"lon":5.38924,"is_reserved":false,"is_disabled":false,"rental_uris":{"android":"levelo://app?vid=69fc45f7-dd19-4407-a454-e92646802611","ios":"levelo://app?vid=69fc45f7-dd19-4407-a454-e92646802611"},"vehicle_type_id":"4","last_reported":1726579012,"current_range_meters":12400,"station_id":"ce4bhgp2rcd13ifvqfd0","pricing_plan_id":"cebpf4jnsgd1na2vs0mg"},{"bike_id":"1de4de3a-2ef8-42cb-8c7d-7ebf1bc7e98b","system_id":"levelo_inurba_marseille","lat":43.27617,"lon":5.36117,"is_reserved":false,"is_disabled":false,"rental_uris":{"android":"levelo://app?vid=1de4de3a-2ef8-42cb-8c7d-7ebf1bc7e98b","ios":"levelo://app?vid=1de4de3a-2ef8-42cb-8c7d-7ebf1bc7e98b"},"vehicle_type_id":"4","last_reported":1726579012,"current_range_meters":37600,"station_id":"ce4bgj92rcd13ifvqbe0","pricing_plan_id":"cebpf4jnsgd1na2vs0mg"},{"bike_id":"99684f50-b398-427b-a4e9-7ca0a0382c79","system_id":"levelo_inurba_marseille","lat":43.23199,"lon":5.35547,"is_reserved":false,"is_disabled":false,"rental_uris":{"android":"levelo://app?vid=99684f50-b398-427b-a4e9-7ca0a0382c79","ios":"levelo://app?vid=99684f50-b398-427b-a4e9-7ca0a0382c79"},"vehicle_type_id":"4","last_reported":1726579012,"current_range_meters":38800,"station_id":"ce4bhu92rcd13ifvqi70","pricing_plan_id":"cebpf4jnsgd1na2vs0mg"},{"bike_id":"1ee48605-dde7-4723-b80a-c0da5bf8af19","system_id":"levelo_inurba_marseille","lat":43.31175,"lon":5.38726,"is_reserved":false,"is_disabled":false,"rental_uris":{"android":"levelo://app?vid=1ee48605-dde7-4723-b80a-c0da5bf8af19","ios":"levelo://app?vid=1ee48605-dde7-4723-b80a-c0da5bf8af19"},"vehicle_type_id":"4","last_reported":1726579012,"current_range_meters":28000,"station_id":"ce4bgv12rcd13ifvqcp0","pricing_plan_id":"cebpf4jnsgd1na2vs0mg"},{"bike_id":"add02b70-c2df-4c6a-a081-1a11e9689ead","system_id":"levelo_inurba_marseille","lat":43.284607,"lon":5.358884,"is_reserved":false,"is_disabled":false,"rental_uris":{"android":"levelo://app?vid=add02b70-c2df-4c6a-a081-1a11e9689ead","ios":"levelo://app?vid=add02b70-c2df-4c6a-a081-1a11e9689ead"},"vehicle_type_id":"4","last_reported":1726579012,"current_range_meters":32800,"station_id":"ce4bhah2rcd13ifvqei0","pricing_plan_id":"cebpf4jnsgd1na2vs0mg"},{"bike_id":"98b44148-3e01-40f9-b4a0-6b44a16540b6","system_id":"levelo_inurba_marseille","lat":43.30556,"lon":5.36547,"is_reserved":false,"is_disabled":false,"rental_uris":{"android":"levelo://app?vid=98b44148-3e01-40f9-b4a0-6b44a16540b6","ios":"levelo://app?vid=98b44148-3e01-40f9-b4a0-6b44a16540b6"},"vehicle_type_id":"4","last_reported":1726579012,"current_range_meters":38800,"station_id":"ce4bgs12rcd13ifvqcag","pricing_plan_id":"cebpf4jnsgd1na2vs0mg"},{"bike_id":"34195e9b-fc36-4b98-a05c-c2c2aad12108","system_id":"levelo_inurba_marseille","lat":43.2408,"lon":5.37747,"is_reserved":false,"is_disabled":false,"rental_uris":{"android":"levelo://app?vid=34195e9b-fc36-4b98-a05c-c2c2aad12108","ios":"levelo://app?vid=34195e9b-fc36-4b98-a05c-c2c2aad12108"},"vehicle_type_id":"4","last_reported":1726579012,"current_range_meters":26000,"station_id":"ce4bhnp2rcd13ifvqgvg","pricing_plan_id":"cebpf4jnsgd1na2vs0mg"},{"bike_id":"d4071084-e62f-4dd3-9827-2a8c5148573d","system_id":"levelo_inurba_marseille","lat":43.29807,"lon":5.38095,"is_reserved":false,"is_disabled":false,"rental_uris":{"android":"levelo://app?vid=d4071084-e62f-4dd3-9827-2a8c5148573d","ios":"levelo://app?vid=d4071084-e62f-4dd3-9827-2a8c5148573d"},"vehicle_type_id":"4","last_reported":1726579012,"current_range_meters":37600,"station_id":"ce4bgip2rcd13ifvqbb0","pricing_plan_id":"cebpf4jnsgd1na2vs0mg"},{"bike_id":"2b714e73-49f8-4f26-bb6d-7d72ce23aabc","system_id":"levelo_inurba_marseille","lat":43.23053,"lon":5.35488,"is_reserved":false,"is_disabled":false,"rental_uris":{"android":"levelo://app?vid=2b714e73-49f8-4f26-bb6d-7d72ce23aabc","ios":"levelo://app?vid=2b714e73-49f8-4f26-bb6d-7d72ce23aabc"},"vehicle_type_id":"4","last_reported":1726579012,"current_range_meters":12800,"station_id":"cpo3342slgdg3j2ifvpg","pricing_plan_id":"cebpf4jnsgd1na2vs0mg"},{"bike_id":"84c5e715-84dd-49fb-877e-7205eb6425cb","system_id":"levelo_inurba_marseille","lat":43.29025,"lon":5.38128,"is_reserved":false,"is_disabled":false,"rental_uris":{"android":"levelo://app?vid=84c5e715-84dd-49fb-877e-7205eb6425cb","ios":"levelo://app?vid=84c5e715-84dd-49fb-877e-7205eb6425cb"},"vehicle_type_id":"4","last_reported":1726579012,"current_range_meters":22400,"station_id":"ce4bh4p2rcd13ifvqe1g","pricing_plan_id":"cebpf4jnsgd1na2vs0mg"},{"bike_id":"52691a5a-26db-4bb1-9c4d-5b75f0d5e6f3","system_id":"levelo_inurba_marseille","lat":43.25004,"lon":5.38924,"is_reserved":false,"is_disabled":false,"rental_uris":{"android":"levelo://app?vid=52691a5a-26db-4bb1-9c4d-5b75f0d5e6f3","ios":"levelo://app?vid=52691a5a-26db-4bb1-9c4d-5b75f0d5e6f3"},"vehicle_type_id":"4","last_reported":1726579012,"current_range_meters":27600,"station_id":"ce4bhgp2rcd13ifvqfd0","pricing_plan_id":"cebpf4jnsgd1na2vs0mg"},{"bike_id":"7fcb7726-a41c-458a-9a89-62e2ca4d2a3e","system_id":"levelo_inurba_marseille","lat":43.29809,"lon":5.38101,"is_reserved":false,"is_disabled":false,"rental_uris":{"android":"levelo://app?vid=7fcb7726-a41c-458a-9a89-62e2ca4d2a3e","ios":"levelo://app?vid=7fcb7726-a41c-458a-9a89-62e2ca4d2a3e"},"vehicle_type_id":"4","last_reported":1726579012,"current_range_meters":36400,"station_id":"ce4bgip2rcd13ifvqbb0","pricing_plan_id":"cebpf4jnsgd1na2vs0mg"},{"bike_id":"3dc8a05d-268b-4a33-bb8b-831348a36510","system_id":"levelo_inurba_marseille","lat":43.24666,"lon":5.38166,"is_reserved":false,"is_disabled":false,"rental_uris":{"android":"levelo://app?vid=3dc8a05d-268b-4a33-bb8b-831348a36510","ios":"levelo://app?vid=3dc8a05d-268b-4a33-bb8b-831348a36510"},"vehicle_type_id":"4","last_reported":1726579012,"current_range_meters":8000,"station_id":"ce4bhih2rcd13ifvqfr0","pricing_plan_id":"cebpf4jnsgd1na2vs0mg"},{"bike_id":"ad722464-32b1-4125-bf35-54f1e4aed3dd","system_id":"levelo_inurba_marseille","lat":43.24072,"lon":5.37747,"is_reserved":false,"is_disabled":false,"rental_uris":{"android":"levelo://app?vid=ad722464-32b1-4125-bf35-54f1e4aed3dd","ios":"levelo://app?vid=ad722464-32b1-4125-bf35-54f1e4aed3dd"},"vehicle_type_id":"4","last_reported":1726579012,"current_range_meters":5600,"station_id":"ce4bhnp2rcd13ifvqgvg","pricing_plan_id":"cebpf4jnsgd1na2vs0mg"},{"bike_id":"cd75d45d-6746-471d-a8d8-247e9eaae82a","system_id":"levelo_inurba_marseille","lat":43.231934,"lon":5.355525,"is_reserved":false,"is_disabled":false,"rental_uris":{"android":"levelo://app?vid=cd75d45d-6746-471d-a8d8-247e9eaae82a","ios":"levelo://app?vid=cd75d45d-6746-471d-a8d8-247e9eaae82a"},"vehicle_type_id":"4","last_reported":1726579012,"current_range_meters":38800,"station_id":"ce4bhu92rcd13ifvqi70","pricing_plan_id":"cebpf4jnsgd1na2vs0mg"},{"bike_id":"6898ecd2-d5f6-4299-92af-d6df00f41948","system_id":"levelo_inurba_marseille","lat":43.2408,"lon":5.37754,"is_reserved":false,"is_disabled":false,"rental_uris":{"android":"levelo://app?vid=6898ecd2-d5f6-4299-92af-d6df00f41948","ios":"levelo://app?vid=6898ecd2-d5f6-4299-92af-d6df00f41948"},"vehicle_type_id":"4","last_reported":1726579012,"current_range_meters":37600,"station_id":"ce4bhnp2rcd13ifvqgvg","pricing_plan_id":"cebpf4jnsgd1na2vs0mg"},{"bike_id":"fed25c85-b3e7-4093-a992-a9eacb54e345","system_id":"levelo_inurba_marseille","lat":43.23196,"lon":5.35551,"is_reserved":false,"is_disabled":false,"rental_uris":{"android":"levelo://app?vid=fed25c85-b3e7-4093-a992-a9eacb54e345","ios":"levelo://app?vid=fed25c85-b3e7-4093-a992-a9eacb54e345"},"vehicle_type_id":"4","last_reported":1726579012,"current_range_meters":37600,"station_id":"ce4bhu92rcd13ifvqi70","pricing_plan_id":"cebpf4jnsgd1na2vs0mg"},{"bike_id":"5a56b1cc-f02c-4c9a-ac04-632782260db3","system_id":"levelo_inurba_marseille","lat":43.30545,"lon":5.36523,"is_reserved":false,"is_disabled":false,"rental_uris":{"android":"levelo://app?vid=5a56b1cc-f02c-4c9a-ac04-632782260db3","ios":"levelo://app?vid=5a56b1cc-f02c-4c9a-ac04-632782260db3"},"vehicle_type_id":"4","last_reported":1726579012,"current_range_meters":24000,"station_id":"ce4bgs12rcd13ifvqcag","pricing_plan_id":"cebpf4jnsgd1na2vs0mg"},{"bike_id":"d65a01f4-1bc5-4d5b-8139-7a2315d33697","system_id":"levelo_inurba_marseille","lat":43.29965,"lon":5.38498,"is_reserved":false,"is_disabled":false,"rental_uris":{"android":"levelo://app?vid=d65a01f4-1bc5-4d5b-8139-7a2315d33697","ios":"levelo://app?vid=d65a01f4-1bc5-4d5b-8139-7a2315d33697"},"vehicle_type_id":"4","last_reported":1726579012,"current_range_meters":22800,"station_id":"ce4bgj92rcd13ifvqbd0","pricing_plan_id":"cebpf4jnsgd1na2vs0mg"},{"bike_id":"8cc5c28d-fb68-4bb4-b394-13d803ad03c2","system_id":"levelo_inurba_marseille","lat":43.28106,"lon":5.3783,"is_reserved":false,"is_disabled":false,"rental_uris":{"android":"levelo://app?vid=8cc5c28d-fb68-4bb4-b394-13d803ad03c2","ios":"levelo://app?vid=8cc5c28d-fb68-4bb4-b394-13d803ad03c2"},"vehicle_type_id":"4","last_reported":1726579012,"current_range_meters":24400,"station_id":"ce4bha12rcd13ifvqee0","pricing_plan_id":"cebpf4jnsgd1na2vs0mg"},{"bike_id":"255def12-1a7e-4787-b2e4-a6a54888a394","system_id":"levelo_inurba_marseille","lat":43.32483,"lon":5.36564,"is_reserved":false,"is_disabled":false,"rental_uris":{"android":"levelo://app?vid=255def12-1a7e-4787-b2e4-a6a54888a394","ios":"levelo://app?vid=255def12-1a7e-4787-b2e4-a6a54888a394"},"vehicle_type_id":"4","last_reported":1726579012,"current_range_meters":7200,"station_id":"ce4bhs12rcd13ifvqhvg","pricing_plan_id":"cebpf4jnsgd1na2vs0mg"},{"bike_id":"6ad2fe94-195b-4d58-9ac6-d3a9675a4c80","system_id":"levelo_inurba_marseille","lat":43.33717,"lon":5.37419,"is_reserved":false,"is_disabled":false,"rental_uris":{"android":"levelo://app?vid=6ad2fe94-195b-4d58-9ac6-d3a9675a4c80","ios":"levelo://app?vid=6ad2fe94-195b-4d58-9ac6-d3a9675a4c80"},"vehicle_type_id":"4","last_reported":1726579012,"current_range_meters":16800,"station_id":"","pricing_plan_id":"cebpf4jnsgd1na2vs0mg"},{"bike_id":"6dd17a2f-59bb-4453-859d-2c09ab795824","system_id":"levelo_inurba_marseille","lat":43.33024,"lon":5.39043,"is_reserved":false,"is_disabled":false,"rental_uris":{"android":"levelo://app?vid=6dd17a2f-59bb-4453-859d-2c09ab795824","ios":"levelo://app?vid=6dd17a2f-59bb-4453-859d-2c09ab795824"},"vehicle_type_id":"4","last_reported":1726579012,"current_range_meters":30400,"station_id":"ce4bhr92rcd13ifvqhrg","pricing_plan_id":"cebpf4jnsgd1na2vs0mg"},{"bike_id":"3922915c-5935-4627-9b6b-7f88183522c3","system_id":"levelo_inurba_marseille","lat":43.3014,"lon":5.37426,"is_reserved":false,"is_disabled":false,"rental_uris":{"android":"levelo://app?vid=3922915c-5935-4627-9b6b-7f88183522c3","ios":"levelo://app?vid=3922915c-5935-4627-9b6b-7f88183522c3"},"vehicle_type_id":"4","last_reported":1726579012,"current_range_meters":19600,"station_id":"ce4bgs92rcd13ifvqcc0","pricing_plan_id":"cebpf4jnsgd1na2vs0mg"},{"bike_id":"c2ecb147-8ee1-4803-aa1c-5a9b13d8ea1c","system_id":"levelo_inurba_marseille","lat":43.23153,"lon":5.43711,"is_reserved":false,"is_disabled":false,"rental_uris":{"android":"levelo://app?vid=c2ecb147-8ee1-4803-aa1c-5a9b13d8ea1c","ios":"levelo://app?vid=c2ecb147-8ee1-4803-aa1c-5a9b13d8ea1c"},"vehicle_type_id":"4","last_reported":1726579012,"current_range_meters":39200,"station_id":"ce4bhmp2rcd13ifvqgog","pricing_plan_id":"cebpf4jnsgd1na2vs0mg"},{"bike_id":"8ac17af3-1087-4030-8684-fc752197666e","system_id":"levelo_inurba_marseille","lat":43.32369,"lon":5.3887,"is_reserved":false,"is_disabled":false,"rental_uris":{"android":"levelo://app?vid=8ac17af3-1087-4030-8684-fc752197666e","ios":"levelo://app?vid=8ac17af3-1087-4030-8684-fc752197666e"},"vehicle_type_id":"4","last_reported":1726579012,"current_range_meters":17600,"station_id":"ce4bhqp2rcd13ifvqhog","pricing_plan_id":"cebpf4jnsgd1na2vs0mg"},{"bike_id":"894e94ff-e209-48b9-a98c-975cf4fe6182","system_id":"levelo_inurba_marseille","lat":43.32371,"lon":5.38873,"is_reserved":false,"is_disabled":false,"rental_uris":{"android":"levelo://app?vid=894e94ff-e209-48b9-a98c-975cf4fe6182","ios":"levelo://app?vid=894e94ff-e209-48b9-a98c-975cf4fe6182"},"vehicle_type_id":"4","last_reported":1726579012,"current_range_meters":14800,"station_id":"ce4bhqp2rcd13ifvqhog","pricing_plan_id":"cebpf4jnsgd1na2vs0mg"},{"bike_id":"f11293b9-5944-418c-9cea-2087ec8521d3","system_id":"levelo_inurba_marseille","lat":43.31228,"lon":5.36838,"is_reserved":false,"is_disabled":false,"rental_uris":{"android":"levelo://app?vid=f11293b9-5944-418c-9cea-2087ec8521d3","ios":"levelo://app?vid=f11293b9-5944-418c-9cea-2087ec8521d3"},"vehicle_type_id":"4","last_reported":1726579012,"current_range_meters":14800,"station_id":"ce4bgl92rcd13ifvqbq0","pricing_plan_id":"cebpf4jnsgd1na2vs0mg"},{"bike_id":"d00ef931-ca94-46a5-a153-d39e1f7651c4","system_id":"levelo_inurba_marseille","lat":43.24654,"lon":5.38885,"is_reserved":false,"is_disabled":false,"rental_uris":{"android":"levelo://app?vid=d00ef931-ca94-46a5-a153-d39e1f7651c4","ios":"levelo://app?vid=d00ef931-ca94-46a5-a153-d39e1f7651c4"},"vehicle_type_id":"4","last_reported":1726579012,"current_range_meters":3600,"station_id":"ce4bhg12rcd13ifvqf60","pricing_plan_id":"cebpf4jnsgd1na2vs0mg"},{"bike_id":"0308f358-78cd-4ed3-9f73-03a0aff7b7aa","system_id":"levelo_inurba_marseille","lat":43.29901,"lon":5.43654,"is_reserved":false,"is_disabled":false,"rental_uris":{"android":"levelo://app?vid=0308f358-78cd-4ed3-9f73-03a0aff7b7aa","ios":"levelo://app?vid=0308f358-78cd-4ed3-9f73-03a0aff7b7aa"},"vehicle_type_id":"4","last_reported":1726579012,"current_range_meters":19200,"station_id":"ce4bhpp2rcd13ifvqhfg","pricing_plan_id":"cebpf4jnsgd1na2vs0mg"},{"bike_id":"5fcce6cb-4cdf-428a-a03a-e73e25b2b70b","system_id":"levelo_inurba_marseille","lat":43.24181,"lon":5.39715,"is_reserved":false,"is_disabled":false,"rental_uris":{"android":"levelo://app?vid=5fcce6cb-4cdf-428a-a03a-e73e25b2b70b","ios":"levelo://app?vid=5fcce6cb-4cdf-428a-a03a-e73e25b2b70b"},"vehicle_type_id":"4","last_reported":1726579012,"current_range_meters":27600,"station_id":"ce4bhn12rcd13ifvqgpg","pricing_plan_id":"cebpf4jnsgd1na2vs0mg"},{"bike_id":"33b9f200-8d6c-4c1b-ab22-8f9259d0ebaa","system_id":"levelo_inurba_marseille","lat":43.25729,"lon":5.41103,"is_reserved":false,"is_disabled":false,"rental_uris":{"android":"levelo://app?vid=33b9f200-8d6c-4c1b-ab22-8f9259d0ebaa","ios":"levelo://app?vid=33b9f200-8d6c-4c1b-ab22-8f9259d0ebaa"},"vehicle_type_id":"4","last_reported":1726579012,"current_range_meters":38000,"station_id":"ce4bhkp2rcd13ifvqgd0","pricing_plan_id":"cebpf4jnsgd1na2vs0mg"},{"bike_id":"5b61e811-fe69-45fc-9c01-7ca98ea36a3f","system_id":"levelo_inurba_marseille","lat":43.25875,"lon":5.39894,"is_reserved":false,"is_disabled":false,"rental_uris":{"android":"levelo://app?vid=5b61e811-fe69-45fc-9c01-7ca98ea36a3f","ios":"levelo://app?vid=5b61e811-fe69-45fc-9c01-7ca98ea36a3f"},"vehicle_type_id":"4","last_reported":1726579012,"current_range_meters":22000,"station_id":"ce4bhl92rcd13ifvqghg","pricing_plan_id":"cebpf4jnsgd1na2vs0mg"},{"bike_id":"fde5818e-6dd5-451a-a8cd-16ee9d8734c7","system_id":"levelo_inurba_marseille","lat":43.29529,"lon":5.37504,"is_reserved":false,"is_disabled":false,"rental_uris":{"android":"levelo://app?vid=fde5818e-6dd5-451a-a8cd-16ee9d8734c7","ios":"levelo://app?vid=fde5818e-6dd5-451a-a8cd-16ee9d8734c7"},"vehicle_type_id":"4","last_reported":1726579012,"current_range_meters":38000,"station_id":"ce4bgkp2rcd13ifvqbmg","pricing_plan_id":"cebpf4jnsgd1na2vs0mg"},{"bike_id":"8179dbb6-aa6a-40a1-8ad7-2129bb25bf8c","system_id":"levelo_inurba_marseille","lat":43.29961,"lon":5.4132,"is_reserved":false,"is_disabled":false,"rental_uris":{"android":"levelo://app?vid=8179dbb6-aa6a-40a1-8ad7-2129bb25bf8c","ios":"levelo://app?vid=8179dbb6-aa6a-40a1-8ad7-2129bb25bf8c"},"vehicle_type_id":"4","last_reported":1726579012,"current_range_meters":17200,"station_id":"ce4bhp12rcd13ifvqh9g","pricing_plan_id":"cebpf4jnsgd1na2vs0mg"},{"bike_id":"3b4d8ffd-2a32-4982-8658-e52f339a5712","system_id":"levelo_inurba_marseille","lat":43.24081,"lon":5.37756,"is_reserved":false,"is_disabled":false,"rental_uris":{"android":"levelo://app?vid=3b4d8ffd-2a32-4982-8658-e52f339a5712","ios":"levelo://app?vid=3b4d8ffd-2a32-4982-8658-e52f339a5712"},"vehicle_type_id":"4","last_reported":1726579012,"current_range_meters":24000,"station_id":"ce4bhnp2rcd13ifvqgvg","pricing_plan_id":"cebpf4jnsgd1na2vs0mg"},{"bike_id":"0d830da1-088f-410f-befa-e68ac04cbdf5","system_id":"levelo_inurba_marseille","lat":43.24081,"lon":5.3775,"is_reserved":false,"is_disabled":false,"rental_uris":{"android":"levelo://app?vid=0d830da1-088f-410f-befa-e68ac04cbdf5","ios":"levelo://app?vid=0d830da1-088f-410f-befa-e68ac04cbdf5"},"vehicle_type_id":"4","last_reported":1726579012,"current_range_meters":30000,"station_id":"ce4bhnp2rcd13ifvqgvg","pricing_plan_id":"cebpf4jnsgd1na2vs0mg"},{"bike_id":"40403005-f85d-47ad-9107-335d66db8b6d","system_id":"levelo_inurba_marseille","lat":43.29042,"lon":5.37557,"is_reserved":false,"is_disabled":false,"rental_uris":{"android":"levelo://app?vid=40403005-f85d-47ad-9107-335d66db8b6d","ios":"levelo://app?vid=40403005-f85d-47ad-9107-335d66db8b6d"},"vehicle_type_id":"4","last_reported":1726579012,"current_range_meters":38000,"station_id":"ce4bh692rcd13ifvqe90","pricing_plan_id":"cebpf4jnsgd1na2vs0mg"},{"bike_id":"65eecb51-7024-4f30-af20-d65f809bce2b","system_id":"levelo_inurba_marseille","lat":43.31262,"lon":5.37982,"is_reserved":false,"is_disabled":false,"rental_uris":{"android":"levelo://app?vid=65eecb51-7024-4f30-af20-d65f809bce2b","ios":"levelo://app?vid=65eecb51-7024-4f30-af20-d65f809bce2b"},"vehicle_type_id":"4","last_reported":1726579012,"current_range_meters":8000,"station_id":"ce4bgt92rcd13ifvqcf0","pricing_plan_id":"cebpf4jnsgd1na2vs0mg"},{"bike_id":"98b0f762-752f-46f9-8d52-c729135a3e8c","system_id":"levelo_inurba_marseille","lat":43.2293,"lon":5.35377,"is_reserved":false,"is_disabled":false,"rental_uris":{"android":"levelo://app?vid=98b0f762-752f-46f9-8d52-c729135a3e8c","ios":"levelo://app?vid=98b0f762-752f-46f9-8d52-c729135a3e8c"},"vehicle_type_id":"4","last_reported":1726579012,"current_range_meters":27600,"station_id":"cpo3532slgdg3j2ikp40","pricing_plan_id":"cebpf4jnsgd1na2vs0mg"},{"bike_id":"c034b2d4-b5bc-412f-bc1e-4b54e7a2ef44","system_id":"levelo_inurba_marseille","lat":43.27489,"lon":5.42459,"is_reserved":false,"is_disabled":false,"rental_uris":{"android":"levelo://app?vid=c034b2d4-b5bc-412f-bc1e-4b54e7a2ef44","ios":"levelo://app?vid=c034b2d4-b5bc-412f-bc1e-4b54e7a2ef44"},"vehicle_type_id":"4","last_reported":1726579012,"current_range_meters":37600,"station_id":"ce4bhn92rcd13ifvqgrg","pricing_plan_id":"cebpf4jnsgd1na2vs0mg"},{"bike_id":"93dd37e5-c30e-445f-960a-2c313f3eb6cb","system_id":"levelo_inurba_marseille","lat":43.24809,"lon":5.37455,"is_reserved":false,"is_disabled":false,"rental_uris":{"android":"levelo://app?vid=93dd37e5-c30e-445f-960a-2c313f3eb6cb","ios":"levelo://app?vid=93dd37e5-c30e-445f-960a-2c313f3eb6cb"},"vehicle_type_id":"4","last_reported":1726579012,"current_range_meters":19600,"station_id":"ce4bhgh2rcd13ifvqfb0","pricing_plan_id":"cebpf4jnsgd1na2vs0mg"},{"bike_id":"a916f344-2470-4b3c-9b4f-0e33ef18e85d","system_id":"levelo_inurba_marseille","lat":43.31715,"lon":5.43702,"is_reserved":false,"is_disabled":false,"rental_uris":{"android":"levelo://app?vid=a916f344-2470-4b3c-9b4f-0e33ef18e85d","ios":"levelo://app?vid=a916f344-2470-4b3c-9b4f-0e33ef18e85d"},"vehicle_type_id":"4","last_reported":1726579012,"current_range_meters":4000,"station_id":"ce4bhp92rcd13ifvqhcg","pricing_plan_id":"cebpf4jnsgd1na2vs0mg"},{"bike_id":"9e6acc5e-94a7-4e9f-94a9-f4362cac3b04","system_id":"levelo_inurba_marseille","lat":43.30914,"lon":5.36849,"is_reserved":false,"is_disabled":false,"rental_uris":{"android":"levelo://app?vid=9e6acc5e-94a7-4e9f-94a9-f4362cac3b04","ios":"levelo://app?vid=9e6acc5e-94a7-4e9f-94a9-f4362cac3b04"},"vehicle_type_id":"4","last_reported":1726579012,"current_range_meters":38800,"station_id":"ce4bgn92rcd13ifvqbvg","pricing_plan_id":"cebpf4jnsgd1na2vs0mg"},{"bike_id":"e7fbe6a9-6452-4605-ad98-ec8f6c725938","system_id":"levelo_inurba_marseille","lat":43.3172,"lon":5.42395,"is_reserved":false,"is_disabled":false,"rental_uris":{"android":"levelo://app?vid=e7fbe6a9-6452-4605-ad98-ec8f6c725938","ios":"levelo://app?vid=e7fbe6a9-6452-4605-ad98-ec8f6c725938"},"vehicle_type_id":"4","last_reported":1726579012,"current_range_meters":28800,"station_id":"ce4bhp92rcd13ifvqhbg","pricing_plan_id":"cebpf4jnsgd1na2vs0mg"},{"bike_id":"23dd0c20-fce0-40ea-aaa2-cab4c3dedbd9","system_id":"levelo_inurba_marseille","lat":43.23145,"lon":5.43723,"is_reserved":false,"is_disabled":false,"rental_uris":{"android":"levelo://app?vid=23dd0c20-fce0-40ea-aaa2-cab4c3dedbd9","ios":"levelo://app?vid=23dd0c20-fce0-40ea-aaa2-cab4c3dedbd9"},"vehicle_type_id":"4","last_reported":1726579012,"current_range_meters":9600,"station_id":"ce4bhmp2rcd13ifvqgog","pricing_plan_id":"cebpf4jnsgd1na2vs0mg"},{"bike_id":"1a72562e-4a87-4b67-a557-27799b4d5715","system_id":"levelo_inurba_marseille","lat":43.30913,"lon":5.36852,"is_reserved":false,"is_disabled":false,"rental_uris":{"android":"levelo://app?vid=1a72562e-4a87-4b67-a557-27799b4d5715","ios":"levelo://app?vid=1a72562e-4a87-4b67-a557-27799b4d5715"},"vehicle_type_id":"4","last_reported":1726579012,"current_range_meters":24800,"station_id":"ce4bgn92rcd13ifvqbvg","pricing_plan_id":"cebpf4jnsgd1na2vs0mg"},{"bike_id":"fb389055-f66c-4e32-b271-86411d587f5d","system_id":"levelo_inurba_marseille","lat":43.30321,"lon":5.36891,"is_reserved":false,"is_disabled":false,"rental_uris":{"android":"levelo://app?vid=fb389055-f66c-4e32-b271-86411d587f5d","ios":"levelo://app?vid=fb389055-f66c-4e32-b271-86411d587f5d"},"vehicle_type_id":"4","last_reported":1726579012,"current_range_meters":38800,"station_id":"ce4bgqh2rcd13ifvqc5g","pricing_plan_id":"cebpf4jnsgd1na2vs0mg"},{"bike_id":"7fcba497-92f6-42c3-8274-1655e7534e4a","system_id":"levelo_inurba_marseille","lat":43.28675,"lon":5.38668,"is_reserved":false,"is_disabled":false,"rental_uris":{"android":"levelo://app?vid=7fcba497-92f6-42c3-8274-1655e7534e4a","ios":"levelo://app?vid=7fcba497-92f6-42c3-8274-1655e7534e4a"},"vehicle_type_id":"4","last_reported":1726579012,"current_range_meters":30800,"station_id":"ce4bh492rcd13ifvqdug","pricing_plan_id":"cebpf4jnsgd1na2vs0mg"},{"bike_id":"7dd25116-4b08-418f-b59a-2cd52163c135","system_id":"levelo_inurba_marseille","lat":43.24078,"lon":5.37746,"is_reserved":false,"is_disabled":false,"rental_uris":{"android":"levelo://app?vid=7dd25116-4b08-418f-b59a-2cd52163c135","ios":"levelo://app?vid=7dd25116-4b08-418f-b59a-2cd52163c135"},"vehicle_type_id":"4","last_reported":1726579012,"current_range_meters":28000,"station_id":"ce4bhnp2rcd13ifvqgvg","pricing_plan_id":"cebpf4jnsgd1na2vs0mg"},{"bike_id":"8ea79706-33c2-4140-a630-4d917dade742","system_id":"levelo_inurba_marseille","lat":43.2315,"lon":5.43723,"is_reserved":false,"is_disabled":false,"rental_uris":{"android":"levelo://app?vid=8ea79706-33c2-4140-a630-4d917dade742","ios":"levelo://app?vid=8ea79706-33c2-4140-a630-4d917dade742"},"vehicle_type_id":"4","last_reported":1726579012,"current_range_meters":17200,"station_id":"ce4bhmp2rcd13ifvqgog","pricing_plan_id":"cebpf4jnsgd1na2vs0mg"},{"bike_id":"1f38c15a-9705-4563-aafc-3c0e4b2a60f8","system_id":"levelo_inurba_marseille","lat":43.29842,"lon":5.36257,"is_reserved":false,"is_disabled":false,"rental_uris":{"android":"levelo://app?vid=1f38c15a-9705-4563-aafc-3c0e4b2a60f8","ios":"levelo://app?vid=1f38c15a-9705-4563-aafc-3c0e4b2a60f8"},"vehicle_type_id":"4","last_reported":1726579012,"current_range_meters":38800,"station_id":"ce4bgpp2rcd13ifvqc3g","pricing_plan_id":"cebpf4jnsgd1na2vs0mg"},{"bike_id":"66109984-929d-40a5-ad20-847ed75ddcee","system_id":"levelo_inurba_marseille","lat":43.29615,"lon":5.37729,"is_reserved":false,"is_disabled":false,"rental_uris":{"android":"levelo://app?vid=66109984-929d-40a5-ad20-847ed75ddcee","ios":"levelo://app?vid=66109984-929d-40a5-ad20-847ed75ddcee"},"vehicle_type_id":"4","last_reported":1726579012,"current_range_meters":22000,"station_id":"ce4bgi92rcd13ifvqb90","pricing_plan_id":"cebpf4jnsgd1na2vs0mg"},{"bike_id":"33eaf240-fa1a-45f2-a6b2-897603a2e80a","system_id":"levelo_inurba_marseille","lat":43.24083,"lon":5.37747,"is_reserved":false,"is_disabled":false,"rental_uris":{"android":"levelo://app?vid=33eaf240-fa1a-45f2-a6b2-897603a2e80a","ios":"levelo://app?vid=33eaf240-fa1a-45f2-a6b2-897603a2e80a"},"vehicle_type_id":"4","last_reported":1726579012,"current_range_meters":8000,"station_id":"ce4bhnp2rcd13ifvqgvg","pricing_plan_id":"cebpf4jnsgd1na2vs0mg"},{"bike_id":"0093f99f-32e7-41b0-abe0-a28b802c66c9","system_id":"levelo_inurba_marseille","lat":43.29944,"lon":5.36548,"is_reserved":false,"is_disabled":false,"rental_uris":{"android":"levelo://app?vid=0093f99f-32e7-41b0-abe0-a28b802c66c9","ios":"levelo://app?vid=0093f99f-32e7-41b0-abe0-a28b802c66c9"},"vehicle_type_id":"4","last_reported":1726579012,"current_range_meters":28000,"station_id":"ce4bgm92rcd13ifvqbr0","pricing_plan_id":"cebpf4jnsgd1na2vs0mg"},{"bike_id":"fee3d5bb-6253-48da-96ac-cce5fd5baf46","system_id":"levelo_inurba_marseille","lat":43.30553,"lon":5.36536,"is_reserved":false,"is_disabled":false,"rental_uris":{"android":"levelo://app?vid=fee3d5bb-6253-48da-96ac-cce5fd5baf46","ios":"levelo://app?vid=fee3d5bb-6253-48da-96ac-cce5fd5baf46"},"vehicle_type_id":"4","last_reported":1726579012,"current_range_meters":39200,"station_id":"ce4bgs12rcd13ifvqcag","pricing_plan_id":"cebpf4jnsgd1na2vs0mg"},{"bike_id":"54a39329-f575-4727-ac1f-a5a4ccac54db","system_id":"levelo_inurba_marseille","lat":43.33613,"lon":5.4103,"is_reserved":false,"is_disabled":false,"rental_uris":{"android":"levelo://app?vid=54a39329-f575-4727-ac1f-a5a4ccac54db","ios":"levelo://app?vid=54a39329-f575-4727-ac1f-a5a4ccac54db"},"vehicle_type_id":"4","last_reported":1726579012,"current_range_meters":38800,"station_id":"ce4bhqh2rcd13ifvqhmg","pricing_plan_id":"cebpf4jnsgd1na2vs0mg"},{"bike_id":"cbaf03bf-0340-4293-a424-18d0ef0b595f","system_id":"levelo_inurba_marseille","lat":43.299,"lon":5.43662,"is_reserved":false,"is_disabled":false,"rental_uris":{"android":"levelo://app?vid=cbaf03bf-0340-4293-a424-18d0ef0b595f","ios":"levelo://app?vid=cbaf03bf-0340-4293-a424-18d0ef0b595f"},"vehicle_type_id":"4","last_reported":1726579012,"current_range_meters":21600,"station_id":"ce4bhpp2rcd13ifvqhfg","pricing_plan_id":"cebpf4jnsgd1na2vs0mg"},{"bike_id":"83bfaef7-553a-43d8-9d3c-badf4867b8b0","system_id":"levelo_inurba_marseille","lat":43.29631,"lon":5.37712,"is_reserved":false,"is_disabled":false,"rental_uris":{"android":"levelo://app?vid=83bfaef7-553a-43d8-9d3c-badf4867b8b0","ios":"levelo://app?vid=83bfaef7-553a-43d8-9d3c-badf4867b8b0"},"vehicle_type_id":"4","last_reported":1726579012,"current_range_meters":34000,"station_id":"ce4bgi92rcd13ifvqb90","pricing_plan_id":"cebpf4jnsgd1na2vs0mg"},{"bike_id":"36a94ba7-3a74-4c5c-9db8-6a3b9285b7f0","system_id":"levelo_inurba_marseille","lat":43.32005,"lon":5.38157,"is_reserved":false,"is_disabled":false,"rental_uris":{"android":"levelo://app?vid=36a94ba7-3a74-4c5c-9db8-6a3b9285b7f0","ios":"levelo://app?vid=36a94ba7-3a74-4c5c-9db8-6a3b9285b7f0"},"vehicle_type_id":"4","last_reported":1726579012,"current_range_meters":24800,"station_id":"ce4bhr12rcd13ifvqhpg","pricing_plan_id":"cebpf4jnsgd1na2vs0mg"},{"bike_id":"49e200ca-be2e-44c1-88e1-5c0a88694170","system_id":"levelo_inurba_marseille","lat":43.30538,"lon":5.36533,"is_reserved":false,"is_disabled":false,"rental_uris":{"android":"levelo://app?vid=49e200ca-be2e-44c1-88e1-5c0a88694170","ios":"levelo://app?vid=49e200ca-be2e-44c1-88e1-5c0a88694170"},"vehicle_type_id":"4","last_reported":1726579012,"current_range_meters":33600,"station_id":"ce4bgs12rcd13ifvqcag","pricing_plan_id":"cebpf4jnsgd1na2vs0mg"},{"bike_id":"e3a9e172-150c-499d-87ea-a7513220de56","system_id":"levelo_inurba_marseille","lat":43.24072,"lon":5.37754,"is_reserved":false,"is_disabled":false,"rental_uris":{"android":"levelo://app?vid=e3a9e172-150c-499d-87ea-a7513220de56","ios":"levelo://app?vid=e3a9e172-150c-499d-87ea-a7513220de56"},"vehicle_type_id":"4","last_reported":1726579012,"current_range_meters":2800,"station_id":"ce4bhnp2rcd13ifvqgvg","pricing_plan_id":"cebpf4jnsgd1na2vs0mg"},{"bike_id":"9f9c4d16-6809-481e-8732-59cb0f9b9faa","system_id":"levelo_inurba_marseille","lat":43.30426,"lon":5.39748,"is_reserved":false,"is_disabled":false,"rental_uris":{"android":"levelo://app?vid=9f9c4d16-6809-481e-8732-59cb0f9b9faa","ios":"levelo://app?vid=9f9c4d16-6809-481e-8732-59cb0f9b9faa"},"vehicle_type_id":"4","last_reported":1726579012,"current_range_meters":21600,"station_id":"ce4bh092rcd13ifvqd20","pricing_plan_id":"cebpf4jnsgd1na2vs0mg"},{"bike_id":"d8e751ce-68d8-4843-af31-f29be99d953d","system_id":"levelo_inurba_marseille","lat":43.23966,"lon":5.36612,"is_reserved":false,"is_disabled":false,"rental_uris":{"android":"levelo://app?vid=d8e751ce-68d8-4843-af31-f29be99d953d","ios":"levelo://app?vid=d8e751ce-68d8-4843-af31-f29be99d953d"},"vehicle_type_id":"4","last_reported":1726579012,"current_range_meters":13600,"station_id":"ce4bhi12rcd13ifvqfp0","pricing_plan_id":"cebpf4jnsgd1na2vs0mg"},{"bike_id":"f78ec244-0aef-4b6c-a1be-b01f3523a44d","system_id":"levelo_inurba_marseille","lat":43.2749,"lon":5.42457,"is_reserved":false,"is_disabled":false,"rental_uris":{"android":"levelo://app?vid=f78ec244-0aef-4b6c-a1be-b01f3523a44d","ios":"levelo://app?vid=f78ec244-0aef-4b6c-a1be-b01f3523a44d"},"vehicle_type_id":"4","last_reported":1726579012,"current_range_meters":32000,"station_id":"ce4bhn92rcd13ifvqgrg","pricing_plan_id":"cebpf4jnsgd1na2vs0mg"},{"bike_id":"31d7628c-a98b-4127-881d-92022a3abc84","system_id":"levelo_inurba_marseille","lat":43.25934,"lon":5.40899,"is_reserved":false,"is_disabled":false,"rental_uris":{"android":"levelo://app?vid=31d7628c-a98b-4127-881d-92022a3abc84","ios":"levelo://app?vid=31d7628c-a98b-4127-881d-92022a3abc84"},"vehicle_type_id":"4","last_reported":1726579012,"current_range_meters":28400,"station_id":"ce4bhm92rcd13ifvqglg","pricing_plan_id":"cebpf4jnsgd1na2vs0mg"},{"bike_id":"bb9b0b96-fc7b-46c6-8bd7-e61f24aa0921","system_id":"levelo_inurba_marseille","lat":43.32365,"lon":5.38876,"is_reserved":false,"is_disabled":false,"rental_uris":{"android":"levelo://app?vid=bb9b0b96-fc7b-46c6-8bd7-e61f24aa0921","ios":"levelo://app?vid=bb9b0b96-fc7b-46c6-8bd7-e61f24aa0921"},"vehicle_type_id":"4","last_reported":1726579012,"current_range_meters":5600,"station_id":"ce4bhqp2rcd13ifvqhog","pricing_plan_id":"cebpf4jnsgd1na2vs0mg"},{"bike_id":"a3dc66ac-ec81-47a5-8dc4-56011c5e10db","system_id":"levelo_inurba_marseille","lat":43.31224,"lon":5.3685,"is_reserved":false,"is_disabled":false,"rental_uris":{"android":"levelo://app?vid=a3dc66ac-ec81-47a5-8dc4-56011c5e10db","ios":"levelo://app?vid=a3dc66ac-ec81-47a5-8dc4-56011c5e10db"},"vehicle_type_id":"4","last_reported":1726579012,"current_range_meters":32000,"station_id":"ce4bgl92rcd13ifvqbq0","pricing_plan_id":"cebpf4jnsgd1na2vs0mg"},{"bike_id":"fb6b2e20-1181-4228-aab7-94d05e809797","system_id":"levelo_inurba_marseille","lat":43.30916,"lon":5.36849,"is_reserved":false,"is_disabled":false,"rental_uris":{"android":"levelo://app?vid=fb6b2e20-1181-4228-aab7-94d05e809797","ios":"levelo://app?vid=fb6b2e20-1181-4228-aab7-94d05e809797"},"vehicle_type_id":"4","last_reported":1726579012,"current_range_meters":38400,"station_id":"ce4bgn92rcd13ifvqbvg","pricing_plan_id":"cebpf4jnsgd1na2vs0mg"},{"bike_id":"686eb3f5-af9c-420e-9fc7-16f1b058fdec","system_id":"levelo_inurba_marseille","lat":43.29369,"lon":5.37852,"is_reserved":false,"is_disabled":false,"rental_uris":{"android":"levelo://app?vid=686eb3f5-af9c-420e-9fc7-16f1b058fdec","ios":"levelo://app?vid=686eb3f5-af9c-420e-9fc7-16f1b058fdec"},"vehicle_type_id":"4","last_reported":1726579012,"current_range_meters":9600,"station_id":"ce4bgjh2rcd13ifvqbf0","pricing_plan_id":"cebpf4jnsgd1na2vs0mg"},{"bike_id":"5828d576-a13b-42e7-9fc3-01998a2dd81c","system_id":"levelo_inurba_marseille","lat":43.26782,"lon":5.39412,"is_reserved":false,"is_disabled":false,"rental_uris":{"android":"levelo://app?vid=5828d576-a13b-42e7-9fc3-01998a2dd81c","ios":"levelo://app?vid=5828d576-a13b-42e7-9fc3-01998a2dd81c"},"vehicle_type_id":"4","last_reported":1726579012,"current_range_meters":38800,"station_id":"ce4bhh12rcd13ifvqfg0","pricing_plan_id":"cebpf4jnsgd1na2vs0mg"},{"bike_id":"bb11e736-9a98-4d68-b71f-9421365485ff","system_id":"levelo_inurba_marseille","lat":43.29841,"lon":5.3627,"is_reserved":false,"is_disabled":false,"rental_uris":{"android":"levelo://app?vid=bb11e736-9a98-4d68-b71f-9421365485ff","ios":"levelo://app?vid=bb11e736-9a98-4d68-b71f-9421365485ff"},"vehicle_type_id":"4","last_reported":1726579012,"current_range_meters":22800,"station_id":"ce4bgpp2rcd13ifvqc3g","pricing_plan_id":"cebpf4jnsgd1na2vs0mg"},{"bike_id":"24dea8b4-f0a3-4008-b3f9-c39bfa102cec","system_id":"levelo_inurba_marseille","lat":43.25499,"lon":5.37647,"is_reserved":false,"is_disabled":false,"rental_uris":{"android":"levelo://app?vid=24dea8b4-f0a3-4008-b3f9-c39bfa102cec","ios":"levelo://app?vid=24dea8b4-f0a3-4008-b3f9-c39bfa102cec"},"vehicle_type_id":"4","last_reported":1726579012,"current_range_meters":36400,"station_id":"ce4bhh12rcd13ifvqff0","pricing_plan_id":"cebpf4jnsgd1na2vs0mg"},{"bike_id":"764492cd-7476-4794-9106-061c8cb03c80","system_id":"levelo_inurba_marseille","lat":43.27494,"lon":5.424245,"is_reserved":false,"is_disabled":false,"rental_uris":{"android":"levelo://app?vid=764492cd-7476-4794-9106-061c8cb03c80","ios":"levelo://app?vid=764492cd-7476-4794-9106-061c8cb03c80"},"vehicle_type_id":"4","last_reported":1726579012,"current_range_meters":28800,"station_id":"ce4bhn92rcd13ifvqgrg","pricing_plan_id":"cebpf4jnsgd1na2vs0mg"},{"bike_id":"d050d7b7-e817-42dd-99e2-bc8a4864acf7","system_id":"levelo_inurba_marseille","lat":43.33616,"lon":5.41031,"is_reserved":false,"is_disabled":false,"rental_uris":{"android":"levelo://app?vid=d050d7b7-e817-42dd-99e2-bc8a4864acf7","ios":"levelo://app?vid=d050d7b7-e817-42dd-99e2-bc8a4864acf7"},"vehicle_type_id":"4","last_reported":1726579012,"current_range_meters":38000,"station_id":"ce4bhqh2rcd13ifvqhmg","pricing_plan_id":"cebpf4jnsgd1na2vs0mg"},{"bike_id":"328d45f9-980e-4811-97c0-47d761861509","system_id":"levelo_inurba_marseille","lat":43.29847,"lon":5.37836,"is_reserved":false,"is_disabled":false,"rental_uris":{"android":"levelo://app?vid=328d45f9-980e-4811-97c0-47d761861509","ios":"levelo://app?vid=328d45f9-980e-4811-97c0-47d761861509"},"vehicle_type_id":"4","last_reported":1726579012,"current_range_meters":17200,"station_id":"ce4bgkh2rcd13ifvqbl0","pricing_plan_id":"cebpf4jnsgd1na2vs0mg"},{"bike_id":"de322f32-ff04-4812-bc5f-4299fcca384f","system_id":"levelo_inurba_marseille","lat":43.28037,"lon":5.3695,"is_reserved":false,"is_disabled":false,"rental_uris":{"android":"levelo://app?vid=de322f32-ff04-4812-bc5f-4299fcca384f","ios":"levelo://app?vid=de322f32-ff04-4812-bc5f-4299fcca384f"},"vehicle_type_id":"4","last_reported":1726579012,"current_range_meters":31200,"station_id":"ce4bha12rcd13ifvqef0","pricing_plan_id":"cebpf4jnsgd1na2vs0mg"},{"bike_id":"b5d0dcef-4e54-4a1e-89e5-b07996e108a4","system_id":"levelo_inurba_marseille","lat":43.2991,"lon":5.38151,"is_reserved":false,"is_disabled":false,"rental_uris":{"android":"levelo://app?vid=b5d0dcef-4e54-4a1e-89e5-b07996e108a4","ios":"levelo://app?vid=b5d0dcef-4e54-4a1e-89e5-b07996e108a4"},"vehicle_type_id":"4","last_reported":1726579012,"current_range_meters":36800,"station_id":"ce4bgj12rcd13ifvqbc0","pricing_plan_id":"cebpf4jnsgd1na2vs0mg"},{"bike_id":"e08c625d-a2e3-4d74-bde5-1f2cfec9c04b","system_id":"levelo_inurba_marseille","lat":43.29621,"lon":5.3772,"is_reserved":false,"is_disabled":false,"rental_uris":{"android":"levelo://app?vid=e08c625d-a2e3-4d74-bde5-1f2cfec9c04b","ios":"levelo://app?vid=e08c625d-a2e3-4d74-bde5-1f2cfec9c04b"},"vehicle_type_id":"4","last_reported":1726579012,"current_range_meters":39200,"station_id":"ce4bgi92rcd13ifvqb90","pricing_plan_id":"cebpf4jnsgd1na2vs0mg"},{"bike_id":"d84d461a-0f80-4d5c-8030-45ef5ea64552","system_id":"levelo_inurba_marseille","lat":43.26216,"lon":5.3744,"is_reserved":false,"is_disabled":false,"rental_uris":{"android":"levelo://app?vid=d84d461a-0f80-4d5c-8030-45ef5ea64552","ios":"levelo://app?vid=d84d461a-0f80-4d5c-8030-45ef5ea64552"},"vehicle_type_id":"4","last_reported":1726579012,"current_range_meters":38800,"station_id":"ce4bhgp2rcd13ifvqfc0","pricing_plan_id":"cebpf4jnsgd1na2vs0mg"},{"bike_id":"c332025b-ea55-4459-9606-06bada6d04af","system_id":"levelo_inurba_marseille","lat":43.31524,"lon":5.38036,"is_reserved":false,"is_disabled":false,"rental_uris":{"android":"levelo://app?vid=c332025b-ea55-4459-9606-06bada6d04af","ios":"levelo://app?vid=c332025b-ea55-4459-9606-06bada6d04af"},"vehicle_type_id":"4","last_reported":1726579012,"current_range_meters":31200,"station_id":"ce4bhsp2rcd13ifvqi50","pricing_plan_id":"cebpf4jnsgd1na2vs0mg"},{"bike_id":"fa690805-233a-4a70-a9f3-33f1b67cdb1f","system_id":"levelo_inurba_marseille","lat":43.32287,"lon":5.38256,"is_reserved":false,"is_disabled":false,"rental_uris":{"android":"levelo://app?vid=fa690805-233a-4a70-a9f3-33f1b67cdb1f","ios":"levelo://app?vid=fa690805-233a-4a70-a9f3-33f1b67cdb1f"},"vehicle_type_id":"4","last_reported":1726579012,"current_range_meters":32400,"station_id":"ce4bhr12rcd13ifvqhqg","pricing_plan_id":"cebpf4jnsgd1na2vs0mg"},{"bike_id":"8b608b96-fedf-4511-8d4b-09bad2606e1a","system_id":"levelo_inurba_marseille","lat":43.27726,"lon":5.41134,"is_reserved":false,"is_disabled":false,"rental_uris":{"android":"levelo://app?vid=8b608b96-fedf-4511-8d4b-09bad2606e1a","ios":"levelo://app?vid=8b608b96-fedf-4511-8d4b-09bad2606e1a"},"vehicle_type_id":"4","last_reported":1726579012,"current_range_meters":9600,"station_id":"","pricing_plan_id":"cebpf4jnsgd1na2vs0mg"},{"bike_id":"6af7f09f-a651-4e7d-9822-84d318af3ae2","system_id":"levelo_inurba_marseille","lat":43.31173,"lon":5.38724,"is_reserved":false,"is_disabled":false,"rental_uris":{"android":"levelo://app?vid=6af7f09f-a651-4e7d-9822-84d318af3ae2","ios":"levelo://app?vid=6af7f09f-a651-4e7d-9822-84d318af3ae2"},"vehicle_type_id":"4","last_reported":1726579012,"current_range_meters":10000,"station_id":"ce4bgv12rcd13ifvqcp0","pricing_plan_id":"cebpf4jnsgd1na2vs0mg"},{"bike_id":"0a254574-8543-4552-9500-e895c38f9f9d","system_id":"levelo_inurba_marseille","lat":43.30435,"lon":5.39749,"is_reserved":false,"is_disabled":false,"rental_uris":{"android":"levelo://app?vid=0a254574-8543-4552-9500-e895c38f9f9d","ios":"levelo://app?vid=0a254574-8543-4552-9500-e895c38f9f9d"},"vehicle_type_id":"4","last_reported":1726579012,"current_range_meters":8400,"station_id":"ce4bh092rcd13ifvqd20","pricing_plan_id":"cebpf4jnsgd1na2vs0mg"},{"bike_id":"57be3ded-1ee9-42c1-b39d-7196fdda9743","system_id":"levelo_inurba_marseille","lat":43.32291,"lon":5.38256,"is_reserved":false,"is_disabled":false,"rental_uris":{"android":"levelo://app?vid=57be3ded-1ee9-42c1-b39d-7196fdda9743","ios":"levelo://app?vid=57be3ded-1ee9-42c1-b39d-7196fdda9743"},"vehicle_type_id":"4","last_reported":1726579012,"current_range_meters":36800,"station_id":"ce4bhr12rcd13ifvqhqg","pricing_plan_id":"cebpf4jnsgd1na2vs0mg"},{"bike_id":"ef198de9-a314-4836-ac3c-a2e825008fe4","system_id":"levelo_inurba_marseille","lat":43.29611,"lon":5.37716,"is_reserved":false,"is_disabled":false,"rental_uris":{"android":"levelo://app?vid=ef198de9-a314-4836-ac3c-a2e825008fe4","ios":"levelo://app?vid=ef198de9-a314-4836-ac3c-a2e825008fe4"},"vehicle_type_id":"4","last_reported":1726579012,"current_range_meters":33200,"station_id":"ce4bgi92rcd13ifvqb90","pricing_plan_id":"cebpf4jnsgd1na2vs0mg"},{"bike_id":"ef2764ef-0fab-40a3-9505-6dbdd20c9a4b","system_id":"levelo_inurba_marseille","lat":43.24079,"lon":5.37753,"is_reserved":false,"is_disabled":false,"rental_uris":{"android":"levelo://app?vid=ef2764ef-0fab-40a3-9505-6dbdd20c9a4b","ios":"levelo://app?vid=ef2764ef-0fab-40a3-9505-6dbdd20c9a4b"},"vehicle_type_id":"4","last_reported":1726579012,"current_range_meters":4000,"station_id":"ce4bhnp2rcd13ifvqgvg","pricing_plan_id":"cebpf4jnsgd1na2vs0mg"},{"bike_id":"370b7ad6-7f32-4ffb-9681-36ee93599801","system_id":"levelo_inurba_marseille","lat":43.29911,"lon":5.38141,"is_reserved":false,"is_disabled":false,"rental_uris":{"android":"levelo://app?vid=370b7ad6-7f32-4ffb-9681-36ee93599801","ios":"levelo://app?vid=370b7ad6-7f32-4ffb-9681-36ee93599801"},"vehicle_type_id":"4","last_reported":1726579012,"current_range_meters":35600,"station_id":"ce4bgj12rcd13ifvqbc0","pricing_plan_id":"cebpf4jnsgd1na2vs0mg"},{"bike_id":"ce5ffba7-a814-4584-b40b-46879ad32048","system_id":"levelo_inurba_marseille","lat":43.296295,"lon":5.405994,"is_reserved":false,"is_disabled":false,"rental_uris":{"android":"levelo://app?vid=ce5ffba7-a814-4584-b40b-46879ad32048","ios":"levelo://app?vid=ce5ffba7-a814-4584-b40b-46879ad32048"},"vehicle_type_id":"4","last_reported":1726579012,"current_range_meters":31200,"station_id":"ce4bh0h2rcd13ifvqd60","pricing_plan_id":"cebpf4jnsgd1na2vs0mg"},{"bike_id":"2bc8efe8-c301-4f94-99d5-38ad6d1db7f2","system_id":"levelo_inurba_marseille","lat":43.3149,"lon":5.37309,"is_reserved":false,"is_disabled":false,"rental_uris":{"android":"levelo://app?vid=2bc8efe8-c301-4f94-99d5-38ad6d1db7f2","ios":"levelo://app?vid=2bc8efe8-c301-4f94-99d5-38ad6d1db7f2"},"vehicle_type_id":"4","last_reported":1726579012,"current_range_meters":36000,"station_id":"ce4bgt12rcd13ifvqcd0","pricing_plan_id":"cebpf4jnsgd1na2vs0mg"},{"bike_id":"36aeed49-da71-4106-9676-9768d0b45ee4","system_id":"levelo_inurba_marseille","lat":43.27759,"lon":5.39089,"is_reserved":false,"is_disabled":false,"rental_uris":{"android":"levelo://app?vid=36aeed49-da71-4106-9676-9768d0b45ee4","ios":"levelo://app?vid=36aeed49-da71-4106-9676-9768d0b45ee4"},"vehicle_type_id":"4","last_reported":1726579012,"current_range_meters":23200,"station_id":"","pricing_plan_id":"cebpf4jnsgd1na2vs0mg"},{"bike_id":"44296eb7-091e-4e36-bbd8-97bbdd30b65d","system_id":"levelo_inurba_marseille","lat":43.28656,"lon":5.36352,"is_reserved":false,"is_disabled":false,"rental_uris":{"android":"levelo://app?vid=44296eb7-091e-4e36-bbd8-97bbdd30b65d","ios":"levelo://app?vid=44296eb7-091e-4e36-bbd8-97bbdd30b65d"},"vehicle_type_id":"4","last_reported":1726579012,"current_range_meters":24000,"station_id":"ce4bhah2rcd13ifvqej0","pricing_plan_id":"cebpf4jnsgd1na2vs0mg"},{"bike_id":"442d380e-fe45-42c1-9280-0a6b07954710","system_id":"levelo_inurba_marseille","lat":43.239604,"lon":5.366294,"is_reserved":false,"is_disabled":false,"rental_uris":{"android":"levelo://app?vid=442d380e-fe45-42c1-9280-0a6b07954710","ios":"levelo://app?vid=442d380e-fe45-42c1-9280-0a6b07954710"},"vehicle_type_id":"4","last_reported":1726579012,"current_range_meters":14000,"station_id":"ce4bhi12rcd13ifvqfp0","pricing_plan_id":"cebpf4jnsgd1na2vs0mg"},{"bike_id":"2f9c679d-592f-4cd3-9aab-0620d59339d2","system_id":"levelo_inurba_marseille","lat":43.31227,"lon":5.36856,"is_reserved":false,"is_disabled":false,"rental_uris":{"android":"levelo://app?vid=2f9c679d-592f-4cd3-9aab-0620d59339d2","ios":"levelo://app?vid=2f9c679d-592f-4cd3-9aab-0620d59339d2"},"vehicle_type_id":"4","last_reported":1726579012,"current_range_meters":4000,"station_id":"ce4bgl92rcd13ifvqbq0","pricing_plan_id":"cebpf4jnsgd1na2vs0mg"},{"bike_id":"cb62d564-15ab-44ae-85e9-21db5dac12b9","system_id":"levelo_inurba_marseille","lat":43.29811,"lon":5.38103,"is_reserved":false,"is_disabled":false,"rental_uris":{"android":"levelo://app?vid=cb62d564-15ab-44ae-85e9-21db5dac12b9","ios":"levelo://app?vid=cb62d564-15ab-44ae-85e9-21db5dac12b9"},"vehicle_type_id":"4","last_reported":1726579012,"current_range_meters":38800,"station_id":"ce4bgip2rcd13ifvqbb0","pricing_plan_id":"cebpf4jnsgd1na2vs0mg"},{"bike_id":"c02317e4-3b9a-451b-9ef8-7886ce7ae93a","system_id":"levelo_inurba_marseille","lat":43.33761,"lon":5.37431,"is_reserved":false,"is_disabled":false,"rental_uris":{"android":"levelo://app?vid=c02317e4-3b9a-451b-9ef8-7886ce7ae93a","ios":"levelo://app?vid=c02317e4-3b9a-451b-9ef8-7886ce7ae93a"},"vehicle_type_id":"4","last_reported":1726579012,"current_range_meters":38400,"station_id":"","pricing_plan_id":"cebpf4jnsgd1na2vs0mg"},{"bike_id":"864f5517-d718-41d4-8950-eb3ba9f841d7","system_id":"levelo_inurba_marseille","lat":43.2293,"lon":5.3537,"is_reserved":false,"is_disabled":false,"rental_uris":{"android":"levelo://app?vid=864f5517-d718-41d4-8950-eb3ba9f841d7","ios":"levelo://app?vid=864f5517-d718-41d4-8950-eb3ba9f841d7"},"vehicle_type_id":"4","last_reported":1726579012,"current_range_meters":18800,"station_id":"cpo3532slgdg3j2ikp40","pricing_plan_id":"cebpf4jnsgd1na2vs0mg"},{"bike_id":"4794a437-9232-4ded-ada9-c1413dd4f781","system_id":"levelo_inurba_marseille","lat":43.25937,"lon":5.40895,"is_reserved":false,"is_disabled":false,"rental_uris":{"android":"levelo://app?vid=4794a437-9232-4ded-ada9-c1413dd4f781","ios":"levelo://app?vid=4794a437-9232-4ded-ada9-c1413dd4f781"},"vehicle_type_id":"4","last_reported":1726579012,"current_range_meters":37600,"station_id":"ce4bhm92rcd13ifvqglg","pricing_plan_id":"cebpf4jnsgd1na2vs0mg"},{"bike_id":"6a17dbc5-669f-49b8-907a-20140dfc9536","system_id":"levelo_inurba_marseille","lat":43.31341,"lon":5.367,"is_reserved":false,"is_disabled":false,"rental_uris":{"android":"levelo://app?vid=6a17dbc5-669f-49b8-907a-20140dfc9536","ios":"levelo://app?vid=6a17dbc5-669f-49b8-907a-20140dfc9536"},"vehicle_type_id":"4","last_reported":1726579012,"current_range_meters":38800,"station_id":"ce4bgr92rcd13ifvqc6g","pricing_plan_id":"cebpf4jnsgd1na2vs0mg"},{"bike_id":"b2821373-0cf7-435f-b100-d80c4e3ee125","system_id":"levelo_inurba_marseille","lat":43.290405,"lon":5.375653,"is_reserved":false,"is_disabled":false,"rental_uris":{"android":"levelo://app?vid=b2821373-0cf7-435f-b100-d80c4e3ee125","ios":"levelo://app?vid=b2821373-0cf7-435f-b100-d80c4e3ee125"},"vehicle_type_id":"4","last_reported":1726579012,"current_range_meters":8400,"station_id":"ce4bh692rcd13ifvqe90","pricing_plan_id":"cebpf4jnsgd1na2vs0mg"},{"bike_id":"8c5b5763-b71b-4c50-a2c6-7a6d4fa6ac16","system_id":"levelo_inurba_marseille","lat":43.3065,"lon":5.40079,"is_reserved":false,"is_disabled":false,"rental_uris":{"android":"levelo://app?vid=8c5b5763-b71b-4c50-a2c6-7a6d4fa6ac16","ios":"levelo://app?vid=8c5b5763-b71b-4c50-a2c6-7a6d4fa6ac16"},"vehicle_type_id":"4","last_reported":1726579012,"current_range_meters":36800,"station_id":"ce4bh112rcd13ifvqda0","pricing_plan_id":"cebpf4jnsgd1na2vs0mg"},{"bike_id":"e7f52843-80de-485f-81b1-be7f94c5a072","system_id":"levelo_inurba_marseille","lat":43.29516,"lon":5.394,"is_reserved":false,"is_disabled":false,"rental_uris":{"android":"levelo://app?vid=e7f52843-80de-485f-81b1-be7f94c5a072","ios":"levelo://app?vid=e7f52843-80de-485f-81b1-be7f94c5a072"},"vehicle_type_id":"4","last_reported":1726579012,"current_range_meters":24800,"station_id":"ce4bh292rcd13ifvqdf0","pricing_plan_id":"cebpf4jnsgd1na2vs0mg"},{"bike_id":"fa8b1d46-4cee-45a9-867e-31d22cd4e8c3","system_id":"levelo_inurba_marseille","lat":43.29853,"lon":5.36287,"is_reserved":false,"is_disabled":false,"rental_uris":{"android":"levelo://app?vid=fa8b1d46-4cee-45a9-867e-31d22cd4e8c3","ios":"levelo://app?vid=fa8b1d46-4cee-45a9-867e-31d22cd4e8c3"},"vehicle_type_id":"4","last_reported":1726579012,"current_range_meters":34000,"station_id":"ce4bgpp2rcd13ifvqc3g","pricing_plan_id":"cebpf4jnsgd1na2vs0mg"},{"bike_id":"e4ff2716-efaa-4292-b77b-693be63bb373","system_id":"levelo_inurba_marseille","lat":43.23191,"lon":5.35546,"is_reserved":false,"is_disabled":false,"rental_uris":{"android":"levelo://app?vid=e4ff2716-efaa-4292-b77b-693be63bb373","ios":"levelo://app?vid=e4ff2716-efaa-4292-b77b-693be63bb373"},"vehicle_type_id":"4","last_reported":1726579012,"current_range_meters":36400,"station_id":"ce4bhu92rcd13ifvqi70","pricing_plan_id":"cebpf4jnsgd1na2vs0mg"},{"bike_id":"3d91f249-42ba-4304-ae7b-e082d59624f0","system_id":"levelo_inurba_marseille","lat":43.30545,"lon":5.36713,"is_reserved":false,"is_disabled":false,"rental_uris":{"android":"levelo://app?vid=3d91f249-42ba-4304-ae7b-e082d59624f0","ios":"levelo://app?vid=3d91f249-42ba-4304-ae7b-e082d59624f0"},"vehicle_type_id":"4","last_reported":1726579012,"current_range_meters":28000,"station_id":"ce4bgrp2rcd13ifvqc9g","pricing_plan_id":"cebpf4jnsgd1na2vs0mg"},{"bike_id":"9ff17fa9-e34e-497c-b6c4-0fe62a198728","system_id":"levelo_inurba_marseille","lat":43.23984,"lon":5.36602,"is_reserved":false,"is_disabled":false,"rental_uris":{"android":"levelo://app?vid=9ff17fa9-e34e-497c-b6c4-0fe62a198728","ios":"levelo://app?vid=9ff17fa9-e34e-497c-b6c4-0fe62a198728"},"vehicle_type_id":"4","last_reported":1726579012,"current_range_meters":38800,"station_id":"ce4bhi12rcd13ifvqfp0","pricing_plan_id":"cebpf4jnsgd1na2vs0mg"},