{"last_updated":1704222331,"ttl":30,"version":"2.2","data":{"bikes":[{"bike_id":"d22c6f48-6364-43ff-b0cb-9091b030a6da","system_id":"levelo_inurba_marseille","lat":43.312239,"lon":5.368562,"is_reserved":false,"is_disabled":false,"rental_uris":{"android":"levelo://app?vid=d22c6f48-6364-43ff-b0cb-9091b030a6da","ios":"levelo://app?vid=d22c6f48-6364-43ff-b0cb-9091b030a6da"},"vehicle_type_id":"4","last_reported":1704222332,"current_range_meters":14800,"station_id":"ce4bgl92rcd13ifvqbq0","pricing_plan_id":"free"},{"bike_id":"93617ab3-b933-493b-90fc-f66e4d44f71f","system_id":"levelo_inurba_marseille","lat":43.31494,"lon":5.37301,"is_reserved":false,"is_disabled":false,"rental_uris":{"android":"levelo://app?vid=93617ab3-b933-493b-90fc-f66e4d44f71f","ios":"levelo://app?vid=93617ab3-b933-493b-90fc-f66e4d44f71f"},"vehicle_type_id":"4","last_reported":1704222332,"current_range_meters":0,"station_id":"ce4bgt12rcd13ifvqcd0","pricing_plan_id":"free"},{"bike_id":"1cf2974a-bc23-4155-aaed-831f2a833d89","system_id":"levelo_inurba_marseille","lat":43.309039,"lon":5.371797,"is_reserved":false,"is_disabled":false,"rental_uris":{"android":"levelo://app?vid=1cf2974a-bc23-4155-aaed-831f2a833d89","ios":"levelo://app?vid=1cf2974a-bc23-4155-aaed-831f2a833d89"},"vehicle_type_id":"4","last_reported":1704222332,"current_range_meters":11600,"station_id":"ce4bguh2rcd13ifvqckg","pricing_plan_id":"free"},{"bike_id":"21036ca7-6a7d-4991-8195-63a3528b4dfc","system_id":"levelo_inurba_marseille","lat":43.30537,"lon":5.367345,"is_reserved":false,"is_disabled":false,"rental_uris":{"android":"levelo://app?vid=21036ca7-6a7d-4991-8195-63a3528b4dfc","ios":"levelo://app?vid=21036ca7-6a7d-4991-8195-63a3528b4dfc"},"vehicle_type_id":"4","last_reported":1704222332,"current_range_meters":14000,"station_id":"ce4bgrp2rcd13ifvqc9g","pricing_plan_id":"free"},{"bike_id":"b67355a2-2710-4d85-a32e-96da2e5fa644","system_id":"levelo_inurba_marseille","lat":43.305989,"lon":5.37225,"is_reserved":false,"is_disabled":false,"rental_uris":{"android":"levelo://app?vid=b67355a2-2710-4d85-a32e-96da2e5fa644","ios":"levelo://app?vid=b67355a2-2710-4d85-a32e-96da2e5fa644"},"vehicle_type_id":"4","last_reported":1704222332,"current_range_meters":6400,"station_id":"ce4bgqh2rcd13ifvqc4g","pricing_plan_id":"free"},{"bike_id":"c7dce3a0-26c5-43e1-b916-e7b19dc0e3d6","system_id":"levelo_inurba_marseille","lat":43.305989,"lon":5.37225,"is_reserved":false,"is_disabled":false,"rental_uris":{"android":"levelo://app?vid=c7dce3a0-26c5-43e1-b916-e7b19dc0e3d6","ios":"levelo://app?vid=c7dce3a0-26c5-43e1-b916-e7b19dc0e3d6"},"vehicle_type_id":"4","last_reported":1704222332,"current_range_meters":18000,"station_id":"ce4bgqh2rcd13ifvqc4g","pricing_plan_id":"free"},{"bike_id":"0469a7f6-beff-4c64-b1fe-fa03767c47ca","system_id":"levelo_inurba_marseille","lat":43.317075,"lon":5.377367,"is_reserved":false,"is_disabled":false,"rental_uris":{"android":"levelo://app?vid=0469a7f6-beff-4c64-b1fe-fa03767c47ca","ios":"levelo://app?vid=0469a7f6-beff-4c64-b1fe-fa03767c47ca"},"vehicle_type_id":"4","last_reported":1704222332,"current_range_meters":24000,"station_id":"ce4bgth2rcd13ifvqch0","pricing_plan_id":"free"},{"bike_id":"25af9e1c-886c-4f64-92f2-5ca68e46ae4a","system_id":"levelo_inurba_marseille","lat":43.31722,"lon":5.37668,"is_reserved":false,"is_disabled":false,"rental_uris":{"android":"levelo://app?vid=25af9e1c-886c-4f64-92f2-5ca68e46ae4a","ios":"levelo://app?vid=25af9e1c-886c-4f64-92f2-5ca68e46ae4a"},"vehicle_type_id":"4","last_reported":1704222332,"current_range_meters":13600,"station_id":"","pricing_plan_id":"free"},{"bike_id":"377c8254-82f4-487c-b5e0-397493086885","system_id":"levelo_inurba_marseille","lat":43.307945,"lon":5.376487,"is_reserved":false,"is_disabled":false,"rental_uris":{"android":"levelo://app?vid=377c8254-82f4-487c-b5e0-397493086885","ios":"levelo://app?vid=377c8254-82f4-487c-b5e0-397493086885"},"vehicle_type_id":"4","last_reported":1704222332,"current_range_meters":21600,"station_id":"ce4bgv92rcd13ifvqcq0","pricing_plan_id":"free"},{"bike_id":"a158a497-f5e0-4b42-a166-096899b92f55","system_id":"levelo_inurba_marseille","lat":43.317075,"lon":5.377367,"is_reserved":false,"is_disabled":false,"rental_uris":{"android":"levelo://app?vid=a158a497-f5e0-4b42-a166-096899b92f55","ios":"levelo://app?vid=a158a497-f5e0-4b42-a166-096899b92f55"},"vehicle_type_id":"4","last_reported":1704222332,"current_range_meters":12000,"station_id":"ce4bgth2rcd13ifvqch0","pricing_plan_id":"free"},{"bike_id":"954d2c68-38e6-4e76-b222-3091a5da1356","system_id":"levelo_inurba_marseille","lat":43.317075,"lon":5.377367,"is_reserved":false,"is_disabled":false,"rental_uris":{"android":"levelo://app?vid=954d2c68-38e6-4e76-b222-3091a5da1356","ios":"levelo://app?vid=954d2c68-38e6-4e76-b222-3091a5da1356"},"vehicle_type_id":"4","last_reported":1704222332,"current_range_meters":4400,"station_id":"ce4bgth2rcd13ifvqch0","pricing_plan_id":"free"},{"bike_id":"086e6c4e-c719-4117-b81a-b622f4f7a36c","system_id":"levelo_inurba_marseille","lat":43.317075,"lon":5.377367,"is_reserved":false,"is_disabled":false,"rental_uris":{"android":"levelo://app?vid=086e6c4e-c719-4117-b81a-b622f4f7a36c","ios":"levelo://app?vid=086e6c4e-c719-4117-b81a-b622f4f7a36c"},"vehicle_type_id":"4","last_reported":1704222332,"current_range_meters":22000,"station_id":"ce4bgth2rcd13ifvqch0","pricing_plan_id":"free"},{"bike_id":"078c2936-dcac-42bb-96b9-1bb29f14f139","system_id":"levelo_inurba_marseille","lat":43.315293,"lon":5.380349,"is_reserved":false,"is_disabled":false,"rental_uris":{"android":"levelo://app?vid=078c2936-dcac-42bb-96b9-1bb29f14f139","ios":"levelo://app?vid=078c2936-dcac-42bb-96b9-1bb29f14f139"},"vehicle_type_id":"4","last_reported":1704222332,"current_range_meters":12400,"station_id":"ce4bhsp2rcd13ifvqi50","pricing_plan_id":"free"},{"bike_id":"7437da4f-60f9-4c4e-8610-7f28098550a8","system_id":"levelo_inurba_marseille","lat":43.301939,"lon":5.366286,"is_reserved":false,"is_disabled":false,"rental_uris":{"android":"levelo://app?vid=7437da4f-60f9-4c4e-8610-7f28098550a8","ios":"levelo://app?vid=7437da4f-60f9-4c4e-8610-7f28098550a8"},"vehicle_type_id":"4","last_reported":1704222332,"current_range_meters":28000,"station_id":"ce4bgrh2rcd13ifvqc8g","pricing_plan_id":"free"},{"bike_id":"e9ee0533-a7f5-4c88-85b7-8769f29d75ed","system_id":"levelo_inurba_marseille","lat":43.308012,"lon":5.381511,"is_reserved":false,"is_disabled":false,"rental_uris":{"android":"levelo://app?vid=e9ee0533-a7f5-4c88-85b7-8769f29d75ed","ios":"levelo://app?vid=e9ee0533-a7f5-4c88-85b7-8769f29d75ed"},"vehicle_type_id":"4","last_reported":1704222332,"current_range_meters":18800,"station_id":"ce4bgt12rcd13ifvqce0","pricing_plan_id":"free"},{"bike_id":"dfd1454c-26ba-4cd2-88e8-92cb8136bd99","system_id":"levelo_inurba_marseille","lat":43.308012,"lon":5.381511,"is_reserved":false,"is_disabled":false,"rental_uris":{"android":"levelo://app?vid=dfd1454c-26ba-4cd2-88e8-92cb8136bd99","ios":"levelo://app?vid=dfd1454c-26ba-4cd2-88e8-92cb8136bd99"},"vehicle_type_id":"4","last_reported":1704222332,"current_range_meters":7600,"station_id":"ce4bgt12rcd13ifvqce0","pricing_plan_id":"free"},{"bike_id":"918b0c4f-9f90-4a33-8454-b6b062a47494","system_id":"levelo_inurba_marseille","lat":43.31077,"lon":5.38302,"is_reserved":false,"is_disabled":false,"rental_uris":{"android":"levelo://app?vid=918b0c4f-9f90-4a33-8454-b6b062a47494","ios":"levelo://app?vid=918b0c4f-9f90-4a33-8454-b6b062a47494"},"vehicle_type_id":"4","last_reported":1704222332,"current_range_meters":9600,"station_id":"ce4bgt92rcd13ifvqcf0","pricing_plan_id":"free"},{"bike_id":"5377074b-30e2-4d67-825b-9deb3b1dbed3","system_id":"levelo_inurba_marseille","lat":43.304708,"lon":5.379039,"is_reserved":false,"is_disabled":false,"rental_uris":{"android":"levelo://app?vid=5377074b-30e2-4d67-825b-9deb3b1dbed3","ios":"levelo://app?vid=5377074b-30e2-4d67-825b-9deb3b1dbed3"},"vehicle_type_id":"4","last_reported":1704222332,"current_range_meters":10000,"station_id":"","pricing_plan_id":"free"},{"bike_id":"6bd81cf8-7250-411d-bb3d-641eb06b19a8","system_id":"levelo_inurba_marseille","lat":43.304606,"lon":5.379026,"is_reserved":false,"is_disabled":false,"rental_uris":{"android":"levelo://app?vid=6bd81cf8-7250-411d-bb3d-641eb06b19a8","ios":"levelo://app?vid=6bd81cf8-7250-411d-bb3d-641eb06b19a8"},"vehicle_type_id":"4","last_reported":1704222332,"current_range_meters":16800,"station_id":"ce4bgup2rcd13ifvqcn0","pricing_plan_id":"free"},{"bike_id":"fda865ec-3f75-4f64-9f03-d7d64edceca3","system_id":"levelo_inurba_marseille","lat":43.304606,"lon":5.379026,"is_reserved":false,"is_disabled":false,"rental_uris":{"android":"levelo://app?vid=fda865ec-3f75-4f64-9f03-d7d64edceca3","ios":"levelo://app?vid=fda865ec-3f75-4f64-9f03-d7d64edceca3"},"vehicle_type_id":"4","last_reported":1704222332,"current_range_meters":31200,"station_id":"ce4bgup2rcd13ifvqcn0","pricing_plan_id":"free"},{"bike_id":"ad6ad867-32a9-46eb-abb2-554e24d06a1f","system_id":"levelo_inurba_marseille","lat":43.319935,"lon":5.381699,"is_reserved":false,"is_disabled":false,"rental_uris":{"android":"levelo://app?vid=ad6ad867-32a9-46eb-abb2-554e24d06a1f","ios":"levelo://app?vid=ad6ad867-32a9-46eb-abb2-554e24d06a1f"},"vehicle_type_id":"4","last_reported":1704222332,"current_range_meters":0,"station_id":"ce4bhr12rcd13ifvqhpg","pricing_plan_id":"free"},{"bike_id":"a2427446-c7b0-492e-97cf-bdde94dfd9b4","system_id":"levelo_inurba_marseille","lat":43.313715,"lon":5.38495,"is_reserved":false,"is_disabled":false,"rental_uris":{"android":"levelo://app?vid=a2427446-c7b0-492e-97cf-bdde94dfd9b4","ios":"levelo://app?vid=a2427446-c7b0-492e-97cf-bdde94dfd9b4"},"vehicle_type_id":"4","last_reported":1704222332,"current_range_meters":23600,"station_id":"ce4bgt92rcd13ifvqcf0","pricing_plan_id":"free"},{"bike_id":"d60c186d-8dd5-4367-932d-c10a72aed291","system_id":"levelo_inurba_marseille","lat":43.313595,"lon":5.384972,"is_reserved":false,"is_disabled":false,"rental_uris":{"android":"levelo://app?vid=d60c186d-8dd5-4367-932d-c10a72aed291","ios":"levelo://app?vid=d60c186d-8dd5-4367-932d-c10a72aed291"},"vehicle_type_id":"4","last_reported":1704222332,"current_range_meters":15600,"station_id":"ce4bgt92rcd13ifvqcf0","pricing_plan_id":"free"},{"bike_id":"17504bde-947a-4cd6-98b3-9a4c66aca99b","system_id":"levelo_inurba_marseille","lat":43.313827,"lon":5.385007,"is_reserved":false,"is_disabled":false,"rental_uris":{"android":"levelo://app?vid=17504bde-947a-4cd6-98b3-9a4c66aca99b","ios":"levelo://app?vid=17504bde-947a-4cd6-98b3-9a4c66aca99b"},"vehicle_type_id":"4","last_reported":1704222332,"current_range_meters":20000,"station_id":"ce4bgt92rcd13ifvqcf0","pricing_plan_id":"free"},{"bike_id":"dc6e6230-e9c6-40c7-9acf-b28db88e214b","system_id":"levelo_inurba_marseille","lat":43.31377,"lon":5.38533,"is_reserved":false,"is_disabled":false,"rental_uris":{"android":"levelo://app?vid=dc6e6230-e9c6-40c7-9acf-b28db88e214b","ios":"levelo://app?vid=dc6e6230-e9c6-40c7-9acf-b28db88e214b"},"vehicle_type_id":"4","last_reported":1704222332,"current_range_meters":1200,"station_id":"ce4bgt92rcd13ifvqcf0","pricing_plan_id":"free"},{"bike_id":"ab91c59d-cb60-4786-b67d-2957dfe43dc1","system_id":"levelo_inurba_marseille","lat":43.298433,"lon":5.362774,"is_reserved":false,"is_disabled":false,"rental_uris":{"android":"levelo://app?vid=ab91c59d-cb60-4786-b67d-2957dfe43dc1","ios":"levelo://app?vid=ab91c59d-cb60-4786-b67d-2957dfe43dc1"},"vehicle_type_id":"4","last_reported":1704222332,"current_range_meters":21200,"station_id":"ce4bgpp2rcd13ifvqc3g","pricing_plan_id":"free"},{"bike_id":"63cfa2a8-e13e-4439-aa2f-20fb692f8670","system_id":"levelo_inurba_marseille","lat":43.305364,"lon":5.384119,"is_reserved":false,"is_disabled":false,"rental_uris":{"android":"levelo://app?vid=63cfa2a8-e13e-4439-aa2f-20fb692f8670","ios":"levelo://app?vid=63cfa2a8-e13e-4439-aa2f-20fb692f8670"},"vehicle_type_id":"4","last_reported":1704222332,"current_range_meters":4800,"station_id":"ce4bgg92rcd13ifvqb30","pricing_plan_id":"free"},{"bike_id":"9e316ee8-7f02-4c13-8183-4d9c57cafd93","system_id":"levelo_inurba_marseille","lat":43.311722,"lon":5.387247,"is_reserved":false,"is_disabled":false,"rental_uris":{"android":"levelo://app?vid=9e316ee8-7f02-4c13-8183-4d9c57cafd93","ios":"levelo://app?vid=9e316ee8-7f02-4c13-8183-4d9c57cafd93"},"vehicle_type_id":"4","last_reported":1704222332,"current_range_meters":14800,"station_id":"ce4bgv12rcd13ifvqcp0","pricing_plan_id":"free"},{"bike_id":"f629bdd7-11a7-4b7c-9182-6332f4076f6b","system_id":"levelo_inurba_marseille","lat":43.32554,"lon":5.37739,"is_reserved":false,"is_disabled":false,"rental_uris":{"android":"levelo://app?vid=f629bdd7-11a7-4b7c-9182-6332f4076f6b","ios":"levelo://app?vid=f629bdd7-11a7-4b7c-9182-6332f4076f6b"},"vehicle_type_id":"4","last_reported":1704222332,"current_range_meters":18000,"station_id":"","pricing_plan_id":"free"},{"bike_id":"9b0a0ff3-e8bf-4166-91a0-18ce9451abf9","system_id":"levelo_inurba_marseille","lat":43.299724,"lon":5.371829,"is_reserved":false,"is_disabled":false,"rental_uris":{"android":"levelo://app?vid=9b0a0ff3-e8bf-4166-91a0-18ce9451abf9","ios":"levelo://app?vid=9b0a0ff3-e8bf-4166-91a0-18ce9451abf9"},"vehicle_type_id":"4","last_reported":1704222332,"current_range_meters":24000,"station_id":"ce4bgr92rcd13ifvqc7g","pricing_plan_id":"free"},{"bike_id":"8752a032-5a63-4551-8b69-590b5f45408e","system_id":"levelo_inurba_marseille","lat":43.322872,"lon":5.382756,"is_reserved":false,"is_disabled":false,"rental_uris":{"android":"levelo://app?vid=8752a032-5a63-4551-8b69-590b5f45408e","ios":"levelo://app?vid=8752a032-5a63-4551-8b69-590b5f45408e"},"vehicle_type_id":"4","last_reported":1704222332,"current_range_meters":24800,"station_id":"ce4bhr12rcd13ifvqhqg","pricing_plan_id":"free"},{"bike_id":"8c6bdf02-a0f4-4369-bde2-2d78ebb33537","system_id":"levelo_inurba_marseille","lat":43.322872,"lon":5.382756,"is_reserved":false,"is_disabled":false,"rental_uris":{"android":"levelo://app?vid=8c6bdf02-a0f4-4369-bde2-2d78ebb33537","ios":"levelo://app?vid=8c6bdf02-a0f4-4369-bde2-2d78ebb33537"},"vehicle_type_id":"4","last_reported":1704222332,"current_range_meters":19600,"station_id":"ce4bhr12rcd13ifvqhqg","pricing_plan_id":"free"},{"bike_id":"f206342c-38bc-4948-a4e1-517e8437b144","system_id":"levelo_inurba_marseille","lat":43.328371,"lon":5.366912,"is_reserved":false,"is_disabled":false,"rental_uris":{"android":"levelo://app?vid=f206342c-38bc-4948-a4e1-517e8437b144","ios":"levelo://app?vid=f206342c-38bc-4948-a4e1-517e8437b144"},"vehicle_type_id":"4","last_reported":1704222332,"current_range_meters":10800,"station_id":"ce4bhs92rcd13ifvqi0g","pricing_plan_id":"free"},{"bike_id":"2c34cac5-58a3-4ec6-a51a-0e680d5b2c4e","system_id":"levelo_inurba_marseille","lat":43.328371,"lon":5.366912,"is_reserved":false,"is_disabled":false,"rental_uris":{"android":"levelo://app?vid=2c34cac5-58a3-4ec6-a51a-0e680d5b2c4e","ios":"levelo://app?vid=2c34cac5-58a3-4ec6-a51a-0e680d5b2c4e"},"vehicle_type_id":"4","last_reported":1704222332,"current_range_meters":18800,"station_id":"ce4bhs92rcd13ifvqi0g","pricing_plan_id":"free"},{"bike_id":"e25879d8-1688-47e8-8a17-f3fd5e5877cc","system_id":"levelo_inurba_marseille","lat":43.328371,"lon":5.366912,"is_reserved":false,"is_disabled":false,"rental_uris":{"android":"levelo://app?vid=e25879d8-1688-47e8-8a17-f3fd5e5877cc","ios":"levelo://app?vid=e25879d8-1688-47e8-8a17-f3fd5e5877cc"},"vehicle_type_id":"4","last_reported":1704222332,"current_range_meters":9200,"station_id":"ce4bhs92rcd13ifvqi0g","pricing_plan_id":"free"},{"bike_id":"98fd740c-da1c-45aa-a4bb-91192fa701c6","system_id":"levelo_inurba_marseille","lat":43.328371,"lon":5.366912,"is_reserved":false,"is_disabled":false,"rental_uris":{"android":"levelo://app?vid=98fd740c-da1c-45aa-a4bb-91192fa701c6","ios":"levelo://app?vid=98fd740c-da1c-45aa-a4bb-91192fa701c6"},"vehicle_type_id":"4","last_reported":1704222332,"current_range_meters":10800,"station_id":"ce4bhs92rcd13ifvqi0g","pricing_plan_id":"free"},{"bike_id":"370cccf7-c9ba-46c2-819b-c8e8cacc4c21","system_id":"levelo_inurba_marseille","lat":43.3277,"lon":5.37458,"is_reserved":false,"is_disabled":false,"rental_uris":{"android":"levelo://app?vid=370cccf7-c9ba-46c2-819b-c8e8cacc4c21","ios":"levelo://app?vid=370cccf7-c9ba-46c2-819b-c8e8cacc4c21"},"vehicle_type_id":"4","last_reported":1704222332,"current_range_meters":8000,"station_id":"","pricing_plan_id":"free"},{"bike_id":"89373544-1011-429c-a352-0620da4bd70a","system_id":"levelo_inurba_marseille","lat":43.296131,"lon":5.370773,"is_reserved":false,"is_disabled":false,"rental_uris":{"android":"levelo://app?vid=89373544-1011-429c-a352-0620da4bd70a","ios":"levelo://app?vid=89373544-1011-429c-a352-0620da4bd70a"},"vehicle_type_id":"4","last_reported":1704222332,"current_range_meters":16000,"station_id":"ce4bgnh2rcd13ifvqc0g","pricing_plan_id":"free"},{"bike_id":"1f598beb-a067-4d3c-80f6-72b5759abfcf","system_id":"levelo_inurba_marseille","lat":43.299028,"lon":5.381509,"is_reserved":false,"is_disabled":false,"rental_uris":{"android":"levelo://app?vid=1f598beb-a067-4d3c-80f6-72b5759abfcf","ios":"levelo://app?vid=1f598beb-a067-4d3c-80f6-72b5759abfcf"},"vehicle_type_id":"4","last_reported":1704222332,"current_range_meters":21600,"station_id":"ce4bgj12rcd13ifvqbc0","pricing_plan_id":"free"},{"bike_id":"675a536e-50ce-4596-85d7-29d48d12b32b","system_id":"levelo_inurba_marseille","lat":43.309589,"lon":5.390258,"is_reserved":false,"is_disabled":false,"rental_uris":{"android":"levelo://app?vid=675a536e-50ce-4596-85d7-29d48d12b32b","ios":"levelo://app?vid=675a536e-50ce-4596-85d7-29d48d12b32b"},"vehicle_type_id":"4","last_reported":1704222332,"current_range_meters":14000,"station_id":"ce4bgup2rcd13ifvqco0","pricing_plan_id":"free"},{"bike_id":"d30892ed-fff9-452b-8e88-40c42bdd8755","system_id":"levelo_inurba_marseille","lat":43.317557,"lon":5.390173,"is_reserved":false,"is_disabled":false,"rental_uris":{"android":"levelo://app?vid=d30892ed-fff9-452b-8e88-40c42bdd8755","ios":"levelo://app?vid=d30892ed-fff9-452b-8e88-40c42bdd8755"},"vehicle_type_id":"4","last_reported":1704222332,"current_range_meters":12000,"station_id":"ce4bhqp2rcd13ifvqhng","pricing_plan_id":"free"},{"bike_id":"bc608074-72a5-44d7-a4af-f51d3eb87d86","system_id":"levelo_inurba_marseille","lat":43.317557,"lon":5.390173,"is_reserved":false,"is_disabled":false,"rental_uris":{"android":"levelo://app?vid=bc608074-72a5-44d7-a4af-f51d3eb87d86","ios":"levelo://app?vid=bc608074-72a5-44d7-a4af-f51d3eb87d86"},"vehicle_type_id":"4","last_reported":1704222332,"current_range_meters":23200,"station_id":"ce4bhqp2rcd13ifvqhng","pricing_plan_id":"free"},{"bike_id":"0eb73cc6-5f0c-4ec4-a733-5a219c159f57","system_id":"levelo_inurba_marseille","lat":43.317557,"lon":5.390173,"is_reserved":false,"is_disabled":false,"rental_uris":{"android":"levelo://app?vid=0eb73cc6-5f0c-4ec4-a733-5a219c159f57","ios":"levelo://app?vid=0eb73cc6-5f0c-4ec4-a733-5a219c159f57"},"vehicle_type_id":"4","last_reported":1704222332,"current_range_meters":29200,"station_id":"ce4bhqp2rcd13ifvqhng","pricing_plan_id":"free"},{"bike_id":"e9dfd98d-d24d-47aa-9523-919ae7c8a368","system_id":"levelo_inurba_marseille","lat":43.317557,"lon":5.390173,"is_reserved":false,"is_disabled":false,"rental_uris":{"android":"levelo://app?vid=e9dfd98d-d24d-47aa-9523-919ae7c8a368","ios":"levelo://app?vid=e9dfd98d-d24d-47aa-9523-919ae7c8a368"},"vehicle_type_id":"4","last_reported":1704222332,"current_range_meters":2400,"station_id":"ce4bhqp2rcd13ifvqhng","pricing_plan_id":"free"},{"bike_id":"ddb8f620-eee6-447b-9f26-57a6d8a7834a","system_id":"levelo_inurba_marseille","lat":43.317557,"lon":5.390173,"is_reserved":false,"is_disabled":false,"rental_uris":{"android":"levelo://app?vid=ddb8f620-eee6-447b-9f26-57a6d8a7834a","ios":"levelo://app?vid=ddb8f620-eee6-447b-9f26-57a6d8a7834a"},"vehicle_type_id":"4","last_reported":1704222332,"current_range_meters":5600,"station_id":"ce4bhqp2rcd13ifvqhng","pricing_plan_id":"free"},{"bike_id":"36eb7fde-29db-41ad-95c0-c3370deb117c","system_id":"levelo_inurba_marseille","lat":43.317557,"lon":5.390173,"is_reserved":false,"is_disabled":false,"rental_uris":{"android":"levelo://app?vid=36eb7fde-29db-41ad-95c0-c3370deb117c","ios":"levelo://app?vid=36eb7fde-29db-41ad-95c0-c3370deb117c"},"vehicle_type_id":"4","last_reported":1704222332,"current_range_meters":24800,"station_id":"ce4bhqp2rcd13ifvqhng","pricing_plan_id":"free"},{"bike_id":"e7ce1b90-7a6e-4b29-86e6-27abccb43c49","system_id":"levelo_inurba_marseille","lat":43.317557,"lon":5.390173,"is_reserved":false,"is_disabled":false,"rental_uris":{"android":"levelo://app?vid=e7ce1b90-7a6e-4b29-86e6-27abccb43c49","ios":"levelo://app?vid=e7ce1b90-7a6e-4b29-86e6-27abccb43c49"},"vehicle_type_id":"4","last_reported":1704222332,"current_range_meters":14800,"station_id":"ce4bhqp2rcd13ifvqhng","pricing_plan_id":"free"},{"bike_id":"e9ae8b2b-9607-4c7e-8f7b-072d8581feb2","system_id":"levelo_inurba_marseille","lat":43.30431,"lon":5.38883,"is_reserved":false,"is_disabled":false,"rental_uris":{"android":"levelo://app?vid=e9ae8b2b-9607-4c7e-8f7b-072d8581feb2","ios":"levelo://app?vid=e9ae8b2b-9607-4c7e-8f7b-072d8581feb2"},"vehicle_type_id":"4","last_reported":1704222332,"current_range_meters":9200,"station_id":"ce4bgk12rcd13ifvqbi0","pricing_plan_id":"free"},{"bike_id":"d60802d6-4f47-444a-b234-883690eec05b","system_id":"levelo_inurba_marseille","lat":43.33062,"lon":5.3627,"is_reserved":false,"is_disabled":false,"rental_uris":{"android":"levelo://app?vid=d60802d6-4f47-444a-b234-883690eec05b","ios":"levelo://app?vid=d60802d6-4f47-444a-b234-883690eec05b"},"vehicle_type_id":"4","last_reported":1704222332,"current_range_meters":14800,"station_id":"","pricing_plan_id":"free"},{"bike_id":"f67b4ce4-0c9c-4cd2-b119-b472dfee5204","system_id":"levelo_inurba_marseille","lat":43.29538,"lon":5.375,"is_reserved":false,"is_disabled":false,"rental_uris":{"android":"levelo://app?vid=f67b4ce4-0c9c-4cd2-b119-b472dfee5204","ios":"levelo://app?vid=f67b4ce4-0c9c-4cd2-b119-b472dfee5204"},"vehicle_type_id":"4","last_reported":1704222332,"current_range_meters":21200,"station_id":"ce4bgi92rcd13ifvqb90","pricing_plan_id":"free"},{"bike_id":"7119845d-00aa-4d9f-be8c-fc97d41f1380","system_id":"levelo_inurba_marseille","lat":43.297594,"lon":5.381134,"is_reserved":false,"is_disabled":false,"rental_uris":{"android":"levelo://app?vid=7119845d-00aa-4d9f-be8c-fc97d41f1380","ios":"levelo://app?vid=7119845d-00aa-4d9f-be8c-fc97d41f1380"},"vehicle_type_id":"4","last_reported":1704222332,"current_range_meters":3200,"station_id":"ce4bgip2rcd13ifvqbb0","pricing_plan_id":"free"},{"bike_id":"255b507c-41ad-4415-a3fb-c7e2e357c3fc","system_id":"levelo_inurba_marseille","lat":43.295279,"lon":5.375048,"is_reserved":false,"is_disabled":false,"rental_uris":{"android":"levelo://app?vid=255b507c-41ad-4415-a3fb-c7e2e357c3fc","ios":"levelo://app?vid=255b507c-41ad-4415-a3fb-c7e2e357c3fc"},"vehicle_type_id":"4","last_reported":1704222332,"current_range_meters":28000,"station_id":"ce4bgkp2rcd13ifvqbmg","pricing_plan_id":"free"},{"bike_id":"4874e97e-15fc-442d-987e-12f59c7da007","system_id":"levelo_inurba_marseille","lat":43.29975,"lon":5.38491,"is_reserved":false,"is_disabled":false,"rental_uris":{"android":"levelo://app?vid=4874e97e-15fc-442d-987e-12f59c7da007","ios":"levelo://app?vid=4874e97e-15fc-442d-987e-12f59c7da007"},"vehicle_type_id":"4","last_reported":1704222332,"current_range_meters":0,"station_id":"ce4bgj92rcd13ifvqbd0","pricing_plan_id":"free"},{"bike_id":"d16da384-5256-4351-826a-0ba49f451ad9","system_id":"levelo_inurba_marseille","lat":43.299724,"lon":5.384848,"is_reserved":false,"is_disabled":false,"rental_uris":{"android":"levelo://app?vid=d16da384-5256-4351-826a-0ba49f451ad9","ios":"levelo://app?vid=d16da384-5256-4351-826a-0ba49f451ad9"},"vehicle_type_id":"4","last_reported":1704222332,"current_range_meters":19600,"station_id":"ce4bgj92rcd13ifvqbd0","pricing_plan_id":"free"},{"bike_id":"6e1cfaf3-c919-4223-a34d-ab2a56b53bd4","system_id":"levelo_inurba_marseille","lat":43.32361,"lon":5.388725,"is_reserved":false,"is_disabled":false,"rental_uris":{"android":"levelo://app?vid=6e1cfaf3-c919-4223-a34d-ab2a56b53bd4","ios":"levelo://app?vid=6e1cfaf3-c919-4223-a34d-ab2a56b53bd4"},"vehicle_type_id":"4","last_reported":1704222332,"current_range_meters":0,"station_id":"ce4bhqp2rcd13ifvqhog","pricing_plan_id":"free"},{"bike_id":"2826100b-e30d-4c47-bda3-9b8cbf3e5cf7","system_id":"levelo_inurba_marseille","lat":43.32367,"lon":5.388836,"is_reserved":false,"is_disabled":false,"rental_uris":{"android":"levelo://app?vid=2826100b-e30d-4c47-bda3-9b8cbf3e5cf7","ios":"levelo://app?vid=2826100b-e30d-4c47-bda3-9b8cbf3e5cf7"},"vehicle_type_id":"4","last_reported":1704222332,"current_range_meters":0,"station_id":"ce4bhqp2rcd13ifvqhog","pricing_plan_id":"free"},{"bike_id":"6708a5b5-13c0-4d12-80c0-d3dd5e200e56","system_id":"levelo_inurba_marseille","lat":43.32367,"lon":5.388836,"is_reserved":false,"is_disabled":false,"rental_uris":{"android":"levelo://app?vid=6708a5b5-13c0-4d12-80c0-d3dd5e200e56","ios":"levelo://app?vid=6708a5b5-13c0-4d12-80c0-d3dd5e200e56"},"vehicle_type_id":"4","last_reported":1704222332,"current_range_meters":3600,"station_id":"ce4bhqp2rcd13ifvqhog","pricing_plan_id":"free"},{"bike_id":"bad4354b-d8ff-40a0-9fe0-be9d162718e9","system_id":"levelo_inurba_marseille","lat":43.293249,"lon":5.371578,"is_reserved":false,"is_disabled":false,"rental_uris":{"android":"levelo://app?vid=bad4354b-d8ff-40a0-9fe0-be9d162718e9","ios":"levelo://app?vid=bad4354b-d8ff-40a0-9fe0-be9d162718e9"},"vehicle_type_id":"4","last_reported":1704222332,"current_range_meters":26800,"station_id":"ce4bgh92rcd13ifvqb40","pricing_plan_id":"free"},{"bike_id":"39690e3d-4f84-447a-98ac-64069f9a35a5","system_id":"levelo_inurba_marseille","lat":43.293259,"lon":5.371586,"is_reserved":false,"is_disabled":false,"rental_uris":{"android":"levelo://app?vid=39690e3d-4f84-447a-98ac-64069f9a35a5","ios":"levelo://app?vid=39690e3d-4f84-447a-98ac-64069f9a35a5"},"vehicle_type_id":"4","last_reported":1704222332,"current_range_meters":27200,"station_id":"ce4bgh92rcd13ifvqb40","pricing_plan_id":"free"},{"bike_id":"eca70caa-d54b-4611-8a3b-fe837b30a37d","system_id":"levelo_inurba_marseille","lat":43.293259,"lon":5.371586,"is_reserved":false,"is_disabled":false,"rental_uris":{"android":"levelo://app?vid=eca70caa-d54b-4611-8a3b-fe837b30a37d","ios":"levelo://app?vid=eca70caa-d54b-4611-8a3b-fe837b30a37d"},"vehicle_type_id":"4","last_reported":1704222332,"current_range_meters":24000,"station_id":"ce4bgh92rcd13ifvqb40","pricing_plan_id":"free"},{"bike_id":"4ea7292a-e5ca-4ea4-a95e-639c5aca2b2c","system_id":"levelo_inurba_marseille","lat":43.293009,"lon":5.374584,"is_reserved":false,"is_disabled":false,"rental_uris":{"android":"levelo://app?vid=4ea7292a-e5ca-4ea4-a95e-639c5aca2b2c","ios":"levelo://app?vid=4ea7292a-e5ca-4ea4-a95e-639c5aca2b2c"},"vehicle_type_id":"4","last_reported":1704222332,"current_range_meters":21600,"station_id":"ce4bgi12rcd13ifvqb70","pricing_plan_id":"free"},{"bike_id":"3ef06fd7-c654-4261-a16e-9c0d440f6584","system_id":"levelo_inurba_marseille","lat":43.293009,"lon":5.374584,"is_reserved":false,"is_disabled":false,"rental_uris":{"android":"levelo://app?vid=3ef06fd7-c654-4261-a16e-9c0d440f6584","ios":"levelo://app?vid=3ef06fd7-c654-4261-a16e-9c0d440f6584"},"vehicle_type_id":"4","last_reported":1704222332,"current_range_meters":20800,"station_id":"ce4bgi12rcd13ifvqb70","pricing_plan_id":"free"},{"bike_id":"7fe41d3f-68b7-46d7-9deb-2b8661494127","system_id":"levelo_inurba_marseille","lat":43.306428,"lon":5.394151,"is_reserved":false,"is_disabled":false,"rental_uris":{"android":"levelo://app?vid=7fe41d3f-68b7-46d7-9deb-2b8661494127","ios":"levelo://app?vid=7fe41d3f-68b7-46d7-9deb-2b8661494127"},"vehicle_type_id":"4","last_reported":1704222332,"current_range_meters":16000,"station_id":"","pricing_plan_id":"free"},{"bike_id":"fe9b8666-2ef8-4285-a193-027e7366225b","system_id":"levelo_inurba_marseille","lat":43.292311,"lon":5.360731,"is_reserved":false,"is_disabled":false,"rental_uris":{"android":"levelo://app?vid=fe9b8666-2ef8-4285-a193-027e7366225b","ios":"levelo://app?vid=fe9b8666-2ef8-4285-a193-027e7366225b"},"vehicle_type_id":"4","last_reported":1704222332,"current_range_meters":2800,"station_id":"ce4bhbh2rcd13ifvqeqg","pricing_plan_id":"free"},{"bike_id":"429d8474-1034-4820-812c-0358e6d2a2cb","system_id":"levelo_inurba_marseille","lat":43.292311,"lon":5.360731,"is_reserved":false,"is_disabled":false,"rental_uris":{"android":"levelo://app?vid=429d8474-1034-4820-812c-0358e6d2a2cb","ios":"levelo://app?vid=429d8474-1034-4820-812c-0358e6d2a2cb"},"vehicle_type_id":"4","last_reported":1704222332,"current_range_meters":25200,"station_id":"ce4bhbh2rcd13ifvqeqg","pricing_plan_id":"free"},{"bike_id":"e15d50e5-3c3c-4ad9-bc9d-5fb9ec51a680","system_id":"levelo_inurba_marseille","lat":43.30091,"lon":5.39081,"is_reserved":false,"is_disabled":false,"rental_uris":{"android":"levelo://app?vid=e15d50e5-3c3c-4ad9-bc9d-5fb9ec51a680","ios":"levelo://app?vid=e15d50e5-3c3c-4ad9-bc9d-5fb9ec51a680"},"vehicle_type_id":"4","last_reported":1704222332,"current_range_meters":10000,"station_id":"ce4bh192rcd13ifvqdb0","pricing_plan_id":"free"},{"bike_id":"4932aa55-a2b8-46b8-bc5d-39e32db54276","system_id":"levelo_inurba_marseille","lat":43.30085,"lon":5.390856,"is_reserved":false,"is_disabled":false,"rental_uris":{"android":"levelo://app?vid=4932aa55-a2b8-46b8-bc5d-39e32db54276","ios":"levelo://app?vid=4932aa55-a2b8-46b8-bc5d-39e32db54276"},"vehicle_type_id":"4","last_reported":1704222332,"current_range_meters":5600,"station_id":"ce4bh192rcd13ifvqdb0","pricing_plan_id":"free"},{"bike_id":"f012b0a6-5e34-470c-a317-394ceb66f263","system_id":"levelo_inurba_marseille","lat":43.292311,"lon":5.360731,"is_reserved":false,"is_disabled":false,"rental_uris":{"android":"levelo://app?vid=f012b0a6-5e34-470c-a317-394ceb66f263","ios":"levelo://app?vid=f012b0a6-5e34-470c-a317-394ceb66f263"},"vehicle_type_id":"4","last_reported":1704222332,"current_range_meters":18800,"station_id":"ce4bhbh2rcd13ifvqeqg","pricing_plan_id":"free"},{"bike_id":"d3ac7e85-0b7e-480d-bf21-30087ba865a2","system_id":"levelo_inurba_marseille","lat":43.300852,"lon":5.390859,"is_reserved":false,"is_disabled":false,"rental_uris":{"android":"levelo://app?vid=d3ac7e85-0b7e-480d-bf21-30087ba865a2","ios":"levelo://app?vid=d3ac7e85-0b7e-480d-bf21-30087ba865a2"},"vehicle_type_id":"4","last_reported":1704222332,"current_range_meters":16400,"station_id":"ce4bh192rcd13ifvqdb0","pricing_plan_id":"free"},{"bike_id":"4c920779-437b-4bc4-8dac-eafb98da84a3","system_id":"levelo_inurba_marseille","lat":43.291675,"lon":5.371583,"is_reserved":false,"is_disabled":false,"rental_uris":{"android":"levelo://app?vid=4c920779-437b-4bc4-8dac-eafb98da84a3","ios":"levelo://app?vid=4c920779-437b-4bc4-8dac-eafb98da84a3"},"vehicle_type_id":"4","last_reported":1704222332,"current_range_meters":21200,"station_id":"ce4bha92rcd13ifvqeh0","pricing_plan_id":"free"},{"bike_id":"f323f060-2139-44f5-8406-d3df35d89924","system_id":"levelo_inurba_marseille","lat":43.291671,"lon":5.371575,"is_reserved":false,"is_disabled":false,"rental_uris":{"android":"levelo://app?vid=f323f060-2139-44f5-8406-d3df35d89924","ios":"levelo://app?vid=f323f060-2139-44f5-8406-d3df35d89924"},"vehicle_type_id":"4","last_reported":1704222332,"current_range_meters":26000,"station_id":"ce4bha92rcd13ifvqeh0","pricing_plan_id":"free"},{"bike_id":"a8ebda3b-af54-4f6d-9de3-3a9ee0f5b286","system_id":"levelo_inurba_marseille","lat":43.291994,"lon":5.357886,"is_reserved":false,"is_disabled":false,"rental_uris":{"android":"levelo://app?vid=a8ebda3b-af54-4f6d-9de3-3a9ee0f5b286","ios":"levelo://app?vid=a8ebda3b-af54-4f6d-9de3-3a9ee0f5b286"},"vehicle_type_id":"4","last_reported":1704222332,"current_range_meters":5600,"station_id":"ce4bhb12rcd13ifvqel0","pricing_plan_id":"free"},{"bike_id":"52f3e613-64d4-42d6-b698-9e71563a5f03","system_id":"levelo_inurba_marseille","lat":43.298767,"lon":5.389293,"is_reserved":false,"is_disabled":false,"rental_uris":{"android":"levelo://app?vid=52f3e613-64d4-42d6-b698-9e71563a5f03","ios":"levelo://app?vid=52f3e613-64d4-42d6-b698-9e71563a5f03"},"vehicle_type_id":"4","last_reported":1704222332,"current_range_meters":0,"station_id":"","pricing_plan_id":"free"},{"bike_id":"6a81b50f-ae4b-4c12-a481-44b003323491","system_id":"levelo_inurba_marseille","lat":43.312934,"lon":5.396796,"is_reserved":false,"is_disabled":false,"rental_uris":{"android":"levelo://app?vid=6a81b50f-ae4b-4c12-a481-44b003323491","ios":"levelo://app?vid=6a81b50f-ae4b-4c12-a481-44b003323491"},"vehicle_type_id":"4","last_reported":1704222332,"current_range_meters":17200,"station_id":"ce4bgvp2rcd13ifvqcu0","pricing_plan_id":"free"},{"bike_id":"aefe2ffb-2d6b-42ab-b5b6-88c760c4e24a","system_id":"levelo_inurba_marseille","lat":43.291994,"lon":5.357886,"is_reserved":false,"is_disabled":false,"rental_uris":{"android":"levelo://app?vid=aefe2ffb-2d6b-42ab-b5b6-88c760c4e24a","ios":"levelo://app?vid=aefe2ffb-2d6b-42ab-b5b6-88c760c4e24a"},"vehicle_type_id":"4","last_reported":1704222332,"current_range_meters":6400,"station_id":"ce4bhb12rcd13ifvqel0","pricing_plan_id":"free"},{"bike_id":"a509dd93-027e-44d5-9ad9-d80582241c76","system_id":"levelo_inurba_marseille","lat":43.313291,"lon":5.396838,"is_reserved":false,"is_disabled":false,"rental_uris":{"android":"levelo://app?vid=a509dd93-027e-44d5-9ad9-d80582241c76","ios":"levelo://app?vid=a509dd93-027e-44d5-9ad9-d80582241c76"},"vehicle_type_id":"4","last_reported":1704222332,"current_range_meters":21600,"station_id":"ce4bgvp2rcd13ifvqcu0","pricing_plan_id":"free"},{"bike_id":"20842fd5-a13a-4bf0-8e4e-fbcf56dcf6a4","system_id":"levelo_inurba_marseille","lat":43.291994,"lon":5.357886,"is_reserved":false,"is_disabled":false,"rental_uris":{"android":"levelo://app?vid=20842fd5-a13a-4bf0-8e4e-fbcf56dcf6a4","ios":"levelo://app?vid=20842fd5-a13a-4bf0-8e4e-fbcf56dcf6a4"},"vehicle_type_id":"4","last_reported":1704222332,"current_range_meters":14400,"station_id":"ce4bhb12rcd13ifvqel0","pricing_plan_id":"free"},{"bike_id":"ce653502-0266-4511-b2b6-55a9b5a10b8a","system_id":"levelo_inurba_marseille","lat":43.29182,"lon":5.35809,"is_reserved":false,"is_disabled":false,"rental_uris":{"android":"levelo://app?vid=ce653502-0266-4511-b2b6-55a9b5a10b8a","ios":"levelo://app?vid=ce653502-0266-4511-b2b6-55a9b5a10b8a"},"vehicle_type_id":"4","last_reported":1704222332,"current_range_meters":800,"station_id":"ce4bhb12rcd13ifvqel0","pricing_plan_id":"free"},{"bike_id":"200c095e-1d41-43e1-a2ad-2178b5b8cc79","system_id":"levelo_inurba_marseille","lat":43.29532,"lon":5.38547,"is_reserved":false,"is_disabled":false,"rental_uris":{"android":"levelo://app?vid=200c095e-1d41-43e1-a2ad-2178b5b8cc79","ios":"levelo://app?vid=200c095e-1d41-43e1-a2ad-2178b5b8cc79"},"vehicle_type_id":"4","last_reported":1704222332,"current_range_meters":0,"station_id":"ce4bgih2rcd13ifvqba0","pricing_plan_id":"free"},{"bike_id":"9f655ae1-4f65-42d6-8612-6ea686351f24","system_id":"levelo_inurba_marseille","lat":43.290779,"lon":5.371482,"is_reserved":false,"is_disabled":false,"rental_uris":{"android":"levelo://app?vid=9f655ae1-4f65-42d6-8612-6ea686351f24","ios":"levelo://app?vid=9f655ae1-4f65-42d6-8612-6ea686351f24"},"vehicle_type_id":"4","last_reported":1704222332,"current_range_meters":27200,"station_id":"ce4bh5p2rcd13ifvqe4g","pricing_plan_id":"free"},{"bike_id":"42f709e7-b965-49ad-a599-239ab8cf0722","system_id":"levelo_inurba_marseille","lat":43.290647,"lon":5.371568,"is_reserved":false,"is_disabled":false,"rental_uris":{"android":"levelo://app?vid=42f709e7-b965-49ad-a599-239ab8cf0722","ios":"levelo://app?vid=42f709e7-b965-49ad-a599-239ab8cf0722"},"vehicle_type_id":"4","last_reported":1704222332,"current_range_meters":0,"station_id":"ce4bh5p2rcd13ifvqe4g","pricing_plan_id":"free"},{"bike_id":"65a10252-af98-49c0-ac00-254c5ec81e28","system_id":"levelo_inurba_marseille","lat":43.309038,"lon":5.396546,"is_reserved":false,"is_disabled":false,"rental_uris":{"android":"levelo://app?vid=65a10252-af98-49c0-ac00-254c5ec81e28","ios":"levelo://app?vid=65a10252-af98-49c0-ac00-254c5ec81e28"},"vehicle_type_id":"4","last_reported":1704222332,"current_range_meters":19200,"station_id":"ce4bh012rcd13ifvqcv0","pricing_plan_id":"free"},{"bike_id":"4fa2af7e-c7d4-43d5-87d9-328c47c204cc","system_id":"levelo_inurba_marseille","lat":43.302008,"lon":5.394694,"is_reserved":false,"is_disabled":false,"rental_uris":{"android":"levelo://app?vid=4fa2af7e-c7d4-43d5-87d9-328c47c204cc","ios":"levelo://app?vid=4fa2af7e-c7d4-43d5-87d9-328c47c204cc"},"vehicle_type_id":"4","last_reported":1704222332,"current_range_meters":5600,"station_id":"ce4bh0p2rcd13ifvqd70","pricing_plan_id":"free"},{"bike_id":"a3f16aa7-937e-4326-be61-94820f1710ca","system_id":"levelo_inurba_marseille","lat":43.302008,"lon":5.394694,"is_reserved":false,"is_disabled":false,"rental_uris":{"android":"levelo://app?vid=a3f16aa7-937e-4326-be61-94820f1710ca","ios":"levelo://app?vid=a3f16aa7-937e-4326-be61-94820f1710ca"},"vehicle_type_id":"4","last_reported":1704222332,"current_range_meters":31200,"station_id":"ce4bh0p2rcd13ifvqd70","pricing_plan_id":"free"},{"bike_id":"8fe2dad5-0694-4e49-8f43-7c5595a85346","system_id":"levelo_inurba_marseille","lat":43.302008,"lon":5.394694,"is_reserved":false,"is_disabled":false,"rental_uris":{"android":"levelo://app?vid=8fe2dad5-0694-4e49-8f43-7c5595a85346","ios":"levelo://app?vid=8fe2dad5-0694-4e49-8f43-7c5595a85346"},"vehicle_type_id":"4","last_reported":1704222332,"current_range_meters":18800,"station_id":"ce4bh0p2rcd13ifvqd70","pricing_plan_id":"free"},{"bike_id":"7a09e90e-b0be-4627-b628-e19597d46e02","system_id":"levelo_inurba_marseille","lat":43.302008,"lon":5.394694,"is_reserved":false,"is_disabled":false,"rental_uris":{"android":"levelo://app?vid=7a09e90e-b0be-4627-b628-e19597d46e02","ios":"levelo://app?vid=7a09e90e-b0be-4627-b628-e19597d46e02"},"vehicle_type_id":"4","last_reported":1704222332,"current_range_meters":24800,"station_id":"ce4bh0p2rcd13ifvqd70","pricing_plan_id":"free"},{"bike_id":"2aa69697-0349-4ebe-8c1c-2cc80e98b834","system_id":"levelo_inurba_marseille","lat":43.290431,"lon":5.359074,"is_reserved":false,"is_disabled":false,"rental_uris":{"android":"levelo://app?vid=2aa69697-0349-4ebe-8c1c-2cc80e98b834","ios":"levelo://app?vid=2aa69697-0349-4ebe-8c1c-2cc80e98b834"},"vehicle_type_id":"4","last_reported":1704222332,"current_range_meters":31200,"station_id":"ce4bha92rcd13ifvqeg0","pricing_plan_id":"free"},{"bike_id":"b7ec4a66-af5f-4e2c-896f-9bf315039847","system_id":"levelo_inurba_marseille","lat":43.2904,"lon":5.35912,"is_reserved":false,"is_disabled":false,"rental_uris":{"android":"levelo://app?vid=b7ec4a66-af5f-4e2c-896f-9bf315039847","ios":"levelo://app?vid=b7ec4a66-af5f-4e2c-896f-9bf315039847"},"vehicle_type_id":"4","last_reported":1704222332,"current_range_meters":25600,"station_id":"ce4bha92rcd13ifvqeg0","pricing_plan_id":"free"},{"bike_id":"a5fe7474-1f83-4a35-ab42-64bd6a23b0b6","system_id":"levelo_inurba_marseille","lat":43.290345,"lon":5.359195,"is_reserved":false,"is_disabled":false,"rental_uris":{"android":"levelo://app?vid=a5fe7474-1f83-4a35-ab42-64bd6a23b0b6","ios":"levelo://app?vid=a5fe7474-1f83-4a35-ab42-64bd6a23b0b6"},"vehicle_type_id":"4","last_reported":1704222332,"current_range_meters":8800,"station_id":"ce4bha92rcd13ifvqeg0","pricing_plan_id":"free"},{"bike_id":"ad469a95-31eb-4db5-8846-026f95f18ef3","system_id":"levelo_inurba_marseille","lat":43.294162,"lon":5.386292,"is_reserved":false,"is_disabled":false,"rental_uris":{"android":"levelo://app?vid=ad469a95-31eb-4db5-8846-026f95f18ef3","ios":"levelo://app?vid=ad469a95-31eb-4db5-8846-026f95f18ef3"},"vehicle_type_id":"4","last_reported":1704222332,"current_range_meters":8000,"station_id":"ce4bh2h2rcd13ifvqdh0","pricing_plan_id":"free"},{"bike_id":"ccfe6291-8ba2-47f3-acf3-dc56ec079120","system_id":"levelo_inurba_marseille","lat":43.294153,"lon":5.386305,"is_reserved":false,"is_disabled":false,"rental_uris":{"android":"levelo://app?vid=ccfe6291-8ba2-47f3-acf3-dc56ec079120","ios":"levelo://app?vid=ccfe6291-8ba2-47f3-acf3-dc56ec079120"},"vehicle_type_id":"4","last_reported":1704222332,"current_range_meters":20800,"station_id":"ce4bh2h2rcd13ifvqdh0","pricing_plan_id":"free"},{"bike_id":"a1d8bf28-44cf-4ac3-8266-809e080ef758","system_id":"levelo_inurba_marseille","lat":43.289468,"lon":5.363719,"is_reserved":false,"is_disabled":false,"rental_uris":{"android":"levelo://app?vid=a1d8bf28-44cf-4ac3-8266-809e080ef758","ios":"levelo://app?vid=a1d8bf28-44cf-4ac3-8266-809e080ef758"},"vehicle_type_id":"4","last_reported":1704222332,"current_range_meters":25200,"station_id":"ce4bhc92rcd13ifvqetg","pricing_plan_id":"free"},{"bike_id":"ff43fdf1-3087-46ae-9177-db6b9ff33eb5","system_id":"levelo_inurba_marseille","lat":43.292644,"lon":5.384257,"is_reserved":false,"is_disabled":false,"rental_uris":{"android":"levelo://app?vid=ff43fdf1-3087-46ae-9177-db6b9ff33eb5","ios":"levelo://app?vid=ff43fdf1-3087-46ae-9177-db6b9ff33eb5"},"vehicle_type_id":"4","last_reported":1704222332,"current_range_meters":23200,"station_id":"ce4bh692rcd13ifvqea0","pricing_plan_id":"free"},{"bike_id":"7468694b-970d-4df3-8e80-96a6ddc05fda","system_id":"levelo_inurba_marseille","lat":43.292644,"lon":5.384257,"is_reserved":false,"is_disabled":false,"rental_uris":{"android":"levelo://app?vid=7468694b-970d-4df3-8e80-96a6ddc05fda","ios":"levelo://app?vid=7468694b-970d-4df3-8e80-96a6ddc05fda"},"vehicle_type_id":"4","last_reported":1704222332,"current_range_meters":16800,"station_id":"ce4bh692rcd13ifvqea0","pricing_plan_id":"free"},{"bike_id":"41ee84d8-3660-48ec-bd66-7fa1bb8205cb","system_id":"levelo_inurba_marseille","lat":43.292642,"lon":5.384254,"is_reserved":false,"is_disabled":false,"rental_uris":{"android":"levelo://app?vid=41ee84d8-3660-48ec-bd66-7fa1bb8205cb","ios":"levelo://app?vid=41ee84d8-3660-48ec-bd66-7fa1bb8205cb"},"vehicle_type_id":"4","last_reported":1704222332,"current_range_meters":6800,"station_id":"ce4bh692rcd13ifvqea0","pricing_plan_id":"free"},{"bike_id":"e8bce316-0ba7-4a8d-be1a-6471e5169a71","system_id":"levelo_inurba_marseille","lat":43.292644,"lon":5.384257,"is_reserved":false,"is_disabled":false,"rental_uris":{"android":"levelo://app?vid=e8bce316-0ba7-4a8d-be1a-6471e5169a71","ios":"levelo://app?vid=e8bce316-0ba7-4a8d-be1a-6471e5169a71"},"vehicle_type_id":"4","last_reported":1704222332,"current_range_meters":2400,"station_id":"ce4bh692rcd13ifvqea0","pricing_plan_id":"free"},{"bike_id":"db85b329-f81f-41b8-8a7a-a88e06de116c","system_id":"levelo_inurba_marseille","lat":43.292642,"lon":5.384254,"is_reserved":false,"is_disabled":false,"rental_uris":{"android":"levelo://app?vid=db85b329-f81f-41b8-8a7a-a88e06de116c","ios":"levelo://app?vid=db85b329-f81f-41b8-8a7a-a88e06de116c"},"vehicle_type_id":"4","last_reported":1704222332,"current_range_meters":26400,"station_id":"ce4bh692rcd13ifvqea0","pricing_plan_id":"free"},{"bike_id":"61283d63-4755-40fb-b286-2701fe6c0b43","system_id":"levelo_inurba_marseille","lat":43.292644,"lon":5.384257,"is_reserved":false,"is_disabled":false,"rental_uris":{"android":"levelo://app?vid=61283d63-4755-40fb-b286-2701fe6c0b43","ios":"levelo://app?vid=61283d63-4755-40fb-b286-2701fe6c0b43"},"vehicle_type_id":"4","last_reported":1704222332,"current_range_meters":14800,"station_id":"ce4bh692rcd13ifvqea0","pricing_plan_id":"free"},{"bike_id":"d71eac39-edae-4719-8085-420f1308ff3a","system_id":"levelo_inurba_marseille","lat":43.292644,"lon":5.384257,"is_reserved":false,"is_disabled":false,"rental_uris":{"android":"levelo://app?vid=d71eac39-edae-4719-8085-420f1308ff3a","ios":"levelo://app?vid=d71eac39-edae-4719-8085-420f1308ff3a"},"vehicle_type_id":"4","last_reported":1704222332,"current_range_meters":29600,"station_id":"ce4bh692rcd13ifvqea0","pricing_plan_id":"free"},{"bike_id":"9e8120ee-1e67-4b51-a61c-d5f3e0c12184","system_id":"levelo_inurba_marseille","lat":43.304274,"lon":5.397513,"is_reserved":false,"is_disabled":false,"rental_uris":{"android":"levelo://app?vid=9e8120ee-1e67-4b51-a61c-d5f3e0c12184","ios":"levelo://app?vid=9e8120ee-1e67-4b51-a61c-d5f3e0c12184"},"vehicle_type_id":"4","last_reported":1704222332,"current_range_meters":23600,"station_id":"ce4bh092rcd13ifvqd20","pricing_plan_id":"free"},{"bike_id":"6af8edee-07bf-420e-8364-a18386aa61fb","system_id":"levelo_inurba_marseille","lat":43.292644,"lon":5.384257,"is_reserved":false,"is_disabled":false,"rental_uris":{"android":"levelo://app?vid=6af8edee-07bf-420e-8364-a18386aa61fb","ios":"levelo://app?vid=6af8edee-07bf-420e-8364-a18386aa61fb"},"vehicle_type_id":"4","last_reported":1704222332,"current_range_meters":18400,"station_id":"ce4bh692rcd13ifvqea0","pricing_plan_id":"free"},{"bike_id":"c84e69e2-0694-413a-b5ea-6b78a19d4804","system_id":"levelo_inurba_marseille","lat":43.292644,"lon":5.384257,"is_reserved":false,"is_disabled":false,"rental_uris":{"android":"levelo://app?vid=c84e69e2-0694-413a-b5ea-6b78a19d4804","ios":"levelo://app?vid=c84e69e2-0694-413a-b5ea-6b78a19d4804"},"vehicle_type_id":"4","last_reported":1704222332,"current_range_meters":15600,"station_id":"ce4bh692rcd13ifvqea0","pricing_plan_id":"free"},{"bike_id":"2c442d99-ff9b-41a2-af46-fd5d2f20bd47","system_id":"levelo_inurba_marseille","lat":43.292644,"lon":5.384257,"is_reserved":false,"is_disabled":false,"rental_uris":{"android":"levelo://app?vid=2c442d99-ff9b-41a2-af46-fd5d2f20bd47","ios":"levelo://app?vid=2c442d99-ff9b-41a2-af46-fd5d2f20bd47"},"vehicle_type_id":"4","last_reported":1704222332,"current_range_meters":0,"station_id":"ce4bh692rcd13ifvqea0","pricing_plan_id":"free"},{"bike_id":"15c13b40-3ff4-4e77-bc88-9c081f09028d","system_id":"levelo_inurba_marseille","lat":43.292644,"lon":5.384257,"is_reserved":false,"is_disabled":false,"rental_uris":{"android":"levelo://app?vid=15c13b40-3ff4-4e77-bc88-9c081f09028d","ios":"levelo://app?vid=15c13b40-3ff4-4e77-bc88-9c081f09028d"},"vehicle_type_id":"4","last_reported":1704222332,"current_range_meters":23200,"station_id":"ce4bh692rcd13ifvqea0","pricing_plan_id":"free"},{"bike_id":"1dce71c2-a24c-4af7-b10f-ab46512c8bbb","system_id":"levelo_inurba_marseille","lat":43.292644,"lon":5.384257,"is_reserved":false,"is_disabled":false,"rental_uris":{"android":"levelo://app?vid=1dce71c2-a24c-4af7-b10f-ab46512c8bbb","ios":"levelo://app?vid=1dce71c2-a24c-4af7-b10f-ab46512c8bbb"},"vehicle_type_id":"4","last_reported":1704222332,"current_range_meters":16000,"station_id":"ce4bh692rcd13ifvqea0","pricing_plan_id":"free"},{"bike_id":"a4d958a1-cff0-4f56-a3ad-69675096aa55","system_id":"levelo_inurba_marseille","lat":43.290104,"lon":5.356111,"is_reserved":false,"is_disabled":false,"rental_uris":{"android":"levelo://app?vid=a4d958a1-cff0-4f56-a3ad-69675096aa55","ios":"levelo://app?vid=a4d958a1-cff0-4f56-a3ad-69675096aa55"},"vehicle_type_id":"4","last_reported":1704222332,"current_range_meters":21600,"station_id":"ce4bhb92rcd13ifvqen0","pricing_plan_id":"free"},{"bike_id":"11889e0d-8983-45b6-808f-9249a1b05295","system_id":"levelo_inurba_marseille","lat":43.296131,"lon":5.370773,"is_reserved":false,"is_disabled":false,"rental_uris":{"android":"levelo://app?vid=11889e0d-8983-45b6-808f-9249a1b05295","ios":"levelo://app?vid=11889e0d-8983-45b6-808f-9249a1b05295"},"vehicle_type_id":"4","last_reported":1704222332,"current_range_meters":18800,"station_id":"ce4bgnh2rcd13ifvqc0g","pricing_plan_id":"free"},{"bike_id":"1b661565-d788-4b59-a09f-ab587564e4a4","system_id":"levelo_inurba_marseille","lat":43.29785,"lon":5.3934,"is_reserved":false,"is_disabled":false,"rental_uris":{"android":"levelo://app?vid=1b661565-d788-4b59-a09f-ab587564e4a4","ios":"levelo://app?vid=1b661565-d788-4b59-a09f-ab587564e4a4"},"vehicle_type_id":"4","last_reported":1704222332,"current_range_meters":0,"station_id":"chh1huq6cuj3fo74tm60","pricing_plan_id":"free"},{"bike_id":"8e9169d1-9597-48c6-aab9-61b2290c7f7b","system_id":"levelo_inurba_marseille","lat":43.29784,"lon":5.393393,"is_reserved":false,"is_disabled":false,"rental_uris":{"android":"levelo://app?vid=8e9169d1-9597-48c6-aab9-61b2290c7f7b","ios":"levelo://app?vid=8e9169d1-9597-48c6-aab9-61b2290c7f7b"},"vehicle_type_id":"4","last_reported":1704222332,"current_range_meters":15600,"station_id":"chh1huq6cuj3fo74tm60","pricing_plan_id":"free"},{"bike_id":"2509a9d0-d601-47f2-b046-cd0df469dae3","system_id":"levelo_inurba_marseille","lat":43.28985,"lon":5.37837,"is_reserved":false,"is_disabled":false,"rental_uris":{"android":"levelo://app?vid=2509a9d0-d601-47f2-b046-cd0df469dae3","ios":"levelo://app?vid=2509a9d0-d601-47f2-b046-cd0df469dae3"},"vehicle_type_id":"4","last_reported":1704222332,"current_range_meters":7200,"station_id":"ce4bh9p2rcd13ifvqed0","pricing_plan_id":"free"},{"bike_id":"d1ce2046-c030-43ae-9110-0a6864df62f4","system_id":"levelo_inurba_marseille","lat":43.295169,"lon":5.390426,"is_reserved":false,"is_disabled":false,"rental_uris":{"android":"levelo://app?vid=d1ce2046-c030-43ae-9110-0a6864df62f4","ios":"levelo://app?vid=d1ce2046-c030-43ae-9110-0a6864df62f4"},"vehicle_type_id":"4","last_reported":1704222332,"current_range_meters":29600,"station_id":"ce4bh3p2rcd13ifvqdp0","pricing_plan_id":"free"},{"bike_id":"39707f54-f171-40b2-ae94-d21023b31843","system_id":"levelo_inurba_marseille","lat":43.295169,"lon":5.390426,"is_reserved":false,"is_disabled":false,"rental_uris":{"android":"levelo://app?vid=39707f54-f171-40b2-ae94-d21023b31843","ios":"levelo://app?vid=39707f54-f171-40b2-ae94-d21023b31843"},"vehicle_type_id":"4","last_reported":1704222332,"current_range_meters":7200,"station_id":"ce4bh3p2rcd13ifvqdp0","pricing_plan_id":"free"},{"bike_id":"f5b114db-0556-4f43-a92b-41f74a008c29","system_id":"levelo_inurba_marseille","lat":43.295169,"lon":5.390426,"is_reserved":false,"is_disabled":false,"rental_uris":{"android":"levelo://app?vid=f5b114db-0556-4f43-a92b-41f74a008c29","ios":"levelo://app?vid=f5b114db-0556-4f43-a92b-41f74a008c29"},"vehicle_type_id":"4","last_reported":1704222332,"current_range_meters":20800,"station_id":"ce4bh3p2rcd13ifvqdp0","pricing_plan_id":"free"},{"bike_id":"c99da862-3401-435d-be0d-65f4e7c8d374","system_id":"levelo_inurba_marseille","lat":43.330442,"lon":5.389148,"is_reserved":false,"is_disabled":false,"rental_uris":{"android":"levelo://app?vid=c99da862-3401-435d-be0d-65f4e7c8d374","ios":"levelo://app?vid=c99da862-3401-435d-be0d-65f4e7c8d374"},"vehicle_type_id":"4","last_reported":1704222332,"current_range_meters":15200,"station_id":"ce4bhr92rcd13ifvqhrg","pricing_plan_id":"free"},{"bike_id":"1a28b4e1-5dd6-489c-9d6b-80db9cb55da6","system_id":"levelo_inurba_marseille","lat":43.29534,"lon":5.39055,"is_reserved":false,"is_disabled":false,"rental_uris":{"android":"levelo://app?vid=1a28b4e1-5dd6-489c-9d6b-80db9cb55da6","ios":"levelo://app?vid=1a28b4e1-5dd6-489c-9d6b-80db9cb55da6"},"vehicle_type_id":"4","last_reported":1704222332,"current_range_meters":19200,"station_id":"","pricing_plan_id":"free"},{"bike_id":"775bebf0-60dd-4589-9959-186588d50ea9","system_id":"levelo_inurba_marseille","lat":43.312609,"lon":5.401662,"is_reserved":false,"is_disabled":false,"rental_uris":{"android":"levelo://app?vid=775bebf0-60dd-4589-9959-186588d50ea9","ios":"levelo://app?vid=775bebf0-60dd-4589-9959-186588d50ea9"},"vehicle_type_id":"4","last_reported":1704222332,"current_range_meters":0,"station_id":"ce4bh092rcd13ifvqd30","pricing_plan_id":"free"},{"bike_id":"1c86c5a0-cffc-4faa-94a1-6cf5f93206ea","system_id":"levelo_inurba_marseille","lat":43.337605,"lon":5.374572,"is_reserved":false,"is_disabled":false,"rental_uris":{"android":"levelo://app?vid=1c86c5a0-cffc-4faa-94a1-6cf5f93206ea","ios":"levelo://app?vid=1c86c5a0-cffc-4faa-94a1-6cf5f93206ea"},"vehicle_type_id":"4","last_reported":1704222332,"current_range_meters":5600,"station_id":"","pricing_plan_id":"free"},{"bike_id":"7bff5d96-c9da-413f-9076-7fbeec946e12","system_id":"levelo_inurba_marseille","lat":43.33761,"lon":5.374713,"is_reserved":false,"is_disabled":false,"rental_uris":{"android":"levelo://app?vid=7bff5d96-c9da-413f-9076-7fbeec946e12","ios":"levelo://app?vid=7bff5d96-c9da-413f-9076-7fbeec946e12"},"vehicle_type_id":"4","last_reported":1704222332,"current_range_meters":25200,"station_id":"","pricing_plan_id":"free"},{"bike_id":"1b55c50c-04c6-490e-ba7b-7b95b41dd60f","system_id":"levelo_inurba_marseille","lat":43.33763,"lon":5.37466,"is_reserved":false,"is_disabled":false,"rental_uris":{"android":"levelo://app?vid=1b55c50c-04c6-490e-ba7b-7b95b41dd60f","ios":"levelo://app?vid=1b55c50c-04c6-490e-ba7b-7b95b41dd60f"},"vehicle_type_id":"4","last_reported":1704222332,"current_range_meters":30000,"station_id":"","pricing_plan_id":"free"},{"bike_id":"46bcbd8a-0b5f-4b89-aac9-34812a85cd49","system_id":"levelo_inurba_marseille","lat":43.337681,"lon":5.374847,"is_reserved":false,"is_disabled":false,"rental_uris":{"android":"levelo://app?vid=46bcbd8a-0b5f-4b89-aac9-34812a85cd49","ios":"levelo://app?vid=46bcbd8a-0b5f-4b89-aac9-34812a85cd49"},"vehicle_type_id":"4","last_reported":1704222332,"current_range_meters":14000,"station_id":"","pricing_plan_id":"free"},{"bike_id":"2698b1cc-9d8f-4af1-9d41-a07e93bd5755","system_id":"levelo_inurba_marseille","lat":43.33767,"lon":5.37497,"is_reserved":false,"is_disabled":false,"rental_uris":{"android":"levelo://app?vid=2698b1cc-9d8f-4af1-9d41-a07e93bd5755","ios":"levelo://app?vid=2698b1cc-9d8f-4af1-9d41-a07e93bd5755"},"vehicle_type_id":"4","last_reported":1704222332,"current_range_meters":28400,"station_id":"","pricing_plan_id":"free"},{"bike_id":"43b50400-bf73-455a-a63e-2224febf021d","system_id":"levelo_inurba_marseille","lat":43.28727,"lon":5.36078,"is_reserved":false,"is_disabled":false,"rental_uris":{"android":"levelo://app?vid=43b50400-bf73-455a-a63e-2224febf021d","ios":"levelo://app?vid=43b50400-bf73-455a-a63e-2224febf021d"},"vehicle_type_id":"4","last_reported":1704222332,"current_range_meters":24800,"station_id":"cki0cbj6b192h4jlfktg","pricing_plan_id":"free"},{"bike_id":"25143700-3da5-46c3-8329-221bb4a7bc16","system_id":"levelo_inurba_marseille","lat":43.28727,"lon":5.36078,"is_reserved":false,"is_disabled":false,"rental_uris":{"android":"levelo://app?vid=25143700-3da5-46c3-8329-221bb4a7bc16","ios":"levelo://app?vid=25143700-3da5-46c3-8329-221bb4a7bc16"},"vehicle_type_id":"4","last_reported":1704222332,"current_range_meters":20800,"station_id":"cki0cbj6b192h4jlfktg","pricing_plan_id":"free"},{"bike_id":"bfe744ba-34dc-45db-b41f-b12620d10c83","system_id":"levelo_inurba_marseille","lat":43.292642,"lon":5.384254,"is_reserved":false,"is_disabled":false,"rental_uris":{"android":"levelo://app?vid=bfe744ba-34dc-45db-b41f-b12620d10c83","ios":"levelo://app?vid=bfe744ba-34dc-45db-b41f-b12620d10c83"},"vehicle_type_id":"4","last_reported":1704222332,"current_range_meters":12400,"station_id":"ce4bh692rcd13ifvqea0","pricing_plan_id":"free"},{"bike_id":"f08ff3ed-290e-4610-b7a8-ad76dcf2cfbf","system_id":"levelo_inurba_marseille","lat":43.286961,"lon":5.373785,"is_reserved":false,"is_disabled":false,"rental_uris":{"android":"levelo://app?vid=f08ff3ed-290e-4610-b7a8-ad76dcf2cfbf","ios":"levelo://app?vid=f08ff3ed-290e-4610-b7a8-ad76dcf2cfbf"},"vehicle_type_id":"4","last_reported":1704222332,"current_range_meters":18800,"station_id":"ce4bh3p2rcd13ifvqdq0","pricing_plan_id":"free"},{"bike_id":"630ce79b-492d-4e75-8971-b5778ceeb920","system_id":"levelo_inurba_marseille","lat":43.286961,"lon":5.373785,"is_reserved":false,"is_disabled":false,"rental_uris":{"android":"levelo://app?vid=630ce79b-492d-4e75-8971-b5778ceeb920","ios":"levelo://app?vid=630ce79b-492d-4e75-8971-b5778ceeb920"},"vehicle_type_id":"4","last_reported":1704222332,"current_range_meters":26400,"station_id":"ce4bh3p2rcd13ifvqdq0","pricing_plan_id":"free"},{"bike_id":"b14ae9e5-e5c4-4af1-bdc9-d0598c7ec451","system_id":"levelo_inurba_marseille","lat":43.298681,"lon":5.397225,"is_reserved":false,"is_disabled":false,"rental_uris":{"android":"levelo://app?vid=b14ae9e5-e5c4-4af1-bdc9-d0598c7ec451","ios":"levelo://app?vid=b14ae9e5-e5c4-4af1-bdc9-d0598c7ec451"},"vehicle_type_id":"4","last_reported":1704222332,"current_range_meters":6000,"station_id":"ce4bh0h2rcd13ifvqd50","pricing_plan_id":"free"},{"bike_id":"51b7d6e2-04a8-4e29-ba36-4916a8da7d9d","system_id":"levelo_inurba_marseille","lat":43.286621,"lon":5.363569,"is_reserved":false,"is_disabled":false,"rental_uris":{"android":"levelo://app?vid=51b7d6e2-04a8-4e29-ba36-4916a8da7d9d","ios":"levelo://app?vid=51b7d6e2-04a8-4e29-ba36-4916a8da7d9d"},"vehicle_type_id":"4","last_reported":1704222332,"current_range_meters":15600,"station_id":"ce4bhah2rcd13ifvqej0","pricing_plan_id":"free"},{"bike_id":"9081d4c9-16f6-441f-92b5-39d5ae894238","system_id":"levelo_inurba_marseille","lat":43.295196,"lon":5.39397,"is_reserved":false,"is_disabled":false,"rental_uris":{"android":"levelo://app?vid=9081d4c9-16f6-441f-92b5-39d5ae894238","ios":"levelo://app?vid=9081d4c9-16f6-441f-92b5-39d5ae894238"},"vehicle_type_id":"4","last_reported":1704222332,"current_range_meters":26800,"station_id":"ce4bh292rcd13ifvqdf0","pricing_plan_id":"free"},{"bike_id":"957a8cee-84e9-4ebd-a841-71468fcfa911","system_id":"levelo_inurba_marseille","lat":43.295196,"lon":5.39397,"is_reserved":false,"is_disabled":false,"rental_uris":{"android":"levelo://app?vid=957a8cee-84e9-4ebd-a841-71468fcfa911","ios":"levelo://app?vid=957a8cee-84e9-4ebd-a841-71468fcfa911"},"vehicle_type_id":"4","last_reported":1704222332,"current_range_meters":3200,"station_id":"ce4bh292rcd13ifvqdf0","pricing_plan_id":"free"},{"bike_id":"6c845259-d9af-42f4-92cb-40a4a10bf791","system_id":"levelo_inurba_marseille","lat":43.29521,"lon":5.39397,"is_reserved":false,"is_disabled":false,"rental_uris":{"android":"levelo://app?vid=6c845259-d9af-42f4-92cb-40a4a10bf791","ios":"levelo://app?vid=6c845259-d9af-42f4-92cb-40a4a10bf791"},"vehicle_type_id":"4","last_reported":1704222332,"current_range_meters":9600,"station_id":"ce4bh292rcd13ifvqdf0","pricing_plan_id":"free"},{"bike_id":"f71c1400-8167-4430-acad-e9e1b3c48a36","system_id":"levelo_inurba_marseille","lat":43.290345,"lon":5.38646,"is_reserved":false,"is_disabled":false,"rental_uris":{"android":"levelo://app?vid=f71c1400-8167-4430-acad-e9e1b3c48a36","ios":"levelo://app?vid=f71c1400-8167-4430-acad-e9e1b3c48a36"},"vehicle_type_id":"4","last_reported":1704222332,"current_range_meters":800,"station_id":"ce4bh4p2rcd13ifvqe0g","pricing_plan_id":"free"},{"bike_id":"814ff3c4-64ad-4534-bcf2-d593e0ba5264","system_id":"levelo_inurba_marseille","lat":43.290345,"lon":5.38646,"is_reserved":false,"is_disabled":false,"rental_uris":{"android":"levelo://app?vid=814ff3c4-64ad-4534-bcf2-d593e0ba5264","ios":"levelo://app?vid=814ff3c4-64ad-4534-bcf2-d593e0ba5264"},"vehicle_type_id":"4","last_reported":1704222332,"current_range_meters":18000,"station_id":"ce4bh4p2rcd13ifvqe0g","pricing_plan_id":"free"},{"bike_id":"816562be-f5a0-4340-a936-bf1a41cb1df9","system_id":"levelo_inurba_marseille","lat":43.290345,"lon":5.38646,"is_reserved":false,"is_disabled":false,"rental_uris":{"android":"levelo://app?vid=816562be-f5a0-4340-a936-bf1a41cb1df9","ios":"levelo://app?vid=816562be-f5a0-4340-a936-bf1a41cb1df9"},"vehicle_type_id":"4","last_reported":1704222332,"current_range_meters":18400,"station_id":"ce4bh4p2rcd13ifvqe0g","pricing_plan_id":"free"},{"bike_id":"4c9bee6e-7f67-4e33-9bdf-2ad46096a165","system_id":"levelo_inurba_marseille","lat":43.290345,"lon":5.38646,"is_reserved":false,"is_disabled":false,"rental_uris":{"android":"levelo://app?vid=4c9bee6e-7f67-4e33-9bdf-2ad46096a165","ios":"levelo://app?vid=4c9bee6e-7f67-4e33-9bdf-2ad46096a165"},"vehicle_type_id":"4","last_reported":1704222332,"current_range_meters":19200,"station_id":"ce4bh4p2rcd13ifvqe0g","pricing_plan_id":"free"},{"bike_id":"f1c70ca2-346e-4b26-aabb-58ddc907c565","system_id":"levelo_inurba_marseille","lat":43.302759,"lon":5.400793,"is_reserved":false,"is_disabled":false,"rental_uris":{"android":"levelo://app?vid=f1c70ca2-346e-4b26-aabb-58ddc907c565","ios":"levelo://app?vid=f1c70ca2-346e-4b26-aabb-58ddc907c565"},"vehicle_type_id":"4","last_reported":1704222332,"current_range_meters":20000,"station_id":"ce4bgvh2rcd13ifvqcs0","pricing_plan_id":"free"},{"bike_id":"ad00fead-263d-43d9-8a54-c7ebb41f72e7","system_id":"levelo_inurba_marseille","lat":43.290345,"lon":5.38646,"is_reserved":false,"is_disabled":false,"rental_uris":{"android":"levelo://app?vid=ad00fead-263d-43d9-8a54-c7ebb41f72e7","ios":"levelo://app?vid=ad00fead-263d-43d9-8a54-c7ebb41f72e7"},"vehicle_type_id":"4","last_reported":1704222332,"current_range_meters":0,"station_id":"ce4bh4p2rcd13ifvqe0g","pricing_plan_id":"free"},{"bike_id":"b0d6b1a9-7809-42e1-b4d2-9ba94dc84e55","system_id":"levelo_inurba_marseille","lat":43.290336,"lon":5.386425,"is_reserved":false,"is_disabled":false,"rental_uris":{"android":"levelo://app?vid=b0d6b1a9-7809-42e1-b4d2-9ba94dc84e55","ios":"levelo://app?vid=b0d6b1a9-7809-42e1-b4d2-9ba94dc84e55"},"vehicle_type_id":"4","last_reported":1704222332,"current_range_meters":21200,"station_id":"ce4bh4p2rcd13ifvqe0g","pricing_plan_id":"free"},{"bike_id":"b72d5ae4-69c9-4966-b797-90af5538b097","system_id":"levelo_inurba_marseille","lat":43.302759,"lon":5.400793,"is_reserved":false,"is_disabled":false,"rental_uris":{"android":"levelo://app?vid=b72d5ae4-69c9-4966-b797-90af5538b097","ios":"levelo://app?vid=b72d5ae4-69c9-4966-b797-90af5538b097"},"vehicle_type_id":"4","last_reported":1704222332,"current_range_meters":26400,"station_id":"ce4bgvh2rcd13ifvqcs0","pricing_plan_id":"free"},{"bike_id":"2f206ab3-fe81-48f9-9503-4919d85b7759","system_id":"levelo_inurba_marseille","lat":43.30258,"lon":5.40076,"is_reserved":false,"is_disabled":false,"rental_uris":{"android":"levelo://app?vid=2f206ab3-fe81-48f9-9503-4919d85b7759","ios":"levelo://app?vid=2f206ab3-fe81-48f9-9503-4919d85b7759"},"vehicle_type_id":"4","last_reported":1704222332,"current_range_meters":0,"station_id":"ce4bgvh2rcd13ifvqcs0","pricing_plan_id":"free"},{"bike_id":"a3d2ce9c-c153-4f5e-b9c7-7dc929290074","system_id":"levelo_inurba_marseille","lat":43.286039,"lon":5.370681,"is_reserved":false,"is_disabled":false,"rental_uris":{"android":"levelo://app?vid=a3d2ce9c-c153-4f5e-b9c7-7dc929290074","ios":"levelo://app?vid=a3d2ce9c-c153-4f5e-b9c7-7dc929290074"},"vehicle_type_id":"4","last_reported":1704222332,"current_range_meters":7600,"station_id":"ce4bht12rcd13ifvqi60","pricing_plan_id":"free"},{"bike_id":"d9ad1379-eb66-46da-b695-9f077e1fe8de","system_id":"levelo_inurba_marseille","lat":43.2872,"lon":5.37939,"is_reserved":false,"is_disabled":false,"rental_uris":{"android":"levelo://app?vid=d9ad1379-eb66-46da-b695-9f077e1fe8de","ios":"levelo://app?vid=d9ad1379-eb66-46da-b695-9f077e1fe8de"},"vehicle_type_id":"4","last_reported":1704222332,"current_range_meters":28000,"station_id":"ce4bh9p2rcd13ifvqec0","pricing_plan_id":"free"},{"bike_id":"7630d77c-ac04-4c93-83c5-347d8d464ac3","system_id":"levelo_inurba_marseille","lat":43.316821,"lon":5.404737,"is_reserved":false,"is_disabled":false,"rental_uris":{"android":"levelo://app?vid=7630d77c-ac04-4c93-83c5-347d8d464ac3","ios":"levelo://app?vid=7630d77c-ac04-4c93-83c5-347d8d464ac3"},"vehicle_type_id":"4","last_reported":1704222332,"current_range_meters":13600,"station_id":"ce4bh012rcd13ifvqd00","pricing_plan_id":"free"},{"bike_id":"0cb09e53-fa5b-419d-9103-4038a21910ca","system_id":"levelo_inurba_marseille","lat":43.316828,"lon":5.404723,"is_reserved":false,"is_disabled":false,"rental_uris":{"android":"levelo://app?vid=0cb09e53-fa5b-419d-9103-4038a21910ca","ios":"levelo://app?vid=0cb09e53-fa5b-419d-9103-4038a21910ca"},"vehicle_type_id":"4","last_reported":1704222332,"current_range_meters":0,"station_id":"ce4bh012rcd13ifvqd00","pricing_plan_id":"free"},{"bike_id":"b0b6a8f3-0b17-4de6-91a3-2dbdb8222327","system_id":"levelo_inurba_marseille","lat":43.316821,"lon":5.404737,"is_reserved":false,"is_disabled":false,"rental_uris":{"android":"levelo://app?vid=b0b6a8f3-0b17-4de6-91a3-2dbdb8222327","ios":"levelo://app?vid=b0b6a8f3-0b17-4de6-91a3-2dbdb8222327"},"vehicle_type_id":"4","last_reported":1704222332,"current_range_meters":18000,"station_id":"ce4bh012rcd13ifvqd00","pricing_plan_id":"free"},{"bike_id":"01f18a22-658c-437f-be4c-d29c0ee41e96","system_id":"levelo_inurba_marseille","lat":43.284538,"lon":5.358657,"is_reserved":false,"is_disabled":false,"rental_uris":{"android":"levelo://app?vid=01f18a22-658c-437f-be4c-d29c0ee41e96","ios":"levelo://app?vid=01f18a22-658c-437f-be4c-d29c0ee41e96"},"vehicle_type_id":"4","last_reported":1704222332,"current_range_meters":13600,"station_id":"ce4bhah2rcd13ifvqei0","pricing_plan_id":"free"},{"bike_id":"78cb2912-e6a3-4dfb-96bf-ae04a8ffa8b0","system_id":"levelo_inurba_marseille","lat":43.284534,"lon":5.358662,"is_reserved":false,"is_disabled":false,"rental_uris":{"android":"levelo://app?vid=78cb2912-e6a3-4dfb-96bf-ae04a8ffa8b0","ios":"levelo://app?vid=78cb2912-e6a3-4dfb-96bf-ae04a8ffa8b0"},"vehicle_type_id":"4","last_reported":1704222332,"current_range_meters":26400,"station_id":"ce4bhah2rcd13ifvqei0","pricing_plan_id":"free"},{"bike_id":"56a63065-4223-4a17-aa54-3d68e4d8589d","system_id":"levelo_inurba_marseille","lat":43.284534,"lon":5.358662,"is_reserved":false,"is_disabled":false,"rental_uris":{"android":"levelo://app?vid=56a63065-4223-4a17-aa54-3d68e4d8589d","ios":"levelo://app?vid=56a63065-4223-4a17-aa54-3d68e4d8589d"},"vehicle_type_id":"4","last_reported":1704222332,"current_range_meters":28800,"station_id":"ce4bhah2rcd13ifvqei0","pricing_plan_id":"free"},{"bike_id":"198b03a6-0350-47db-b014-8668c58cf8b6","system_id":"levelo_inurba_marseille","lat":43.285856,"lon":5.350771,"is_reserved":false,"is_disabled":false,"rental_uris":{"android":"levelo://app?vid=198b03a6-0350-47db-b014-8668c58cf8b6","ios":"levelo://app?vid=198b03a6-0350-47db-b014-8668c58cf8b6"},"vehicle_type_id":"4","last_reported":1704222332,"current_range_meters":16400,"station_id":"ce4bhch2rcd13ifvqeug","pricing_plan_id":"free"},{"bike_id":"9e4bd4f1-a4a1-4deb-87fa-1f39326e2ad6","system_id":"levelo_inurba_marseille","lat":43.285848,"lon":5.350787,"is_reserved":false,"is_disabled":false,"rental_uris":{"android":"levelo://app?vid=9e4bd4f1-a4a1-4deb-87fa-1f39326e2ad6","ios":"levelo://app?vid=9e4bd4f1-a4a1-4deb-87fa-1f39326e2ad6"},"vehicle_type_id":"4","last_reported":1704222332,"current_range_meters":400,"station_id":"ce4bhch2rcd13ifvqeug","pricing_plan_id":"free"},{"bike_id":"e0964926-5ee6-497d-b9ca-56de80166d78","system_id":"levelo_inurba_marseille","lat":43.285856,"lon":5.350771,"is_reserved":false,"is_disabled":false,"rental_uris":{"android":"levelo://app?vid=e0964926-5ee6-497d-b9ca-56de80166d78","ios":"levelo://app?vid=e0964926-5ee6-497d-b9ca-56de80166d78"},"vehicle_type_id":"4","last_reported":1704222332,"current_range_meters":14000,"station_id":"ce4bhch2rcd13ifvqeug","pricing_plan_id":"free"},{"bike_id":"d1778d07-21dd-4306-a10c-c10385ac6734","system_id":"levelo_inurba_marseille","lat":43.285848,"lon":5.350787,"is_reserved":false,"is_disabled":false,"rental_uris":{"android":"levelo://app?vid=d1778d07-21dd-4306-a10c-c10385ac6734","ios":"levelo://app?vid=d1778d07-21dd-4306-a10c-c10385ac6734"},"vehicle_type_id":"4","last_reported":1704222332,"current_range_meters":26400,"station_id":"ce4bhch2rcd13ifvqeug","pricing_plan_id":"free"},{"bike_id":"a60634ac-fbed-4f56-8d80-3f71403b8b6a","system_id":"levelo_inurba_marseille","lat":43.285848,"lon":5.350787,"is_reserved":false,"is_disabled":false,"rental_uris":{"android":"levelo://app?vid=a60634ac-fbed-4f56-8d80-3f71403b8b6a","ios":"levelo://app?vid=a60634ac-fbed-4f56-8d80-3f71403b8b6a"},"vehicle_type_id":"4","last_reported":1704222332,"current_range_meters":20800,"station_id":"ce4bhch2rcd13ifvqeug","pricing_plan_id":"free"},{"bike_id":"da83c696-1560-46ef-849a-744338060e2d","system_id":"levelo_inurba_marseille","lat":43.285856,"lon":5.350771,"is_reserved":false,"is_disabled":false,"rental_uris":{"android":"levelo://app?vid=da83c696-1560-46ef-849a-744338060e2d","ios":"levelo://app?vid=da83c696-1560-46ef-849a-744338060e2d"},"vehicle_type_id":"4","last_reported":1704222332,"current_range_meters":24400,"station_id":"ce4bhch2rcd13ifvqeug","pricing_plan_id":"free"},{"bike_id":"48e908df-9ca7-4c39-be98-5f1da33c5b54","system_id":"levelo_inurba_marseille","lat":43.285856,"lon":5.350771,"is_reserved":false,"is_disabled":false,"rental_uris":{"android":"levelo://app?vid=48e908df-9ca7-4c39-be98-5f1da33c5b54","ios":"levelo://app?vid=48e908df-9ca7-4c39-be98-5f1da33c5b54"},"vehicle_type_id":"4","last_reported":1704222332,"current_range_meters":28800,"station_id":"ce4bhch2rcd13ifvqeug","pricing_plan_id":"free"},{"bike_id":"54183fa3-b505-40cc-b2ff-0532389c7565","system_id":"levelo_inurba_marseille","lat":43.285856,"lon":5.350771,"is_reserved":false,"is_disabled":false,"rental_uris":{"android":"levelo://app?vid=54183fa3-b505-40cc-b2ff-0532389c7565","ios":"levelo://app?vid=54183fa3-b505-40cc-b2ff-0532389c7565"},"vehicle_type_id":"4","last_reported":1704222332,"current_range_meters":17200,"station_id":"ce4bhch2rcd13ifvqeug","pricing_plan_id":"free"},{"bike_id":"e1808583-2115-42fe-9488-a28850b574a7","system_id":"levelo_inurba_marseille","lat":43.295713,"lon":5.399639,"is_reserved":false,"is_disabled":false,"rental_uris":{"android":"levelo://app?vid=e1808583-2115-42fe-9488-a28850b574a7","ios":"levelo://app?vid=e1808583-2115-42fe-9488-a28850b574a7"},"vehicle_type_id":"4","last_reported":1704222332,"current_range_meters":27200,"station_id":"ce4bh312rcd13ifvqdj0","pricing_plan_id":"free"},{"bike_id":"106bdef0-cb9d-49d9-9a2b-2bdd69928932","system_id":"levelo_inurba_marseille","lat":43.283998,"lon":5.375062,"is_reserved":false,"is_disabled":false,"rental_uris":{"android":"levelo://app?vid=106bdef0-cb9d-49d9-9a2b-2bdd69928932","ios":"levelo://app?vid=106bdef0-cb9d-49d9-9a2b-2bdd69928932"},"vehicle_type_id":"4","last_reported":1704222332,"current_range_meters":14000,"station_id":"ce4bh412rcd13ifvqds0","pricing_plan_id":"free"},{"bike_id":"cceb7d57-b024-4cf4-a504-5b77f5db55c4","system_id":"levelo_inurba_marseille","lat":43.33717,"lon":5.391857,"is_reserved":false,"is_disabled":false,"rental_uris":{"android":"levelo://app?vid=cceb7d57-b024-4cf4-a504-5b77f5db55c4","ios":"levelo://app?vid=cceb7d57-b024-4cf4-a504-5b77f5db55c4"},"vehicle_type_id":"4","last_reported":1704222332,"current_range_meters":31200,"station_id":"ce4bhr92rcd13ifvqhsg","pricing_plan_id":"free"},{"bike_id":"9e089c03-1371-4f73-9710-674c1ccfc895","system_id":"levelo_inurba_marseille","lat":43.337168,"lon":5.391825,"is_reserved":false,"is_disabled":false,"rental_uris":{"android":"levelo://app?vid=9e089c03-1371-4f73-9710-674c1ccfc895","ios":"levelo://app?vid=9e089c03-1371-4f73-9710-674c1ccfc895"},"vehicle_type_id":"4","last_reported":1704222332,"current_range_meters":11200,"station_id":"ce4bhr92rcd13ifvqhsg","pricing_plan_id":"free"},{"bike_id":"cb22166f-f745-45c7-ba04-12949ca802b8","system_id":"levelo_inurba_marseille","lat":43.32342,"lon":5.40622,"is_reserved":false,"is_disabled":false,"rental_uris":{"android":"levelo://app?vid=cb22166f-f745-45c7-ba04-12949ca802b8","ios":"levelo://app?vid=cb22166f-f745-45c7-ba04-12949ca802b8"},"vehicle_type_id":"4","last_reported":1704222332,"current_range_meters":16800,"station_id":"ce4bhq92rcd13ifvqhjg","pricing_plan_id":"free"},{"bike_id":"2154f2ae-45e1-4bea-994e-259930ea9ca9","system_id":"levelo_inurba_marseille","lat":43.284787,"lon":5.384116,"is_reserved":false,"is_disabled":false,"rental_uris":{"android":"levelo://app?vid=2154f2ae-45e1-4bea-994e-259930ea9ca9","ios":"levelo://app?vid=2154f2ae-45e1-4bea-994e-259930ea9ca9"},"vehicle_type_id":"4","last_reported":1704222332,"current_range_meters":22400,"station_id":"ce4bh512rcd13ifvqe3g","pricing_plan_id":"free"},{"bike_id":"e09a2270-6965-4c73-81c1-7db36e310195","system_id":"levelo_inurba_marseille","lat":43.283498,"lon":5.380948,"is_reserved":false,"is_disabled":false,"rental_uris":{"android":"levelo://app?vid=e09a2270-6965-4c73-81c1-7db36e310195","ios":"levelo://app?vid=e09a2270-6965-4c73-81c1-7db36e310195"},"vehicle_type_id":"4","last_reported":1704222332,"current_range_meters":9200,"station_id":"ce4bh412rcd13ifvqdr0","pricing_plan_id":"free"},{"bike_id":"8a64bd4f-be44-4fbf-8ff0-ffbc837321ff","system_id":"levelo_inurba_marseille","lat":43.283494,"lon":5.380945,"is_reserved":false,"is_disabled":false,"rental_uris":{"android":"levelo://app?vid=8a64bd4f-be44-4fbf-8ff0-ffbc837321ff","ios":"levelo://app?vid=8a64bd4f-be44-4fbf-8ff0-ffbc837321ff"},"vehicle_type_id":"4","last_reported":1704222332,"current_range_meters":20400,"station_id":"ce4bh412rcd13ifvqdr0","pricing_plan_id":"free"},{"bike_id":"88d010e6-4755-4b1b-8b62-749a146731dd","system_id":"levelo_inurba_marseille","lat":43.288501,"lon":5.393087,"is_reserved":false,"is_disabled":false,"rental_uris":{"android":"levelo://app?vid=88d010e6-4755-4b1b-8b62-749a146731dd","ios":"levelo://app?vid=88d010e6-4755-4b1b-8b62-749a146731dd"},"vehicle_type_id":"4","last_reported":1704222332,"current_range_meters":19600,"station_id":"ce4bh2p2rcd13ifvqdi0","pricing_plan_id":"free"},{"bike_id":"9ac26397-8f83-48a7-93db-727b502f6328","system_id":"levelo_inurba_marseille","lat":43.288501,"lon":5.393087,"is_reserved":false,"is_disabled":false,"rental_uris":{"android":"levelo://app?vid=9ac26397-8f83-48a7-93db-727b502f6328","ios":"levelo://app?vid=9ac26397-8f83-48a7-93db-727b502f6328"},"vehicle_type_id":"4","last_reported":1704222332,"current_range_meters":6400,"station_id":"ce4bh2p2rcd13ifvqdi0","pricing_plan_id":"free"},{"bike_id":"b3d5b2ae-5bd7-4f38-b681-9ea9aac8372c","system_id":"levelo_inurba_marseille","lat":43.284219,"lon":5.3497,"is_reserved":false,"is_disabled":false,"rental_uris":{"android":"levelo://app?vid=b3d5b2ae-5bd7-4f38-b681-9ea9aac8372c","ios":"levelo://app?vid=b3d5b2ae-5bd7-4f38-b681-9ea9aac8372c"},"vehicle_type_id":"4","last_reported":1704222332,"current_range_meters":21600,"station_id":"ce4bhbh2rcd13ifvqepg","pricing_plan_id":"free"},{"bike_id":"cdcc0ad8-a243-4550-9c2c-81b4aa03286c","system_id":"levelo_inurba_marseille","lat":43.289363,"lon":5.396322,"is_reserved":false,"is_disabled":false,"rental_uris":{"android":"levelo://app?vid=cdcc0ad8-a243-4550-9c2c-81b4aa03286c","ios":"levelo://app?vid=cdcc0ad8-a243-4550-9c2c-81b4aa03286c"},"vehicle_type_id":"4","last_reported":1704222332,"current_range_meters":6800,"station_id":"ce4bh3h2rcd13ifvqdn0","pricing_plan_id":"free"},{"bike_id":"00cf2d41-dc22-48ad-b225-46747a4d18e7","system_id":"levelo_inurba_marseille","lat":43.292724,"lon":5.401131,"is_reserved":false,"is_disabled":false,"rental_uris":{"android":"levelo://app?vid=00cf2d41-dc22-48ad-b225-46747a4d18e7","ios":"levelo://app?vid=00cf2d41-dc22-48ad-b225-46747a4d18e7"},"vehicle_type_id":"4","last_reported":1704222332,"current_range_meters":26800,"station_id":"ce4bh312rcd13ifvqdk0","pricing_plan_id":"free"},{"bike_id":"4e102f92-be49-4148-943a-b984056a424d","system_id":"levelo_inurba_marseille","lat":43.292724,"lon":5.401131,"is_reserved":false,"is_disabled":false,"rental_uris":{"android":"levelo://app?vid=4e102f92-be49-4148-943a-b984056a424d","ios":"levelo://app?vid=4e102f92-be49-4148-943a-b984056a424d"},"vehicle_type_id":"4","last_reported":1704222332,"current_range_meters":19200,"station_id":"ce4bh312rcd13ifvqdk0","pricing_plan_id":"free"},{"bike_id":"cc62fdb9-47e9-4ad1-94dd-ddba7a0771b0","system_id":"levelo_inurba_marseille","lat":43.283502,"lon":5.386471,"is_reserved":false,"is_disabled":false,"rental_uris":{"android":"levelo://app?vid=cc62fdb9-47e9-4ad1-94dd-ddba7a0771b0","ios":"levelo://app?vid=cc62fdb9-47e9-4ad1-94dd-ddba7a0771b0"},"vehicle_type_id":"4","last_reported":1704222332,"current_range_meters":17600,"station_id":"ce4bh492rcd13ifvqdvg","pricing_plan_id":"free"},{"bike_id":"dd86f97e-56bd-46cf-98a7-3451a61cfa2a","system_id":"levelo_inurba_marseille","lat":43.283502,"lon":5.386471,"is_reserved":false,"is_disabled":false,"rental_uris":{"android":"levelo://app?vid=dd86f97e-56bd-46cf-98a7-3451a61cfa2a","ios":"levelo://app?vid=dd86f97e-56bd-46cf-98a7-3451a61cfa2a"},"vehicle_type_id":"4","last_reported":1704222332,"current_range_meters":29600,"station_id":"ce4bh492rcd13ifvqdvg","pricing_plan_id":"free"},{"bike_id":"8d66e175-2e21-47b2-b261-e78c9ec054ca","system_id":"levelo_inurba_marseille","lat":43.282671,"lon":5.350689,"is_reserved":false,"is_disabled":false,"rental_uris":{"android":"levelo://app?vid=8d66e175-2e21-47b2-b261-e78c9ec054ca","ios":"levelo://app?vid=8d66e175-2e21-47b2-b261-e78c9ec054ca"},"vehicle_type_id":"4","last_reported":1704222332,"current_range_meters":14800,"station_id":"ce4bhbp2rcd13ifvqerg","pricing_plan_id":"free"},{"bike_id":"ba33aab0-ca2f-43ee-8148-a09ecc375c3e","system_id":"levelo_inurba_marseille","lat":43.280382,"lon":5.369291,"is_reserved":false,"is_disabled":false,"rental_uris":{"android":"levelo://app?vid=ba33aab0-ca2f-43ee-8148-a09ecc375c3e","ios":"levelo://app?vid=ba33aab0-ca2f-43ee-8148-a09ecc375c3e"},"vehicle_type_id":"4","last_reported":1704222332,"current_range_meters":17200,"station_id":"ce4bha12rcd13ifvqef0","pricing_plan_id":"free"},{"bike_id":"5042e33c-b1fb-456a-bd22-fd2bf1db3dd6","system_id":"levelo_inurba_marseille","lat":43.284462,"lon":5.392121,"is_reserved":false,"is_disabled":false,"rental_uris":{"android":"levelo://app?vid=5042e33c-b1fb-456a-bd22-fd2bf1db3dd6","ios":"levelo://app?vid=5042e33c-b1fb-456a-bd22-fd2bf1db3dd6"},"vehicle_type_id":"4","last_reported":1704222332,"current_range_meters":16000,"station_id":"ce4bhoh2rcd13ifvqh5g","pricing_plan_id":"free"},{"bike_id":"7bf74da7-a0f0-45ec-9ab9-c36d941d829f","system_id":"levelo_inurba_marseille","lat":43.285742,"lon":5.395004,"is_reserved":false,"is_disabled":false,"rental_uris":{"android":"levelo://app?vid=7bf74da7-a0f0-45ec-9ab9-c36d941d829f","ios":"levelo://app?vid=7bf74da7-a0f0-45ec-9ab9-c36d941d829f"},"vehicle_type_id":"4","last_reported":1704222332,"current_range_meters":24000,"station_id":"ce4bh292rcd13ifvqdg0","pricing_plan_id":"free"},{"bike_id":"60f2faed-0152-4c3e-9988-b297e8b3ea47","system_id":"levelo_inurba_marseille","lat":43.28573,"lon":5.394992,"is_reserved":false,"is_disabled":false,"rental_uris":{"android":"levelo://app?vid=60f2faed-0152-4c3e-9988-b297e8b3ea47","ios":"levelo://app?vid=60f2faed-0152-4c3e-9988-b297e8b3ea47"},"vehicle_type_id":"4","last_reported":1704222332,"current_range_meters":2400,"station_id":"ce4bh292rcd13ifvqdg0","pricing_plan_id":"free"},{"bike_id":"47be9058-f308-4dc0-996e-c27959e739bc","system_id":"levelo_inurba_marseille","lat":43.28573,"lon":5.394992,"is_reserved":false,"is_disabled":false,"rental_uris":{"android":"levelo://app?vid=47be9058-f308-4dc0-996e-c27959e739bc","ios":"levelo://app?vid=47be9058-f308-4dc0-996e-c27959e739bc"},"vehicle_type_id":"4","last_reported":1704222332,"current_range_meters":31200,"station_id":"ce4bh292rcd13ifvqdg0","pricing_plan_id":"free"},{"bike_id":"ee0ef843-99dc-4cea-a942-347ace613b25","system_id":"levelo_inurba_marseille","lat":43.326605,"lon":5.409903,"is_reserved":false,"is_disabled":false,"rental_uris":{"android":"levelo://app?vid=ee0ef843-99dc-4cea-a942-347ace613b25","ios":"levelo://app?vid=ee0ef843-99dc-4cea-a942-347ace613b25"},"vehicle_type_id":"4","last_reported":1704222332,"current_range_meters":28400,"station_id":"ce4bhpp2rcd13ifvqhgg","pricing_plan_id":"free"},{"bike_id":"ae2fe156-14e7-4f02-91c3-358e52758f3d","system_id":"levelo_inurba_marseille","lat":43.304188,"lon":5.412904,"is_reserved":false,"is_disabled":false,"rental_uris":{"android":"levelo://app?vid=ae2fe156-14e7-4f02-91c3-358e52758f3d","ios":"levelo://app?vid=ae2fe156-14e7-4f02-91c3-358e52758f3d"},"vehicle_type_id":"4","last_reported":1704222332,"current_range_meters":8800,"station_id":"ce4bhop2rcd13ifvqh8g","pricing_plan_id":"free"},{"bike_id":"b862911d-5c92-4d21-8e78-73053e0b2e9b","system_id":"levelo_inurba_marseille","lat":43.30417,"lon":5.4128,"is_reserved":false,"is_disabled":false,"rental_uris":{"android":"levelo://app?vid=b862911d-5c92-4d21-8e78-73053e0b2e9b","ios":"levelo://app?vid=b862911d-5c92-4d21-8e78-73053e0b2e9b"},"vehicle_type_id":"4","last_reported":1704222332,"current_range_meters":7600,"station_id":"ce4bhop2rcd13ifvqh8g","pricing_plan_id":"free"},{"bike_id":"ce388a99-2ab1-41b7-ae86-b40c471c3cbf","system_id":"levelo_inurba_marseille","lat":43.30416,"lon":5.41283,"is_reserved":false,"is_disabled":false,"rental_uris":{"android":"levelo://app?vid=ce388a99-2ab1-41b7-ae86-b40c471c3cbf","ios":"levelo://app?vid=ce388a99-2ab1-41b7-ae86-b40c471c3cbf"},"vehicle_type_id":"4","last_reported":1704222332,"current_range_meters":4400,"station_id":"ce4bhop2rcd13ifvqh8g","pricing_plan_id":"free"},{"bike_id":"c935cc26-978c-4b7b-84bc-089b603c6282","system_id":"levelo_inurba_marseille","lat":43.279087,"lon":5.380114,"is_reserved":false,"is_disabled":false,"rental_uris":{"android":"levelo://app?vid=c935cc26-978c-4b7b-84bc-089b603c6282","ios":"levelo://app?vid=c935cc26-978c-4b7b-84bc-089b603c6282"},"vehicle_type_id":"4","last_reported":1704222332,"current_range_meters":22800,"station_id":"ce4bhf92rcd13ifvqf50","pricing_plan_id":"free"},{"bike_id":"4c38d8ad-21e8-4201-bfdd-13b474fca092","system_id":"levelo_inurba_marseille","lat":43.279087,"lon":5.380114,"is_reserved":false,"is_disabled":false,"rental_uris":{"android":"levelo://app?vid=4c38d8ad-21e8-4201-bfdd-13b474fca092","ios":"levelo://app?vid=4c38d8ad-21e8-4201-bfdd-13b474fca092"},"vehicle_type_id":"4","last_reported":1704222332,"current_range_meters":20000,"station_id":"ce4bhf92rcd13ifvqf50","pricing_plan_id":"free"},{"bike_id":"6e6658d0-c148-4e77-885a-818b2a313fca","system_id":"levelo_inurba_marseille","lat":43.320433,"lon":5.415477,"is_reserved":false,"is_disabled":false,"rental_uris":{"android":"levelo://app?vid=6e6658d0-c148-4e77-885a-818b2a313fca","ios":"levelo://app?vid=6e6658d0-c148-4e77-885a-818b2a313fca"},"vehicle_type_id":"4","last_reported":1704222332,"current_range_meters":28800,"station_id":"ce4bhq92rcd13ifvqhkg","pricing_plan_id":"free"},{"bike_id":"64048583-c6fb-44ab-b9b9-2729dc175efe","system_id":"levelo_inurba_marseille","lat":43.279742,"lon":5.38744,"is_reserved":false,"is_disabled":false,"rental_uris":{"android":"levelo://app?vid=64048583-c6fb-44ab-b9b9-2729dc175efe","ios":"levelo://app?vid=64048583-c6fb-44ab-b9b9-2729dc175efe"},"vehicle_type_id":"4","last_reported":1704222332,"current_range_meters":28000,"station_id":"ce4bhg12rcd13ifvqf80","pricing_plan_id":"free"},{"bike_id":"871187ea-29d0-43fd-8223-ef6ed913affe","system_id":"levelo_inurba_marseille","lat":43.292571,"lon":5.409107,"is_reserved":false,"is_disabled":false,"rental_uris":{"android":"levelo://app?vid=871187ea-29d0-43fd-8223-ef6ed913affe","ios":"levelo://app?vid=871187ea-29d0-43fd-8223-ef6ed913affe"},"vehicle_type_id":"4","last_reported":1704222332,"current_range_meters":22800,"station_id":"ce4bh192rcd13ifvqdc0","pricing_plan_id":"free"},{"bike_id":"f82d1cff-3c1a-47eb-bee3-95cefd55c7ef","system_id":"levelo_inurba_marseille","lat":43.292571,"lon":5.409107,"is_reserved":false,"is_disabled":false,"rental_uris":{"android":"levelo://app?vid=f82d1cff-3c1a-47eb-bee3-95cefd55c7ef","ios":"levelo://app?vid=f82d1cff-3c1a-47eb-bee3-95cefd55c7ef"},"vehicle_type_id":"4","last_reported":1704222332,"current_range_meters":16000,"station_id":"ce4bh192rcd13ifvqdc0","pricing_plan_id":"free"},{"bike_id":"ce728427-ea3e-4068-87e8-c7ef02210f4b","system_id":"levelo_inurba_marseille","lat":43.27618,"lon":5.361009,"is_reserved":false,"is_disabled":false,"rental_uris":{"android":"levelo://app?vid=ce728427-ea3e-4068-87e8-c7ef02210f4b","ios":"levelo://app?vid=ce728427-ea3e-4068-87e8-c7ef02210f4b"},"vehicle_type_id":"4","last_reported":1704222332,"current_range_meters":20000,"station_id":"ce4bgj92rcd13ifvqbe0","pricing_plan_id":"free"},{"bike_id":"accb83ca-cfed-4f96-aaa8-2a4ecb408a33","system_id":"levelo_inurba_marseille","lat":43.292569,"lon":5.409107,"is_reserved":false,"is_disabled":false,"rental_uris":{"android":"levelo://app?vid=accb83ca-cfed-4f96-aaa8-2a4ecb408a33","ios":"levelo://app?vid=accb83ca-cfed-4f96-aaa8-2a4ecb408a33"},"vehicle_type_id":"4","last_reported":1704222332,"current_range_meters":30000,"station_id":"ce4bh192rcd13ifvqdc0","pricing_plan_id":"free"},{"bike_id":"024eb4f9-bc93-495e-9194-e6d67a1e04ce","system_id":"levelo_inurba_marseille","lat":43.280784,"lon":5.396622,"is_reserved":false,"is_disabled":false,"rental_uris":{"android":"levelo://app?vid=024eb4f9-bc93-495e-9194-e6d67a1e04ce","ios":"levelo://app?vid=024eb4f9-bc93-495e-9194-e6d67a1e04ce"},"vehicle_type_id":"4","last_reported":1704222332,"current_range_meters":22800,"station_id":"ce4bho12rcd13ifvqh2g","pricing_plan_id":"free"},{"bike_id":"cf259e9d-e91d-4494-bf38-9c2294f724dc","system_id":"levelo_inurba_marseille","lat":43.280784,"lon":5.396622,"is_reserved":false,"is_disabled":false,"rental_uris":{"android":"levelo://app?vid=cf259e9d-e91d-4494-bf38-9c2294f724dc","ios":"levelo://app?vid=cf259e9d-e91d-4494-bf38-9c2294f724dc"},"vehicle_type_id":"4","last_reported":1704222332,"current_range_meters":17600,"station_id":"ce4bho12rcd13ifvqh2g","pricing_plan_id":"free"},{"bike_id":"2f07b6ec-cb19-4393-848e-201add03b747","system_id":"levelo_inurba_marseille","lat":43.280784,"lon":5.396622,"is_reserved":false,"is_disabled":false,"rental_uris":{"android":"levelo://app?vid=2f07b6ec-cb19-4393-848e-201add03b747","ios":"levelo://app?vid=2f07b6ec-cb19-4393-848e-201add03b747"},"vehicle_type_id":"4","last_reported":1704222332,"current_range_meters":29600,"station_id":"ce4bho12rcd13ifvqh2g","pricing_plan_id":"free"},{"bike_id":"c9b265f3-3d7a-4da9-a365-3897bf5319b9","system_id":"levelo_inurba_marseille","lat":43.273613,"lon":5.362705,"is_reserved":false,"is_disabled":false,"rental_uris":{"android":"levelo://app?vid=c9b265f3-3d7a-4da9-a365-3897bf5319b9","ios":"levelo://app?vid=c9b265f3-3d7a-4da9-a365-3897bf5319b9"},"vehicle_type_id":"4","last_reported":1704222332,"current_range_meters":12800,"station_id":"ce4bhbh2rcd13ifvqeo0","pricing_plan_id":"free"},{"bike_id":"e9d65bd7-17df-42f5-9b09-e1324785bb1c","system_id":"levelo_inurba_marseille","lat":43.336134,"lon":5.410341,"is_reserved":false,"is_disabled":false,"rental_uris":{"android":"levelo://app?vid=e9d65bd7-17df-42f5-9b09-e1324785bb1c","ios":"levelo://app?vid=e9d65bd7-17df-42f5-9b09-e1324785bb1c"},"vehicle_type_id":"4","last_reported":1704222332,"current_range_meters":22400,"station_id":"ce4bhqh2rcd13ifvqhmg","pricing_plan_id":"free"},{"bike_id":"2774f0d0-ce20-4035-bcbf-3fc04f618288","system_id":"levelo_inurba_marseille","lat":43.279975,"lon":5.40009,"is_reserved":false,"is_disabled":false,"rental_uris":{"android":"levelo://app?vid=2774f0d0-ce20-4035-bcbf-3fc04f618288","ios":"levelo://app?vid=2774f0d0-ce20-4035-bcbf-3fc04f618288"},"vehicle_type_id":"4","last_reported":1704222332,"current_range_meters":29600,"station_id":"ce4bho92rcd13ifvqh4g","pricing_plan_id":"free"},{"bike_id":"575dab36-6090-4ba0-b893-e3f7e28cfb60","system_id":"levelo_inurba_marseille","lat":43.317121,"lon":5.423936,"is_reserved":false,"is_disabled":false,"rental_uris":{"android":"levelo://app?vid=575dab36-6090-4ba0-b893-e3f7e28cfb60","ios":"levelo://app?vid=575dab36-6090-4ba0-b893-e3f7e28cfb60"},"vehicle_type_id":"4","last_reported":1704222332,"current_range_meters":15600,"station_id":"ce4bhp92rcd13ifvqhbg","pricing_plan_id":"free"},{"bike_id":"5e3452d0-bbc8-463b-8852-ec98e809d5a0","system_id":"levelo_inurba_marseille","lat":43.317121,"lon":5.423936,"is_reserved":false,"is_disabled":false,"rental_uris":{"android":"levelo://app?vid=5e3452d0-bbc8-463b-8852-ec98e809d5a0","ios":"levelo://app?vid=5e3452d0-bbc8-463b-8852-ec98e809d5a0"},"vehicle_type_id":"4","last_reported":1704222332,"current_range_meters":31200,"station_id":"ce4bhp92rcd13ifvqhbg","pricing_plan_id":"free"},{"bike_id":"f3e351f0-7ca3-497e-a450-69da3118abd7","system_id":"levelo_inurba_marseille","lat":43.317121,"lon":5.423936,"is_reserved":false,"is_disabled":false,"rental_uris":{"android":"levelo://app?vid=f3e351f0-7ca3-497e-a450-69da3118abd7","ios":"levelo://app?vid=f3e351f0-7ca3-497e-a450-69da3118abd7"},"vehicle_type_id":"4","last_reported":1704222332,"current_range_meters":28800,"station_id":"ce4bhp92rcd13ifvqhbg","pricing_plan_id":"free"},{"bike_id":"c2f050c8-5829-4d0e-9d3b-560f9daeb30d","system_id":"levelo_inurba_marseille","lat":43.310785,"lon":5.424305,"is_reserved":false,"is_disabled":false,"rental_uris":{"android":"levelo://app?vid=c2f050c8-5829-4d0e-9d3b-560f9daeb30d","ios":"levelo://app?vid=c2f050c8-5829-4d0e-9d3b-560f9daeb30d"},"vehicle_type_id":"4","last_reported":1704222332,"current_range_meters":31200,"station_id":"ce4bhp92rcd13ifvqhag","pricing_plan_id":"free"},{"bike_id":"537de52f-fbf7-4ccb-979b-67cc22a43136","system_id":"levelo_inurba_marseille","lat":43.310785,"lon":5.424305,"is_reserved":false,"is_disabled":false,"rental_uris":{"android":"levelo://app?vid=537de52f-fbf7-4ccb-979b-67cc22a43136","ios":"levelo://app?vid=537de52f-fbf7-4ccb-979b-67cc22a43136"},"vehicle_type_id":"4","last_reported":1704222332,"current_range_meters":7600,"station_id":"ce4bhp92rcd13ifvqhag","pricing_plan_id":"free"},{"bike_id":"47f8cb60-186e-4e83-96aa-050d47af2974","system_id":"levelo_inurba_marseille","lat":43.34134,"lon":5.40898,"is_reserved":false,"is_disabled":false,"rental_uris":{"android":"levelo://app?vid=47f8cb60-186e-4e83-96aa-050d47af2974","ios":"levelo://app?vid=47f8cb60-186e-4e83-96aa-050d47af2974"},"vehicle_type_id":"4","last_reported":1704222332,"current_range_meters":11200,"station_id":"ce4bhqh2rcd13ifvqhlg","pricing_plan_id":"free"},{"bike_id":"9963a74f-027a-49d5-8d88-14b89594c480","system_id":"levelo_inurba_marseille","lat":43.340804,"lon":5.410219,"is_reserved":false,"is_disabled":false,"rental_uris":{"android":"levelo://app?vid=9963a74f-027a-49d5-8d88-14b89594c480","ios":"levelo://app?vid=9963a74f-027a-49d5-8d88-14b89594c480"},"vehicle_type_id":"4","last_reported":1704222332,"current_range_meters":25200,"station_id":"ce4bhqh2rcd13ifvqhlg","pricing_plan_id":"free"},{"bike_id":"33a5c0ea-a0f8-4596-b1f4-72f6ae800317","system_id":"levelo_inurba_marseille","lat":43.29563,"lon":5.42294,"is_reserved":false,"is_disabled":false,"rental_uris":{"android":"levelo://app?vid=33a5c0ea-a0f8-4596-b1f4-72f6ae800317","ios":"levelo://app?vid=33a5c0ea-a0f8-4596-b1f4-72f6ae800317"},"vehicle_type_id":"4","last_reported":1704222332,"current_range_meters":18400,"station_id":"ce4bhph2rcd13ifvqhdg","pricing_plan_id":"free"},{"bike_id":"2ea63b5f-5611-4e23-a9e5-5bdc3150234e","system_id":"levelo_inurba_marseille","lat":43.295511,"lon":5.422926,"is_reserved":false,"is_disabled":false,"rental_uris":{"android":"levelo://app?vid=2ea63b5f-5611-4e23-a9e5-5bdc3150234e","ios":"levelo://app?vid=2ea63b5f-5611-4e23-a9e5-5bdc3150234e"},"vehicle_type_id":"4","last_reported":1704222332,"current_range_meters":28400,"station_id":"ce4bhph2rcd13ifvqhdg","pricing_plan_id":"free"},{"bike_id":"f0489890-e96a-4deb-92e7-26f06d10b6d8","system_id":"levelo_inurba_marseille","lat":43.295523,"lon":5.422926,"is_reserved":false,"is_disabled":false,"rental_uris":{"android":"levelo://app?vid=f0489890-e96a-4deb-92e7-26f06d10b6d8","ios":"levelo://app?vid=f0489890-e96a-4deb-92e7-26f06d10b6d8"},"vehicle_type_id":"4","last_reported":1704222332,"current_range_meters":13600,"station_id":"ce4bhph2rcd13ifvqhdg","pricing_plan_id":"free"},{"bike_id":"6a624958-390c-4a43-ab80-84a1cb2d665b","system_id":"levelo_inurba_marseille","lat":43.29552,"lon":5.42293,"is_reserved":false,"is_disabled":false,"rental_uris":{"android":"levelo://app?vid=6a624958-390c-4a43-ab80-84a1cb2d665b","ios":"levelo://app?vid=6a624958-390c-4a43-ab80-84a1cb2d665b"},"vehicle_type_id":"4","last_reported":1704222332,"current_range_meters":9600,"station_id":"ce4bhph2rcd13ifvqhdg","pricing_plan_id":"free"},{"bike_id":"921a2b81-31dc-41e7-a6d0-fe7d008a3a16","system_id":"levelo_inurba_marseille","lat":43.295511,"lon":5.422926,"is_reserved":false,"is_disabled":false,"rental_uris":{"android":"levelo://app?vid=921a2b81-31dc-41e7-a6d0-fe7d008a3a16","ios":"levelo://app?vid=921a2b81-31dc-41e7-a6d0-fe7d008a3a16"},"vehicle_type_id":"4","last_reported":1704222332,"current_range_meters":31600,"station_id":"ce4bhph2rcd13ifvqhdg","pricing_plan_id":"free"},{"bike_id":"b3dd055f-36f7-470c-a163-30f69857726d","system_id":"levelo_inurba_marseille","lat":43.295511,"lon":5.422926,"is_reserved":false,"is_disabled":false,"rental_uris":{"android":"levelo://app?vid=b3dd055f-36f7-470c-a163-30f69857726d","ios":"levelo://app?vid=b3dd055f-36f7-470c-a163-30f69857726d"},"vehicle_type_id":"4","last_reported":1704222332,"current_range_meters":30000,"station_id":"ce4bhph2rcd13ifvqhdg","pricing_plan_id":"free"},{"bike_id":"1c7fc254-513e-4e48-b328-96597f351885","system_id":"levelo_inurba_marseille","lat":43.295498,"lon":5.422968,"is_reserved":false,"is_disabled":false,"rental_uris":{"android":"levelo://app?vid=1c7fc254-513e-4e48-b328-96597f351885","ios":"levelo://app?vid=1c7fc254-513e-4e48-b328-96597f351885"},"vehicle_type_id":"4","last_reported":1704222332,"current_range_meters":30000,"station_id":"","pricing_plan_id":"free"},{"bike_id":"ac29b4b2-d87a-435a-bee9-59569c3f7e28","system_id":"levelo_inurba_marseille","lat":43.295511,"lon":5.422926,"is_reserved":false,"is_disabled":false,"rental_uris":{"android":"levelo://app?vid=ac29b4b2-d87a-435a-bee9-59569c3f7e28","ios":"levelo://app?vid=ac29b4b2-d87a-435a-bee9-59569c3f7e28"},"vehicle_type_id":"4","last_reported":1704222332,"current_range_meters":29200,"station_id":"ce4bhph2rcd13ifvqhdg","pricing_plan_id":"free"},{"bike_id":"5739d156-7dd4-484d-97ed-16fcdd68d703","system_id":"levelo_inurba_marseille","lat":43.295509,"lon":5.422978,"is_reserved":false,"is_disabled":false,"rental_uris":{"android":"levelo://app?vid=5739d156-7dd4-484d-97ed-16fcdd68d703","ios":"levelo://app?vid=5739d156-7dd4-484d-97ed-16fcdd68d703"},"vehicle_type_id":"4","last_reported":1704222332,"current_range_meters":24000,"station_id":"ce4bhph2rcd13ifvqhdg","pricing_plan_id":"free"},{"bike_id":"64bbd684-6ef9-4cbd-aa0d-5e9e93cb12eb","system_id":"levelo_inurba_marseille","lat":43.295511,"lon":5.422926,"is_reserved":false,"is_disabled":false,"rental_uris":{"android":"levelo://app?vid=64bbd684-6ef9-4cbd-aa0d-5e9e93cb12eb","ios":"levelo://app?vid=64bbd684-6ef9-4cbd-aa0d-5e9e93cb12eb"},"vehicle_type_id":"4","last_reported":1704222332,"current_range_meters":28400,"station_id":"ce4bhph2rcd13ifvqhdg","pricing_plan_id":"free"},{"bike_id":"51572267-e8e5-49fc-9f36-c651c211745f","system_id":"levelo_inurba_marseille","lat":43.295529,"lon":5.423038,"is_reserved":false,"is_disabled":false,"rental_uris":{"android":"levelo://app?vid=51572267-e8e5-49fc-9f36-c651c211745f","ios":"levelo://app?vid=51572267-e8e5-49fc-9f36-c651c211745f"},"vehicle_type_id":"4","last_reported":1704222332,"current_range_meters":30000,"station_id":"ce4bhph2rcd13ifvqhdg","pricing_plan_id":"free"},{"bike_id":"9b93b3c6-dfeb-4778-946f-3712949dc66e","system_id":"levelo_inurba_marseille","lat":43.287184,"lon":5.37937,"is_reserved":false,"is_disabled":false,"rental_uris":{"android":"levelo://app?vid=9b93b3c6-dfeb-4778-946f-3712949dc66e","ios":"levelo://app?vid=9b93b3c6-dfeb-4778-946f-3712949dc66e"},"vehicle_type_id":"4","last_reported":1704222332,"current_range_meters":27200,"station_id":"ce4bh9p2rcd13ifvqec0","pricing_plan_id":"free"},{"bike_id":"0981adf6-92c5-4e1b-820e-2802de113eaa","system_id":"levelo_inurba_marseille","lat":43.27107,"lon":5.3896,"is_reserved":false,"is_disabled":false,"rental_uris":{"android":"levelo://app?vid=0981adf6-92c5-4e1b-820e-2802de113eaa","ios":"levelo://app?vid=0981adf6-92c5-4e1b-820e-2802de113eaa"},"vehicle_type_id":"4","last_reported":1704222332,"current_range_meters":22800,"station_id":"","pricing_plan_id":"free"},{"bike_id":"36b9a1d3-fea9-43e8-8414-9f36b1e7f85d","system_id":"levelo_inurba_marseille","lat":43.278128,"lon":5.407195,"is_reserved":false,"is_disabled":false,"rental_uris":{"android":"levelo://app?vid=36b9a1d3-fea9-43e8-8414-9f36b1e7f85d","ios":"levelo://app?vid=36b9a1d3-fea9-43e8-8414-9f36b1e7f85d"},"vehicle_type_id":"4","last_reported":1704222332,"current_range_meters":25600,"station_id":"ce4bhnh2rcd13ifvqgtg","pricing_plan_id":"free"},{"bike_id":"054e8014-76d4-4862-b045-f9a3e7f5e93a","system_id":"levelo_inurba_marseille","lat":43.278128,"lon":5.407195,"is_reserved":false,"is_disabled":false,"rental_uris":{"android":"levelo://app?vid=054e8014-76d4-4862-b045-f9a3e7f5e93a","ios":"levelo://app?vid=054e8014-76d4-4862-b045-f9a3e7f5e93a"},"vehicle_type_id":"4","last_reported":1704222332,"current_range_meters":23600,"station_id":"ce4bhnh2rcd13ifvqgtg","pricing_plan_id":"free"},{"bike_id":"dbce9372-1784-493a-b376-6909e9fe8f1b","system_id":"levelo_inurba_marseille","lat":43.269467,"lon":5.386439,"is_reserved":false,"is_disabled":false,"rental_uris":{"android":"levelo://app?vid=dbce9372-1784-493a-b376-6909e9fe8f1b","ios":"levelo://app?vid=dbce9372-1784-493a-b376-6909e9fe8f1b"},"vehicle_type_id":"4","last_reported":1704222332,"current_range_meters":10400,"station_id":"ce4bhh92rcd13ifvqfh0","pricing_plan_id":"free"},{"bike_id":"fc489347-5efc-4e7b-979e-076fe77498d2","system_id":"levelo_inurba_marseille","lat":43.269319,"lon":5.389397,"is_reserved":false,"is_disabled":false,"rental_uris":{"android":"levelo://app?vid=fc489347-5efc-4e7b-979e-076fe77498d2","ios":"levelo://app?vid=fc489347-5efc-4e7b-979e-076fe77498d2"},"vehicle_type_id":"4","last_reported":1704222332,"current_range_meters":23600,"station_id":"ce4bhhh2rcd13ifvqfl0","pricing_plan_id":"free"},{"bike_id":"7c3c75f3-2f79-4900-bc2d-1b5579762775","system_id":"levelo_inurba_marseille","lat":43.265714,"lon":5.372891,"is_reserved":false,"is_disabled":false,"rental_uris":{"android":"levelo://app?vid=7c3c75f3-2f79-4900-bc2d-1b5579762775","ios":"levelo://app?vid=7c3c75f3-2f79-4900-bc2d-1b5579762775"},"vehicle_type_id":"4","last_reported":1704222332,"current_range_meters":31200,"station_id":"ce4bhg12rcd13ifvqf70","pricing_plan_id":"free"},{"bike_id":"c5583a46-f991-4c88-bcbd-49c79089cb81","system_id":"levelo_inurba_marseille","lat":43.26555,"lon":5.37281,"is_reserved":false,"is_disabled":false,"rental_uris":{"android":"levelo://app?vid=c5583a46-f991-4c88-bcbd-49c79089cb81","ios":"levelo://app?vid=c5583a46-f991-4c88-bcbd-49c79089cb81"},"vehicle_type_id":"4","last_reported":1704222332,"current_range_meters":22800,"station_id":"ce4bhg12rcd13ifvqf70","pricing_plan_id":"free"},{"bike_id":"29564b70-5637-4d12-bb12-74bbe63ae895","system_id":"levelo_inurba_marseille","lat":43.265714,"lon":5.372891,"is_reserved":false,"is_disabled":false,"rental_uris":{"android":"levelo://app?vid=29564b70-5637-4d12-bb12-74bbe63ae895","ios":"levelo://app?vid=29564b70-5637-4d12-bb12-74bbe63ae895"},"vehicle_type_id":"4","last_reported":1704222332,"current_range_meters":17200,"station_id":"ce4bhg12rcd13ifvqf70","pricing_plan_id":"free"},{"bike_id":"ff38d01e-e8a3-41e4-9d18-9dffa7b70d1a","system_id":"levelo_inurba_marseille","lat":43.265714,"lon":5.372891,"is_reserved":false,"is_disabled":false,"rental_uris":{"android":"levelo://app?vid=ff38d01e-e8a3-41e4-9d18-9dffa7b70d1a","ios":"levelo://app?vid=ff38d01e-e8a3-41e4-9d18-9dffa7b70d1a"},"vehicle_type_id":"4","last_reported":1704222332,"current_range_meters":21200,"station_id":"ce4bhg12rcd13ifvqf70","pricing_plan_id":"free"},{"bike_id":"7552dc67-1782-4263-8825-10c5b00b31be","system_id":"levelo_inurba_marseille","lat":43.280012,"lon":5.416692,"is_reserved":false,"is_disabled":false,"rental_uris":{"android":"levelo://app?vid=7552dc67-1782-4263-8825-10c5b00b31be","ios":"levelo://app?vid=7552dc67-1782-4263-8825-10c5b00b31be"},"vehicle_type_id":"4","last_reported":1704222332,"current_range_meters":28000,"station_id":"ce4bho12rcd13ifvqh1g","pricing_plan_id":"free"},{"bike_id":"963974ce-5870-4af8-84f2-0dc3b0fc534c","system_id":"levelo_inurba_marseille","lat":43.27996,"lon":5.416624,"is_reserved":false,"is_disabled":false,"rental_uris":{"android":"levelo://app?vid=963974ce-5870-4af8-84f2-0dc3b0fc534c","ios":"levelo://app?vid=963974ce-5870-4af8-84f2-0dc3b0fc534c"},"vehicle_type_id":"4","last_reported":1704222332,"current_range_meters":17600,"station_id":"ce4bho12rcd13ifvqh1g","pricing_plan_id":"free"},{"bike_id":"2bdf59be-e0b9-40da-b6af-abd96991b40d","system_id":"levelo_inurba_marseille","lat":43.27996,"lon":5.416624,"is_reserved":false,"is_disabled":false,"rental_uris":{"android":"levelo://app?vid=2bdf59be-e0b9-40da-b6af-abd96991b40d","ios":"levelo://app?vid=2bdf59be-e0b9-40da-b6af-abd96991b40d"},