{"last_updated":1746133797,"ttl":60,"version":"2.2","data":{"bikes":[{"bike_id":"c440f09b-0fd2-4ddf-94bc-65676d4467f1","system_id":"levelo_inurba_marseille","lat":43.23155,"lon":5.43709,"is_reserved":false,"is_disabled":false,"rental_uris":{"android":"levelo://app?vid=c440f09b-0fd2-4ddf-94bc-65676d4467f1","ios":"levelo://app?vid=c440f09b-0fd2-4ddf-94bc-65676d4467f1"},"vehicle_type_id":"4","last_reported":1746133798,"current_range_meters":2800,"station_id":"ce4bhmp2rcd13ifvqgog","pricing_plan_id":"cebpf4jnsgd1na2vs0mg"},{"bike_id":"56e24e84-d4ea-4711-82aa-e0ffd9b1f9c0","system_id":"levelo_inurba_marseille","lat":43.31175,"lon":5.38718,"is_reserved":false,"is_disabled":false,"rental_uris":{"android":"levelo://app?vid=56e24e84-d4ea-4711-82aa-e0ffd9b1f9c0","ios":"levelo://app?vid=56e24e84-d4ea-4711-82aa-e0ffd9b1f9c0"},"vehicle_type_id":"4","last_reported":1746133798,"current_range_meters":2000,"station_id":"ce4bgv12rcd13ifvqcp0","pricing_plan_id":"cebpf4jnsgd1na2vs0mg"},{"bike_id":"98e592b3-5fa3-4a83-b8d7-4600d55d353f","system_id":"levelo_inurba_marseille","lat":43.24658,"lon":5.4362,"is_reserved":false,"is_disabled":false,"rental_uris":{"android":"levelo://app?vid=98e592b3-5fa3-4a83-b8d7-4600d55d353f","ios":"levelo://app?vid=98e592b3-5fa3-4a83-b8d7-4600d55d353f"},"vehicle_type_id":"4","last_reported":1746133798,"current_range_meters":3200,"station_id":"","pricing_plan_id":"cebpf4jnsgd1na2vs0mg"},{"bike_id":"b040c87c-26d7-487f-acd2-8d295b07e4e9","system_id":"levelo_inurba_marseille","lat":43.295319,"lon":5.38547,"is_reserved":false,"is_disabled":true,"rental_uris":{"android":"levelo://app?vid=b040c87c-26d7-487f-acd2-8d295b07e4e9","ios":"levelo://app?vid=b040c87c-26d7-487f-acd2-8d295b07e4e9"},"vehicle_type_id":"4","last_reported":1746133798,"current_range_meters":3200,"station_id":"ce4bgih2rcd13ifvqba0","pricing_plan_id":"cebpf4jnsgd1na2vs0mg"},{"bike_id":"938bbee6-34ab-48ab-8c6a-1ddb7531fd96","system_id":"levelo_inurba_marseille","lat":43.30948,"lon":5.39034,"is_reserved":false,"is_disabled":false,"rental_uris":{"android":"levelo://app?vid=938bbee6-34ab-48ab-8c6a-1ddb7531fd96","ios":"levelo://app?vid=938bbee6-34ab-48ab-8c6a-1ddb7531fd96"},"vehicle_type_id":"4","last_reported":1746133798,"current_range_meters":3200,"station_id":"ce4bgup2rcd13ifvqco0","pricing_plan_id":"cebpf4jnsgd1na2vs0mg"},{"bike_id":"3059c2a1-3338-4e74-843f-ad9486fb1e88","system_id":"levelo_inurba_marseille","lat":43.30652,"lon":5.4009,"is_reserved":false,"is_disabled":false,"rental_uris":{"android":"levelo://app?vid=3059c2a1-3338-4e74-843f-ad9486fb1e88","ios":"levelo://app?vid=3059c2a1-3338-4e74-843f-ad9486fb1e88"},"vehicle_type_id":"4","last_reported":1746133798,"current_range_meters":3600,"station_id":"ce4bh112rcd13ifvqda0","pricing_plan_id":"cebpf4jnsgd1na2vs0mg"},{"bike_id":"c055eb6c-aa4c-4cb1-926b-aa05c786acaf","system_id":"levelo_inurba_marseille","lat":43.30418,"lon":5.41278,"is_reserved":false,"is_disabled":false,"rental_uris":{"android":"levelo://app?vid=c055eb6c-aa4c-4cb1-926b-aa05c786acaf","ios":"levelo://app?vid=c055eb6c-aa4c-4cb1-926b-aa05c786acaf"},"vehicle_type_id":"4","last_reported":1746133798,"current_range_meters":4000,"station_id":"ce4bhop2rcd13ifvqh8g","pricing_plan_id":"cebpf4jnsgd1na2vs0mg"},{"bike_id":"19a04233-0593-4137-beb9-6d15f3b165f2","system_id":"levelo_inurba_marseille","lat":43.28572,"lon":5.39496,"is_reserved":false,"is_disabled":false,"rental_uris":{"android":"levelo://app?vid=19a04233-0593-4137-beb9-6d15f3b165f2","ios":"levelo://app?vid=19a04233-0593-4137-beb9-6d15f3b165f2"},"vehicle_type_id":"4","last_reported":1746133798,"current_range_meters":3600,"station_id":"","pricing_plan_id":"cebpf4jnsgd1na2vs0mg"},{"bike_id":"98ced23b-f786-4d0d-93ca-f14eb1816318","system_id":"levelo_inurba_marseille","lat":43.29234,"lon":5.36148,"is_reserved":false,"is_disabled":false,"rental_uris":{"android":"levelo://app?vid=98ced23b-f786-4d0d-93ca-f14eb1816318","ios":"levelo://app?vid=98ced23b-f786-4d0d-93ca-f14eb1816318"},"vehicle_type_id":"4","last_reported":1746133798,"current_range_meters":4000,"station_id":"","pricing_plan_id":"cebpf4jnsgd1na2vs0mg"},{"bike_id":"99af967a-1dde-4203-9ccd-0aa1812ba792","system_id":"levelo_inurba_marseille","lat":43.28943,"lon":5.39636,"is_reserved":false,"is_disabled":false,"rental_uris":{"android":"levelo://app?vid=99af967a-1dde-4203-9ccd-0aa1812ba792","ios":"levelo://app?vid=99af967a-1dde-4203-9ccd-0aa1812ba792"},"vehicle_type_id":"4","last_reported":1746133798,"current_range_meters":4000,"station_id":"ce4bh3h2rcd13ifvqdn0","pricing_plan_id":"cebpf4jnsgd1na2vs0mg"},{"bike_id":"08402e46-6c5d-4722-8aa7-83a76b57bc22","system_id":"levelo_inurba_marseille","lat":43.30926,"lon":5.40139,"is_reserved":false,"is_disabled":false,"rental_uris":{"android":"levelo://app?vid=08402e46-6c5d-4722-8aa7-83a76b57bc22","ios":"levelo://app?vid=08402e46-6c5d-4722-8aa7-83a76b57bc22"},"vehicle_type_id":"4","last_reported":1746133798,"current_range_meters":4400,"station_id":"ce4bgvp2rcd13ifvqct0","pricing_plan_id":"cebpf4jnsgd1na2vs0mg"},{"bike_id":"ffafe023-f228-4f84-841e-4d8493b40269","system_id":"levelo_inurba_marseille","lat":43.30806,"lon":5.38141,"is_reserved":false,"is_disabled":false,"rental_uris":{"android":"levelo://app?vid=ffafe023-f228-4f84-841e-4d8493b40269","ios":"levelo://app?vid=ffafe023-f228-4f84-841e-4d8493b40269"},"vehicle_type_id":"4","last_reported":1746133798,"current_range_meters":4400,"station_id":"ce4bgt12rcd13ifvqce0","pricing_plan_id":"cebpf4jnsgd1na2vs0mg"},{"bike_id":"39ccc3a0-baae-41ad-bd60-2cf8edcfd4fa","system_id":"levelo_inurba_marseille","lat":43.26028,"lon":5.3756,"is_reserved":false,"is_disabled":true,"rental_uris":{"android":"levelo://app?vid=39ccc3a0-baae-41ad-bd60-2cf8edcfd4fa","ios":"levelo://app?vid=39ccc3a0-baae-41ad-bd60-2cf8edcfd4fa"},"vehicle_type_id":"4","last_reported":1746133798,"current_range_meters":4800,"station_id":"ce4bhgh2rcd13ifvqfa0","pricing_plan_id":"cebpf4jnsgd1na2vs0mg"},{"bike_id":"0683d66b-a209-4c9a-8a6e-884c4cd4abfa","system_id":"levelo_inurba_marseille","lat":43.29874,"lon":5.3971,"is_reserved":false,"is_disabled":false,"rental_uris":{"android":"levelo://app?vid=0683d66b-a209-4c9a-8a6e-884c4cd4abfa","ios":"levelo://app?vid=0683d66b-a209-4c9a-8a6e-884c4cd4abfa"},"vehicle_type_id":"4","last_reported":1746133798,"current_range_meters":5600,"station_id":"ce4bh0h2rcd13ifvqd50","pricing_plan_id":"cebpf4jnsgd1na2vs0mg"},{"bike_id":"5a46a972-f412-47bc-918e-2491313c9726","system_id":"levelo_inurba_marseille","lat":43.29049,"lon":5.39983,"is_reserved":false,"is_disabled":false,"rental_uris":{"android":"levelo://app?vid=5a46a972-f412-47bc-918e-2491313c9726","ios":"levelo://app?vid=5a46a972-f412-47bc-918e-2491313c9726"},"vehicle_type_id":"4","last_reported":1746133798,"current_range_meters":5600,"station_id":"ce4bh392rcd13ifvqdm0","pricing_plan_id":"cebpf4jnsgd1na2vs0mg"},{"bike_id":"074b1fe1-0369-406a-b3fd-aff117360eba","system_id":"levelo_inurba_marseille","lat":43.2408,"lon":5.37765,"is_reserved":false,"is_disabled":false,"rental_uris":{"android":"levelo://app?vid=074b1fe1-0369-406a-b3fd-aff117360eba","ios":"levelo://app?vid=074b1fe1-0369-406a-b3fd-aff117360eba"},"vehicle_type_id":"4","last_reported":1746133798,"current_range_meters":5600,"station_id":"ce4bhnp2rcd13ifvqgvg","pricing_plan_id":"cebpf4jnsgd1na2vs0mg"},{"bike_id":"9993632a-4b57-4af1-b3f7-ae52baf8c31d","system_id":"levelo_inurba_marseille","lat":43.29422,"lon":5.38625,"is_reserved":false,"is_disabled":true,"rental_uris":{"android":"levelo://app?vid=9993632a-4b57-4af1-b3f7-ae52baf8c31d","ios":"levelo://app?vid=9993632a-4b57-4af1-b3f7-ae52baf8c31d"},"vehicle_type_id":"4","last_reported":1746133798,"current_range_meters":5600,"station_id":"ce4bh2h2rcd13ifvqdh0","pricing_plan_id":"cebpf4jnsgd1na2vs0mg"},{"bike_id":"2785f816-66b8-4b6f-bb79-42f49ec74d85","system_id":"levelo_inurba_marseille","lat":43.30422,"lon":5.3975,"is_reserved":false,"is_disabled":false,"rental_uris":{"android":"levelo://app?vid=2785f816-66b8-4b6f-bb79-42f49ec74d85","ios":"levelo://app?vid=2785f816-66b8-4b6f-bb79-42f49ec74d85"},"vehicle_type_id":"4","last_reported":1746133798,"current_range_meters":5600,"station_id":"ce4bh092rcd13ifvqd20","pricing_plan_id":"cebpf4jnsgd1na2vs0mg"},{"bike_id":"5d3b05a5-2bb8-4020-b7ec-e6c9888f170c","system_id":"levelo_inurba_marseille","lat":43.29729,"lon":5.39466,"is_reserved":false,"is_disabled":false,"rental_uris":{"android":"levelo://app?vid=5d3b05a5-2bb8-4020-b7ec-e6c9888f170c","ios":"levelo://app?vid=5d3b05a5-2bb8-4020-b7ec-e6c9888f170c"},"vehicle_type_id":"4","last_reported":1746133798,"current_range_meters":6000,"station_id":"","pricing_plan_id":"cebpf4jnsgd1na2vs0mg"},{"bike_id":"6b551112-4a5c-49d1-819e-2d74ac612f14","system_id":"levelo_inurba_marseille","lat":43.279957,"lon":5.416677,"is_reserved":false,"is_disabled":false,"rental_uris":{"android":"levelo://app?vid=6b551112-4a5c-49d1-819e-2d74ac612f14","ios":"levelo://app?vid=6b551112-4a5c-49d1-819e-2d74ac612f14"},"vehicle_type_id":"4","last_reported":1746133798,"current_range_meters":6000,"station_id":"ce4bho12rcd13ifvqh1g","pricing_plan_id":"cebpf4jnsgd1na2vs0mg"},{"bike_id":"63e81999-b3a7-436b-8d88-91b6d666d386","system_id":"levelo_inurba_marseille","lat":43.30928,"lon":5.40144,"is_reserved":false,"is_disabled":false,"rental_uris":{"android":"levelo://app?vid=63e81999-b3a7-436b-8d88-91b6d666d386","ios":"levelo://app?vid=63e81999-b3a7-436b-8d88-91b6d666d386"},"vehicle_type_id":"4","last_reported":1746133798,"current_range_meters":6000,"station_id":"ce4bgvp2rcd13ifvqct0","pricing_plan_id":"cebpf4jnsgd1na2vs0mg"},{"bike_id":"322950a6-18c3-45a6-b4ce-aac5b35350d3","system_id":"levelo_inurba_marseille","lat":43.30598,"lon":5.37224,"is_reserved":false,"is_disabled":false,"rental_uris":{"android":"levelo://app?vid=322950a6-18c3-45a6-b4ce-aac5b35350d3","ios":"levelo://app?vid=322950a6-18c3-45a6-b4ce-aac5b35350d3"},"vehicle_type_id":"4","last_reported":1746133798,"current_range_meters":6000,"station_id":"ce4bgqh2rcd13ifvqc4g","pricing_plan_id":"cebpf4jnsgd1na2vs0mg"},{"bike_id":"21a0882f-1e72-46f3-9c85-9589e4527059","system_id":"levelo_inurba_marseille","lat":43.29193,"lon":5.39289,"is_reserved":false,"is_disabled":false,"rental_uris":{"android":"levelo://app?vid=21a0882f-1e72-46f3-9c85-9589e4527059","ios":"levelo://app?vid=21a0882f-1e72-46f3-9c85-9589e4527059"},"vehicle_type_id":"4","last_reported":1746133798,"current_range_meters":6000,"station_id":"ce4bh192rcd13ifvqdd0","pricing_plan_id":"cebpf4jnsgd1na2vs0mg"},{"bike_id":"5019a43c-912a-488e-a8dc-6c8f7ff0c9c5","system_id":"levelo_inurba_marseille","lat":43.31789,"lon":5.37438,"is_reserved":false,"is_disabled":false,"rental_uris":{"android":"levelo://app?vid=5019a43c-912a-488e-a8dc-6c8f7ff0c9c5","ios":"levelo://app?vid=5019a43c-912a-488e-a8dc-6c8f7ff0c9c5"},"vehicle_type_id":"4","last_reported":1746133798,"current_range_meters":6000,"station_id":"","pricing_plan_id":"cebpf4jnsgd1na2vs0mg"},{"bike_id":"f1bc0aad-040e-4cfc-8ff7-d948faf7c305","system_id":"levelo_inurba_marseille","lat":43.28658,"lon":5.39983,"is_reserved":false,"is_disabled":false,"rental_uris":{"android":"levelo://app?vid=f1bc0aad-040e-4cfc-8ff7-d948faf7c305","ios":"levelo://app?vid=f1bc0aad-040e-4cfc-8ff7-d948faf7c305"},"vehicle_type_id":"4","last_reported":1746133798,"current_range_meters":6000,"station_id":"","pricing_plan_id":"cebpf4jnsgd1na2vs0mg"},{"bike_id":"3dda069f-efc1-4167-894b-c35218499c9b","system_id":"levelo_inurba_marseille","lat":43.28147,"lon":5.42637,"is_reserved":false,"is_disabled":false,"rental_uris":{"android":"levelo://app?vid=3dda069f-efc1-4167-894b-c35218499c9b","ios":"levelo://app?vid=3dda069f-efc1-4167-894b-c35218499c9b"},"vehicle_type_id":"4","last_reported":1746133798,"current_range_meters":6400,"station_id":"ce4bhnh2rcd13ifvqgug","pricing_plan_id":"cebpf4jnsgd1na2vs0mg"},{"bike_id":"ef61761d-f8d4-4290-849c-c0186e904ccf","system_id":"levelo_inurba_marseille","lat":43.284922,"lon":5.390829,"is_reserved":false,"is_disabled":false,"rental_uris":{"android":"levelo://app?vid=ef61761d-f8d4-4290-849c-c0186e904ccf","ios":"levelo://app?vid=ef61761d-f8d4-4290-849c-c0186e904ccf"},"vehicle_type_id":"4","last_reported":1746133798,"current_range_meters":6400,"station_id":"ce4bh292rcd13ifvqdg0","pricing_plan_id":"cebpf4jnsgd1na2vs0mg"},{"bike_id":"e67b03f2-4a83-4778-bb82-411130436f27","system_id":"levelo_inurba_marseille","lat":43.27834,"lon":5.39205,"is_reserved":false,"is_disabled":false,"rental_uris":{"android":"levelo://app?vid=e67b03f2-4a83-4778-bb82-411130436f27","ios":"levelo://app?vid=e67b03f2-4a83-4778-bb82-411130436f27"},"vehicle_type_id":"4","last_reported":1746133798,"current_range_meters":6400,"station_id":"ce4bhjp2rcd13ifvqga0","pricing_plan_id":"cebpf4jnsgd1na2vs0mg"},{"bike_id":"192d45a2-28bf-4446-b776-5f4983875699","system_id":"levelo_inurba_marseille","lat":43.27841,"lon":5.39206,"is_reserved":false,"is_disabled":false,"rental_uris":{"android":"levelo://app?vid=192d45a2-28bf-4446-b776-5f4983875699","ios":"levelo://app?vid=192d45a2-28bf-4446-b776-5f4983875699"},"vehicle_type_id":"4","last_reported":1746133798,"current_range_meters":6400,"station_id":"ce4bhjp2rcd13ifvqga0","pricing_plan_id":"cebpf4jnsgd1na2vs0mg"},{"bike_id":"fd9a4832-7310-4a2d-b55c-eb7e681369f4","system_id":"levelo_inurba_marseille","lat":43.27994,"lon":5.442194,"is_reserved":false,"is_disabled":false,"rental_uris":{"android":"levelo://app?vid=fd9a4832-7310-4a2d-b55c-eb7e681369f4","ios":"levelo://app?vid=fd9a4832-7310-4a2d-b55c-eb7e681369f4"},"vehicle_type_id":"4","last_reported":1746133798,"current_range_meters":6400,"station_id":"","pricing_plan_id":"cebpf4jnsgd1na2vs0mg"},{"bike_id":"080fea3a-f03b-4b78-b4ff-0c14bc158b80","system_id":"levelo_inurba_marseille","lat":43.28345,"lon":5.38106,"is_reserved":false,"is_disabled":false,"rental_uris":{"android":"levelo://app?vid=080fea3a-f03b-4b78-b4ff-0c14bc158b80","ios":"levelo://app?vid=080fea3a-f03b-4b78-b4ff-0c14bc158b80"},"vehicle_type_id":"4","last_reported":1746133798,"current_range_meters":6400,"station_id":"ce4bh412rcd13ifvqdr0","pricing_plan_id":"cebpf4jnsgd1na2vs0mg"},{"bike_id":"7f770ba9-2e48-47c9-8bb4-942855273bad","system_id":"levelo_inurba_marseille","lat":43.2534,"lon":5.42413,"is_reserved":false,"is_disabled":false,"rental_uris":{"android":"levelo://app?vid=7f770ba9-2e48-47c9-8bb4-942855273bad","ios":"levelo://app?vid=7f770ba9-2e48-47c9-8bb4-942855273bad"},"vehicle_type_id":"4","last_reported":1746133798,"current_range_meters":6400,"station_id":"","pricing_plan_id":"cebpf4jnsgd1na2vs0mg"},{"bike_id":"9bbfaf24-17bd-4dae-90c6-73c085ad1f20","system_id":"levelo_inurba_marseille","lat":43.31168,"lon":5.38724,"is_reserved":false,"is_disabled":false,"rental_uris":{"android":"levelo://app?vid=9bbfaf24-17bd-4dae-90c6-73c085ad1f20","ios":"levelo://app?vid=9bbfaf24-17bd-4dae-90c6-73c085ad1f20"},"vehicle_type_id":"4","last_reported":1746133798,"current_range_meters":6400,"station_id":"ce4bgv12rcd13ifvqcp0","pricing_plan_id":"cebpf4jnsgd1na2vs0mg"},{"bike_id":"727a9e79-9eef-4d0d-8364-8cc93b121718","system_id":"levelo_inurba_marseille","lat":43.25485,"lon":5.37698,"is_reserved":false,"is_disabled":true,"rental_uris":{"android":"levelo://app?vid=727a9e79-9eef-4d0d-8364-8cc93b121718","ios":"levelo://app?vid=727a9e79-9eef-4d0d-8364-8cc93b121718"},"vehicle_type_id":"4","last_reported":1746133798,"current_range_meters":6400,"station_id":"ce4bhh12rcd13ifvqff0","pricing_plan_id":"cebpf4jnsgd1na2vs0mg"},{"bike_id":"5929c210-eb80-47f6-b67f-7d276e7fb810","system_id":"levelo_inurba_marseille","lat":43.29893,"lon":5.3971,"is_reserved":false,"is_disabled":false,"rental_uris":{"android":"levelo://app?vid=5929c210-eb80-47f6-b67f-7d276e7fb810","ios":"levelo://app?vid=5929c210-eb80-47f6-b67f-7d276e7fb810"},"vehicle_type_id":"4","last_reported":1746133798,"current_range_meters":6400,"station_id":"ce4bh0h2rcd13ifvqd50","pricing_plan_id":"cebpf4jnsgd1na2vs0mg"},{"bike_id":"2fa76595-008d-4c0f-83c4-7d3eccff5cfc","system_id":"levelo_inurba_marseille","lat":43.28107,"lon":5.37836,"is_reserved":false,"is_disabled":false,"rental_uris":{"android":"levelo://app?vid=2fa76595-008d-4c0f-83c4-7d3eccff5cfc","ios":"levelo://app?vid=2fa76595-008d-4c0f-83c4-7d3eccff5cfc"},"vehicle_type_id":"4","last_reported":1746133798,"current_range_meters":6800,"station_id":"ce4bha12rcd13ifvqee0","pricing_plan_id":"cebpf4jnsgd1na2vs0mg"},{"bike_id":"d901647f-aef6-4e5f-b7ba-7cb0dfd0a264","system_id":"levelo_inurba_marseille","lat":43.30783,"lon":5.37647,"is_reserved":false,"is_disabled":true,"rental_uris":{"android":"levelo://app?vid=d901647f-aef6-4e5f-b7ba-7cb0dfd0a264","ios":"levelo://app?vid=d901647f-aef6-4e5f-b7ba-7cb0dfd0a264"},"vehicle_type_id":"4","last_reported":1746133798,"current_range_meters":6800,"station_id":"ce4bgv92rcd13ifvqcq0","pricing_plan_id":"cebpf4jnsgd1na2vs0mg"},{"bike_id":"6c9be9b6-a219-4a45-8e4a-0e2ace2c1186","system_id":"levelo_inurba_marseille","lat":43.325363,"lon":5.414457,"is_reserved":false,"is_disabled":false,"rental_uris":{"android":"levelo://app?vid=6c9be9b6-a219-4a45-8e4a-0e2ace2c1186","ios":"levelo://app?vid=6c9be9b6-a219-4a45-8e4a-0e2ace2c1186"},"vehicle_type_id":"4","last_reported":1746133798,"current_range_meters":6800,"station_id":"ce4bhq12rcd13ifvqhhg","pricing_plan_id":"cebpf4jnsgd1na2vs0mg"},{"bike_id":"2bc7685c-3ffa-492e-ac40-bca1c401b590","system_id":"levelo_inurba_marseille","lat":43.2681,"lon":5.40257,"is_reserved":false,"is_disabled":false,"rental_uris":{"android":"levelo://app?vid=2bc7685c-3ffa-492e-ac40-bca1c401b590","ios":"levelo://app?vid=2bc7685c-3ffa-492e-ac40-bca1c401b590"},"vehicle_type_id":"4","last_reported":1746133798,"current_range_meters":6800,"station_id":"ce501612rcd8frsf0b60","pricing_plan_id":"cebpf4jnsgd1na2vs0mg"},{"bike_id":"c7da9ef9-1744-4e5e-a809-ff041badbe27","system_id":"levelo_inurba_marseille","lat":43.2903,"lon":5.39964,"is_reserved":false,"is_disabled":false,"rental_uris":{"android":"levelo://app?vid=c7da9ef9-1744-4e5e-a809-ff041badbe27","ios":"levelo://app?vid=c7da9ef9-1744-4e5e-a809-ff041badbe27"},"vehicle_type_id":"4","last_reported":1746133798,"current_range_meters":7200,"station_id":"ce4bh392rcd13ifvqdm0","pricing_plan_id":"cebpf4jnsgd1na2vs0mg"},{"bike_id":"0840f843-3a67-4e05-a048-29d3d9d53dba","system_id":"levelo_inurba_marseille","lat":43.25716,"lon":5.41048,"is_reserved":false,"is_disabled":false,"rental_uris":{"android":"levelo://app?vid=0840f843-3a67-4e05-a048-29d3d9d53dba","ios":"levelo://app?vid=0840f843-3a67-4e05-a048-29d3d9d53dba"},"vehicle_type_id":"4","last_reported":1746133798,"current_range_meters":7200,"station_id":"ce4bhkp2rcd13ifvqgd0","pricing_plan_id":"cebpf4jnsgd1na2vs0mg"},{"bike_id":"993993a4-ded2-4764-967d-7bb33e67fd38","system_id":"levelo_inurba_marseille","lat":43.2791,"lon":5.3957,"is_reserved":false,"is_disabled":false,"rental_uris":{"android":"levelo://app?vid=993993a4-ded2-4764-967d-7bb33e67fd38","ios":"levelo://app?vid=993993a4-ded2-4764-967d-7bb33e67fd38"},"vehicle_type_id":"4","last_reported":1746133798,"current_range_meters":7200,"station_id":"ce4bhf92rcd13ifvqf40","pricing_plan_id":"cebpf4jnsgd1na2vs0mg"},{"bike_id":"215bdf6f-59e9-4581-ab6a-3306c221d929","system_id":"levelo_inurba_marseille","lat":43.24564,"lon":5.39847,"is_reserved":false,"is_disabled":false,"rental_uris":{"android":"levelo://app?vid=215bdf6f-59e9-4581-ab6a-3306c221d929","ios":"levelo://app?vid=215bdf6f-59e9-4581-ab6a-3306c221d929"},"vehicle_type_id":"4","last_reported":1746133798,"current_range_meters":7200,"station_id":"","pricing_plan_id":"cebpf4jnsgd1na2vs0mg"},{"bike_id":"a9c243d0-02f4-49a0-85d6-9e32713170f4","system_id":"levelo_inurba_marseille","lat":43.30318,"lon":5.40442,"is_reserved":false,"is_disabled":false,"rental_uris":{"android":"levelo://app?vid=a9c243d0-02f4-49a0-85d6-9e32713170f4","ios":"levelo://app?vid=a9c243d0-02f4-49a0-85d6-9e32713170f4"},"vehicle_type_id":"4","last_reported":1746133798,"current_range_meters":7200,"station_id":"ce4bh012rcd13ifvqd10","pricing_plan_id":"cebpf4jnsgd1na2vs0mg"},{"bike_id":"fee7396b-8d6a-4ad5-8af7-947693171efd","system_id":"levelo_inurba_marseille","lat":43.27074,"lon":5.42275,"is_reserved":false,"is_disabled":false,"rental_uris":{"android":"levelo://app?vid=fee7396b-8d6a-4ad5-8af7-947693171efd","ios":"levelo://app?vid=fee7396b-8d6a-4ad5-8af7-947693171efd"},"vehicle_type_id":"4","last_reported":1746133798,"current_range_meters":7200,"station_id":"ce4bhk92rcd13ifvqgb0","pricing_plan_id":"cebpf4jnsgd1na2vs0mg"},{"bike_id":"67fd2aef-8e49-4f36-806c-5355bf2a2b9d","system_id":"levelo_inurba_marseille","lat":43.30351,"lon":5.404,"is_reserved":false,"is_disabled":false,"rental_uris":{"android":"levelo://app?vid=67fd2aef-8e49-4f36-806c-5355bf2a2b9d","ios":"levelo://app?vid=67fd2aef-8e49-4f36-806c-5355bf2a2b9d"},"vehicle_type_id":"4","last_reported":1746133798,"current_range_meters":7200,"station_id":"ce4bh012rcd13ifvqd10","pricing_plan_id":"cebpf4jnsgd1na2vs0mg"},{"bike_id":"0c75f147-e154-45a1-a12b-91c8c03352d4","system_id":"levelo_inurba_marseille","lat":43.30591,"lon":5.37221,"is_reserved":false,"is_disabled":false,"rental_uris":{"android":"levelo://app?vid=0c75f147-e154-45a1-a12b-91c8c03352d4","ios":"levelo://app?vid=0c75f147-e154-45a1-a12b-91c8c03352d4"},"vehicle_type_id":"4","last_reported":1746133798,"current_range_meters":7200,"station_id":"ce4bgqh2rcd13ifvqc4g","pricing_plan_id":"cebpf4jnsgd1na2vs0mg"},{"bike_id":"bf6be9d4-7099-469d-8e47-aa865ae7fbea","system_id":"levelo_inurba_marseille","lat":43.30142,"lon":5.39869,"is_reserved":false,"is_disabled":false,"rental_uris":{"android":"levelo://app?vid=bf6be9d4-7099-469d-8e47-aa865ae7fbea","ios":"levelo://app?vid=bf6be9d4-7099-469d-8e47-aa865ae7fbea"},"vehicle_type_id":"4","last_reported":1746133798,"current_range_meters":7200,"station_id":"ce4bh0h2rcd13ifvqd40","pricing_plan_id":"cebpf4jnsgd1na2vs0mg"},{"bike_id":"47de6562-ba72-42e5-ace3-2d5a54c7c0d3","system_id":"levelo_inurba_marseille","lat":43.27942,"lon":5.41043,"is_reserved":false,"is_disabled":true,"rental_uris":{"android":"levelo://app?vid=47de6562-ba72-42e5-ace3-2d5a54c7c0d3","ios":"levelo://app?vid=47de6562-ba72-42e5-ace3-2d5a54c7c0d3"},"vehicle_type_id":"4","last_reported":1746133798,"current_range_meters":8000,"station_id":"ce4bhnp2rcd13ifvqh0g","pricing_plan_id":"cebpf4jnsgd1na2vs0mg"},{"bike_id":"5623ce53-e2a2-46bf-a01a-81bacce51dab","system_id":"levelo_inurba_marseille","lat":43.28431,"lon":5.39165,"is_reserved":false,"is_disabled":false,"rental_uris":{"android":"levelo://app?vid=5623ce53-e2a2-46bf-a01a-81bacce51dab","ios":"levelo://app?vid=5623ce53-e2a2-46bf-a01a-81bacce51dab"},"vehicle_type_id":"4","last_reported":1746133798,"current_range_meters":8000,"station_id":"ce4bhoh2rcd13ifvqh5g","pricing_plan_id":"cebpf4jnsgd1na2vs0mg"},{"bike_id":"315aa944-5595-4b5e-98d8-177f739d8d53","system_id":"levelo_inurba_marseille","lat":43.23154,"lon":5.43711,"is_reserved":false,"is_disabled":false,"rental_uris":{"android":"levelo://app?vid=315aa944-5595-4b5e-98d8-177f739d8d53","ios":"levelo://app?vid=315aa944-5595-4b5e-98d8-177f739d8d53"},"vehicle_type_id":"4","last_reported":1746133798,"current_range_meters":8000,"station_id":"ce4bhmp2rcd13ifvqgog","pricing_plan_id":"cebpf4jnsgd1na2vs0mg"},{"bike_id":"4e06d3e6-2b20-4e7b-aea6-0ad1ac5e1edf","system_id":"levelo_inurba_marseille","lat":43.32535,"lon":5.41453,"is_reserved":false,"is_disabled":false,"rental_uris":{"android":"levelo://app?vid=4e06d3e6-2b20-4e7b-aea6-0ad1ac5e1edf","ios":"levelo://app?vid=4e06d3e6-2b20-4e7b-aea6-0ad1ac5e1edf"},"vehicle_type_id":"4","last_reported":1746133798,"current_range_meters":8000,"station_id":"ce4bhq12rcd13ifvqhhg","pricing_plan_id":"cebpf4jnsgd1na2vs0mg"},{"bike_id":"d201819f-6bb8-4d60-b057-760573cba02b","system_id":"levelo_inurba_marseille","lat":43.32354,"lon":5.40618,"is_reserved":false,"is_disabled":false,"rental_uris":{"android":"levelo://app?vid=d201819f-6bb8-4d60-b057-760573cba02b","ios":"levelo://app?vid=d201819f-6bb8-4d60-b057-760573cba02b"},"vehicle_type_id":"4","last_reported":1746133798,"current_range_meters":8000,"station_id":"ce4bhq92rcd13ifvqhjg","pricing_plan_id":"cebpf4jnsgd1na2vs0mg"},{"bike_id":"a81055f7-1eff-48ba-88d3-ed4ea2495466","system_id":"levelo_inurba_marseille","lat":43.29873,"lon":5.39738,"is_reserved":false,"is_disabled":false,"rental_uris":{"android":"levelo://app?vid=a81055f7-1eff-48ba-88d3-ed4ea2495466","ios":"levelo://app?vid=a81055f7-1eff-48ba-88d3-ed4ea2495466"},"vehicle_type_id":"4","last_reported":1746133798,"current_range_meters":8000,"station_id":"ce4bh0h2rcd13ifvqd50","pricing_plan_id":"cebpf4jnsgd1na2vs0mg"},{"bike_id":"45a897a0-8804-4925-8a62-c0e8fec569a8","system_id":"levelo_inurba_marseille","lat":43.23961,"lon":5.36622,"is_reserved":false,"is_disabled":true,"rental_uris":{"android":"levelo://app?vid=45a897a0-8804-4925-8a62-c0e8fec569a8","ios":"levelo://app?vid=45a897a0-8804-4925-8a62-c0e8fec569a8"},"vehicle_type_id":"4","last_reported":1746133798,"current_range_meters":8000,"station_id":"ce4bhi12rcd13ifvqfp0","pricing_plan_id":"cebpf4jnsgd1na2vs0mg"},{"bike_id":"342622fe-c786-4197-855e-939f6c6764a3","system_id":"levelo_inurba_marseille","lat":43.28708,"lon":5.39978,"is_reserved":false,"is_disabled":false,"rental_uris":{"android":"levelo://app?vid=342622fe-c786-4197-855e-939f6c6764a3","ios":"levelo://app?vid=342622fe-c786-4197-855e-939f6c6764a3"},"vehicle_type_id":"4","last_reported":1746133798,"current_range_meters":8000,"station_id":"ce4bho92rcd13ifvqh3g","pricing_plan_id":"cebpf4jnsgd1na2vs0mg"},{"bike_id":"46155dd9-4dd9-482c-9088-3d71aadf112b","system_id":"levelo_inurba_marseille","lat":43.30159,"lon":5.39849,"is_reserved":false,"is_disabled":false,"rental_uris":{"android":"levelo://app?vid=46155dd9-4dd9-482c-9088-3d71aadf112b","ios":"levelo://app?vid=46155dd9-4dd9-482c-9088-3d71aadf112b"},"vehicle_type_id":"4","last_reported":1746133798,"current_range_meters":8000,"station_id":"ce4bh0h2rcd13ifvqd40","pricing_plan_id":"cebpf4jnsgd1na2vs0mg"},{"bike_id":"f78e6e2a-8107-47fb-b969-25345ac001d6","system_id":"levelo_inurba_marseille","lat":43.2994,"lon":5.36535,"is_reserved":false,"is_disabled":false,"rental_uris":{"android":"levelo://app?vid=f78e6e2a-8107-47fb-b969-25345ac001d6","ios":"levelo://app?vid=f78e6e2a-8107-47fb-b969-25345ac001d6"},"vehicle_type_id":"4","last_reported":1746133798,"current_range_meters":8000,"station_id":"","pricing_plan_id":"cebpf4jnsgd1na2vs0mg"},{"bike_id":"aff1c3a2-397f-44e4-8805-18e223309aab","system_id":"levelo_inurba_marseille","lat":43.294145,"lon":5.38618,"is_reserved":false,"is_disabled":false,"rental_uris":{"android":"levelo://app?vid=aff1c3a2-397f-44e4-8805-18e223309aab","ios":"levelo://app?vid=aff1c3a2-397f-44e4-8805-18e223309aab"},"vehicle_type_id":"4","last_reported":1746133798,"current_range_meters":8000,"station_id":"ce4bh2h2rcd13ifvqdh0","pricing_plan_id":"cebpf4jnsgd1na2vs0mg"},{"bike_id":"6ec79724-695f-4466-b4f4-7a3dea399050","system_id":"levelo_inurba_marseille","lat":43.270704,"lon":5.422777,"is_reserved":false,"is_disabled":false,"rental_uris":{"android":"levelo://app?vid=6ec79724-695f-4466-b4f4-7a3dea399050","ios":"levelo://app?vid=6ec79724-695f-4466-b4f4-7a3dea399050"},"vehicle_type_id":"4","last_reported":1746133798,"current_range_meters":8000,"station_id":"ce4bhk92rcd13ifvqgb0","pricing_plan_id":"cebpf4jnsgd1na2vs0mg"},{"bike_id":"59bf6f57-c4bf-43e4-8c4d-9a378fdd02df","system_id":"levelo_inurba_marseille","lat":43.27985,"lon":5.40022,"is_reserved":false,"is_disabled":false,"rental_uris":{"android":"levelo://app?vid=59bf6f57-c4bf-43e4-8c4d-9a378fdd02df","ios":"levelo://app?vid=59bf6f57-c4bf-43e4-8c4d-9a378fdd02df"},"vehicle_type_id":"4","last_reported":1746133798,"current_range_meters":8000,"station_id":"ce4bho92rcd13ifvqh4g","pricing_plan_id":"cebpf4jnsgd1na2vs0mg"},{"bike_id":"65a92264-a32d-4911-ad5e-307139719f38","system_id":"levelo_inurba_marseille","lat":43.3094,"lon":5.40139,"is_reserved":false,"is_disabled":false,"rental_uris":{"android":"levelo://app?vid=65a92264-a32d-4911-ad5e-307139719f38","ios":"levelo://app?vid=65a92264-a32d-4911-ad5e-307139719f38"},"vehicle_type_id":"4","last_reported":1746133798,"current_range_meters":8400,"station_id":"ce4bgvp2rcd13ifvqct0","pricing_plan_id":"cebpf4jnsgd1na2vs0mg"},{"bike_id":"e312a90c-389c-4c2b-82c0-f2b102679a8a","system_id":"levelo_inurba_marseille","lat":43.25728,"lon":5.41105,"is_reserved":false,"is_disabled":false,"rental_uris":{"android":"levelo://app?vid=e312a90c-389c-4c2b-82c0-f2b102679a8a","ios":"levelo://app?vid=e312a90c-389c-4c2b-82c0-f2b102679a8a"},"vehicle_type_id":"4","last_reported":1746133798,"current_range_meters":8400,"station_id":"ce4bhkp2rcd13ifvqgd0","pricing_plan_id":"cebpf4jnsgd1na2vs0mg"},{"bike_id":"981cedc8-31a8-485f-876a-35f5d46ef423","system_id":"levelo_inurba_marseille","lat":43.24133,"lon":5.36681,"is_reserved":false,"is_disabled":false,"rental_uris":{"android":"levelo://app?vid=981cedc8-31a8-485f-876a-35f5d46ef423","ios":"levelo://app?vid=981cedc8-31a8-485f-876a-35f5d46ef423"},"vehicle_type_id":"4","last_reported":1746133798,"current_range_meters":8400,"station_id":"ce4bhi12rcd13ifvqfp0","pricing_plan_id":"cebpf4jnsgd1na2vs0mg"},{"bike_id":"87963735-3b05-4d6c-9048-959338168007","system_id":"levelo_inurba_marseille","lat":43.2904,"lon":5.37558,"is_reserved":false,"is_disabled":false,"rental_uris":{"android":"levelo://app?vid=87963735-3b05-4d6c-9048-959338168007","ios":"levelo://app?vid=87963735-3b05-4d6c-9048-959338168007"},"vehicle_type_id":"4","last_reported":1746133798,"current_range_meters":8000,"station_id":"ce4bh692rcd13ifvqe90","pricing_plan_id":"cebpf4jnsgd1na2vs0mg"},{"bike_id":"f2476cf5-18ae-43ae-8380-39d39ed5971f","system_id":"levelo_inurba_marseille","lat":43.31114,"lon":5.37765,"is_reserved":false,"is_disabled":false,"rental_uris":{"android":"levelo://app?vid=f2476cf5-18ae-43ae-8380-39d39ed5971f","ios":"levelo://app?vid=f2476cf5-18ae-43ae-8380-39d39ed5971f"},"vehicle_type_id":"4","last_reported":1746133798,"current_range_meters":8400,"station_id":"ce4bgt92rcd13ifvqcg0","pricing_plan_id":"cebpf4jnsgd1na2vs0mg"},{"bike_id":"01f8c475-84b8-4549-9c69-368df340a46a","system_id":"levelo_inurba_marseille","lat":43.27956,"lon":5.41037,"is_reserved":false,"is_disabled":false,"rental_uris":{"android":"levelo://app?vid=01f8c475-84b8-4549-9c69-368df340a46a","ios":"levelo://app?vid=01f8c475-84b8-4549-9c69-368df340a46a"},"vehicle_type_id":"4","last_reported":1746133798,"current_range_meters":8400,"station_id":"ce4bhnp2rcd13ifvqh0g","pricing_plan_id":"cebpf4jnsgd1na2vs0mg"},{"bike_id":"92c9c34a-2661-40c7-b42b-42a1687057dd","system_id":"levelo_inurba_marseille","lat":43.211963,"lon":5.350743,"is_reserved":false,"is_disabled":true,"rental_uris":{"android":"levelo://app?vid=92c9c34a-2661-40c7-b42b-42a1687057dd","ios":"levelo://app?vid=92c9c34a-2661-40c7-b42b-42a1687057dd"},"vehicle_type_id":"4","last_reported":1746133798,"current_range_meters":8800,"station_id":"st_cvj6sg6p6f1abm77japg","pricing_plan_id":"cebpf4jnsgd1na2vs0mg"},{"bike_id":"f3d36354-fb65-4d90-83eb-303e5363ade6","system_id":"levelo_inurba_marseille","lat":43.31274,"lon":5.40183,"is_reserved":false,"is_disabled":false,"rental_uris":{"android":"levelo://app?vid=f3d36354-fb65-4d90-83eb-303e5363ade6","ios":"levelo://app?vid=f3d36354-fb65-4d90-83eb-303e5363ade6"},"vehicle_type_id":"4","last_reported":1746133798,"current_range_meters":8800,"station_id":"ce4bh092rcd13ifvqd30","pricing_plan_id":"cebpf4jnsgd1na2vs0mg"},{"bike_id":"51ef9827-05d4-4f72-abc3-c6fec8c5a095","system_id":"levelo_inurba_marseille","lat":43.23144,"lon":5.43694,"is_reserved":false,"is_disabled":false,"rental_uris":{"android":"levelo://app?vid=51ef9827-05d4-4f72-abc3-c6fec8c5a095","ios":"levelo://app?vid=51ef9827-05d4-4f72-abc3-c6fec8c5a095"},"vehicle_type_id":"4","last_reported":1746133798,"current_range_meters":8800,"station_id":"ce4bhmp2rcd13ifvqgog","pricing_plan_id":"cebpf4jnsgd1na2vs0mg"},{"bike_id":"74528bab-13a3-4e83-afaf-fd0bdc05f01b","system_id":"levelo_inurba_marseille","lat":43.29878,"lon":5.39732,"is_reserved":false,"is_disabled":false,"rental_uris":{"android":"levelo://app?vid=74528bab-13a3-4e83-afaf-fd0bdc05f01b","ios":"levelo://app?vid=74528bab-13a3-4e83-afaf-fd0bdc05f01b"},"vehicle_type_id":"4","last_reported":1746133798,"current_range_meters":8800,"station_id":"ce4bh0h2rcd13ifvqd50","pricing_plan_id":"cebpf4jnsgd1na2vs0mg"},{"bike_id":"1ea83f91-cead-42af-afdd-8d2cab331ff6","system_id":"levelo_inurba_marseille","lat":43.27961,"lon":5.40055,"is_reserved":false,"is_disabled":false,"rental_uris":{"android":"levelo://app?vid=1ea83f91-cead-42af-afdd-8d2cab331ff6","ios":"levelo://app?vid=1ea83f91-cead-42af-afdd-8d2cab331ff6"},"vehicle_type_id":"4","last_reported":1746133798,"current_range_meters":8800,"station_id":"","pricing_plan_id":"cebpf4jnsgd1na2vs0mg"},{"bike_id":"2e5e7fab-f1e0-4b30-bf97-3890895a344d","system_id":"levelo_inurba_marseille","lat":43.29866,"lon":5.39744,"is_reserved":false,"is_disabled":false,"rental_uris":{"android":"levelo://app?vid=2e5e7fab-f1e0-4b30-bf97-3890895a344d","ios":"levelo://app?vid=2e5e7fab-f1e0-4b30-bf97-3890895a344d"},"vehicle_type_id":"4","last_reported":1746133798,"current_range_meters":8800,"station_id":"ce4bh0h2rcd13ifvqd50","pricing_plan_id":"cebpf4jnsgd1na2vs0mg"},{"bike_id":"08ae6229-5a47-4c4c-99ac-4ba6243e9cfe","system_id":"levelo_inurba_marseille","lat":43.23076,"lon":5.35502,"is_reserved":false,"is_disabled":true,"rental_uris":{"android":"levelo://app?vid=08ae6229-5a47-4c4c-99ac-4ba6243e9cfe","ios":"levelo://app?vid=08ae6229-5a47-4c4c-99ac-4ba6243e9cfe"},"vehicle_type_id":"4","last_reported":1746133798,"current_range_meters":8800,"station_id":"cpo3342slgdg3j2ifvpg","pricing_plan_id":"cebpf4jnsgd1na2vs0mg"},{"bike_id":"adb5a875-4b1f-4646-b03f-2b77684f6ba4","system_id":"levelo_inurba_marseille","lat":43.2668,"lon":5.38265,"is_reserved":false,"is_disabled":false,"rental_uris":{"android":"levelo://app?vid=adb5a875-4b1f-4646-b03f-2b77684f6ba4","ios":"levelo://app?vid=adb5a875-4b1f-4646-b03f-2b77684f6ba4"},"vehicle_type_id":"4","last_reported":1746133798,"current_range_meters":9200,"station_id":"","pricing_plan_id":"cebpf4jnsgd1na2vs0mg"},{"bike_id":"32d99c76-2c58-4984-92ba-b03e843f67bb","system_id":"levelo_inurba_marseille","lat":43.299682,"lon":5.384935,"is_reserved":false,"is_disabled":false,"rental_uris":{"android":"levelo://app?vid=32d99c76-2c58-4984-92ba-b03e843f67bb","ios":"levelo://app?vid=32d99c76-2c58-4984-92ba-b03e843f67bb"},"vehicle_type_id":"4","last_reported":1746133798,"current_range_meters":9200,"station_id":"ce4bgj92rcd13ifvqbd0","pricing_plan_id":"cebpf4jnsgd1na2vs0mg"},{"bike_id":"7e132c50-74c0-4acb-8c19-27749c53321e","system_id":"levelo_inurba_marseille","lat":43.29879,"lon":5.39729,"is_reserved":false,"is_disabled":false,"rental_uris":{"android":"levelo://app?vid=7e132c50-74c0-4acb-8c19-27749c53321e","ios":"levelo://app?vid=7e132c50-74c0-4acb-8c19-27749c53321e"},"vehicle_type_id":"4","last_reported":1746133798,"current_range_meters":9200,"station_id":"ce4bh0h2rcd13ifvqd50","pricing_plan_id":"cebpf4jnsgd1na2vs0mg"},{"bike_id":"febe8b47-1ae7-474b-9d27-592fea290b63","system_id":"levelo_inurba_marseille","lat":43.24801,"lon":5.37453,"is_reserved":false,"is_disabled":false,"rental_uris":{"android":"levelo://app?vid=febe8b47-1ae7-474b-9d27-592fea290b63","ios":"levelo://app?vid=febe8b47-1ae7-474b-9d27-592fea290b63"},"vehicle_type_id":"4","last_reported":1746133798,"current_range_meters":9200,"station_id":"ce4bhgh2rcd13ifvqfb0","pricing_plan_id":"cebpf4jnsgd1na2vs0mg"},{"bike_id":"75708ece-d584-448e-9f9c-fa19c69ca95b","system_id":"levelo_inurba_marseille","lat":43.25122,"lon":5.40321,"is_reserved":false,"is_disabled":false,"rental_uris":{"android":"levelo://app?vid=75708ece-d584-448e-9f9c-fa19c69ca95b","ios":"levelo://app?vid=75708ece-d584-448e-9f9c-fa19c69ca95b"},"vehicle_type_id":"4","last_reported":1746133798,"current_range_meters":9200,"station_id":"ce4bhlh2rcd13ifvqgig","pricing_plan_id":"cebpf4jnsgd1na2vs0mg"},{"bike_id":"e54d325c-e7a4-410f-ad66-ee56478b3787","system_id":"levelo_inurba_marseille","lat":43.260396,"lon":5.393887,"is_reserved":false,"is_disabled":false,"rental_uris":{"android":"levelo://app?vid=e54d325c-e7a4-410f-ad66-ee56478b3787","ios":"levelo://app?vid=e54d325c-e7a4-410f-ad66-ee56478b3787"},"vehicle_type_id":"4","last_reported":1746133798,"current_range_meters":8800,"station_id":"ce4bhip2rcd13ifvqft0","pricing_plan_id":"cebpf4jnsgd1na2vs0mg"},{"bike_id":"d90a9f6a-dcc7-4188-90fd-9982aa485cbb","system_id":"levelo_inurba_marseille","lat":43.2443,"lon":5.37068,"is_reserved":false,"is_disabled":true,"rental_uris":{"android":"levelo://app?vid=d90a9f6a-dcc7-4188-90fd-9982aa485cbb","ios":"levelo://app?vid=d90a9f6a-dcc7-4188-90fd-9982aa485cbb"},"vehicle_type_id":"4","last_reported":1746133798,"current_range_meters":9200,"station_id":"ce4bhhh2rcd13ifvqfk0","pricing_plan_id":"cebpf4jnsgd1na2vs0mg"},{"bike_id":"8c14a9dd-9596-4c54-9b10-cae5d57b4d1b","system_id":"levelo_inurba_marseille","lat":43.32406,"lon":5.39036,"is_reserved":false,"is_disabled":true,"rental_uris":{"android":"levelo://app?vid=8c14a9dd-9596-4c54-9b10-cae5d57b4d1b","ios":"levelo://app?vid=8c14a9dd-9596-4c54-9b10-cae5d57b4d1b"},"vehicle_type_id":"4","last_reported":1746133798,"current_range_meters":9200,"station_id":"","pricing_plan_id":"cebpf4jnsgd1na2vs0mg"},{"bike_id":"3feaa426-1b63-49b9-8277-2dd1cca318cf","system_id":"levelo_inurba_marseille","lat":43.30033,"lon":5.40084,"is_reserved":false,"is_disabled":false,"rental_uris":{"android":"levelo://app?vid=3feaa426-1b63-49b9-8277-2dd1cca318cf","ios":"levelo://app?vid=3feaa426-1b63-49b9-8277-2dd1cca318cf"},"vehicle_type_id":"4","last_reported":1746133798,"current_range_meters":9200,"station_id":"","pricing_plan_id":"cebpf4jnsgd1na2vs0mg"},{"bike_id":"93d289ea-53ab-4021-98bf-9e6ca2063079","system_id":"levelo_inurba_marseille","lat":43.30441,"lon":5.39752,"is_reserved":false,"is_disabled":false,"rental_uris":{"android":"levelo://app?vid=93d289ea-53ab-4021-98bf-9e6ca2063079","ios":"levelo://app?vid=93d289ea-53ab-4021-98bf-9e6ca2063079"},"vehicle_type_id":"4","last_reported":1746133798,"current_range_meters":9200,"station_id":"ce4bh092rcd13ifvqd20","pricing_plan_id":"cebpf4jnsgd1na2vs0mg"},{"bike_id":"9bbf5bcc-404f-4e1d-b8b4-876b884824e1","system_id":"levelo_inurba_marseille","lat":43.30321,"lon":5.40425,"is_reserved":false,"is_disabled":false,"rental_uris":{"android":"levelo://app?vid=9bbf5bcc-404f-4e1d-b8b4-876b884824e1","ios":"levelo://app?vid=9bbf5bcc-404f-4e1d-b8b4-876b884824e1"},"vehicle_type_id":"4","last_reported":1746133798,"current_range_meters":9200,"station_id":"ce4bh012rcd13ifvqd10","pricing_plan_id":"cebpf4jnsgd1na2vs0mg"},{"bike_id":"68d44f0d-e8f4-4c59-9647-f88c98316d16","system_id":"levelo_inurba_marseille","lat":43.3064,"lon":5.40086,"is_reserved":false,"is_disabled":false,"rental_uris":{"android":"levelo://app?vid=68d44f0d-e8f4-4c59-9647-f88c98316d16","ios":"levelo://app?vid=68d44f0d-e8f4-4c59-9647-f88c98316d16"},"vehicle_type_id":"4","last_reported":1746133798,"current_range_meters":9600,"station_id":"ce4bh112rcd13ifvqda0","pricing_plan_id":"cebpf4jnsgd1na2vs0mg"},{"bike_id":"93dad334-9f21-4a50-99cb-c86648baef08","system_id":"levelo_inurba_marseille","lat":43.31333,"lon":5.39688,"is_reserved":false,"is_disabled":false,"rental_uris":{"android":"levelo://app?vid=93dad334-9f21-4a50-99cb-c86648baef08","ios":"levelo://app?vid=93dad334-9f21-4a50-99cb-c86648baef08"},"vehicle_type_id":"4","last_reported":1746133798,"current_range_meters":9600,"station_id":"ce4bgvp2rcd13ifvqcu0","pricing_plan_id":"cebpf4jnsgd1na2vs0mg"},{"bike_id":"be456527-6b15-4d45-9584-9f70290eb771","system_id":"levelo_inurba_marseille","lat":43.30938,"lon":5.4014,"is_reserved":false,"is_disabled":false,"rental_uris":{"android":"levelo://app?vid=be456527-6b15-4d45-9584-9f70290eb771","ios":"levelo://app?vid=be456527-6b15-4d45-9584-9f70290eb771"},"vehicle_type_id":"4","last_reported":1746133798,"current_range_meters":9600,"station_id":"ce4bgvp2rcd13ifvqct0","pricing_plan_id":"cebpf4jnsgd1na2vs0mg"},{"bike_id":"9ec970ff-6af0-4292-9f82-92592b9e4471","system_id":"levelo_inurba_marseille","lat":43.28414,"lon":5.37518,"is_reserved":false,"is_disabled":false,"rental_uris":{"android":"levelo://app?vid=9ec970ff-6af0-4292-9f82-92592b9e4471","ios":"levelo://app?vid=9ec970ff-6af0-4292-9f82-92592b9e4471"},"vehicle_type_id":"4","last_reported":1746133798,"current_range_meters":9600,"station_id":"ce4bh412rcd13ifvqds0","pricing_plan_id":"cebpf4jnsgd1na2vs0mg"},{"bike_id":"e0c69642-153a-4cdf-94dd-e50d7657b75d","system_id":"levelo_inurba_marseille","lat":43.317,"lon":5.40464,"is_reserved":false,"is_disabled":false,"rental_uris":{"android":"levelo://app?vid=e0c69642-153a-4cdf-94dd-e50d7657b75d","ios":"levelo://app?vid=e0c69642-153a-4cdf-94dd-e50d7657b75d"},"vehicle_type_id":"4","last_reported":1746133798,"current_range_meters":9600,"station_id":"ce4bh012rcd13ifvqd00","pricing_plan_id":"cebpf4jnsgd1na2vs0mg"},{"bike_id":"9daab621-ea1a-4494-83d2-3c6119175d6b","system_id":"levelo_inurba_marseille","lat":43.303256,"lon":5.404336,"is_reserved":false,"is_disabled":false,"rental_uris":{"android":"levelo://app?vid=9daab621-ea1a-4494-83d2-3c6119175d6b","ios":"levelo://app?vid=9daab621-ea1a-4494-83d2-3c6119175d6b"},"vehicle_type_id":"4","last_reported":1746133798,"current_range_meters":9600,"station_id":"ce4bh012rcd13ifvqd10","pricing_plan_id":"cebpf4jnsgd1na2vs0mg"},{"bike_id":"b28918cc-9bda-43a9-b823-d205bfafd8ab","system_id":"levelo_inurba_marseille","lat":43.30421,"lon":5.41276,"is_reserved":false,"is_disabled":false,"rental_uris":{"android":"levelo://app?vid=b28918cc-9bda-43a9-b823-d205bfafd8ab","ios":"levelo://app?vid=b28918cc-9bda-43a9-b823-d205bfafd8ab"},"vehicle_type_id":"4","last_reported":1746133798,"current_range_meters":9600,"station_id":"ce4bhop2rcd13ifvqh8g","pricing_plan_id":"cebpf4jnsgd1na2vs0mg"},{"bike_id":"fd479471-b65e-41a8-8b54-bb0b65438f8e","system_id":"levelo_inurba_marseille","lat":43.29428,"lon":5.38617,"is_reserved":false,"is_disabled":false,"rental_uris":{"android":"levelo://app?vid=fd479471-b65e-41a8-8b54-bb0b65438f8e","ios":"levelo://app?vid=fd479471-b65e-41a8-8b54-bb0b65438f8e"},"vehicle_type_id":"4","last_reported":1746133798,"current_range_meters":9200,"station_id":"ce4bh2h2rcd13ifvqdh0","pricing_plan_id":"cebpf4jnsgd1na2vs0mg"},{"bike_id":"1e63c5de-3c5a-4333-8936-ffe7ed3b92b1","system_id":"levelo_inurba_marseille","lat":43.30252,"lon":5.40058,"is_reserved":false,"is_disabled":false,"rental_uris":{"android":"levelo://app?vid=1e63c5de-3c5a-4333-8936-ffe7ed3b92b1","ios":"levelo://app?vid=1e63c5de-3c5a-4333-8936-ffe7ed3b92b1"},"vehicle_type_id":"4","last_reported":1746133798,"current_range_meters":9600,"station_id":"ce4bgvh2rcd13ifvqcs0","pricing_plan_id":"cebpf4jnsgd1na2vs0mg"},{"bike_id":"7971fe93-5f1d-4a59-8508-b415e64fcb18","system_id":"levelo_inurba_marseille","lat":43.30915,"lon":5.37402,"is_reserved":false,"is_disabled":false,"rental_uris":{"android":"levelo://app?vid=7971fe93-5f1d-4a59-8508-b415e64fcb18","ios":"levelo://app?vid=7971fe93-5f1d-4a59-8508-b415e64fcb18"},"vehicle_type_id":"4","last_reported":1746133798,"current_range_meters":9600,"station_id":"","pricing_plan_id":"cebpf4jnsgd1na2vs0mg"},{"bike_id":"1a0e9be5-bd4f-4026-be47-4bf333aa540c","system_id":"levelo_inurba_marseille","lat":43.28464,"lon":5.39194,"is_reserved":false,"is_disabled":true,"rental_uris":{"android":"levelo://app?vid=1a0e9be5-bd4f-4026-be47-4bf333aa540c","ios":"levelo://app?vid=1a0e9be5-bd4f-4026-be47-4bf333aa540c"},"vehicle_type_id":"4","last_reported":1746133798,"current_range_meters":9600,"station_id":"ce4bhoh2rcd13ifvqh5g","pricing_plan_id":"cebpf4jnsgd1na2vs0mg"},{"bike_id":"ec15cf0c-8146-4bc1-844a-6eb9757e3d6b","system_id":"levelo_inurba_marseille","lat":43.29248,"lon":5.40117,"is_reserved":false,"is_disabled":false,"rental_uris":{"android":"levelo://app?vid=ec15cf0c-8146-4bc1-844a-6eb9757e3d6b","ios":"levelo://app?vid=ec15cf0c-8146-4bc1-844a-6eb9757e3d6b"},"vehicle_type_id":"4","last_reported":1746133798,"current_range_meters":10000,"station_id":"ce4bh312rcd13ifvqdk0","pricing_plan_id":"cebpf4jnsgd1na2vs0mg"},{"bike_id":"1a08f6ea-1220-48b3-8f5f-5b5d9125026e","system_id":"levelo_inurba_marseille","lat":43.29869,"lon":5.39733,"is_reserved":false,"is_disabled":false,"rental_uris":{"android":"levelo://app?vid=1a08f6ea-1220-48b3-8f5f-5b5d9125026e","ios":"levelo://app?vid=1a08f6ea-1220-48b3-8f5f-5b5d9125026e"},"vehicle_type_id":"4","last_reported":1746133798,"current_range_meters":10000,"station_id":"ce4bh0h2rcd13ifvqd50","pricing_plan_id":"cebpf4jnsgd1na2vs0mg"},{"bike_id":"450c6b52-27ee-4554-ac3b-1c0847b93c67","system_id":"levelo_inurba_marseille","lat":43.29277,"lon":5.38436,"is_reserved":false,"is_disabled":false,"rental_uris":{"android":"levelo://app?vid=450c6b52-27ee-4554-ac3b-1c0847b93c67","ios":"levelo://app?vid=450c6b52-27ee-4554-ac3b-1c0847b93c67"},"vehicle_type_id":"4","last_reported":1746133798,"current_range_meters":10000,"station_id":"ce4bh692rcd13ifvqea0","pricing_plan_id":"cebpf4jnsgd1na2vs0mg"},{"bike_id":"a28912c3-cbfc-4450-83c0-fff7b2edd8a5","system_id":"levelo_inurba_marseille","lat":43.31722,"lon":5.43702,"is_reserved":false,"is_disabled":false,"rental_uris":{"android":"levelo://app?vid=a28912c3-cbfc-4450-83c0-fff7b2edd8a5","ios":"levelo://app?vid=a28912c3-cbfc-4450-83c0-fff7b2edd8a5"},"vehicle_type_id":"4","last_reported":1746133798,"current_range_meters":10000,"station_id":"ce4bhp92rcd13ifvqhcg","pricing_plan_id":"cebpf4jnsgd1na2vs0mg"},{"bike_id":"2df3c7e7-6f24-4b35-8876-4ea421331109","system_id":"levelo_inurba_marseille","lat":43.25112,"lon":5.40318,"is_reserved":false,"is_disabled":true,"rental_uris":{"android":"levelo://app?vid=2df3c7e7-6f24-4b35-8876-4ea421331109","ios":"levelo://app?vid=2df3c7e7-6f24-4b35-8876-4ea421331109"},"vehicle_type_id":"4","last_reported":1746133798,"current_range_meters":10000,"station_id":"ce4bhlh2rcd13ifvqgig","pricing_plan_id":"cebpf4jnsgd1na2vs0mg"},{"bike_id":"456facf6-3993-41aa-b74d-ccd7cbe867a9","system_id":"levelo_inurba_marseille","lat":43.298,"lon":5.40408,"is_reserved":false,"is_disabled":false,"rental_uris":{"android":"levelo://app?vid=456facf6-3993-41aa-b74d-ccd7cbe867a9","ios":"levelo://app?vid=456facf6-3993-41aa-b74d-ccd7cbe867a9"},"vehicle_type_id":"4","last_reported":1746133798,"current_range_meters":10000,"station_id":"ce4bh112rcd13ifvqd90","pricing_plan_id":"cebpf4jnsgd1na2vs0mg"},{"bike_id":"e96c6114-6a4b-4332-a152-934cf511941a","system_id":"levelo_inurba_marseille","lat":43.27922,"lon":5.39573,"is_reserved":false,"is_disabled":false,"rental_uris":{"android":"levelo://app?vid=e96c6114-6a4b-4332-a152-934cf511941a","ios":"levelo://app?vid=e96c6114-6a4b-4332-a152-934cf511941a"},"vehicle_type_id":"4","last_reported":1746133798,"current_range_meters":10000,"station_id":"ce4bhf92rcd13ifvqf40","pricing_plan_id":"cebpf4jnsgd1na2vs0mg"},{"bike_id":"039485fa-961f-4e25-960b-98effcaf2beb","system_id":"levelo_inurba_marseille","lat":43.29535,"lon":5.38548,"is_reserved":false,"is_disabled":false,"rental_uris":{"android":"levelo://app?vid=039485fa-961f-4e25-960b-98effcaf2beb","ios":"levelo://app?vid=039485fa-961f-4e25-960b-98effcaf2beb"},"vehicle_type_id":"4","last_reported":1746133798,"current_range_meters":10000,"station_id":"ce4bgih2rcd13ifvqba0","pricing_plan_id":"cebpf4jnsgd1na2vs0mg"},{"bike_id":"ea8ba857-5154-48f0-8786-19d79d48dbe7","system_id":"levelo_inurba_marseille","lat":43.2871,"lon":5.3998,"is_reserved":false,"is_disabled":false,"rental_uris":{"android":"levelo://app?vid=ea8ba857-5154-48f0-8786-19d79d48dbe7","ios":"levelo://app?vid=ea8ba857-5154-48f0-8786-19d79d48dbe7"},"vehicle_type_id":"4","last_reported":1746133798,"current_range_meters":10000,"station_id":"ce4bho92rcd13ifvqh3g","pricing_plan_id":"cebpf4jnsgd1na2vs0mg"},{"bike_id":"0275921f-ce6e-42c6-b9cc-724455ffabca","system_id":"levelo_inurba_marseille","lat":43.25709,"lon":5.41041,"is_reserved":false,"is_disabled":false,"rental_uris":{"android":"levelo://app?vid=0275921f-ce6e-42c6-b9cc-724455ffabca","ios":"levelo://app?vid=0275921f-ce6e-42c6-b9cc-724455ffabca"},"vehicle_type_id":"4","last_reported":1746133798,"current_range_meters":10000,"station_id":"","pricing_plan_id":"cebpf4jnsgd1na2vs0mg"},{"bike_id":"31c74a1c-33bb-491a-8ee1-a777fe94090b","system_id":"levelo_inurba_marseille","lat":43.28078,"lon":5.39655,"is_reserved":false,"is_disabled":false,"rental_uris":{"android":"levelo://app?vid=31c74a1c-33bb-491a-8ee1-a777fe94090b","ios":"levelo://app?vid=31c74a1c-33bb-491a-8ee1-a777fe94090b"},"vehicle_type_id":"4","last_reported":1746133798,"current_range_meters":10800,"station_id":"ce4bho12rcd13ifvqh2g","pricing_plan_id":"cebpf4jnsgd1na2vs0mg"},{"bike_id":"a35c3ffc-4e10-4f38-94fb-c7be8d2fb030","system_id":"levelo_inurba_marseille","lat":43.31674,"lon":5.39579,"is_reserved":false,"is_disabled":false,"rental_uris":{"android":"levelo://app?vid=a35c3ffc-4e10-4f38-94fb-c7be8d2fb030","ios":"levelo://app?vid=a35c3ffc-4e10-4f38-94fb-c7be8d2fb030"},"vehicle_type_id":"4","last_reported":1746133798,"current_range_meters":10800,"station_id":"","pricing_plan_id":"cebpf4jnsgd1na2vs0mg"},{"bike_id":"3c92b329-9752-444f-a0f7-ffacbc896c0e","system_id":"levelo_inurba_marseille","lat":43.28705,"lon":5.39986,"is_reserved":false,"is_disabled":false,"rental_uris":{"android":"levelo://app?vid=3c92b329-9752-444f-a0f7-ffacbc896c0e","ios":"levelo://app?vid=3c92b329-9752-444f-a0f7-ffacbc896c0e"},"vehicle_type_id":"4","last_reported":1746133798,"current_range_meters":10800,"station_id":"ce4bho92rcd13ifvqh3g","pricing_plan_id":"cebpf4jnsgd1na2vs0mg"},{"bike_id":"d2fd2180-e73e-4220-869a-026232ab3e8c","system_id":"levelo_inurba_marseille","lat":43.29285,"lon":5.40117,"is_reserved":false,"is_disabled":false,"rental_uris":{"android":"levelo://app?vid=d2fd2180-e73e-4220-869a-026232ab3e8c","ios":"levelo://app?vid=d2fd2180-e73e-4220-869a-026232ab3e8c"},"vehicle_type_id":"4","last_reported":1746133798,"current_range_meters":10800,"station_id":"ce4bh312rcd13ifvqdk0","pricing_plan_id":"cebpf4jnsgd1na2vs0mg"},{"bike_id":"6c5a82b1-d8fb-4884-908f-31a2369ec978","system_id":"levelo_inurba_marseille","lat":43.28402,"lon":5.37511,"is_reserved":false,"is_disabled":false,"rental_uris":{"android":"levelo://app?vid=6c5a82b1-d8fb-4884-908f-31a2369ec978","ios":"levelo://app?vid=6c5a82b1-d8fb-4884-908f-31a2369ec978"},"vehicle_type_id":"4","last_reported":1746133798,"current_range_meters":10800,"station_id":"ce4bh412rcd13ifvqds0","pricing_plan_id":"cebpf4jnsgd1na2vs0mg"},{"bike_id":"c0a5ee56-6f43-441c-97c4-100fe7548229","system_id":"levelo_inurba_marseille","lat":43.31353,"lon":5.385,"is_reserved":false,"is_disabled":true,"rental_uris":{"android":"levelo://app?vid=c0a5ee56-6f43-441c-97c4-100fe7548229","ios":"levelo://app?vid=c0a5ee56-6f43-441c-97c4-100fe7548229"},"vehicle_type_id":"4","last_reported":1746133798,"current_range_meters":10800,"station_id":"ce4bgt92rcd13ifvqcf0","pricing_plan_id":"cebpf4jnsgd1na2vs0mg"},{"bike_id":"6408a017-cb1d-4e23-9508-f49121914cfc","system_id":"levelo_inurba_marseille","lat":43.28703,"lon":5.39979,"is_reserved":false,"is_disabled":false,"rental_uris":{"android":"levelo://app?vid=6408a017-cb1d-4e23-9508-f49121914cfc","ios":"levelo://app?vid=6408a017-cb1d-4e23-9508-f49121914cfc"},"vehicle_type_id":"4","last_reported":1746133798,"current_range_meters":11200,"station_id":"ce4bho92rcd13ifvqh3g","pricing_plan_id":"cebpf4jnsgd1na2vs0mg"},{"bike_id":"41b15ddf-1454-4d83-8188-53d37f91586a","system_id":"levelo_inurba_marseille","lat":43.30311,"lon":5.40428,"is_reserved":false,"is_disabled":false,"rental_uris":{"android":"levelo://app?vid=41b15ddf-1454-4d83-8188-53d37f91586a","ios":"levelo://app?vid=41b15ddf-1454-4d83-8188-53d37f91586a"},"vehicle_type_id":"4","last_reported":1746133798,"current_range_meters":11200,"station_id":"ce4bh012rcd13ifvqd10","pricing_plan_id":"cebpf4jnsgd1na2vs0mg"},{"bike_id":"73de5af1-bf79-433a-a20c-6899488a09e7","system_id":"levelo_inurba_marseille","lat":43.293059,"lon":5.371671,"is_reserved":false,"is_disabled":true,"rental_uris":{"android":"levelo://app?vid=73de5af1-bf79-433a-a20c-6899488a09e7","ios":"levelo://app?vid=73de5af1-bf79-433a-a20c-6899488a09e7"},"vehicle_type_id":"4","last_reported":1746133798,"current_range_meters":11200,"station_id":"ce4bgh92rcd13ifvqb40","pricing_plan_id":"cebpf4jnsgd1na2vs0mg"},{"bike_id":"72b200a4-7cd4-484d-ac77-1ca069b5feda","system_id":"levelo_inurba_marseille","lat":43.30211,"lon":5.39459,"is_reserved":false,"is_disabled":false,"rental_uris":{"android":"levelo://app?vid=72b200a4-7cd4-484d-ac77-1ca069b5feda","ios":"levelo://app?vid=72b200a4-7cd4-484d-ac77-1ca069b5feda"},"vehicle_type_id":"4","last_reported":1746133798,"current_range_meters":11200,"station_id":"ce4bh0p2rcd13ifvqd70","pricing_plan_id":"cebpf4jnsgd1na2vs0mg"},{"bike_id":"75dcb5c8-5483-40f0-9d50-0bc4150faf2c","system_id":"levelo_inurba_marseille","lat":43.30121,"lon":5.39838,"is_reserved":false,"is_disabled":false,"rental_uris":{"android":"levelo://app?vid=75dcb5c8-5483-40f0-9d50-0bc4150faf2c","ios":"levelo://app?vid=75dcb5c8-5483-40f0-9d50-0bc4150faf2c"},"vehicle_type_id":"4","last_reported":1746133798,"current_range_meters":11200,"station_id":"ce4bh0h2rcd13ifvqd40","pricing_plan_id":"cebpf4jnsgd1na2vs0mg"},{"bike_id":"d5b5fc88-15cf-47b2-89c6-38929084bc48","system_id":"levelo_inurba_marseille","lat":43.30604,"lon":5.37223,"is_reserved":false,"is_disabled":false,"rental_uris":{"android":"levelo://app?vid=d5b5fc88-15cf-47b2-89c6-38929084bc48","ios":"levelo://app?vid=d5b5fc88-15cf-47b2-89c6-38929084bc48"},"vehicle_type_id":"4","last_reported":1746133798,"current_range_meters":11600,"station_id":"ce4bgqh2rcd13ifvqc4g","pricing_plan_id":"cebpf4jnsgd1na2vs0mg"},{"bike_id":"5ce5a92f-2072-4e8c-8483-5f453ebe476a","system_id":"levelo_inurba_marseille","lat":43.23158,"lon":5.437,"is_reserved":false,"is_disabled":false,"rental_uris":{"android":"levelo://app?vid=5ce5a92f-2072-4e8c-8483-5f453ebe476a","ios":"levelo://app?vid=5ce5a92f-2072-4e8c-8483-5f453ebe476a"},"vehicle_type_id":"4","last_reported":1746133798,"current_range_meters":11600,"station_id":"ce4bhmp2rcd13ifvqgog","pricing_plan_id":"cebpf4jnsgd1na2vs0mg"},{"bike_id":"579f3ff0-5a5b-45cb-baa0-e568c1cd8ec3","system_id":"levelo_inurba_marseille","lat":43.2926,"lon":5.40905,"is_reserved":false,"is_disabled":false,"rental_uris":{"android":"levelo://app?vid=579f3ff0-5a5b-45cb-baa0-e568c1cd8ec3","ios":"levelo://app?vid=579f3ff0-5a5b-45cb-baa0-e568c1cd8ec3"},"vehicle_type_id":"4","last_reported":1746133798,"current_range_meters":11600,"station_id":"ce4bh192rcd13ifvqdc0","pricing_plan_id":"cebpf4jnsgd1na2vs0mg"},{"bike_id":"de9f3169-f91b-4db2-8fce-bb5d535a6b08","system_id":"levelo_inurba_marseille","lat":43.248016,"lon":5.37459,"is_reserved":false,"is_disabled":false,"rental_uris":{"android":"levelo://app?vid=de9f3169-f91b-4db2-8fce-bb5d535a6b08","ios":"levelo://app?vid=de9f3169-f91b-4db2-8fce-bb5d535a6b08"},"vehicle_type_id":"4","last_reported":1746133798,"current_range_meters":11600,"station_id":"ce4bhgh2rcd13ifvqfb0","pricing_plan_id":"cebpf4jnsgd1na2vs0mg"},{"bike_id":"7b6befc3-4833-44db-a59f-fce35f535509","system_id":"levelo_inurba_marseille","lat":43.30804,"lon":5.38162,"is_reserved":false,"is_disabled":false,"rental_uris":{"android":"levelo://app?vid=7b6befc3-4833-44db-a59f-fce35f535509","ios":"levelo://app?vid=7b6befc3-4833-44db-a59f-fce35f535509"},"vehicle_type_id":"4","last_reported":1746133798,"current_range_meters":11600,"station_id":"ce4bgt12rcd13ifvqce0","pricing_plan_id":"cebpf4jnsgd1na2vs0mg"},{"bike_id":"28717be6-c725-4d30-94ce-e4d59b94deb7","system_id":"levelo_inurba_marseille","lat":43.29627,"lon":5.40588,"is_reserved":false,"is_disabled":false,"rental_uris":{"android":"levelo://app?vid=28717be6-c725-4d30-94ce-e4d59b94deb7","ios":"levelo://app?vid=28717be6-c725-4d30-94ce-e4d59b94deb7"},"vehicle_type_id":"4","last_reported":1746133798,"current_range_meters":11600,"station_id":"ce4bh0h2rcd13ifvqd60","pricing_plan_id":"cebpf4jnsgd1na2vs0mg"},{"bike_id":"5e783dca-e9bd-4f97-a67f-f3c52ee23fb9","system_id":"levelo_inurba_marseille","lat":43.296214,"lon":5.377067,"is_reserved":false,"is_disabled":true,"rental_uris":{"android":"levelo://app?vid=5e783dca-e9bd-4f97-a67f-f3c52ee23fb9","ios":"levelo://app?vid=5e783dca-e9bd-4f97-a67f-f3c52ee23fb9"},"vehicle_type_id":"4","last_reported":1746133798,"current_range_meters":12000,"station_id":"","pricing_plan_id":"cebpf4jnsgd1na2vs0mg"},{"bike_id":"1c94f752-ee7f-428e-bea8-26ff579422e0","system_id":"levelo_inurba_marseille","lat":43.2871,"lon":5.39972,"is_reserved":false,"is_disabled":false,"rental_uris":{"android":"levelo://app?vid=1c94f752-ee7f-428e-bea8-26ff579422e0","ios":"levelo://app?vid=1c94f752-ee7f-428e-bea8-26ff579422e0"},"vehicle_type_id":"4","last_reported":1746133798,"current_range_meters":12000,"station_id":"ce4bho92rcd13ifvqh3g","pricing_plan_id":"cebpf4jnsgd1na2vs0mg"},{"bike_id":"56f543c3-cb38-4272-a4e5-cab053dcc3e0","system_id":"levelo_inurba_marseille","lat":43.291966,"lon":5.392961,"is_reserved":false,"is_disabled":true,"rental_uris":{"android":"levelo://app?vid=56f543c3-cb38-4272-a4e5-cab053dcc3e0","ios":"levelo://app?vid=56f543c3-cb38-4272-a4e5-cab053dcc3e0"},"vehicle_type_id":"4","last_reported":1746133798,"current_range_meters":12000,"station_id":"ce4bhbh2rcd13ifvqeo0","pricing_plan_id":"cebpf4jnsgd1na2vs0mg"},{"bike_id":"f7cdd47c-fad6-4454-96df-e23033a3ebb0","system_id":"levelo_inurba_marseille","lat":43.28852,"lon":5.39308,"is_reserved":false,"is_disabled":false,"rental_uris":{"android":"levelo://app?vid=f7cdd47c-fad6-4454-96df-e23033a3ebb0","ios":"levelo://app?vid=f7cdd47c-fad6-4454-96df-e23033a3ebb0"},"vehicle_type_id":"4","last_reported":1746133798,"current_range_meters":12000,"station_id":"ce4bh2p2rcd13ifvqdi0","pricing_plan_id":"cebpf4jnsgd1na2vs0mg"},{"bike_id":"f59aca21-9a71-459f-9d01-42433d37ac87","system_id":"levelo_inurba_marseille","lat":43.29917,"lon":5.37481,"is_reserved":false,"is_disabled":false,"rental_uris":{"android":"levelo://app?vid=f59aca21-9a71-459f-9d01-42433d37ac87","ios":"levelo://app?vid=f59aca21-9a71-459f-9d01-42433d37ac87"},"vehicle_type_id":"4","last_reported":1746133798,"current_range_meters":12000,"station_id":"ce4bgjh2rcd13ifvqbg0","pricing_plan_id":"cebpf4jnsgd1na2vs0mg"},{"bike_id":"cba93bf4-d818-454b-925b-1e93ec515284","system_id":"levelo_inurba_marseille","lat":43.29281,"lon":5.40114,"is_reserved":false,"is_disabled":false,"rental_uris":{"android":"levelo://app?vid=cba93bf4-d818-454b-925b-1e93ec515284","ios":"levelo://app?vid=cba93bf4-d818-454b-925b-1e93ec515284"},"vehicle_type_id":"4","last_reported":1746133798,"current_range_meters":12000,"station_id":"ce4bh312rcd13ifvqdk0","pricing_plan_id":"cebpf4jnsgd1na2vs0mg"},{"bike_id":"481cbadc-1465-47a9-bdc9-6977cce0ea80","system_id":"levelo_inurba_marseille","lat":43.29035,"lon":5.38129,"is_reserved":false,"is_disabled":false,"rental_uris":{"android":"levelo://app?vid=481cbadc-1465-47a9-bdc9-6977cce0ea80","ios":"levelo://app?vid=481cbadc-1465-47a9-bdc9-6977cce0ea80"},"vehicle_type_id":"4","last_reported":1746133798,"current_range_meters":12000,"station_id":"ce4bh4p2rcd13ifvqe1g","pricing_plan_id":"cebpf4jnsgd1na2vs0mg"},{"bike_id":"3e43c125-5323-4099-ab30-27ea243fe9db","system_id":"levelo_inurba_marseille","lat":43.31082,"lon":5.38351,"is_reserved":false,"is_disabled":false,"rental_uris":{"android":"levelo://app?vid=3e43c125-5323-4099-ab30-27ea243fe9db","ios":"levelo://app?vid=3e43c125-5323-4099-ab30-27ea243fe9db"},"vehicle_type_id":"4","last_reported":1746133798,"current_range_meters":12000,"station_id":"ce4bgv92rcd13ifvqcr0","pricing_plan_id":"cebpf4jnsgd1na2vs0mg"},{"bike_id":"f0aaa783-5973-447c-a491-82a9df2d6a40","system_id":"levelo_inurba_marseille","lat":43.2623,"lon":5.40453,"is_reserved":false,"is_disabled":false,"rental_uris":{"android":"levelo://app?vid=f0aaa783-5973-447c-a491-82a9df2d6a40","ios":"levelo://app?vid=f0aaa783-5973-447c-a491-82a9df2d6a40"},"vehicle_type_id":"4","last_reported":1746133798,"current_range_meters":12000,"station_id":"ce4bhmh2rcd13ifvqgmg","pricing_plan_id":"cebpf4jnsgd1na2vs0mg"},{"bike_id":"d2917865-c7ed-418c-8e76-6cf228a7e046","system_id":"levelo_inurba_marseille","lat":43.30264,"lon":5.40057,"is_reserved":false,"is_disabled":false,"rental_uris":{"android":"levelo://app?vid=d2917865-c7ed-418c-8e76-6cf228a7e046","ios":"levelo://app?vid=d2917865-c7ed-418c-8e76-6cf228a7e046"},"vehicle_type_id":"4","last_reported":1746133798,"current_range_meters":12400,"station_id":"ce4bgvh2rcd13ifvqcs0","pricing_plan_id":"cebpf4jnsgd1na2vs0mg"},{"bike_id":"35b2ed04-1000-45a2-811b-21527953f742","system_id":"levelo_inurba_marseille","lat":43.28076,"lon":5.39661,"is_reserved":false,"is_disabled":false,"rental_uris":{"android":"levelo://app?vid=35b2ed04-1000-45a2-811b-21527953f742","ios":"levelo://app?vid=35b2ed04-1000-45a2-811b-21527953f742"},"vehicle_type_id":"4","last_reported":1746133798,"current_range_meters":12400,"station_id":"ce4bho12rcd13ifvqh2g","pricing_plan_id":"cebpf4jnsgd1na2vs0mg"},{"bike_id":"3f8bea75-f1b7-42a9-9ff5-4986c0552272","system_id":"levelo_inurba_marseille","lat":43.217493,"lon":5.346034,"is_reserved":false,"is_disabled":true,"rental_uris":{"android":"levelo://app?vid=3f8bea75-f1b7-42a9-9ff5-4986c0552272","ios":"levelo://app?vid=3f8bea75-f1b7-42a9-9ff5-4986c0552272"},"vehicle_type_id":"4","last_reported":1746133798,"current_range_meters":12400,"station_id":"st_cvj6r9ubvosntc0bgbag","pricing_plan_id":"cebpf4jnsgd1na2vs0mg"},{"bike_id":"045b2767-67d3-41b7-8618-6d27646a5585","system_id":"levelo_inurba_marseille","lat":43.313281,"lon":5.396928,"is_reserved":false,"is_disabled":false,"rental_uris":{"android":"levelo://app?vid=045b2767-67d3-41b7-8618-6d27646a5585","ios":"levelo://app?vid=045b2767-67d3-41b7-8618-6d27646a5585"},"vehicle_type_id":"4","last_reported":1746133798,"current_range_meters":12400,"station_id":"ce4bgvp2rcd13ifvqcu0","pricing_plan_id":"cebpf4jnsgd1na2vs0mg"},{"bike_id":"3ba58991-1529-494c-af28-1da2211a3805","system_id":"levelo_inurba_marseille","lat":43.312714,"lon":5.401777,"is_reserved":false,"is_disabled":false,"rental_uris":{"android":"levelo://app?vid=3ba58991-1529-494c-af28-1da2211a3805","ios":"levelo://app?vid=3ba58991-1529-494c-af28-1da2211a3805"},"vehicle_type_id":"4","last_reported":1746133798,"current_range_meters":12400,"station_id":"ce4bh092rcd13ifvqd30","pricing_plan_id":"cebpf4jnsgd1na2vs0mg"},{"bike_id":"ae5847ff-4182-40a5-b5cb-d739d71c9ac5","system_id":"levelo_inurba_marseille","lat":43.29628,"lon":5.40598,"is_reserved":false,"is_disabled":false,"rental_uris":{"android":"levelo://app?vid=ae5847ff-4182-40a5-b5cb-d739d71c9ac5","ios":"levelo://app?vid=ae5847ff-4182-40a5-b5cb-d739d71c9ac5"},"vehicle_type_id":"4","last_reported":1746133798,"current_range_meters":12000,"station_id":"ce4bh0h2rcd13ifvqd60","pricing_plan_id":"cebpf4jnsgd1na2vs0mg"},{"bike_id":"1a1d5a30-f022-48b8-b05b-ee333fb2a812","system_id":"levelo_inurba_marseille","lat":43.27969,"lon":5.38742,"is_reserved":false,"is_disabled":false,"rental_uris":{"android":"levelo://app?vid=1a1d5a30-f022-48b8-b05b-ee333fb2a812","ios":"levelo://app?vid=1a1d5a30-f022-48b8-b05b-ee333fb2a812"},"vehicle_type_id":"4","last_reported":1746133798,"current_range_meters":12400,"station_id":"ce4bhg12rcd13ifvqf80","pricing_plan_id":"cebpf4jnsgd1na2vs0mg"},{"bike_id":"c7c7a92b-c148-41bb-b985-b3d124e5c071","system_id":"levelo_inurba_marseille","lat":43.24811,"lon":5.37456,"is_reserved":false,"is_disabled":true,"rental_uris":{"android":"levelo://app?vid=c7c7a92b-c148-41bb-b985-b3d124e5c071","ios":"levelo://app?vid=c7c7a92b-c148-41bb-b985-b3d124e5c071"},"vehicle_type_id":"4","last_reported":1746133798,"current_range_meters":12800,"station_id":"ce4bhgh2rcd13ifvqfb0","pricing_plan_id":"cebpf4jnsgd1na2vs0mg"},{"bike_id":"33cd3df6-c292-4bb5-8406-7bcf65451520","system_id":"levelo_inurba_marseille","lat":43.29629,"lon":5.40599,"is_reserved":false,"is_disabled":false,"rental_uris":{"android":"levelo://app?vid=33cd3df6-c292-4bb5-8406-7bcf65451520","ios":"levelo://app?vid=33cd3df6-c292-4bb5-8406-7bcf65451520"},"vehicle_type_id":"4","last_reported":1746133798,"current_range_meters":12800,"station_id":"ce4bh0h2rcd13ifvqd60","pricing_plan_id":"cebpf4jnsgd1na2vs0mg"},{"bike_id":"cdb5c586-f81c-4772-a04f-234da526a0f6","system_id":"levelo_inurba_marseille","lat":43.28111,"lon":5.37826,"is_reserved":false,"is_disabled":false,"rental_uris":{"android":"levelo://app?vid=cdb5c586-f81c-4772-a04f-234da526a0f6","ios":"levelo://app?vid=cdb5c586-f81c-4772-a04f-234da526a0f6"},"vehicle_type_id":"4","last_reported":1746133798,"current_range_meters":12400,"station_id":"ce4bha12rcd13ifvqee0","pricing_plan_id":"cebpf4jnsgd1na2vs0mg"},{"bike_id":"bec370ac-f156-473d-a05d-25e622ffb1ea","system_id":"levelo_inurba_marseille","lat":43.248068,"lon":5.374567,"is_reserved":false,"is_disabled":false,"rental_uris":{"android":"levelo://app?vid=bec370ac-f156-473d-a05d-25e622ffb1ea","ios":"levelo://app?vid=bec370ac-f156-473d-a05d-25e622ffb1ea"},"vehicle_type_id":"4","last_reported":1746133798,"current_range_meters":12800,"station_id":"ce4bhgh2rcd13ifvqfb0","pricing_plan_id":"cebpf4jnsgd1na2vs0mg"},{"bike_id":"bf0ded13-567f-4376-9241-fab3660dc401","system_id":"levelo_inurba_marseille","lat":43.23156,"lon":5.43702,"is_reserved":false,"is_disabled":false,"rental_uris":{"android":"levelo://app?vid=bf0ded13-567f-4376-9241-fab3660dc401","ios":"levelo://app?vid=bf0ded13-567f-4376-9241-fab3660dc401"},"vehicle_type_id":"4","last_reported":1746133798,"current_range_meters":12800,"station_id":"ce4bhmp2rcd13ifvqgog","pricing_plan_id":"cebpf4jnsgd1na2vs0mg"},{"bike_id":"e952cd5a-47b6-4f5a-9d91-6a2626ee4762","system_id":"levelo_inurba_marseille","lat":43.28661,"lon":5.38659,"is_reserved":false,"is_disabled":false,"rental_uris":{"android":"levelo://app?vid=e952cd5a-47b6-4f5a-9d91-6a2626ee4762","ios":"levelo://app?vid=e952cd5a-47b6-4f5a-9d91-6a2626ee4762"},"vehicle_type_id":"4","last_reported":1746133798,"current_range_meters":12800,"station_id":"ce4bh492rcd13ifvqdug","pricing_plan_id":"cebpf4jnsgd1na2vs0mg"},{"bike_id":"eb920f84-c4ac-4efe-89e2-9a36485b890f","system_id":"levelo_inurba_marseille","lat":43.305057,"lon":5.380437,"is_reserved":false,"is_disabled":false,"rental_uris":{"android":"levelo://app?vid=eb920f84-c4ac-4efe-89e2-9a36485b890f","ios":"levelo://app?vid=eb920f84-c4ac-4efe-89e2-9a36485b890f"},"vehicle_type_id":"4","last_reported":1746133798,"current_range_meters":13600,"station_id":"ce4bgup2rcd13ifvqcn0","pricing_plan_id":"cebpf4jnsgd1na2vs0mg"},{"bike_id":"27af1986-c75b-4d08-b960-d4807e940267","system_id":"levelo_inurba_marseille","lat":43.27967,"lon":5.38709,"is_reserved":false,"is_disabled":false,"rental_uris":{"android":"levelo://app?vid=27af1986-c75b-4d08-b960-d4807e940267","ios":"levelo://app?vid=27af1986-c75b-4d08-b960-d4807e940267"},"vehicle_type_id":"4","last_reported":1746133798,"current_range_meters":13600,"station_id":"ce4bhg12rcd13ifvqf80","pricing_plan_id":"cebpf4jnsgd1na2vs0mg"},{"bike_id":"0b9ac188-19a7-4ad4-8279-34f1318ce56d","system_id":"levelo_inurba_marseille","lat":43.31335,"lon":5.37765,"is_reserved":false,"is_disabled":false,"rental_uris":{"android":"levelo://app?vid=0b9ac188-19a7-4ad4-8279-34f1318ce56d","ios":"levelo://app?vid=0b9ac188-19a7-4ad4-8279-34f1318ce56d"},"vehicle_type_id":"4","last_reported":1746133798,"current_range_meters":13600,"station_id":"","pricing_plan_id":"cebpf4jnsgd1na2vs0mg"},{"bike_id":"1a8776fe-c0b3-4965-b9f4-aa845bbcdfa1","system_id":"levelo_inurba_marseille","lat":43.3188,"lon":5.40734,"is_reserved":false,"is_disabled":false,"rental_uris":{"android":"levelo://app?vid=1a8776fe-c0b3-4965-b9f4-aa845bbcdfa1","ios":"levelo://app?vid=1a8776fe-c0b3-4965-b9f4-aa845bbcdfa1"},"vehicle_type_id":"4","last_reported":1746133798,"current_range_meters":12800,"station_id":"ce4bhq12rcd13ifvqhig","pricing_plan_id":"cebpf4jnsgd1na2vs0mg"},{"bike_id":"16989a5c-f1a6-429f-bdba-dcebc0dfc1bc","system_id":"levelo_inurba_marseille","lat":43.28428,"lon":5.37494,"is_reserved":false,"is_disabled":false,"rental_uris":{"android":"levelo://app?vid=16989a5c-f1a6-429f-bdba-dcebc0dfc1bc","ios":"levelo://app?vid=16989a5c-f1a6-429f-bdba-dcebc0dfc1bc"},"vehicle_type_id":"4","last_reported":1746133798,"current_range_meters":13600,"station_id":"ce4bh412rcd13ifvqds0","pricing_plan_id":"cebpf4jnsgd1na2vs0mg"},{"bike_id":"78e3a516-3b43-4a65-88ee-19e41444cd3f","system_id":"levelo_inurba_marseille","lat":43.26575,"lon":5.39013,"is_reserved":false,"is_disabled":false,"rental_uris":{"android":"levelo://app?vid=78e3a516-3b43-4a65-88ee-19e41444cd3f","ios":"levelo://app?vid=78e3a516-3b43-4a65-88ee-19e41444cd3f"},"vehicle_type_id":"4","last_reported":1746133798,"current_range_meters":13600,"station_id":"ce4bhe12rcd13ifvqf30","pricing_plan_id":"cebpf4jnsgd1na2vs0mg"},{"bike_id":"6bac598d-6fca-4f3e-94d4-4f85255977cd","system_id":"levelo_inurba_marseille","lat":43.30798,"lon":5.38155,"is_reserved":false,"is_disabled":false,"rental_uris":{"android":"levelo://app?vid=6bac598d-6fca-4f3e-94d4-4f85255977cd","ios":"levelo://app?vid=6bac598d-6fca-4f3e-94d4-4f85255977cd"},"vehicle_type_id":"4","last_reported":1746133798,"current_range_meters":14000,"station_id":"ce4bgt12rcd13ifvqce0","pricing_plan_id":"cebpf4jnsgd1na2vs0mg"},{"bike_id":"df869c6e-30aa-4a10-bddb-7cd36ccc4eae","system_id":"levelo_inurba_marseille","lat":43.29895,"lon":5.4366,"is_reserved":false,"is_disabled":false,"rental_uris":{"android":"levelo://app?vid=df869c6e-30aa-4a10-bddb-7cd36ccc4eae","ios":"levelo://app?vid=df869c6e-30aa-4a10-bddb-7cd36ccc4eae"},"vehicle_type_id":"4","last_reported":1746133798,"current_range_meters":14000,"station_id":"ce4bhpp2rcd13ifvqhfg","pricing_plan_id":"cebpf4jnsgd1na2vs0mg"},{"bike_id":"4cc2b011-81f2-4910-af9d-0052ec928815","system_id":"levelo_inurba_marseille","lat":43.30377,"lon":5.42486,"is_reserved":false,"is_disabled":false,"rental_uris":{"android":"levelo://app?vid=4cc2b011-81f2-4910-af9d-0052ec928815","ios":"levelo://app?vid=4cc2b011-81f2-4910-af9d-0052ec928815"},"vehicle_type_id":"4","last_reported":1746133798,"current_range_meters":14000,"station_id":"ce4bhoh2rcd13ifvqh6g","pricing_plan_id":"cebpf4jnsgd1na2vs0mg"},{"bike_id":"2ae39ac1-aa30-4096-aaf7-7bc2d7533749","system_id":"levelo_inurba_marseille","lat":43.32357,"lon":5.36738,"is_reserved":false,"is_disabled":false,"rental_uris":{"android":"levelo://app?vid=2ae39ac1-aa30-4096-aaf7-7bc2d7533749","ios":"levelo://app?vid=2ae39ac1-aa30-4096-aaf7-7bc2d7533749"},"vehicle_type_id":"4","last_reported":1746133798,"current_range_meters":14000,"station_id":"ce4bhsh2rcd13ifvqi2g","pricing_plan_id":"cebpf4jnsgd1na2vs0mg"},{"bike_id":"64dd7ce2-f2ff-4bb1-aada-0de57adaad96","system_id":"levelo_inurba_marseille","lat":43.27912,"lon":5.37983,"is_reserved":false,"is_disabled":false,"rental_uris":{"android":"levelo://app?vid=64dd7ce2-f2ff-4bb1-aada-0de57adaad96","ios":"levelo://app?vid=64dd7ce2-f2ff-4bb1-aada-0de57adaad96"},"vehicle_type_id":"4","last_reported":1746133798,"current_range_meters":14000,"station_id":"ce4bhf92rcd13ifvqf50","pricing_plan_id":"cebpf4jnsgd1na2vs0mg"},{"bike_id":"7ad6e8e8-4d18-486c-a162-b3a23d49866e","system_id":"levelo_inurba_marseille","lat":43.28939,"lon":5.39621,"is_reserved":false,"is_disabled":false,"rental_uris":{"android":"levelo://app?vid=7ad6e8e8-4d18-486c-a162-b3a23d49866e","ios":"levelo://app?vid=7ad6e8e8-4d18-486c-a162-b3a23d49866e"},"vehicle_type_id":"4","last_reported":1746133798,"current_range_meters":14400,"station_id":"ce4bh3h2rcd13ifvqdn0","pricing_plan_id":"cebpf4jnsgd1na2vs0mg"},{"bike_id":"5bd2a0e8-ab02-4602-b837-61f72ab3ed70","system_id":"levelo_inurba_marseille","lat":43.31272,"lon":5.40167,"is_reserved":false,"is_disabled":false,"rental_uris":{"android":"levelo://app?vid=5bd2a0e8-ab02-4602-b837-61f72ab3ed70","ios":"levelo://app?vid=5bd2a0e8-ab02-4602-b837-61f72ab3ed70"},"vehicle_type_id":"4","last_reported":1746133798,"current_range_meters":14400,"station_id":"ce4bh092rcd13ifvqd30","pricing_plan_id":"cebpf4jnsgd1na2vs0mg"},{"bike_id":"dfe3d01c-effb-48a7-bb52-1b05d3d365e6","system_id":"levelo_inurba_marseille","lat":43.28451,"lon":5.39166,"is_reserved":false,"is_disabled":false,"rental_uris":{"android":"levelo://app?vid=dfe3d01c-effb-48a7-bb52-1b05d3d365e6","ios":"levelo://app?vid=dfe3d01c-effb-48a7-bb52-1b05d3d365e6"},"vehicle_type_id":"4","last_reported":1746133798,"current_range_meters":14400,"station_id":"ce4bhoh2rcd13ifvqh5g","pricing_plan_id":"cebpf4jnsgd1na2vs0mg"},{"bike_id":"51c95771-a2d7-48dc-8a12-9ea2338fec3a","system_id":"levelo_inurba_marseille","lat":43.29279,"lon":5.4013,"is_reserved":false,"is_disabled":false,"rental_uris":{"android":"levelo://app?vid=51c95771-a2d7-48dc-8a12-9ea2338fec3a","ios":"levelo://app?vid=51c95771-a2d7-48dc-8a12-9ea2338fec3a"},"vehicle_type_id":"4","last_reported":1746133798,"current_range_meters":14400,"station_id":"ce4bh312rcd13ifvqdk0","pricing_plan_id":"cebpf4jnsgd1na2vs0mg"},{"bike_id":"dd7aedfd-e3d8-4f73-8265-cc39385aff60","system_id":"levelo_inurba_marseille","lat":43.279512,"lon":5.410328,"is_reserved":false,"is_disabled":false,"rental_uris":{"android":"levelo://app?vid=dd7aedfd-e3d8-4f73-8265-cc39385aff60","ios":"levelo://app?vid=dd7aedfd-e3d8-4f73-8265-cc39385aff60"},"vehicle_type_id":"4","last_reported":1746133798,"current_range_meters":14400,"station_id":"ce4bhnp2rcd13ifvqh0g","pricing_plan_id":"cebpf4jnsgd1na2vs0mg"},{"bike_id":"c248b137-41e2-4ceb-a1a4-63cdbce177b4","system_id":"levelo_inurba_marseille","lat":43.29554,"lon":5.42288,"is_reserved":false,"is_disabled":false,"rental_uris":{"android":"levelo://app?vid=c248b137-41e2-4ceb-a1a4-63cdbce177b4","ios":"levelo://app?vid=c248b137-41e2-4ceb-a1a4-63cdbce177b4"},"vehicle_type_id":"4","last_reported":1746133798,"current_range_meters":14400,"station_id":"ce4bhph2rcd13ifvqhdg","pricing_plan_id":"cebpf4jnsgd1na2vs0mg"},{"bike_id":"b1c7fd48-c798-4646-897e-e42f3e61fe11","system_id":"levelo_inurba_marseille","lat":43.24803,"lon":5.37447,"is_reserved":false,"is_disabled":false,"rental_uris":{"android":"levelo://app?vid=b1c7fd48-c798-4646-897e-e42f3e61fe11","ios":"levelo://app?vid=b1c7fd48-c798-4646-897e-e42f3e61fe11"},"vehicle_type_id":"4","last_reported":1746133798,"current_range_meters":14400,"station_id":"ce4bhgh2rcd13ifvqfb0","pricing_plan_id":"cebpf4jnsgd1na2vs0mg"},{"bike_id":"0c9a8767-a71f-4ef0-b390-c3b7e9c632a8","system_id":"levelo_inurba_marseille","lat":43.21223,"lon":5.35049,"is_reserved":false,"is_disabled":true,"rental_uris":{"android":"levelo://app?vid=0c9a8767-a71f-4ef0-b390-c3b7e9c632a8","ios":"levelo://app?vid=0c9a8767-a71f-4ef0-b390-c3b7e9c632a8"},"vehicle_type_id":"4","last_reported":1746133798,"current_range_meters":14800,"station_id":"","pricing_plan_id":"cebpf4jnsgd1na2vs0mg"},{"bike_id":"2bbadc02-40b7-4b1b-b86d-d0f654fd8a3c","system_id":"levelo_inurba_marseille","lat":43.286953,"lon":5.399804,"is_reserved":false,"is_disabled":false,"rental_uris":{"android":"levelo://app?vid=2bbadc02-40b7-4b1b-b86d-d0f654fd8a3c","ios":"levelo://app?vid=2bbadc02-40b7-4b1b-b86d-d0f654fd8a3c"},"vehicle_type_id":"4","last_reported":1746133798,"current_range_meters":14800,"station_id":"ce4bho92rcd13ifvqh3g","pricing_plan_id":"cebpf4jnsgd1na2vs0mg"},{"bike_id":"558496c9-1eb8-4d0b-8e5d-9b72960a1b53","system_id":"levelo_inurba_marseille","lat":43.28672,"lon":5.3999,"is_reserved":false,"is_disabled":false,"rental_uris":{"android":"levelo://app?vid=558496c9-1eb8-4d0b-8e5d-9b72960a1b53","ios":"levelo://app?vid=558496c9-1eb8-4d0b-8e5d-9b72960a1b53"},"vehicle_type_id":"4","last_reported":1746133798,"current_range_meters":14800,"station_id":"ce4bho92rcd13ifvqh3g","pricing_plan_id":"cebpf4jnsgd1na2vs0mg"},{"bike_id":"994d6038-758d-4548-b237-2ac5c219e8fd","system_id":"levelo_inurba_marseille","lat":43.32072,"lon":5.41528,"is_reserved":false,"is_disabled":false,"rental_uris":{"android":"levelo://app?vid=994d6038-758d-4548-b237-2ac5c219e8fd","ios":"levelo://app?vid=994d6038-758d-4548-b237-2ac5c219e8fd"},"vehicle_type_id":"4","last_reported":1746133798,"current_range_meters":14800,"station_id":"ce4bhq92rcd13ifvqhkg","pricing_plan_id":"cebpf4jnsgd1na2vs0mg"},{"bike_id":"567896ee-4f18-489d-953c-966cedf10cab","system_id":"levelo_inurba_marseille","lat":43.31747,"lon":5.42403,"is_reserved":false,"is_disabled":false,"rental_uris":{"android":"levelo://app?vid=567896ee-4f18-489d-953c-966cedf10cab","ios":"levelo://app?vid=567896ee-4f18-489d-953c-966cedf10cab"},"vehicle_type_id":"4","last_reported":1746133798,"current_range_meters":15200,"station_id":"ce4bhp92rcd13ifvqhbg","pricing_plan_id":"cebpf4jnsgd1na2vs0mg"},{"bike_id":"a1bc46e8-b2c8-46e7-9cb3-5bb1d945c416","system_id":"levelo_inurba_marseille","lat":43.306536,"lon":5.400728,"is_reserved":false,"is_disabled":false,"rental_uris":{"android":"levelo://app?vid=a1bc46e8-b2c8-46e7-9cb3-5bb1d945c416","ios":"levelo://app?vid=a1bc46e8-b2c8-46e7-9cb3-5bb1d945c416"},"vehicle_type_id":"4","last_reported":1746133798,"current_range_meters":15200,"station_id":"ce4bh112rcd13ifvqda0","pricing_plan_id":"cebpf4jnsgd1na2vs0mg"},{"bike_id":"5e7a2faa-bf19-48f5-b508-df2e4ab901f9","system_id":"levelo_inurba_marseille","lat":43.283467,"lon":5.380966,"is_reserved":false,"is_disabled":false,"rental_uris":{"android":"levelo://app?vid=5e7a2faa-bf19-48f5-b508-df2e4ab901f9","ios":"levelo://app?vid=5e7a2faa-bf19-48f5-b508-df2e4ab901f9"},"vehicle_type_id":"4","last_reported":1746133798,"current_range_meters":15200,"station_id":"ce4bh412rcd13ifvqdr0","pricing_plan_id":"cebpf4jnsgd1na2vs0mg"},{"bike_id":"a1ce6e90-3120-4925-944b-5572cfa932e6","system_id":"levelo_inurba_marseille","lat":43.27994,"lon":5.41664,"is_reserved":false,"is_disabled":false,"rental_uris":{"android":"levelo://app?vid=a1ce6e90-3120-4925-944b-5572cfa932e6","ios":"levelo://app?vid=a1ce6e90-3120-4925-944b-5572cfa932e6"},"vehicle_type_id":"4","last_reported":1746133798,"current_range_meters":15200,"station_id":"ce4bho12rcd13ifvqh1g","pricing_plan_id":"cebpf4jnsgd1na2vs0mg"},{"bike_id":"67058a6a-1199-4119-a8f8-bd3080f44de1","system_id":"levelo_inurba_marseille","lat":43.3025,"lon":5.40081,"is_reserved":false,"is_disabled":false,"rental_uris":{"android":"levelo://app?vid=67058a6a-1199-4119-a8f8-bd3080f44de1","ios":"levelo://app?vid=67058a6a-1199-4119-a8f8-bd3080f44de1"},"vehicle_type_id":"4","last_reported":1746133798,"current_range_meters":15200,"station_id":"ce4bgvh2rcd13ifvqcs0","pricing_plan_id":"cebpf4jnsgd1na2vs0mg"},{"bike_id":"8da26619-b1d1-4b1f-8f6f-d89d34d7c392","system_id":"levelo_inurba_marseille","lat":43.29195,"lon":5.39328,"is_reserved":false,"is_disabled":false,"rental_uris":{"android":"levelo://app?vid=8da26619-b1d1-4b1f-8f6f-d89d34d7c392","ios":"levelo://app?vid=8da26619-b1d1-4b1f-8f6f-d89d34d7c392"},"vehicle_type_id":"4","last_reported":1746133798,"current_range_meters":15200,"station_id":"ce4bh192rcd13ifvqdd0","pricing_plan_id":"cebpf4jnsgd1na2vs0mg"},{"bike_id":"81ca8d36-8b8b-432d-993e-7d30265427d1","system_id":"levelo_inurba_marseille","lat":43.31884,"lon":5.40734,"is_reserved":false,"is_disabled":false,"rental_uris":{"android":"levelo://app?vid=81ca8d36-8b8b-432d-993e-7d30265427d1","ios":"levelo://app?vid=81ca8d36-8b8b-432d-993e-7d30265427d1"},"vehicle_type_id":"4","last_reported":1746133798,"current_range_meters":15200,"station_id":"ce4bhq12rcd13ifvqhig","pricing_plan_id":"cebpf4jnsgd1na2vs0mg"},{"bike_id":"c6367751-5259-47af-8172-aa232d17c2bd","system_id":"levelo_inurba_marseille","lat":43.31887,"lon":5.40743,"is_reserved":false,"is_disabled":false,"rental_uris":{"android":"levelo://app?vid=c6367751-5259-47af-8172-aa232d17c2bd","ios":"levelo://app?vid=c6367751-5259-47af-8172-aa232d17c2bd"},"vehicle_type_id":"4","last_reported":1746133798,"current_range_meters":15200,"station_id":"ce4bhq12rcd13ifvqhig","pricing_plan_id":"cebpf4jnsgd1na2vs0mg"},{"bike_id":"9132fb90-e0f2-4399-a394-36875e2c32c2","system_id":"levelo_inurba_marseille","lat":43.28484,"lon":5.38418,"is_reserved":false,"is_disabled":false,"rental_uris":{"android":"levelo://app?vid=9132fb90-e0f2-4399-a394-36875e2c32c2","ios":"levelo://app?vid=9132fb90-e0f2-4399-a394-36875e2c32c2"},"vehicle_type_id":"4","last_reported":1746133798,"current_range_meters":15200,"station_id":"ce4bh512rcd13ifvqe3g","pricing_plan_id":"cebpf4jnsgd1na2vs0mg"},{"bike_id":"f5dd7383-7baf-45e4-931e-8000721216d3","system_id":"levelo_inurba_marseille","lat":43.2946,"lon":5.3975,"is_reserved":false,"is_disabled":false,"rental_uris":{"android":"levelo://app?vid=f5dd7383-7baf-45e4-931e-8000721216d3","ios":"levelo://app?vid=f5dd7383-7baf-45e4-931e-8000721216d3"},"vehicle_type_id":"4","last_reported":1746133798,"current_range_meters":15200,"station_id":"ce4bh3h2rcd13ifvqdo0","pricing_plan_id":"cebpf4jnsgd1na2vs0mg"},{"bike_id":"8a0058ae-d47a-4696-afcc-53a66a14ba3f","system_id":"levelo_inurba_marseille","lat":43.29906,"lon":5.43668,"is_reserved":false,"is_disabled":false,"rental_uris":{"android":"levelo://app?vid=8a0058ae-d47a-4696-afcc-53a66a14ba3f","ios":"levelo://app?vid=8a0058ae-d47a-4696-afcc-53a66a14ba3f"},"vehicle_type_id":"4","last_reported":1746133798,"current_range_meters":16000,"station_id":"ce4bhpp2rcd13ifvqhfg","pricing_plan_id":"cebpf4jnsgd1na2vs0mg"},{"bike_id":"03f5b910-d1d5-49c8-a7a4-67a333daaa2e","system_id":"levelo_inurba_marseille","lat":43.32551,"lon":5.4146,"is_reserved":false,"is_disabled":false,"rental_uris":{"android":"levelo://app?vid=03f5b910-d1d5-49c8-a7a4-67a333daaa2e","ios":"levelo://app?vid=03f5b910-d1d5-49c8-a7a4-67a333daaa2e"},"vehicle_type_id":"4","last_reported":1746133798,"current_range_meters":16000,"station_id":"ce4bhq12rcd13ifvqhhg","pricing_plan_id":"cebpf4jnsgd1na2vs0mg"},{"bike_id":"c9892a14-219a-494b-ad6a-04d13e2c2524","system_id":"levelo_inurba_marseille","lat":43.30598,"lon":5.37217,"is_reserved":false,"is_disabled":false,"rental_uris":{"android":"levelo://app?vid=c9892a14-219a-494b-ad6a-04d13e2c2524","ios":"levelo://app?vid=c9892a14-219a-494b-ad6a-04d13e2c2524"},"vehicle_type_id":"4","last_reported":1746133798,"current_range_meters":16000,"station_id":"ce4bgqh2rcd13ifvqc4g","pricing_plan_id":"cebpf4jnsgd1na2vs0mg"},{"bike_id":"4c355f31-bbab-40c6-a093-ac50f3e75f95","system_id":"levelo_inurba_marseille","lat":43.26223,"lon":5.40451,"is_reserved":false,"is_disabled":false,"rental_uris":{"android":"levelo://app?vid=4c355f31-bbab-40c6-a093-ac50f3e75f95","ios":"levelo://app?vid=4c355f31-bbab-40c6-a093-ac50f3e75f95"},"vehicle_type_id":"4","last_reported":1746133798,"current_range_meters":16000,"station_id":"ce4bhmh2rcd13ifvqgmg","pricing_plan_id":"cebpf4jnsgd1na2vs0mg"},{"bike_id":"ffc572af-c36c-4960-8208-cf7710b9fb7d","system_id":"levelo_inurba_marseille","lat":43.29851,"lon":5.36284,"is_reserved":false,"is_disabled":false,"rental_uris":{"android":"levelo://app?vid=ffc572af-c36c-4960-8208-cf7710b9fb7d","ios":"levelo://app?vid=ffc572af-c36c-4960-8208-cf7710b9fb7d"},"vehicle_type_id":"4","last_reported":1746133798,"current_range_meters":16000,"station_id":"ce4bgpp2rcd13ifvqc3g","pricing_plan_id":"cebpf4jnsgd1na2vs0mg"},{"bike_id":"aaa7361e-2aed-4ab5-b86b-b5d18c767d33","system_id":"levelo_inurba_marseille","lat":43.2992,"lon":5.39501,"is_reserved":false,"is_disabled":true,"rental_uris":{"android":"levelo://app?vid=aaa7361e-2aed-4ab5-b86b-b5d18c767d33","ios":"levelo://app?vid=aaa7361e-2aed-4ab5-b86b-b5d18c767d33"},"vehicle_type_id":"4","last_reported":1746133798,"current_range_meters":16000,"station_id":"","pricing_plan_id":"cebpf4jnsgd1na2vs0mg"},{"bike_id":"f9eae9cb-3e30-4f98-9b5d-ec7d6955b1e9","system_id":"levelo_inurba_marseille","lat":43.31684,"lon":5.40473,"is_reserved":false,"is_disabled":false,"rental_uris":{"android":"levelo://app?vid=f9eae9cb-3e30-4f98-9b5d-ec7d6955b1e9","ios":"levelo://app?vid=f9eae9cb-3e30-4f98-9b5d-ec7d6955b1e9"},"vehicle_type_id":"4","last_reported":1746133798,"current_range_meters":16000,"station_id":"ce4bh012rcd13ifvqd00","pricing_plan_id":"cebpf4jnsgd1na2vs0mg"},{"bike_id":"bc7e2df7-f36c-4c85-ab6a-47c28b125579","system_id":"levelo_inurba_marseille","lat":43.32344,"lon":5.40619,"is_reserved":false,"is_disabled":false,"rental_uris":{"android":"levelo://app?vid=bc7e2df7-f36c-4c85-ab6a-47c28b125579","ios":"levelo://app?vid=bc7e2df7-f36c-4c85-ab6a-47c28b125579"},"vehicle_type_id":"4","last_reported":1746133798,"current_range_meters":16000,"station_id":"ce4bhq92rcd13ifvqhjg","pricing_plan_id":"cebpf4jnsgd1na2vs0mg"},{"bike_id":"b70d6dd7-db26-425e-af7f-d24732bf1da0","system_id":"levelo_inurba_marseille","lat":43.30645,"lon":5.40068,"is_reserved":false,"is_disabled":false,"rental_uris":{"android":"levelo://app?vid=b70d6dd7-db26-425e-af7f-d24732bf1da0","ios":"levelo://app?vid=b70d6dd7-db26-425e-af7f-d24732bf1da0"},"vehicle_type_id":"4","last_reported":1746133798,"current_range_meters":16000,"station_id":"ce4bh112rcd13ifvqda0","pricing_plan_id":"cebpf4jnsgd1na2vs0mg"},{"bike_id":"3c376cd3-a6e1-4153-b98d-ae36ec38c259","system_id":"levelo_inurba_marseille","lat":43.28697,"lon":5.39977,"is_reserved":false,"is_disabled":false,"rental_uris":{"android":"levelo://app?vid=3c376cd3-a6e1-4153-b98d-ae36ec38c259","ios":"levelo://app?vid=3c376cd3-a6e1-4153-b98d-ae36ec38c259"},"vehicle_type_id":"4","last_reported":1746133798,"current_range_meters":16000,"station_id":"ce4bho92rcd13ifvqh3g","pricing_plan_id":"cebpf4jnsgd1na2vs0mg"},{"bike_id":"846ba4ce-0b98-4d2a-b5e3-0d1b619e2327","system_id":"levelo_inurba_marseille","lat":43.30886,"lon":5.39644,"is_reserved":false,"is_disabled":false,"rental_uris":{"android":"levelo://app?vid=846ba4ce-0b98-4d2a-b5e3-0d1b619e2327","ios":"levelo://app?vid=846ba4ce-0b98-4d2a-b5e3-0d1b619e2327"},"vehicle_type_id":"4","last_reported":1746133798,"current_range_meters":16000,"station_id":"ce4bh012rcd13ifvqcv0","pricing_plan_id":"cebpf4jnsgd1na2vs0mg"},{"bike_id":"8a53bf42-acb8-4be5-ad1b-38650f6ba791","system_id":"levelo_inurba_marseille","lat":43.29948,"lon":5.36549,"is_reserved":false,"is_disabled":true,"rental_uris":{"android":"levelo://app?vid=8a53bf42-acb8-4be5-ad1b-38650f6ba791","ios":"levelo://app?vid=8a53bf42-acb8-4be5-ad1b-38650f6ba791"},"vehicle_type_id":"4","last_reported":1746133798,"current_range_meters":16400,"station_id":"ce4bgm92rcd13ifvqbr0","pricing_plan_id":"cebpf4jnsgd1na2vs0mg"},{"bike_id":"8a98d962-578d-444b-a5bb-91a62b69d98d","system_id":"levelo_inurba_marseille","lat":43.21188,"lon":5.35077,"is_reserved":false,"is_disabled":true,"rental_uris":{"android":"levelo://app?vid=8a98d962-578d-444b-a5bb-91a62b69d98d","ios":"levelo://app?vid=8a98d962-578d-444b-a5bb-91a62b69d98d"},"vehicle_type_id":"4","last_reported":1746133798,"current_range_meters":16400,"station_id":"st_cvj6sg6p6f1abm77japg","pricing_plan_id":"cebpf4jnsgd1na2vs0mg"},{"bike_id":"e70e6937-93f0-4736-a2bd-2815ca5c0c90","system_id":"levelo_inurba_marseille","lat":43.29302,"lon":5.37178,"is_reserved":false,"is_disabled":true,"rental_uris":{"android":"levelo://app?vid=e70e6937-93f0-4736-a2bd-2815ca5c0c90","ios":"levelo://app?vid=e70e6937-93f0-4736-a2bd-2815ca5c0c90"},"vehicle_type_id":"4","last_reported":1746133798,"current_range_meters":16400,"station_id":"ce4bgh92rcd13ifvqb40","pricing_plan_id":"cebpf4jnsgd1na2vs0mg"},{"bike_id":"5f561c59-7ec5-491c-9a09-18773e003a96","system_id":"levelo_inurba_marseille","lat":43.30604,"lon":5.37222,"is_reserved":false,"is_disabled":false,"rental_uris":{"android":"levelo://app?vid=5f561c59-7ec5-491c-9a09-18773e003a96","ios":"levelo://app?vid=5f561c59-7ec5-491c-9a09-18773e003a96"},"vehicle_type_id":"4","last_reported":1746133798,"current_range_meters":16400,"station_id":"ce4bgqh2rcd13ifvqc4g","pricing_plan_id":"cebpf4jnsgd1na2vs0mg"},{"bike_id":"9d9a92a0-a52c-4fdc-8730-8ef98a3dc703","system_id":"levelo_inurba_marseille","lat":43.311073,"lon":5.377737,"is_reserved":false,"is_disabled":false,"rental_uris":{"android":"levelo://app?vid=9d9a92a0-a52c-4fdc-8730-8ef98a3dc703","ios":"levelo://app?vid=9d9a92a0-a52c-4fdc-8730-8ef98a3dc703"},"vehicle_type_id":"4","last_reported":1746133798,"current_range_meters":16400,"station_id":"ce4bgt92rcd13ifvqcg0","pricing_plan_id":"cebpf4jnsgd1na2vs0mg"},{"bike_id":"ac393702-4005-4f66-a2f9-8c269a958dbe","system_id":"levelo_inurba_marseille","lat":43.27174,"lon":5.4099,"is_reserved":false,"is_disabled":false,"rental_uris":{"android":"levelo://app?vid=ac393702-4005-4f66-a2f9-8c269a958dbe","ios":"levelo://app?vid=ac393702-4005-4f66-a2f9-8c269a958dbe"},"vehicle_type_id":"4","last_reported":1746133798,"current_range_meters":16400,"station_id":"ce4bhl12rcd13ifvqgf0","pricing_plan_id":"cebpf4jnsgd1na2vs0mg"},{"bike_id":"7e7b52a9-d42e-47e0-b6ab-24cdef198c0e","system_id":"levelo_inurba_marseille","lat":43.31273,"lon":5.40169,"is_reserved":false,"is_disabled":false,"rental_uris":{"android":"levelo://app?vid=7e7b52a9-d42e-47e0-b6ab-24cdef198c0e","ios":"levelo://app?vid=7e7b52a9-d42e-47e0-b6ab-24cdef198c0e"},"vehicle_type_id":"4","last_reported":1746133798,"current_range_meters":16400,"station_id":"ce4bh092rcd13ifvqd30","pricing_plan_id":"cebpf4jnsgd1na2vs0mg"},{"bike_id":"7bd7c79e-5190-4568-b102-e02604e33904","system_id":"levelo_inurba_marseille","lat":43.30234,"lon":5.40512,"is_reserved":false,"is_disabled":false,"rental_uris":{"android":"levelo://app?vid=7bd7c79e-5190-4568-b102-e02604e33904","ios":"levelo://app?vid=7bd7c79e-5190-4568-b102-e02604e33904"},"vehicle_type_id":"4","last_reported":1746133798,"current_range_meters":16400,"station_id":"","pricing_plan_id":"cebpf4jnsgd1na2vs0mg"},{"bike_id":"23e9f033-98dd-42d0-911c-5b53fc9ea964","system_id":"levelo_inurba_marseille","lat":43.336,"lon":5.41025,"is_reserved":false,"is_disabled":false,"rental_uris":{"android":"levelo://app?vid=23e9f033-98dd-42d0-911c-5b53fc9ea964","ios":"levelo://app?vid=23e9f033-98dd-42d0-911c-5b53fc9ea964"},"vehicle_type_id":"4","last_reported":1746133798,"current_range_meters":16000,"station_id":"ce4bhqh2rcd13ifvqhmg","pricing_plan_id":"cebpf4jnsgd1na2vs0mg"},{"bike_id":"ac132c29-f819-4d62-974c-5c055342f4f0","system_id":"levelo_inurba_marseille","lat":43.2176,"lon":5.34602,"is_reserved":false,"is_disabled":true,"rental_uris":{"android":"levelo://app?vid=ac132c29-f819-4d62-974c-5c055342f4f0","ios":"levelo://app?vid=ac132c29-f819-4d62-974c-5c055342f4f0"},"vehicle_type_id":"4","last_reported":1746133798,"current_range_meters":16800,"station_id":"st_cvj6r9ubvosntc0bgbag","pricing_plan_id":"cebpf4jnsgd1na2vs0mg"},{"bike_id":"2033c1c4-40c4-48b4-8076-35891725f3ad","system_id":"levelo_inurba_marseille","lat":43.29799,"lon":5.404,"is_reserved":false,"is_disabled":false,"rental_uris":{"android":"levelo://app?vid=2033c1c4-40c4-48b4-8076-35891725f3ad","ios":"levelo://app?vid=2033c1c4-40c4-48b4-8076-35891725f3ad"},"vehicle_type_id":"4","last_reported":1746133798,"current_range_meters":16800,"station_id":"ce4bh112rcd13ifvqd90","pricing_plan_id":"cebpf4jnsgd1na2vs0mg"},{"bike_id":"1b4c0553-88e6-4759-8fe6-01bec4ae1b40","system_id":"levelo_inurba_marseille","lat":43.26503,"lon":5.39534,"is_reserved":false,"is_disabled":false,"rental_uris":{"android":"levelo://app?vid=1b4c0553-88e6-4759-8fe6-01bec4ae1b40","ios":"levelo://app?vid=1b4c0553-88e6-4759-8fe6-01bec4ae1b40"},"vehicle_type_id":"4","last_reported":1746133798,"current_range_meters":16800,"station_id":"ce4bhi12rcd13ifvqfq0","pricing_plan_id":"cebpf4jnsgd1na2vs0mg"},{"bike_id":"ed77a639-b17c-4157-b142-5c803a74650e","system_id":"levelo_inurba_marseille","lat":43.27038,"lon":5.40275,"is_reserved":false,"is_disabled":false,"rental_uris":{"android":"levelo://app?vid=ed77a639-b17c-4157-b142-5c803a74650e","ios":"levelo://app?vid=ed77a639-b17c-4157-b142-5c803a74650e"},"vehicle_type_id":"4","last_reported":1746133798,"current_range_meters":16800,"station_id":"ce4bhk92rcd13ifvqgc0","pricing_plan_id":"cebpf4jnsgd1na2vs0mg"},{"bike_id":"7fd80a67-7a4b-4131-aa61-22a40255ad15","system_id":"levelo_inurba_marseille","lat":43.31703,"lon":5.37726,"is_reserved":false,"is_disabled":true,"rental_uris":{"android":"levelo://app?vid=7fd80a67-7a4b-4131-aa61-22a40255ad15","ios":"levelo://app?vid=7fd80a67-7a4b-4131-aa61-22a40255ad15"},"vehicle_type_id":"4","last_reported":1746133798,"current_range_meters":16800,"station_id":"ce4bgth2rcd13ifvqch0","pricing_plan_id":"cebpf4jnsgd1na2vs0mg"},{"bike_id":"dea0cfb2-dc6f-4e03-84b4-8ee7ba9ad665","system_id":"levelo_inurba_marseille","lat":43.323665,"lon":5.388803,"is_reserved":false,"is_disabled":false,"rental_uris":{"android":"levelo://app?vid=dea0cfb2-dc6f-4e03-84b4-8ee7ba9ad665","ios":"levelo://app?vid=dea0cfb2-dc6f-4e03-84b4-8ee7ba9ad665"},"vehicle_type_id":"4","last_reported":1746133798,"current_range_meters":16800,"station_id":"ce4bhqp2rcd13ifvqhog","pricing_plan_id":"cebpf4jnsgd1na2vs0mg"},{"bike_id":"a48c5349-755d-4c22-9c09-6264dfa1fa96","system_id":"levelo_inurba_marseille","lat":43.3112,"lon":5.37759,"is_reserved":false,"is_disabled":false,"rental_uris":{"android":"levelo://app?vid=a48c5349-755d-4c22-9c09-6264dfa1fa96","ios":"levelo://app?vid=a48c5349-755d-4c22-9c09-6264dfa1fa96"},"vehicle_type_id":"4","last_reported":1746133798,"current_range_meters":16800,"station_id":"ce4bgt92rcd13ifvqcg0","pricing_plan_id":"cebpf4jnsgd1na2vs0mg"},{"bike_id":"6623491d-b23e-494a-b8f5-05f0c8a0d399","system_id":"levelo_inurba_marseille","lat":43.303253,"lon":5.404317,"is_reserved":false,"is_disabled":false,"rental_uris":{"android":"levelo://app?vid=6623491d-b23e-494a-b8f5-05f0c8a0d399","ios":"levelo://app?vid=6623491d-b23e-494a-b8f5-05f0c8a0d399"},"vehicle_type_id":"4","last_reported":1746133798,"current_range_meters":16800,"station_id":"ce4bh012rcd13ifvqd10","pricing_plan_id":"cebpf4jnsgd1na2vs0mg"},{"bike_id":"af49b98b-bf4d-4197-81e1-db0a8aab9d67","system_id":"levelo_inurba_marseille","lat":43.30256,"lon":5.40066,"is_reserved":false,"is_disabled":false,"rental_uris":{"android":"levelo://app?vid=af49b98b-bf4d-4197-81e1-db0a8aab9d67","ios":"levelo://app?vid=af49b98b-bf4d-4197-81e1-db0a8aab9d67"},"vehicle_type_id":"4","last_reported":1746133798,"current_range_meters":16800,"station_id":"ce4bgvh2rcd13ifvqcs0","pricing_plan_id":"cebpf4jnsgd1na2vs0mg"},{"bike_id":"a441347f-6d3e-4ecb-8bf6-73429dab05ee","system_id":"levelo_inurba_marseille","lat":43.309275,"lon":5.401392,"is_reserved":false,"is_disabled":false,"rental_uris":{"android":"levelo://app?vid=a441347f-6d3e-4ecb-8bf6-73429dab05ee","ios":"levelo://app?vid=a441347f-6d3e-4ecb-8bf6-73429dab05ee"},"vehicle_type_id":"4","last_reported":1746133798,"current_range_meters":16800,"station_id":"ce4bgvp2rcd13ifvqct0","pricing_plan_id":"cebpf4jnsgd1na2vs0mg"},{"bike_id":"569129b7-d1d1-4b0f-bb83-61f78652a2b4","system_id":"levelo_inurba_marseille","lat":43.30363,"lon":5.41881,"is_reserved":false,"is_disabled":false,"rental_uris":{"android":"levelo://app?vid=569129b7-d1d1-4b0f-bb83-61f78652a2b4","ios":"levelo://app?vid=569129b7-d1d1-4b0f-bb83-61f78652a2b4"},"vehicle_type_id":"4","last_reported":1746133798,"current_range_meters":17200,"station_id":"ce4bhop2rcd13ifvqh7g","pricing_plan_id":"cebpf4jnsgd1na2vs0mg"},{"bike_id":"61ada823-7afc-4bae-8219-f47e25313745","system_id":"levelo_inurba_marseille","lat":43.25715,"lon":5.4179,"is_reserved":false,"is_disabled":false,"rental_uris":{"android":"levelo://app?vid=61ada823-7afc-4bae-8219-f47e25313745","ios":"levelo://app?vid=61ada823-7afc-4bae-8219-f47e25313745"},"vehicle_type_id":"4","last_reported":1746133798,"current_range_meters":17200,"station_id":"","pricing_plan_id":"cebpf4jnsgd1na2vs0mg"},{"bike_id":"fb970dc0-2974-4aad-b2a9-f4298230f16a","system_id":"levelo_inurba_marseille","lat":43.23145,"lon":5.43699,"is_reserved":false,"is_disabled":false,"rental_uris":{"android":"levelo://app?vid=fb970dc0-2974-4aad-b2a9-f4298230f16a","ios":"levelo://app?vid=fb970dc0-2974-4aad-b2a9-f4298230f16a"},"vehicle_type_id":"4","last_reported":1746133798,"current_range_meters":17200,"station_id":"ce4bhmp2rcd13ifvqgog","pricing_plan_id":"cebpf4jnsgd1na2vs0mg"},{"bike_id":"924ebe6f-d3da-412d-b51d-9e4065478efe","system_id":"levelo_inurba_marseille","lat":43.32544,"lon":5.41437,"is_reserved":false,"is_disabled":false,"rental_uris":{"android":"levelo://app?vid=924ebe6f-d3da-412d-b51d-9e4065478efe","ios":"levelo://app?vid=924ebe6f-d3da-412d-b51d-9e4065478efe"},"vehicle_type_id":"4","last_reported":1746133798,"current_range_meters":17200,"station_id":"ce4bhq12rcd13ifvqhhg","pricing_plan_id":"cebpf4jnsgd1na2vs0mg"},{"bike_id":"43570242-c8cc-43fc-a26a-28bd415865fa","system_id":"levelo_inurba_marseille","lat":43.32487,"lon":5.36556,"is_reserved":false,"is_disabled":false,"rental_uris":{"android":"levelo://app?vid=43570242-c8cc-43fc-a26a-28bd415865fa","ios":"levelo://app?vid=43570242-c8cc-43fc-a26a-28bd415865fa"},"vehicle_type_id":"4","last_reported":1746133798,"current_range_meters":17200,"station_id":"ce4bhs12rcd13ifvqhvg","pricing_plan_id":"cebpf4jnsgd1na2vs0mg"},{"bike_id":"38b512de-66ad-4824-8d38-f5b32115b646","system_id":"levelo_inurba_marseille","lat":43.308857,"lon":5.396497,"is_reserved":false,"is_disabled":false,"rental_uris":{"android":"levelo://app?vid=38b512de-66ad-4824-8d38-f5b32115b646","ios":"levelo://app?vid=38b512de-66ad-4824-8d38-f5b32115b646"},"vehicle_type_id":"4","last_reported":1746133798,"current_range_meters":17200,"station_id":"ce4bh012rcd13ifvqcv0","pricing_plan_id":"cebpf4jnsgd1na2vs0mg"},{"bike_id":"b5f431d2-6627-435a-971a-a344e82f47c9","system_id":"levelo_inurba_marseille","lat":43.30938,"lon":5.4014,"is_reserved":false,"is_disabled":false,"rental_uris":{"android":"levelo://app?vid=b5f431d2-6627-435a-971a-a344e82f47c9","ios":"levelo://app?vid=b5f431d2-6627-435a-971a-a344e82f47c9"},"vehicle_type_id":"4","last_reported":1746133798,"current_range_meters":17200,"station_id":"ce4bgvp2rcd13ifvqct0","pricing_plan_id":"cebpf4jnsgd1na2vs0mg"},{"bike_id":"5df0f82b-f3fc-4428-8539-f9699aeaf67f","system_id":"levelo_inurba_marseille","lat":43.29189,"lon":5.40187,"is_reserved":false,"is_disabled":false,"rental_uris":{"android":"levelo://app?vid=5df0f82b-f3fc-4428-8539-f9699aeaf67f","ios":"levelo://app?vid=5df0f82b-f3fc-4428-8539-f9699aeaf67f"},"vehicle_type_id":"4","last_reported":1746133798,"current_range_meters":17600,"station_id":"","pricing_plan_id":"cebpf4jnsgd1na2vs0mg"},{"bike_id":"6c320932-0109-4c33-a7df-df18d068c365","system_id":"levelo_inurba_marseille","lat":43.29262,"lon":5.40906,"is_reserved":false,"is_disabled":false,"rental_uris":{"android":"levelo://app?vid=6c320932-0109-4c33-a7df-df18d068c365","ios":"levelo://app?vid=6c320932-0109-4c33-a7df-df18d068c365"},"vehicle_type_id":"4","last_reported":1746133798,"current_range_meters":17200,"station_id":"ce4bh192rcd13ifvqdc0","pricing_plan_id":"cebpf4jnsgd1na2vs0mg"},{"bike_id":"2a70f651-31f9-4341-9601-b357fc207ecd","system_id":"levelo_inurba_marseille","lat":43.29628,"lon":5.40601,"is_reserved":false,"is_disabled":false,"rental_uris":{"android":"levelo://app?vid=2a70f651-31f9-4341-9601-b357fc207ecd","ios":"levelo://app?vid=2a70f651-31f9-4341-9601-b357fc207ecd"},"vehicle_type_id":"4","last_reported":1746133798,"current_range_meters":17600,"station_id":"ce4bh0h2rcd13ifvqd60","pricing_plan_id":"cebpf4jnsgd1na2vs0mg"},{"bike_id":"fea90467-7b9b-451d-849d-003674ab8347","system_id":"levelo_inurba_marseille","lat":43.27237,"lon":5.39218,"is_reserved":false,"is_disabled":true,"rental_uris":{"android":"levelo://app?vid=fea90467-7b9b-451d-849d-003674ab8347","ios":"levelo://app?vid=fea90467-7b9b-451d-849d-003674ab8347"},"vehicle_type_id":"4","last_reported":1746133798,"current_range_meters":17600,"station_id":"ce4bhhp2rcd13ifvqfm0","pricing_plan_id":"cebpf4jnsgd1na2vs0mg"},{"bike_id":"da658829-0fa2-41f3-ad48-9d30aae08333","system_id":"levelo_inurba_marseille","lat":43.3056,"lon":5.3995,"is_reserved":false,"is_disabled":false,"rental_uris":{"android":"levelo://app?vid=da658829-0fa2-41f3-ad48-9d30aae08333","ios":"levelo://app?vid=da658829-0fa2-41f3-ad48-9d30aae08333"},"vehicle_type_id":"4","last_reported":1746133798,"current_range_meters":17600,"station_id":"","pricing_plan_id":"cebpf4jnsgd1na2vs0mg"},{"bike_id":"ac2d860c-0dfe-4e8e-a2be-8ef654959057","system_id":"levelo_inurba_marseille","lat":43.3171,"lon":5.43708,"is_reserved":false,"is_disabled":false,"rental_uris":{"android":"levelo://app?vid=ac2d860c-0dfe-4e8e-a2be-8ef654959057","ios":"levelo://app?vid=ac2d860c-0dfe-4e8e-a2be-8ef654959057"},"vehicle_type_id":"4","last_reported":1746133798,"current_range_meters":17200,"station_id":"ce4bhp92rcd13ifvqhcg","pricing_plan_id":"cebpf4jnsgd1na2vs0mg"},